{"last_updated":1724632887,"ttl":30,"version":"2.2","data":{"bikes":[{"bike_id":"64e8605d-0b4b-4eaa-a5c9-812f074a826a","system_id":"levelo_inurba_marseille","lat":43.309076,"lon":5.368465,"is_reserved":false,"is_disabled":false,"rental_uris":{"android":"levelo://app?vid=64e8605d-0b4b-4eaa-a5c9-812f074a826a","ios":"levelo://app?vid=64e8605d-0b4b-4eaa-a5c9-812f074a826a"},"vehicle_type_id":"4","last_reported":1724632887,"current_range_meters":26400,"station_id":"ce4bgn92rcd13ifvqbvg","pricing_plan_id":"cebpf4jnsgd1na2vs0mg"},{"bike_id":"bff6b0e7-d262-4bec-b9b4-864655a3b868","system_id":"levelo_inurba_marseille","lat":43.30976,"lon":5.37139,"is_reserved":false,"is_disabled":false,"rental_uris":{"android":"levelo://app?vid=bff6b0e7-d262-4bec-b9b4-864655a3b868","ios":"levelo://app?vid=bff6b0e7-d262-4bec-b9b4-864655a3b868"},"vehicle_type_id":"4","last_reported":1724632887,"current_range_meters":4800,"station_id":"","pricing_plan_id":"cebpf4jnsgd1na2vs0mg"},{"bike_id":"a80f51f0-581f-4949-b57d-94e342d669a7","system_id":"levelo_inurba_marseille","lat":43.314811,"lon":5.373103,"is_reserved":false,"is_disabled":false,"rental_uris":{"android":"levelo://app?vid=a80f51f0-581f-4949-b57d-94e342d669a7","ios":"levelo://app?vid=a80f51f0-581f-4949-b57d-94e342d669a7"},"vehicle_type_id":"4","last_reported":1724632887,"current_range_meters":15600,"station_id":"ce4bgt12rcd13ifvqcd0","pricing_plan_id":"cebpf4jnsgd1na2vs0mg"},{"bike_id":"f4c9a8c3-5064-4acd-ae2a-afd9e5abb6c5","system_id":"levelo_inurba_marseille","lat":43.314811,"lon":5.373103,"is_reserved":false,"is_disabled":false,"rental_uris":{"android":"levelo://app?vid=f4c9a8c3-5064-4acd-ae2a-afd9e5abb6c5","ios":"levelo://app?vid=f4c9a8c3-5064-4acd-ae2a-afd9e5abb6c5"},"vehicle_type_id":"4","last_reported":1724632887,"current_range_meters":18800,"station_id":"ce4bgt12rcd13ifvqcd0","pricing_plan_id":"cebpf4jnsgd1na2vs0mg"},{"bike_id":"bf20bdf6-fd03-41fb-9793-c91dec3c6218","system_id":"levelo_inurba_marseille","lat":43.30898,"lon":5.3719,"is_reserved":false,"is_disabled":false,"rental_uris":{"android":"levelo://app?vid=bf20bdf6-fd03-41fb-9793-c91dec3c6218","ios":"levelo://app?vid=bf20bdf6-fd03-41fb-9793-c91dec3c6218"},"vehicle_type_id":"4","last_reported":1724632887,"current_range_meters":29600,"station_id":"ce4bguh2rcd13ifvqckg","pricing_plan_id":"cebpf4jnsgd1na2vs0mg"},{"bike_id":"e2eb3c50-f16f-4329-8680-8cc23275f6fc","system_id":"levelo_inurba_marseille","lat":43.308835,"lon":5.371843,"is_reserved":false,"is_disabled":false,"rental_uris":{"android":"levelo://app?vid=e2eb3c50-f16f-4329-8680-8cc23275f6fc","ios":"levelo://app?vid=e2eb3c50-f16f-4329-8680-8cc23275f6fc"},"vehicle_type_id":"4","last_reported":1724632887,"current_range_meters":27600,"station_id":"ce4bguh2rcd13ifvqckg","pricing_plan_id":"cebpf4jnsgd1na2vs0mg"},{"bike_id":"22e5bbed-2f16-44d7-87ab-35b763b9c6a0","system_id":"levelo_inurba_marseille","lat":43.309034,"lon":5.371783,"is_reserved":false,"is_disabled":false,"rental_uris":{"android":"levelo://app?vid=22e5bbed-2f16-44d7-87ab-35b763b9c6a0","ios":"levelo://app?vid=22e5bbed-2f16-44d7-87ab-35b763b9c6a0"},"vehicle_type_id":"4","last_reported":1724632887,"current_range_meters":7200,"station_id":"ce4bguh2rcd13ifvqckg","pricing_plan_id":"cebpf4jnsgd1na2vs0mg"},{"bike_id":"b2ca5db3-0e74-4f08-9d4d-c1acbe41c0e3","system_id":"levelo_inurba_marseille","lat":43.309034,"lon":5.371783,"is_reserved":false,"is_disabled":false,"rental_uris":{"android":"levelo://app?vid=b2ca5db3-0e74-4f08-9d4d-c1acbe41c0e3","ios":"levelo://app?vid=b2ca5db3-0e74-4f08-9d4d-c1acbe41c0e3"},"vehicle_type_id":"4","last_reported":1724632887,"current_range_meters":14400,"station_id":"ce4bguh2rcd13ifvqckg","pricing_plan_id":"cebpf4jnsgd1na2vs0mg"},{"bike_id":"3f0acb10-de9d-47f1-9415-4ffb70d4c80a","system_id":"levelo_inurba_marseille","lat":43.31313,"lon":5.37548,"is_reserved":false,"is_disabled":false,"rental_uris":{"android":"levelo://app?vid=3f0acb10-de9d-47f1-9415-4ffb70d4c80a","ios":"levelo://app?vid=3f0acb10-de9d-47f1-9415-4ffb70d4c80a"},"vehicle_type_id":"4","last_reported":1724632887,"current_range_meters":2400,"station_id":"","pricing_plan_id":"cebpf4jnsgd1na2vs0mg"},{"bike_id":"c904059d-18c0-4aa2-a667-34273fe55412","system_id":"levelo_inurba_marseille","lat":43.30537,"lon":5.367345,"is_reserved":false,"is_disabled":false,"rental_uris":{"android":"levelo://app?vid=c904059d-18c0-4aa2-a667-34273fe55412","ios":"levelo://app?vid=c904059d-18c0-4aa2-a667-34273fe55412"},"vehicle_type_id":"4","last_reported":1724632887,"current_range_meters":25200,"station_id":"ce4bgrp2rcd13ifvqc9g","pricing_plan_id":"cebpf4jnsgd1na2vs0mg"},{"bike_id":"1b1644bc-23f1-4f40-99b2-881c61f1c7ad","system_id":"levelo_inurba_marseille","lat":43.305989,"lon":5.37225,"is_reserved":false,"is_disabled":false,"rental_uris":{"android":"levelo://app?vid=1b1644bc-23f1-4f40-99b2-881c61f1c7ad","ios":"levelo://app?vid=1b1644bc-23f1-4f40-99b2-881c61f1c7ad"},"vehicle_type_id":"4","last_reported":1724632887,"current_range_meters":14800,"station_id":"ce4bgqh2rcd13ifvqc4g","pricing_plan_id":"cebpf4jnsgd1na2vs0mg"},{"bike_id":"e41e29e8-4ea9-46d9-9510-13fce6ee4e7f","system_id":"levelo_inurba_marseille","lat":43.305706,"lon":5.365654,"is_reserved":false,"is_disabled":false,"rental_uris":{"android":"levelo://app?vid=e41e29e8-4ea9-46d9-9510-13fce6ee4e7f","ios":"levelo://app?vid=e41e29e8-4ea9-46d9-9510-13fce6ee4e7f"},"vehicle_type_id":"4","last_reported":1724632887,"current_range_meters":28800,"station_id":"ce4bgs12rcd13ifvqcag","pricing_plan_id":"cebpf4jnsgd1na2vs0mg"},{"bike_id":"5ef23250-fed4-4d85-9d78-3f5b79bae414","system_id":"levelo_inurba_marseille","lat":43.305989,"lon":5.37225,"is_reserved":false,"is_disabled":false,"rental_uris":{"android":"levelo://app?vid=5ef23250-fed4-4d85-9d78-3f5b79bae414","ios":"levelo://app?vid=5ef23250-fed4-4d85-9d78-3f5b79bae414"},"vehicle_type_id":"4","last_reported":1724632887,"current_range_meters":15200,"station_id":"ce4bgqh2rcd13ifvqc4g","pricing_plan_id":"cebpf4jnsgd1na2vs0mg"},{"bike_id":"f401f371-06ed-4aa0-b368-792eeebe89d4","system_id":"levelo_inurba_marseille","lat":43.305989,"lon":5.37225,"is_reserved":false,"is_disabled":false,"rental_uris":{"android":"levelo://app?vid=f401f371-06ed-4aa0-b368-792eeebe89d4","ios":"levelo://app?vid=f401f371-06ed-4aa0-b368-792eeebe89d4"},"vehicle_type_id":"4","last_reported":1724632887,"current_range_meters":27200,"station_id":"ce4bgqh2rcd13ifvqc4g","pricing_plan_id":"cebpf4jnsgd1na2vs0mg"},{"bike_id":"a83f5e08-30c8-4573-adc9-b032a620b349","system_id":"levelo_inurba_marseille","lat":43.305989,"lon":5.37225,"is_reserved":false,"is_disabled":false,"rental_uris":{"android":"levelo://app?vid=a83f5e08-30c8-4573-adc9-b032a620b349","ios":"levelo://app?vid=a83f5e08-30c8-4573-adc9-b032a620b349"},"vehicle_type_id":"4","last_reported":1724632887,"current_range_meters":5600,"station_id":"ce4bgqh2rcd13ifvqc4g","pricing_plan_id":"cebpf4jnsgd1na2vs0mg"},{"bike_id":"8f9799e2-723a-474f-935d-729dd99659b4","system_id":"levelo_inurba_marseille","lat":43.311131,"lon":5.377651,"is_reserved":false,"is_disabled":false,"rental_uris":{"android":"levelo://app?vid=8f9799e2-723a-474f-935d-729dd99659b4","ios":"levelo://app?vid=8f9799e2-723a-474f-935d-729dd99659b4"},"vehicle_type_id":"4","last_reported":1724632887,"current_range_meters":22000,"station_id":"ce4bgt92rcd13ifvqcg0","pricing_plan_id":"cebpf4jnsgd1na2vs0mg"},{"bike_id":"e1181aa0-5c08-434e-9f7e-eab9fe03dc4a","system_id":"levelo_inurba_marseille","lat":43.311131,"lon":5.377651,"is_reserved":false,"is_disabled":false,"rental_uris":{"android":"levelo://app?vid=e1181aa0-5c08-434e-9f7e-eab9fe03dc4a","ios":"levelo://app?vid=e1181aa0-5c08-434e-9f7e-eab9fe03dc4a"},"vehicle_type_id":"4","last_reported":1724632887,"current_range_meters":31200,"station_id":"ce4bgt92rcd13ifvqcg0","pricing_plan_id":"cebpf4jnsgd1na2vs0mg"},{"bike_id":"e6c427c9-8a0c-4d39-9c46-310d25bebb99","system_id":"levelo_inurba_marseille","lat":43.311131,"lon":5.377651,"is_reserved":false,"is_disabled":false,"rental_uris":{"android":"levelo://app?vid=e6c427c9-8a0c-4d39-9c46-310d25bebb99","ios":"levelo://app?vid=e6c427c9-8a0c-4d39-9c46-310d25bebb99"},"vehicle_type_id":"4","last_reported":1724632887,"current_range_meters":31200,"station_id":"ce4bgt92rcd13ifvqcg0","pricing_plan_id":"cebpf4jnsgd1na2vs0mg"},{"bike_id":"b7257c4c-b012-40bd-9b57-4f987c74c5bf","system_id":"levelo_inurba_marseille","lat":43.311258,"lon":5.377594,"is_reserved":false,"is_disabled":false,"rental_uris":{"android":"levelo://app?vid=b7257c4c-b012-40bd-9b57-4f987c74c5bf","ios":"levelo://app?vid=b7257c4c-b012-40bd-9b57-4f987c74c5bf"},"vehicle_type_id":"4","last_reported":1724632887,"current_range_meters":6000,"station_id":"ce4bgt92rcd13ifvqcg0","pricing_plan_id":"cebpf4jnsgd1na2vs0mg"},{"bike_id":"24849340-f97e-47e1-a273-c8e2d41b111b","system_id":"levelo_inurba_marseille","lat":43.311131,"lon":5.377651,"is_reserved":false,"is_disabled":false,"rental_uris":{"android":"levelo://app?vid=24849340-f97e-47e1-a273-c8e2d41b111b","ios":"levelo://app?vid=24849340-f97e-47e1-a273-c8e2d41b111b"},"vehicle_type_id":"4","last_reported":1724632887,"current_range_meters":12400,"station_id":"ce4bgt92rcd13ifvqcg0","pricing_plan_id":"cebpf4jnsgd1na2vs0mg"},{"bike_id":"609a47a3-1bd1-4371-b14e-109091e03ee6","system_id":"levelo_inurba_marseille","lat":43.311131,"lon":5.377651,"is_reserved":false,"is_disabled":false,"rental_uris":{"android":"levelo://app?vid=609a47a3-1bd1-4371-b14e-109091e03ee6","ios":"levelo://app?vid=609a47a3-1bd1-4371-b14e-109091e03ee6"},"vehicle_type_id":"4","last_reported":1724632887,"current_range_meters":30800,"station_id":"ce4bgt92rcd13ifvqcg0","pricing_plan_id":"cebpf4jnsgd1na2vs0mg"},{"bike_id":"69722c44-7a13-41cb-bf0f-8a78295ea84f","system_id":"levelo_inurba_marseille","lat":43.311131,"lon":5.377651,"is_reserved":false,"is_disabled":false,"rental_uris":{"android":"levelo://app?vid=69722c44-7a13-41cb-bf0f-8a78295ea84f","ios":"levelo://app?vid=69722c44-7a13-41cb-bf0f-8a78295ea84f"},"vehicle_type_id":"4","last_reported":1724632887,"current_range_meters":20800,"station_id":"ce4bgt92rcd13ifvqcg0","pricing_plan_id":"cebpf4jnsgd1na2vs0mg"},{"bike_id":"10d3dd62-e8ac-4e31-9599-e4679c5ba2b4","system_id":"levelo_inurba_marseille","lat":43.311131,"lon":5.377651,"is_reserved":false,"is_disabled":false,"rental_uris":{"android":"levelo://app?vid=10d3dd62-e8ac-4e31-9599-e4679c5ba2b4","ios":"levelo://app?vid=10d3dd62-e8ac-4e31-9599-e4679c5ba2b4"},"vehicle_type_id":"4","last_reported":1724632887,"current_range_meters":0,"station_id":"ce4bgt92rcd13ifvqcg0","pricing_plan_id":"cebpf4jnsgd1na2vs0mg"},{"bike_id":"18241f5c-adc5-44da-a281-2316bac22738","system_id":"levelo_inurba_marseille","lat":43.311125,"lon":5.377624,"is_reserved":false,"is_disabled":false,"rental_uris":{"android":"levelo://app?vid=18241f5c-adc5-44da-a281-2316bac22738","ios":"levelo://app?vid=18241f5c-adc5-44da-a281-2316bac22738"},"vehicle_type_id":"4","last_reported":1724632887,"current_range_meters":28400,"station_id":"ce4bgt92rcd13ifvqcg0","pricing_plan_id":"cebpf4jnsgd1na2vs0mg"},{"bike_id":"00d8fccd-d13c-4305-b7c4-a8e07151d660","system_id":"levelo_inurba_marseille","lat":43.311125,"lon":5.377624,"is_reserved":false,"is_disabled":false,"rental_uris":{"android":"levelo://app?vid=00d8fccd-d13c-4305-b7c4-a8e07151d660","ios":"levelo://app?vid=00d8fccd-d13c-4305-b7c4-a8e07151d660"},"vehicle_type_id":"4","last_reported":1724632887,"current_range_meters":7200,"station_id":"ce4bgt92rcd13ifvqcg0","pricing_plan_id":"cebpf4jnsgd1na2vs0mg"},{"bike_id":"d8d8ae69-e735-43f1-a6bc-9d6ad456d274","system_id":"levelo_inurba_marseille","lat":43.311125,"lon":5.377624,"is_reserved":false,"is_disabled":false,"rental_uris":{"android":"levelo://app?vid=d8d8ae69-e735-43f1-a6bc-9d6ad456d274","ios":"levelo://app?vid=d8d8ae69-e735-43f1-a6bc-9d6ad456d274"},"vehicle_type_id":"4","last_reported":1724632887,"current_range_meters":21600,"station_id":"ce4bgt92rcd13ifvqcg0","pricing_plan_id":"cebpf4jnsgd1na2vs0mg"},{"bike_id":"f46e9a9d-6c21-4bb9-bab6-f6bd2bb58fb7","system_id":"levelo_inurba_marseille","lat":43.311131,"lon":5.377651,"is_reserved":false,"is_disabled":false,"rental_uris":{"android":"levelo://app?vid=f46e9a9d-6c21-4bb9-bab6-f6bd2bb58fb7","ios":"levelo://app?vid=f46e9a9d-6c21-4bb9-bab6-f6bd2bb58fb7"},"vehicle_type_id":"4","last_reported":1724632887,"current_range_meters":23600,"station_id":"ce4bgt92rcd13ifvqcg0","pricing_plan_id":"cebpf4jnsgd1na2vs0mg"},{"bike_id":"eeb51ae1-184a-4df2-8aba-8b06849d190c","system_id":"levelo_inurba_marseille","lat":43.311125,"lon":5.377624,"is_reserved":false,"is_disabled":false,"rental_uris":{"android":"levelo://app?vid=eeb51ae1-184a-4df2-8aba-8b06849d190c","ios":"levelo://app?vid=eeb51ae1-184a-4df2-8aba-8b06849d190c"},"vehicle_type_id":"4","last_reported":1724632887,"current_range_meters":21600,"station_id":"ce4bgt92rcd13ifvqcg0","pricing_plan_id":"cebpf4jnsgd1na2vs0mg"},{"bike_id":"7a552f73-9302-4662-8207-ffd0125f10ce","system_id":"levelo_inurba_marseille","lat":43.307945,"lon":5.376487,"is_reserved":false,"is_disabled":false,"rental_uris":{"android":"levelo://app?vid=7a552f73-9302-4662-8207-ffd0125f10ce","ios":"levelo://app?vid=7a552f73-9302-4662-8207-ffd0125f10ce"},"vehicle_type_id":"4","last_reported":1724632887,"current_range_meters":15200,"station_id":"ce4bgv92rcd13ifvqcq0","pricing_plan_id":"cebpf4jnsgd1na2vs0mg"},{"bike_id":"e2351027-988c-4359-b696-7590ca27aefd","system_id":"levelo_inurba_marseille","lat":43.307945,"lon":5.376487,"is_reserved":false,"is_disabled":false,"rental_uris":{"android":"levelo://app?vid=e2351027-988c-4359-b696-7590ca27aefd","ios":"levelo://app?vid=e2351027-988c-4359-b696-7590ca27aefd"},"vehicle_type_id":"4","last_reported":1724632887,"current_range_meters":19600,"station_id":"ce4bgv92rcd13ifvqcq0","pricing_plan_id":"cebpf4jnsgd1na2vs0mg"},{"bike_id":"abdc4a9e-97cd-403e-8826-cd5e66745ecf","system_id":"levelo_inurba_marseille","lat":43.307945,"lon":5.376487,"is_reserved":false,"is_disabled":false,"rental_uris":{"android":"levelo://app?vid=abdc4a9e-97cd-403e-8826-cd5e66745ecf","ios":"levelo://app?vid=abdc4a9e-97cd-403e-8826-cd5e66745ecf"},"vehicle_type_id":"4","last_reported":1724632887,"current_range_meters":18800,"station_id":"ce4bgv92rcd13ifvqcq0","pricing_plan_id":"cebpf4jnsgd1na2vs0mg"},{"bike_id":"96bfac78-bcf3-4ecb-9003-da5a775bea3a","system_id":"levelo_inurba_marseille","lat":43.307945,"lon":5.376487,"is_reserved":false,"is_disabled":false,"rental_uris":{"android":"levelo://app?vid=96bfac78-bcf3-4ecb-9003-da5a775bea3a","ios":"levelo://app?vid=96bfac78-bcf3-4ecb-9003-da5a775bea3a"},"vehicle_type_id":"4","last_reported":1724632887,"current_range_meters":26000,"station_id":"ce4bgv92rcd13ifvqcq0","pricing_plan_id":"cebpf4jnsgd1na2vs0mg"},{"bike_id":"e9d9f5f7-3593-4278-8f79-53ff83e83acf","system_id":"levelo_inurba_marseille","lat":43.307945,"lon":5.376487,"is_reserved":false,"is_disabled":false,"rental_uris":{"android":"levelo://app?vid=e9d9f5f7-3593-4278-8f79-53ff83e83acf","ios":"levelo://app?vid=e9d9f5f7-3593-4278-8f79-53ff83e83acf"},"vehicle_type_id":"4","last_reported":1724632887,"current_range_meters":21200,"station_id":"ce4bgv92rcd13ifvqcq0","pricing_plan_id":"cebpf4jnsgd1na2vs0mg"},{"bike_id":"ef3648ad-b896-431d-b39a-af6bdc63aeaa","system_id":"levelo_inurba_marseille","lat":43.307945,"lon":5.376487,"is_reserved":false,"is_disabled":false,"rental_uris":{"android":"levelo://app?vid=ef3648ad-b896-431d-b39a-af6bdc63aeaa","ios":"levelo://app?vid=ef3648ad-b896-431d-b39a-af6bdc63aeaa"},"vehicle_type_id":"4","last_reported":1724632887,"current_range_meters":20400,"station_id":"ce4bgv92rcd13ifvqcq0","pricing_plan_id":"cebpf4jnsgd1na2vs0mg"},{"bike_id":"ee3db00d-5a85-489c-942d-8cda9684ac47","system_id":"levelo_inurba_marseille","lat":43.307945,"lon":5.376487,"is_reserved":false,"is_disabled":false,"rental_uris":{"android":"levelo://app?vid=ee3db00d-5a85-489c-942d-8cda9684ac47","ios":"levelo://app?vid=ee3db00d-5a85-489c-942d-8cda9684ac47"},"vehicle_type_id":"4","last_reported":1724632887,"current_range_meters":30000,"station_id":"ce4bgv92rcd13ifvqcq0","pricing_plan_id":"cebpf4jnsgd1na2vs0mg"},{"bike_id":"05a4edef-aecb-4a21-a64c-9d3e17931b56","system_id":"levelo_inurba_marseille","lat":43.307945,"lon":5.376487,"is_reserved":false,"is_disabled":false,"rental_uris":{"android":"levelo://app?vid=05a4edef-aecb-4a21-a64c-9d3e17931b56","ios":"levelo://app?vid=05a4edef-aecb-4a21-a64c-9d3e17931b56"},"vehicle_type_id":"4","last_reported":1724632887,"current_range_meters":31200,"station_id":"ce4bgv92rcd13ifvqcq0","pricing_plan_id":"cebpf4jnsgd1na2vs0mg"},{"bike_id":"64915d8e-43ae-4ddd-9c83-6ff478ac0493","system_id":"levelo_inurba_marseille","lat":43.307945,"lon":5.376487,"is_reserved":false,"is_disabled":false,"rental_uris":{"android":"levelo://app?vid=64915d8e-43ae-4ddd-9c83-6ff478ac0493","ios":"levelo://app?vid=64915d8e-43ae-4ddd-9c83-6ff478ac0493"},"vehicle_type_id":"4","last_reported":1724632887,"current_range_meters":6400,"station_id":"ce4bgv92rcd13ifvqcq0","pricing_plan_id":"cebpf4jnsgd1na2vs0mg"},{"bike_id":"0a47b476-8269-4398-b801-13eb3e0b5155","system_id":"levelo_inurba_marseille","lat":43.307945,"lon":5.376487,"is_reserved":false,"is_disabled":false,"rental_uris":{"android":"levelo://app?vid=0a47b476-8269-4398-b801-13eb3e0b5155","ios":"levelo://app?vid=0a47b476-8269-4398-b801-13eb3e0b5155"},"vehicle_type_id":"4","last_reported":1724632887,"current_range_meters":8400,"station_id":"ce4bgv92rcd13ifvqcq0","pricing_plan_id":"cebpf4jnsgd1na2vs0mg"},{"bike_id":"2e56b9d7-dc61-4b29-80fe-0949c40d6079","system_id":"levelo_inurba_marseille","lat":43.307945,"lon":5.376487,"is_reserved":false,"is_disabled":false,"rental_uris":{"android":"levelo://app?vid=2e56b9d7-dc61-4b29-80fe-0949c40d6079","ios":"levelo://app?vid=2e56b9d7-dc61-4b29-80fe-0949c40d6079"},"vehicle_type_id":"4","last_reported":1724632887,"current_range_meters":25200,"station_id":"ce4bgv92rcd13ifvqcq0","pricing_plan_id":"cebpf4jnsgd1na2vs0mg"},{"bike_id":"8e914836-4714-4bd3-8f37-2aa48db8d49d","system_id":"levelo_inurba_marseille","lat":43.307945,"lon":5.376487,"is_reserved":false,"is_disabled":false,"rental_uris":{"android":"levelo://app?vid=8e914836-4714-4bd3-8f37-2aa48db8d49d","ios":"levelo://app?vid=8e914836-4714-4bd3-8f37-2aa48db8d49d"},"vehicle_type_id":"4","last_reported":1724632887,"current_range_meters":31200,"station_id":"ce4bgv92rcd13ifvqcq0","pricing_plan_id":"cebpf4jnsgd1na2vs0mg"},{"bike_id":"5cf81944-ddfb-43d1-87b5-b762b76935fe","system_id":"levelo_inurba_marseille","lat":43.307945,"lon":5.376487,"is_reserved":false,"is_disabled":false,"rental_uris":{"android":"levelo://app?vid=5cf81944-ddfb-43d1-87b5-b762b76935fe","ios":"levelo://app?vid=5cf81944-ddfb-43d1-87b5-b762b76935fe"},"vehicle_type_id":"4","last_reported":1724632887,"current_range_meters":20000,"station_id":"ce4bgv92rcd13ifvqcq0","pricing_plan_id":"cebpf4jnsgd1na2vs0mg"},{"bike_id":"7d730db5-364c-4604-b718-a0e9571bce66","system_id":"levelo_inurba_marseille","lat":43.307945,"lon":5.376487,"is_reserved":false,"is_disabled":false,"rental_uris":{"android":"levelo://app?vid=7d730db5-364c-4604-b718-a0e9571bce66","ios":"levelo://app?vid=7d730db5-364c-4604-b718-a0e9571bce66"},"vehicle_type_id":"4","last_reported":1724632887,"current_range_meters":4000,"station_id":"ce4bgv92rcd13ifvqcq0","pricing_plan_id":"cebpf4jnsgd1na2vs0mg"},{"bike_id":"3be1f8d2-160d-462b-95b4-dca2ac6f73f5","system_id":"levelo_inurba_marseille","lat":43.307945,"lon":5.376487,"is_reserved":false,"is_disabled":false,"rental_uris":{"android":"levelo://app?vid=3be1f8d2-160d-462b-95b4-dca2ac6f73f5","ios":"levelo://app?vid=3be1f8d2-160d-462b-95b4-dca2ac6f73f5"},"vehicle_type_id":"4","last_reported":1724632887,"current_range_meters":24000,"station_id":"ce4bgv92rcd13ifvqcq0","pricing_plan_id":"cebpf4jnsgd1na2vs0mg"},{"bike_id":"80dcf78a-4526-4877-a7b8-456617cfbe1f","system_id":"levelo_inurba_marseille","lat":43.317075,"lon":5.377367,"is_reserved":false,"is_disabled":false,"rental_uris":{"android":"levelo://app?vid=80dcf78a-4526-4877-a7b8-456617cfbe1f","ios":"levelo://app?vid=80dcf78a-4526-4877-a7b8-456617cfbe1f"},"vehicle_type_id":"4","last_reported":1724632887,"current_range_meters":30000,"station_id":"ce4bgth2rcd13ifvqch0","pricing_plan_id":"cebpf4jnsgd1na2vs0mg"},{"bike_id":"2bc22663-eda5-4826-9c7c-70a486ee2510","system_id":"levelo_inurba_marseille","lat":43.317075,"lon":5.377367,"is_reserved":false,"is_disabled":false,"rental_uris":{"android":"levelo://app?vid=2bc22663-eda5-4826-9c7c-70a486ee2510","ios":"levelo://app?vid=2bc22663-eda5-4826-9c7c-70a486ee2510"},"vehicle_type_id":"4","last_reported":1724632887,"current_range_meters":26800,"station_id":"ce4bgth2rcd13ifvqch0","pricing_plan_id":"cebpf4jnsgd1na2vs0mg"},{"bike_id":"f8866dbd-8e34-4b7a-9157-45f59ffcda26","system_id":"levelo_inurba_marseille","lat":43.279742,"lon":5.38744,"is_reserved":false,"is_disabled":false,"rental_uris":{"android":"levelo://app?vid=f8866dbd-8e34-4b7a-9157-45f59ffcda26","ios":"levelo://app?vid=f8866dbd-8e34-4b7a-9157-45f59ffcda26"},"vehicle_type_id":"4","last_reported":1724632887,"current_range_meters":21600,"station_id":"ce4bhg12rcd13ifvqf80","pricing_plan_id":"cebpf4jnsgd1na2vs0mg"},{"bike_id":"3e1c4d37-1b6e-4b35-b003-1d642ee6d9a5","system_id":"levelo_inurba_marseille","lat":43.303046,"lon":5.368981,"is_reserved":false,"is_disabled":false,"rental_uris":{"android":"levelo://app?vid=3e1c4d37-1b6e-4b35-b003-1d642ee6d9a5","ios":"levelo://app?vid=3e1c4d37-1b6e-4b35-b003-1d642ee6d9a5"},"vehicle_type_id":"4","last_reported":1724632887,"current_range_meters":12800,"station_id":"ce4bgqh2rcd13ifvqc5g","pricing_plan_id":"cebpf4jnsgd1na2vs0mg"},{"bike_id":"77121001-8180-4762-8f49-882542571a5f","system_id":"levelo_inurba_marseille","lat":43.31534,"lon":5.38024,"is_reserved":false,"is_disabled":false,"rental_uris":{"android":"levelo://app?vid=77121001-8180-4762-8f49-882542571a5f","ios":"levelo://app?vid=77121001-8180-4762-8f49-882542571a5f"},"vehicle_type_id":"4","last_reported":1724632887,"current_range_meters":31200,"station_id":"ce4bhsp2rcd13ifvqi50","pricing_plan_id":"cebpf4jnsgd1na2vs0mg"},{"bike_id":"c7d42f03-2453-4ee0-b47e-2c9751103fd7","system_id":"levelo_inurba_marseille","lat":43.315289,"lon":5.380349,"is_reserved":false,"is_disabled":false,"rental_uris":{"android":"levelo://app?vid=c7d42f03-2453-4ee0-b47e-2c9751103fd7","ios":"levelo://app?vid=c7d42f03-2453-4ee0-b47e-2c9751103fd7"},"vehicle_type_id":"4","last_reported":1724632887,"current_range_meters":31600,"station_id":"ce4bhsp2rcd13ifvqi50","pricing_plan_id":"cebpf4jnsgd1na2vs0mg"},{"bike_id":"346c9e03-2625-4746-92d4-e7aaa7d6fc9e","system_id":"levelo_inurba_marseille","lat":43.315289,"lon":5.380349,"is_reserved":false,"is_disabled":false,"rental_uris":{"android":"levelo://app?vid=346c9e03-2625-4746-92d4-e7aaa7d6fc9e","ios":"levelo://app?vid=346c9e03-2625-4746-92d4-e7aaa7d6fc9e"},"vehicle_type_id":"4","last_reported":1724632887,"current_range_meters":23200,"station_id":"ce4bhsp2rcd13ifvqi50","pricing_plan_id":"cebpf4jnsgd1na2vs0mg"},{"bike_id":"47dd1ad2-81a9-4351-bd1e-e3c4f7a5718f","system_id":"levelo_inurba_marseille","lat":43.315289,"lon":5.380349,"is_reserved":false,"is_disabled":false,"rental_uris":{"android":"levelo://app?vid=47dd1ad2-81a9-4351-bd1e-e3c4f7a5718f","ios":"levelo://app?vid=47dd1ad2-81a9-4351-bd1e-e3c4f7a5718f"},"vehicle_type_id":"4","last_reported":1724632887,"current_range_meters":13200,"station_id":"ce4bhsp2rcd13ifvqi50","pricing_plan_id":"cebpf4jnsgd1na2vs0mg"},{"bike_id":"d22fde8f-61a8-4ba7-aabf-c5840fc7206c","system_id":"levelo_inurba_marseille","lat":43.31535,"lon":5.38029,"is_reserved":false,"is_disabled":false,"rental_uris":{"android":"levelo://app?vid=d22fde8f-61a8-4ba7-aabf-c5840fc7206c","ios":"levelo://app?vid=d22fde8f-61a8-4ba7-aabf-c5840fc7206c"},"vehicle_type_id":"4","last_reported":1724632887,"current_range_meters":31200,"station_id":"ce4bhsp2rcd13ifvqi50","pricing_plan_id":"cebpf4jnsgd1na2vs0mg"},{"bike_id":"581443b4-d189-4533-9fd8-ba617a55cab9","system_id":"levelo_inurba_marseille","lat":43.315289,"lon":5.380349,"is_reserved":false,"is_disabled":false,"rental_uris":{"android":"levelo://app?vid=581443b4-d189-4533-9fd8-ba617a55cab9","ios":"levelo://app?vid=581443b4-d189-4533-9fd8-ba617a55cab9"},"vehicle_type_id":"4","last_reported":1724632887,"current_range_meters":20800,"station_id":"ce4bhsp2rcd13ifvqi50","pricing_plan_id":"cebpf4jnsgd1na2vs0mg"},{"bike_id":"c3991733-ad00-4dec-b7ac-30e644aeb0d6","system_id":"levelo_inurba_marseille","lat":43.315289,"lon":5.380349,"is_reserved":false,"is_disabled":false,"rental_uris":{"android":"levelo://app?vid=c3991733-ad00-4dec-b7ac-30e644aeb0d6","ios":"levelo://app?vid=c3991733-ad00-4dec-b7ac-30e644aeb0d6"},"vehicle_type_id":"4","last_reported":1724632887,"current_range_meters":24800,"station_id":"ce4bhsp2rcd13ifvqi50","pricing_plan_id":"cebpf4jnsgd1na2vs0mg"},{"bike_id":"51d6dc88-fb48-470c-ba10-e1f46b7863b4","system_id":"levelo_inurba_marseille","lat":43.301939,"lon":5.366286,"is_reserved":false,"is_disabled":false,"rental_uris":{"android":"levelo://app?vid=51d6dc88-fb48-470c-ba10-e1f46b7863b4","ios":"levelo://app?vid=51d6dc88-fb48-470c-ba10-e1f46b7863b4"},"vehicle_type_id":"4","last_reported":1724632887,"current_range_meters":17600,"station_id":"ce4bgrh2rcd13ifvqc8g","pricing_plan_id":"cebpf4jnsgd1na2vs0mg"},{"bike_id":"c05639d0-106c-462c-8565-ba2b04a12255","system_id":"levelo_inurba_marseille","lat":43.301939,"lon":5.366286,"is_reserved":false,"is_disabled":false,"rental_uris":{"android":"levelo://app?vid=c05639d0-106c-462c-8565-ba2b04a12255","ios":"levelo://app?vid=c05639d0-106c-462c-8565-ba2b04a12255"},"vehicle_type_id":"4","last_reported":1724632887,"current_range_meters":19600,"station_id":"ce4bgrh2rcd13ifvqc8g","pricing_plan_id":"cebpf4jnsgd1na2vs0mg"},{"bike_id":"cfb06c3a-d31d-4a0b-8cca-e528b74b87b6","system_id":"levelo_inurba_marseille","lat":43.308012,"lon":5.381511,"is_reserved":false,"is_disabled":false,"rental_uris":{"android":"levelo://app?vid=cfb06c3a-d31d-4a0b-8cca-e528b74b87b6","ios":"levelo://app?vid=cfb06c3a-d31d-4a0b-8cca-e528b74b87b6"},"vehicle_type_id":"4","last_reported":1724632887,"current_range_meters":24800,"station_id":"ce4bgt12rcd13ifvqce0","pricing_plan_id":"cebpf4jnsgd1na2vs0mg"},{"bike_id":"6cbaf9da-c255-45ff-be20-d477e2c87ed0","system_id":"levelo_inurba_marseille","lat":43.308036,"lon":5.381501,"is_reserved":false,"is_disabled":false,"rental_uris":{"android":"levelo://app?vid=6cbaf9da-c255-45ff-be20-d477e2c87ed0","ios":"levelo://app?vid=6cbaf9da-c255-45ff-be20-d477e2c87ed0"},"vehicle_type_id":"4","last_reported":1724632887,"current_range_meters":18800,"station_id":"ce4bgt12rcd13ifvqce0","pricing_plan_id":"cebpf4jnsgd1na2vs0mg"},{"bike_id":"84238e8f-f830-48e3-b4a6-db54d7ccde1a","system_id":"levelo_inurba_marseille","lat":43.30802,"lon":5.381493,"is_reserved":false,"is_disabled":false,"rental_uris":{"android":"levelo://app?vid=84238e8f-f830-48e3-b4a6-db54d7ccde1a","ios":"levelo://app?vid=84238e8f-f830-48e3-b4a6-db54d7ccde1a"},"vehicle_type_id":"4","last_reported":1724632887,"current_range_meters":26400,"station_id":"ce4bgt12rcd13ifvqce0","pricing_plan_id":"cebpf4jnsgd1na2vs0mg"},{"bike_id":"165b4f65-c5af-4e2d-8eef-83f88fe75843","system_id":"levelo_inurba_marseille","lat":43.308012,"lon":5.381511,"is_reserved":false,"is_disabled":false,"rental_uris":{"android":"levelo://app?vid=165b4f65-c5af-4e2d-8eef-83f88fe75843","ios":"levelo://app?vid=165b4f65-c5af-4e2d-8eef-83f88fe75843"},"vehicle_type_id":"4","last_reported":1724632887,"current_range_meters":12000,"station_id":"ce4bgt12rcd13ifvqce0","pricing_plan_id":"cebpf4jnsgd1na2vs0mg"},{"bike_id":"7d1feb02-5af1-4d36-8822-09d5f829ee73","system_id":"levelo_inurba_marseille","lat":43.30802,"lon":5.381506,"is_reserved":false,"is_disabled":false,"rental_uris":{"android":"levelo://app?vid=7d1feb02-5af1-4d36-8822-09d5f829ee73","ios":"levelo://app?vid=7d1feb02-5af1-4d36-8822-09d5f829ee73"},"vehicle_type_id":"4","last_reported":1724632887,"current_range_meters":3200,"station_id":"ce4bgt12rcd13ifvqce0","pricing_plan_id":"cebpf4jnsgd1na2vs0mg"},{"bike_id":"dcc6c50e-8588-41f3-bc77-13f6821461f1","system_id":"levelo_inurba_marseille","lat":43.308012,"lon":5.381511,"is_reserved":false,"is_disabled":false,"rental_uris":{"android":"levelo://app?vid=dcc6c50e-8588-41f3-bc77-13f6821461f1","ios":"levelo://app?vid=dcc6c50e-8588-41f3-bc77-13f6821461f1"},"vehicle_type_id":"4","last_reported":1724632887,"current_range_meters":30400,"station_id":"ce4bgt12rcd13ifvqce0","pricing_plan_id":"cebpf4jnsgd1na2vs0mg"},{"bike_id":"99fada84-c1be-4878-8d35-d37e016ee037","system_id":"levelo_inurba_marseille","lat":43.30805,"lon":5.381539,"is_reserved":false,"is_disabled":false,"rental_uris":{"android":"levelo://app?vid=99fada84-c1be-4878-8d35-d37e016ee037","ios":"levelo://app?vid=99fada84-c1be-4878-8d35-d37e016ee037"},"vehicle_type_id":"4","last_reported":1724632887,"current_range_meters":11600,"station_id":"ce4bgt12rcd13ifvqce0","pricing_plan_id":"cebpf4jnsgd1na2vs0mg"},{"bike_id":"a27a2186-078c-4115-9f7a-8c322cf96433","system_id":"levelo_inurba_marseille","lat":43.308,"lon":5.38153,"is_reserved":false,"is_disabled":false,"rental_uris":{"android":"levelo://app?vid=a27a2186-078c-4115-9f7a-8c322cf96433","ios":"levelo://app?vid=a27a2186-078c-4115-9f7a-8c322cf96433"},"vehicle_type_id":"4","last_reported":1724632887,"current_range_meters":18000,"station_id":"ce4bgt12rcd13ifvqce0","pricing_plan_id":"cebpf4jnsgd1na2vs0mg"},{"bike_id":"5b8a6c3b-3813-4c73-8010-5cea904972db","system_id":"levelo_inurba_marseille","lat":43.308012,"lon":5.381511,"is_reserved":false,"is_disabled":false,"rental_uris":{"android":"levelo://app?vid=5b8a6c3b-3813-4c73-8010-5cea904972db","ios":"levelo://app?vid=5b8a6c3b-3813-4c73-8010-5cea904972db"},"vehicle_type_id":"4","last_reported":1724632887,"current_range_meters":5200,"station_id":"ce4bgt12rcd13ifvqce0","pricing_plan_id":"cebpf4jnsgd1na2vs0mg"},{"bike_id":"62e37ae3-6167-41cc-b78c-9962a5f47905","system_id":"levelo_inurba_marseille","lat":43.308012,"lon":5.381511,"is_reserved":false,"is_disabled":false,"rental_uris":{"android":"levelo://app?vid=62e37ae3-6167-41cc-b78c-9962a5f47905","ios":"levelo://app?vid=62e37ae3-6167-41cc-b78c-9962a5f47905"},"vehicle_type_id":"4","last_reported":1724632887,"current_range_meters":31200,"station_id":"ce4bgt12rcd13ifvqce0","pricing_plan_id":"cebpf4jnsgd1na2vs0mg"},{"bike_id":"e689cc02-8743-4c54-ad93-4e314e559b8b","system_id":"levelo_inurba_marseille","lat":43.307946,"lon":5.381624,"is_reserved":false,"is_disabled":false,"rental_uris":{"android":"levelo://app?vid=e689cc02-8743-4c54-ad93-4e314e559b8b","ios":"levelo://app?vid=e689cc02-8743-4c54-ad93-4e314e559b8b"},"vehicle_type_id":"4","last_reported":1724632887,"current_range_meters":19200,"station_id":"ce4bgt12rcd13ifvqce0","pricing_plan_id":"cebpf4jnsgd1na2vs0mg"},{"bike_id":"a94909db-b005-4fc1-9552-7aadae81a6ad","system_id":"levelo_inurba_marseille","lat":43.307976,"lon":5.381691,"is_reserved":false,"is_disabled":false,"rental_uris":{"android":"levelo://app?vid=a94909db-b005-4fc1-9552-7aadae81a6ad","ios":"levelo://app?vid=a94909db-b005-4fc1-9552-7aadae81a6ad"},"vehicle_type_id":"4","last_reported":1724632887,"current_range_meters":15600,"station_id":"ce4bgt12rcd13ifvqce0","pricing_plan_id":"cebpf4jnsgd1na2vs0mg"},{"bike_id":"602a171c-ccc8-405b-a15c-6b2c8cb09ac1","system_id":"levelo_inurba_marseille","lat":43.308012,"lon":5.381511,"is_reserved":false,"is_disabled":false,"rental_uris":{"android":"levelo://app?vid=602a171c-ccc8-405b-a15c-6b2c8cb09ac1","ios":"levelo://app?vid=602a171c-ccc8-405b-a15c-6b2c8cb09ac1"},"vehicle_type_id":"4","last_reported":1724632887,"current_range_meters":13200,"station_id":"ce4bgt12rcd13ifvqce0","pricing_plan_id":"cebpf4jnsgd1na2vs0mg"},{"bike_id":"4364041c-8bea-4b64-88ab-2306dae156f2","system_id":"levelo_inurba_marseille","lat":43.3009,"lon":5.36421,"is_reserved":false,"is_disabled":false,"rental_uris":{"android":"levelo://app?vid=4364041c-8bea-4b64-88ab-2306dae156f2","ios":"levelo://app?vid=4364041c-8bea-4b64-88ab-2306dae156f2"},"vehicle_type_id":"4","last_reported":1724632887,"current_range_meters":19600,"station_id":"","pricing_plan_id":"cebpf4jnsgd1na2vs0mg"},{"bike_id":"31c3fcf7-2dc7-472a-b396-e3241819209c","system_id":"levelo_inurba_marseille","lat":43.324771,"lon":5.36557,"is_reserved":false,"is_disabled":false,"rental_uris":{"android":"levelo://app?vid=31c3fcf7-2dc7-472a-b396-e3241819209c","ios":"levelo://app?vid=31c3fcf7-2dc7-472a-b396-e3241819209c"},"vehicle_type_id":"4","last_reported":1724632887,"current_range_meters":31200,"station_id":"ce4bhs12rcd13ifvqhvg","pricing_plan_id":"cebpf4jnsgd1na2vs0mg"},{"bike_id":"aeba1e5d-e63c-45c9-b4e4-a5ef16600449","system_id":"levelo_inurba_marseille","lat":43.324771,"lon":5.36557,"is_reserved":false,"is_disabled":false,"rental_uris":{"android":"levelo://app?vid=aeba1e5d-e63c-45c9-b4e4-a5ef16600449","ios":"levelo://app?vid=aeba1e5d-e63c-45c9-b4e4-a5ef16600449"},"vehicle_type_id":"4","last_reported":1724632887,"current_range_meters":31200,"station_id":"ce4bhs12rcd13ifvqhvg","pricing_plan_id":"cebpf4jnsgd1na2vs0mg"},{"bike_id":"c30c57e5-e6a4-4301-8c1f-bb1d7a5e5a91","system_id":"levelo_inurba_marseille","lat":43.3248,"lon":5.36579,"is_reserved":false,"is_disabled":false,"rental_uris":{"android":"levelo://app?vid=c30c57e5-e6a4-4301-8c1f-bb1d7a5e5a91","ios":"levelo://app?vid=c30c57e5-e6a4-4301-8c1f-bb1d7a5e5a91"},"vehicle_type_id":"4","last_reported":1724632887,"current_range_meters":19600,"station_id":"ce4bhs12rcd13ifvqhvg","pricing_plan_id":"cebpf4jnsgd1na2vs0mg"},{"bike_id":"85b01fa3-5478-4e13-af9f-aa805921c297","system_id":"levelo_inurba_marseille","lat":43.324771,"lon":5.36557,"is_reserved":false,"is_disabled":false,"rental_uris":{"android":"levelo://app?vid=85b01fa3-5478-4e13-af9f-aa805921c297","ios":"levelo://app?vid=85b01fa3-5478-4e13-af9f-aa805921c297"},"vehicle_type_id":"4","last_reported":1724632887,"current_range_meters":7200,"station_id":"ce4bhs12rcd13ifvqhvg","pricing_plan_id":"cebpf4jnsgd1na2vs0mg"},{"bike_id":"9e2a8d51-e2ab-4c34-b5e7-eeff80380caf","system_id":"levelo_inurba_marseille","lat":43.324771,"lon":5.36557,"is_reserved":false,"is_disabled":false,"rental_uris":{"android":"levelo://app?vid=9e2a8d51-e2ab-4c34-b5e7-eeff80380caf","ios":"levelo://app?vid=9e2a8d51-e2ab-4c34-b5e7-eeff80380caf"},"vehicle_type_id":"4","last_reported":1724632887,"current_range_meters":17600,"station_id":"ce4bhs12rcd13ifvqhvg","pricing_plan_id":"cebpf4jnsgd1na2vs0mg"},{"bike_id":"93143ac9-e3c0-476d-ad0a-62c459e46bdf","system_id":"levelo_inurba_marseille","lat":43.324771,"lon":5.36557,"is_reserved":false,"is_disabled":false,"rental_uris":{"android":"levelo://app?vid=93143ac9-e3c0-476d-ad0a-62c459e46bdf","ios":"levelo://app?vid=93143ac9-e3c0-476d-ad0a-62c459e46bdf"},"vehicle_type_id":"4","last_reported":1724632887,"current_range_meters":24800,"station_id":"ce4bhs12rcd13ifvqhvg","pricing_plan_id":"cebpf4jnsgd1na2vs0mg"},{"bike_id":"db0f3a31-3c05-4b3c-b5e8-ad112376e149","system_id":"levelo_inurba_marseille","lat":43.324771,"lon":5.36557,"is_reserved":false,"is_disabled":false,"rental_uris":{"android":"levelo://app?vid=db0f3a31-3c05-4b3c-b5e8-ad112376e149","ios":"levelo://app?vid=db0f3a31-3c05-4b3c-b5e8-ad112376e149"},"vehicle_type_id":"4","last_reported":1724632887,"current_range_meters":31200,"station_id":"ce4bhs12rcd13ifvqhvg","pricing_plan_id":"cebpf4jnsgd1na2vs0mg"},{"bike_id":"f670ca59-ce41-4a3a-aa0a-08446ed8640d","system_id":"levelo_inurba_marseille","lat":43.324771,"lon":5.36557,"is_reserved":false,"is_disabled":false,"rental_uris":{"android":"levelo://app?vid=f670ca59-ce41-4a3a-aa0a-08446ed8640d","ios":"levelo://app?vid=f670ca59-ce41-4a3a-aa0a-08446ed8640d"},"vehicle_type_id":"4","last_reported":1724632887,"current_range_meters":14800,"station_id":"ce4bhs12rcd13ifvqhvg","pricing_plan_id":"cebpf4jnsgd1na2vs0mg"},{"bike_id":"e98e46f1-a62e-4af6-9722-f862d69567ca","system_id":"levelo_inurba_marseille","lat":43.324771,"lon":5.36557,"is_reserved":false,"is_disabled":false,"rental_uris":{"android":"levelo://app?vid=e98e46f1-a62e-4af6-9722-f862d69567ca","ios":"levelo://app?vid=e98e46f1-a62e-4af6-9722-f862d69567ca"},"vehicle_type_id":"4","last_reported":1724632887,"current_range_meters":3200,"station_id":"ce4bhs12rcd13ifvqhvg","pricing_plan_id":"cebpf4jnsgd1na2vs0mg"},{"bike_id":"b3a40112-c8ee-4b2f-b40f-30a18ca493c9","system_id":"levelo_inurba_marseille","lat":43.32485,"lon":5.36564,"is_reserved":false,"is_disabled":false,"rental_uris":{"android":"levelo://app?vid=b3a40112-c8ee-4b2f-b40f-30a18ca493c9","ios":"levelo://app?vid=b3a40112-c8ee-4b2f-b40f-30a18ca493c9"},"vehicle_type_id":"4","last_reported":1724632887,"current_range_meters":3600,"station_id":"ce4bhs12rcd13ifvqhvg","pricing_plan_id":"cebpf4jnsgd1na2vs0mg"},{"bike_id":"f03437e3-be6d-49da-970f-1b7058534c0f","system_id":"levelo_inurba_marseille","lat":43.324771,"lon":5.36557,"is_reserved":false,"is_disabled":false,"rental_uris":{"android":"levelo://app?vid=f03437e3-be6d-49da-970f-1b7058534c0f","ios":"levelo://app?vid=f03437e3-be6d-49da-970f-1b7058534c0f"},"vehicle_type_id":"4","last_reported":1724632887,"current_range_meters":15200,"station_id":"ce4bhs12rcd13ifvqhvg","pricing_plan_id":"cebpf4jnsgd1na2vs0mg"},{"bike_id":"8f52bb2c-a044-4d99-8dca-80a781463538","system_id":"levelo_inurba_marseille","lat":43.324771,"lon":5.36557,"is_reserved":false,"is_disabled":false,"rental_uris":{"android":"levelo://app?vid=8f52bb2c-a044-4d99-8dca-80a781463538","ios":"levelo://app?vid=8f52bb2c-a044-4d99-8dca-80a781463538"},"vehicle_type_id":"4","last_reported":1724632887,"current_range_meters":26400,"station_id":"ce4bhs12rcd13ifvqhvg","pricing_plan_id":"cebpf4jnsgd1na2vs0mg"},{"bike_id":"ac11047b-1f97-48bf-8725-575798ec0033","system_id":"levelo_inurba_marseille","lat":43.324771,"lon":5.36557,"is_reserved":false,"is_disabled":false,"rental_uris":{"android":"levelo://app?vid=ac11047b-1f97-48bf-8725-575798ec0033","ios":"levelo://app?vid=ac11047b-1f97-48bf-8725-575798ec0033"},"vehicle_type_id":"4","last_reported":1724632887,"current_range_meters":5600,"station_id":"ce4bhs12rcd13ifvqhvg","pricing_plan_id":"cebpf4jnsgd1na2vs0mg"},{"bike_id":"15f86cd3-1ccf-4176-a02b-ff14ef063bb8","system_id":"levelo_inurba_marseille","lat":43.310863,"lon":5.383563,"is_reserved":false,"is_disabled":false,"rental_uris":{"android":"levelo://app?vid=15f86cd3-1ccf-4176-a02b-ff14ef063bb8","ios":"levelo://app?vid=15f86cd3-1ccf-4176-a02b-ff14ef063bb8"},"vehicle_type_id":"4","last_reported":1724632887,"current_range_meters":14000,"station_id":"ce4bgv92rcd13ifvqcr0","pricing_plan_id":"cebpf4jnsgd1na2vs0mg"},{"bike_id":"5ceaca19-b29a-4285-b531-3aef0ff3dbf3","system_id":"levelo_inurba_marseille","lat":43.310743,"lon":5.383563,"is_reserved":false,"is_disabled":false,"rental_uris":{"android":"levelo://app?vid=5ceaca19-b29a-4285-b531-3aef0ff3dbf3","ios":"levelo://app?vid=5ceaca19-b29a-4285-b531-3aef0ff3dbf3"},"vehicle_type_id":"4","last_reported":1724632887,"current_range_meters":11600,"station_id":"ce4bgv92rcd13ifvqcr0","pricing_plan_id":"cebpf4jnsgd1na2vs0mg"},{"bike_id":"8063020c-ed22-49b3-95f0-c2acdb92323c","system_id":"levelo_inurba_marseille","lat":43.31078,"lon":5.38358,"is_reserved":false,"is_disabled":false,"rental_uris":{"android":"levelo://app?vid=8063020c-ed22-49b3-95f0-c2acdb92323c","ios":"levelo://app?vid=8063020c-ed22-49b3-95f0-c2acdb92323c"},"vehicle_type_id":"4","last_reported":1724632887,"current_range_meters":8800,"station_id":"ce4bgv92rcd13ifvqcr0","pricing_plan_id":"cebpf4jnsgd1na2vs0mg"},{"bike_id":"66dbae7a-e299-40e0-ad78-af571e187543","system_id":"levelo_inurba_marseille","lat":43.310677,"lon":5.383563,"is_reserved":false,"is_disabled":false,"rental_uris":{"android":"levelo://app?vid=66dbae7a-e299-40e0-ad78-af571e187543","ios":"levelo://app?vid=66dbae7a-e299-40e0-ad78-af571e187543"},"vehicle_type_id":"4","last_reported":1724632887,"current_range_meters":4400,"station_id":"ce4bgv92rcd13ifvqcr0","pricing_plan_id":"cebpf4jnsgd1na2vs0mg"},{"bike_id":"5f7595c4-4800-491d-8044-27e6d913605f","system_id":"levelo_inurba_marseille","lat":43.3108,"lon":5.38361,"is_reserved":false,"is_disabled":false,"rental_uris":{"android":"levelo://app?vid=5f7595c4-4800-491d-8044-27e6d913605f","ios":"levelo://app?vid=5f7595c4-4800-491d-8044-27e6d913605f"},"vehicle_type_id":"4","last_reported":1724632887,"current_range_meters":19200,"station_id":"ce4bgv92rcd13ifvqcr0","pricing_plan_id":"cebpf4jnsgd1na2vs0mg"},{"bike_id":"f8b800ba-bb1e-4ccd-bceb-be6eac4aaad8","system_id":"levelo_inurba_marseille","lat":43.31075,"lon":5.3836,"is_reserved":false,"is_disabled":false,"rental_uris":{"android":"levelo://app?vid=f8b800ba-bb1e-4ccd-bceb-be6eac4aaad8","ios":"levelo://app?vid=f8b800ba-bb1e-4ccd-bceb-be6eac4aaad8"},"vehicle_type_id":"4","last_reported":1724632887,"current_range_meters":21200,"station_id":"ce4bgv92rcd13ifvqcr0","pricing_plan_id":"cebpf4jnsgd1na2vs0mg"},{"bike_id":"a118c0a7-dfb9-4e17-99de-051015cbfee7","system_id":"levelo_inurba_marseille","lat":43.31076,"lon":5.38362,"is_reserved":false,"is_disabled":false,"rental_uris":{"android":"levelo://app?vid=a118c0a7-dfb9-4e17-99de-051015cbfee7","ios":"levelo://app?vid=a118c0a7-dfb9-4e17-99de-051015cbfee7"},"vehicle_type_id":"4","last_reported":1724632887,"current_range_meters":25600,"station_id":"ce4bgv92rcd13ifvqcr0","pricing_plan_id":"cebpf4jnsgd1na2vs0mg"},{"bike_id":"419b075a-4e48-4134-937a-5d526e0f1144","system_id":"levelo_inurba_marseille","lat":43.31076,"lon":5.38363,"is_reserved":false,"is_disabled":false,"rental_uris":{"android":"levelo://app?vid=419b075a-4e48-4134-937a-5d526e0f1144","ios":"levelo://app?vid=419b075a-4e48-4134-937a-5d526e0f1144"},"vehicle_type_id":"4","last_reported":1724632887,"current_range_meters":6800,"station_id":"ce4bgv92rcd13ifvqcr0","pricing_plan_id":"cebpf4jnsgd1na2vs0mg"},{"bike_id":"95d55214-e5a2-4045-a41d-984dabb50aa3","system_id":"levelo_inurba_marseille","lat":43.31077,"lon":5.38367,"is_reserved":false,"is_disabled":false,"rental_uris":{"android":"levelo://app?vid=95d55214-e5a2-4045-a41d-984dabb50aa3","ios":"levelo://app?vid=95d55214-e5a2-4045-a41d-984dabb50aa3"},"vehicle_type_id":"4","last_reported":1724632887,"current_range_meters":25600,"station_id":"ce4bgv92rcd13ifvqcr0","pricing_plan_id":"cebpf4jnsgd1na2vs0mg"},{"bike_id":"b9721e8f-59b6-481b-890d-92c619faea53","system_id":"levelo_inurba_marseille","lat":43.301429,"lon":5.37413,"is_reserved":false,"is_disabled":false,"rental_uris":{"android":"levelo://app?vid=b9721e8f-59b6-481b-890d-92c619faea53","ios":"levelo://app?vid=b9721e8f-59b6-481b-890d-92c619faea53"},"vehicle_type_id":"4","last_reported":1724632887,"current_range_meters":8000,"station_id":"ce4bgs92rcd13ifvqcc0","pricing_plan_id":"cebpf4jnsgd1na2vs0mg"},{"bike_id":"0509c888-846b-4ef0-bea6-9b36817e7760","system_id":"levelo_inurba_marseille","lat":43.31966,"lon":5.38151,"is_reserved":false,"is_disabled":false,"rental_uris":{"android":"levelo://app?vid=0509c888-846b-4ef0-bea6-9b36817e7760","ios":"levelo://app?vid=0509c888-846b-4ef0-bea6-9b36817e7760"},"vehicle_type_id":"4","last_reported":1724632887,"current_range_meters":5600,"station_id":"ce4bhr12rcd13ifvqhpg","pricing_plan_id":"cebpf4jnsgd1na2vs0mg"},{"bike_id":"5736ed4e-9dc7-4fa5-90a1-403587840cbd","system_id":"levelo_inurba_marseille","lat":43.319935,"lon":5.381699,"is_reserved":false,"is_disabled":false,"rental_uris":{"android":"levelo://app?vid=5736ed4e-9dc7-4fa5-90a1-403587840cbd","ios":"levelo://app?vid=5736ed4e-9dc7-4fa5-90a1-403587840cbd"},"vehicle_type_id":"4","last_reported":1724632887,"current_range_meters":25200,"station_id":"ce4bhr12rcd13ifvqhpg","pricing_plan_id":"cebpf4jnsgd1na2vs0mg"},{"bike_id":"1f04bba8-328e-4639-b46e-6ed338c232dc","system_id":"levelo_inurba_marseille","lat":43.319935,"lon":5.381699,"is_reserved":false,"is_disabled":false,"rental_uris":{"android":"levelo://app?vid=1f04bba8-328e-4639-b46e-6ed338c232dc","ios":"levelo://app?vid=1f04bba8-328e-4639-b46e-6ed338c232dc"},"vehicle_type_id":"4","last_reported":1724632887,"current_range_meters":20400,"station_id":"ce4bhr12rcd13ifvqhpg","pricing_plan_id":"cebpf4jnsgd1na2vs0mg"},{"bike_id":"585da6d7-cf3a-4419-85d1-36ed88740a5f","system_id":"levelo_inurba_marseille","lat":43.319935,"lon":5.381699,"is_reserved":false,"is_disabled":false,"rental_uris":{"android":"levelo://app?vid=585da6d7-cf3a-4419-85d1-36ed88740a5f","ios":"levelo://app?vid=585da6d7-cf3a-4419-85d1-36ed88740a5f"},"vehicle_type_id":"4","last_reported":1724632887,"current_range_meters":22400,"station_id":"ce4bhr12rcd13ifvqhpg","pricing_plan_id":"cebpf4jnsgd1na2vs0mg"},{"bike_id":"062289a5-ae57-4c62-befe-6f1a402f7d92","system_id":"levelo_inurba_marseille","lat":43.319935,"lon":5.381699,"is_reserved":false,"is_disabled":false,"rental_uris":{"android":"levelo://app?vid=062289a5-ae57-4c62-befe-6f1a402f7d92","ios":"levelo://app?vid=062289a5-ae57-4c62-befe-6f1a402f7d92"},"vehicle_type_id":"4","last_reported":1724632887,"current_range_meters":11600,"station_id":"ce4bhr12rcd13ifvqhpg","pricing_plan_id":"cebpf4jnsgd1na2vs0mg"},{"bike_id":"2c3a2eef-8c1b-43ea-8d73-3aed9a9c2960","system_id":"levelo_inurba_marseille","lat":43.319935,"lon":5.381699,"is_reserved":false,"is_disabled":false,"rental_uris":{"android":"levelo://app?vid=2c3a2eef-8c1b-43ea-8d73-3aed9a9c2960","ios":"levelo://app?vid=2c3a2eef-8c1b-43ea-8d73-3aed9a9c2960"},"vehicle_type_id":"4","last_reported":1724632887,"current_range_meters":15600,"station_id":"ce4bhr12rcd13ifvqhpg","pricing_plan_id":"cebpf4jnsgd1na2vs0mg"},{"bike_id":"33e4d9e7-4ba3-4a18-add4-b809408e0140","system_id":"levelo_inurba_marseille","lat":43.305023,"lon":5.381403,"is_reserved":false,"is_disabled":false,"rental_uris":{"android":"levelo://app?vid=33e4d9e7-4ba3-4a18-add4-b809408e0140","ios":"levelo://app?vid=33e4d9e7-4ba3-4a18-add4-b809408e0140"},"vehicle_type_id":"4","last_reported":1724632887,"current_range_meters":24400,"station_id":"","pricing_plan_id":"cebpf4jnsgd1na2vs0mg"},{"bike_id":"0a04962d-0c52-4d28-92a8-dae7954520e8","system_id":"levelo_inurba_marseille","lat":43.31366,"lon":5.38487,"is_reserved":false,"is_disabled":false,"rental_uris":{"android":"levelo://app?vid=0a04962d-0c52-4d28-92a8-dae7954520e8","ios":"levelo://app?vid=0a04962d-0c52-4d28-92a8-dae7954520e8"},"vehicle_type_id":"4","last_reported":1724632887,"current_range_meters":6800,"station_id":"ce4bgt92rcd13ifvqcf0","pricing_plan_id":"cebpf4jnsgd1na2vs0mg"},{"bike_id":"e58472a6-cc2f-4b08-b218-4d6d44ef001a","system_id":"levelo_inurba_marseille","lat":43.313571,"lon":5.384829,"is_reserved":false,"is_disabled":false,"rental_uris":{"android":"levelo://app?vid=e58472a6-cc2f-4b08-b218-4d6d44ef001a","ios":"levelo://app?vid=e58472a6-cc2f-4b08-b218-4d6d44ef001a"},"vehicle_type_id":"4","last_reported":1724632887,"current_range_meters":24800,"station_id":"ce4bgt92rcd13ifvqcf0","pricing_plan_id":"cebpf4jnsgd1na2vs0mg"},{"bike_id":"fffe9636-b66c-41c5-8f36-4a1eb2aec921","system_id":"levelo_inurba_marseille","lat":43.313571,"lon":5.384829,"is_reserved":false,"is_disabled":false,"rental_uris":{"android":"levelo://app?vid=fffe9636-b66c-41c5-8f36-4a1eb2aec921","ios":"levelo://app?vid=fffe9636-b66c-41c5-8f36-4a1eb2aec921"},"vehicle_type_id":"4","last_reported":1724632887,"current_range_meters":31600,"station_id":"ce4bgt92rcd13ifvqcf0","pricing_plan_id":"cebpf4jnsgd1na2vs0mg"},{"bike_id":"0bcb776d-9e6d-4adc-b497-311d5d0951b3","system_id":"levelo_inurba_marseille","lat":43.31364,"lon":5.38493,"is_reserved":false,"is_disabled":false,"rental_uris":{"android":"levelo://app?vid=0bcb776d-9e6d-4adc-b497-311d5d0951b3","ios":"levelo://app?vid=0bcb776d-9e6d-4adc-b497-311d5d0951b3"},"vehicle_type_id":"4","last_reported":1724632887,"current_range_meters":14000,"station_id":"ce4bgt92rcd13ifvqcf0","pricing_plan_id":"cebpf4jnsgd1na2vs0mg"},{"bike_id":"2a529145-4852-442d-bc5c-d78c2edd7477","system_id":"levelo_inurba_marseille","lat":43.313571,"lon":5.384829,"is_reserved":false,"is_disabled":false,"rental_uris":{"android":"levelo://app?vid=2a529145-4852-442d-bc5c-d78c2edd7477","ios":"levelo://app?vid=2a529145-4852-442d-bc5c-d78c2edd7477"},"vehicle_type_id":"4","last_reported":1724632887,"current_range_meters":24800,"station_id":"ce4bgt92rcd13ifvqcf0","pricing_plan_id":"cebpf4jnsgd1na2vs0mg"},{"bike_id":"8802cbb5-45f6-40bf-b0a6-53cb90abbeb6","system_id":"levelo_inurba_marseille","lat":43.313571,"lon":5.384829,"is_reserved":false,"is_disabled":false,"rental_uris":{"android":"levelo://app?vid=8802cbb5-45f6-40bf-b0a6-53cb90abbeb6","ios":"levelo://app?vid=8802cbb5-45f6-40bf-b0a6-53cb90abbeb6"},"vehicle_type_id":"4","last_reported":1724632887,"current_range_meters":24400,"station_id":"ce4bgt92rcd13ifvqcf0","pricing_plan_id":"cebpf4jnsgd1na2vs0mg"},{"bike_id":"820defe7-e862-46e2-acaa-f5030965a1fa","system_id":"levelo_inurba_marseille","lat":43.313571,"lon":5.384829,"is_reserved":false,"is_disabled":false,"rental_uris":{"android":"levelo://app?vid=820defe7-e862-46e2-acaa-f5030965a1fa","ios":"levelo://app?vid=820defe7-e862-46e2-acaa-f5030965a1fa"},"vehicle_type_id":"4","last_reported":1724632887,"current_range_meters":31600,"station_id":"ce4bgt92rcd13ifvqcf0","pricing_plan_id":"cebpf4jnsgd1na2vs0mg"},{"bike_id":"ff539353-b486-450d-95f8-5148d8c721e1","system_id":"levelo_inurba_marseille","lat":43.313571,"lon":5.384829,"is_reserved":false,"is_disabled":false,"rental_uris":{"android":"levelo://app?vid=ff539353-b486-450d-95f8-5148d8c721e1","ios":"levelo://app?vid=ff539353-b486-450d-95f8-5148d8c721e1"},"vehicle_type_id":"4","last_reported":1724632887,"current_range_meters":27600,"station_id":"ce4bgt92rcd13ifvqcf0","pricing_plan_id":"cebpf4jnsgd1na2vs0mg"},{"bike_id":"395b9d4f-aa7a-403c-b9c4-70f02aec1a42","system_id":"levelo_inurba_marseille","lat":43.313571,"lon":5.384829,"is_reserved":false,"is_disabled":false,"rental_uris":{"android":"levelo://app?vid=395b9d4f-aa7a-403c-b9c4-70f02aec1a42","ios":"levelo://app?vid=395b9d4f-aa7a-403c-b9c4-70f02aec1a42"},"vehicle_type_id":"4","last_reported":1724632887,"current_range_meters":28000,"station_id":"ce4bgt92rcd13ifvqcf0","pricing_plan_id":"cebpf4jnsgd1na2vs0mg"},{"bike_id":"67979954-c1da-4a62-9c8c-913357d3d7da","system_id":"levelo_inurba_marseille","lat":43.299724,"lon":5.371829,"is_reserved":false,"is_disabled":false,"rental_uris":{"android":"levelo://app?vid=67979954-c1da-4a62-9c8c-913357d3d7da","ios":"levelo://app?vid=67979954-c1da-4a62-9c8c-913357d3d7da"},"vehicle_type_id":"4","last_reported":1724632887,"current_range_meters":28800,"station_id":"ce4bgr92rcd13ifvqc7g","pricing_plan_id":"cebpf4jnsgd1na2vs0mg"},{"bike_id":"ae8bce8e-9e85-4e51-a2a2-2a599ef2af00","system_id":"levelo_inurba_marseille","lat":43.299222,"lon":5.365554,"is_reserved":false,"is_disabled":false,"rental_uris":{"android":"levelo://app?vid=ae8bce8e-9e85-4e51-a2a2-2a599ef2af00","ios":"levelo://app?vid=ae8bce8e-9e85-4e51-a2a2-2a599ef2af00"},"vehicle_type_id":"4","last_reported":1724632887,"current_range_meters":24800,"station_id":"ce4bgm92rcd13ifvqbr0","pricing_plan_id":"cebpf4jnsgd1na2vs0mg"},{"bike_id":"7c010e9c-7797-4d3d-aaf6-00662054a828","system_id":"levelo_inurba_marseille","lat":43.29935,"lon":5.36557,"is_reserved":false,"is_disabled":false,"rental_uris":{"android":"levelo://app?vid=7c010e9c-7797-4d3d-aaf6-00662054a828","ios":"levelo://app?vid=7c010e9c-7797-4d3d-aaf6-00662054a828"},"vehicle_type_id":"4","last_reported":1724632887,"current_range_meters":15600,"station_id":"ce4bgm92rcd13ifvqbr0","pricing_plan_id":"cebpf4jnsgd1na2vs0mg"},{"bike_id":"609df44c-c52c-4ab1-a419-e87812dc2271","system_id":"levelo_inurba_marseille","lat":43.29974,"lon":5.37185,"is_reserved":false,"is_disabled":false,"rental_uris":{"android":"levelo://app?vid=609df44c-c52c-4ab1-a419-e87812dc2271","ios":"levelo://app?vid=609df44c-c52c-4ab1-a419-e87812dc2271"},"vehicle_type_id":"4","last_reported":1724632887,"current_range_meters":31200,"station_id":"ce4bgr92rcd13ifvqc7g","pricing_plan_id":"cebpf4jnsgd1na2vs0mg"},{"bike_id":"ea198a52-fa86-496a-8ee3-0f6e9fe85a55","system_id":"levelo_inurba_marseille","lat":43.29969,"lon":5.37197,"is_reserved":false,"is_disabled":false,"rental_uris":{"android":"levelo://app?vid=ea198a52-fa86-496a-8ee3-0f6e9fe85a55","ios":"levelo://app?vid=ea198a52-fa86-496a-8ee3-0f6e9fe85a55"},"vehicle_type_id":"4","last_reported":1724632887,"current_range_meters":26000,"station_id":"","pricing_plan_id":"cebpf4jnsgd1na2vs0mg"},{"bike_id":"a527e9fb-b36a-43e6-b1a8-dbbe25ddc0ff","system_id":"levelo_inurba_marseille","lat":43.29961,"lon":5.37163,"is_reserved":false,"is_disabled":false,"rental_uris":{"android":"levelo://app?vid=a527e9fb-b36a-43e6-b1a8-dbbe25ddc0ff","ios":"levelo://app?vid=a527e9fb-b36a-43e6-b1a8-dbbe25ddc0ff"},"vehicle_type_id":"4","last_reported":1724632887,"current_range_meters":26800,"station_id":"ce4bgr92rcd13ifvqc7g","pricing_plan_id":"cebpf4jnsgd1na2vs0mg"},{"bike_id":"08efd0dd-ab49-4a2f-865e-23e0a6b438e9","system_id":"levelo_inurba_marseille","lat":43.299246,"lon":5.371534,"is_reserved":false,"is_disabled":false,"rental_uris":{"android":"levelo://app?vid=08efd0dd-ab49-4a2f-865e-23e0a6b438e9","ios":"levelo://app?vid=08efd0dd-ab49-4a2f-865e-23e0a6b438e9"},"vehicle_type_id":"4","last_reported":1724632887,"current_range_meters":14800,"station_id":"ce4bgr92rcd13ifvqc7g","pricing_plan_id":"cebpf4jnsgd1na2vs0mg"},{"bike_id":"470a5978-c8ad-4db4-a30c-f0abbc5defd6","system_id":"levelo_inurba_marseille","lat":43.310565,"lon":5.386295,"is_reserved":false,"is_disabled":false,"rental_uris":{"android":"levelo://app?vid=470a5978-c8ad-4db4-a30c-f0abbc5defd6","ios":"levelo://app?vid=470a5978-c8ad-4db4-a30c-f0abbc5defd6"},"vehicle_type_id":"4","last_reported":1724632887,"current_range_meters":14400,"station_id":"","pricing_plan_id":"cebpf4jnsgd1na2vs0mg"},{"bike_id":"83ed9b6a-deea-4f8d-a9f4-3f45357a6f08","system_id":"levelo_inurba_marseille","lat":43.31764,"lon":5.38542,"is_reserved":false,"is_disabled":false,"rental_uris":{"android":"levelo://app?vid=83ed9b6a-deea-4f8d-a9f4-3f45357a6f08","ios":"levelo://app?vid=83ed9b6a-deea-4f8d-a9f4-3f45357a6f08"},"vehicle_type_id":"4","last_reported":1724632887,"current_range_meters":10800,"station_id":"","pricing_plan_id":"cebpf4jnsgd1na2vs0mg"},{"bike_id":"70ea5ea5-c02c-42fc-96cf-e62f16e4ae23","system_id":"levelo_inurba_marseille","lat":43.29854,"lon":5.36288,"is_reserved":false,"is_disabled":false,"rental_uris":{"android":"levelo://app?vid=70ea5ea5-c02c-42fc-96cf-e62f16e4ae23","ios":"levelo://app?vid=70ea5ea5-c02c-42fc-96cf-e62f16e4ae23"},"vehicle_type_id":"4","last_reported":1724632887,"current_range_meters":25600,"station_id":"ce4bgpp2rcd13ifvqc3g","pricing_plan_id":"cebpf4jnsgd1na2vs0mg"},{"bike_id":"17f22183-03fa-4320-90ba-9335517a6339","system_id":"levelo_inurba_marseille","lat":43.305364,"lon":5.384119,"is_reserved":false,"is_disabled":false,"rental_uris":{"android":"levelo://app?vid=17f22183-03fa-4320-90ba-9335517a6339","ios":"levelo://app?vid=17f22183-03fa-4320-90ba-9335517a6339"},"vehicle_type_id":"4","last_reported":1724632887,"current_range_meters":22800,"station_id":"ce4bgg92rcd13ifvqb30","pricing_plan_id":"cebpf4jnsgd1na2vs0mg"},{"bike_id":"e009fd61-502c-4720-a0f5-28fae6e9c3ba","system_id":"levelo_inurba_marseille","lat":43.30548,"lon":5.38431,"is_reserved":false,"is_disabled":false,"rental_uris":{"android":"levelo://app?vid=e009fd61-502c-4720-a0f5-28fae6e9c3ba","ios":"levelo://app?vid=e009fd61-502c-4720-a0f5-28fae6e9c3ba"},"vehicle_type_id":"4","last_reported":1724632887,"current_range_meters":30400,"station_id":"ce4bgg92rcd13ifvqb30","pricing_plan_id":"cebpf4jnsgd1na2vs0mg"},{"bike_id":"60d19067-3ceb-4c6a-bde5-1639e090e635","system_id":"levelo_inurba_marseille","lat":43.305364,"lon":5.384119,"is_reserved":false,"is_disabled":false,"rental_uris":{"android":"levelo://app?vid=60d19067-3ceb-4c6a-bde5-1639e090e635","ios":"levelo://app?vid=60d19067-3ceb-4c6a-bde5-1639e090e635"},"vehicle_type_id":"4","last_reported":1724632887,"current_range_meters":30400,"station_id":"ce4bgg92rcd13ifvqb30","pricing_plan_id":"cebpf4jnsgd1na2vs0mg"},{"bike_id":"08eeb0db-9885-4271-9459-abb65064cd08","system_id":"levelo_inurba_marseille","lat":43.305364,"lon":5.384119,"is_reserved":false,"is_disabled":false,"rental_uris":{"android":"levelo://app?vid=08eeb0db-9885-4271-9459-abb65064cd08","ios":"levelo://app?vid=08eeb0db-9885-4271-9459-abb65064cd08"},"vehicle_type_id":"4","last_reported":1724632887,"current_range_meters":26800,"station_id":"ce4bgg92rcd13ifvqb30","pricing_plan_id":"cebpf4jnsgd1na2vs0mg"},{"bike_id":"c2bc1d27-d674-441a-a2ac-2b738d93a0dd","system_id":"levelo_inurba_marseille","lat":43.305364,"lon":5.384119,"is_reserved":false,"is_disabled":false,"rental_uris":{"android":"levelo://app?vid=c2bc1d27-d674-441a-a2ac-2b738d93a0dd","ios":"levelo://app?vid=c2bc1d27-d674-441a-a2ac-2b738d93a0dd"},"vehicle_type_id":"4","last_reported":1724632887,"current_range_meters":22400,"station_id":"ce4bgg92rcd13ifvqb30","pricing_plan_id":"cebpf4jnsgd1na2vs0mg"},{"bike_id":"43576a8d-30b7-45c4-8cc3-3281c65252f4","system_id":"levelo_inurba_marseille","lat":43.311722,"lon":5.387247,"is_reserved":false,"is_disabled":false,"rental_uris":{"android":"levelo://app?vid=43576a8d-30b7-45c4-8cc3-3281c65252f4","ios":"levelo://app?vid=43576a8d-30b7-45c4-8cc3-3281c65252f4"},"vehicle_type_id":"4","last_reported":1724632887,"current_range_meters":31200,"station_id":"ce4bgv12rcd13ifvqcp0","pricing_plan_id":"cebpf4jnsgd1na2vs0mg"},{"bike_id":"bcf23dc8-5232-43c7-98c5-232dac7b5f24","system_id":"levelo_inurba_marseille","lat":43.311722,"lon":5.387247,"is_reserved":false,"is_disabled":false,"rental_uris":{"android":"levelo://app?vid=bcf23dc8-5232-43c7-98c5-232dac7b5f24","ios":"levelo://app?vid=bcf23dc8-5232-43c7-98c5-232dac7b5f24"},"vehicle_type_id":"4","last_reported":1724632887,"current_range_meters":10800,"station_id":"ce4bgv12rcd13ifvqcp0","pricing_plan_id":"cebpf4jnsgd1na2vs0mg"},{"bike_id":"f47f6614-130c-405f-8b85-f837d80ecb0d","system_id":"levelo_inurba_marseille","lat":43.299243,"lon":5.374807,"is_reserved":false,"is_disabled":false,"rental_uris":{"android":"levelo://app?vid=f47f6614-130c-405f-8b85-f837d80ecb0d","ios":"levelo://app?vid=f47f6614-130c-405f-8b85-f837d80ecb0d"},"vehicle_type_id":"4","last_reported":1724632887,"current_range_meters":15600,"station_id":"ce4bgjh2rcd13ifvqbg0","pricing_plan_id":"cebpf4jnsgd1na2vs0mg"},{"bike_id":"d189d507-738f-4e49-ac44-0c6fe05933d1","system_id":"levelo_inurba_marseille","lat":43.311722,"lon":5.387247,"is_reserved":false,"is_disabled":false,"rental_uris":{"android":"levelo://app?vid=d189d507-738f-4e49-ac44-0c6fe05933d1","ios":"levelo://app?vid=d189d507-738f-4e49-ac44-0c6fe05933d1"},"vehicle_type_id":"4","last_reported":1724632887,"current_range_meters":17600,"station_id":"ce4bgv12rcd13ifvqcp0","pricing_plan_id":"cebpf4jnsgd1na2vs0mg"},{"bike_id":"dbad5375-05c7-4907-815f-e5beef0576df","system_id":"levelo_inurba_marseille","lat":43.311722,"lon":5.387247,"is_reserved":false,"is_disabled":false,"rental_uris":{"android":"levelo://app?vid=dbad5375-05c7-4907-815f-e5beef0576df","ios":"levelo://app?vid=dbad5375-05c7-4907-815f-e5beef0576df"},"vehicle_type_id":"4","last_reported":1724632887,"current_range_meters":31600,"station_id":"ce4bgv12rcd13ifvqcp0","pricing_plan_id":"cebpf4jnsgd1na2vs0mg"},{"bike_id":"a9c09d90-4bfa-4bad-a70f-34f1ab00cede","system_id":"levelo_inurba_marseille","lat":43.311722,"lon":5.387247,"is_reserved":false,"is_disabled":false,"rental_uris":{"android":"levelo://app?vid=a9c09d90-4bfa-4bad-a70f-34f1ab00cede","ios":"levelo://app?vid=a9c09d90-4bfa-4bad-a70f-34f1ab00cede"},"vehicle_type_id":"4","last_reported":1724632887,"current_range_meters":31200,"station_id":"ce4bgv12rcd13ifvqcp0","pricing_plan_id":"cebpf4jnsgd1na2vs0mg"},{"bike_id":"0898351a-65b8-4305-a36a-ba057ed9d43d","system_id":"levelo_inurba_marseille","lat":43.311722,"lon":5.387247,"is_reserved":false,"is_disabled":false,"rental_uris":{"android":"levelo://app?vid=0898351a-65b8-4305-a36a-ba057ed9d43d","ios":"levelo://app?vid=0898351a-65b8-4305-a36a-ba057ed9d43d"},"vehicle_type_id":"4","last_reported":1724632887,"current_range_meters":31600,"station_id":"ce4bgv12rcd13ifvqcp0","pricing_plan_id":"cebpf4jnsgd1na2vs0mg"},{"bike_id":"fdc185ab-6d08-4ccb-8fd3-1e1370a36190","system_id":"levelo_inurba_marseille","lat":43.311722,"lon":5.387247,"is_reserved":false,"is_disabled":false,"rental_uris":{"android":"levelo://app?vid=fdc185ab-6d08-4ccb-8fd3-1e1370a36190","ios":"levelo://app?vid=fdc185ab-6d08-4ccb-8fd3-1e1370a36190"},"vehicle_type_id":"4","last_reported":1724632887,"current_range_meters":25200,"station_id":"ce4bgv12rcd13ifvqcp0","pricing_plan_id":"cebpf4jnsgd1na2vs0mg"},{"bike_id":"b132fe83-634b-4bcd-9099-7ac8c294f73a","system_id":"levelo_inurba_marseille","lat":43.311722,"lon":5.387247,"is_reserved":false,"is_disabled":false,"rental_uris":{"android":"levelo://app?vid=b132fe83-634b-4bcd-9099-7ac8c294f73a","ios":"levelo://app?vid=b132fe83-634b-4bcd-9099-7ac8c294f73a"},"vehicle_type_id":"4","last_reported":1724632887,"current_range_meters":24400,"station_id":"ce4bgv12rcd13ifvqcp0","pricing_plan_id":"cebpf4jnsgd1na2vs0mg"},{"bike_id":"8e0d5b91-2afd-4568-ba39-7e3ebfc932c7","system_id":"levelo_inurba_marseille","lat":43.311722,"lon":5.387247,"is_reserved":false,"is_disabled":false,"rental_uris":{"android":"levelo://app?vid=8e0d5b91-2afd-4568-ba39-7e3ebfc932c7","ios":"levelo://app?vid=8e0d5b91-2afd-4568-ba39-7e3ebfc932c7"},"vehicle_type_id":"4","last_reported":1724632887,"current_range_meters":31600,"station_id":"ce4bgv12rcd13ifvqcp0","pricing_plan_id":"cebpf4jnsgd1na2vs0mg"},{"bike_id":"cd68b158-aefb-48d8-84fd-2f5f2c1958b0","system_id":"levelo_inurba_marseille","lat":43.311722,"lon":5.387247,"is_reserved":false,"is_disabled":false,"rental_uris":{"android":"levelo://app?vid=cd68b158-aefb-48d8-84fd-2f5f2c1958b0","ios":"levelo://app?vid=cd68b158-aefb-48d8-84fd-2f5f2c1958b0"},"vehicle_type_id":"4","last_reported":1724632887,"current_range_meters":5200,"station_id":"ce4bgv12rcd13ifvqcp0","pricing_plan_id":"cebpf4jnsgd1na2vs0mg"},{"bike_id":"45b0c247-df00-4ca5-bc54-b593f461bd2a","system_id":"levelo_inurba_marseille","lat":43.3015,"lon":5.38109,"is_reserved":false,"is_disabled":false,"rental_uris":{"android":"levelo://app?vid=45b0c247-df00-4ca5-bc54-b593f461bd2a","ios":"levelo://app?vid=45b0c247-df00-4ca5-bc54-b593f461bd2a"},"vehicle_type_id":"4","last_reported":1724632887,"current_range_meters":17600,"station_id":"ce4bgjp2rcd13ifvqbh0","pricing_plan_id":"cebpf4jnsgd1na2vs0mg"},{"bike_id":"43637faa-bc57-4af9-9031-ccf7137dafc6","system_id":"levelo_inurba_marseille","lat":43.322951,"lon":5.382573,"is_reserved":false,"is_disabled":false,"rental_uris":{"android":"levelo://app?vid=43637faa-bc57-4af9-9031-ccf7137dafc6","ios":"levelo://app?vid=43637faa-bc57-4af9-9031-ccf7137dafc6"},"vehicle_type_id":"4","last_reported":1724632887,"current_range_meters":16800,"station_id":"ce4bhr12rcd13ifvqhqg","pricing_plan_id":"cebpf4jnsgd1na2vs0mg"},{"bike_id":"f40e39d0-162e-43c6-8e94-c2321202dbf9","system_id":"levelo_inurba_marseille","lat":43.322872,"lon":5.382756,"is_reserved":false,"is_disabled":false,"rental_uris":{"android":"levelo://app?vid=f40e39d0-162e-43c6-8e94-c2321202dbf9","ios":"levelo://app?vid=f40e39d0-162e-43c6-8e94-c2321202dbf9"},"vehicle_type_id":"4","last_reported":1724632887,"current_range_meters":6400,"station_id":"ce4bhr12rcd13ifvqhqg","pricing_plan_id":"cebpf4jnsgd1na2vs0mg"},{"bike_id":"88b36f3e-e6e4-4bd8-a6e7-d0fcd81e745c","system_id":"levelo_inurba_marseille","lat":43.297794,"lon":5.370888,"is_reserved":false,"is_disabled":false,"rental_uris":{"android":"levelo://app?vid=88b36f3e-e6e4-4bd8-a6e7-d0fcd81e745c","ios":"levelo://app?vid=88b36f3e-e6e4-4bd8-a6e7-d0fcd81e745c"},"vehicle_type_id":"4","last_reported":1724632887,"current_range_meters":6000,"station_id":"ce4bgop2rcd13ifvqc1g","pricing_plan_id":"cebpf4jnsgd1na2vs0mg"},{"bike_id":"562cf404-c2e2-4eec-84ba-16992be67cca","system_id":"levelo_inurba_marseille","lat":43.3229,"lon":5.38273,"is_reserved":false,"is_disabled":false,"rental_uris":{"android":"levelo://app?vid=562cf404-c2e2-4eec-84ba-16992be67cca","ios":"levelo://app?vid=562cf404-c2e2-4eec-84ba-16992be67cca"},"vehicle_type_id":"4","last_reported":1724632887,"current_range_meters":19600,"station_id":"ce4bhr12rcd13ifvqhqg","pricing_plan_id":"cebpf4jnsgd1na2vs0mg"},{"bike_id":"8f5cf47f-a4b4-4766-afa5-715d740b61c9","system_id":"levelo_inurba_marseille","lat":43.322835,"lon":5.38281,"is_reserved":false,"is_disabled":false,"rental_uris":{"android":"levelo://app?vid=8f5cf47f-a4b4-4766-afa5-715d740b61c9","ios":"levelo://app?vid=8f5cf47f-a4b4-4766-afa5-715d740b61c9"},"vehicle_type_id":"4","last_reported":1724632887,"current_range_meters":29200,"station_id":"ce4bhr12rcd13ifvqhqg","pricing_plan_id":"cebpf4jnsgd1na2vs0mg"},{"bike_id":"e926ea6c-25df-4239-aee9-c2edbeb54709","system_id":"levelo_inurba_marseille","lat":43.322872,"lon":5.382756,"is_reserved":false,"is_disabled":false,"rental_uris":{"android":"levelo://app?vid=e926ea6c-25df-4239-aee9-c2edbeb54709","ios":"levelo://app?vid=e926ea6c-25df-4239-aee9-c2edbeb54709"},"vehicle_type_id":"4","last_reported":1724632887,"current_range_meters":6800,"station_id":"ce4bhr12rcd13ifvqhqg","pricing_plan_id":"cebpf4jnsgd1na2vs0mg"},{"bike_id":"1600b445-4c74-401c-8ded-fbe3246e677e","system_id":"levelo_inurba_marseille","lat":43.32298,"lon":5.38267,"is_reserved":false,"is_disabled":false,"rental_uris":{"android":"levelo://app?vid=1600b445-4c74-401c-8ded-fbe3246e677e","ios":"levelo://app?vid=1600b445-4c74-401c-8ded-fbe3246e677e"},"vehicle_type_id":"4","last_reported":1724632887,"current_range_meters":23200,"station_id":"ce4bhr12rcd13ifvqhqg","pricing_plan_id":"cebpf4jnsgd1na2vs0mg"},{"bike_id":"9d463c10-4f62-4795-a9e4-99e0d13224f9","system_id":"levelo_inurba_marseille","lat":43.322872,"lon":5.382756,"is_reserved":false,"is_disabled":false,"rental_uris":{"android":"levelo://app?vid=9d463c10-4f62-4795-a9e4-99e0d13224f9","ios":"levelo://app?vid=9d463c10-4f62-4795-a9e4-99e0d13224f9"},"vehicle_type_id":"4","last_reported":1724632887,"current_range_meters":31200,"station_id":"ce4bhr12rcd13ifvqhqg","pricing_plan_id":"cebpf4jnsgd1na2vs0mg"},{"bike_id":"2059d4c4-51f5-410e-9afb-5701f3ac3f3a","system_id":"levelo_inurba_marseille","lat":43.32293,"lon":5.38283,"is_reserved":false,"is_disabled":false,"rental_uris":{"android":"levelo://app?vid=2059d4c4-51f5-410e-9afb-5701f3ac3f3a","ios":"levelo://app?vid=2059d4c4-51f5-410e-9afb-5701f3ac3f3a"},"vehicle_type_id":"4","last_reported":1724632887,"current_range_meters":2800,"station_id":"ce4bhr12rcd13ifvqhqg","pricing_plan_id":"cebpf4jnsgd1na2vs0mg"},{"bike_id":"1eb648d5-3348-46a0-b5d1-80904594d208","system_id":"levelo_inurba_marseille","lat":43.297163,"lon":5.365866,"is_reserved":false,"is_disabled":false,"rental_uris":{"android":"levelo://app?vid=1eb648d5-3348-46a0-b5d1-80904594d208","ios":"levelo://app?vid=1eb648d5-3348-46a0-b5d1-80904594d208"},"vehicle_type_id":"4","last_reported":1724632887,"current_range_meters":31600,"station_id":"ce4bgn12rcd13ifvqbt0","pricing_plan_id":"cebpf4jnsgd1na2vs0mg"},{"bike_id":"4a9260c3-f192-44a2-b6f3-6bd66e1de129","system_id":"levelo_inurba_marseille","lat":43.297163,"lon":5.365866,"is_reserved":false,"is_disabled":false,"rental_uris":{"android":"levelo://app?vid=4a9260c3-f192-44a2-b6f3-6bd66e1de129","ios":"levelo://app?vid=4a9260c3-f192-44a2-b6f3-6bd66e1de129"},"vehicle_type_id":"4","last_reported":1724632887,"current_range_meters":31600,"station_id":"ce4bgn12rcd13ifvqbt0","pricing_plan_id":"cebpf4jnsgd1na2vs0mg"},{"bike_id":"5eae6914-4b49-4216-851d-e78c9a39e5d1","system_id":"levelo_inurba_marseille","lat":43.297163,"lon":5.365866,"is_reserved":false,"is_disabled":false,"rental_uris":{"android":"levelo://app?vid=5eae6914-4b49-4216-851d-e78c9a39e5d1","ios":"levelo://app?vid=5eae6914-4b49-4216-851d-e78c9a39e5d1"},"vehicle_type_id":"4","last_reported":1724632887,"current_range_meters":26000,"station_id":"ce4bgn12rcd13ifvqbt0","pricing_plan_id":"cebpf4jnsgd1na2vs0mg"},{"bike_id":"7b75f371-4b23-469e-9a43-118d789809ab","system_id":"levelo_inurba_marseille","lat":43.297163,"lon":5.365866,"is_reserved":false,"is_disabled":false,"rental_uris":{"android":"levelo://app?vid=7b75f371-4b23-469e-9a43-118d789809ab","ios":"levelo://app?vid=7b75f371-4b23-469e-9a43-118d789809ab"},"vehicle_type_id":"4","last_reported":1724632887,"current_range_meters":17600,"station_id":"ce4bgn12rcd13ifvqbt0","pricing_plan_id":"cebpf4jnsgd1na2vs0mg"},{"bike_id":"679880e5-e249-45f1-a2dd-2df50e48d7d8","system_id":"levelo_inurba_marseille","lat":43.297163,"lon":5.365866,"is_reserved":false,"is_disabled":false,"rental_uris":{"android":"levelo://app?vid=679880e5-e249-45f1-a2dd-2df50e48d7d8","ios":"levelo://app?vid=679880e5-e249-45f1-a2dd-2df50e48d7d8"},"vehicle_type_id":"4","last_reported":1724632887,"current_range_meters":4000,"station_id":"ce4bgn12rcd13ifvqbt0","pricing_plan_id":"cebpf4jnsgd1na2vs0mg"},{"bike_id":"0bc956f0-196f-4e7c-987d-ff7e59f21360","system_id":"levelo_inurba_marseille","lat":43.314474,"lon":5.388297,"is_reserved":false,"is_disabled":false,"rental_uris":{"android":"levelo://app?vid=0bc956f0-196f-4e7c-987d-ff7e59f21360","ios":"levelo://app?vid=0bc956f0-196f-4e7c-987d-ff7e59f21360"},"vehicle_type_id":"4","last_reported":1724632887,"current_range_meters":2400,"station_id":"","pricing_plan_id":"cebpf4jnsgd1na2vs0mg"},{"bike_id":"3d71f8c8-2a92-4902-9b58-58c139ebec0c","system_id":"levelo_inurba_marseille","lat":43.297163,"lon":5.365866,"is_reserved":false,"is_disabled":false,"rental_uris":{"android":"levelo://app?vid=3d71f8c8-2a92-4902-9b58-58c139ebec0c","ios":"levelo://app?vid=3d71f8c8-2a92-4902-9b58-58c139ebec0c"},"vehicle_type_id":"4","last_reported":1724632887,"current_range_meters":14400,"station_id":"ce4bgn12rcd13ifvqbt0","pricing_plan_id":"cebpf4jnsgd1na2vs0mg"},{"bike_id":"ecdb81c1-de4c-47bc-93ca-de261bc73e46","system_id":"levelo_inurba_marseille","lat":43.297163,"lon":5.365866,"is_reserved":false,"is_disabled":false,"rental_uris":{"android":"levelo://app?vid=ecdb81c1-de4c-47bc-93ca-de261bc73e46","ios":"levelo://app?vid=ecdb81c1-de4c-47bc-93ca-de261bc73e46"},"vehicle_type_id":"4","last_reported":1724632887,"current_range_meters":9600,"station_id":"ce4bgn12rcd13ifvqbt0","pricing_plan_id":"cebpf4jnsgd1na2vs0mg"},{"bike_id":"b51e732d-de2c-4b4a-bb40-187975ca0b75","system_id":"levelo_inurba_marseille","lat":43.297163,"lon":5.365866,"is_reserved":false,"is_disabled":false,"rental_uris":{"android":"levelo://app?vid=b51e732d-de2c-4b4a-bb40-187975ca0b75","ios":"levelo://app?vid=b51e732d-de2c-4b4a-bb40-187975ca0b75"},"vehicle_type_id":"4","last_reported":1724632887,"current_range_meters":25600,"station_id":"ce4bgn12rcd13ifvqbt0","pricing_plan_id":"cebpf4jnsgd1na2vs0mg"},{"bike_id":"2938296c-6451-471a-8093-9c06d79859b5","system_id":"levelo_inurba_marseille","lat":43.29573,"lon":5.367355,"is_reserved":false,"is_disabled":false,"rental_uris":{"android":"levelo://app?vid=2938296c-6451-471a-8093-9c06d79859b5","ios":"levelo://app?vid=2938296c-6451-471a-8093-9c06d79859b5"},"vehicle_type_id":"4","last_reported":1724632887,"current_range_meters":28800,"station_id":"ce4bgph2rcd13ifvqc2g","pricing_plan_id":"cebpf4jnsgd1na2vs0mg"},{"bike_id":"ec9bdf8f-bb63-4495-8739-544deb96e9d4","system_id":"levelo_inurba_marseille","lat":43.29725,"lon":5.37692,"is_reserved":false,"is_disabled":false,"rental_uris":{"android":"levelo://app?vid=ec9bdf8f-bb63-4495-8739-544deb96e9d4","ios":"levelo://app?vid=ec9bdf8f-bb63-4495-8739-544deb96e9d4"},"vehicle_type_id":"4","last_reported":1724632887,"current_range_meters":16000,"station_id":"ce4bgkh2rcd13ifvqbl0","pricing_plan_id":"cebpf4jnsgd1na2vs0mg"},{"bike_id":"0f80e4a7-dd24-4bcb-898e-d82ea20cfec9","system_id":"levelo_inurba_marseille","lat":43.2963,"lon":5.36031,"is_reserved":false,"is_disabled":false,"rental_uris":{"android":"levelo://app?vid=0f80e4a7-dd24-4bcb-898e-d82ea20cfec9","ios":"levelo://app?vid=0f80e4a7-dd24-4bcb-898e-d82ea20cfec9"},"vehicle_type_id":"4","last_reported":1724632887,"current_range_meters":0,"station_id":"","pricing_plan_id":"cebpf4jnsgd1na2vs0mg"},{"bike_id":"e23b5135-05cf-48d2-905d-a30772322ea3","system_id":"levelo_inurba_marseille","lat":43.30958,"lon":5.390294,"is_reserved":false,"is_disabled":false,"rental_uris":{"android":"levelo://app?vid=e23b5135-05cf-48d2-905d-a30772322ea3","ios":"levelo://app?vid=e23b5135-05cf-48d2-905d-a30772322ea3"},"vehicle_type_id":"4","last_reported":1724632887,"current_range_meters":0,"station_id":"ce4bgup2rcd13ifvqco0","pricing_plan_id":"cebpf4jnsgd1na2vs0mg"},{"bike_id":"453cae1e-c50e-4aad-b17e-09b6fea5436c","system_id":"levelo_inurba_marseille","lat":43.309589,"lon":5.390258,"is_reserved":false,"is_disabled":false,"rental_uris":{"android":"levelo://app?vid=453cae1e-c50e-4aad-b17e-09b6fea5436c","ios":"levelo://app?vid=453cae1e-c50e-4aad-b17e-09b6fea5436c"},"vehicle_type_id":"4","last_reported":1724632887,"current_range_meters":31600,"station_id":"ce4bgup2rcd13ifvqco0","pricing_plan_id":"cebpf4jnsgd1na2vs0mg"},{"bike_id":"3495ac98-d0f9-4f9f-b3da-2d0275e07583","system_id":"levelo_inurba_marseille","lat":43.309589,"lon":5.390258,"is_reserved":false,"is_disabled":false,"rental_uris":{"android":"levelo://app?vid=3495ac98-d0f9-4f9f-b3da-2d0275e07583","ios":"levelo://app?vid=3495ac98-d0f9-4f9f-b3da-2d0275e07583"},"vehicle_type_id":"4","last_reported":1724632887,"current_range_meters":30800,"station_id":"ce4bgup2rcd13ifvqco0","pricing_plan_id":"cebpf4jnsgd1na2vs0mg"},{"bike_id":"713103d7-5271-4ca5-babe-7c873a2f1ade","system_id":"levelo_inurba_marseille","lat":43.309589,"lon":5.390258,"is_reserved":false,"is_disabled":false,"rental_uris":{"android":"levelo://app?vid=713103d7-5271-4ca5-babe-7c873a2f1ade","ios":"levelo://app?vid=713103d7-5271-4ca5-babe-7c873a2f1ade"},"vehicle_type_id":"4","last_reported":1724632887,"current_range_meters":27600,"station_id":"ce4bgup2rcd13ifvqco0","pricing_plan_id":"cebpf4jnsgd1na2vs0mg"},{"bike_id":"3312f2d4-2dbc-428e-b88f-6b2e718667c3","system_id":"levelo_inurba_marseille","lat":43.309589,"lon":5.390258,"is_reserved":false,"is_disabled":false,"rental_uris":{"android":"levelo://app?vid=3312f2d4-2dbc-428e-b88f-6b2e718667c3","ios":"levelo://app?vid=3312f2d4-2dbc-428e-b88f-6b2e718667c3"},"vehicle_type_id":"4","last_reported":1724632887,"current_range_meters":18400,"station_id":"ce4bgup2rcd13ifvqco0","pricing_plan_id":"cebpf4jnsgd1na2vs0mg"},{"bike_id":"35c802db-4816-4669-8f3e-eb9acf0a3535","system_id":"levelo_inurba_marseille","lat":43.309589,"lon":5.390258,"is_reserved":false,"is_disabled":false,"rental_uris":{"android":"levelo://app?vid=35c802db-4816-4669-8f3e-eb9acf0a3535","ios":"levelo://app?vid=35c802db-4816-4669-8f3e-eb9acf0a3535"},"vehicle_type_id":"4","last_reported":1724632887,"current_range_meters":31200,"station_id":"ce4bgup2rcd13ifvqco0","pricing_plan_id":"cebpf4jnsgd1na2vs0mg"},{"bike_id":"30d0f55d-bf22-42a5-a81a-139ac16bfceb","system_id":"levelo_inurba_marseille","lat":43.309589,"lon":5.390258,"is_reserved":false,"is_disabled":false,"rental_uris":{"android":"levelo://app?vid=30d0f55d-bf22-42a5-a81a-139ac16bfceb","ios":"levelo://app?vid=30d0f55d-bf22-42a5-a81a-139ac16bfceb"},"vehicle_type_id":"4","last_reported":1724632887,"current_range_meters":17200,"station_id":"ce4bgup2rcd13ifvqco0","pricing_plan_id":"cebpf4jnsgd1na2vs0mg"},{"bike_id":"20b70f53-1a6f-4cff-97e6-eed41056a9fb","system_id":"levelo_inurba_marseille","lat":43.309589,"lon":5.390258,"is_reserved":false,"is_disabled":false,"rental_uris":{"android":"levelo://app?vid=20b70f53-1a6f-4cff-97e6-eed41056a9fb","ios":"levelo://app?vid=20b70f53-1a6f-4cff-97e6-eed41056a9fb"},"vehicle_type_id":"4","last_reported":1724632887,"current_range_meters":26000,"station_id":"ce4bgup2rcd13ifvqco0","pricing_plan_id":"cebpf4jnsgd1na2vs0mg"},{"bike_id":"121b1831-5235-41ec-8d9a-9eb421fccdcf","system_id":"levelo_inurba_marseille","lat":43.309589,"lon":5.390258,"is_reserved":false,"is_disabled":false,"rental_uris":{"android":"levelo://app?vid=121b1831-5235-41ec-8d9a-9eb421fccdcf","ios":"levelo://app?vid=121b1831-5235-41ec-8d9a-9eb421fccdcf"},"vehicle_type_id":"4","last_reported":1724632887,"current_range_meters":28800,"station_id":"ce4bgup2rcd13ifvqco0","pricing_plan_id":"cebpf4jnsgd1na2vs0mg"},{"bike_id":"e6fd205d-6a33-4337-837d-c3b0ba2eac92","system_id":"levelo_inurba_marseille","lat":43.317557,"lon":5.390173,"is_reserved":false,"is_disabled":false,"rental_uris":{"android":"levelo://app?vid=e6fd205d-6a33-4337-837d-c3b0ba2eac92","ios":"levelo://app?vid=e6fd205d-6a33-4337-837d-c3b0ba2eac92"},"vehicle_type_id":"4","last_reported":1724632887,"current_range_meters":17200,"station_id":"ce4bhqp2rcd13ifvqhng","pricing_plan_id":"cebpf4jnsgd1na2vs0mg"},{"bike_id":"c9c803bd-6d05-45bd-84ac-7cc8952c2126","system_id":"levelo_inurba_marseille","lat":43.317557,"lon":5.390173,"is_reserved":false,"is_disabled":false,"rental_uris":{"android":"levelo://app?vid=c9c803bd-6d05-45bd-84ac-7cc8952c2126","ios":"levelo://app?vid=c9c803bd-6d05-45bd-84ac-7cc8952c2126"},"vehicle_type_id":"4","last_reported":1724632887,"current_range_meters":31600,"station_id":"ce4bhqp2rcd13ifvqhng","pricing_plan_id":"cebpf4jnsgd1na2vs0mg"},{"bike_id":"226b65c0-ca0a-4f97-bf1e-25075e0211af","system_id":"levelo_inurba_marseille","lat":43.317557,"lon":5.390173,"is_reserved":false,"is_disabled":false,"rental_uris":{"android":"levelo://app?vid=226b65c0-ca0a-4f97-bf1e-25075e0211af","ios":"levelo://app?vid=226b65c0-ca0a-4f97-bf1e-25075e0211af"},"vehicle_type_id":"4","last_reported":1724632887,"current_range_meters":23600,"station_id":"ce4bhqp2rcd13ifvqhng","pricing_plan_id":"cebpf4jnsgd1na2vs0mg"},{"bike_id":"cbb2c254-b724-42f0-9275-3e313c9ed18c","system_id":"levelo_inurba_marseille","lat":43.317557,"lon":5.390173,"is_reserved":false,"is_disabled":false,"rental_uris":{"android":"levelo://app?vid=cbb2c254-b724-42f0-9275-3e313c9ed18c","ios":"levelo://app?vid=cbb2c254-b724-42f0-9275-3e313c9ed18c"},"vehicle_type_id":"4","last_reported":1724632887,"current_range_meters":24000,"station_id":"ce4bhqp2rcd13ifvqhng","pricing_plan_id":"cebpf4jnsgd1na2vs0mg"},{"bike_id":"5c25c199-ad08-45e7-9c78-d45b515c366d","system_id":"levelo_inurba_marseille","lat":43.317557,"lon":5.390173,"is_reserved":false,"is_disabled":false,"rental_uris":{"android":"levelo://app?vid=5c25c199-ad08-45e7-9c78-d45b515c366d","ios":"levelo://app?vid=5c25c199-ad08-45e7-9c78-d45b515c366d"},"vehicle_type_id":"4","last_reported":1724632887,"current_range_meters":20400,"station_id":"ce4bhqp2rcd13ifvqhng","pricing_plan_id":"cebpf4jnsgd1na2vs0mg"},{"bike_id":"2afdfa6e-e000-415d-8a37-d38a937c32cb","system_id":"levelo_inurba_marseille","lat":43.317557,"lon":5.390173,"is_reserved":false,"is_disabled":false,"rental_uris":{"android":"levelo://app?vid=2afdfa6e-e000-415d-8a37-d38a937c32cb","ios":"levelo://app?vid=2afdfa6e-e000-415d-8a37-d38a937c32cb"},"vehicle_type_id":"4","last_reported":1724632887,"current_range_meters":28800,"station_id":"ce4bhqp2rcd13ifvqhng","pricing_plan_id":"cebpf4jnsgd1na2vs0mg"},{"bike_id":"d2804a4d-48f2-4e6c-a917-4c7ff6016f93","system_id":"levelo_inurba_marseille","lat":43.317557,"lon":5.390173,"is_reserved":false,"is_disabled":false,"rental_uris":{"android":"levelo://app?vid=d2804a4d-48f2-4e6c-a917-4c7ff6016f93","ios":"levelo://app?vid=d2804a4d-48f2-4e6c-a917-4c7ff6016f93"},"vehicle_type_id":"4","last_reported":1724632887,"current_range_meters":28400,"station_id":"ce4bhqp2rcd13ifvqhng","pricing_plan_id":"cebpf4jnsgd1na2vs0mg"},{"bike_id":"f3a30803-e6e6-44e8-b48a-491c239989cf","system_id":"levelo_inurba_marseille","lat":43.317557,"lon":5.390173,"is_reserved":false,"is_disabled":false,"rental_uris":{"android":"levelo://app?vid=f3a30803-e6e6-44e8-b48a-491c239989cf","ios":"levelo://app?vid=f3a30803-e6e6-44e8-b48a-491c239989cf"},"vehicle_type_id":"4","last_reported":1724632887,"current_range_meters":15200,"station_id":"ce4bhqp2rcd13ifvqhng","pricing_plan_id":"cebpf4jnsgd1na2vs0mg"},{"bike_id":"c3b5431a-bc4b-4c80-8e25-b2c955c54430","system_id":"levelo_inurba_marseille","lat":43.317557,"lon":5.390173,"is_reserved":false,"is_disabled":false,"rental_uris":{"android":"levelo://app?vid=c3b5431a-bc4b-4c80-8e25-b2c955c54430","ios":"levelo://app?vid=c3b5431a-bc4b-4c80-8e25-b2c955c54430"},"vehicle_type_id":"4","last_reported":1724632887,"current_range_meters":20000,"station_id":"ce4bhqp2rcd13ifvqhng","pricing_plan_id":"cebpf4jnsgd1na2vs0mg"},{"bike_id":"756deb3d-c495-4b06-a8c5-9ecb3f5b662c","system_id":"levelo_inurba_marseille","lat":43.304278,"lon":5.388868,"is_reserved":false,"is_disabled":false,"rental_uris":{"android":"levelo://app?vid=756deb3d-c495-4b06-a8c5-9ecb3f5b662c","ios":"levelo://app?vid=756deb3d-c495-4b06-a8c5-9ecb3f5b662c"},"vehicle_type_id":"4","last_reported":1724632887,"current_range_meters":800,"station_id":"ce4bgk12rcd13ifvqbi0","pricing_plan_id":"cebpf4jnsgd1na2vs0mg"},{"bike_id":"ae16de2b-69dd-43f4-82c5-d556cdbe3f20","system_id":"levelo_inurba_marseille","lat":43.304274,"lon":5.388873,"is_reserved":false,"is_disabled":false,"rental_uris":{"android":"levelo://app?vid=ae16de2b-69dd-43f4-82c5-d556cdbe3f20","ios":"levelo://app?vid=ae16de2b-69dd-43f4-82c5-d556cdbe3f20"},"vehicle_type_id":"4","last_reported":1724632887,"current_range_meters":12000,"station_id":"ce4bgk12rcd13ifvqbi0","pricing_plan_id":"cebpf4jnsgd1na2vs0mg"},{"bike_id":"8702e8c3-ef2f-4f25-81aa-c9ea8416fb26","system_id":"levelo_inurba_marseille","lat":43.295748,"lon":5.37522,"is_reserved":false,"is_disabled":false,"rental_uris":{"android":"levelo://app?vid=8702e8c3-ef2f-4f25-81aa-c9ea8416fb26","ios":"levelo://app?vid=8702e8c3-ef2f-4f25-81aa-c9ea8416fb26"},"vehicle_type_id":"4","last_reported":1724632887,"current_range_meters":19200,"station_id":"ce4bgh92rcd13ifvqb50","pricing_plan_id":"cebpf4jnsgd1na2vs0mg"},{"bike_id":"178afe1d-fa9b-44c9-a1da-f0d6e694e2eb","system_id":"levelo_inurba_marseille","lat":43.298981,"lon":5.382945,"is_reserved":false,"is_disabled":false,"rental_uris":{"android":"levelo://app?vid=178afe1d-fa9b-44c9-a1da-f0d6e694e2eb","ios":"levelo://app?vid=178afe1d-fa9b-44c9-a1da-f0d6e694e2eb"},"vehicle_type_id":"4","last_reported":1724632887,"current_range_meters":0,"station_id":"","pricing_plan_id":"cebpf4jnsgd1na2vs0mg"},{"bike_id":"57967cb4-b79e-458f-88e4-9689ad417859","system_id":"levelo_inurba_marseille","lat":43.304274,"lon":5.388873,"is_reserved":false,"is_disabled":false,"rental_uris":{"android":"levelo://app?vid=57967cb4-b79e-458f-88e4-9689ad417859","ios":"levelo://app?vid=57967cb4-b79e-458f-88e4-9689ad417859"},"vehicle_type_id":"4","last_reported":1724632887,"current_range_meters":10400,"station_id":"ce4bgk12rcd13ifvqbi0","pricing_plan_id":"cebpf4jnsgd1na2vs0mg"},{"bike_id":"3d612f07-61c8-4255-8579-f0e2c33050e2","system_id":"levelo_inurba_marseille","lat":43.295748,"lon":5.37522,"is_reserved":false,"is_disabled":false,"rental_uris":{"android":"levelo://app?vid=3d612f07-61c8-4255-8579-f0e2c33050e2","ios":"levelo://app?vid=3d612f07-61c8-4255-8579-f0e2c33050e2"},"vehicle_type_id":"4","last_reported":1724632887,"current_range_meters":12800,"station_id":"ce4bgh92rcd13ifvqb50","pricing_plan_id":"cebpf4jnsgd1na2vs0mg"},{"bike_id":"75844794-ca53-410f-bbf6-3ee92cc813aa","system_id":"levelo_inurba_marseille","lat":43.304274,"lon":5.388873,"is_reserved":false,"is_disabled":false,"rental_uris":{"android":"levelo://app?vid=75844794-ca53-410f-bbf6-3ee92cc813aa","ios":"levelo://app?vid=75844794-ca53-410f-bbf6-3ee92cc813aa"},"vehicle_type_id":"4","last_reported":1724632887,"current_range_meters":31200,"station_id":"ce4bgk12rcd13ifvqbi0","pricing_plan_id":"cebpf4jnsgd1na2vs0mg"},{"bike_id":"c254846d-50f7-47c0-8cbc-867fec696ed5","system_id":"levelo_inurba_marseille","lat":43.304278,"lon":5.388868,"is_reserved":false,"is_disabled":false,"rental_uris":{"android":"levelo://app?vid=c254846d-50f7-47c0-8cbc-867fec696ed5","ios":"levelo://app?vid=c254846d-50f7-47c0-8cbc-867fec696ed5"},"vehicle_type_id":"4","last_reported":1724632887,"current_range_meters":31200,"station_id":"ce4bgk12rcd13ifvqbi0","pricing_plan_id":"cebpf4jnsgd1na2vs0mg"},{"bike_id":"bb373eee-3d47-426b-be99-44fe0bb668cd","system_id":"levelo_inurba_marseille","lat":43.304278,"lon":5.388868,"is_reserved":false,"is_disabled":false,"rental_uris":{"android":"levelo://app?vid=bb373eee-3d47-426b-be99-44fe0bb668cd","ios":"levelo://app?vid=bb373eee-3d47-426b-be99-44fe0bb668cd"},"vehicle_type_id":"4","last_reported":1724632887,"current_range_meters":29600,"station_id":"ce4bgk12rcd13ifvqbi0","pricing_plan_id":"cebpf4jnsgd1na2vs0mg"},{"bike_id":"18e851e7-36b4-4e7f-be06-9b13ad6f53d4","system_id":"levelo_inurba_marseille","lat":43.304274,"lon":5.388873,"is_reserved":false,"is_disabled":false,"rental_uris":{"android":"levelo://app?vid=18e851e7-36b4-4e7f-be06-9b13ad6f53d4","ios":"levelo://app?vid=18e851e7-36b4-4e7f-be06-9b13ad6f53d4"},"vehicle_type_id":"4","last_reported":1724632887,"current_range_meters":21200,"station_id":"ce4bgk12rcd13ifvqbi0","pricing_plan_id":"cebpf4jnsgd1na2vs0mg"},{"bike_id":"23471874-ec8d-47a8-8fd9-c793b2effeee","system_id":"levelo_inurba_marseille","lat":43.304274,"lon":5.388873,"is_reserved":false,"is_disabled":false,"rental_uris":{"android":"levelo://app?vid=23471874-ec8d-47a8-8fd9-c793b2effeee","ios":"levelo://app?vid=23471874-ec8d-47a8-8fd9-c793b2effeee"},"vehicle_type_id":"4","last_reported":1724632887,"current_range_meters":4400,"station_id":"ce4bgk12rcd13ifvqbi0","pricing_plan_id":"cebpf4jnsgd1na2vs0mg"},{"bike_id":"8fad924d-d34f-4eb0-85b3-3869171fd252","system_id":"levelo_inurba_marseille","lat":43.304278,"lon":5.388868,"is_reserved":false,"is_disabled":false,"rental_uris":{"android":"levelo://app?vid=8fad924d-d34f-4eb0-85b3-3869171fd252","ios":"levelo://app?vid=8fad924d-d34f-4eb0-85b3-3869171fd252"},"vehicle_type_id":"4","last_reported":1724632887,"current_range_meters":30800,"station_id":"ce4bgk12rcd13ifvqbi0","pricing_plan_id":"cebpf4jnsgd1na2vs0mg"},{"bike_id":"0312aac5-5cb1-4018-8e85-f7a5857aff8d","system_id":"levelo_inurba_marseille","lat":43.304278,"lon":5.388868,"is_reserved":false,"is_disabled":false,"rental_uris":{"android":"levelo://app?vid=0312aac5-5cb1-4018-8e85-f7a5857aff8d","ios":"levelo://app?vid=0312aac5-5cb1-4018-8e85-f7a5857aff8d"},"vehicle_type_id":"4","last_reported":1724632887,"current_range_meters":18000,"station_id":"ce4bgk12rcd13ifvqbi0","pricing_plan_id":"cebpf4jnsgd1na2vs0mg"},{"bike_id":"7eb416e9-21cd-4a5d-b581-1138631f5673","system_id":"levelo_inurba_marseille","lat":43.304278,"lon":5.388868,"is_reserved":false,"is_disabled":false,"rental_uris":{"android":"levelo://app?vid=7eb416e9-21cd-4a5d-b581-1138631f5673","ios":"levelo://app?vid=7eb416e9-21cd-4a5d-b581-1138631f5673"},"vehicle_type_id":"4","last_reported":1724632887,"current_range_meters":26000,"station_id":"ce4bgk12rcd13ifvqbi0","pricing_plan_id":"cebpf4jnsgd1na2vs0mg"},{"bike_id":"c96a100b-d70c-4167-9a97-ec1cca6f8c02","system_id":"levelo_inurba_marseille","lat":43.304278,"lon":5.388868,"is_reserved":false,"is_disabled":false,"rental_uris":{"android":"levelo://app?vid=c96a100b-d70c-4167-9a97-ec1cca6f8c02","ios":"levelo://app?vid=c96a100b-d70c-4167-9a97-ec1cca6f8c02"},"vehicle_type_id":"4","last_reported":1724632887,"current_range_meters":12800,"station_id":"ce4bgk12rcd13ifvqbi0","pricing_plan_id":"cebpf4jnsgd1na2vs0mg"},{"bike_id":"43d0380c-1191-429c-86a4-4a15d183085c","system_id":"levelo_inurba_marseille","lat":43.304274,"lon":5.388873,"is_reserved":false,"is_disabled":false,"rental_uris":{"android":"levelo://app?vid=43d0380c-1191-429c-86a4-4a15d183085c","ios":"levelo://app?vid=43d0380c-1191-429c-86a4-4a15d183085c"},"vehicle_type_id":"4","last_reported":1724632887,"current_range_meters":21600,"station_id":"ce4bgk12rcd13ifvqbi0","pricing_plan_id":"cebpf4jnsgd1na2vs0mg"},{"bike_id":"7dba4bda-a088-4285-b41d-3377f66d3863","system_id":"levelo_inurba_marseille","lat":43.304278,"lon":5.388868,"is_reserved":false,"is_disabled":false,"rental_uris":{"android":"levelo://app?vid=7dba4bda-a088-4285-b41d-3377f66d3863","ios":"levelo://app?vid=7dba4bda-a088-4285-b41d-3377f66d3863"},"vehicle_type_id":"4","last_reported":1724632887,"current_range_meters":8000,"station_id":"ce4bgk12rcd13ifvqbi0","pricing_plan_id":"cebpf4jnsgd1na2vs0mg"},{"bike_id":"31874de3-dfaa-4bfb-93e8-730152332d9a","system_id":"levelo_inurba_marseille","lat":43.304274,"lon":5.388873,"is_reserved":false,"is_disabled":false,"rental_uris":{"android":"levelo://app?vid=31874de3-dfaa-4bfb-93e8-730152332d9a","ios":"levelo://app?vid=31874de3-dfaa-4bfb-93e8-730152332d9a"},"vehicle_type_id":"4","last_reported":1724632887,"current_range_meters":22000,"station_id":"ce4bgk12rcd13ifvqbi0","pricing_plan_id":"cebpf4jnsgd1na2vs0mg"},{"bike_id":"497efdb9-4266-4183-aff5-20dd104565f3","system_id":"levelo_inurba_marseille","lat":43.304278,"lon":5.388868,"is_reserved":false,"is_disabled":false,"rental_uris":{"android":"levelo://app?vid=497efdb9-4266-4183-aff5-20dd104565f3","ios":"levelo://app?vid=497efdb9-4266-4183-aff5-20dd104565f3"},"vehicle_type_id":"4","last_reported":1724632887,"current_range_meters":8400,"station_id":"ce4bgk12rcd13ifvqbi0","pricing_plan_id":"cebpf4jnsgd1na2vs0mg"},{"bike_id":"0d5b7a13-7936-4d21-855d-bfbd6c79f2ea","system_id":"levelo_inurba_marseille","lat":43.304278,"lon":5.388868,"is_reserved":false,"is_disabled":false,"rental_uris":{"android":"levelo://app?vid=0d5b7a13-7936-4d21-855d-bfbd6c79f2ea","ios":"levelo://app?vid=0d5b7a13-7936-4d21-855d-bfbd6c79f2ea"},"vehicle_type_id":"4","last_reported":1724632887,"current_range_meters":26000,"station_id":"ce4bgk12rcd13ifvqbi0","pricing_plan_id":"cebpf4jnsgd1na2vs0mg"},{"bike_id":"a76a224d-3060-431d-afd2-78ab6f28b18f","system_id":"levelo_inurba_marseille","lat":43.304274,"lon":5.388873,"is_reserved":false,"is_disabled":false,"rental_uris":{"android":"levelo://app?vid=a76a224d-3060-431d-afd2-78ab6f28b18f","ios":"levelo://app?vid=a76a224d-3060-431d-afd2-78ab6f28b18f"},"vehicle_type_id":"4","last_reported":1724632887,"current_range_meters":19600,"station_id":"ce4bgk12rcd13ifvqbi0","pricing_plan_id":"cebpf4jnsgd1na2vs0mg"},{"bike_id":"37e9c807-b745-499d-8237-ed5d12ea9704","system_id":"levelo_inurba_marseille","lat":43.304278,"lon":5.388868,"is_reserved":false,"is_disabled":false,"rental_uris":{"android":"levelo://app?vid=37e9c807-b745-499d-8237-ed5d12ea9704","ios":"levelo://app?vid=37e9c807-b745-499d-8237-ed5d12ea9704"},"vehicle_type_id":"4","last_reported":1724632887,"current_range_meters":30800,"station_id":"ce4bgk12rcd13ifvqbi0","pricing_plan_id":"cebpf4jnsgd1na2vs0mg"},{"bike_id":"697cd365-100a-4eaa-913e-f542cdc18f17","system_id":"levelo_inurba_marseille","lat":43.296277,"lon":5.377108,"is_reserved":false,"is_disabled":false,"rental_uris":{"android":"levelo://app?vid=697cd365-100a-4eaa-913e-f542cdc18f17","ios":"levelo://app?vid=697cd365-100a-4eaa-913e-f542cdc18f17"},"vehicle_type_id":"4","last_reported":1724632887,"current_range_meters":6400,"station_id":"ce4bgi92rcd13ifvqb90","pricing_plan_id":"cebpf4jnsgd1na2vs0mg"},{"bike_id":"0d01a282-9846-426a-abc5-0117bf1914cb","system_id":"levelo_inurba_marseille","lat":43.299707,"lon":5.384859,"is_reserved":false,"is_disabled":false,"rental_uris":{"android":"levelo://app?vid=0d01a282-9846-426a-abc5-0117bf1914cb","ios":"levelo://app?vid=0d01a282-9846-426a-abc5-0117bf1914cb"},"vehicle_type_id":"4","last_reported":1724632887,"current_range_meters":11600,"station_id":"ce4bgj92rcd13ifvqbd0","pricing_plan_id":"cebpf4jnsgd1na2vs0mg"},{"bike_id":"a41718a0-961f-4405-82d7-efd36dfdfa39","system_id":"levelo_inurba_marseille","lat":43.299717,"lon":5.384845,"is_reserved":false,"is_disabled":false,"rental_uris":{"android":"levelo://app?vid=a41718a0-961f-4405-82d7-efd36dfdfa39","ios":"levelo://app?vid=a41718a0-961f-4405-82d7-efd36dfdfa39"},"vehicle_type_id":"4","last_reported":1724632887,"current_range_meters":10400,"station_id":"ce4bgj92rcd13ifvqbd0","pricing_plan_id":"cebpf4jnsgd1na2vs0mg"},{"bike_id":"c23507a5-a64c-4613-b540-760673a07a59","system_id":"levelo_inurba_marseille","lat":43.299724,"lon":5.384848,"is_reserved":false,"is_disabled":false,"rental_uris":{"android":"levelo://app?vid=c23507a5-a64c-4613-b540-760673a07a59","ios":"levelo://app?vid=c23507a5-a64c-4613-b540-760673a07a59"},"vehicle_type_id":"4","last_reported":1724632887,"current_range_meters":30000,"station_id":"ce4bgj92rcd13ifvqbd0","pricing_plan_id":"cebpf4jnsgd1na2vs0mg"},{"bike_id":"bd317c60-8d34-486c-aff4-29496de257e0","system_id":"levelo_inurba_marseille","lat":43.30143,"lon":5.38767,"is_reserved":false,"is_disabled":false,"rental_uris":{"android":"levelo://app?vid=bd317c60-8d34-486c-aff4-29496de257e0","ios":"levelo://app?vid=bd317c60-8d34-486c-aff4-29496de257e0"},"vehicle_type_id":"4","last_reported":1724632887,"current_range_meters":16400,"station_id":"ce4bghh2rcd13ifvqb60","pricing_plan_id":"cebpf4jnsgd1na2vs0mg"},{"bike_id":"085aacc0-ed62-49ab-8e19-4db803231e1f","system_id":"levelo_inurba_marseille","lat":43.3015,"lon":5.3878,"is_reserved":false,"is_disabled":false,"rental_uris":{"android":"levelo://app?vid=085aacc0-ed62-49ab-8e19-4db803231e1f","ios":"levelo://app?vid=085aacc0-ed62-49ab-8e19-4db803231e1f"},"vehicle_type_id":"4","last_reported":1724632887,"current_range_meters":1200,"station_id":"ce4bghh2rcd13ifvqb60","pricing_plan_id":"cebpf4jnsgd1na2vs0mg"},{"bike_id":"c25194b4-2739-409a-aba4-7f616e6cc36f","system_id":"levelo_inurba_marseille","lat":43.301396,"lon":5.387812,"is_reserved":false,"is_disabled":false,"rental_uris":{"android":"levelo://app?vid=c25194b4-2739-409a-aba4-7f616e6cc36f","ios":"levelo://app?vid=c25194b4-2739-409a-aba4-7f616e6cc36f"},"vehicle_type_id":"4","last_reported":1724632887,"current_range_meters":400,"station_id":"ce4bghh2rcd13ifvqb60","pricing_plan_id":"cebpf4jnsgd1na2vs0mg"},{"bike_id":"e541b77a-3e07-4fd8-be5d-1e207c962395","system_id":"levelo_inurba_marseille","lat":43.301229,"lon":5.387804,"is_reserved":false,"is_disabled":false,"rental_uris":{"android":"levelo://app?vid=e541b77a-3e07-4fd8-be5d-1e207c962395","ios":"levelo://app?vid=e541b77a-3e07-4fd8-be5d-1e207c962395"},"vehicle_type_id":"4","last_reported":1724632887,"current_range_meters":31200,"station_id":"ce4bghh2rcd13ifvqb60","pricing_plan_id":"cebpf4jnsgd1na2vs0mg"},{"bike_id":"7b6d66e6-93a0-4b73-89f0-f402174af305","system_id":"levelo_inurba_marseille","lat":43.32367,"lon":5.388836,"is_reserved":false,"is_disabled":false,"rental_uris":{"android":"levelo://app?vid=7b6d66e6-93a0-4b73-89f0-f402174af305","ios":"levelo://app?vid=7b6d66e6-93a0-4b73-89f0-f402174af305"},"vehicle_type_id":"4","last_reported":1724632887,"current_range_meters":31200,"station_id":"ce4bhqp2rcd13ifvqhog","pricing_plan_id":"cebpf4jnsgd1na2vs0mg"},{"bike_id":"a1ee482f-2a7a-407c-90ad-26034a19fdf3","system_id":"levelo_inurba_marseille","lat":43.32367,"lon":5.388836,"is_reserved":false,"is_disabled":false,"rental_uris":{"android":"levelo://app?vid=a1ee482f-2a7a-407c-90ad-26034a19fdf3","ios":"levelo://app?vid=a1ee482f-2a7a-407c-90ad-26034a19fdf3"},"vehicle_type_id":"4","last_reported":1724632887,"current_range_meters":8800,"station_id":"ce4bhqp2rcd13ifvqhog","pricing_plan_id":"cebpf4jnsgd1na2vs0mg"},{"bike_id":"e9f43118-4f53-4435-8e12-a9693a896f53","system_id":"levelo_inurba_marseille","lat":43.32367,"lon":5.388836,"is_reserved":false,"is_disabled":false,"rental_uris":{"android":"levelo://app?vid=e9f43118-4f53-4435-8e12-a9693a896f53","ios":"levelo://app?vid=e9f43118-4f53-4435-8e12-a9693a896f53"},"vehicle_type_id":"4","last_reported":1724632887,"current_range_meters":31200,"station_id":"ce4bhqp2rcd13ifvqhog","pricing_plan_id":"cebpf4jnsgd1na2vs0mg"},{"bike_id":"7128ea37-839e-4a14-892e-f65d3683649f","system_id":"levelo_inurba_marseille","lat":43.32367,"lon":5.388836,"is_reserved":false,"is_disabled":false,"rental_uris":{"android":"levelo://app?vid=7128ea37-839e-4a14-892e-f65d3683649f","ios":"levelo://app?vid=7128ea37-839e-4a14-892e-f65d3683649f"},"vehicle_type_id":"4","last_reported":1724632887,"current_range_meters":13200,"station_id":"ce4bhqp2rcd13ifvqhog","pricing_plan_id":"cebpf4jnsgd1na2vs0mg"},{"bike_id":"23d4a728-9a73-4940-b968-90a42022d2e0","system_id":"levelo_inurba_marseille","lat":43.295789,"lon":5.3815,"is_reserved":false,"is_disabled":false,"rental_uris":{"android":"levelo://app?vid=23d4a728-9a73-4940-b968-90a42022d2e0","ios":"levelo://app?vid=23d4a728-9a73-4940-b968-90a42022d2e0"},"vehicle_type_id":"4","last_reported":1724632887,"current_range_meters":21600,"station_id":"ce4bgl12rcd13ifvqbo0","pricing_plan_id":"cebpf4jnsgd1na2vs0mg"},{"bike_id":"8173e0bf-69ae-432e-9020-f05ae363d347","system_id":"levelo_inurba_marseille","lat":43.292749,"lon":5.368402,"is_reserved":false,"is_disabled":false,"rental_uris":{"android":"levelo://app?vid=8173e0bf-69ae-432e-9020-f05ae363d347","ios":"levelo://app?vid=8173e0bf-69ae-432e-9020-f05ae363d347"},"vehicle_type_id":"4","last_reported":1724632887,"current_range_meters":0,"station_id":"ce4bhbp2rcd13ifvqesg","pricing_plan_id":"cebpf4jnsgd1na2vs0mg"},{"bike_id":"55822abb-9937-4302-9e94-0c3697c43b31","system_id":"levelo_inurba_marseille","lat":43.292999,"lon":5.371782,"is_reserved":false,"is_disabled":false,"rental_uris":{"android":"levelo://app?vid=55822abb-9937-4302-9e94-0c3697c43b31","ios":"levelo://app?vid=55822abb-9937-4302-9e94-0c3697c43b31"},"vehicle_type_id":"4","last_reported":1724632887,"current_range_meters":30000,"station_id":"ce4bgh92rcd13ifvqb40","pricing_plan_id":"cebpf4jnsgd1na2vs0mg"},{"bike_id":"f0f23af3-86b6-49b9-b75a-cce204f7c2fd","system_id":"levelo_inurba_marseille","lat":43.29271,"lon":5.36849,"is_reserved":false,"is_disabled":false,"rental_uris":{"android":"levelo://app?vid=f0f23af3-86b6-49b9-b75a-cce204f7c2fd","ios":"levelo://app?vid=f0f23af3-86b6-49b9-b75a-cce204f7c2fd"},"vehicle_type_id":"4","last_reported":1724632887,"current_range_meters":0,"station_id":"ce4bhbp2rcd13ifvqesg","pricing_plan_id":"cebpf4jnsgd1na2vs0mg"},{"bike_id":"d80174f1-e10e-4e17-9d24-60d6d0b25778","system_id":"levelo_inurba_marseille","lat":43.30594,"lon":5.39353,"is_reserved":false,"is_disabled":false,"rental_uris":{"android":"levelo://app?vid=d80174f1-e10e-4e17-9d24-60d6d0b25778","ios":"levelo://app?vid=d80174f1-e10e-4e17-9d24-60d6d0b25778"},"vehicle_type_id":"4","last_reported":1724632887,"current_range_meters":24000,"station_id":"ce4bh0p2rcd13ifvqd80","pricing_plan_id":"cebpf4jnsgd1na2vs0mg"},{"bike_id":"1c2d065d-775b-4dd0-9532-bc9f44a4fec3","system_id":"levelo_inurba_marseille","lat":43.305994,"lon":5.393687,"is_reserved":false,"is_disabled":false,"rental_uris":{"android":"levelo://app?vid=1c2d065d-775b-4dd0-9532-bc9f44a4fec3","ios":"levelo://app?vid=1c2d065d-775b-4dd0-9532-bc9f44a4fec3"},"vehicle_type_id":"4","last_reported":1724632887,"current_range_meters":16800,"station_id":"ce4bh0p2rcd13ifvqd80","pricing_plan_id":"cebpf4jnsgd1na2vs0mg"},{"bike_id":"74295391-5647-43d9-9598-a44b4fbaeec1","system_id":"levelo_inurba_marseille","lat":43.305994,"lon":5.393687,"is_reserved":false,"is_disabled":false,"rental_uris":{"android":"levelo://app?vid=74295391-5647-43d9-9598-a44b4fbaeec1","ios":"levelo://app?vid=74295391-5647-43d9-9598-a44b4fbaeec1"},"vehicle_type_id":"4","last_reported":1724632887,"current_range_meters":8400,"station_id":"ce4bh0p2rcd13ifvqd80","pricing_plan_id":"cebpf4jnsgd1na2vs0mg"},{"bike_id":"7fb83083-677d-4136-af73-e14fe2a76822","system_id":"levelo_inurba_marseille","lat":43.305994,"lon":5.393687,"is_reserved":false,"is_disabled":false,"rental_uris":{"android":"levelo://app?vid=7fb83083-677d-4136-af73-e14fe2a76822","ios":"levelo://app?vid=7fb83083-677d-4136-af73-e14fe2a76822"},"vehicle_type_id":"4","last_reported":1724632887,"current_range_meters":10000,"station_id":"ce4bh0p2rcd13ifvqd80","pricing_plan_id":"cebpf4jnsgd1na2vs0mg"},{"bike_id":"dd42ca82-ca23-4b94-a9fc-a919b3720cf4","system_id":"levelo_inurba_marseille","lat":43.305994,"lon":5.393687,"is_reserved":false,"is_disabled":false,"rental_uris":{"android":"levelo://app?vid=dd42ca82-ca23-4b94-a9fc-a919b3720cf4","ios":"levelo://app?vid=dd42ca82-ca23-4b94-a9fc-a919b3720cf4"},"vehicle_type_id":"4","last_reported":1724632887,"current_range_meters":22800,"station_id":"ce4bh0p2rcd13ifvqd80","pricing_plan_id":"cebpf4jnsgd1na2vs0mg"},