{"last_updated":1739563800,"ttl":60,"version":"2.2","data":{"bikes":[{"bike_id":"58350611-2196-4f0c-8556-74347c395a96","system_id":"levelo_inurba_marseille","lat":43.251093,"lon":5.403577,"is_reserved":false,"is_disabled":true,"rental_uris":{"android":"levelo://app?vid=58350611-2196-4f0c-8556-74347c395a96","ios":"levelo://app?vid=58350611-2196-4f0c-8556-74347c395a96"},"vehicle_type_id":"4","last_reported":1739563800,"current_range_meters":1200,"station_id":"ce4bhlh2rcd13ifvqgig","pricing_plan_id":"cebpf4jnsgd1na2vs0mg"},{"bike_id":"8f8fcc2b-6a80-49a2-bcdc-2ba2085e83ae","system_id":"levelo_inurba_marseille","lat":43.31188,"lon":5.38723,"is_reserved":false,"is_disabled":false,"rental_uris":{"android":"levelo://app?vid=8f8fcc2b-6a80-49a2-bcdc-2ba2085e83ae","ios":"levelo://app?vid=8f8fcc2b-6a80-49a2-bcdc-2ba2085e83ae"},"vehicle_type_id":"4","last_reported":1739563800,"current_range_meters":38800,"station_id":"ce4bgv12rcd13ifvqcp0","pricing_plan_id":"cebpf4jnsgd1na2vs0mg"},{"bike_id":"8dfdbe12-b35c-40b3-9608-e6563855b938","system_id":"levelo_inurba_marseille","lat":43.27812,"lon":5.40706,"is_reserved":false,"is_disabled":false,"rental_uris":{"android":"levelo://app?vid=8dfdbe12-b35c-40b3-9608-e6563855b938","ios":"levelo://app?vid=8dfdbe12-b35c-40b3-9608-e6563855b938"},"vehicle_type_id":"4","last_reported":1739563800,"current_range_meters":38800,"station_id":"ce4bhnh2rcd13ifvqgtg","pricing_plan_id":"cebpf4jnsgd1na2vs0mg"},{"bike_id":"72376f6e-a208-4a20-92fe-58cdd5092d6e","system_id":"levelo_inurba_marseille","lat":43.29287,"lon":5.3746,"is_reserved":false,"is_disabled":false,"rental_uris":{"android":"levelo://app?vid=72376f6e-a208-4a20-92fe-58cdd5092d6e","ios":"levelo://app?vid=72376f6e-a208-4a20-92fe-58cdd5092d6e"},"vehicle_type_id":"4","last_reported":1739563800,"current_range_meters":39200,"station_id":"ce4bgi12rcd13ifvqb70","pricing_plan_id":"cebpf4jnsgd1na2vs0mg"},{"bike_id":"719a875a-0651-4af4-9cdb-36248ea3b24a","system_id":"levelo_inurba_marseille","lat":43.28334,"lon":5.38986,"is_reserved":false,"is_disabled":false,"rental_uris":{"android":"levelo://app?vid=719a875a-0651-4af4-9cdb-36248ea3b24a","ios":"levelo://app?vid=719a875a-0651-4af4-9cdb-36248ea3b24a"},"vehicle_type_id":"4","last_reported":1739563800,"current_range_meters":15200,"station_id":"","pricing_plan_id":"cebpf4jnsgd1na2vs0mg"},{"bike_id":"e32e18bd-adb7-4393-9f83-59a17bb9141d","system_id":"levelo_inurba_marseille","lat":43.296,"lon":5.38099,"is_reserved":false,"is_disabled":false,"rental_uris":{"android":"levelo://app?vid=e32e18bd-adb7-4393-9f83-59a17bb9141d","ios":"levelo://app?vid=e32e18bd-adb7-4393-9f83-59a17bb9141d"},"vehicle_type_id":"4","last_reported":1739563800,"current_range_meters":38400,"station_id":"ce4bgl12rcd13ifvqbo0","pricing_plan_id":"cebpf4jnsgd1na2vs0mg"},{"bike_id":"43abdafd-6140-4b6a-a08b-ca9be9ff5d0b","system_id":"levelo_inurba_marseille","lat":43.28002,"lon":5.400125,"is_reserved":false,"is_disabled":false,"rental_uris":{"android":"levelo://app?vid=43abdafd-6140-4b6a-a08b-ca9be9ff5d0b","ios":"levelo://app?vid=43abdafd-6140-4b6a-a08b-ca9be9ff5d0b"},"vehicle_type_id":"4","last_reported":1739563800,"current_range_meters":16800,"station_id":"ce4bho92rcd13ifvqh4g","pricing_plan_id":"cebpf4jnsgd1na2vs0mg"},{"bike_id":"aeeb603c-9e21-471f-a3b4-471a46d5c228","system_id":"levelo_inurba_marseille","lat":43.24138,"lon":5.36441,"is_reserved":false,"is_disabled":false,"rental_uris":{"android":"levelo://app?vid=aeeb603c-9e21-471f-a3b4-471a46d5c228","ios":"levelo://app?vid=aeeb603c-9e21-471f-a3b4-471a46d5c228"},"vehicle_type_id":"4","last_reported":1739563800,"current_range_meters":20400,"station_id":"","pricing_plan_id":"cebpf4jnsgd1na2vs0mg"},{"bike_id":"1d4165b9-e8af-42e7-8e88-54a0f84b4f26","system_id":"levelo_inurba_marseille","lat":43.23192,"lon":5.39978,"is_reserved":false,"is_disabled":false,"rental_uris":{"android":"levelo://app?vid=1d4165b9-e8af-42e7-8e88-54a0f84b4f26","ios":"levelo://app?vid=1d4165b9-e8af-42e7-8e88-54a0f84b4f26"},"vehicle_type_id":"4","last_reported":1739563800,"current_range_meters":28400,"station_id":"ce4bhn12rcd13ifvqgqg","pricing_plan_id":"cebpf4jnsgd1na2vs0mg"},{"bike_id":"c1e76274-801b-4893-b793-e635178d8b86","system_id":"levelo_inurba_marseille","lat":43.23969,"lon":5.36623,"is_reserved":false,"is_disabled":false,"rental_uris":{"android":"levelo://app?vid=c1e76274-801b-4893-b793-e635178d8b86","ios":"levelo://app?vid=c1e76274-801b-4893-b793-e635178d8b86"},"vehicle_type_id":"4","last_reported":1739563800,"current_range_meters":38800,"station_id":"ce4bhi12rcd13ifvqfp0","pricing_plan_id":"cebpf4jnsgd1na2vs0mg"},{"bike_id":"5b9a3d8e-a95a-4753-8943-71cffeb68638","system_id":"levelo_inurba_marseille","lat":43.30132,"lon":5.38783,"is_reserved":false,"is_disabled":true,"rental_uris":{"android":"levelo://app?vid=5b9a3d8e-a95a-4753-8943-71cffeb68638","ios":"levelo://app?vid=5b9a3d8e-a95a-4753-8943-71cffeb68638"},"vehicle_type_id":"4","last_reported":1739563800,"current_range_meters":28000,"station_id":"ce4bghh2rcd13ifvqb60","pricing_plan_id":"cebpf4jnsgd1na2vs0mg"},{"bike_id":"3d55dfbc-79dc-4a16-8c46-cf49fec8982e","system_id":"levelo_inurba_marseille","lat":43.24382,"lon":5.37072,"is_reserved":false,"is_disabled":false,"rental_uris":{"android":"levelo://app?vid=3d55dfbc-79dc-4a16-8c46-cf49fec8982e","ios":"levelo://app?vid=3d55dfbc-79dc-4a16-8c46-cf49fec8982e"},"vehicle_type_id":"4","last_reported":1739563800,"current_range_meters":38800,"station_id":"ce4bhhh2rcd13ifvqfk0","pricing_plan_id":"cebpf4jnsgd1na2vs0mg"},{"bike_id":"e8436261-a2ea-4a14-aa08-36bbff6dac5d","system_id":"levelo_inurba_marseille","lat":43.29531,"lon":5.38548,"is_reserved":false,"is_disabled":false,"rental_uris":{"android":"levelo://app?vid=e8436261-a2ea-4a14-aa08-36bbff6dac5d","ios":"levelo://app?vid=e8436261-a2ea-4a14-aa08-36bbff6dac5d"},"vehicle_type_id":"4","last_reported":1739563800,"current_range_meters":15200,"station_id":"ce4bgih2rcd13ifvqba0","pricing_plan_id":"cebpf4jnsgd1na2vs0mg"},{"bike_id":"c74f8124-73dc-4bd8-a98e-9fa42c510bc4","system_id":"levelo_inurba_marseille","lat":43.2319,"lon":5.40004,"is_reserved":false,"is_disabled":false,"rental_uris":{"android":"levelo://app?vid=c74f8124-73dc-4bd8-a98e-9fa42c510bc4","ios":"levelo://app?vid=c74f8124-73dc-4bd8-a98e-9fa42c510bc4"},"vehicle_type_id":"4","last_reported":1739563800,"current_range_meters":28000,"station_id":"ce4bhn12rcd13ifvqgqg","pricing_plan_id":"cebpf4jnsgd1na2vs0mg"},{"bike_id":"eace11fc-366d-49db-ab9f-2f957d528477","system_id":"levelo_inurba_marseille","lat":43.25498,"lon":5.3765,"is_reserved":false,"is_disabled":false,"rental_uris":{"android":"levelo://app?vid=eace11fc-366d-49db-ab9f-2f957d528477","ios":"levelo://app?vid=eace11fc-366d-49db-ab9f-2f957d528477"},"vehicle_type_id":"4","last_reported":1739563800,"current_range_meters":38400,"station_id":"ce4bhh12rcd13ifvqff0","pricing_plan_id":"cebpf4jnsgd1na2vs0mg"},{"bike_id":"001413bd-adb4-40c4-ac1a-dd8e692a2c76","system_id":"levelo_inurba_marseille","lat":43.29813,"lon":5.40408,"is_reserved":false,"is_disabled":false,"rental_uris":{"android":"levelo://app?vid=001413bd-adb4-40c4-ac1a-dd8e692a2c76","ios":"levelo://app?vid=001413bd-adb4-40c4-ac1a-dd8e692a2c76"},"vehicle_type_id":"4","last_reported":1739563800,"current_range_meters":18800,"station_id":"ce4bh112rcd13ifvqd90","pricing_plan_id":"cebpf4jnsgd1na2vs0mg"},{"bike_id":"5d2484e8-d08f-4bba-ae77-36cb31e97e9b","system_id":"levelo_inurba_marseille","lat":43.29579,"lon":5.42371,"is_reserved":false,"is_disabled":false,"rental_uris":{"android":"levelo://app?vid=5d2484e8-d08f-4bba-ae77-36cb31e97e9b","ios":"levelo://app?vid=5d2484e8-d08f-4bba-ae77-36cb31e97e9b"},"vehicle_type_id":"4","last_reported":1739563800,"current_range_meters":39200,"station_id":"ce4bhph2rcd13ifvqhdg","pricing_plan_id":"cebpf4jnsgd1na2vs0mg"},{"bike_id":"6b42f4f1-2360-420a-81a5-fa8f868ac30d","system_id":"levelo_inurba_marseille","lat":43.27171,"lon":5.39002,"is_reserved":false,"is_disabled":false,"rental_uris":{"android":"levelo://app?vid=6b42f4f1-2360-420a-81a5-fa8f868ac30d","ios":"levelo://app?vid=6b42f4f1-2360-420a-81a5-fa8f868ac30d"},"vehicle_type_id":"4","last_reported":1739563800,"current_range_meters":36400,"station_id":"","pricing_plan_id":"cebpf4jnsgd1na2vs0mg"},{"bike_id":"c3fc4d9c-9722-4fad-8d64-356a520f9340","system_id":"levelo_inurba_marseille","lat":43.30095,"lon":5.39085,"is_reserved":false,"is_disabled":false,"rental_uris":{"android":"levelo://app?vid=c3fc4d9c-9722-4fad-8d64-356a520f9340","ios":"levelo://app?vid=c3fc4d9c-9722-4fad-8d64-356a520f9340"},"vehicle_type_id":"4","last_reported":1739563800,"current_range_meters":36800,"station_id":"ce4bh192rcd13ifvqdb0","pricing_plan_id":"cebpf4jnsgd1na2vs0mg"},{"bike_id":"7d6b8158-ad67-4c2a-a9dd-d72b0196487d","system_id":"levelo_inurba_marseille","lat":43.29615,"lon":5.37161,"is_reserved":false,"is_disabled":false,"rental_uris":{"android":"levelo://app?vid=7d6b8158-ad67-4c2a-a9dd-d72b0196487d","ios":"levelo://app?vid=7d6b8158-ad67-4c2a-a9dd-d72b0196487d"},"vehicle_type_id":"4","last_reported":1739563800,"current_range_meters":38400,"station_id":"ce4bgnh2rcd13ifvqc0g","pricing_plan_id":"cebpf4jnsgd1na2vs0mg"},{"bike_id":"39ef1bea-a129-42d8-baa8-baa7cd93f596","system_id":"levelo_inurba_marseille","lat":43.30914,"lon":5.36849,"is_reserved":false,"is_disabled":false,"rental_uris":{"android":"levelo://app?vid=39ef1bea-a129-42d8-baa8-baa7cd93f596","ios":"levelo://app?vid=39ef1bea-a129-42d8-baa8-baa7cd93f596"},"vehicle_type_id":"4","last_reported":1739563800,"current_range_meters":18000,"station_id":"ce4bgn92rcd13ifvqbvg","pricing_plan_id":"cebpf4jnsgd1na2vs0mg"},{"bike_id":"b34c6303-752a-46a1-93ad-ddbc991e20b6","system_id":"levelo_inurba_marseille","lat":43.23049,"lon":5.35466,"is_reserved":false,"is_disabled":false,"rental_uris":{"android":"levelo://app?vid=b34c6303-752a-46a1-93ad-ddbc991e20b6","ios":"levelo://app?vid=b34c6303-752a-46a1-93ad-ddbc991e20b6"},"vehicle_type_id":"4","last_reported":1739563800,"current_range_meters":38800,"station_id":"cpo3342slgdg3j2ifvpg","pricing_plan_id":"cebpf4jnsgd1na2vs0mg"},{"bike_id":"5557cf88-c9b4-477c-9a10-d8d0753e4d48","system_id":"levelo_inurba_marseille","lat":43.27996,"lon":5.40031,"is_reserved":false,"is_disabled":false,"rental_uris":{"android":"levelo://app?vid=5557cf88-c9b4-477c-9a10-d8d0753e4d48","ios":"levelo://app?vid=5557cf88-c9b4-477c-9a10-d8d0753e4d48"},"vehicle_type_id":"4","last_reported":1739563800,"current_range_meters":29600,"station_id":"ce4bho92rcd13ifvqh4g","pricing_plan_id":"cebpf4jnsgd1na2vs0mg"},{"bike_id":"6aaff894-7121-419e-ac48-8d700cc5addf","system_id":"levelo_inurba_marseille","lat":43.30146,"lon":5.37409,"is_reserved":false,"is_disabled":false,"rental_uris":{"android":"levelo://app?vid=6aaff894-7121-419e-ac48-8d700cc5addf","ios":"levelo://app?vid=6aaff894-7121-419e-ac48-8d700cc5addf"},"vehicle_type_id":"4","last_reported":1739563800,"current_range_meters":8400,"station_id":"ce4bgs92rcd13ifvqcc0","pricing_plan_id":"cebpf4jnsgd1na2vs0mg"},{"bike_id":"cc87dba4-d32e-4d1b-b9f5-c6856948d7c9","system_id":"levelo_inurba_marseille","lat":43.27664,"lon":5.3888,"is_reserved":false,"is_disabled":false,"rental_uris":{"android":"levelo://app?vid=cc87dba4-d32e-4d1b-b9f5-c6856948d7c9","ios":"levelo://app?vid=cc87dba4-d32e-4d1b-b9f5-c6856948d7c9"},"vehicle_type_id":"4","last_reported":1739563800,"current_range_meters":38000,"station_id":"ce4bhi12rcd13ifvqfo0","pricing_plan_id":"cebpf4jnsgd1na2vs0mg"},{"bike_id":"1300f95a-15ad-4299-a221-177495e93e42","system_id":"levelo_inurba_marseille","lat":43.32677,"lon":5.4102,"is_reserved":false,"is_disabled":false,"rental_uris":{"android":"levelo://app?vid=1300f95a-15ad-4299-a221-177495e93e42","ios":"levelo://app?vid=1300f95a-15ad-4299-a221-177495e93e42"},"vehicle_type_id":"4","last_reported":1739563800,"current_range_meters":25600,"station_id":"ce4bhpp2rcd13ifvqhgg","pricing_plan_id":"cebpf4jnsgd1na2vs0mg"},{"bike_id":"2ad97cc1-03f3-4312-98e7-1328f365e805","system_id":"levelo_inurba_marseille","lat":43.27943,"lon":5.41047,"is_reserved":false,"is_disabled":false,"rental_uris":{"android":"levelo://app?vid=2ad97cc1-03f3-4312-98e7-1328f365e805","ios":"levelo://app?vid=2ad97cc1-03f3-4312-98e7-1328f365e805"},"vehicle_type_id":"4","last_reported":1739563800,"current_range_meters":33600,"station_id":"ce4bhnp2rcd13ifvqh0g","pricing_plan_id":"cebpf4jnsgd1na2vs0mg"},{"bike_id":"db0c59a5-e36c-460d-a199-b553cfb8a418","system_id":"levelo_inurba_marseille","lat":43.28372,"lon":5.42973,"is_reserved":false,"is_disabled":false,"rental_uris":{"android":"levelo://app?vid=db0c59a5-e36c-460d-a199-b553cfb8a418","ios":"levelo://app?vid=db0c59a5-e36c-460d-a199-b553cfb8a418"},"vehicle_type_id":"4","last_reported":1739563800,"current_range_meters":24800,"station_id":"","pricing_plan_id":"cebpf4jnsgd1na2vs0mg"},{"bike_id":"400aed67-e41e-454d-aec2-c5cdbbc2dfe8","system_id":"levelo_inurba_marseille","lat":43.30195,"lon":5.37589,"is_reserved":false,"is_disabled":false,"rental_uris":{"android":"levelo://app?vid=400aed67-e41e-454d-aec2-c5cdbbc2dfe8","ios":"levelo://app?vid=400aed67-e41e-454d-aec2-c5cdbbc2dfe8"},"vehicle_type_id":"4","last_reported":1739563800,"current_range_meters":34000,"station_id":"ce4bgs92rcd13ifvqcc0","pricing_plan_id":"cebpf4jnsgd1na2vs0mg"},{"bike_id":"a8dbbbc1-833f-4adc-991f-385660231801","system_id":"levelo_inurba_marseille","lat":43.29789,"lon":5.38123,"is_reserved":false,"is_disabled":false,"rental_uris":{"android":"levelo://app?vid=a8dbbbc1-833f-4adc-991f-385660231801","ios":"levelo://app?vid=a8dbbbc1-833f-4adc-991f-385660231801"},"vehicle_type_id":"4","last_reported":1739563800,"current_range_meters":38800,"station_id":"ce4bgip2rcd13ifvqbb0","pricing_plan_id":"cebpf4jnsgd1na2vs0mg"},{"bike_id":"d430bbf5-dcb4-4006-8220-7af0587abbc5","system_id":"levelo_inurba_marseille","lat":43.25087,"lon":5.39519,"is_reserved":false,"is_disabled":false,"rental_uris":{"android":"levelo://app?vid=d430bbf5-dcb4-4006-8220-7af0587abbc5","ios":"levelo://app?vid=d430bbf5-dcb4-4006-8220-7af0587abbc5"},"vehicle_type_id":"4","last_reported":1739563800,"current_range_meters":39200,"station_id":"ce4bhm12rcd13ifvqgkg","pricing_plan_id":"cebpf4jnsgd1na2vs0mg"},{"bike_id":"f1c49cdb-c423-415c-badc-8e4cfb5c6b43","system_id":"levelo_inurba_marseille","lat":43.29276,"lon":5.36844,"is_reserved":false,"is_disabled":false,"rental_uris":{"android":"levelo://app?vid=f1c49cdb-c423-415c-badc-8e4cfb5c6b43","ios":"levelo://app?vid=f1c49cdb-c423-415c-badc-8e4cfb5c6b43"},"vehicle_type_id":"4","last_reported":1739563800,"current_range_meters":27200,"station_id":"ce4bhbp2rcd13ifvqesg","pricing_plan_id":"cebpf4jnsgd1na2vs0mg"},{"bike_id":"5ac1b3e9-6624-4bab-a598-45ab544a1b2f","system_id":"levelo_inurba_marseille","lat":43.26687,"lon":5.38327,"is_reserved":false,"is_disabled":false,"rental_uris":{"android":"levelo://app?vid=5ac1b3e9-6624-4bab-a598-45ab544a1b2f","ios":"levelo://app?vid=5ac1b3e9-6624-4bab-a598-45ab544a1b2f"},"vehicle_type_id":"4","last_reported":1739563800,"current_range_meters":8400,"station_id":"ce4bhg92rcd13ifvqf90","pricing_plan_id":"cebpf4jnsgd1na2vs0mg"},{"bike_id":"a2b8b535-68ab-48b4-8f05-9e1a3fd245cc","system_id":"levelo_inurba_marseille","lat":43.31756,"lon":5.39018,"is_reserved":false,"is_disabled":false,"rental_uris":{"android":"levelo://app?vid=a2b8b535-68ab-48b4-8f05-9e1a3fd245cc","ios":"levelo://app?vid=a2b8b535-68ab-48b4-8f05-9e1a3fd245cc"},"vehicle_type_id":"4","last_reported":1739563800,"current_range_meters":35600,"station_id":"ce4bhqp2rcd13ifvqhng","pricing_plan_id":"cebpf4jnsgd1na2vs0mg"},{"bike_id":"6efd9de7-fb29-4972-be54-1e784b49d1b0","system_id":"levelo_inurba_marseille","lat":43.24827,"lon":5.37457,"is_reserved":false,"is_disabled":false,"rental_uris":{"android":"levelo://app?vid=6efd9de7-fb29-4972-be54-1e784b49d1b0","ios":"levelo://app?vid=6efd9de7-fb29-4972-be54-1e784b49d1b0"},"vehicle_type_id":"4","last_reported":1739563800,"current_range_meters":36400,"station_id":"ce4bhgh2rcd13ifvqfb0","pricing_plan_id":"cebpf4jnsgd1na2vs0mg"},{"bike_id":"1f0657bb-7196-41de-84fc-c834bbf90b28","system_id":"levelo_inurba_marseille","lat":43.28078,"lon":5.39645,"is_reserved":false,"is_disabled":false,"rental_uris":{"android":"levelo://app?vid=1f0657bb-7196-41de-84fc-c834bbf90b28","ios":"levelo://app?vid=1f0657bb-7196-41de-84fc-c834bbf90b28"},"vehicle_type_id":"4","last_reported":1739563800,"current_range_meters":38000,"station_id":"ce4bho12rcd13ifvqh2g","pricing_plan_id":"cebpf4jnsgd1na2vs0mg"},{"bike_id":"2de3d260-2417-4bc8-86ce-3bc3b1a20af3","system_id":"levelo_inurba_marseille","lat":43.2549,"lon":5.37671,"is_reserved":false,"is_disabled":false,"rental_uris":{"android":"levelo://app?vid=2de3d260-2417-4bc8-86ce-3bc3b1a20af3","ios":"levelo://app?vid=2de3d260-2417-4bc8-86ce-3bc3b1a20af3"},"vehicle_type_id":"4","last_reported":1739563800,"current_range_meters":39200,"station_id":"ce4bhh12rcd13ifvqff0","pricing_plan_id":"cebpf4jnsgd1na2vs0mg"},{"bike_id":"cc52dec1-67b6-4c07-b07c-19c77250a425","system_id":"levelo_inurba_marseille","lat":43.31327,"lon":5.39695,"is_reserved":false,"is_disabled":false,"rental_uris":{"android":"levelo://app?vid=cc52dec1-67b6-4c07-b07c-19c77250a425","ios":"levelo://app?vid=cc52dec1-67b6-4c07-b07c-19c77250a425"},"vehicle_type_id":"4","last_reported":1739563800,"current_range_meters":33600,"station_id":"ce4bgvp2rcd13ifvqcu0","pricing_plan_id":"cebpf4jnsgd1na2vs0mg"},{"bike_id":"04826741-9203-41a1-85e6-32051bcfd227","system_id":"levelo_inurba_marseille","lat":43.24811,"lon":5.37453,"is_reserved":false,"is_disabled":false,"rental_uris":{"android":"levelo://app?vid=04826741-9203-41a1-85e6-32051bcfd227","ios":"levelo://app?vid=04826741-9203-41a1-85e6-32051bcfd227"},"vehicle_type_id":"4","last_reported":1739563800,"current_range_meters":3600,"station_id":"ce4bhgh2rcd13ifvqfb0","pricing_plan_id":"cebpf4jnsgd1na2vs0mg"},{"bike_id":"179c65d4-e637-43fd-ba13-7b8d408dfcda","system_id":"levelo_inurba_marseille","lat":43.29555,"lon":5.42275,"is_reserved":false,"is_disabled":false,"rental_uris":{"android":"levelo://app?vid=179c65d4-e637-43fd-ba13-7b8d408dfcda","ios":"levelo://app?vid=179c65d4-e637-43fd-ba13-7b8d408dfcda"},"vehicle_type_id":"4","last_reported":1739563800,"current_range_meters":20000,"station_id":"ce4bhph2rcd13ifvqhdg","pricing_plan_id":"cebpf4jnsgd1na2vs0mg"},{"bike_id":"d9d039e9-95b6-4e20-817d-1c241a2e3b8a","system_id":"levelo_inurba_marseille","lat":43.31485,"lon":5.37296,"is_reserved":false,"is_disabled":false,"rental_uris":{"android":"levelo://app?vid=d9d039e9-95b6-4e20-817d-1c241a2e3b8a","ios":"levelo://app?vid=d9d039e9-95b6-4e20-817d-1c241a2e3b8a"},"vehicle_type_id":"4","last_reported":1739563800,"current_range_meters":38800,"station_id":"ce4bgt12rcd13ifvqcd0","pricing_plan_id":"cebpf4jnsgd1na2vs0mg"},{"bike_id":"1d31b2b1-b803-40b2-a44e-d7eb43c92877","system_id":"levelo_inurba_marseille","lat":43.23959,"lon":5.36633,"is_reserved":false,"is_disabled":false,"rental_uris":{"android":"levelo://app?vid=1d31b2b1-b803-40b2-a44e-d7eb43c92877","ios":"levelo://app?vid=1d31b2b1-b803-40b2-a44e-d7eb43c92877"},"vehicle_type_id":"4","last_reported":1739563800,"current_range_meters":16800,"station_id":"ce4bhi12rcd13ifvqfp0","pricing_plan_id":"cebpf4jnsgd1na2vs0mg"},{"bike_id":"9b1e744c-62c2-4b2f-b803-2b41e29feb43","system_id":"levelo_inurba_marseille","lat":43.29277,"lon":5.40137,"is_reserved":false,"is_disabled":false,"rental_uris":{"android":"levelo://app?vid=9b1e744c-62c2-4b2f-b803-2b41e29feb43","ios":"levelo://app?vid=9b1e744c-62c2-4b2f-b803-2b41e29feb43"},"vehicle_type_id":"4","last_reported":1739563800,"current_range_meters":21600,"station_id":"ce4bh312rcd13ifvqdk0","pricing_plan_id":"cebpf4jnsgd1na2vs0mg"},{"bike_id":"004b30ff-a171-4554-8c9c-7c64991805b8","system_id":"levelo_inurba_marseille","lat":43.29269,"lon":5.38446,"is_reserved":false,"is_disabled":false,"rental_uris":{"android":"levelo://app?vid=004b30ff-a171-4554-8c9c-7c64991805b8","ios":"levelo://app?vid=004b30ff-a171-4554-8c9c-7c64991805b8"},"vehicle_type_id":"4","last_reported":1739563800,"current_range_meters":10800,"station_id":"ce4bh692rcd13ifvqea0","pricing_plan_id":"cebpf4jnsgd1na2vs0mg"},{"bike_id":"f79c6747-5fcc-489b-9c36-345823f513dc","system_id":"levelo_inurba_marseille","lat":43.29785,"lon":5.38105,"is_reserved":false,"is_disabled":false,"rental_uris":{"android":"levelo://app?vid=f79c6747-5fcc-489b-9c36-345823f513dc","ios":"levelo://app?vid=f79c6747-5fcc-489b-9c36-345823f513dc"},"vehicle_type_id":"4","last_reported":1739563800,"current_range_meters":17600,"station_id":"ce4bgip2rcd13ifvqbb0","pricing_plan_id":"cebpf4jnsgd1na2vs0mg"},{"bike_id":"f92e748a-9f9b-4e54-8084-07e33515f3d5","system_id":"levelo_inurba_marseille","lat":43.270693,"lon":5.393412,"is_reserved":false,"is_disabled":true,"rental_uris":{"android":"levelo://app?vid=f92e748a-9f9b-4e54-8084-07e33515f3d5","ios":"levelo://app?vid=f92e748a-9f9b-4e54-8084-07e33515f3d5"},"vehicle_type_id":"4","last_reported":1739563800,"current_range_meters":0,"station_id":"","pricing_plan_id":"cebpf4jnsgd1na2vs0mg"},{"bike_id":"6fa48506-9074-4b9e-be3b-62296c7d6508","system_id":"levelo_inurba_marseille","lat":43.29101,"lon":5.38146,"is_reserved":false,"is_disabled":false,"rental_uris":{"android":"levelo://app?vid=6fa48506-9074-4b9e-be3b-62296c7d6508","ios":"levelo://app?vid=6fa48506-9074-4b9e-be3b-62296c7d6508"},"vehicle_type_id":"4","last_reported":1739563800,"current_range_meters":38800,"station_id":"ce4bh512rcd13ifvqe2g","pricing_plan_id":"cebpf4jnsgd1na2vs0mg"},{"bike_id":"704ec19d-e7c0-4858-a423-dcfa560220a5","system_id":"levelo_inurba_marseille","lat":43.23191,"lon":5.39984,"is_reserved":false,"is_disabled":false,"rental_uris":{"android":"levelo://app?vid=704ec19d-e7c0-4858-a423-dcfa560220a5","ios":"levelo://app?vid=704ec19d-e7c0-4858-a423-dcfa560220a5"},"vehicle_type_id":"4","last_reported":1739563800,"current_range_meters":32400,"station_id":"ce4bhn12rcd13ifvqgqg","pricing_plan_id":"cebpf4jnsgd1na2vs0mg"},{"bike_id":"190dec22-0cb7-45f1-8633-559b8c1913e5","system_id":"levelo_inurba_marseille","lat":43.27571,"lon":5.38461,"is_reserved":false,"is_disabled":false,"rental_uris":{"android":"levelo://app?vid=190dec22-0cb7-45f1-8633-559b8c1913e5","ios":"levelo://app?vid=190dec22-0cb7-45f1-8633-559b8c1913e5"},"vehicle_type_id":"4","last_reported":1739563800,"current_range_meters":38800,"station_id":"ce4bhh92rcd13ifvqfi0","pricing_plan_id":"cebpf4jnsgd1na2vs0mg"},{"bike_id":"a368e357-5e2f-4c1b-82dc-4f234efba0e7","system_id":"levelo_inurba_marseille","lat":43.32492,"lon":5.3657,"is_reserved":false,"is_disabled":false,"rental_uris":{"android":"levelo://app?vid=a368e357-5e2f-4c1b-82dc-4f234efba0e7","ios":"levelo://app?vid=a368e357-5e2f-4c1b-82dc-4f234efba0e7"},"vehicle_type_id":"4","last_reported":1739563800,"current_range_meters":38000,"station_id":"ce4bhs12rcd13ifvqhvg","pricing_plan_id":"cebpf4jnsgd1na2vs0mg"},{"bike_id":"19fede21-49f5-4359-a5dc-88a1aea4479c","system_id":"levelo_inurba_marseille","lat":43.29538,"lon":5.38539,"is_reserved":false,"is_disabled":false,"rental_uris":{"android":"levelo://app?vid=19fede21-49f5-4359-a5dc-88a1aea4479c","ios":"levelo://app?vid=19fede21-49f5-4359-a5dc-88a1aea4479c"},"vehicle_type_id":"4","last_reported":1739563800,"current_range_meters":37600,"station_id":"ce4bgih2rcd13ifvqba0","pricing_plan_id":"cebpf4jnsgd1na2vs0mg"},{"bike_id":"9cf8e6d9-67b8-441b-8ab4-08ef8560d2b0","system_id":"levelo_inurba_marseille","lat":43.33514,"lon":5.35585,"is_reserved":false,"is_disabled":true,"rental_uris":{"android":"levelo://app?vid=9cf8e6d9-67b8-441b-8ab4-08ef8560d2b0","ios":"levelo://app?vid=9cf8e6d9-67b8-441b-8ab4-08ef8560d2b0"},"vehicle_type_id":"4","last_reported":1739563800,"current_range_meters":0,"station_id":"","pricing_plan_id":"cebpf4jnsgd1na2vs0mg"},{"bike_id":"7712cca3-7f1b-4756-9ba8-7a272caf5be5","system_id":"levelo_inurba_marseille","lat":43.27057,"lon":5.4026,"is_reserved":false,"is_disabled":false,"rental_uris":{"android":"levelo://app?vid=7712cca3-7f1b-4756-9ba8-7a272caf5be5","ios":"levelo://app?vid=7712cca3-7f1b-4756-9ba8-7a272caf5be5"},"vehicle_type_id":"4","last_reported":1739563800,"current_range_meters":25600,"station_id":"ce4bhk92rcd13ifvqgc0","pricing_plan_id":"cebpf4jnsgd1na2vs0mg"},{"bike_id":"6279f888-1d4b-4ebb-b3f2-c7248902b00f","system_id":"levelo_inurba_marseille","lat":43.255,"lon":5.37654,"is_reserved":false,"is_disabled":false,"rental_uris":{"android":"levelo://app?vid=6279f888-1d4b-4ebb-b3f2-c7248902b00f","ios":"levelo://app?vid=6279f888-1d4b-4ebb-b3f2-c7248902b00f"},"vehicle_type_id":"4","last_reported":1739563800,"current_range_meters":16400,"station_id":"ce4bhh12rcd13ifvqff0","pricing_plan_id":"cebpf4jnsgd1na2vs0mg"},{"bike_id":"79bc372e-8589-4db3-b53e-bae61f66904d","system_id":"levelo_inurba_marseille","lat":43.27972,"lon":5.38734,"is_reserved":false,"is_disabled":false,"rental_uris":{"android":"levelo://app?vid=79bc372e-8589-4db3-b53e-bae61f66904d","ios":"levelo://app?vid=79bc372e-8589-4db3-b53e-bae61f66904d"},"vehicle_type_id":"4","last_reported":1739563800,"current_range_meters":30000,"station_id":"ce4bhg12rcd13ifvqf80","pricing_plan_id":"cebpf4jnsgd1na2vs0mg"},{"bike_id":"811b63d6-9c3c-4b06-849e-3b400f65e795","system_id":"levelo_inurba_marseille","lat":43.24657,"lon":5.38897,"is_reserved":false,"is_disabled":false,"rental_uris":{"android":"levelo://app?vid=811b63d6-9c3c-4b06-849e-3b400f65e795","ios":"levelo://app?vid=811b63d6-9c3c-4b06-849e-3b400f65e795"},"vehicle_type_id":"4","last_reported":1739563800,"current_range_meters":14400,"station_id":"ce4bhg12rcd13ifvqf60","pricing_plan_id":"cebpf4jnsgd1na2vs0mg"},{"bike_id":"1df7cf9b-6dd2-438a-9d97-dd1daf8f064b","system_id":"levelo_inurba_marseille","lat":43.29084,"lon":5.3781,"is_reserved":false,"is_disabled":false,"rental_uris":{"android":"levelo://app?vid=1df7cf9b-6dd2-438a-9d97-dd1daf8f064b","ios":"levelo://app?vid=1df7cf9b-6dd2-438a-9d97-dd1daf8f064b"},"vehicle_type_id":"4","last_reported":1739563800,"current_range_meters":22800,"station_id":"ce4bh9p2rcd13ifvqed0","pricing_plan_id":"cebpf4jnsgd1na2vs0mg"},{"bike_id":"2c0b4f93-e2bc-4e74-9dfd-c3f5d4d49a14","system_id":"levelo_inurba_marseille","lat":43.30302,"lon":5.39216,"is_reserved":false,"is_disabled":false,"rental_uris":{"android":"levelo://app?vid=2c0b4f93-e2bc-4e74-9dfd-c3f5d4d49a14","ios":"levelo://app?vid=2c0b4f93-e2bc-4e74-9dfd-c3f5d4d49a14"},"vehicle_type_id":"4","last_reported":1739563800,"current_range_meters":38000,"station_id":"ce4bgkh2rcd13ifvqbk0","pricing_plan_id":"cebpf4jnsgd1na2vs0mg"},{"bike_id":"0688cdcc-ad96-43df-a61f-989b9a48fd82","system_id":"levelo_inurba_marseille","lat":43.2942,"lon":5.3863,"is_reserved":false,"is_disabled":false,"rental_uris":{"android":"levelo://app?vid=0688cdcc-ad96-43df-a61f-989b9a48fd82","ios":"levelo://app?vid=0688cdcc-ad96-43df-a61f-989b9a48fd82"},"vehicle_type_id":"4","last_reported":1739563800,"current_range_meters":33600,"station_id":"ce4bh2h2rcd13ifvqdh0","pricing_plan_id":"cebpf4jnsgd1na2vs0mg"},{"bike_id":"30c17d1c-05b7-4e08-99da-ed8ff80fd970","system_id":"levelo_inurba_marseille","lat":43.30975,"lon":5.39042,"is_reserved":false,"is_disabled":true,"rental_uris":{"android":"levelo://app?vid=30c17d1c-05b7-4e08-99da-ed8ff80fd970","ios":"levelo://app?vid=30c17d1c-05b7-4e08-99da-ed8ff80fd970"},"vehicle_type_id":"4","last_reported":1739563800,"current_range_meters":18800,"station_id":"ce4bgup2rcd13ifvqco0","pricing_plan_id":"cebpf4jnsgd1na2vs0mg"},{"bike_id":"e9199595-171a-4b86-9da1-bc54869854f1","system_id":"levelo_inurba_marseille","lat":43.268,"lon":5.39405,"is_reserved":false,"is_disabled":false,"rental_uris":{"android":"levelo://app?vid=e9199595-171a-4b86-9da1-bc54869854f1","ios":"levelo://app?vid=e9199595-171a-4b86-9da1-bc54869854f1"},"vehicle_type_id":"4","last_reported":1739563800,"current_range_meters":38800,"station_id":"ce4bhh12rcd13ifvqfg0","pricing_plan_id":"cebpf4jnsgd1na2vs0mg"},{"bike_id":"51ab7186-5043-4bed-baca-73708608a302","system_id":"levelo_inurba_marseille","lat":43.29584,"lon":5.37026,"is_reserved":false,"is_disabled":true,"rental_uris":{"android":"levelo://app?vid=51ab7186-5043-4bed-baca-73708608a302","ios":"levelo://app?vid=51ab7186-5043-4bed-baca-73708608a302"},"vehicle_type_id":"4","last_reported":1739563800,"current_range_meters":0,"station_id":"","pricing_plan_id":"cebpf4jnsgd1na2vs0mg"},{"bike_id":"8a9801d8-23d2-44ea-86a3-965c675be2a2","system_id":"levelo_inurba_marseille","lat":43.31762,"lon":5.39013,"is_reserved":false,"is_disabled":false,"rental_uris":{"android":"levelo://app?vid=8a9801d8-23d2-44ea-86a3-965c675be2a2","ios":"levelo://app?vid=8a9801d8-23d2-44ea-86a3-965c675be2a2"},"vehicle_type_id":"4","last_reported":1739563800,"current_range_meters":38000,"station_id":"ce4bhqp2rcd13ifvqhng","pricing_plan_id":"cebpf4jnsgd1na2vs0mg"},{"bike_id":"b39dc08b-8124-48fe-ab89-f680cc63ee20","system_id":"levelo_inurba_marseille","lat":43.30607,"lon":5.37231,"is_reserved":false,"is_disabled":false,"rental_uris":{"android":"levelo://app?vid=b39dc08b-8124-48fe-ab89-f680cc63ee20","ios":"levelo://app?vid=b39dc08b-8124-48fe-ab89-f680cc63ee20"},"vehicle_type_id":"4","last_reported":1739563800,"current_range_meters":8400,"station_id":"ce4bgqh2rcd13ifvqc4g","pricing_plan_id":"cebpf4jnsgd1na2vs0mg"},{"bike_id":"d3fc5f7e-9983-4343-a9af-f36df7d45f29","system_id":"levelo_inurba_marseille","lat":43.23195,"lon":5.3999,"is_reserved":false,"is_disabled":false,"rental_uris":{"android":"levelo://app?vid=d3fc5f7e-9983-4343-a9af-f36df7d45f29","ios":"levelo://app?vid=d3fc5f7e-9983-4343-a9af-f36df7d45f29"},"vehicle_type_id":"4","last_reported":1739563800,"current_range_meters":18000,"station_id":"ce4bhn12rcd13ifvqgqg","pricing_plan_id":"cebpf4jnsgd1na2vs0mg"},{"bike_id":"bac6969b-52bc-48cc-ad44-24e52b62e686","system_id":"levelo_inurba_marseille","lat":43.25008,"lon":5.38941,"is_reserved":false,"is_disabled":false,"rental_uris":{"android":"levelo://app?vid=bac6969b-52bc-48cc-ad44-24e52b62e686","ios":"levelo://app?vid=bac6969b-52bc-48cc-ad44-24e52b62e686"},"vehicle_type_id":"4","last_reported":1739563800,"current_range_meters":22800,"station_id":"ce4bhgp2rcd13ifvqfd0","pricing_plan_id":"cebpf4jnsgd1na2vs0mg"},{"bike_id":"3726052c-435c-4e9a-97b4-6741247fd797","system_id":"levelo_inurba_marseille","lat":43.28437,"lon":5.34997,"is_reserved":false,"is_disabled":false,"rental_uris":{"android":"levelo://app?vid=3726052c-435c-4e9a-97b4-6741247fd797","ios":"levelo://app?vid=3726052c-435c-4e9a-97b4-6741247fd797"},"vehicle_type_id":"4","last_reported":1739563800,"current_range_meters":31200,"station_id":"ce4bhbh2rcd13ifvqepg","pricing_plan_id":"cebpf4jnsgd1na2vs0mg"},{"bike_id":"49cc0574-de3f-448a-b9a7-ad9a49e727aa","system_id":"levelo_inurba_marseille","lat":43.27981,"lon":5.41666,"is_reserved":false,"is_disabled":false,"rental_uris":{"android":"levelo://app?vid=49cc0574-de3f-448a-b9a7-ad9a49e727aa","ios":"levelo://app?vid=49cc0574-de3f-448a-b9a7-ad9a49e727aa"},"vehicle_type_id":"4","last_reported":1739563800,"current_range_meters":26000,"station_id":"ce4bho12rcd13ifvqh1g","pricing_plan_id":"cebpf4jnsgd1na2vs0mg"},{"bike_id":"6243740b-900c-49eb-ab60-bae0a6738da4","system_id":"levelo_inurba_marseille","lat":43.28468,"lon":5.35909,"is_reserved":false,"is_disabled":false,"rental_uris":{"android":"levelo://app?vid=6243740b-900c-49eb-ab60-bae0a6738da4","ios":"levelo://app?vid=6243740b-900c-49eb-ab60-bae0a6738da4"},"vehicle_type_id":"4","last_reported":1739563800,"current_range_meters":18000,"station_id":"ce4bhah2rcd13ifvqei0","pricing_plan_id":"cebpf4jnsgd1na2vs0mg"},{"bike_id":"5fbe50a8-885b-4657-b77c-df4181249707","system_id":"levelo_inurba_marseille","lat":43.30086,"lon":5.4049,"is_reserved":false,"is_disabled":false,"rental_uris":{"android":"levelo://app?vid=5fbe50a8-885b-4657-b77c-df4181249707","ios":"levelo://app?vid=5fbe50a8-885b-4657-b77c-df4181249707"},"vehicle_type_id":"4","last_reported":1739563800,"current_range_meters":36400,"station_id":"","pricing_plan_id":"cebpf4jnsgd1na2vs0mg"},{"bike_id":"c40e2cb9-b89c-4dbd-956b-535ef79f1d37","system_id":"levelo_inurba_marseille","lat":43.24813,"lon":5.37461,"is_reserved":false,"is_disabled":false,"rental_uris":{"android":"levelo://app?vid=c40e2cb9-b89c-4dbd-956b-535ef79f1d37","ios":"levelo://app?vid=c40e2cb9-b89c-4dbd-956b-535ef79f1d37"},"vehicle_type_id":"4","last_reported":1739563800,"current_range_meters":26800,"station_id":"ce4bhgh2rcd13ifvqfb0","pricing_plan_id":"cebpf4jnsgd1na2vs0mg"},{"bike_id":"6d14ffd0-8cb0-40f3-8b6f-5b79b4098bae","system_id":"levelo_inurba_marseille","lat":43.28086,"lon":5.37877,"is_reserved":false,"is_disabled":false,"rental_uris":{"android":"levelo://app?vid=6d14ffd0-8cb0-40f3-8b6f-5b79b4098bae","ios":"levelo://app?vid=6d14ffd0-8cb0-40f3-8b6f-5b79b4098bae"},"vehicle_type_id":"4","last_reported":1739563800,"current_range_meters":36000,"station_id":"ce4bha12rcd13ifvqee0","pricing_plan_id":"cebpf4jnsgd1na2vs0mg"},{"bike_id":"333946c8-1518-4495-85da-e9172c26eb3f","system_id":"levelo_inurba_marseille","lat":43.28707,"lon":5.37356,"is_reserved":false,"is_disabled":false,"rental_uris":{"android":"levelo://app?vid=333946c8-1518-4495-85da-e9172c26eb3f","ios":"levelo://app?vid=333946c8-1518-4495-85da-e9172c26eb3f"},"vehicle_type_id":"4","last_reported":1739563800,"current_range_meters":30400,"station_id":"ce4bh3p2rcd13ifvqdq0","pricing_plan_id":"cebpf4jnsgd1na2vs0mg"},{"bike_id":"8e0892e2-aedc-47a9-890a-064e78144f4e","system_id":"levelo_inurba_marseille","lat":43.2397,"lon":5.3663,"is_reserved":false,"is_disabled":true,"rental_uris":{"android":"levelo://app?vid=8e0892e2-aedc-47a9-890a-064e78144f4e","ios":"levelo://app?vid=8e0892e2-aedc-47a9-890a-064e78144f4e"},"vehicle_type_id":"4","last_reported":1739563800,"current_range_meters":800,"station_id":"ce4bhi12rcd13ifvqfp0","pricing_plan_id":"cebpf4jnsgd1na2vs0mg"},{"bike_id":"feb81031-ecb8-4db8-9c13-5977ea4c30a9","system_id":"levelo_inurba_marseille","lat":43.29553,"lon":5.37508,"is_reserved":false,"is_disabled":false,"rental_uris":{"android":"levelo://app?vid=feb81031-ecb8-4db8-9c13-5977ea4c30a9","ios":"levelo://app?vid=feb81031-ecb8-4db8-9c13-5977ea4c30a9"},"vehicle_type_id":"4","last_reported":1739563800,"current_range_meters":22000,"station_id":"ce4bgh92rcd13ifvqb50","pricing_plan_id":"cebpf4jnsgd1na2vs0mg"},{"bike_id":"c8c0516c-62b0-4cbf-88f8-60819aff6581","system_id":"levelo_inurba_marseille","lat":43.25497,"lon":5.37655,"is_reserved":false,"is_disabled":true,"rental_uris":{"android":"levelo://app?vid=c8c0516c-62b0-4cbf-88f8-60819aff6581","ios":"levelo://app?vid=c8c0516c-62b0-4cbf-88f8-60819aff6581"},"vehicle_type_id":"4","last_reported":1739563800,"current_range_meters":16800,"station_id":"ce4bhh12rcd13ifvqff0","pricing_plan_id":"cebpf4jnsgd1na2vs0mg"},{"bike_id":"2fc6d4f1-eb86-409c-a791-d32938774fb3","system_id":"levelo_inurba_marseille","lat":43.29264,"lon":5.40132,"is_reserved":false,"is_disabled":false,"rental_uris":{"android":"levelo://app?vid=2fc6d4f1-eb86-409c-a791-d32938774fb3","ios":"levelo://app?vid=2fc6d4f1-eb86-409c-a791-d32938774fb3"},"vehicle_type_id":"4","last_reported":1739563800,"current_range_meters":36800,"station_id":"ce4bh312rcd13ifvqdk0","pricing_plan_id":"cebpf4jnsgd1na2vs0mg"},{"bike_id":"2e8fc403-db89-4ec8-942c-727343aeca53","system_id":"levelo_inurba_marseille","lat":43.29012,"lon":5.35598,"is_reserved":false,"is_disabled":false,"rental_uris":{"android":"levelo://app?vid=2e8fc403-db89-4ec8-942c-727343aeca53","ios":"levelo://app?vid=2e8fc403-db89-4ec8-942c-727343aeca53"},"vehicle_type_id":"4","last_reported":1739563800,"current_range_meters":38800,"station_id":"ce4bhb92rcd13ifvqen0","pricing_plan_id":"cebpf4jnsgd1na2vs0mg"},{"bike_id":"8c10e28e-5b4c-4154-8179-6f2ee2ae6eb5","system_id":"levelo_inurba_marseille","lat":43.26198,"lon":5.37921,"is_reserved":false,"is_disabled":false,"rental_uris":{"android":"levelo://app?vid=8c10e28e-5b4c-4154-8179-6f2ee2ae6eb5","ios":"levelo://app?vid=8c10e28e-5b4c-4154-8179-6f2ee2ae6eb5"},"vehicle_type_id":"4","last_reported":1739563800,"current_range_meters":39200,"station_id":"ce4bhjp2rcd13ifvqg90","pricing_plan_id":"cebpf4jnsgd1na2vs0mg"},{"bike_id":"a631f734-4aa1-4ec4-bfa7-ef8429122ef0","system_id":"levelo_inurba_marseille","lat":43.25734,"lon":5.41124,"is_reserved":false,"is_disabled":false,"rental_uris":{"android":"levelo://app?vid=a631f734-4aa1-4ec4-bfa7-ef8429122ef0","ios":"levelo://app?vid=a631f734-4aa1-4ec4-bfa7-ef8429122ef0"},"vehicle_type_id":"4","last_reported":1739563800,"current_range_meters":24400,"station_id":"ce4bhkp2rcd13ifvqgd0","pricing_plan_id":"cebpf4jnsgd1na2vs0mg"},{"bike_id":"89d8b51e-5064-4e84-9871-088b604e6647","system_id":"levelo_inurba_marseille","lat":43.25084,"lon":5.39503,"is_reserved":false,"is_disabled":false,"rental_uris":{"android":"levelo://app?vid=89d8b51e-5064-4e84-9871-088b604e6647","ios":"levelo://app?vid=89d8b51e-5064-4e84-9871-088b604e6647"},"vehicle_type_id":"4","last_reported":1739563800,"current_range_meters":9600,"station_id":"ce4bhm12rcd13ifvqgkg","pricing_plan_id":"cebpf4jnsgd1na2vs0mg"},{"bike_id":"a70729f0-bf50-486d-acf1-77ab278c9efb","system_id":"levelo_inurba_marseille","lat":43.27444,"lon":5.41072,"is_reserved":false,"is_disabled":false,"rental_uris":{"android":"levelo://app?vid=a70729f0-bf50-486d-acf1-77ab278c9efb","ios":"levelo://app?vid=a70729f0-bf50-486d-acf1-77ab278c9efb"},"vehicle_type_id":"4","last_reported":1739563800,"current_range_meters":16400,"station_id":"","pricing_plan_id":"cebpf4jnsgd1na2vs0mg"},{"bike_id":"43de7460-5d65-4cbb-871b-aca4557e892f","system_id":"levelo_inurba_marseille","lat":43.24066,"lon":5.37757,"is_reserved":false,"is_disabled":false,"rental_uris":{"android":"levelo://app?vid=43de7460-5d65-4cbb-871b-aca4557e892f","ios":"levelo://app?vid=43de7460-5d65-4cbb-871b-aca4557e892f"},"vehicle_type_id":"4","last_reported":1739563800,"current_range_meters":38000,"station_id":"ce4bhnp2rcd13ifvqgvg","pricing_plan_id":"cebpf4jnsgd1na2vs0mg"},{"bike_id":"838d55fb-dd91-42c0-bd0a-19319617ddba","system_id":"levelo_inurba_marseille","lat":43.28152,"lon":5.426437,"is_reserved":false,"is_disabled":false,"rental_uris":{"android":"levelo://app?vid=838d55fb-dd91-42c0-bd0a-19319617ddba","ios":"levelo://app?vid=838d55fb-dd91-42c0-bd0a-19319617ddba"},"vehicle_type_id":"4","last_reported":1739563800,"current_range_meters":38800,"station_id":"ce4bhnh2rcd13ifvqgug","pricing_plan_id":"cebpf4jnsgd1na2vs0mg"},{"bike_id":"07cce0e4-c34c-4c6c-b7f3-11be90ceb56c","system_id":"levelo_inurba_marseille","lat":43.3028,"lon":5.39674,"is_reserved":false,"is_disabled":false,"rental_uris":{"android":"levelo://app?vid=07cce0e4-c34c-4c6c-b7f3-11be90ceb56c","ios":"levelo://app?vid=07cce0e4-c34c-4c6c-b7f3-11be90ceb56c"},"vehicle_type_id":"4","last_reported":1739563800,"current_range_meters":12000,"station_id":"","pricing_plan_id":"cebpf4jnsgd1na2vs0mg"},{"bike_id":"eb4b5a8a-7ccb-401a-ae98-94e0934d6e44","system_id":"levelo_inurba_marseille","lat":43.27995,"lon":5.41662,"is_reserved":false,"is_disabled":false,"rental_uris":{"android":"levelo://app?vid=eb4b5a8a-7ccb-401a-ae98-94e0934d6e44","ios":"levelo://app?vid=eb4b5a8a-7ccb-401a-ae98-94e0934d6e44"},"vehicle_type_id":"4","last_reported":1739563800,"current_range_meters":30400,"station_id":"ce4bho12rcd13ifvqh1g","pricing_plan_id":"cebpf4jnsgd1na2vs0mg"},{"bike_id":"2533b922-bc35-4de8-9109-768b6e8dc037","system_id":"levelo_inurba_marseille","lat":43.29269,"lon":5.38454,"is_reserved":false,"is_disabled":false,"rental_uris":{"android":"levelo://app?vid=2533b922-bc35-4de8-9109-768b6e8dc037","ios":"levelo://app?vid=2533b922-bc35-4de8-9109-768b6e8dc037"},"vehicle_type_id":"4","last_reported":1739563800,"current_range_meters":38400,"station_id":"ce4bh692rcd13ifvqea0","pricing_plan_id":"cebpf4jnsgd1na2vs0mg"},{"bike_id":"f95c598b-73a5-4793-bd58-d5ddde21f497","system_id":"levelo_inurba_marseille","lat":43.28601,"lon":5.3508,"is_reserved":false,"is_disabled":false,"rental_uris":{"android":"levelo://app?vid=f95c598b-73a5-4793-bd58-d5ddde21f497","ios":"levelo://app?vid=f95c598b-73a5-4793-bd58-d5ddde21f497"},"vehicle_type_id":"4","last_reported":1739563800,"current_range_meters":18000,"station_id":"ce4bhch2rcd13ifvqeug","pricing_plan_id":"cebpf4jnsgd1na2vs0mg"},{"bike_id":"494752c7-5e87-41c4-8407-f9facc4cada4","system_id":"levelo_inurba_marseille","lat":43.29175,"lon":5.37155,"is_reserved":false,"is_disabled":false,"rental_uris":{"android":"levelo://app?vid=494752c7-5e87-41c4-8407-f9facc4cada4","ios":"levelo://app?vid=494752c7-5e87-41c4-8407-f9facc4cada4"},"vehicle_type_id":"4","last_reported":1739563800,"current_range_meters":39200,"station_id":"ce4bha92rcd13ifvqeh0","pricing_plan_id":"cebpf4jnsgd1na2vs0mg"},{"bike_id":"9c0bbf70-c13e-4e35-b593-1ef45f5e6908","system_id":"levelo_inurba_marseille","lat":43.25006,"lon":5.38919,"is_reserved":false,"is_disabled":false,"rental_uris":{"android":"levelo://app?vid=9c0bbf70-c13e-4e35-b593-1ef45f5e6908","ios":"levelo://app?vid=9c0bbf70-c13e-4e35-b593-1ef45f5e6908"},"vehicle_type_id":"4","last_reported":1739563800,"current_range_meters":35200,"station_id":"ce4bhgp2rcd13ifvqfd0","pricing_plan_id":"cebpf4jnsgd1na2vs0mg"},{"bike_id":"78580374-70a8-4853-ac6b-e6acdbe16ef7","system_id":"levelo_inurba_marseille","lat":43.248073,"lon":5.37458,"is_reserved":false,"is_disabled":true,"rental_uris":{"android":"levelo://app?vid=78580374-70a8-4853-ac6b-e6acdbe16ef7","ios":"levelo://app?vid=78580374-70a8-4853-ac6b-e6acdbe16ef7"},"vehicle_type_id":"4","last_reported":1739563800,"current_range_meters":38800,"station_id":"ce4bhgh2rcd13ifvqfb0","pricing_plan_id":"cebpf4jnsgd1na2vs0mg"},{"bike_id":"f98b3cf7-0cb7-4bcf-83bb-ea4a678cea92","system_id":"levelo_inurba_marseille","lat":43.29298,"lon":5.38453,"is_reserved":false,"is_disabled":false,"rental_uris":{"android":"levelo://app?vid=f98b3cf7-0cb7-4bcf-83bb-ea4a678cea92","ios":"levelo://app?vid=f98b3cf7-0cb7-4bcf-83bb-ea4a678cea92"},"vehicle_type_id":"4","last_reported":1739563800,"current_range_meters":28400,"station_id":"ce4bh692rcd13ifvqea0","pricing_plan_id":"cebpf4jnsgd1na2vs0mg"},{"bike_id":"fbdcdc53-8f85-434d-8b26-70a82b6baba8","system_id":"levelo_inurba_marseille","lat":43.28668,"lon":5.38667,"is_reserved":false,"is_disabled":false,"rental_uris":{"android":"levelo://app?vid=fbdcdc53-8f85-434d-8b26-70a82b6baba8","ios":"levelo://app?vid=fbdcdc53-8f85-434d-8b26-70a82b6baba8"},"vehicle_type_id":"4","last_reported":1739563800,"current_range_meters":28800,"station_id":"ce4bh492rcd13ifvqdug","pricing_plan_id":"cebpf4jnsgd1na2vs0mg"},{"bike_id":"203fb8aa-7299-4114-85f2-8be5b5414709","system_id":"levelo_inurba_marseille","lat":43.31134,"lon":5.37791,"is_reserved":false,"is_disabled":false,"rental_uris":{"android":"levelo://app?vid=203fb8aa-7299-4114-85f2-8be5b5414709","ios":"levelo://app?vid=203fb8aa-7299-4114-85f2-8be5b5414709"},"vehicle_type_id":"4","last_reported":1739563800,"current_range_meters":38800,"station_id":"ce4bgt92rcd13ifvqcg0","pricing_plan_id":"cebpf4jnsgd1na2vs0mg"},{"bike_id":"e2c8ff28-6151-49e7-9785-1eab51fa964e","system_id":"levelo_inurba_marseille","lat":43.292586,"lon":5.384444,"is_reserved":false,"is_disabled":false,"rental_uris":{"android":"levelo://app?vid=e2c8ff28-6151-49e7-9785-1eab51fa964e","ios":"levelo://app?vid=e2c8ff28-6151-49e7-9785-1eab51fa964e"},"vehicle_type_id":"4","last_reported":1739563800,"current_range_meters":38800,"station_id":"ce4bh692rcd13ifvqea0","pricing_plan_id":"cebpf4jnsgd1na2vs0mg"},{"bike_id":"23849fcd-4bc4-44f6-8337-e9a9a16fe0e7","system_id":"levelo_inurba_marseille","lat":43.29746,"lon":5.47962,"is_reserved":false,"is_disabled":true,"rental_uris":{"android":"levelo://app?vid=23849fcd-4bc4-44f6-8337-e9a9a16fe0e7","ios":"levelo://app?vid=23849fcd-4bc4-44f6-8337-e9a9a16fe0e7"},"vehicle_type_id":"4","last_reported":1739563800,"current_range_meters":1600,"station_id":"","pricing_plan_id":"cebpf4jnsgd1na2vs0mg"},{"bike_id":"0d03aca4-c79e-4edf-afa6-24b4e5b9fb73","system_id":"levelo_inurba_marseille","lat":43.29413,"lon":5.38634,"is_reserved":false,"is_disabled":false,"rental_uris":{"android":"levelo://app?vid=0d03aca4-c79e-4edf-afa6-24b4e5b9fb73","ios":"levelo://app?vid=0d03aca4-c79e-4edf-afa6-24b4e5b9fb73"},"vehicle_type_id":"4","last_reported":1739563800,"current_range_meters":36000,"station_id":"ce4bh2h2rcd13ifvqdh0","pricing_plan_id":"cebpf4jnsgd1na2vs0mg"},{"bike_id":"e053f41e-01e2-4165-8295-d873a10e5db6","system_id":"levelo_inurba_marseille","lat":43.27917,"lon":5.38003,"is_reserved":false,"is_disabled":false,"rental_uris":{"android":"levelo://app?vid=e053f41e-01e2-4165-8295-d873a10e5db6","ios":"levelo://app?vid=e053f41e-01e2-4165-8295-d873a10e5db6"},"vehicle_type_id":"4","last_reported":1739563800,"current_range_meters":38000,"station_id":"ce4bhf92rcd13ifvqf50","pricing_plan_id":"cebpf4jnsgd1na2vs0mg"},{"bike_id":"25a0020e-c454-4908-a019-edd94f18a655","system_id":"levelo_inurba_marseille","lat":43.31325,"lon":5.39685,"is_reserved":false,"is_disabled":false,"rental_uris":{"android":"levelo://app?vid=25a0020e-c454-4908-a019-edd94f18a655","ios":"levelo://app?vid=25a0020e-c454-4908-a019-edd94f18a655"},"vehicle_type_id":"4","last_reported":1739563800,"current_range_meters":28800,"station_id":"ce4bgvp2rcd13ifvqcu0","pricing_plan_id":"cebpf4jnsgd1na2vs0mg"},{"bike_id":"a2ece53b-2544-4fb6-88e7-11a8063bae1d","system_id":"levelo_inurba_marseille","lat":43.25087,"lon":5.39529,"is_reserved":false,"is_disabled":false,"rental_uris":{"android":"levelo://app?vid=a2ece53b-2544-4fb6-88e7-11a8063bae1d","ios":"levelo://app?vid=a2ece53b-2544-4fb6-88e7-11a8063bae1d"},"vehicle_type_id":"4","last_reported":1739563800,"current_range_meters":28000,"station_id":"ce4bhm12rcd13ifvqgkg","pricing_plan_id":"cebpf4jnsgd1na2vs0mg"},{"bike_id":"d1b7e7c3-d876-4585-aa93-a701646b8c19","system_id":"levelo_inurba_marseille","lat":43.23204,"lon":5.39994,"is_reserved":false,"is_disabled":false,"rental_uris":{"android":"levelo://app?vid=d1b7e7c3-d876-4585-aa93-a701646b8c19","ios":"levelo://app?vid=d1b7e7c3-d876-4585-aa93-a701646b8c19"},"vehicle_type_id":"4","last_reported":1739563800,"current_range_meters":32800,"station_id":"ce4bhn12rcd13ifvqgqg","pricing_plan_id":"cebpf4jnsgd1na2vs0mg"},{"bike_id":"dc4fc55f-0ea9-49a1-bb39-4722eda2c2cd","system_id":"levelo_inurba_marseille","lat":43.29919,"lon":5.37651,"is_reserved":false,"is_disabled":false,"rental_uris":{"android":"levelo://app?vid=dc4fc55f-0ea9-49a1-bb39-4722eda2c2cd","ios":"levelo://app?vid=dc4fc55f-0ea9-49a1-bb39-4722eda2c2cd"},"vehicle_type_id":"4","last_reported":1739563800,"current_range_meters":20400,"station_id":"","pricing_plan_id":"cebpf4jnsgd1na2vs0mg"},{"bike_id":"9c9012f8-3e7f-49ce-9eba-96262caf267e","system_id":"levelo_inurba_marseille","lat":43.27912,"lon":5.38013,"is_reserved":false,"is_disabled":false,"rental_uris":{"android":"levelo://app?vid=9c9012f8-3e7f-49ce-9eba-96262caf267e","ios":"levelo://app?vid=9c9012f8-3e7f-49ce-9eba-96262caf267e"},"vehicle_type_id":"4","last_reported":1739563800,"current_range_meters":21600,"station_id":"ce4bhf92rcd13ifvqf50","pricing_plan_id":"cebpf4jnsgd1na2vs0mg"},{"bike_id":"38f6a50e-4209-427d-8f0c-d54d40753d69","system_id":"levelo_inurba_marseille","lat":43.27375,"lon":5.3625,"is_reserved":false,"is_disabled":false,"rental_uris":{"android":"levelo://app?vid=38f6a50e-4209-427d-8f0c-d54d40753d69","ios":"levelo://app?vid=38f6a50e-4209-427d-8f0c-d54d40753d69"},"vehicle_type_id":"4","last_reported":1739563800,"current_range_meters":26000,"station_id":"ce4bhbh2rcd13ifvqeo0","pricing_plan_id":"cebpf4jnsgd1na2vs0mg"},{"bike_id":"f06e46e9-8f07-4dc1-8420-8e5f7698006e","system_id":"levelo_inurba_marseille","lat":43.280415,"lon":5.369455,"is_reserved":false,"is_disabled":false,"rental_uris":{"android":"levelo://app?vid=f06e46e9-8f07-4dc1-8420-8e5f7698006e","ios":"levelo://app?vid=f06e46e9-8f07-4dc1-8420-8e5f7698006e"},"vehicle_type_id":"4","last_reported":1739563800,"current_range_meters":37600,"station_id":"ce4bha12rcd13ifvqef0","pricing_plan_id":"cebpf4jnsgd1na2vs0mg"},{"bike_id":"56f566cf-948a-4953-8106-691a14027b71","system_id":"levelo_inurba_marseille","lat":43.30648,"lon":5.40105,"is_reserved":false,"is_disabled":false,"rental_uris":{"android":"levelo://app?vid=56f566cf-948a-4953-8106-691a14027b71","ios":"levelo://app?vid=56f566cf-948a-4953-8106-691a14027b71"},"vehicle_type_id":"4","last_reported":1739563800,"current_range_meters":12400,"station_id":"ce4bh112rcd13ifvqda0","pricing_plan_id":"cebpf4jnsgd1na2vs0mg"},{"bike_id":"3516230c-e14d-4135-ae80-1b9c8289c195","system_id":"levelo_inurba_marseille","lat":43.29032,"lon":5.38655,"is_reserved":false,"is_disabled":false,"rental_uris":{"android":"levelo://app?vid=3516230c-e14d-4135-ae80-1b9c8289c195","ios":"levelo://app?vid=3516230c-e14d-4135-ae80-1b9c8289c195"},"vehicle_type_id":"4","last_reported":1739563800,"current_range_meters":29600,"station_id":"ce4bh4p2rcd13ifvqe0g","pricing_plan_id":"cebpf4jnsgd1na2vs0mg"},{"bike_id":"4ad51a02-f2dd-46e4-a406-ba69455ffee4","system_id":"levelo_inurba_marseille","lat":43.28047,"lon":5.40837,"is_reserved":false,"is_disabled":false,"rental_uris":{"android":"levelo://app?vid=4ad51a02-f2dd-46e4-a406-ba69455ffee4","ios":"levelo://app?vid=4ad51a02-f2dd-46e4-a406-ba69455ffee4"},"vehicle_type_id":"4","last_reported":1739563800,"current_range_meters":11200,"station_id":"","pricing_plan_id":"cebpf4jnsgd1na2vs0mg"},{"bike_id":"c4df4f16-0512-464a-a719-0bb1f3feadb0","system_id":"levelo_inurba_marseille","lat":43.32352,"lon":5.40639,"is_reserved":false,"is_disabled":false,"rental_uris":{"android":"levelo://app?vid=c4df4f16-0512-464a-a719-0bb1f3feadb0","ios":"levelo://app?vid=c4df4f16-0512-464a-a719-0bb1f3feadb0"},"vehicle_type_id":"4","last_reported":1739563800,"current_range_meters":22800,"station_id":"ce4bhq92rcd13ifvqhjg","pricing_plan_id":"cebpf4jnsgd1na2vs0mg"},{"bike_id":"bf7d337c-6423-4c9f-92a3-1b70d110e15a","system_id":"levelo_inurba_marseille","lat":43.25505,"lon":5.37649,"is_reserved":false,"is_disabled":false,"rental_uris":{"android":"levelo://app?vid=bf7d337c-6423-4c9f-92a3-1b70d110e15a","ios":"levelo://app?vid=bf7d337c-6423-4c9f-92a3-1b70d110e15a"},"vehicle_type_id":"4","last_reported":1739563800,"current_range_meters":27600,"station_id":"ce4bhh12rcd13ifvqff0","pricing_plan_id":"cebpf4jnsgd1na2vs0mg"},{"bike_id":"00a4e08f-061f-446d-9506-371f75a97092","system_id":"levelo_inurba_marseille","lat":43.28001,"lon":5.40018,"is_reserved":false,"is_disabled":false,"rental_uris":{"android":"levelo://app?vid=00a4e08f-061f-446d-9506-371f75a97092","ios":"levelo://app?vid=00a4e08f-061f-446d-9506-371f75a97092"},"vehicle_type_id":"4","last_reported":1739563800,"current_range_meters":20400,"station_id":"ce4bho92rcd13ifvqh4g","pricing_plan_id":"cebpf4jnsgd1na2vs0mg"},{"bike_id":"47c75f60-6aa0-4958-80ac-b688f48b2c53","system_id":"levelo_inurba_marseille","lat":43.29919,"lon":5.36514,"is_reserved":false,"is_disabled":false,"rental_uris":{"android":"levelo://app?vid=47c75f60-6aa0-4958-80ac-b688f48b2c53","ios":"levelo://app?vid=47c75f60-6aa0-4958-80ac-b688f48b2c53"},"vehicle_type_id":"4","last_reported":1739563800,"current_range_meters":28000,"station_id":"ce4bgm92rcd13ifvqbr0","pricing_plan_id":"cebpf4jnsgd1na2vs0mg"},{"bike_id":"03eba1d0-92c1-4e6e-a4d0-7c546f2439c0","system_id":"levelo_inurba_marseille","lat":43.337444,"lon":5.374475,"is_reserved":false,"is_disabled":true,"rental_uris":{"android":"levelo://app?vid=03eba1d0-92c1-4e6e-a4d0-7c546f2439c0","ios":"levelo://app?vid=03eba1d0-92c1-4e6e-a4d0-7c546f2439c0"},"vehicle_type_id":"4","last_reported":1739563800,"current_range_meters":0,"station_id":"","pricing_plan_id":"cebpf4jnsgd1na2vs0mg"},{"bike_id":"1504eae3-2c47-4bb5-8078-902e9ea1cb61","system_id":"levelo_inurba_marseille","lat":43.27314,"lon":5.39087,"is_reserved":false,"is_disabled":false,"rental_uris":{"android":"levelo://app?vid=1504eae3-2c47-4bb5-8078-902e9ea1cb61","ios":"levelo://app?vid=1504eae3-2c47-4bb5-8078-902e9ea1cb61"},"vehicle_type_id":"4","last_reported":1739563800,"current_range_meters":29600,"station_id":"ce4bhgp2rcd13ifvqfe0","pricing_plan_id":"cebpf4jnsgd1na2vs0mg"},{"bike_id":"37d274bc-7488-45e2-be26-b72715489ecd","system_id":"levelo_inurba_marseille","lat":43.28431,"lon":5.39176,"is_reserved":false,"is_disabled":true,"rental_uris":{"android":"levelo://app?vid=37d274bc-7488-45e2-be26-b72715489ecd","ios":"levelo://app?vid=37d274bc-7488-45e2-be26-b72715489ecd"},"vehicle_type_id":"4","last_reported":1739563800,"current_range_meters":38400,"station_id":"ce4bhoh2rcd13ifvqh5g","pricing_plan_id":"cebpf4jnsgd1na2vs0mg"},{"bike_id":"8208b9be-b2fb-4d4a-9708-6254e17f01c5","system_id":"levelo_inurba_marseille","lat":43.25477,"lon":5.37636,"is_reserved":false,"is_disabled":false,"rental_uris":{"android":"levelo://app?vid=8208b9be-b2fb-4d4a-9708-6254e17f01c5","ios":"levelo://app?vid=8208b9be-b2fb-4d4a-9708-6254e17f01c5"},"vehicle_type_id":"4","last_reported":1739563800,"current_range_meters":36800,"station_id":"ce4bhh12rcd13ifvqff0","pricing_plan_id":"cebpf4jnsgd1na2vs0mg"},{"bike_id":"3441c353-b491-45c0-96a9-12ca432004ac","system_id":"levelo_inurba_marseille","lat":43.30304,"lon":5.39214,"is_reserved":false,"is_disabled":false,"rental_uris":{"android":"levelo://app?vid=3441c353-b491-45c0-96a9-12ca432004ac","ios":"levelo://app?vid=3441c353-b491-45c0-96a9-12ca432004ac"},"vehicle_type_id":"4","last_reported":1739563800,"current_range_meters":38400,"station_id":"ce4bgkh2rcd13ifvqbk0","pricing_plan_id":"cebpf4jnsgd1na2vs0mg"},{"bike_id":"298b78b8-4711-4491-8ae5-3ff7e249ae10","system_id":"levelo_inurba_marseille","lat":43.31067,"lon":5.38375,"is_reserved":false,"is_disabled":false,"rental_uris":{"android":"levelo://app?vid=298b78b8-4711-4491-8ae5-3ff7e249ae10","ios":"levelo://app?vid=298b78b8-4711-4491-8ae5-3ff7e249ae10"},"vehicle_type_id":"4","last_reported":1739563800,"current_range_meters":38800,"station_id":"ce4bgv92rcd13ifvqcr0","pricing_plan_id":"cebpf4jnsgd1na2vs0mg"},{"bike_id":"5016e875-414a-41bd-8f00-6a5845e39ba6","system_id":"levelo_inurba_marseille","lat":43.30803,"lon":5.43528,"is_reserved":false,"is_disabled":false,"rental_uris":{"android":"levelo://app?vid=5016e875-414a-41bd-8f00-6a5845e39ba6","ios":"levelo://app?vid=5016e875-414a-41bd-8f00-6a5845e39ba6"},"vehicle_type_id":"4","last_reported":1739563800,"current_range_meters":32800,"station_id":"ce4bhph2rcd13ifvqheg","pricing_plan_id":"cebpf4jnsgd1na2vs0mg"},{"bike_id":"d79e07a1-0234-45ab-8c56-1f16ed1ddb2f","system_id":"levelo_inurba_marseille","lat":43.29261,"lon":5.38434,"is_reserved":false,"is_disabled":false,"rental_uris":{"android":"levelo://app?vid=d79e07a1-0234-45ab-8c56-1f16ed1ddb2f","ios":"levelo://app?vid=d79e07a1-0234-45ab-8c56-1f16ed1ddb2f"},"vehicle_type_id":"4","last_reported":1739563800,"current_range_meters":27600,"station_id":"ce4bh692rcd13ifvqea0","pricing_plan_id":"cebpf4jnsgd1na2vs0mg"},{"bike_id":"c517f09e-0211-4728-8c03-b69a524b28b5","system_id":"levelo_inurba_marseille","lat":43.29258,"lon":5.38439,"is_reserved":false,"is_disabled":false,"rental_uris":{"android":"levelo://app?vid=c517f09e-0211-4728-8c03-b69a524b28b5","ios":"levelo://app?vid=c517f09e-0211-4728-8c03-b69a524b28b5"},"vehicle_type_id":"4","last_reported":1739563800,"current_range_meters":28800,"station_id":"ce4bh692rcd13ifvqea0","pricing_plan_id":"cebpf4jnsgd1na2vs0mg"},{"bike_id":"d2f5b587-5ed0-4e80-89c9-75338feb4844","system_id":"levelo_inurba_marseille","lat":43.25125,"lon":5.40424,"is_reserved":false,"is_disabled":false,"rental_uris":{"android":"levelo://app?vid=d2f5b587-5ed0-4e80-89c9-75338feb4844","ios":"levelo://app?vid=d2f5b587-5ed0-4e80-89c9-75338feb4844"},"vehicle_type_id":"4","last_reported":1739563800,"current_range_meters":27600,"station_id":"ce4bhlh2rcd13ifvqgig","pricing_plan_id":"cebpf4jnsgd1na2vs0mg"},{"bike_id":"4b087907-7192-4276-99d8-c0bfb8a98ca3","system_id":"levelo_inurba_marseille","lat":43.2319,"lon":5.39982,"is_reserved":false,"is_disabled":false,"rental_uris":{"android":"levelo://app?vid=4b087907-7192-4276-99d8-c0bfb8a98ca3","ios":"levelo://app?vid=4b087907-7192-4276-99d8-c0bfb8a98ca3"},"vehicle_type_id":"4","last_reported":1739563800,"current_range_meters":35600,"station_id":"ce4bhn12rcd13ifvqgqg","pricing_plan_id":"cebpf4jnsgd1na2vs0mg"},{"bike_id":"cd75690a-695b-4cf7-a43e-ece58cb08e4e","system_id":"levelo_inurba_marseille","lat":43.28984,"lon":5.37829,"is_reserved":false,"is_disabled":false,"rental_uris":{"android":"levelo://app?vid=cd75690a-695b-4cf7-a43e-ece58cb08e4e","ios":"levelo://app?vid=cd75690a-695b-4cf7-a43e-ece58cb08e4e"},"vehicle_type_id":"4","last_reported":1739563800,"current_range_meters":34800,"station_id":"ce4bh9p2rcd13ifvqed0","pricing_plan_id":"cebpf4jnsgd1na2vs0mg"},{"bike_id":"d8e4abcc-f696-4920-8d98-55b9f4cbd86c","system_id":"levelo_inurba_marseille","lat":43.29605,"lon":5.38088,"is_reserved":false,"is_disabled":false,"rental_uris":{"android":"levelo://app?vid=d8e4abcc-f696-4920-8d98-55b9f4cbd86c","ios":"levelo://app?vid=d8e4abcc-f696-4920-8d98-55b9f4cbd86c"},"vehicle_type_id":"4","last_reported":1739563800,"current_range_meters":34800,"station_id":"ce4bgl12rcd13ifvqbo0","pricing_plan_id":"cebpf4jnsgd1na2vs0mg"},{"bike_id":"bd1fbd17-5ecd-4c2a-9290-d1ffd1a70214","system_id":"levelo_inurba_marseille","lat":43.29551,"lon":5.42287,"is_reserved":false,"is_disabled":false,"rental_uris":{"android":"levelo://app?vid=bd1fbd17-5ecd-4c2a-9290-d1ffd1a70214","ios":"levelo://app?vid=bd1fbd17-5ecd-4c2a-9290-d1ffd1a70214"},"vehicle_type_id":"4","last_reported":1739563800,"current_range_meters":36400,"station_id":"ce4bhph2rcd13ifvqhdg","pricing_plan_id":"cebpf4jnsgd1na2vs0mg"},{"bike_id":"f7c5b9b2-14e0-49a2-98a4-9b262a5a593b","system_id":"levelo_inurba_marseille","lat":43.29251,"lon":5.38449,"is_reserved":false,"is_disabled":false,"rental_uris":{"android":"levelo://app?vid=f7c5b9b2-14e0-49a2-98a4-9b262a5a593b","ios":"levelo://app?vid=f7c5b9b2-14e0-49a2-98a4-9b262a5a593b"},"vehicle_type_id":"4","last_reported":1739563800,"current_range_meters":16800,"station_id":"ce4bh692rcd13ifvqea0","pricing_plan_id":"cebpf4jnsgd1na2vs0mg"},{"bike_id":"2f708e4a-da4a-483d-a9f7-574fc8536a37","system_id":"levelo_inurba_marseille","lat":43.23149,"lon":5.43717,"is_reserved":false,"is_disabled":false,"rental_uris":{"android":"levelo://app?vid=2f708e4a-da4a-483d-a9f7-574fc8536a37","ios":"levelo://app?vid=2f708e4a-da4a-483d-a9f7-574fc8536a37"},"vehicle_type_id":"4","last_reported":1739563800,"current_range_meters":27600,"station_id":"ce4bhmp2rcd13ifvqgog","pricing_plan_id":"cebpf4jnsgd1na2vs0mg"},{"bike_id":"82fd615c-c0c0-4026-943c-500818ee7b2d","system_id":"levelo_inurba_marseille","lat":43.28699,"lon":5.37376,"is_reserved":false,"is_disabled":false,"rental_uris":{"android":"levelo://app?vid=82fd615c-c0c0-4026-943c-500818ee7b2d","ios":"levelo://app?vid=82fd615c-c0c0-4026-943c-500818ee7b2d"},"vehicle_type_id":"4","last_reported":1739563800,"current_range_meters":3200,"station_id":"ce4bh3p2rcd13ifvqdq0","pricing_plan_id":"cebpf4jnsgd1na2vs0mg"},{"bike_id":"29b1babb-8a73-41fa-9bfb-08b215213fb3","system_id":"levelo_inurba_marseille","lat":43.29426,"lon":5.38676,"is_reserved":false,"is_disabled":false,"rental_uris":{"android":"levelo://app?vid=29b1babb-8a73-41fa-9bfb-08b215213fb3","ios":"levelo://app?vid=29b1babb-8a73-41fa-9bfb-08b215213fb3"},"vehicle_type_id":"4","last_reported":1739563800,"current_range_meters":16800,"station_id":"ce4bh2h2rcd13ifvqdh0","pricing_plan_id":"cebpf4jnsgd1na2vs0mg"},{"bike_id":"59f1ac15-b8d7-4194-8b6b-5db0a84196af","system_id":"levelo_inurba_marseille","lat":43.27999,"lon":5.40008,"is_reserved":false,"is_disabled":false,"rental_uris":{"android":"levelo://app?vid=59f1ac15-b8d7-4194-8b6b-5db0a84196af","ios":"levelo://app?vid=59f1ac15-b8d7-4194-8b6b-5db0a84196af"},"vehicle_type_id":"4","last_reported":1739563800,"current_range_meters":10000,"station_id":"ce4bho92rcd13ifvqh4g","pricing_plan_id":"cebpf4jnsgd1na2vs0mg"},{"bike_id":"4a952340-3ff3-422a-8e56-52faffd8c272","system_id":"levelo_inurba_marseille","lat":43.30083,"lon":5.3908,"is_reserved":false,"is_disabled":false,"rental_uris":{"android":"levelo://app?vid=4a952340-3ff3-422a-8e56-52faffd8c272","ios":"levelo://app?vid=4a952340-3ff3-422a-8e56-52faffd8c272"},"vehicle_type_id":"4","last_reported":1739563800,"current_range_meters":38800,"station_id":"ce4bh192rcd13ifvqdb0","pricing_plan_id":"cebpf4jnsgd1na2vs0mg"},{"bike_id":"ff489825-db76-49d3-aa98-c1c0aaa6bdad","system_id":"levelo_inurba_marseille","lat":43.2928,"lon":5.36841,"is_reserved":false,"is_disabled":false,"rental_uris":{"android":"levelo://app?vid=ff489825-db76-49d3-aa98-c1c0aaa6bdad","ios":"levelo://app?vid=ff489825-db76-49d3-aa98-c1c0aaa6bdad"},"vehicle_type_id":"4","last_reported":1739563800,"current_range_meters":6400,"station_id":"ce4bhbp2rcd13ifvqesg","pricing_plan_id":"cebpf4jnsgd1na2vs0mg"},{"bike_id":"b0ffe514-520d-4163-9ae4-d9069d23b1ed","system_id":"levelo_inurba_marseille","lat":43.30599,"lon":5.39356,"is_reserved":false,"is_disabled":false,"rental_uris":{"android":"levelo://app?vid=b0ffe514-520d-4163-9ae4-d9069d23b1ed","ios":"levelo://app?vid=b0ffe514-520d-4163-9ae4-d9069d23b1ed"},"vehicle_type_id":"4","last_reported":1739563800,"current_range_meters":22400,"station_id":"ce4bh0p2rcd13ifvqd80","pricing_plan_id":"cebpf4jnsgd1na2vs0mg"},{"bike_id":"35c71859-d749-4d30-961a-91d1c38d6948","system_id":"levelo_inurba_marseille","lat":43.25083,"lon":5.3952,"is_reserved":false,"is_disabled":false,"rental_uris":{"android":"levelo://app?vid=35c71859-d749-4d30-961a-91d1c38d6948","ios":"levelo://app?vid=35c71859-d749-4d30-961a-91d1c38d6948"},"vehicle_type_id":"4","last_reported":1739563800,"current_range_meters":8400,"station_id":"ce4bhm12rcd13ifvqgkg","pricing_plan_id":"cebpf4jnsgd1na2vs0mg"},{"bike_id":"fff5fd6a-cf6e-4c41-b679-662c6a5564b6","system_id":"levelo_inurba_marseille","lat":43.29168,"lon":5.37158,"is_reserved":false,"is_disabled":false,"rental_uris":{"android":"levelo://app?vid=fff5fd6a-cf6e-4c41-b679-662c6a5564b6","ios":"levelo://app?vid=fff5fd6a-cf6e-4c41-b679-662c6a5564b6"},"vehicle_type_id":"4","last_reported":1739563800,"current_range_meters":8800,"station_id":"ce4bha92rcd13ifvqeh0","pricing_plan_id":"cebpf4jnsgd1na2vs0mg"},{"bike_id":"e4b9f80e-c487-4b21-a9f2-cea27949e48e","system_id":"levelo_inurba_marseille","lat":43.31814,"lon":5.37379,"is_reserved":false,"is_disabled":true,"rental_uris":{"android":"levelo://app?vid=e4b9f80e-c487-4b21-a9f2-cea27949e48e","ios":"levelo://app?vid=e4b9f80e-c487-4b21-a9f2-cea27949e48e"},"vehicle_type_id":"4","last_reported":1739563800,"current_range_meters":0,"station_id":"","pricing_plan_id":"cebpf4jnsgd1na2vs0mg"},{"bike_id":"46810cf4-8b04-4ec6-8af4-847c5db48039","system_id":"levelo_inurba_marseille","lat":43.28439,"lon":5.39189,"is_reserved":false,"is_disabled":false,"rental_uris":{"android":"levelo://app?vid=46810cf4-8b04-4ec6-8af4-847c5db48039","ios":"levelo://app?vid=46810cf4-8b04-4ec6-8af4-847c5db48039"},"vehicle_type_id":"4","last_reported":1739563800,"current_range_meters":38000,"station_id":"ce4bhoh2rcd13ifvqh5g","pricing_plan_id":"cebpf4jnsgd1na2vs0mg"},{"bike_id":"58852762-4a05-4f80-9bdf-b9b987cc064b","system_id":"levelo_inurba_marseille","lat":43.29538,"lon":5.37507,"is_reserved":false,"is_disabled":false,"rental_uris":{"android":"levelo://app?vid=58852762-4a05-4f80-9bdf-b9b987cc064b","ios":"levelo://app?vid=58852762-4a05-4f80-9bdf-b9b987cc064b"},"vehicle_type_id":"4","last_reported":1739563800,"current_range_meters":32400,"station_id":"ce4bgkp2rcd13ifvqbmg","pricing_plan_id":"cebpf4jnsgd1na2vs0mg"},{"bike_id":"7c250b8e-1ac6-4c71-8022-0dac0b00c713","system_id":"levelo_inurba_marseille","lat":43.31071,"lon":5.38348,"is_reserved":false,"is_disabled":false,"rental_uris":{"android":"levelo://app?vid=7c250b8e-1ac6-4c71-8022-0dac0b00c713","ios":"levelo://app?vid=7c250b8e-1ac6-4c71-8022-0dac0b00c713"},"vehicle_type_id":"4","last_reported":1739563800,"current_range_meters":38800,"station_id":"ce4bgv92rcd13ifvqcr0","pricing_plan_id":"cebpf4jnsgd1na2vs0mg"},{"bike_id":"14b1b08f-4458-49f9-89ff-4f2d0bf34264","system_id":"levelo_inurba_marseille","lat":43.290295,"lon":5.386552,"is_reserved":false,"is_disabled":false,"rental_uris":{"android":"levelo://app?vid=14b1b08f-4458-49f9-89ff-4f2d0bf34264","ios":"levelo://app?vid=14b1b08f-4458-49f9-89ff-4f2d0bf34264"},"vehicle_type_id":"4","last_reported":1739563800,"current_range_meters":28400,"station_id":"ce4bh4p2rcd13ifvqe0g","pricing_plan_id":"cebpf4jnsgd1na2vs0mg"},{"bike_id":"a30a2e4b-bdf2-47be-8d36-867c9157f403","system_id":"levelo_inurba_marseille","lat":43.28616,"lon":5.35107,"is_reserved":false,"is_disabled":false,"rental_uris":{"android":"levelo://app?vid=a30a2e4b-bdf2-47be-8d36-867c9157f403","ios":"levelo://app?vid=a30a2e4b-bdf2-47be-8d36-867c9157f403"},"vehicle_type_id":"4","last_reported":1739563800,"current_range_meters":27200,"station_id":"ce4bhch2rcd13ifvqeug","pricing_plan_id":"cebpf4jnsgd1na2vs0mg"},{"bike_id":"b3ea199c-adf6-4508-b4a8-bc94e82ed326","system_id":"levelo_inurba_marseille","lat":43.2926,"lon":5.38442,"is_reserved":false,"is_disabled":false,"rental_uris":{"android":"levelo://app?vid=b3ea199c-adf6-4508-b4a8-bc94e82ed326","ios":"levelo://app?vid=b3ea199c-adf6-4508-b4a8-bc94e82ed326"},"vehicle_type_id":"4","last_reported":1739563800,"current_range_meters":36400,"station_id":"ce4bh692rcd13ifvqea0","pricing_plan_id":"cebpf4jnsgd1na2vs0mg"},{"bike_id":"ee15d62f-95ce-4fcc-ae63-6e729a4345ce","system_id":"levelo_inurba_marseille","lat":43.2479,"lon":5.37479,"is_reserved":false,"is_disabled":false,"rental_uris":{"android":"levelo://app?vid=ee15d62f-95ce-4fcc-ae63-6e729a4345ce","ios":"levelo://app?vid=ee15d62f-95ce-4fcc-ae63-6e729a4345ce"},"vehicle_type_id":"4","last_reported":1739563800,"current_range_meters":20000,"station_id":"ce4bhgh2rcd13ifvqfb0","pricing_plan_id":"cebpf4jnsgd1na2vs0mg"},{"bike_id":"ba6ee90b-9d94-4f43-8358-366faab5901e","system_id":"levelo_inurba_marseille","lat":43.2808,"lon":5.39631,"is_reserved":false,"is_disabled":false,"rental_uris":{"android":"levelo://app?vid=ba6ee90b-9d94-4f43-8358-366faab5901e","ios":"levelo://app?vid=ba6ee90b-9d94-4f43-8358-366faab5901e"},"vehicle_type_id":"4","last_reported":1739563800,"current_range_meters":35200,"station_id":"ce4bho12rcd13ifvqh2g","pricing_plan_id":"cebpf4jnsgd1na2vs0mg"},{"bike_id":"a9f96b22-58cf-4ff6-94e6-a09158132908","system_id":"levelo_inurba_marseille","lat":43.27056,"lon":5.40258,"is_reserved":false,"is_disabled":false,"rental_uris":{"android":"levelo://app?vid=a9f96b22-58cf-4ff6-94e6-a09158132908","ios":"levelo://app?vid=a9f96b22-58cf-4ff6-94e6-a09158132908"},"vehicle_type_id":"4","last_reported":1739563800,"current_range_meters":30800,"station_id":"ce4bhk92rcd13ifvqgc0","pricing_plan_id":"cebpf4jnsgd1na2vs0mg"},{"bike_id":"469df817-c238-4d61-8781-dabb1a74fb52","system_id":"levelo_inurba_marseille","lat":43.30603,"lon":5.37225,"is_reserved":false,"is_disabled":false,"rental_uris":{"android":"levelo://app?vid=469df817-c238-4d61-8781-dabb1a74fb52","ios":"levelo://app?vid=469df817-c238-4d61-8781-dabb1a74fb52"},"vehicle_type_id":"4","last_reported":1739563800,"current_range_meters":36400,"station_id":"ce4bgqh2rcd13ifvqc4g","pricing_plan_id":"cebpf4jnsgd1na2vs0mg"},{"bike_id":"e444e49e-a9e0-4183-b573-4550baa4a888","system_id":"levelo_inurba_marseille","lat":43.29291,"lon":5.3685,"is_reserved":false,"is_disabled":false,"rental_uris":{"android":"levelo://app?vid=e444e49e-a9e0-4183-b573-4550baa4a888","ios":"levelo://app?vid=e444e49e-a9e0-4183-b573-4550baa4a888"},"vehicle_type_id":"4","last_reported":1739563800,"current_range_meters":27600,"station_id":"ce4bhbp2rcd13ifvqesg","pricing_plan_id":"cebpf4jnsgd1na2vs0mg"},{"bike_id":"5429a055-5c17-4863-ac08-ee7234bc7af8","system_id":"levelo_inurba_marseille","lat":43.32269,"lon":5.36838,"is_reserved":false,"is_disabled":false,"rental_uris":{"android":"levelo://app?vid=5429a055-5c17-4863-ac08-ee7234bc7af8","ios":"levelo://app?vid=5429a055-5c17-4863-ac08-ee7234bc7af8"},"vehicle_type_id":"4","last_reported":1739563800,"current_range_meters":36400,"station_id":"","pricing_plan_id":"cebpf4jnsgd1na2vs0mg"},{"bike_id":"83b4b289-b3c2-476b-869c-b6f97376787d","system_id":"levelo_inurba_marseille","lat":43.3061,"lon":5.37193,"is_reserved":false,"is_disabled":false,"rental_uris":{"android":"levelo://app?vid=83b4b289-b3c2-476b-869c-b6f97376787d","ios":"levelo://app?vid=83b4b289-b3c2-476b-869c-b6f97376787d"},"vehicle_type_id":"4","last_reported":1739563800,"current_range_meters":32800,"station_id":"ce4bgqh2rcd13ifvqc4g","pricing_plan_id":"cebpf4jnsgd1na2vs0mg"},{"bike_id":"043c3f00-95e0-44f1-8f8f-49251bf9d051","system_id":"levelo_inurba_marseille","lat":43.24817,"lon":5.37429,"is_reserved":false,"is_disabled":false,"rental_uris":{"android":"levelo://app?vid=043c3f00-95e0-44f1-8f8f-49251bf9d051","ios":"levelo://app?vid=043c3f00-95e0-44f1-8f8f-49251bf9d051"},"vehicle_type_id":"4","last_reported":1739563800,"current_range_meters":38800,"station_id":"ce4bhgh2rcd13ifvqfb0","pricing_plan_id":"cebpf4jnsgd1na2vs0mg"},{"bike_id":"859c79c3-9c5b-47b3-94ad-94355d1f1457","system_id":"levelo_inurba_marseille","lat":43.24384,"lon":5.37075,"is_reserved":false,"is_disabled":false,"rental_uris":{"android":"levelo://app?vid=859c79c3-9c5b-47b3-94ad-94355d1f1457","ios":"levelo://app?vid=859c79c3-9c5b-47b3-94ad-94355d1f1457"},"vehicle_type_id":"4","last_reported":1739563800,"current_range_meters":10800,"station_id":"ce4bhhh2rcd13ifvqfk0","pricing_plan_id":"cebpf4jnsgd1na2vs0mg"},{"bike_id":"70ac96e9-fd61-407a-9f8d-72ef7e3e8776","system_id":"levelo_inurba_marseille","lat":43.2929,"lon":5.37453,"is_reserved":false,"is_disabled":false,"rental_uris":{"android":"levelo://app?vid=70ac96e9-fd61-407a-9f8d-72ef7e3e8776","ios":"levelo://app?vid=70ac96e9-fd61-407a-9f8d-72ef7e3e8776"},"vehicle_type_id":"4","last_reported":1739563800,"current_range_meters":17200,"station_id":"ce4bgi12rcd13ifvqb70","pricing_plan_id":"cebpf4jnsgd1na2vs0mg"},{"bike_id":"77669f7d-2ba0-4a98-bee4-8b246a509dd6","system_id":"levelo_inurba_marseille","lat":43.29541,"lon":5.38542,"is_reserved":false,"is_disabled":false,"rental_uris":{"android":"levelo://app?vid=77669f7d-2ba0-4a98-bee4-8b246a509dd6","ios":"levelo://app?vid=77669f7d-2ba0-4a98-bee4-8b246a509dd6"},"vehicle_type_id":"4","last_reported":1739563800,"current_range_meters":5600,"station_id":"ce4bgih2rcd13ifvqba0","pricing_plan_id":"cebpf4jnsgd1na2vs0mg"},{"bike_id":"3cd57c58-32d4-4672-ac45-97d214052a1d","system_id":"levelo_inurba_marseille","lat":43.2985,"lon":5.36279,"is_reserved":false,"is_disabled":false,"rental_uris":{"android":"levelo://app?vid=3cd57c58-32d4-4672-ac45-97d214052a1d","ios":"levelo://app?vid=3cd57c58-32d4-4672-ac45-97d214052a1d"},"vehicle_type_id":"4","last_reported":1739563800,"current_range_meters":38800,"station_id":"ce4bgpp2rcd13ifvqc3g","pricing_plan_id":"cebpf4jnsgd1na2vs0mg"},{"bike_id":"9804370d-67f7-467c-ba53-33246b9ec675","system_id":"levelo_inurba_marseille","lat":43.29409,"lon":5.38632,"is_reserved":false,"is_disabled":false,"rental_uris":{"android":"levelo://app?vid=9804370d-67f7-467c-ba53-33246b9ec675","ios":"levelo://app?vid=9804370d-67f7-467c-ba53-33246b9ec675"},"vehicle_type_id":"4","last_reported":1739563800,"current_range_meters":39200,"station_id":"ce4bh2h2rcd13ifvqdh0","pricing_plan_id":"cebpf4jnsgd1na2vs0mg"},{"bike_id":"981f0c84-c763-4744-ab7e-6d6374d30546","system_id":"levelo_inurba_marseille","lat":43.25495,"lon":5.37659,"is_reserved":false,"is_disabled":false,"rental_uris":{"android":"levelo://app?vid=981f0c84-c763-4744-ab7e-6d6374d30546","ios":"levelo://app?vid=981f0c84-c763-4744-ab7e-6d6374d30546"},"vehicle_type_id":"4","last_reported":1739563800,"current_range_meters":39200,"station_id":"ce4bhh12rcd13ifvqff0","pricing_plan_id":"cebpf4jnsgd1na2vs0mg"},{"bike_id":"cf32f974-176f-413e-ae8d-12ed37a9cd2b","system_id":"levelo_inurba_marseille","lat":43.28901,"lon":5.42877,"is_reserved":false,"is_disabled":false,"rental_uris":{"android":"levelo://app?vid=cf32f974-176f-413e-ae8d-12ed37a9cd2b","ios":"levelo://app?vid=cf32f974-176f-413e-ae8d-12ed37a9cd2b"},"vehicle_type_id":"4","last_reported":1739563800,"current_range_meters":10000,"station_id":"","pricing_plan_id":"cebpf4jnsgd1na2vs0mg"},{"bike_id":"4c17efce-6413-4534-8267-7be847b3cdde","system_id":"levelo_inurba_marseille","lat":43.30104,"lon":5.3908,"is_reserved":false,"is_disabled":false,"rental_uris":{"android":"levelo://app?vid=4c17efce-6413-4534-8267-7be847b3cdde","ios":"levelo://app?vid=4c17efce-6413-4534-8267-7be847b3cdde"},"vehicle_type_id":"4","last_reported":1739563800,"current_range_meters":38800,"station_id":"ce4bh192rcd13ifvqdb0","pricing_plan_id":"cebpf4jnsgd1na2vs0mg"},{"bike_id":"24c9fd7a-dfb5-4755-9c33-7fb2bb66a39c","system_id":"levelo_inurba_marseille","lat":43.31221,"lon":5.374,"is_reserved":false,"is_disabled":false,"rental_uris":{"android":"levelo://app?vid=24c9fd7a-dfb5-4755-9c33-7fb2bb66a39c","ios":"levelo://app?vid=24c9fd7a-dfb5-4755-9c33-7fb2bb66a39c"},"vehicle_type_id":"4","last_reported":1739563800,"current_range_meters":6800,"station_id":"","pricing_plan_id":"cebpf4jnsgd1na2vs0mg"},{"bike_id":"624ab46e-6f88-4e17-80db-fe49bf75bc18","system_id":"levelo_inurba_marseille","lat":43.30117,"lon":5.39069,"is_reserved":false,"is_disabled":false,"rental_uris":{"android":"levelo://app?vid=624ab46e-6f88-4e17-80db-fe49bf75bc18","ios":"levelo://app?vid=624ab46e-6f88-4e17-80db-fe49bf75bc18"},"vehicle_type_id":"4","last_reported":1739563800,"current_range_meters":38800,"station_id":"ce4bh192rcd13ifvqdb0","pricing_plan_id":"cebpf4jnsgd1na2vs0mg"},{"bike_id":"f3577e40-d3b4-4c9c-af82-d1b37865ee10","system_id":"levelo_inurba_marseille","lat":43.25527,"lon":5.38252,"is_reserved":false,"is_disabled":false,"rental_uris":{"android":"levelo://app?vid=f3577e40-d3b4-4c9c-af82-d1b37865ee10","ios":"levelo://app?vid=f3577e40-d3b4-4c9c-af82-d1b37865ee10"},"vehicle_type_id":"4","last_reported":1739563800,"current_range_meters":7200,"station_id":"","pricing_plan_id":"cebpf4jnsgd1na2vs0mg"},{"bike_id":"874dd984-fd21-4c8c-8287-96918232b6c4","system_id":"levelo_inurba_marseille","lat":43.27986,"lon":5.40017,"is_reserved":false,"is_disabled":true,"rental_uris":{"android":"levelo://app?vid=874dd984-fd21-4c8c-8287-96918232b6c4","ios":"levelo://app?vid=874dd984-fd21-4c8c-8287-96918232b6c4"},"vehicle_type_id":"4","last_reported":1739563800,"current_range_meters":10000,"station_id":"ce4bho92rcd13ifvqh4g","pricing_plan_id":"cebpf4jnsgd1na2vs0mg"},{"bike_id":"02dd5004-90f6-4274-b567-f6406bd72f04","system_id":"levelo_inurba_marseille","lat":43.27802,"lon":5.40739,"is_reserved":false,"is_disabled":false,"rental_uris":{"android":"levelo://app?vid=02dd5004-90f6-4274-b567-f6406bd72f04","ios":"levelo://app?vid=02dd5004-90f6-4274-b567-f6406bd72f04"},"vehicle_type_id":"4","last_reported":1739563800,"current_range_meters":6000,"station_id":"ce4bhnh2rcd13ifvqgtg","pricing_plan_id":"cebpf4jnsgd1na2vs0mg"},{"bike_id":"e45dcd61-a888-4be8-bbee-d929a99ffe29","system_id":"levelo_inurba_marseille","lat":43.29799,"lon":5.40407,"is_reserved":false,"is_disabled":false,"rental_uris":{"android":"levelo://app?vid=e45dcd61-a888-4be8-bbee-d929a99ffe29","ios":"levelo://app?vid=e45dcd61-a888-4be8-bbee-d929a99ffe29"},"vehicle_type_id":"4","last_reported":1739563800,"current_range_meters":39200,"station_id":"ce4bh112rcd13ifvqd90","pricing_plan_id":"cebpf4jnsgd1na2vs0mg"},{"bike_id":"50335d08-25d1-4ea9-aa8b-aff2eed28f07","system_id":"levelo_inurba_marseille","lat":43.30876,"lon":5.39637,"is_reserved":false,"is_disabled":false,"rental_uris":{"android":"levelo://app?vid=50335d08-25d1-4ea9-aa8b-aff2eed28f07","ios":"levelo://app?vid=50335d08-25d1-4ea9-aa8b-aff2eed28f07"},"vehicle_type_id":"4","last_reported":1739563800,"current_range_meters":14400,"station_id":"ce4bh012rcd13ifvqcv0","pricing_plan_id":"cebpf4jnsgd1na2vs0mg"},{"bike_id":"08b02ff6-191d-4434-92b7-7e1a35cc7b31","system_id":"levelo_inurba_marseille","lat":43.29233,"lon":5.36076,"is_reserved":false,"is_disabled":false,"rental_uris":{"android":"levelo://app?vid=08b02ff6-191d-4434-92b7-7e1a35cc7b31","ios":"levelo://app?vid=08b02ff6-191d-4434-92b7-7e1a35cc7b31"},"vehicle_type_id":"4","last_reported":1739563800,"current_range_meters":28000,"station_id":"ce4bhbh2rcd13ifvqeqg","pricing_plan_id":"cebpf4jnsgd1na2vs0mg"},{"bike_id":"28003794-3145-4298-a79f-9ec68e952bb4","system_id":"levelo_inurba_marseille","lat":43.29626,"lon":5.40593,"is_reserved":false,"is_disabled":false,"rental_uris":{"android":"levelo://app?vid=28003794-3145-4298-a79f-9ec68e952bb4","ios":"levelo://app?vid=28003794-3145-4298-a79f-9ec68e952bb4"},"vehicle_type_id":"4","last_reported":1739563800,"current_range_meters":32000,"station_id":"ce4bh0h2rcd13ifvqd60","pricing_plan_id":"cebpf4jnsgd1na2vs0mg"},{"bike_id":"89970f36-7e08-476c-b891-5c3a66840a66","system_id":"levelo_inurba_marseille","lat":43.31173,"lon":5.38711,"is_reserved":false,"is_disabled":false,"rental_uris":{"android":"levelo://app?vid=89970f36-7e08-476c-b891-5c3a66840a66","ios":"levelo://app?vid=89970f36-7e08-476c-b891-5c3a66840a66"},"vehicle_type_id":"4","last_reported":1739563800,"current_range_meters":38800,"station_id":"ce4bgv12rcd13ifvqcp0","pricing_plan_id":"cebpf4jnsgd1na2vs0mg"},{"bike_id":"46f5d451-43bc-4724-ba4c-4c1a9fede2df","system_id":"levelo_inurba_marseille","lat":43.28417,"lon":5.37517,"is_reserved":false,"is_disabled":false,"rental_uris":{"android":"levelo://app?vid=46f5d451-43bc-4724-ba4c-4c1a9fede2df","ios":"levelo://app?vid=46f5d451-43bc-4724-ba4c-4c1a9fede2df"},"vehicle_type_id":"4","last_reported":1739563800,"current_range_meters":25200,"station_id":"ce4bh412rcd13ifvqds0","pricing_plan_id":"cebpf4jnsgd1na2vs0mg"},{"bike_id":"1033cf1d-9cf7-4be7-a6ad-b44ae9aed54f","system_id":"levelo_inurba_marseille","lat":43.2868,"lon":5.38665,"is_reserved":false,"is_disabled":false,"rental_uris":{"android":"levelo://app?vid=1033cf1d-9cf7-4be7-a6ad-b44ae9aed54f","ios":"levelo://app?vid=1033cf1d-9cf7-4be7-a6ad-b44ae9aed54f"},"vehicle_type_id":"4","last_reported":1739563800,"current_range_meters":12000,"station_id":"ce4bh492rcd13ifvqdug","pricing_plan_id":"cebpf4jnsgd1na2vs0mg"},{"bike_id":"e5e5a17e-27a5-454b-904b-e271a7fe6a76","system_id":"levelo_inurba_marseille","lat":43.28089,"lon":5.39644,"is_reserved":false,"is_disabled":false,"rental_uris":{"android":"levelo://app?vid=e5e5a17e-27a5-454b-904b-e271a7fe6a76","ios":"levelo://app?vid=e5e5a17e-27a5-454b-904b-e271a7fe6a76"},"vehicle_type_id":"4","last_reported":1739563800,"current_range_meters":37600,"station_id":"ce4bho12rcd13ifvqh2g","pricing_plan_id":"cebpf4jnsgd1na2vs0mg"},{"bike_id":"6583cb8c-929c-4879-839e-98fda62a9258","system_id":"levelo_inurba_marseille","lat":43.32284,"lon":5.38274,"is_reserved":false,"is_disabled":false,"rental_uris":{"android":"levelo://app?vid=6583cb8c-929c-4879-839e-98fda62a9258","ios":"levelo://app?vid=6583cb8c-929c-4879-839e-98fda62a9258"},"vehicle_type_id":"4","last_reported":1739563800,"current_range_meters":39200,"station_id":"ce4bhr12rcd13ifvqhqg","pricing_plan_id":"cebpf4jnsgd1na2vs0mg"},{"bike_id":"ddf1d674-41d6-443f-b0f1-1da7df267862","system_id":"levelo_inurba_marseille","lat":43.2304,"lon":5.35511,"is_reserved":false,"is_disabled":false,"rental_uris":{"android":"levelo://app?vid=ddf1d674-41d6-443f-b0f1-1da7df267862","ios":"levelo://app?vid=ddf1d674-41d6-443f-b0f1-1da7df267862"},"vehicle_type_id":"4","last_reported":1739563800,"current_range_meters":24800,"station_id":"cpo3342slgdg3j2ifvpg","pricing_plan_id":"cebpf4jnsgd1na2vs0mg"},{"bike_id":"7d940624-0e39-4c4d-b1c6-e89959873e30","system_id":"levelo_inurba_marseille","lat":43.24642,"lon":5.38917,"is_reserved":false,"is_disabled":false,"rental_uris":{"android":"levelo://app?vid=7d940624-0e39-4c4d-b1c6-e89959873e30","ios":"levelo://app?vid=7d940624-0e39-4c4d-b1c6-e89959873e30"},"vehicle_type_id":"4","last_reported":1739563800,"current_range_meters":24800,"station_id":"ce4bhg12rcd13ifvqf60","pricing_plan_id":"cebpf4jnsgd1na2vs0mg"},{"bike_id":"1a1cb256-3b19-4e4f-b9dc-dae154ac3702","system_id":"levelo_inurba_marseille","lat":43.26222,"lon":5.37457,"is_reserved":false,"is_disabled":false,"rental_uris":{"android":"levelo://app?vid=1a1cb256-3b19-4e4f-b9dc-dae154ac3702","ios":"levelo://app?vid=1a1cb256-3b19-4e4f-b9dc-dae154ac3702"},"vehicle_type_id":"4","last_reported":1739563800,"current_range_meters":31200,"station_id":"ce4bhgp2rcd13ifvqfc0","pricing_plan_id":"cebpf4jnsgd1na2vs0mg"},{"bike_id":"beb2041d-63f0-452d-b294-fc85bc8d4f9e","system_id":"levelo_inurba_marseille","lat":43.23953,"lon":5.36631,"is_reserved":false,"is_disabled":false,"rental_uris":{"android":"levelo://app?vid=beb2041d-63f0-452d-b294-fc85bc8d4f9e","ios":"levelo://app?vid=beb2041d-63f0-452d-b294-fc85bc8d4f9e"},"vehicle_type_id":"4","last_reported":1739563800,"current_range_meters":38000,"station_id":"ce4bhi12rcd13ifvqfp0","pricing_plan_id":"cebpf4jnsgd1na2vs0mg"},{"bike_id":"78be6242-0c31-4932-9bea-7d041837b9fe","system_id":"levelo_inurba_marseille","lat":43.31318,"lon":5.3971,"is_reserved":false,"is_disabled":false,"rental_uris":{"android":"levelo://app?vid=78be6242-0c31-4932-9bea-7d041837b9fe","ios":"levelo://app?vid=78be6242-0c31-4932-9bea-7d041837b9fe"},"vehicle_type_id":"4","last_reported":1739563800,"current_range_meters":31200,"station_id":"ce4bgvp2rcd13ifvqcu0","pricing_plan_id":"cebpf4jnsgd1na2vs0mg"},{"bike_id":"a981bf5d-1f76-4404-8980-24161714af91","system_id":"levelo_inurba_marseille","lat":43.2997,"lon":5.37165,"is_reserved":false,"is_disabled":false,"rental_uris":{"android":"levelo://app?vid=a981bf5d-1f76-4404-8980-24161714af91","ios":"levelo://app?vid=a981bf5d-1f76-4404-8980-24161714af91"},"vehicle_type_id":"4","last_reported":1739563800,"current_range_meters":38000,"station_id":"ce4bgr92rcd13ifvqc7g","pricing_plan_id":"cebpf4jnsgd1na2vs0mg"},{"bike_id":"c9645a26-5874-480f-a11e-46d2257542e0","system_id":"levelo_inurba_marseille","lat":43.27563,"lon":5.38667,"is_reserved":false,"is_disabled":false,"rental_uris":{"android":"levelo://app?vid=c9645a26-5874-480f-a11e-46d2257542e0","ios":"levelo://app?vid=c9645a26-5874-480f-a11e-46d2257542e0"},"vehicle_type_id":"4","last_reported":1739563800,"current_range_meters":32400,"station_id":"","pricing_plan_id":"cebpf4jnsgd1na2vs0mg"},{"bike_id":"4450d397-c7c4-4c68-aed9-fa811598c082","system_id":"levelo_inurba_marseille","lat":43.32544,"lon":5.36511,"is_reserved":false,"is_disabled":false,"rental_uris":{"android":"levelo://app?vid=4450d397-c7c4-4c68-aed9-fa811598c082","ios":"levelo://app?vid=4450d397-c7c4-4c68-aed9-fa811598c082"},"vehicle_type_id":"4","last_reported":1739563800,"current_range_meters":28800,"station_id":"","pricing_plan_id":"cebpf4jnsgd1na2vs0mg"},{"bike_id":"28a16aee-71d6-4cb1-b35a-d4320a6bf584","system_id":"levelo_inurba_marseille","lat":43.32363,"lon":5.388787,"is_reserved":false,"is_disabled":false,"rental_uris":{"android":"levelo://app?vid=28a16aee-71d6-4cb1-b35a-d4320a6bf584","ios":"levelo://app?vid=28a16aee-71d6-4cb1-b35a-d4320a6bf584"},"vehicle_type_id":"4","last_reported":1739563800,"current_range_meters":22000,"station_id":"ce4bhqp2rcd13ifvqhog","pricing_plan_id":"cebpf4jnsgd1na2vs0mg"},{"bike_id":"59cb679e-245c-46b7-bc74-dfa7c14bb16c","system_id":"levelo_inurba_marseille","lat":43.29007,"lon":5.35624,"is_reserved":false,"is_disabled":true,"rental_uris":{"android":"levelo://app?vid=59cb679e-245c-46b7-bc74-dfa7c14bb16c","ios":"levelo://app?vid=59cb679e-245c-46b7-bc74-dfa7c14bb16c"},"vehicle_type_id":"4","last_reported":1739563800,"current_range_meters":38800,"station_id":"ce4bhb92rcd13ifvqen0","pricing_plan_id":"cebpf4jnsgd1na2vs0mg"},{"bike_id":"b24f3555-58eb-4b73-aeb8-7954d82e3761","system_id":"levelo_inurba_marseille","lat":43.28037,"lon":5.36944,"is_reserved":false,"is_disabled":false,"rental_uris":{"android":"levelo://app?vid=b24f3555-58eb-4b73-aeb8-7954d82e3761","ios":"levelo://app?vid=b24f3555-58eb-4b73-aeb8-7954d82e3761"},"vehicle_type_id":"4","last_reported":1739563800,"current_range_meters":36800,"station_id":"ce4bha12rcd13ifvqef0","pricing_plan_id":"cebpf4jnsgd1na2vs0mg"},{"bike_id":"a8bc8483-ceef-456e-92ec-efcc9ae8cb95","system_id":"levelo_inurba_marseille","lat":43.27614,"lon":5.36108,"is_reserved":false,"is_disabled":false,"rental_uris":{"android":"levelo://app?vid=a8bc8483-ceef-456e-92ec-efcc9ae8cb95","ios":"levelo://app?vid=a8bc8483-ceef-456e-92ec-efcc9ae8cb95"},"vehicle_type_id":"4","last_reported":1739563800,"current_range_meters":37600,"station_id":"ce4bgj92rcd13ifvqbe0","pricing_plan_id":"cebpf4jnsgd1na2vs0mg"},{"bike_id":"62782877-d4c7-43e3-b7c0-213664038074","system_id":"levelo_inurba_marseille","lat":43.27811,"lon":5.40706,"is_reserved":false,"is_disabled":false,"rental_uris":{"android":"levelo://app?vid=62782877-d4c7-43e3-b7c0-213664038074","ios":"levelo://app?vid=62782877-d4c7-43e3-b7c0-213664038074"},"vehicle_type_id":"4","last_reported":1739563800,"current_range_meters":16000,"station_id":"ce4bhnh2rcd13ifvqgtg","pricing_plan_id":"cebpf4jnsgd1na2vs0mg"},{"bike_id":"98033172-72ff-4d64-b257-b63d5c2eb5a9","system_id":"levelo_inurba_marseille","lat":43.30133,"lon":5.38786,"is_reserved":false,"is_disabled":false,"rental_uris":{"android":"levelo://app?vid=98033172-72ff-4d64-b257-b63d5c2eb5a9","ios":"levelo://app?vid=98033172-72ff-4d64-b257-b63d5c2eb5a9"},"vehicle_type_id":"4","last_reported":1739563800,"current_range_meters":12400,"station_id":"ce4bghh2rcd13ifvqb60","pricing_plan_id":"cebpf4jnsgd1na2vs0mg"},{"bike_id":"8d4778a3-018b-41fe-9791-450938458c2d","system_id":"levelo_inurba_marseille","lat":43.2997,"lon":5.38495,"is_reserved":false,"is_disabled":false,"rental_uris":{"android":"levelo://app?vid=8d4778a3-018b-41fe-9791-450938458c2d","ios":"levelo://app?vid=8d4778a3-018b-41fe-9791-450938458c2d"},"vehicle_type_id":"4","last_reported":1739563800,"current_range_meters":22400,"station_id":"ce4bgj92rcd13ifvqbd0","pricing_plan_id":"cebpf4jnsgd1na2vs0mg"},{"bike_id":"b7675672-ea91-4212-a3c2-1e75ea117425","system_id":"levelo_inurba_marseille","lat":43.28149,"lon":5.42637,"is_reserved":false,"is_disabled":true,"rental_uris":{"android":"levelo://app?vid=b7675672-ea91-4212-a3c2-1e75ea117425","ios":"levelo://app?vid=b7675672-ea91-4212-a3c2-1e75ea117425"},"vehicle_type_id":"4","last_reported":1739563800,"current_range_meters":0,"station_id":"ce4bhnh2rcd13ifvqgug","pricing_plan_id":"cebpf4jnsgd1na2vs0mg"},{"bike_id":"af2479e9-972d-4e4a-b6d7-ae1e13fe2c50","system_id":"levelo_inurba_marseille","lat":43.2953,"lon":5.38555,"is_reserved":false,"is_disabled":false,"rental_uris":{"android":"levelo://app?vid=af2479e9-972d-4e4a-b6d7-ae1e13fe2c50","ios":"levelo://app?vid=af2479e9-972d-4e4a-b6d7-ae1e13fe2c50"},"vehicle_type_id":"4","last_reported":1739563800,"current_range_meters":16800,"station_id":"ce4bgih2rcd13ifvqba0","pricing_plan_id":"cebpf4jnsgd1na2vs0mg"},{"bike_id":"8cd34743-59ad-4597-983e-df465622bf8b","system_id":"levelo_inurba_marseille","lat":43.28686,"lon":5.38671,"is_reserved":false,"is_disabled":false,"rental_uris":{"android":"levelo://app?vid=8cd34743-59ad-4597-983e-df465622bf8b","ios":"levelo://app?vid=8cd34743-59ad-4597-983e-df465622bf8b"},"vehicle_type_id":"4","last_reported":1739563800,"current_range_meters":39200,"station_id":"ce4bh492rcd13ifvqdug","pricing_plan_id":"cebpf4jnsgd1na2vs0mg"},{"bike_id":"04ea1af7-d520-4b46-9f31-54fc69dc8b5f","system_id":"levelo_inurba_marseille","lat":43.29542,"lon":5.38547,"is_reserved":false,"is_disabled":false,"rental_uris":{"android":"levelo://app?vid=04ea1af7-d520-4b46-9f31-54fc69dc8b5f","ios":"levelo://app?vid=04ea1af7-d520-4b46-9f31-54fc69dc8b5f"},"vehicle_type_id":"4","last_reported":1739563800,"current_range_meters":38800,"station_id":"ce4bgih2rcd13ifvqba0","pricing_plan_id":"cebpf4jnsgd1na2vs0mg"},{"bike_id":"5da5a310-32ac-49a0-b83f-6757f328ce49","system_id":"levelo_inurba_marseille","lat":43.27666,"lon":5.38884,"is_reserved":false,"is_disabled":false,"rental_uris":{"android":"levelo://app?vid=5da5a310-32ac-49a0-b83f-6757f328ce49","ios":"levelo://app?vid=5da5a310-32ac-49a0-b83f-6757f328ce49"},"vehicle_type_id":"4","last_reported":1739563800,"current_range_meters":38000,"station_id":"ce4bhi12rcd13ifvqfo0","pricing_plan_id":"cebpf4jnsgd1na2vs0mg"},{"bike_id":"d234bf58-d3f5-49c4-9506-1331b93e1dcc","system_id":"levelo_inurba_marseille","lat":43.29455,"lon":5.39747,"is_reserved":false,"is_disabled":true,"rental_uris":{"android":"levelo://app?vid=d234bf58-d3f5-49c4-9506-1331b93e1dcc","ios":"levelo://app?vid=d234bf58-d3f5-49c4-9506-1331b93e1dcc"},"vehicle_type_id":"4","last_reported":1739563800,"current_range_meters":400,"station_id":"ce4bh3h2rcd13ifvqdo0","pricing_plan_id":"cebpf4jnsgd1na2vs0mg"},{"bike_id":"4df18ca1-d2d5-4e4f-84ca-1aa5f2e07468","system_id":"levelo_inurba_marseille","lat":43.27996,"lon":5.40025,"is_reserved":false,"is_disabled":false,"rental_uris":{"android":"levelo://app?vid=4df18ca1-d2d5-4e4f-84ca-1aa5f2e07468","ios":"levelo://app?vid=4df18ca1-d2d5-4e4f-84ca-1aa5f2e07468"},"vehicle_type_id":"4","last_reported":1739563800,"current_range_meters":6000,"station_id":"ce4bho92rcd13ifvqh4g","pricing_plan_id":"cebpf4jnsgd1na2vs0mg"},{"bike_id":"62862006-05b4-4c32-b74d-3d73ca0f3a49","system_id":"levelo_inurba_marseille","lat":43.29493,"lon":5.36395,"is_reserved":false,"is_disabled":true,"rental_uris":{"android":"levelo://app?vid=62862006-05b4-4c32-b74d-3d73ca0f3a49","ios":"levelo://app?vid=62862006-05b4-4c32-b74d-3d73ca0f3a49"},"vehicle_type_id":"4","last_reported":1739563800,"current_range_meters":25200,"station_id":"","pricing_plan_id":"cebpf4jnsgd1na2vs0mg"},{"bike_id":"92d1ee13-e974-447f-aca6-7b5bff8f8b19","system_id":"levelo_inurba_marseille","lat":43.28075,"lon":5.39641,"is_reserved":false,"is_disabled":false,"rental_uris":{"android":"levelo://app?vid=92d1ee13-e974-447f-aca6-7b5bff8f8b19","ios":"levelo://app?vid=92d1ee13-e974-447f-aca6-7b5bff8f8b19"},"vehicle_type_id":"4","last_reported":1739563800,"current_range_meters":39200,"station_id":"ce4bho12rcd13ifvqh2g","pricing_plan_id":"cebpf4jnsgd1na2vs0mg"},{"bike_id":"55c71887-75ae-440f-aed8-5a0380896118","system_id":"levelo_inurba_marseille","lat":43.298501,"lon":5.362921,"is_reserved":false,"is_disabled":true,"rental_uris":{"android":"levelo://app?vid=55c71887-75ae-440f-aed8-5a0380896118","ios":"levelo://app?vid=55c71887-75ae-440f-aed8-5a0380896118"},"vehicle_type_id":"4","last_reported":1739563800,"current_range_meters":35600,"station_id":"ce4bgpp2rcd13ifvqc3g","pricing_plan_id":"cebpf4jnsgd1na2vs0mg"},{"bike_id":"bd17c149-7a64-442c-bad3-25faab1e1d15","system_id":"levelo_inurba_marseille","lat":43.303,"lon":5.39212,"is_reserved":false,"is_disabled":true,"rental_uris":{"android":"levelo://app?vid=bd17c149-7a64-442c-bad3-25faab1e1d15","ios":"levelo://app?vid=bd17c149-7a64-442c-bad3-25faab1e1d15"},"vehicle_type_id":"4","last_reported":1739563800,"current_range_meters":38400,"station_id":"ce4bgkh2rcd13ifvqbk0","pricing_plan_id":"cebpf4jnsgd1na2vs0mg"},{"bike_id":"c75516b5-09d7-4afc-aeb6-1c210275e818","system_id":"levelo_inurba_marseille","lat":43.29274,"lon":5.36844,"is_reserved":false,"is_disabled":false,"rental_uris":{"android":"levelo://app?vid=c75516b5-09d7-4afc-aeb6-1c210275e818","ios":"levelo://app?vid=c75516b5-09d7-4afc-aeb6-1c210275e818"},"vehicle_type_id":"4","last_reported":1739563800,"current_range_meters":36400,"station_id":"ce4bhbp2rcd13ifvqesg","pricing_plan_id":"cebpf4jnsgd1na2vs0mg"},{"bike_id":"5f431628-1b2d-4a9e-9493-29ef6605563f","system_id":"levelo_inurba_marseille","lat":43.29531,"lon":5.39022,"is_reserved":false,"is_disabled":true,"rental_uris":{"android":"levelo://app?vid=5f431628-1b2d-4a9e-9493-29ef6605563f","ios":"levelo://app?vid=5f431628-1b2d-4a9e-9493-29ef6605563f"},"vehicle_type_id":"4","last_reported":1739563800,"current_range_meters":38800,"station_id":"ce4bh3p2rcd13ifvqdp0","pricing_plan_id":"cebpf4jnsgd1na2vs0mg"},{"bike_id":"3760be46-9947-4266-a54f-ee253cc823c2","system_id":"levelo_inurba_marseille","lat":43.287,"lon":5.37421,"is_reserved":false,"is_disabled":false,"rental_uris":{"android":"levelo://app?vid=3760be46-9947-4266-a54f-ee253cc823c2","ios":"levelo://app?vid=3760be46-9947-4266-a54f-ee253cc823c2"},"vehicle_type_id":"4","last_reported":1739563800,"current_range_meters":38000,"station_id":"ce4bh3p2rcd13ifvqdq0","pricing_plan_id":"cebpf4jnsgd1na2vs0mg"},{"bike_id":"dbfb7df1-d758-448c-9075-e7feb5f00d8e","system_id":"levelo_inurba_marseille","lat":43.24073,"lon":5.3776,"is_reserved":false,"is_disabled":false,"rental_uris":{"android":"levelo://app?vid=dbfb7df1-d758-448c-9075-e7feb5f00d8e","ios":"levelo://app?vid=dbfb7df1-d758-448c-9075-e7feb5f00d8e"},"vehicle_type_id":"4","last_reported":1739563800,"current_range_meters":20800,"station_id":"ce4bhnp2rcd13ifvqgvg","pricing_plan_id":"cebpf4jnsgd1na2vs0mg"},{"bike_id":"2473cc94-4bcc-4a8d-9eb8-d2b25dddfb16","system_id":"levelo_inurba_marseille","lat":43.24825,"lon":5.37474,"is_reserved":false,"is_disabled":false,"rental_uris":{"android":"levelo://app?vid=2473cc94-4bcc-4a8d-9eb8-d2b25dddfb16","ios":"levelo://app?vid=2473cc94-4bcc-4a8d-9eb8-d2b25dddfb16"},"vehicle_type_id":"4","last_reported":1739563800,"current_range_meters":38400,"station_id":"ce4bhgh2rcd13ifvqfb0","pricing_plan_id":"cebpf4jnsgd1na2vs0mg"},{"bike_id":"e031351b-efdb-4640-8255-b69e1640bbff","system_id":"levelo_inurba_marseille","lat":43.2416,"lon":5.36384,"is_reserved":false,"is_disabled":false,"rental_uris":{"android":"levelo://app?vid=e031351b-efdb-4640-8255-b69e1640bbff","ios":"levelo://app?vid=e031351b-efdb-4640-8255-b69e1640bbff"},"vehicle_type_id":"4","last_reported":1739563800,"current_range_meters":32800,"station_id":"cpo36qri1sfpv3e86is0","pricing_plan_id":"cebpf4jnsgd1na2vs0mg"},{"bike_id":"c49fbe2c-7e7c-4dbb-8b74-0294a8e3fee5","system_id":"levelo_inurba_marseille","lat":43.292225,"lon":5.360535,"is_reserved":false,"is_disabled":false,"rental_uris":{"android":"levelo://app?vid=c49fbe2c-7e7c-4dbb-8b74-0294a8e3fee5","ios":"levelo://app?vid=c49fbe2c-7e7c-4dbb-8b74-0294a8e3fee5"},"vehicle_type_id":"4","last_reported":1739563800,"current_range_meters":38800,"station_id":"ce4bhbh2rcd13ifvqeqg","pricing_plan_id":"cebpf4jnsgd1na2vs0mg"},{"bike_id":"ebc15a6e-5853-45dd-820c-b689acec293e","system_id":"levelo_inurba_marseille","lat":43.28006,"lon":5.40013,"is_reserved":false,"is_disabled":false,"rental_uris":{"android":"levelo://app?vid=ebc15a6e-5853-45dd-820c-b689acec293e","ios":"levelo://app?vid=ebc15a6e-5853-45dd-820c-b689acec293e"},"vehicle_type_id":"4","last_reported":1739563800,"current_range_meters":25600,"station_id":"ce4bho92rcd13ifvqh4g","pricing_plan_id":"cebpf4jnsgd1na2vs0mg"},{"bike_id":"ee566f3d-0e78-4ced-ac1b-e3b33c18e89e","system_id":"levelo_inurba_marseille","lat":43.24414,"lon":5.37051,"is_reserved":false,"is_disabled":false,"rental_uris":{"android":"levelo://app?vid=ee566f3d-0e78-4ced-ac1b-e3b33c18e89e","ios":"levelo://app?vid=ee566f3d-0e78-4ced-ac1b-e3b33c18e89e"},"vehicle_type_id":"4","last_reported":1739563800,"current_range_meters":16400,"station_id":"ce4bhhh2rcd13ifvqfk0","pricing_plan_id":"cebpf4jnsgd1na2vs0mg"},{"bike_id":"3db59d0b-9726-43a0-8b94-28667c8160f7","system_id":"levelo_inurba_marseille","lat":43.29266,"lon":5.3847,"is_reserved":false,"is_disabled":false,"rental_uris":{"android":"levelo://app?vid=3db59d0b-9726-43a0-8b94-28667c8160f7","ios":"levelo://app?vid=3db59d0b-9726-43a0-8b94-28667c8160f7"},"vehicle_type_id":"4","last_reported":1739563800,"current_range_meters":9600,"station_id":"ce4bh692rcd13ifvqea0","pricing_plan_id":"cebpf4jnsgd1na2vs0mg"},{"bike_id":"196e3dce-d428-4768-98b4-ef7d048416b3","system_id":"levelo_inurba_marseille","lat":43.30129,"lon":5.38782,"is_reserved":false,"is_disabled":false,"rental_uris":{"android":"levelo://app?vid=196e3dce-d428-4768-98b4-ef7d048416b3","ios":"levelo://app?vid=196e3dce-d428-4768-98b4-ef7d048416b3"},"vehicle_type_id":"4","last_reported":1739563800,"current_range_meters":29600,"station_id":"ce4bghh2rcd13ifvqb60","pricing_plan_id":"cebpf4jnsgd1na2vs0mg"},{"bike_id":"bbeb47d8-43a0-4ae4-8001-a6f885f91a00","system_id":"levelo_inurba_marseille","lat":43.24089,"lon":5.37786,"is_reserved":false,"is_disabled":false,"rental_uris":{"android":"levelo://app?vid=bbeb47d8-43a0-4ae4-8001-a6f885f91a00","ios":"levelo://app?vid=bbeb47d8-43a0-4ae4-8001-a6f885f91a00"},"vehicle_type_id":"4","last_reported":1739563800,"current_range_meters":27200,"station_id":"ce4bhnp2rcd13ifvqgvg","pricing_plan_id":"cebpf4jnsgd1na2vs0mg"},{"bike_id":"5b76ad3a-410f-4799-991b-536d5aafe407","system_id":"levelo_inurba_marseille","lat":43.30513,"lon":5.36735,"is_reserved":false,"is_disabled":true,"rental_uris":{"android":"levelo://app?vid=5b76ad3a-410f-4799-991b-536d5aafe407","ios":"levelo://app?vid=5b76ad3a-410f-4799-991b-536d5aafe407"},"vehicle_type_id":"4","last_reported":1739563800,"current_range_meters":22400,"station_id":"ce4bgrp2rcd13ifvqc9g","pricing_plan_id":"cebpf4jnsgd1na2vs0mg"},{"bike_id":"7c7ddfa3-58da-4d71-aa33-4d304e9c22e1","system_id":"levelo_inurba_marseille","lat":43.27572,"lon":5.38424,"is_reserved":false,"is_disabled":false,"rental_uris":{"android":"levelo://app?vid=7c7ddfa3-58da-4d71-aa33-4d304e9c22e1","ios":"levelo://app?vid=7c7ddfa3-58da-4d71-aa33-4d304e9c22e1"},"vehicle_type_id":"4","last_reported":1739563800,"current_range_meters":38800,"station_id":"ce4bhh92rcd13ifvqfi0","pricing_plan_id":"cebpf4jnsgd1na2vs0mg"},{"bike_id":"9963e216-9016-4d39-9ca5-116cfee81a50","system_id":"levelo_inurba_marseille","lat":43.2942,"lon":5.38627,"is_reserved":false,"is_disabled":false,"rental_uris":{"android":"levelo://app?vid=9963e216-9016-4d39-9ca5-116cfee81a50","ios":"levelo://app?vid=9963e216-9016-4d39-9ca5-116cfee81a50"},"vehicle_type_id":"4","last_reported":1739563800,"current_range_meters":32000,"station_id":"ce4bh2h2rcd13ifvqdh0","pricing_plan_id":"cebpf4jnsgd1na2vs0mg"},{"bike_id":"093dcec6-2bbf-48d9-8bcf-4175e56dbd4a","system_id":"levelo_inurba_marseille","lat":43.27992,"lon":5.4001,"is_reserved":false,"is_disabled":false,"rental_uris":{"android":"levelo://app?vid=093dcec6-2bbf-48d9-8bcf-4175e56dbd4a","ios":"levelo://app?vid=093dcec6-2bbf-48d9-8bcf-4175e56dbd4a"},"vehicle_type_id":"4","last_reported":1739563800,"current_range_meters":30400,"station_id":"ce4bho92rcd13ifvqh4g","pricing_plan_id":"cebpf4jnsgd1na2vs0mg"},{"bike_id":"039f2d88-8811-413a-ae58-90344410f717","system_id":"levelo_inurba_marseille","lat":43.28005,"lon":5.40004,"is_reserved":false,"is_disabled":false,"rental_uris":{"android":"levelo://app?vid=039f2d88-8811-413a-ae58-90344410f717","ios":"levelo://app?vid=039f2d88-8811-413a-ae58-90344410f717"},"vehicle_type_id":"4","last_reported":1739563800,"current_range_meters":25200,"station_id":"ce4bho92rcd13ifvqh4g","pricing_plan_id":"cebpf4jnsgd1na2vs0mg"},{"bike_id":"a3a95077-3171-4558-91d0-0cd7ee8239cc","system_id":"levelo_inurba_marseille","lat":43.28432,"lon":5.3752,"is_reserved":false,"is_disabled":false,"rental_uris":{"android":"levelo://app?vid=a3a95077-3171-4558-91d0-0cd7ee8239cc","ios":"levelo://app?vid=a3a95077-3171-4558-91d0-0cd7ee8239cc"},"vehicle_type_id":"4","last_reported":1739563800,"current_range_meters":20800,"station_id":"ce4bh412rcd13ifvqds0","pricing_plan_id":"cebpf4jnsgd1na2vs0mg"},{"bike_id":"f38e49a3-fdb3-412a-a14b-226b01dbe81d","system_id":"levelo_inurba_marseille","lat":43.28351,"lon":5.38102,"is_reserved":false,"is_disabled":false,"rental_uris":{"android":"levelo://app?vid=f38e49a3-fdb3-412a-a14b-226b01dbe81d","ios":"levelo://app?vid=f38e49a3-fdb3-412a-a14b-226b01dbe81d"},"vehicle_type_id":"4","last_reported":1739563800,"current_range_meters":8800,"station_id":"ce4bh412rcd13ifvqdr0","pricing_plan_id":"cebpf4jnsgd1na2vs0mg"},{"bike_id":"b5f01856-3c2d-40fe-98e5-69999118237f","system_id":"levelo_inurba_marseille","lat":43.28615,"lon":5.35102,"is_reserved":false,"is_disabled":false,"rental_uris":{"android":"levelo://app?vid=b5f01856-3c2d-40fe-98e5-69999118237f","ios":"levelo://app?vid=b5f01856-3c2d-40fe-98e5-69999118237f"},"vehicle_type_id":"4","last_reported":1739563800,"current_range_meters":11200,"station_id":"ce4bhch2rcd13ifvqeug","pricing_plan_id":"cebpf4jnsgd1na2vs0mg"},{"bike_id":"670a7f48-70ae-4273-b08b-1001760721ac","system_id":"levelo_inurba_marseille","lat":43.29532,"lon":5.38532,"is_reserved":false,"is_disabled":false,"rental_uris":{"android":"levelo://app?vid=670a7f48-70ae-4273-b08b-1001760721ac","ios":"levelo://app?vid=670a7f48-70ae-4273-b08b-1001760721ac"},