{"last_updated":1703596069,"ttl":30,"version":"2.2","data":{"bikes":[{"bike_id":"5678c439-c063-47b2-ad6d-cdb8399113b1","system_id":"levelo_inurba_marseille","lat":43.313391,"lon":5.36706,"is_reserved":false,"is_disabled":false,"rental_uris":{"android":"levelo://app?vid=5678c439-c063-47b2-ad6d-cdb8399113b1","ios":"levelo://app?vid=5678c439-c063-47b2-ad6d-cdb8399113b1"},"vehicle_type_id":"4","last_reported":1703596069,"current_range_meters":17200,"station_id":"ce4bgr92rcd13ifvqc6g","pricing_plan_id":"free"},{"bike_id":"077218c7-227d-48eb-a6eb-eb04f5a67253","system_id":"levelo_inurba_marseille","lat":43.31341,"lon":5.367098,"is_reserved":false,"is_disabled":false,"rental_uris":{"android":"levelo://app?vid=077218c7-227d-48eb-a6eb-eb04f5a67253","ios":"levelo://app?vid=077218c7-227d-48eb-a6eb-eb04f5a67253"},"vehicle_type_id":"4","last_reported":1703596069,"current_range_meters":18400,"station_id":"ce4bgr92rcd13ifvqc6g","pricing_plan_id":"free"},{"bike_id":"c4e22862-bf3d-45f0-8576-89a9b570f655","system_id":"levelo_inurba_marseille","lat":43.313391,"lon":5.36706,"is_reserved":false,"is_disabled":false,"rental_uris":{"android":"levelo://app?vid=c4e22862-bf3d-45f0-8576-89a9b570f655","ios":"levelo://app?vid=c4e22862-bf3d-45f0-8576-89a9b570f655"},"vehicle_type_id":"4","last_reported":1703596069,"current_range_meters":26800,"station_id":"ce4bgr92rcd13ifvqc6g","pricing_plan_id":"free"},{"bike_id":"ff914119-8f96-4e5f-a4e6-bb0fe2afd7f9","system_id":"levelo_inurba_marseille","lat":43.313504,"lon":5.367173,"is_reserved":false,"is_disabled":false,"rental_uris":{"android":"levelo://app?vid=ff914119-8f96-4e5f-a4e6-bb0fe2afd7f9","ios":"levelo://app?vid=ff914119-8f96-4e5f-a4e6-bb0fe2afd7f9"},"vehicle_type_id":"4","last_reported":1703596069,"current_range_meters":13200,"station_id":"ce4bgr92rcd13ifvqc6g","pricing_plan_id":"free"},{"bike_id":"0e17039e-5c53-44c0-a6c9-767d501cc2b8","system_id":"levelo_inurba_marseille","lat":43.31341,"lon":5.367098,"is_reserved":false,"is_disabled":false,"rental_uris":{"android":"levelo://app?vid=0e17039e-5c53-44c0-a6c9-767d501cc2b8","ios":"levelo://app?vid=0e17039e-5c53-44c0-a6c9-767d501cc2b8"},"vehicle_type_id":"4","last_reported":1703596069,"current_range_meters":30800,"station_id":"ce4bgr92rcd13ifvqc6g","pricing_plan_id":"free"},{"bike_id":"3fcd9df9-3fc1-44f1-b2ed-1dba720245a5","system_id":"levelo_inurba_marseille","lat":43.312239,"lon":5.368562,"is_reserved":false,"is_disabled":false,"rental_uris":{"android":"levelo://app?vid=3fcd9df9-3fc1-44f1-b2ed-1dba720245a5","ios":"levelo://app?vid=3fcd9df9-3fc1-44f1-b2ed-1dba720245a5"},"vehicle_type_id":"4","last_reported":1703596069,"current_range_meters":22000,"station_id":"ce4bgl92rcd13ifvqbq0","pricing_plan_id":"free"},{"bike_id":"ab0fafb4-c0ca-4062-8fa3-ead1cc956981","system_id":"levelo_inurba_marseille","lat":43.312239,"lon":5.368562,"is_reserved":false,"is_disabled":false,"rental_uris":{"android":"levelo://app?vid=ab0fafb4-c0ca-4062-8fa3-ead1cc956981","ios":"levelo://app?vid=ab0fafb4-c0ca-4062-8fa3-ead1cc956981"},"vehicle_type_id":"4","last_reported":1703596069,"current_range_meters":17600,"station_id":"ce4bgl92rcd13ifvqbq0","pricing_plan_id":"free"},{"bike_id":"fc0e619e-cfd9-4863-95d5-6321f6f37d83","system_id":"levelo_inurba_marseille","lat":43.312239,"lon":5.368562,"is_reserved":false,"is_disabled":false,"rental_uris":{"android":"levelo://app?vid=fc0e619e-cfd9-4863-95d5-6321f6f37d83","ios":"levelo://app?vid=fc0e619e-cfd9-4863-95d5-6321f6f37d83"},"vehicle_type_id":"4","last_reported":1703596069,"current_range_meters":7600,"station_id":"ce4bgl92rcd13ifvqbq0","pricing_plan_id":"free"},{"bike_id":"2f7e5725-a458-41fc-81a8-787399a61b57","system_id":"levelo_inurba_marseille","lat":43.312239,"lon":5.368562,"is_reserved":false,"is_disabled":false,"rental_uris":{"android":"levelo://app?vid=2f7e5725-a458-41fc-81a8-787399a61b57","ios":"levelo://app?vid=2f7e5725-a458-41fc-81a8-787399a61b57"},"vehicle_type_id":"4","last_reported":1703596069,"current_range_meters":13600,"station_id":"ce4bgl92rcd13ifvqbq0","pricing_plan_id":"free"},{"bike_id":"9b576c51-3043-401b-862d-fc83694eaecd","system_id":"levelo_inurba_marseille","lat":43.312239,"lon":5.368562,"is_reserved":false,"is_disabled":false,"rental_uris":{"android":"levelo://app?vid=9b576c51-3043-401b-862d-fc83694eaecd","ios":"levelo://app?vid=9b576c51-3043-401b-862d-fc83694eaecd"},"vehicle_type_id":"4","last_reported":1703596069,"current_range_meters":31200,"station_id":"ce4bgl92rcd13ifvqbq0","pricing_plan_id":"free"},{"bike_id":"61a1391a-a674-4f6d-ba66-d65b48bfa817","system_id":"levelo_inurba_marseille","lat":43.312239,"lon":5.368562,"is_reserved":false,"is_disabled":false,"rental_uris":{"android":"levelo://app?vid=61a1391a-a674-4f6d-ba66-d65b48bfa817","ios":"levelo://app?vid=61a1391a-a674-4f6d-ba66-d65b48bfa817"},"vehicle_type_id":"4","last_reported":1703596069,"current_range_meters":31200,"station_id":"ce4bgl92rcd13ifvqbq0","pricing_plan_id":"free"},{"bike_id":"80829a0b-0540-4cdd-b542-9c77a086e82e","system_id":"levelo_inurba_marseille","lat":43.312239,"lon":5.368562,"is_reserved":false,"is_disabled":false,"rental_uris":{"android":"levelo://app?vid=80829a0b-0540-4cdd-b542-9c77a086e82e","ios":"levelo://app?vid=80829a0b-0540-4cdd-b542-9c77a086e82e"},"vehicle_type_id":"4","last_reported":1703596069,"current_range_meters":16000,"station_id":"ce4bgl92rcd13ifvqbq0","pricing_plan_id":"free"},{"bike_id":"830037dd-4a0d-423c-8e55-d86e731d0f08","system_id":"levelo_inurba_marseille","lat":43.314811,"lon":5.373103,"is_reserved":false,"is_disabled":false,"rental_uris":{"android":"levelo://app?vid=830037dd-4a0d-423c-8e55-d86e731d0f08","ios":"levelo://app?vid=830037dd-4a0d-423c-8e55-d86e731d0f08"},"vehicle_type_id":"4","last_reported":1703596069,"current_range_meters":19200,"station_id":"ce4bgt12rcd13ifvqcd0","pricing_plan_id":"free"},{"bike_id":"4bde8aee-9e18-46f6-b8dc-c48475d27629","system_id":"levelo_inurba_marseille","lat":43.309039,"lon":5.371797,"is_reserved":false,"is_disabled":false,"rental_uris":{"android":"levelo://app?vid=4bde8aee-9e18-46f6-b8dc-c48475d27629","ios":"levelo://app?vid=4bde8aee-9e18-46f6-b8dc-c48475d27629"},"vehicle_type_id":"4","last_reported":1703596069,"current_range_meters":20400,"station_id":"ce4bguh2rcd13ifvqckg","pricing_plan_id":"free"},{"bike_id":"634e144f-0a42-492d-903d-ac9b3dbc1126","system_id":"levelo_inurba_marseille","lat":43.309039,"lon":5.371797,"is_reserved":false,"is_disabled":false,"rental_uris":{"android":"levelo://app?vid=634e144f-0a42-492d-903d-ac9b3dbc1126","ios":"levelo://app?vid=634e144f-0a42-492d-903d-ac9b3dbc1126"},"vehicle_type_id":"4","last_reported":1703596069,"current_range_meters":20400,"station_id":"ce4bguh2rcd13ifvqckg","pricing_plan_id":"free"},{"bike_id":"98fc8f36-009c-49c0-bde9-eaacf0237add","system_id":"levelo_inurba_marseille","lat":43.31491,"lon":5.374,"is_reserved":false,"is_disabled":false,"rental_uris":{"android":"levelo://app?vid=98fc8f36-009c-49c0-bde9-eaacf0237add","ios":"levelo://app?vid=98fc8f36-009c-49c0-bde9-eaacf0237add"},"vehicle_type_id":"4","last_reported":1703596069,"current_range_meters":26000,"station_id":"","pricing_plan_id":"free"},{"bike_id":"eb095be9-2d87-4911-99e2-16493bbc95c0","system_id":"levelo_inurba_marseille","lat":43.30537,"lon":5.367345,"is_reserved":false,"is_disabled":false,"rental_uris":{"android":"levelo://app?vid=eb095be9-2d87-4911-99e2-16493bbc95c0","ios":"levelo://app?vid=eb095be9-2d87-4911-99e2-16493bbc95c0"},"vehicle_type_id":"4","last_reported":1703596069,"current_range_meters":8400,"station_id":"ce4bgrp2rcd13ifvqc9g","pricing_plan_id":"free"},{"bike_id":"f7514a0c-6076-4682-9449-f25672bb2582","system_id":"levelo_inurba_marseille","lat":43.305368,"lon":5.367343,"is_reserved":false,"is_disabled":false,"rental_uris":{"android":"levelo://app?vid=f7514a0c-6076-4682-9449-f25672bb2582","ios":"levelo://app?vid=f7514a0c-6076-4682-9449-f25672bb2582"},"vehicle_type_id":"4","last_reported":1703596069,"current_range_meters":26000,"station_id":"ce4bgrp2rcd13ifvqc9g","pricing_plan_id":"free"},{"bike_id":"dcf0e77b-82ad-4694-b220-fac9175fe083","system_id":"levelo_inurba_marseille","lat":43.305368,"lon":5.367343,"is_reserved":false,"is_disabled":false,"rental_uris":{"android":"levelo://app?vid=dcf0e77b-82ad-4694-b220-fac9175fe083","ios":"levelo://app?vid=dcf0e77b-82ad-4694-b220-fac9175fe083"},"vehicle_type_id":"4","last_reported":1703596069,"current_range_meters":20000,"station_id":"ce4bgrp2rcd13ifvqc9g","pricing_plan_id":"free"},{"bike_id":"d6de6120-bad9-4792-8893-1e7baec6a7b4","system_id":"levelo_inurba_marseille","lat":43.305424,"lon":5.365379,"is_reserved":false,"is_disabled":false,"rental_uris":{"android":"levelo://app?vid=d6de6120-bad9-4792-8893-1e7baec6a7b4","ios":"levelo://app?vid=d6de6120-bad9-4792-8893-1e7baec6a7b4"},"vehicle_type_id":"4","last_reported":1703596069,"current_range_meters":31200,"station_id":"ce4bgs12rcd13ifvqcag","pricing_plan_id":"free"},{"bike_id":"e61cc166-b3a3-49b9-9e02-a1a466123d55","system_id":"levelo_inurba_marseille","lat":43.305712,"lon":5.365641,"is_reserved":false,"is_disabled":false,"rental_uris":{"android":"levelo://app?vid=e61cc166-b3a3-49b9-9e02-a1a466123d55","ios":"levelo://app?vid=e61cc166-b3a3-49b9-9e02-a1a466123d55"},"vehicle_type_id":"4","last_reported":1703596069,"current_range_meters":22800,"station_id":"ce4bgs12rcd13ifvqcag","pricing_plan_id":"free"},{"bike_id":"ed0ee458-d167-4624-8c61-96e3c5ea9645","system_id":"levelo_inurba_marseille","lat":43.305706,"lon":5.365654,"is_reserved":false,"is_disabled":false,"rental_uris":{"android":"levelo://app?vid=ed0ee458-d167-4624-8c61-96e3c5ea9645","ios":"levelo://app?vid=ed0ee458-d167-4624-8c61-96e3c5ea9645"},"vehicle_type_id":"4","last_reported":1703596069,"current_range_meters":2000,"station_id":"ce4bgs12rcd13ifvqcag","pricing_plan_id":"free"},{"bike_id":"2794fa06-a287-4132-b978-ba3bdb8bb5a5","system_id":"levelo_inurba_marseille","lat":43.305706,"lon":5.365654,"is_reserved":false,"is_disabled":false,"rental_uris":{"android":"levelo://app?vid=2794fa06-a287-4132-b978-ba3bdb8bb5a5","ios":"levelo://app?vid=2794fa06-a287-4132-b978-ba3bdb8bb5a5"},"vehicle_type_id":"4","last_reported":1703596069,"current_range_meters":31200,"station_id":"ce4bgs12rcd13ifvqcag","pricing_plan_id":"free"},{"bike_id":"8a5a65b7-888e-4cfd-9956-5762ca0fdc86","system_id":"levelo_inurba_marseille","lat":43.305706,"lon":5.365654,"is_reserved":false,"is_disabled":false,"rental_uris":{"android":"levelo://app?vid=8a5a65b7-888e-4cfd-9956-5762ca0fdc86","ios":"levelo://app?vid=8a5a65b7-888e-4cfd-9956-5762ca0fdc86"},"vehicle_type_id":"4","last_reported":1703596069,"current_range_meters":29200,"station_id":"ce4bgs12rcd13ifvqcag","pricing_plan_id":"free"},{"bike_id":"3bc8639d-0687-4fd1-9537-c1295c431f6c","system_id":"levelo_inurba_marseille","lat":43.305989,"lon":5.37225,"is_reserved":false,"is_disabled":false,"rental_uris":{"android":"levelo://app?vid=3bc8639d-0687-4fd1-9537-c1295c431f6c","ios":"levelo://app?vid=3bc8639d-0687-4fd1-9537-c1295c431f6c"},"vehicle_type_id":"4","last_reported":1703596069,"current_range_meters":22400,"station_id":"ce4bgqh2rcd13ifvqc4g","pricing_plan_id":"free"},{"bike_id":"626c87bf-66d4-4915-9ed5-ed2d839e16ee","system_id":"levelo_inurba_marseille","lat":43.305989,"lon":5.37225,"is_reserved":false,"is_disabled":false,"rental_uris":{"android":"levelo://app?vid=626c87bf-66d4-4915-9ed5-ed2d839e16ee","ios":"levelo://app?vid=626c87bf-66d4-4915-9ed5-ed2d839e16ee"},"vehicle_type_id":"4","last_reported":1703596069,"current_range_meters":22800,"station_id":"ce4bgqh2rcd13ifvqc4g","pricing_plan_id":"free"},{"bike_id":"5a73aab7-09b4-48d6-b54c-5aaa4ec3dcc0","system_id":"levelo_inurba_marseille","lat":43.311125,"lon":5.377624,"is_reserved":false,"is_disabled":false,"rental_uris":{"android":"levelo://app?vid=5a73aab7-09b4-48d6-b54c-5aaa4ec3dcc0","ios":"levelo://app?vid=5a73aab7-09b4-48d6-b54c-5aaa4ec3dcc0"},"vehicle_type_id":"4","last_reported":1703596069,"current_range_meters":26000,"station_id":"ce4bgt92rcd13ifvqcg0","pricing_plan_id":"free"},{"bike_id":"693bab79-617b-49b0-a20f-464e84378b4a","system_id":"levelo_inurba_marseille","lat":43.31121,"lon":5.37775,"is_reserved":false,"is_disabled":false,"rental_uris":{"android":"levelo://app?vid=693bab79-617b-49b0-a20f-464e84378b4a","ios":"levelo://app?vid=693bab79-617b-49b0-a20f-464e84378b4a"},"vehicle_type_id":"4","last_reported":1703596069,"current_range_meters":31200,"station_id":"ce4bgt92rcd13ifvqcg0","pricing_plan_id":"free"},{"bike_id":"e1bff199-0791-4bab-9636-aca3c92bcb3a","system_id":"levelo_inurba_marseille","lat":43.307945,"lon":5.376487,"is_reserved":false,"is_disabled":false,"rental_uris":{"android":"levelo://app?vid=e1bff199-0791-4bab-9636-aca3c92bcb3a","ios":"levelo://app?vid=e1bff199-0791-4bab-9636-aca3c92bcb3a"},"vehicle_type_id":"4","last_reported":1703596069,"current_range_meters":28400,"station_id":"ce4bgv92rcd13ifvqcq0","pricing_plan_id":"free"},{"bike_id":"b8a4bf56-e844-4801-8e1e-c60dd05102fa","system_id":"levelo_inurba_marseille","lat":43.317075,"lon":5.377367,"is_reserved":false,"is_disabled":false,"rental_uris":{"android":"levelo://app?vid=b8a4bf56-e844-4801-8e1e-c60dd05102fa","ios":"levelo://app?vid=b8a4bf56-e844-4801-8e1e-c60dd05102fa"},"vehicle_type_id":"4","last_reported":1703596069,"current_range_meters":18800,"station_id":"ce4bgth2rcd13ifvqch0","pricing_plan_id":"free"},{"bike_id":"e232465b-f828-4967-afe8-a2ca221d983a","system_id":"levelo_inurba_marseille","lat":43.317075,"lon":5.377367,"is_reserved":false,"is_disabled":false,"rental_uris":{"android":"levelo://app?vid=e232465b-f828-4967-afe8-a2ca221d983a","ios":"levelo://app?vid=e232465b-f828-4967-afe8-a2ca221d983a"},"vehicle_type_id":"4","last_reported":1703596069,"current_range_meters":29600,"station_id":"ce4bgth2rcd13ifvqch0","pricing_plan_id":"free"},{"bike_id":"6bacfdab-720e-41ae-b84b-af62ebaab82b","system_id":"levelo_inurba_marseille","lat":43.303046,"lon":5.368981,"is_reserved":false,"is_disabled":false,"rental_uris":{"android":"levelo://app?vid=6bacfdab-720e-41ae-b84b-af62ebaab82b","ios":"levelo://app?vid=6bacfdab-720e-41ae-b84b-af62ebaab82b"},"vehicle_type_id":"4","last_reported":1703596069,"current_range_meters":24000,"station_id":"ce4bgqh2rcd13ifvqc5g","pricing_plan_id":"free"},{"bike_id":"36c4061c-c567-431e-87f1-6a753cd4db92","system_id":"levelo_inurba_marseille","lat":43.303046,"lon":5.368981,"is_reserved":false,"is_disabled":false,"rental_uris":{"android":"levelo://app?vid=36c4061c-c567-431e-87f1-6a753cd4db92","ios":"levelo://app?vid=36c4061c-c567-431e-87f1-6a753cd4db92"},"vehicle_type_id":"4","last_reported":1703596069,"current_range_meters":29600,"station_id":"ce4bgqh2rcd13ifvqc5g","pricing_plan_id":"free"},{"bike_id":"0e248e90-c6e3-4fca-8b14-3fbbd568d31d","system_id":"levelo_inurba_marseille","lat":43.30304,"lon":5.368987,"is_reserved":false,"is_disabled":false,"rental_uris":{"android":"levelo://app?vid=0e248e90-c6e3-4fca-8b14-3fbbd568d31d","ios":"levelo://app?vid=0e248e90-c6e3-4fca-8b14-3fbbd568d31d"},"vehicle_type_id":"4","last_reported":1703596069,"current_range_meters":29600,"station_id":"ce4bgqh2rcd13ifvqc5g","pricing_plan_id":"free"},{"bike_id":"14ae0c22-5a04-4c3d-bc73-ded3673575f1","system_id":"levelo_inurba_marseille","lat":43.30799,"lon":5.38149,"is_reserved":false,"is_disabled":false,"rental_uris":{"android":"levelo://app?vid=14ae0c22-5a04-4c3d-bc73-ded3673575f1","ios":"levelo://app?vid=14ae0c22-5a04-4c3d-bc73-ded3673575f1"},"vehicle_type_id":"4","last_reported":1703596069,"current_range_meters":22000,"station_id":"ce4bgt12rcd13ifvqce0","pricing_plan_id":"free"},{"bike_id":"e6019c28-bda0-401e-9ad9-c1ecabadcb27","system_id":"levelo_inurba_marseille","lat":43.308012,"lon":5.381511,"is_reserved":false,"is_disabled":false,"rental_uris":{"android":"levelo://app?vid=e6019c28-bda0-401e-9ad9-c1ecabadcb27","ios":"levelo://app?vid=e6019c28-bda0-401e-9ad9-c1ecabadcb27"},"vehicle_type_id":"4","last_reported":1703596069,"current_range_meters":24800,"station_id":"ce4bgt12rcd13ifvqce0","pricing_plan_id":"free"},{"bike_id":"f5c0e4d6-16bd-47eb-ba92-aa201d0984ce","system_id":"levelo_inurba_marseille","lat":43.324834,"lon":5.365614,"is_reserved":false,"is_disabled":false,"rental_uris":{"android":"levelo://app?vid=f5c0e4d6-16bd-47eb-ba92-aa201d0984ce","ios":"levelo://app?vid=f5c0e4d6-16bd-47eb-ba92-aa201d0984ce"},"vehicle_type_id":"4","last_reported":1703596069,"current_range_meters":29600,"station_id":"ce4bhs12rcd13ifvqhvg","pricing_plan_id":"free"},{"bike_id":"f5d96c3b-c605-4a6d-8ef9-fcc24b70a15d","system_id":"levelo_inurba_marseille","lat":43.302784,"lon":5.377158,"is_reserved":false,"is_disabled":false,"rental_uris":{"android":"levelo://app?vid=f5d96c3b-c605-4a6d-8ef9-fcc24b70a15d","ios":"levelo://app?vid=f5d96c3b-c605-4a6d-8ef9-fcc24b70a15d"},"vehicle_type_id":"4","last_reported":1703596069,"current_range_meters":29200,"station_id":"ce4bguh2rcd13ifvqcj0","pricing_plan_id":"free"},{"bike_id":"b9944e25-bfa8-494a-acfe-c5fbdff81ba1","system_id":"levelo_inurba_marseille","lat":43.302784,"lon":5.377158,"is_reserved":false,"is_disabled":false,"rental_uris":{"android":"levelo://app?vid=b9944e25-bfa8-494a-acfe-c5fbdff81ba1","ios":"levelo://app?vid=b9944e25-bfa8-494a-acfe-c5fbdff81ba1"},"vehicle_type_id":"4","last_reported":1703596069,"current_range_meters":29200,"station_id":"ce4bguh2rcd13ifvqcj0","pricing_plan_id":"free"},{"bike_id":"db888e2c-229e-41f1-95db-65ee0aca4b79","system_id":"levelo_inurba_marseille","lat":43.30143,"lon":5.37413,"is_reserved":false,"is_disabled":false,"rental_uris":{"android":"levelo://app?vid=db888e2c-229e-41f1-95db-65ee0aca4b79","ios":"levelo://app?vid=db888e2c-229e-41f1-95db-65ee0aca4b79"},"vehicle_type_id":"4","last_reported":1703596069,"current_range_meters":31200,"station_id":"ce4bgs92rcd13ifvqcc0","pricing_plan_id":"free"},{"bike_id":"8fae9e38-63c5-488b-8c18-2888126eac28","system_id":"levelo_inurba_marseille","lat":43.30143,"lon":5.37413,"is_reserved":false,"is_disabled":false,"rental_uris":{"android":"levelo://app?vid=8fae9e38-63c5-488b-8c18-2888126eac28","ios":"levelo://app?vid=8fae9e38-63c5-488b-8c18-2888126eac28"},"vehicle_type_id":"4","last_reported":1703596069,"current_range_meters":23600,"station_id":"ce4bgs92rcd13ifvqcc0","pricing_plan_id":"free"},{"bike_id":"0f2f937d-76fd-40c6-b60d-f8845eb7f120","system_id":"levelo_inurba_marseille","lat":43.30143,"lon":5.37413,"is_reserved":false,"is_disabled":false,"rental_uris":{"android":"levelo://app?vid=0f2f937d-76fd-40c6-b60d-f8845eb7f120","ios":"levelo://app?vid=0f2f937d-76fd-40c6-b60d-f8845eb7f120"},"vehicle_type_id":"4","last_reported":1703596069,"current_range_meters":13200,"station_id":"ce4bgs92rcd13ifvqcc0","pricing_plan_id":"free"},{"bike_id":"70b0ad2a-6533-4324-9176-53aa3f1f6a7a","system_id":"levelo_inurba_marseille","lat":43.32,"lon":5.3814,"is_reserved":false,"is_disabled":false,"rental_uris":{"android":"levelo://app?vid=70b0ad2a-6533-4324-9176-53aa3f1f6a7a","ios":"levelo://app?vid=70b0ad2a-6533-4324-9176-53aa3f1f6a7a"},"vehicle_type_id":"4","last_reported":1703596069,"current_range_meters":2800,"station_id":"ce4bhr12rcd13ifvqhpg","pricing_plan_id":"free"},{"bike_id":"28e05efb-a4cd-4a75-b37c-fadd87475b54","system_id":"levelo_inurba_marseille","lat":43.319935,"lon":5.381699,"is_reserved":false,"is_disabled":false,"rental_uris":{"android":"levelo://app?vid=28e05efb-a4cd-4a75-b37c-fadd87475b54","ios":"levelo://app?vid=28e05efb-a4cd-4a75-b37c-fadd87475b54"},"vehicle_type_id":"4","last_reported":1703596069,"current_range_meters":5200,"station_id":"ce4bhr12rcd13ifvqhpg","pricing_plan_id":"free"},{"bike_id":"7864d12b-42f1-4a89-9941-e36b4b129749","system_id":"levelo_inurba_marseille","lat":43.299724,"lon":5.371829,"is_reserved":false,"is_disabled":false,"rental_uris":{"android":"levelo://app?vid=7864d12b-42f1-4a89-9941-e36b4b129749","ios":"levelo://app?vid=7864d12b-42f1-4a89-9941-e36b4b129749"},"vehicle_type_id":"4","last_reported":1703596069,"current_range_meters":18800,"station_id":"ce4bgr92rcd13ifvqc7g","pricing_plan_id":"free"},{"bike_id":"6229263c-108d-4bd5-9b30-eff981ca1f5e","system_id":"levelo_inurba_marseille","lat":43.299356,"lon":5.365466,"is_reserved":false,"is_disabled":false,"rental_uris":{"android":"levelo://app?vid=6229263c-108d-4bd5-9b30-eff981ca1f5e","ios":"levelo://app?vid=6229263c-108d-4bd5-9b30-eff981ca1f5e"},"vehicle_type_id":"4","last_reported":1703596069,"current_range_meters":20800,"station_id":"ce4bgm92rcd13ifvqbr0","pricing_plan_id":"free"},{"bike_id":"98d9adc7-7e96-4973-9a29-d11d19a8ad12","system_id":"levelo_inurba_marseille","lat":43.299724,"lon":5.371829,"is_reserved":false,"is_disabled":false,"rental_uris":{"android":"levelo://app?vid=98d9adc7-7e96-4973-9a29-d11d19a8ad12","ios":"levelo://app?vid=98d9adc7-7e96-4973-9a29-d11d19a8ad12"},"vehicle_type_id":"4","last_reported":1703596069,"current_range_meters":20000,"station_id":"ce4bgr92rcd13ifvqc7g","pricing_plan_id":"free"},{"bike_id":"4c3ed2b4-809d-4edd-a900-686bd5a03584","system_id":"levelo_inurba_marseille","lat":43.299222,"lon":5.365554,"is_reserved":false,"is_disabled":false,"rental_uris":{"android":"levelo://app?vid=4c3ed2b4-809d-4edd-a900-686bd5a03584","ios":"levelo://app?vid=4c3ed2b4-809d-4edd-a900-686bd5a03584"},"vehicle_type_id":"4","last_reported":1703596069,"current_range_meters":10800,"station_id":"ce4bgm92rcd13ifvqbr0","pricing_plan_id":"free"},{"bike_id":"242173a6-86a9-4a69-9d62-18818bc143a1","system_id":"levelo_inurba_marseille","lat":43.299724,"lon":5.371829,"is_reserved":false,"is_disabled":false,"rental_uris":{"android":"levelo://app?vid=242173a6-86a9-4a69-9d62-18818bc143a1","ios":"levelo://app?vid=242173a6-86a9-4a69-9d62-18818bc143a1"},"vehicle_type_id":"4","last_reported":1703596069,"current_range_meters":29200,"station_id":"ce4bgr92rcd13ifvqc7g","pricing_plan_id":"free"},{"bike_id":"c4be67dc-d5a8-4d18-986c-9cbc140fea47","system_id":"levelo_inurba_marseille","lat":43.299724,"lon":5.371829,"is_reserved":false,"is_disabled":false,"rental_uris":{"android":"levelo://app?vid=c4be67dc-d5a8-4d18-986c-9cbc140fea47","ios":"levelo://app?vid=c4be67dc-d5a8-4d18-986c-9cbc140fea47"},"vehicle_type_id":"4","last_reported":1703596069,"current_range_meters":31200,"station_id":"ce4bgr92rcd13ifvqc7g","pricing_plan_id":"free"},{"bike_id":"dfb8932e-ba6b-4255-aa09-f380e47d09fb","system_id":"levelo_inurba_marseille","lat":43.298433,"lon":5.362774,"is_reserved":false,"is_disabled":false,"rental_uris":{"android":"levelo://app?vid=dfb8932e-ba6b-4255-aa09-f380e47d09fb","ios":"levelo://app?vid=dfb8932e-ba6b-4255-aa09-f380e47d09fb"},"vehicle_type_id":"4","last_reported":1703596069,"current_range_meters":1600,"station_id":"ce4bgpp2rcd13ifvqc3g","pricing_plan_id":"free"},{"bike_id":"0b027942-0182-4d86-990d-704fbc027420","system_id":"levelo_inurba_marseille","lat":43.298433,"lon":5.362774,"is_reserved":false,"is_disabled":false,"rental_uris":{"android":"levelo://app?vid=0b027942-0182-4d86-990d-704fbc027420","ios":"levelo://app?vid=0b027942-0182-4d86-990d-704fbc027420"},"vehicle_type_id":"4","last_reported":1703596069,"current_range_meters":31200,"station_id":"ce4bgpp2rcd13ifvqc3g","pricing_plan_id":"free"},{"bike_id":"4fdc7eae-3c03-40f8-8d94-810f5386fefd","system_id":"levelo_inurba_marseille","lat":43.298433,"lon":5.362774,"is_reserved":false,"is_disabled":false,"rental_uris":{"android":"levelo://app?vid=4fdc7eae-3c03-40f8-8d94-810f5386fefd","ios":"levelo://app?vid=4fdc7eae-3c03-40f8-8d94-810f5386fefd"},"vehicle_type_id":"4","last_reported":1703596069,"current_range_meters":22400,"station_id":"ce4bgpp2rcd13ifvqc3g","pricing_plan_id":"free"},{"bike_id":"7e84003f-7a56-4d49-87de-5e93a687029e","system_id":"levelo_inurba_marseille","lat":43.298433,"lon":5.362774,"is_reserved":false,"is_disabled":false,"rental_uris":{"android":"levelo://app?vid=7e84003f-7a56-4d49-87de-5e93a687029e","ios":"levelo://app?vid=7e84003f-7a56-4d49-87de-5e93a687029e"},"vehicle_type_id":"4","last_reported":1703596069,"current_range_meters":23600,"station_id":"ce4bgpp2rcd13ifvqc3g","pricing_plan_id":"free"},{"bike_id":"eb9abf2c-1715-493d-a3e0-80a1d2745767","system_id":"levelo_inurba_marseille","lat":43.305364,"lon":5.384119,"is_reserved":false,"is_disabled":false,"rental_uris":{"android":"levelo://app?vid=eb9abf2c-1715-493d-a3e0-80a1d2745767","ios":"levelo://app?vid=eb9abf2c-1715-493d-a3e0-80a1d2745767"},"vehicle_type_id":"4","last_reported":1703596069,"current_range_meters":28400,"station_id":"ce4bgg92rcd13ifvqb30","pricing_plan_id":"free"},{"bike_id":"3540d652-83ee-4e54-82bb-c4527c65e1e6","system_id":"levelo_inurba_marseille","lat":43.299243,"lon":5.374807,"is_reserved":false,"is_disabled":false,"rental_uris":{"android":"levelo://app?vid=3540d652-83ee-4e54-82bb-c4527c65e1e6","ios":"levelo://app?vid=3540d652-83ee-4e54-82bb-c4527c65e1e6"},"vehicle_type_id":"4","last_reported":1703596069,"current_range_meters":21600,"station_id":"ce4bgjh2rcd13ifvqbg0","pricing_plan_id":"free"},{"bike_id":"c4a555cb-6200-4058-801b-d5629a5ff790","system_id":"levelo_inurba_marseille","lat":43.305364,"lon":5.384119,"is_reserved":false,"is_disabled":false,"rental_uris":{"android":"levelo://app?vid=c4a555cb-6200-4058-801b-d5629a5ff790","ios":"levelo://app?vid=c4a555cb-6200-4058-801b-d5629a5ff790"},"vehicle_type_id":"4","last_reported":1703596069,"current_range_meters":28000,"station_id":"ce4bgg92rcd13ifvqb30","pricing_plan_id":"free"},{"bike_id":"ffa18e00-56e1-42d2-b5e3-5555b04a51b4","system_id":"levelo_inurba_marseille","lat":43.298428,"lon":5.362636,"is_reserved":false,"is_disabled":false,"rental_uris":{"android":"levelo://app?vid=ffa18e00-56e1-42d2-b5e3-5555b04a51b4","ios":"levelo://app?vid=ffa18e00-56e1-42d2-b5e3-5555b04a51b4"},"vehicle_type_id":"4","last_reported":1703596069,"current_range_meters":31200,"station_id":"ce4bgpp2rcd13ifvqc3g","pricing_plan_id":"free"},{"bike_id":"755e31db-0c7e-4e3e-9d1d-38bd7d5b4038","system_id":"levelo_inurba_marseille","lat":43.298433,"lon":5.362774,"is_reserved":false,"is_disabled":false,"rental_uris":{"android":"levelo://app?vid=755e31db-0c7e-4e3e-9d1d-38bd7d5b4038","ios":"levelo://app?vid=755e31db-0c7e-4e3e-9d1d-38bd7d5b4038"},"vehicle_type_id":"4","last_reported":1703596069,"current_range_meters":30800,"station_id":"ce4bgpp2rcd13ifvqc3g","pricing_plan_id":"free"},{"bike_id":"6b851782-af4a-469a-90d1-befb1e03d233","system_id":"levelo_inurba_marseille","lat":43.2984,"lon":5.362654,"is_reserved":false,"is_disabled":false,"rental_uris":{"android":"levelo://app?vid=6b851782-af4a-469a-90d1-befb1e03d233","ios":"levelo://app?vid=6b851782-af4a-469a-90d1-befb1e03d233"},"vehicle_type_id":"4","last_reported":1703596069,"current_range_meters":27600,"station_id":"ce4bgpp2rcd13ifvqc3g","pricing_plan_id":"free"},{"bike_id":"6c62ef82-e859-43d5-87dc-a88497758ab5","system_id":"levelo_inurba_marseille","lat":43.2984,"lon":5.36265,"is_reserved":false,"is_disabled":false,"rental_uris":{"android":"levelo://app?vid=6c62ef82-e859-43d5-87dc-a88497758ab5","ios":"levelo://app?vid=6c62ef82-e859-43d5-87dc-a88497758ab5"},"vehicle_type_id":"4","last_reported":1703596069,"current_range_meters":27200,"station_id":"ce4bgpp2rcd13ifvqc3g","pricing_plan_id":"free"},{"bike_id":"c17127a1-5834-401d-a635-16f5d0d3625b","system_id":"levelo_inurba_marseille","lat":43.298385,"lon":5.362598,"is_reserved":false,"is_disabled":false,"rental_uris":{"android":"levelo://app?vid=c17127a1-5834-401d-a635-16f5d0d3625b","ios":"levelo://app?vid=c17127a1-5834-401d-a635-16f5d0d3625b"},"vehicle_type_id":"4","last_reported":1703596069,"current_range_meters":26400,"station_id":"ce4bgpp2rcd13ifvqc3g","pricing_plan_id":"free"},{"bike_id":"8b414ef6-e648-4831-9810-a223151100af","system_id":"levelo_inurba_marseille","lat":43.29836,"lon":5.36264,"is_reserved":false,"is_disabled":false,"rental_uris":{"android":"levelo://app?vid=8b414ef6-e648-4831-9810-a223151100af","ios":"levelo://app?vid=8b414ef6-e648-4831-9810-a223151100af"},"vehicle_type_id":"4","last_reported":1703596069,"current_range_meters":31600,"station_id":"ce4bgpp2rcd13ifvqc3g","pricing_plan_id":"free"},{"bike_id":"1316b7d0-90f0-46ad-a731-36b170eba03a","system_id":"levelo_inurba_marseille","lat":43.311722,"lon":5.387247,"is_reserved":false,"is_disabled":false,"rental_uris":{"android":"levelo://app?vid=1316b7d0-90f0-46ad-a731-36b170eba03a","ios":"levelo://app?vid=1316b7d0-90f0-46ad-a731-36b170eba03a"},"vehicle_type_id":"4","last_reported":1703596069,"current_range_meters":10000,"station_id":"ce4bgv12rcd13ifvqcp0","pricing_plan_id":"free"},{"bike_id":"702ba885-cbd7-4ae9-af14-d89902cde706","system_id":"levelo_inurba_marseille","lat":43.297774,"lon":5.370875,"is_reserved":false,"is_disabled":false,"rental_uris":{"android":"levelo://app?vid=702ba885-cbd7-4ae9-af14-d89902cde706","ios":"levelo://app?vid=702ba885-cbd7-4ae9-af14-d89902cde706"},"vehicle_type_id":"4","last_reported":1703596069,"current_range_meters":26800,"station_id":"ce4bgop2rcd13ifvqc1g","pricing_plan_id":"free"},{"bike_id":"8306887e-cddc-4f17-adfa-3a368daf552c","system_id":"levelo_inurba_marseille","lat":43.297774,"lon":5.370875,"is_reserved":false,"is_disabled":false,"rental_uris":{"android":"levelo://app?vid=8306887e-cddc-4f17-adfa-3a368daf552c","ios":"levelo://app?vid=8306887e-cddc-4f17-adfa-3a368daf552c"},"vehicle_type_id":"4","last_reported":1703596069,"current_range_meters":25600,"station_id":"ce4bgop2rcd13ifvqc1g","pricing_plan_id":"free"},{"bike_id":"f0847710-54c2-4e7f-b401-fb7aa27219e2","system_id":"levelo_inurba_marseille","lat":43.297774,"lon":5.370875,"is_reserved":false,"is_disabled":false,"rental_uris":{"android":"levelo://app?vid=f0847710-54c2-4e7f-b401-fb7aa27219e2","ios":"levelo://app?vid=f0847710-54c2-4e7f-b401-fb7aa27219e2"},"vehicle_type_id":"4","last_reported":1703596069,"current_range_meters":8400,"station_id":"ce4bgop2rcd13ifvqc1g","pricing_plan_id":"free"},{"bike_id":"51714c4a-3132-4951-88ec-80e85fa125e8","system_id":"levelo_inurba_marseille","lat":43.328251,"lon":5.366863,"is_reserved":false,"is_disabled":false,"rental_uris":{"android":"levelo://app?vid=51714c4a-3132-4951-88ec-80e85fa125e8","ios":"levelo://app?vid=51714c4a-3132-4951-88ec-80e85fa125e8"},"vehicle_type_id":"4","last_reported":1703596069,"current_range_meters":5600,"station_id":"ce4bhs92rcd13ifvqi0g","pricing_plan_id":"free"},{"bike_id":"5c89eee7-6e83-42b4-bd81-efdcf68f6666","system_id":"levelo_inurba_marseille","lat":43.32826,"lon":5.36684,"is_reserved":false,"is_disabled":false,"rental_uris":{"android":"levelo://app?vid=5c89eee7-6e83-42b4-bd81-efdcf68f6666","ios":"levelo://app?vid=5c89eee7-6e83-42b4-bd81-efdcf68f6666"},"vehicle_type_id":"4","last_reported":1703596069,"current_range_meters":28800,"station_id":"ce4bhs92rcd13ifvqi0g","pricing_plan_id":"free"},{"bike_id":"5fed18d1-7f81-4167-a351-7c4be7bb7921","system_id":"levelo_inurba_marseille","lat":43.32829,"lon":5.36692,"is_reserved":false,"is_disabled":false,"rental_uris":{"android":"levelo://app?vid=5fed18d1-7f81-4167-a351-7c4be7bb7921","ios":"levelo://app?vid=5fed18d1-7f81-4167-a351-7c4be7bb7921"},"vehicle_type_id":"4","last_reported":1703596069,"current_range_meters":2400,"station_id":"ce4bhs92rcd13ifvqi0g","pricing_plan_id":"free"},{"bike_id":"904f83aa-e9ab-401d-84c1-9edfed82b884","system_id":"levelo_inurba_marseille","lat":43.328371,"lon":5.366909,"is_reserved":false,"is_disabled":false,"rental_uris":{"android":"levelo://app?vid=904f83aa-e9ab-401d-84c1-9edfed82b884","ios":"levelo://app?vid=904f83aa-e9ab-401d-84c1-9edfed82b884"},"vehicle_type_id":"4","last_reported":1703596069,"current_range_meters":19200,"station_id":"ce4bhs92rcd13ifvqi0g","pricing_plan_id":"free"},{"bike_id":"6f67326a-1664-406f-9978-902e013e2357","system_id":"levelo_inurba_marseille","lat":43.328371,"lon":5.366909,"is_reserved":false,"is_disabled":false,"rental_uris":{"android":"levelo://app?vid=6f67326a-1664-406f-9978-902e013e2357","ios":"levelo://app?vid=6f67326a-1664-406f-9978-902e013e2357"},"vehicle_type_id":"4","last_reported":1703596069,"current_range_meters":11200,"station_id":"ce4bhs92rcd13ifvqi0g","pricing_plan_id":"free"},{"bike_id":"de708f00-7118-4d7c-9021-d7dcbd798473","system_id":"levelo_inurba_marseille","lat":43.328371,"lon":5.366909,"is_reserved":false,"is_disabled":false,"rental_uris":{"android":"levelo://app?vid=de708f00-7118-4d7c-9021-d7dcbd798473","ios":"levelo://app?vid=de708f00-7118-4d7c-9021-d7dcbd798473"},"vehicle_type_id":"4","last_reported":1703596069,"current_range_meters":25200,"station_id":"ce4bhs92rcd13ifvqi0g","pricing_plan_id":"free"},{"bike_id":"a448ca86-2b35-41e1-89c4-32a99bab0563","system_id":"levelo_inurba_marseille","lat":43.328371,"lon":5.366909,"is_reserved":false,"is_disabled":false,"rental_uris":{"android":"levelo://app?vid=a448ca86-2b35-41e1-89c4-32a99bab0563","ios":"levelo://app?vid=a448ca86-2b35-41e1-89c4-32a99bab0563"},"vehicle_type_id":"4","last_reported":1703596069,"current_range_meters":7600,"station_id":"ce4bhs92rcd13ifvqi0g","pricing_plan_id":"free"},{"bike_id":"40c2b532-aa81-4c78-b896-98260fc2f589","system_id":"levelo_inurba_marseille","lat":43.297163,"lon":5.365866,"is_reserved":false,"is_disabled":false,"rental_uris":{"android":"levelo://app?vid=40c2b532-aa81-4c78-b896-98260fc2f589","ios":"levelo://app?vid=40c2b532-aa81-4c78-b896-98260fc2f589"},"vehicle_type_id":"4","last_reported":1703596069,"current_range_meters":30400,"station_id":"ce4bgn12rcd13ifvqbt0","pricing_plan_id":"free"},{"bike_id":"84f1f0f6-25a2-4372-a44b-38d0f0d0a9ce","system_id":"levelo_inurba_marseille","lat":43.297163,"lon":5.365866,"is_reserved":false,"is_disabled":false,"rental_uris":{"android":"levelo://app?vid=84f1f0f6-25a2-4372-a44b-38d0f0d0a9ce","ios":"levelo://app?vid=84f1f0f6-25a2-4372-a44b-38d0f0d0a9ce"},"vehicle_type_id":"4","last_reported":1703596069,"current_range_meters":20800,"station_id":"ce4bgn12rcd13ifvqbt0","pricing_plan_id":"free"},{"bike_id":"49b2fc08-dd65-41d4-a289-0b855bd91c22","system_id":"levelo_inurba_marseille","lat":43.297163,"lon":5.365866,"is_reserved":false,"is_disabled":false,"rental_uris":{"android":"levelo://app?vid=49b2fc08-dd65-41d4-a289-0b855bd91c22","ios":"levelo://app?vid=49b2fc08-dd65-41d4-a289-0b855bd91c22"},"vehicle_type_id":"4","last_reported":1703596069,"current_range_meters":29600,"station_id":"ce4bgn12rcd13ifvqbt0","pricing_plan_id":"free"},{"bike_id":"0a9c73fa-39a7-40af-ad6d-f91eec8ab259","system_id":"levelo_inurba_marseille","lat":43.297163,"lon":5.365866,"is_reserved":false,"is_disabled":false,"rental_uris":{"android":"levelo://app?vid=0a9c73fa-39a7-40af-ad6d-f91eec8ab259","ios":"levelo://app?vid=0a9c73fa-39a7-40af-ad6d-f91eec8ab259"},"vehicle_type_id":"4","last_reported":1703596069,"current_range_meters":27600,"station_id":"ce4bgn12rcd13ifvqbt0","pricing_plan_id":"free"},{"bike_id":"6f1b7b06-1f77-4b88-bf73-5d81f3ee7e07","system_id":"levelo_inurba_marseille","lat":43.2968,"lon":5.37291,"is_reserved":false,"is_disabled":false,"rental_uris":{"android":"levelo://app?vid=6f1b7b06-1f77-4b88-bf73-5d81f3ee7e07","ios":"levelo://app?vid=6f1b7b06-1f77-4b88-bf73-5d81f3ee7e07"},"vehicle_type_id":"4","last_reported":1703596069,"current_range_meters":30000,"station_id":"ce4bgk12rcd13ifvqbj0","pricing_plan_id":"free"},{"bike_id":"921b424d-ad0d-4c7a-9d74-66e3a49bfa19","system_id":"levelo_inurba_marseille","lat":43.32934,"lon":5.36612,"is_reserved":false,"is_disabled":false,"rental_uris":{"android":"levelo://app?vid=921b424d-ad0d-4c7a-9d74-66e3a49bfa19","ios":"levelo://app?vid=921b424d-ad0d-4c7a-9d74-66e3a49bfa19"},"vehicle_type_id":"4","last_reported":1703596069,"current_range_meters":21200,"station_id":"","pricing_plan_id":"free"},{"bike_id":"2d65d3a4-2232-4603-939e-4c4b7110917b","system_id":"levelo_inurba_marseille","lat":43.296131,"lon":5.370791,"is_reserved":false,"is_disabled":false,"rental_uris":{"android":"levelo://app?vid=2d65d3a4-2232-4603-939e-4c4b7110917b","ios":"levelo://app?vid=2d65d3a4-2232-4603-939e-4c4b7110917b"},"vehicle_type_id":"4","last_reported":1703596069,"current_range_meters":800,"station_id":"ce4bgnh2rcd13ifvqc0g","pricing_plan_id":"free"},{"bike_id":"168ff66e-d3f0-4405-8a42-4e492b51d94f","system_id":"levelo_inurba_marseille","lat":43.29583,"lon":5.3676,"is_reserved":false,"is_disabled":false,"rental_uris":{"android":"levelo://app?vid=168ff66e-d3f0-4405-8a42-4e492b51d94f","ios":"levelo://app?vid=168ff66e-d3f0-4405-8a42-4e492b51d94f"},"vehicle_type_id":"4","last_reported":1703596069,"current_range_meters":8800,"station_id":"ce4bgph2rcd13ifvqc2g","pricing_plan_id":"free"},{"bike_id":"06e957bd-df49-4d32-abc4-2e72cf631ab7","system_id":"levelo_inurba_marseille","lat":43.29573,"lon":5.367355,"is_reserved":false,"is_disabled":false,"rental_uris":{"android":"levelo://app?vid=06e957bd-df49-4d32-abc4-2e72cf631ab7","ios":"levelo://app?vid=06e957bd-df49-4d32-abc4-2e72cf631ab7"},"vehicle_type_id":"4","last_reported":1703596069,"current_range_meters":28400,"station_id":"ce4bgph2rcd13ifvqc2g","pricing_plan_id":"free"},{"bike_id":"65fc67d3-72e8-42d4-8ee1-2fd73f73254b","system_id":"levelo_inurba_marseille","lat":43.29573,"lon":5.367355,"is_reserved":false,"is_disabled":false,"rental_uris":{"android":"levelo://app?vid=65fc67d3-72e8-42d4-8ee1-2fd73f73254b","ios":"levelo://app?vid=65fc67d3-72e8-42d4-8ee1-2fd73f73254b"},"vehicle_type_id":"4","last_reported":1703596069,"current_range_meters":22400,"station_id":"ce4bgph2rcd13ifvqc2g","pricing_plan_id":"free"},{"bike_id":"8beb582a-00c8-4e62-966b-a4bcdf0aa12c","system_id":"levelo_inurba_marseille","lat":43.296921,"lon":5.376579,"is_reserved":false,"is_disabled":false,"rental_uris":{"android":"levelo://app?vid=8beb582a-00c8-4e62-966b-a4bcdf0aa12c","ios":"levelo://app?vid=8beb582a-00c8-4e62-966b-a4bcdf0aa12c"},"vehicle_type_id":"4","last_reported":1703596069,"current_range_meters":12800,"station_id":"ce4bgkh2rcd13ifvqbl0","pricing_plan_id":"free"},{"bike_id":"82d2b1bc-3076-46d3-870d-67cdfd465ecc","system_id":"levelo_inurba_marseille","lat":43.297213,"lon":5.37668,"is_reserved":false,"is_disabled":false,"rental_uris":{"android":"levelo://app?vid=82d2b1bc-3076-46d3-870d-67cdfd465ecc","ios":"levelo://app?vid=82d2b1bc-3076-46d3-870d-67cdfd465ecc"},"vehicle_type_id":"4","last_reported":1703596069,"current_range_meters":29200,"station_id":"ce4bgkh2rcd13ifvqbl0","pricing_plan_id":"free"},{"bike_id":"1ddbd0f3-15fe-4f8a-8117-19b409d39702","system_id":"levelo_inurba_marseille","lat":43.296935,"lon":5.376544,"is_reserved":false,"is_disabled":false,"rental_uris":{"android":"levelo://app?vid=1ddbd0f3-15fe-4f8a-8117-19b409d39702","ios":"levelo://app?vid=1ddbd0f3-15fe-4f8a-8117-19b409d39702"},"vehicle_type_id":"4","last_reported":1703596069,"current_range_meters":28400,"station_id":"ce4bgkh2rcd13ifvqbl0","pricing_plan_id":"free"},{"bike_id":"b3efd706-6e81-4c49-8468-0d279a9fc160","system_id":"levelo_inurba_marseille","lat":43.296935,"lon":5.376544,"is_reserved":false,"is_disabled":false,"rental_uris":{"android":"levelo://app?vid=b3efd706-6e81-4c49-8468-0d279a9fc160","ios":"levelo://app?vid=b3efd706-6e81-4c49-8468-0d279a9fc160"},"vehicle_type_id":"4","last_reported":1703596069,"current_range_meters":26800,"station_id":"ce4bgkh2rcd13ifvqbl0","pricing_plan_id":"free"},{"bike_id":"c24325d0-1234-43e4-a38f-b36bf0b94166","system_id":"levelo_inurba_marseille","lat":43.296935,"lon":5.376544,"is_reserved":false,"is_disabled":false,"rental_uris":{"android":"levelo://app?vid=c24325d0-1234-43e4-a38f-b36bf0b94166","ios":"levelo://app?vid=c24325d0-1234-43e4-a38f-b36bf0b94166"},"vehicle_type_id":"4","last_reported":1703596069,"current_range_meters":28800,"station_id":"ce4bgkh2rcd13ifvqbl0","pricing_plan_id":"free"},{"bike_id":"b2125ad6-c2bc-4bc5-8986-4775a242da19","system_id":"levelo_inurba_marseille","lat":43.299028,"lon":5.381509,"is_reserved":false,"is_disabled":false,"rental_uris":{"android":"levelo://app?vid=b2125ad6-c2bc-4bc5-8986-4775a242da19","ios":"levelo://app?vid=b2125ad6-c2bc-4bc5-8986-4775a242da19"},"vehicle_type_id":"4","last_reported":1703596069,"current_range_meters":28000,"station_id":"ce4bgj12rcd13ifvqbc0","pricing_plan_id":"free"},{"bike_id":"9e614ecc-4de0-4775-98c6-5c96ef2e881a","system_id":"levelo_inurba_marseille","lat":43.309589,"lon":5.390258,"is_reserved":false,"is_disabled":false,"rental_uris":{"android":"levelo://app?vid=9e614ecc-4de0-4775-98c6-5c96ef2e881a","ios":"levelo://app?vid=9e614ecc-4de0-4775-98c6-5c96ef2e881a"},"vehicle_type_id":"4","last_reported":1703596069,"current_range_meters":24800,"station_id":"ce4bgup2rcd13ifvqco0","pricing_plan_id":"free"},{"bike_id":"1f8b878f-f671-4790-8d5b-c4dcdaf0ca88","system_id":"levelo_inurba_marseille","lat":43.317557,"lon":5.390173,"is_reserved":false,"is_disabled":false,"rental_uris":{"android":"levelo://app?vid=1f8b878f-f671-4790-8d5b-c4dcdaf0ca88","ios":"levelo://app?vid=1f8b878f-f671-4790-8d5b-c4dcdaf0ca88"},"vehicle_type_id":"4","last_reported":1703596069,"current_range_meters":27600,"station_id":"ce4bhqp2rcd13ifvqhng","pricing_plan_id":"free"},{"bike_id":"fb360a63-d896-4ed7-b2a5-436d1762bf1c","system_id":"levelo_inurba_marseille","lat":43.304278,"lon":5.388868,"is_reserved":false,"is_disabled":false,"rental_uris":{"android":"levelo://app?vid=fb360a63-d896-4ed7-b2a5-436d1762bf1c","ios":"levelo://app?vid=fb360a63-d896-4ed7-b2a5-436d1762bf1c"},"vehicle_type_id":"4","last_reported":1703596069,"current_range_meters":28800,"station_id":"ce4bgk12rcd13ifvqbi0","pricing_plan_id":"free"},{"bike_id":"aca360cc-9e8d-42c4-8d0c-dea12bacc47a","system_id":"levelo_inurba_marseille","lat":43.298037,"lon":5.381066,"is_reserved":false,"is_disabled":false,"rental_uris":{"android":"levelo://app?vid=aca360cc-9e8d-42c4-8d0c-dea12bacc47a","ios":"levelo://app?vid=aca360cc-9e8d-42c4-8d0c-dea12bacc47a"},"vehicle_type_id":"4","last_reported":1703596069,"current_range_meters":24800,"station_id":"ce4bgip2rcd13ifvqbb0","pricing_plan_id":"free"},{"bike_id":"68989ca4-9e1a-4019-ad49-478a4f3bb3a8","system_id":"levelo_inurba_marseille","lat":43.304274,"lon":5.388873,"is_reserved":false,"is_disabled":false,"rental_uris":{"android":"levelo://app?vid=68989ca4-9e1a-4019-ad49-478a4f3bb3a8","ios":"levelo://app?vid=68989ca4-9e1a-4019-ad49-478a4f3bb3a8"},"vehicle_type_id":"4","last_reported":1703596069,"current_range_meters":26400,"station_id":"ce4bgk12rcd13ifvqbi0","pricing_plan_id":"free"},{"bike_id":"45393e5c-cf2f-4c9d-be0f-383884b22086","system_id":"levelo_inurba_marseille","lat":43.304274,"lon":5.388873,"is_reserved":false,"is_disabled":false,"rental_uris":{"android":"levelo://app?vid=45393e5c-cf2f-4c9d-be0f-383884b22086","ios":"levelo://app?vid=45393e5c-cf2f-4c9d-be0f-383884b22086"},"vehicle_type_id":"4","last_reported":1703596069,"current_range_meters":28000,"station_id":"ce4bgk12rcd13ifvqbi0","pricing_plan_id":"free"},{"bike_id":"8f787078-03f0-4099-88bd-5372816d3469","system_id":"levelo_inurba_marseille","lat":43.304278,"lon":5.388868,"is_reserved":false,"is_disabled":false,"rental_uris":{"android":"levelo://app?vid=8f787078-03f0-4099-88bd-5372816d3469","ios":"levelo://app?vid=8f787078-03f0-4099-88bd-5372816d3469"},"vehicle_type_id":"4","last_reported":1703596069,"current_range_meters":20000,"station_id":"ce4bgk12rcd13ifvqbi0","pricing_plan_id":"free"},{"bike_id":"9fab409c-7eeb-40ac-9cd3-7cdfd4e6dca6","system_id":"levelo_inurba_marseille","lat":43.296277,"lon":5.377108,"is_reserved":false,"is_disabled":false,"rental_uris":{"android":"levelo://app?vid=9fab409c-7eeb-40ac-9cd3-7cdfd4e6dca6","ios":"levelo://app?vid=9fab409c-7eeb-40ac-9cd3-7cdfd4e6dca6"},"vehicle_type_id":"4","last_reported":1703596069,"current_range_meters":29600,"station_id":"ce4bgi92rcd13ifvqb90","pricing_plan_id":"free"},{"bike_id":"b37b2708-debe-433c-8b26-5dd99a5b0217","system_id":"levelo_inurba_marseille","lat":43.296263,"lon":5.377094,"is_reserved":false,"is_disabled":false,"rental_uris":{"android":"levelo://app?vid=b37b2708-debe-433c-8b26-5dd99a5b0217","ios":"levelo://app?vid=b37b2708-debe-433c-8b26-5dd99a5b0217"},"vehicle_type_id":"4","last_reported":1703596069,"current_range_meters":30000,"station_id":"ce4bgi92rcd13ifvqb90","pricing_plan_id":"free"},{"bike_id":"ede05243-a40e-451b-891a-e0f9232c2965","system_id":"levelo_inurba_marseille","lat":43.299707,"lon":5.384859,"is_reserved":false,"is_disabled":false,"rental_uris":{"android":"levelo://app?vid=ede05243-a40e-451b-891a-e0f9232c2965","ios":"levelo://app?vid=ede05243-a40e-451b-891a-e0f9232c2965"},"vehicle_type_id":"4","last_reported":1703596069,"current_range_meters":31200,"station_id":"ce4bgj92rcd13ifvqbd0","pricing_plan_id":"free"},{"bike_id":"e401edd2-6913-48ea-a399-3b0ff7f317f3","system_id":"levelo_inurba_marseille","lat":43.299707,"lon":5.384859,"is_reserved":false,"is_disabled":false,"rental_uris":{"android":"levelo://app?vid=e401edd2-6913-48ea-a399-3b0ff7f317f3","ios":"levelo://app?vid=e401edd2-6913-48ea-a399-3b0ff7f317f3"},"vehicle_type_id":"4","last_reported":1703596069,"current_range_meters":15600,"station_id":"ce4bgj92rcd13ifvqbd0","pricing_plan_id":"free"},{"bike_id":"6ff1e598-3b26-4777-9414-3c011862918b","system_id":"levelo_inurba_marseille","lat":43.299707,"lon":5.384859,"is_reserved":false,"is_disabled":false,"rental_uris":{"android":"levelo://app?vid=6ff1e598-3b26-4777-9414-3c011862918b","ios":"levelo://app?vid=6ff1e598-3b26-4777-9414-3c011862918b"},"vehicle_type_id":"4","last_reported":1703596069,"current_range_meters":29200,"station_id":"ce4bgj92rcd13ifvqbd0","pricing_plan_id":"free"},{"bike_id":"7c919984-9313-438d-8f3a-8629c9ba7f97","system_id":"levelo_inurba_marseille","lat":43.299707,"lon":5.384859,"is_reserved":false,"is_disabled":false,"rental_uris":{"android":"levelo://app?vid=7c919984-9313-438d-8f3a-8629c9ba7f97","ios":"levelo://app?vid=7c919984-9313-438d-8f3a-8629c9ba7f97"},"vehicle_type_id":"4","last_reported":1703596069,"current_range_meters":22400,"station_id":"ce4bgj92rcd13ifvqbd0","pricing_plan_id":"free"},{"bike_id":"ba88d1e0-808f-4d49-b6ae-d2edaa3a17fb","system_id":"levelo_inurba_marseille","lat":43.295279,"lon":5.375048,"is_reserved":false,"is_disabled":false,"rental_uris":{"android":"levelo://app?vid=ba88d1e0-808f-4d49-b6ae-d2edaa3a17fb","ios":"levelo://app?vid=ba88d1e0-808f-4d49-b6ae-d2edaa3a17fb"},"vehicle_type_id":"4","last_reported":1703596069,"current_range_meters":26400,"station_id":"ce4bgkp2rcd13ifvqbmg","pricing_plan_id":"free"},{"bike_id":"0bcbb2e6-0e66-42ee-9bee-29081e32e96c","system_id":"levelo_inurba_marseille","lat":43.299717,"lon":5.384845,"is_reserved":false,"is_disabled":false,"rental_uris":{"android":"levelo://app?vid=0bcbb2e6-0e66-42ee-9bee-29081e32e96c","ios":"levelo://app?vid=0bcbb2e6-0e66-42ee-9bee-29081e32e96c"},"vehicle_type_id":"4","last_reported":1703596069,"current_range_meters":31200,"station_id":"ce4bgj92rcd13ifvqbd0","pricing_plan_id":"free"},{"bike_id":"7abcef15-76f7-4db2-9ad0-d696b427e15d","system_id":"levelo_inurba_marseille","lat":43.299724,"lon":5.384848,"is_reserved":false,"is_disabled":false,"rental_uris":{"android":"levelo://app?vid=7abcef15-76f7-4db2-9ad0-d696b427e15d","ios":"levelo://app?vid=7abcef15-76f7-4db2-9ad0-d696b427e15d"},"vehicle_type_id":"4","last_reported":1703596069,"current_range_meters":27200,"station_id":"ce4bgj92rcd13ifvqbd0","pricing_plan_id":"free"},{"bike_id":"57c25da6-a389-43b8-8fc3-c401c64097e5","system_id":"levelo_inurba_marseille","lat":43.290779,"lon":5.371482,"is_reserved":false,"is_disabled":false,"rental_uris":{"android":"levelo://app?vid=57c25da6-a389-43b8-8fc3-c401c64097e5","ios":"levelo://app?vid=57c25da6-a389-43b8-8fc3-c401c64097e5"},"vehicle_type_id":"4","last_reported":1703596069,"current_range_meters":18000,"station_id":"ce4bh5p2rcd13ifvqe4g","pricing_plan_id":"free"},{"bike_id":"a9b1e077-8fb8-4e47-a7d8-ac4c39e03e32","system_id":"levelo_inurba_marseille","lat":43.32367,"lon":5.388836,"is_reserved":false,"is_disabled":false,"rental_uris":{"android":"levelo://app?vid=a9b1e077-8fb8-4e47-a7d8-ac4c39e03e32","ios":"levelo://app?vid=a9b1e077-8fb8-4e47-a7d8-ac4c39e03e32"},"vehicle_type_id":"4","last_reported":1703596069,"current_range_meters":3200,"station_id":"ce4bhqp2rcd13ifvqhog","pricing_plan_id":"free"},{"bike_id":"466ac37c-cd7b-4ec3-b039-3d61dd1e2b0a","system_id":"levelo_inurba_marseille","lat":43.29601,"lon":5.381084,"is_reserved":false,"is_disabled":false,"rental_uris":{"android":"levelo://app?vid=466ac37c-cd7b-4ec3-b039-3d61dd1e2b0a","ios":"levelo://app?vid=466ac37c-cd7b-4ec3-b039-3d61dd1e2b0a"},"vehicle_type_id":"4","last_reported":1703596069,"current_range_meters":20800,"station_id":"ce4bgl12rcd13ifvqbo0","pricing_plan_id":"free"},{"bike_id":"e0f74817-3071-444d-9d77-cd26f5d66ea5","system_id":"levelo_inurba_marseille","lat":43.293259,"lon":5.371586,"is_reserved":false,"is_disabled":false,"rental_uris":{"android":"levelo://app?vid=e0f74817-3071-444d-9d77-cd26f5d66ea5","ios":"levelo://app?vid=e0f74817-3071-444d-9d77-cd26f5d66ea5"},"vehicle_type_id":"4","last_reported":1703596069,"current_range_meters":31200,"station_id":"ce4bgh92rcd13ifvqb40","pricing_plan_id":"free"},{"bike_id":"1e369da8-9b72-41fc-b6d5-b05ca21aed07","system_id":"levelo_inurba_marseille","lat":43.293259,"lon":5.371586,"is_reserved":false,"is_disabled":false,"rental_uris":{"android":"levelo://app?vid=1e369da8-9b72-41fc-b6d5-b05ca21aed07","ios":"levelo://app?vid=1e369da8-9b72-41fc-b6d5-b05ca21aed07"},"vehicle_type_id":"4","last_reported":1703596069,"current_range_meters":16000,"station_id":"ce4bgh92rcd13ifvqb40","pricing_plan_id":"free"},{"bike_id":"66090169-56d0-4327-ac4a-5a0739ff15e9","system_id":"levelo_inurba_marseille","lat":43.29267,"lon":5.36843,"is_reserved":false,"is_disabled":false,"rental_uris":{"android":"levelo://app?vid=66090169-56d0-4327-ac4a-5a0739ff15e9","ios":"levelo://app?vid=66090169-56d0-4327-ac4a-5a0739ff15e9"},"vehicle_type_id":"4","last_reported":1703596069,"current_range_meters":11200,"station_id":"ce4bhbp2rcd13ifvqesg","pricing_plan_id":"free"},{"bike_id":"2293a425-b9a3-40b2-bb13-63f4fa997a78","system_id":"levelo_inurba_marseille","lat":43.292749,"lon":5.368402,"is_reserved":false,"is_disabled":false,"rental_uris":{"android":"levelo://app?vid=2293a425-b9a3-40b2-bb13-63f4fa997a78","ios":"levelo://app?vid=2293a425-b9a3-40b2-bb13-63f4fa997a78"},"vehicle_type_id":"4","last_reported":1703596069,"current_range_meters":26800,"station_id":"ce4bhbp2rcd13ifvqesg","pricing_plan_id":"free"},{"bike_id":"7ffb285b-5618-4274-bf0a-3daafa468f5b","system_id":"levelo_inurba_marseille","lat":43.2936,"lon":5.37835,"is_reserved":false,"is_disabled":false,"rental_uris":{"android":"levelo://app?vid=7ffb285b-5618-4274-bf0a-3daafa468f5b","ios":"levelo://app?vid=7ffb285b-5618-4274-bf0a-3daafa468f5b"},"vehicle_type_id":"4","last_reported":1703596069,"current_range_meters":26000,"station_id":"ce4bgjh2rcd13ifvqbf0","pricing_plan_id":"free"},{"bike_id":"18608b02-e95e-4f5a-93bd-ba1113ca59db","system_id":"levelo_inurba_marseille","lat":43.300852,"lon":5.390859,"is_reserved":false,"is_disabled":false,"rental_uris":{"android":"levelo://app?vid=18608b02-e95e-4f5a-93bd-ba1113ca59db","ios":"levelo://app?vid=18608b02-e95e-4f5a-93bd-ba1113ca59db"},"vehicle_type_id":"4","last_reported":1703596069,"current_range_meters":26000,"station_id":"ce4bh192rcd13ifvqdb0","pricing_plan_id":"free"},{"bike_id":"25031812-165b-449e-b3ee-efaecb66cc68","system_id":"levelo_inurba_marseille","lat":43.291671,"lon":5.371575,"is_reserved":false,"is_disabled":false,"rental_uris":{"android":"levelo://app?vid=25031812-165b-449e-b3ee-efaecb66cc68","ios":"levelo://app?vid=25031812-165b-449e-b3ee-efaecb66cc68"},"vehicle_type_id":"4","last_reported":1703596069,"current_range_meters":28800,"station_id":"ce4bha92rcd13ifvqeh0","pricing_plan_id":"free"},{"bike_id":"631858dc-3df8-42c5-8f4c-fc79391cf195","system_id":"levelo_inurba_marseille","lat":43.29872,"lon":5.38905,"is_reserved":false,"is_disabled":false,"rental_uris":{"android":"levelo://app?vid=631858dc-3df8-42c5-8f4c-fc79391cf195","ios":"levelo://app?vid=631858dc-3df8-42c5-8f4c-fc79391cf195"},"vehicle_type_id":"4","last_reported":1703596069,"current_range_meters":20800,"station_id":"","pricing_plan_id":"free"},{"bike_id":"f8ad87fb-faf9-4310-8434-bc415fdf4816","system_id":"levelo_inurba_marseille","lat":43.29867,"lon":5.38909,"is_reserved":false,"is_disabled":false,"rental_uris":{"android":"levelo://app?vid=f8ad87fb-faf9-4310-8434-bc415fdf4816","ios":"levelo://app?vid=f8ad87fb-faf9-4310-8434-bc415fdf4816"},"vehicle_type_id":"4","last_reported":1703596069,"current_range_meters":23200,"station_id":"","pricing_plan_id":"free"},{"bike_id":"2c6823d9-c511-4b3c-a65f-9ab07e967686","system_id":"levelo_inurba_marseille","lat":43.309038,"lon":5.396546,"is_reserved":false,"is_disabled":false,"rental_uris":{"android":"levelo://app?vid=2c6823d9-c511-4b3c-a65f-9ab07e967686","ios":"levelo://app?vid=2c6823d9-c511-4b3c-a65f-9ab07e967686"},"vehicle_type_id":"4","last_reported":1703596069,"current_range_meters":26800,"station_id":"ce4bh012rcd13ifvqcv0","pricing_plan_id":"free"},{"bike_id":"2e2f5058-0de0-4941-bc5c-391537d16491","system_id":"levelo_inurba_marseille","lat":43.313291,"lon":5.396838,"is_reserved":false,"is_disabled":false,"rental_uris":{"android":"levelo://app?vid=2e2f5058-0de0-4941-bc5c-391537d16491","ios":"levelo://app?vid=2e2f5058-0de0-4941-bc5c-391537d16491"},"vehicle_type_id":"4","last_reported":1703596069,"current_range_meters":26400,"station_id":"ce4bgvp2rcd13ifvqcu0","pricing_plan_id":"free"},{"bike_id":"2bd0f400-14e3-4bd2-bd33-4a4a405932f7","system_id":"levelo_inurba_marseille","lat":43.309038,"lon":5.396546,"is_reserved":false,"is_disabled":false,"rental_uris":{"android":"levelo://app?vid=2bd0f400-14e3-4bd2-bd33-4a4a405932f7","ios":"levelo://app?vid=2bd0f400-14e3-4bd2-bd33-4a4a405932f7"},"vehicle_type_id":"4","last_reported":1703596069,"current_range_meters":0,"station_id":"ce4bh012rcd13ifvqcv0","pricing_plan_id":"free"},{"bike_id":"ed238374-9335-438f-80df-c5336487543d","system_id":"levelo_inurba_marseille","lat":43.290779,"lon":5.371482,"is_reserved":false,"is_disabled":false,"rental_uris":{"android":"levelo://app?vid=ed238374-9335-438f-80df-c5336487543d","ios":"levelo://app?vid=ed238374-9335-438f-80df-c5336487543d"},"vehicle_type_id":"4","last_reported":1703596069,"current_range_meters":16800,"station_id":"ce4bh5p2rcd13ifvqe4g","pricing_plan_id":"free"},{"bike_id":"2664d866-d134-45a6-8d3d-8a6dd2cf7b38","system_id":"levelo_inurba_marseille","lat":43.292644,"lon":5.384257,"is_reserved":false,"is_disabled":false,"rental_uris":{"android":"levelo://app?vid=2664d866-d134-45a6-8d3d-8a6dd2cf7b38","ios":"levelo://app?vid=2664d866-d134-45a6-8d3d-8a6dd2cf7b38"},"vehicle_type_id":"4","last_reported":1703596069,"current_range_meters":23200,"station_id":"ce4bh692rcd13ifvqea0","pricing_plan_id":"free"},{"bike_id":"2cbe6798-dc68-461b-8a1a-02225a9180ff","system_id":"levelo_inurba_marseille","lat":43.304296,"lon":5.397513,"is_reserved":false,"is_disabled":false,"rental_uris":{"android":"levelo://app?vid=2cbe6798-dc68-461b-8a1a-02225a9180ff","ios":"levelo://app?vid=2cbe6798-dc68-461b-8a1a-02225a9180ff"},"vehicle_type_id":"4","last_reported":1703596069,"current_range_meters":23200,"station_id":"ce4bh092rcd13ifvqd20","pricing_plan_id":"free"},{"bike_id":"d0af2348-cbea-4e05-b73d-c4cffff7bbf8","system_id":"levelo_inurba_marseille","lat":43.304296,"lon":5.397513,"is_reserved":false,"is_disabled":false,"rental_uris":{"android":"levelo://app?vid=d0af2348-cbea-4e05-b73d-c4cffff7bbf8","ios":"levelo://app?vid=d0af2348-cbea-4e05-b73d-c4cffff7bbf8"},"vehicle_type_id":"4","last_reported":1703596069,"current_range_meters":27200,"station_id":"ce4bh092rcd13ifvqd20","pricing_plan_id":"free"},{"bike_id":"9427f16f-92ec-46d1-af62-cfd1e74f4dd3","system_id":"levelo_inurba_marseille","lat":43.304274,"lon":5.397513,"is_reserved":false,"is_disabled":false,"rental_uris":{"android":"levelo://app?vid=9427f16f-92ec-46d1-af62-cfd1e74f4dd3","ios":"levelo://app?vid=9427f16f-92ec-46d1-af62-cfd1e74f4dd3"},"vehicle_type_id":"4","last_reported":1703596069,"current_range_meters":27600,"station_id":"ce4bh092rcd13ifvqd20","pricing_plan_id":"free"},{"bike_id":"e2f94c33-33bc-4db4-9125-60b95bf45d10","system_id":"levelo_inurba_marseille","lat":43.290103,"lon":5.356114,"is_reserved":false,"is_disabled":false,"rental_uris":{"android":"levelo://app?vid=e2f94c33-33bc-4db4-9125-60b95bf45d10","ios":"levelo://app?vid=e2f94c33-33bc-4db4-9125-60b95bf45d10"},"vehicle_type_id":"4","last_reported":1703596069,"current_range_meters":19200,"station_id":"ce4bhb92rcd13ifvqen0","pricing_plan_id":"free"},{"bike_id":"409b8e94-86ca-4739-b9d2-2d9098959d27","system_id":"levelo_inurba_marseille","lat":43.291089,"lon":5.381231,"is_reserved":false,"is_disabled":false,"rental_uris":{"android":"levelo://app?vid=409b8e94-86ca-4739-b9d2-2d9098959d27","ios":"levelo://app?vid=409b8e94-86ca-4739-b9d2-2d9098959d27"},"vehicle_type_id":"4","last_reported":1703596069,"current_range_meters":29600,"station_id":"ce4bgjh2rcd13ifvqbf0","pricing_plan_id":"free"},{"bike_id":"0e29e178-16dd-419c-a87d-3913f186cdcb","system_id":"levelo_inurba_marseille","lat":43.290995,"lon":5.381361,"is_reserved":false,"is_disabled":false,"rental_uris":{"android":"levelo://app?vid=0e29e178-16dd-419c-a87d-3913f186cdcb","ios":"levelo://app?vid=0e29e178-16dd-419c-a87d-3913f186cdcb"},"vehicle_type_id":"4","last_reported":1703596069,"current_range_meters":31200,"station_id":"ce4bh512rcd13ifvqe2g","pricing_plan_id":"free"},{"bike_id":"01eec893-cb22-47ea-ba6f-18aee64380c7","system_id":"levelo_inurba_marseille","lat":43.330442,"lon":5.389148,"is_reserved":false,"is_disabled":false,"rental_uris":{"android":"levelo://app?vid=01eec893-cb22-47ea-ba6f-18aee64380c7","ios":"levelo://app?vid=01eec893-cb22-47ea-ba6f-18aee64380c7"},"vehicle_type_id":"4","last_reported":1703596069,"current_range_meters":10800,"station_id":"ce4bhr92rcd13ifvqhrg","pricing_plan_id":"free"},{"bike_id":"3740a2b8-8c56-41c3-bab3-6e7f2b77c46f","system_id":"levelo_inurba_marseille","lat":43.295169,"lon":5.390426,"is_reserved":false,"is_disabled":false,"rental_uris":{"android":"levelo://app?vid=3740a2b8-8c56-41c3-bab3-6e7f2b77c46f","ios":"levelo://app?vid=3740a2b8-8c56-41c3-bab3-6e7f2b77c46f"},"vehicle_type_id":"4","last_reported":1703596069,"current_range_meters":18000,"station_id":"ce4bh3p2rcd13ifvqdp0","pricing_plan_id":"free"},{"bike_id":"7a543b19-90cd-4a87-b80d-37f423d89307","system_id":"levelo_inurba_marseille","lat":43.33045,"lon":5.39131,"is_reserved":false,"is_disabled":false,"rental_uris":{"android":"levelo://app?vid=7a543b19-90cd-4a87-b80d-37f423d89307","ios":"levelo://app?vid=7a543b19-90cd-4a87-b80d-37f423d89307"},"vehicle_type_id":"4","last_reported":1703596069,"current_range_meters":8800,"station_id":"","pricing_plan_id":"free"},{"bike_id":"d179eb05-7da3-48de-ad3d-9a127c9ecd2d","system_id":"levelo_inurba_marseille","lat":43.33746,"lon":5.37454,"is_reserved":false,"is_disabled":false,"rental_uris":{"android":"levelo://app?vid=d179eb05-7da3-48de-ad3d-9a127c9ecd2d","ios":"levelo://app?vid=d179eb05-7da3-48de-ad3d-9a127c9ecd2d"},"vehicle_type_id":"4","last_reported":1703596069,"current_range_meters":29600,"station_id":"","pricing_plan_id":"free"},{"bike_id":"f157565a-728a-4521-a384-027fc8ea8758","system_id":"levelo_inurba_marseille","lat":43.33747,"lon":5.37461,"is_reserved":false,"is_disabled":false,"rental_uris":{"android":"levelo://app?vid=f157565a-728a-4521-a384-027fc8ea8758","ios":"levelo://app?vid=f157565a-728a-4521-a384-027fc8ea8758"},"vehicle_type_id":"4","last_reported":1703596069,"current_range_meters":31200,"station_id":"","pricing_plan_id":"free"},{"bike_id":"85590026-3268-484a-8aa8-1569355ddd91","system_id":"levelo_inurba_marseille","lat":43.337485,"lon":5.374535,"is_reserved":false,"is_disabled":false,"rental_uris":{"android":"levelo://app?vid=85590026-3268-484a-8aa8-1569355ddd91","ios":"levelo://app?vid=85590026-3268-484a-8aa8-1569355ddd91"},"vehicle_type_id":"4","last_reported":1703596069,"current_range_meters":28000,"station_id":"","pricing_plan_id":"free"},{"bike_id":"4696fe4b-069a-4d8b-aaeb-46ccccd132b6","system_id":"levelo_inurba_marseille","lat":43.312609,"lon":5.401662,"is_reserved":false,"is_disabled":false,"rental_uris":{"android":"levelo://app?vid=4696fe4b-069a-4d8b-aaeb-46ccccd132b6","ios":"levelo://app?vid=4696fe4b-069a-4d8b-aaeb-46ccccd132b6"},"vehicle_type_id":"4","last_reported":1703596069,"current_range_meters":10000,"station_id":"ce4bh092rcd13ifvqd30","pricing_plan_id":"free"},{"bike_id":"8bc71af8-36ae-4fd9-90b0-22acd5b4b34e","system_id":"levelo_inurba_marseille","lat":43.337597,"lon":5.374564,"is_reserved":false,"is_disabled":false,"rental_uris":{"android":"levelo://app?vid=8bc71af8-36ae-4fd9-90b0-22acd5b4b34e","ios":"levelo://app?vid=8bc71af8-36ae-4fd9-90b0-22acd5b4b34e"},"vehicle_type_id":"4","last_reported":1703596069,"current_range_meters":30400,"station_id":"","pricing_plan_id":"free"},{"bike_id":"958ba18f-fd47-4a78-9061-5f97474432db","system_id":"levelo_inurba_marseille","lat":43.30642,"lon":5.401031,"is_reserved":false,"is_disabled":false,"rental_uris":{"android":"levelo://app?vid=958ba18f-fd47-4a78-9061-5f97474432db","ios":"levelo://app?vid=958ba18f-fd47-4a78-9061-5f97474432db"},"vehicle_type_id":"4","last_reported":1703596069,"current_range_meters":29200,"station_id":"ce4bh112rcd13ifvqda0","pricing_plan_id":"free"},{"bike_id":"0ddbe980-4f2b-427a-b1a7-b3d2950bb4c4","system_id":"levelo_inurba_marseille","lat":43.295194,"lon":5.39397,"is_reserved":false,"is_disabled":false,"rental_uris":{"android":"levelo://app?vid=0ddbe980-4f2b-427a-b1a7-b3d2950bb4c4","ios":"levelo://app?vid=0ddbe980-4f2b-427a-b1a7-b3d2950bb4c4"},"vehicle_type_id":"4","last_reported":1703596069,"current_range_meters":30400,"station_id":"ce4bh292rcd13ifvqdf0","pricing_plan_id":"free"},{"bike_id":"943b83fd-5c05-4714-a5fd-ba7ad243493c","system_id":"levelo_inurba_marseille","lat":43.302759,"lon":5.400793,"is_reserved":false,"is_disabled":false,"rental_uris":{"android":"levelo://app?vid=943b83fd-5c05-4714-a5fd-ba7ad243493c","ios":"levelo://app?vid=943b83fd-5c05-4714-a5fd-ba7ad243493c"},"vehicle_type_id":"4","last_reported":1703596069,"current_range_meters":3600,"station_id":"ce4bgvh2rcd13ifvqcs0","pricing_plan_id":"free"},{"bike_id":"dfc0d39d-1d6e-4c89-b6b9-799b6c2d5ade","system_id":"levelo_inurba_marseille","lat":43.28929,"lon":5.38398,"is_reserved":false,"is_disabled":false,"rental_uris":{"android":"levelo://app?vid=dfc0d39d-1d6e-4c89-b6b9-799b6c2d5ade","ios":"levelo://app?vid=dfc0d39d-1d6e-4c89-b6b9-799b6c2d5ade"},"vehicle_type_id":"4","last_reported":1703596069,"current_range_meters":31200,"station_id":"ce4bh612rcd13ifvqe6g","pricing_plan_id":"free"},{"bike_id":"c149d778-947c-420d-9762-2cb00d457dbb","system_id":"levelo_inurba_marseille","lat":43.302759,"lon":5.400793,"is_reserved":false,"is_disabled":false,"rental_uris":{"android":"levelo://app?vid=c149d778-947c-420d-9762-2cb00d457dbb","ios":"levelo://app?vid=c149d778-947c-420d-9762-2cb00d457dbb"},"vehicle_type_id":"4","last_reported":1703596069,"current_range_meters":23600,"station_id":"ce4bgvh2rcd13ifvqcs0","pricing_plan_id":"free"},{"bike_id":"5bf5d8a5-5ec5-4279-a304-83df41013d42","system_id":"levelo_inurba_marseille","lat":43.289307,"lon":5.38406,"is_reserved":false,"is_disabled":false,"rental_uris":{"android":"levelo://app?vid=5bf5d8a5-5ec5-4279-a304-83df41013d42","ios":"levelo://app?vid=5bf5d8a5-5ec5-4279-a304-83df41013d42"},"vehicle_type_id":"4","last_reported":1703596069,"current_range_meters":29200,"station_id":"ce4bh612rcd13ifvqe6g","pricing_plan_id":"free"},{"bike_id":"18a5f46a-0554-41f2-a4c2-dba24b08d849","system_id":"levelo_inurba_marseille","lat":43.289307,"lon":5.38406,"is_reserved":false,"is_disabled":false,"rental_uris":{"android":"levelo://app?vid=18a5f46a-0554-41f2-a4c2-dba24b08d849","ios":"levelo://app?vid=18a5f46a-0554-41f2-a4c2-dba24b08d849"},"vehicle_type_id":"4","last_reported":1703596069,"current_range_meters":30400,"station_id":"ce4bh612rcd13ifvqe6g","pricing_plan_id":"free"},{"bike_id":"3a057964-4d16-4a1d-b980-092f42918cae","system_id":"levelo_inurba_marseille","lat":43.290336,"lon":5.386425,"is_reserved":false,"is_disabled":false,"rental_uris":{"android":"levelo://app?vid=3a057964-4d16-4a1d-b980-092f42918cae","ios":"levelo://app?vid=3a057964-4d16-4a1d-b980-092f42918cae"},"vehicle_type_id":"4","last_reported":1703596069,"current_range_meters":4400,"station_id":"ce4bh4p2rcd13ifvqe0g","pricing_plan_id":"free"},{"bike_id":"9dcbe02c-038b-4efb-928b-3d6de46d94fd","system_id":"levelo_inurba_marseille","lat":43.302759,"lon":5.400793,"is_reserved":false,"is_disabled":false,"rental_uris":{"android":"levelo://app?vid=9dcbe02c-038b-4efb-928b-3d6de46d94fd","ios":"levelo://app?vid=9dcbe02c-038b-4efb-928b-3d6de46d94fd"},"vehicle_type_id":"4","last_reported":1703596069,"current_range_meters":31200,"station_id":"ce4bgvh2rcd13ifvqcs0","pricing_plan_id":"free"},{"bike_id":"7f990275-dfe5-4fc5-8b32-60c2560456d3","system_id":"levelo_inurba_marseille","lat":43.302759,"lon":5.400793,"is_reserved":false,"is_disabled":false,"rental_uris":{"android":"levelo://app?vid=7f990275-dfe5-4fc5-8b32-60c2560456d3","ios":"levelo://app?vid=7f990275-dfe5-4fc5-8b32-60c2560456d3"},"vehicle_type_id":"4","last_reported":1703596069,"current_range_meters":23600,"station_id":"ce4bgvh2rcd13ifvqcs0","pricing_plan_id":"free"},{"bike_id":"c4491d0c-74af-4d88-864d-4c53251d5027","system_id":"levelo_inurba_marseille","lat":43.286039,"lon":5.370679,"is_reserved":false,"is_disabled":false,"rental_uris":{"android":"levelo://app?vid=c4491d0c-74af-4d88-864d-4c53251d5027","ios":"levelo://app?vid=c4491d0c-74af-4d88-864d-4c53251d5027"},"vehicle_type_id":"4","last_reported":1703596069,"current_range_meters":27200,"station_id":"ce4bht12rcd13ifvqi60","pricing_plan_id":"free"},{"bike_id":"7260845c-a0df-4ce3-b635-e91590bb4f9a","system_id":"levelo_inurba_marseille","lat":43.28608,"lon":5.3707,"is_reserved":false,"is_disabled":false,"rental_uris":{"android":"levelo://app?vid=7260845c-a0df-4ce3-b635-e91590bb4f9a","ios":"levelo://app?vid=7260845c-a0df-4ce3-b635-e91590bb4f9a"},"vehicle_type_id":"4","last_reported":1703596069,"current_range_meters":20400,"station_id":"ce4bht12rcd13ifvqi60","pricing_plan_id":"free"},{"bike_id":"b8ae8959-d827-4ceb-8ce0-3e03906d250d","system_id":"levelo_inurba_marseille","lat":43.28605,"lon":5.37068,"is_reserved":false,"is_disabled":false,"rental_uris":{"android":"levelo://app?vid=b8ae8959-d827-4ceb-8ce0-3e03906d250d","ios":"levelo://app?vid=b8ae8959-d827-4ceb-8ce0-3e03906d250d"},"vehicle_type_id":"4","last_reported":1703596069,"current_range_meters":26800,"station_id":"ce4bht12rcd13ifvqi60","pricing_plan_id":"free"},{"bike_id":"e42f2d48-1eac-4ea9-97da-9a200b97c493","system_id":"levelo_inurba_marseille","lat":43.28604,"lon":5.37065,"is_reserved":false,"is_disabled":false,"rental_uris":{"android":"levelo://app?vid=e42f2d48-1eac-4ea9-97da-9a200b97c493","ios":"levelo://app?vid=e42f2d48-1eac-4ea9-97da-9a200b97c493"},"vehicle_type_id":"4","last_reported":1703596069,"current_range_meters":24800,"station_id":"ce4bht12rcd13ifvqi60","pricing_plan_id":"free"},{"bike_id":"0ade99fb-20fc-423b-a697-58876a6bf0b1","system_id":"levelo_inurba_marseille","lat":43.28699,"lon":5.379445,"is_reserved":false,"is_disabled":false,"rental_uris":{"android":"levelo://app?vid=0ade99fb-20fc-423b-a697-58876a6bf0b1","ios":"levelo://app?vid=0ade99fb-20fc-423b-a697-58876a6bf0b1"},"vehicle_type_id":"4","last_reported":1703596069,"current_range_meters":18000,"station_id":"ce4bh9p2rcd13ifvqec0","pricing_plan_id":"free"},{"bike_id":"f32157b6-82bd-43ab-9aef-18a8d7167bac","system_id":"levelo_inurba_marseille","lat":43.291994,"lon":5.392907,"is_reserved":false,"is_disabled":false,"rental_uris":{"android":"levelo://app?vid=f32157b6-82bd-43ab-9aef-18a8d7167bac","ios":"levelo://app?vid=f32157b6-82bd-43ab-9aef-18a8d7167bac"},"vehicle_type_id":"4","last_reported":1703596069,"current_range_meters":18800,"station_id":"ce4bh192rcd13ifvqdd0","pricing_plan_id":"free"},{"bike_id":"85c167f0-19ab-4986-828c-1e06e1f9f5a8","system_id":"levelo_inurba_marseille","lat":43.291994,"lon":5.392907,"is_reserved":false,"is_disabled":false,"rental_uris":{"android":"levelo://app?vid=85c167f0-19ab-4986-828c-1e06e1f9f5a8","ios":"levelo://app?vid=85c167f0-19ab-4986-828c-1e06e1f9f5a8"},"vehicle_type_id":"4","last_reported":1703596069,"current_range_meters":19600,"station_id":"ce4bh192rcd13ifvqdd0","pricing_plan_id":"free"},{"bike_id":"fd4c426e-aa21-47dc-bc9a-ee78429ad4c3","system_id":"levelo_inurba_marseille","lat":43.291994,"lon":5.392907,"is_reserved":false,"is_disabled":false,"rental_uris":{"android":"levelo://app?vid=fd4c426e-aa21-47dc-bc9a-ee78429ad4c3","ios":"levelo://app?vid=fd4c426e-aa21-47dc-bc9a-ee78429ad4c3"},"vehicle_type_id":"4","last_reported":1703596069,"current_range_meters":26000,"station_id":"ce4bh192rcd13ifvqdd0","pricing_plan_id":"free"},{"bike_id":"e2adfa7c-882e-48a1-9ee4-b36e6186ebbf","system_id":"levelo_inurba_marseille","lat":43.330912,"lon":5.396935,"is_reserved":false,"is_disabled":false,"rental_uris":{"android":"levelo://app?vid=e2adfa7c-882e-48a1-9ee4-b36e6186ebbf","ios":"levelo://app?vid=e2adfa7c-882e-48a1-9ee4-b36e6186ebbf"},"vehicle_type_id":"4","last_reported":1703596069,"current_range_meters":3200,"station_id":"","pricing_plan_id":"free"},{"bike_id":"eb8d5b3b-07c7-42da-a4d0-419856d75b0d","system_id":"levelo_inurba_marseille","lat":43.294314,"lon":5.397498,"is_reserved":false,"is_disabled":false,"rental_uris":{"android":"levelo://app?vid=eb8d5b3b-07c7-42da-a4d0-419856d75b0d","ios":"levelo://app?vid=eb8d5b3b-07c7-42da-a4d0-419856d75b0d"},"vehicle_type_id":"4","last_reported":1703596069,"current_range_meters":27600,"station_id":"ce4bh3h2rcd13ifvqdo0","pricing_plan_id":"free"},{"bike_id":"01b4a3aa-0a62-4ca1-8faa-37f6d218c766","system_id":"levelo_inurba_marseille","lat":43.285856,"lon":5.350771,"is_reserved":false,"is_disabled":false,"rental_uris":{"android":"levelo://app?vid=01b4a3aa-0a62-4ca1-8faa-37f6d218c766","ios":"levelo://app?vid=01b4a3aa-0a62-4ca1-8faa-37f6d218c766"},"vehicle_type_id":"4","last_reported":1703596069,"current_range_meters":4800,"station_id":"ce4bhch2rcd13ifvqeug","pricing_plan_id":"free"},{"bike_id":"c5c52ae5-62cc-4efa-801f-61722ac75fcf","system_id":"levelo_inurba_marseille","lat":43.285848,"lon":5.350787,"is_reserved":false,"is_disabled":false,"rental_uris":{"android":"levelo://app?vid=c5c52ae5-62cc-4efa-801f-61722ac75fcf","ios":"levelo://app?vid=c5c52ae5-62cc-4efa-801f-61722ac75fcf"},"vehicle_type_id":"4","last_reported":1703596069,"current_range_meters":11200,"station_id":"ce4bhch2rcd13ifvqeug","pricing_plan_id":"free"},{"bike_id":"8aaff0f3-f2d8-4b45-a69f-fa2ab2474946","system_id":"levelo_inurba_marseille","lat":43.285848,"lon":5.350787,"is_reserved":false,"is_disabled":false,"rental_uris":{"android":"levelo://app?vid=8aaff0f3-f2d8-4b45-a69f-fa2ab2474946","ios":"levelo://app?vid=8aaff0f3-f2d8-4b45-a69f-fa2ab2474946"},"vehicle_type_id":"4","last_reported":1703596069,"current_range_meters":0,"station_id":"ce4bhch2rcd13ifvqeug","pricing_plan_id":"free"},{"bike_id":"59a0be02-ba08-4c77-bd38-3f788fceb0cb","system_id":"levelo_inurba_marseille","lat":43.283998,"lon":5.375062,"is_reserved":false,"is_disabled":false,"rental_uris":{"android":"levelo://app?vid=59a0be02-ba08-4c77-bd38-3f788fceb0cb","ios":"levelo://app?vid=59a0be02-ba08-4c77-bd38-3f788fceb0cb"},"vehicle_type_id":"4","last_reported":1703596069,"current_range_meters":15600,"station_id":"ce4bh412rcd13ifvqds0","pricing_plan_id":"free"},{"bike_id":"44a965cc-f7e7-4a8b-a6bb-0f61a188f88e","system_id":"levelo_inurba_marseille","lat":43.286595,"lon":5.386795,"is_reserved":false,"is_disabled":false,"rental_uris":{"android":"levelo://app?vid=44a965cc-f7e7-4a8b-a6bb-0f61a188f88e","ios":"levelo://app?vid=44a965cc-f7e7-4a8b-a6bb-0f61a188f88e"},"vehicle_type_id":"4","last_reported":1703596069,"current_range_meters":27600,"station_id":"ce4bh492rcd13ifvqdug","pricing_plan_id":"free"},{"bike_id":"5df2e6fd-abcc-4349-b45f-fc6514cccfff","system_id":"levelo_inurba_marseille","lat":43.286595,"lon":5.386795,"is_reserved":false,"is_disabled":false,"rental_uris":{"android":"levelo://app?vid=5df2e6fd-abcc-4349-b45f-fc6514cccfff","ios":"levelo://app?vid=5df2e6fd-abcc-4349-b45f-fc6514cccfff"},"vehicle_type_id":"4","last_reported":1703596069,"current_range_meters":3200,"station_id":"ce4bh492rcd13ifvqdug","pricing_plan_id":"free"},{"bike_id":"ff6ebe2d-10e0-4bee-8d5b-0d34d0573673","system_id":"levelo_inurba_marseille","lat":43.33715,"lon":5.39161,"is_reserved":false,"is_disabled":false,"rental_uris":{"android":"levelo://app?vid=ff6ebe2d-10e0-4bee-8d5b-0d34d0573673","ios":"levelo://app?vid=ff6ebe2d-10e0-4bee-8d5b-0d34d0573673"},"vehicle_type_id":"4","last_reported":1703596069,"current_range_meters":17600,"station_id":"ce4bhr92rcd13ifvqhsg","pricing_plan_id":"free"},{"bike_id":"32358c1c-e30e-473f-9e3b-ee56f5e3d31c","system_id":"levelo_inurba_marseille","lat":43.323464,"lon":5.406297,"is_reserved":false,"is_disabled":false,"rental_uris":{"android":"levelo://app?vid=32358c1c-e30e-473f-9e3b-ee56f5e3d31c","ios":"levelo://app?vid=32358c1c-e30e-473f-9e3b-ee56f5e3d31c"},"vehicle_type_id":"4","last_reported":1703596069,"current_range_meters":27600,"station_id":"ce4bhq92rcd13ifvqhjg","pricing_plan_id":"free"},{"bike_id":"7bbda63a-e992-4ae2-9d02-ac0d74932925","system_id":"levelo_inurba_marseille","lat":43.284793,"lon":5.384113,"is_reserved":false,"is_disabled":false,"rental_uris":{"android":"levelo://app?vid=7bbda63a-e992-4ae2-9d02-ac0d74932925","ios":"levelo://app?vid=7bbda63a-e992-4ae2-9d02-ac0d74932925"},"vehicle_type_id":"4","last_reported":1703596069,"current_range_meters":18000,"station_id":"ce4bh512rcd13ifvqe3g","pricing_plan_id":"free"},{"bike_id":"0c42fa24-df28-4a31-9078-869414e2a519","system_id":"levelo_inurba_marseille","lat":43.29795,"lon":5.404086,"is_reserved":false,"is_disabled":false,"rental_uris":{"android":"levelo://app?vid=0c42fa24-df28-4a31-9078-869414e2a519","ios":"levelo://app?vid=0c42fa24-df28-4a31-9078-869414e2a519"},"vehicle_type_id":"4","last_reported":1703596069,"current_range_meters":30000,"station_id":"ce4bh112rcd13ifvqd90","pricing_plan_id":"free"},{"bike_id":"9195a4b1-21c4-44cc-a045-c88e4cfadb9f","system_id":"levelo_inurba_marseille","lat":43.288501,"lon":5.393087,"is_reserved":false,"is_disabled":false,"rental_uris":{"android":"levelo://app?vid=9195a4b1-21c4-44cc-a045-c88e4cfadb9f","ios":"levelo://app?vid=9195a4b1-21c4-44cc-a045-c88e4cfadb9f"},"vehicle_type_id":"4","last_reported":1703596069,"current_range_meters":20400,"station_id":"ce4bh2p2rcd13ifvqdi0","pricing_plan_id":"free"},{"bike_id":"0eda1752-b43a-4615-91cf-2104d6ee6173","system_id":"levelo_inurba_marseille","lat":43.283494,"lon":5.380945,"is_reserved":false,"is_disabled":false,"rental_uris":{"android":"levelo://app?vid=0eda1752-b43a-4615-91cf-2104d6ee6173","ios":"levelo://app?vid=0eda1752-b43a-4615-91cf-2104d6ee6173"},"vehicle_type_id":"4","last_reported":1703596069,"current_range_meters":31200,"station_id":"ce4bh412rcd13ifvqdr0","pricing_plan_id":"free"},{"bike_id":"e485450b-2736-4f4c-b94b-0da5a69b88aa","system_id":"levelo_inurba_marseille","lat":43.33385,"lon":5.39822,"is_reserved":false,"is_disabled":false,"rental_uris":{"android":"levelo://app?vid=e485450b-2736-4f4c-b94b-0da5a69b88aa","ios":"levelo://app?vid=e485450b-2736-4f4c-b94b-0da5a69b88aa"},"vehicle_type_id":"4","last_reported":1703596069,"current_range_meters":22400,"station_id":"","pricing_plan_id":"free"},{"bike_id":"c435eac7-44ae-467d-81bf-196432d1c831","system_id":"levelo_inurba_marseille","lat":43.280382,"lon":5.369291,"is_reserved":false,"is_disabled":false,"rental_uris":{"android":"levelo://app?vid=c435eac7-44ae-467d-81bf-196432d1c831","ios":"levelo://app?vid=c435eac7-44ae-467d-81bf-196432d1c831"},"vehicle_type_id":"4","last_reported":1703596069,"current_range_meters":6000,"station_id":"ce4bha12rcd13ifvqef0","pricing_plan_id":"free"},{"bike_id":"0137875a-eab1-48e0-8b08-6b0adf26197d","system_id":"levelo_inurba_marseille","lat":43.282754,"lon":5.350519,"is_reserved":false,"is_disabled":false,"rental_uris":{"android":"levelo://app?vid=0137875a-eab1-48e0-8b08-6b0adf26197d","ios":"levelo://app?vid=0137875a-eab1-48e0-8b08-6b0adf26197d"},"vehicle_type_id":"4","last_reported":1703596069,"current_range_meters":26800,"station_id":"ce4bhbp2rcd13ifvqerg","pricing_plan_id":"free"},{"bike_id":"d9456755-88d2-4516-a2c1-891a546c885a","system_id":"levelo_inurba_marseille","lat":43.28039,"lon":5.369297,"is_reserved":false,"is_disabled":false,"rental_uris":{"android":"levelo://app?vid=d9456755-88d2-4516-a2c1-891a546c885a","ios":"levelo://app?vid=d9456755-88d2-4516-a2c1-891a546c885a"},"vehicle_type_id":"4","last_reported":1703596069,"current_range_meters":19200,"station_id":"ce4bha12rcd13ifvqef0","pricing_plan_id":"free"},{"bike_id":"b2ac34b7-00be-4c1f-a1e1-408b289e35a1","system_id":"levelo_inurba_marseille","lat":43.28039,"lon":5.369297,"is_reserved":false,"is_disabled":false,"rental_uris":{"android":"levelo://app?vid=b2ac34b7-00be-4c1f-a1e1-408b289e35a1","ios":"levelo://app?vid=b2ac34b7-00be-4c1f-a1e1-408b289e35a1"},"vehicle_type_id":"4","last_reported":1703596069,"current_range_meters":24400,"station_id":"ce4bha12rcd13ifvqef0","pricing_plan_id":"free"},{"bike_id":"293e4112-9a54-459c-8c5a-fb9652b535e0","system_id":"levelo_inurba_marseille","lat":43.280382,"lon":5.369291,"is_reserved":false,"is_disabled":false,"rental_uris":{"android":"levelo://app?vid=293e4112-9a54-459c-8c5a-fb9652b535e0","ios":"levelo://app?vid=293e4112-9a54-459c-8c5a-fb9652b535e0"},"vehicle_type_id":"4","last_reported":1703596069,"current_range_meters":22800,"station_id":"ce4bha12rcd13ifvqef0","pricing_plan_id":"free"},{"bike_id":"17fb2b0d-7f9d-4d67-8ac9-56191ba84042","system_id":"levelo_inurba_marseille","lat":43.29035,"lon":5.3995,"is_reserved":false,"is_disabled":false,"rental_uris":{"android":"levelo://app?vid=17fb2b0d-7f9d-4d67-8ac9-56191ba84042","ios":"levelo://app?vid=17fb2b0d-7f9d-4d67-8ac9-56191ba84042"},"vehicle_type_id":"4","last_reported":1703596069,"current_range_meters":20400,"station_id":"ce4bh392rcd13ifvqdm0","pricing_plan_id":"free"},{"bike_id":"e342b76f-7342-4a5a-a413-3a95495da72f","system_id":"levelo_inurba_marseille","lat":43.29041,"lon":5.399634,"is_reserved":false,"is_disabled":false,"rental_uris":{"android":"levelo://app?vid=e342b76f-7342-4a5a-a413-3a95495da72f","ios":"levelo://app?vid=e342b76f-7342-4a5a-a413-3a95495da72f"},"vehicle_type_id":"4","last_reported":1703596069,"current_range_meters":18800,"station_id":"ce4bh392rcd13ifvqdm0","pricing_plan_id":"free"},{"bike_id":"e616b786-e4c0-4d73-9d4b-4bcba879a3ed","system_id":"levelo_inurba_marseille","lat":43.28573,"lon":5.394992,"is_reserved":false,"is_disabled":false,"rental_uris":{"android":"levelo://app?vid=e616b786-e4c0-4d73-9d4b-4bcba879a3ed","ios":"levelo://app?vid=e616b786-e4c0-4d73-9d4b-4bcba879a3ed"},"vehicle_type_id":"4","last_reported":1703596069,"current_range_meters":29600,"station_id":"ce4bh292rcd13ifvqdg0","pricing_plan_id":"free"},{"bike_id":"4594c9ec-9fd1-4633-977c-3aca39577052","system_id":"levelo_inurba_marseille","lat":43.28573,"lon":5.394992,"is_reserved":false,"is_disabled":false,"rental_uris":{"android":"levelo://app?vid=4594c9ec-9fd1-4633-977c-3aca39577052","ios":"levelo://app?vid=4594c9ec-9fd1-4633-977c-3aca39577052"},"vehicle_type_id":"4","last_reported":1703596069,"current_range_meters":12800,"station_id":"ce4bh292rcd13ifvqdg0","pricing_plan_id":"free"},{"bike_id":"2bdcaedd-84dc-416d-b027-f2cb44459874","system_id":"levelo_inurba_marseille","lat":43.326605,"lon":5.409903,"is_reserved":false,"is_disabled":false,"rental_uris":{"android":"levelo://app?vid=2bdcaedd-84dc-416d-b027-f2cb44459874","ios":"levelo://app?vid=2bdcaedd-84dc-416d-b027-f2cb44459874"},"vehicle_type_id":"4","last_reported":1703596069,"current_range_meters":28800,"station_id":"ce4bhpp2rcd13ifvqhgg","pricing_plan_id":"free"},{"bike_id":"bc1f7b15-1c1c-41f9-9939-342701df6c92","system_id":"levelo_inurba_marseille","lat":43.279087,"lon":5.380114,"is_reserved":false,"is_disabled":false,"rental_uris":{"android":"levelo://app?vid=bc1f7b15-1c1c-41f9-9939-342701df6c92","ios":"levelo://app?vid=bc1f7b15-1c1c-41f9-9939-342701df6c92"},"vehicle_type_id":"4","last_reported":1703596069,"current_range_meters":31600,"station_id":"ce4bhf92rcd13ifvqf50","pricing_plan_id":"free"},{"bike_id":"a1051e9d-d83a-4f28-b2bd-7f2fe03322a1","system_id":"levelo_inurba_marseille","lat":43.279087,"lon":5.380114,"is_reserved":false,"is_disabled":false,"rental_uris":{"android":"levelo://app?vid=a1051e9d-d83a-4f28-b2bd-7f2fe03322a1","ios":"levelo://app?vid=a1051e9d-d83a-4f28-b2bd-7f2fe03322a1"},"vehicle_type_id":"4","last_reported":1703596069,"current_range_meters":18800,"station_id":"ce4bhf92rcd13ifvqf50","pricing_plan_id":"free"},{"bike_id":"1f49b234-69ed-438e-8d08-179a4fc9c8c6","system_id":"levelo_inurba_marseille","lat":43.320045,"lon":5.415046,"is_reserved":false,"is_disabled":false,"rental_uris":{"android":"levelo://app?vid=1f49b234-69ed-438e-8d08-179a4fc9c8c6","ios":"levelo://app?vid=1f49b234-69ed-438e-8d08-179a4fc9c8c6"},"vehicle_type_id":"4","last_reported":1703596069,"current_range_meters":30000,"station_id":"ce4bhq92rcd13ifvqhkg","pricing_plan_id":"free"},{"bike_id":"387750e4-51b8-4418-92c2-682d88f04745","system_id":"levelo_inurba_marseille","lat":43.320045,"lon":5.415048,"is_reserved":false,"is_disabled":false,"rental_uris":{"android":"levelo://app?vid=387750e4-51b8-4418-92c2-682d88f04745","ios":"levelo://app?vid=387750e4-51b8-4418-92c2-682d88f04745"},"vehicle_type_id":"4","last_reported":1703596069,"current_range_meters":29600,"station_id":"ce4bhq92rcd13ifvqhkg","pricing_plan_id":"free"},{"bike_id":"0f9ba54f-2d34-4815-a7a3-85ee9d8e32a4","system_id":"levelo_inurba_marseille","lat":43.320045,"lon":5.415048,"is_reserved":false,"is_disabled":false,"rental_uris":{"android":"levelo://app?vid=0f9ba54f-2d34-4815-a7a3-85ee9d8e32a4","ios":"levelo://app?vid=0f9ba54f-2d34-4815-a7a3-85ee9d8e32a4"},"vehicle_type_id":"4","last_reported":1703596069,"current_range_meters":28800,"station_id":"ce4bhq92rcd13ifvqhkg","pricing_plan_id":"free"},{"bike_id":"eaea8e0f-aa90-4a9d-a317-2f6c71bdeeaa","system_id":"levelo_inurba_marseille","lat":43.279742,"lon":5.38744,"is_reserved":false,"is_disabled":false,"rental_uris":{"android":"levelo://app?vid=eaea8e0f-aa90-4a9d-a317-2f6c71bdeeaa","ios":"levelo://app?vid=eaea8e0f-aa90-4a9d-a317-2f6c71bdeeaa"},"vehicle_type_id":"4","last_reported":1703596069,"current_range_meters":28400,"station_id":"ce4bhg12rcd13ifvqf80","pricing_plan_id":"free"},{"bike_id":"801621a4-eb5f-48ce-ab38-3de9e9289d06","system_id":"levelo_inurba_marseille","lat":43.279742,"lon":5.38744,"is_reserved":false,"is_disabled":false,"rental_uris":{"android":"levelo://app?vid=801621a4-eb5f-48ce-ab38-3de9e9289d06","ios":"levelo://app?vid=801621a4-eb5f-48ce-ab38-3de9e9289d06"},"vehicle_type_id":"4","last_reported":1703596069,"current_range_meters":17200,"station_id":"ce4bhg12rcd13ifvqf80","pricing_plan_id":"free"},{"bike_id":"00d0c58c-0e5c-465a-93d5-520a34be7779","system_id":"levelo_inurba_marseille","lat":43.292569,"lon":5.409107,"is_reserved":false,"is_disabled":false,"rental_uris":{"android":"levelo://app?vid=00d0c58c-0e5c-465a-93d5-520a34be7779","ios":"levelo://app?vid=00d0c58c-0e5c-465a-93d5-520a34be7779"},"vehicle_type_id":"4","last_reported":1703596069,"current_range_meters":26400,"station_id":"ce4bh192rcd13ifvqdc0","pricing_plan_id":"free"},{"bike_id":"337d434b-bc9f-4032-b11c-711af8b53c24","system_id":"levelo_inurba_marseille","lat":43.27618,"lon":5.361009,"is_reserved":false,"is_disabled":false,"rental_uris":{"android":"levelo://app?vid=337d434b-bc9f-4032-b11c-711af8b53c24","ios":"levelo://app?vid=337d434b-bc9f-4032-b11c-711af8b53c24"},"vehicle_type_id":"4","last_reported":1703596069,"current_range_meters":26000,"station_id":"ce4bgj92rcd13ifvqbe0","pricing_plan_id":"free"},{"bike_id":"918de661-f57e-4317-8f41-4202b0d4f7c6","system_id":"levelo_inurba_marseille","lat":43.325233,"lon":5.414318,"is_reserved":false,"is_disabled":false,"rental_uris":{"android":"levelo://app?vid=918de661-f57e-4317-8f41-4202b0d4f7c6","ios":"levelo://app?vid=918de661-f57e-4317-8f41-4202b0d4f7c6"},"vehicle_type_id":"4","last_reported":1703596069,"current_range_meters":30400,"station_id":"ce4bhq12rcd13ifvqhhg","pricing_plan_id":"free"},{"bike_id":"2316e8ee-f386-464a-852e-eabe92d886b0","system_id":"levelo_inurba_marseille","lat":43.27618,"lon":5.361009,"is_reserved":false,"is_disabled":false,"rental_uris":{"android":"levelo://app?vid=2316e8ee-f386-464a-852e-eabe92d886b0","ios":"levelo://app?vid=2316e8ee-f386-464a-852e-eabe92d886b0"},"vehicle_type_id":"4","last_reported":1703596069,"current_range_meters":22000,"station_id":"ce4bgj92rcd13ifvqbe0","pricing_plan_id":"free"},{"bike_id":"4572ad03-b2bb-4c64-94a5-dbc94101cc4e","system_id":"levelo_inurba_marseille","lat":43.276084,"lon":5.361145,"is_reserved":false,"is_disabled":false,"rental_uris":{"android":"levelo://app?vid=4572ad03-b2bb-4c64-94a5-dbc94101cc4e","ios":"levelo://app?vid=4572ad03-b2bb-4c64-94a5-dbc94101cc4e"},"vehicle_type_id":"4","last_reported":1703596069,"current_range_meters":25600,"station_id":"","pricing_plan_id":"free"},{"bike_id":"2de97e2e-3ddf-4207-b0c7-64d55ce84a35","system_id":"levelo_inurba_marseille","lat":43.280784,"lon":5.396622,"is_reserved":false,"is_disabled":false,"rental_uris":{"android":"levelo://app?vid=2de97e2e-3ddf-4207-b0c7-64d55ce84a35","ios":"levelo://app?vid=2de97e2e-3ddf-4207-b0c7-64d55ce84a35"},"vehicle_type_id":"4","last_reported":1703596069,"current_range_meters":19200,"station_id":"ce4bho12rcd13ifvqh2g","pricing_plan_id":"free"},{"bike_id":"8fe3a0cb-d962-4760-898e-83946c7a77c7","system_id":"levelo_inurba_marseille","lat":43.303837,"lon":5.418724,"is_reserved":false,"is_disabled":false,"rental_uris":{"android":"levelo://app?vid=8fe3a0cb-d962-4760-898e-83946c7a77c7","ios":"levelo://app?vid=8fe3a0cb-d962-4760-898e-83946c7a77c7"},"vehicle_type_id":"4","last_reported":1703596069,"current_range_meters":28800,"station_id":"ce4bhop2rcd13ifvqh7g","pricing_plan_id":"free"},{"bike_id":"1c563099-9ba3-4e7b-85be-fa269727713f","system_id":"levelo_inurba_marseille","lat":43.303837,"lon":5.418724,"is_reserved":false,"is_disabled":false,"rental_uris":{"android":"levelo://app?vid=1c563099-9ba3-4e7b-85be-fa269727713f","ios":"levelo://app?vid=1c563099-9ba3-4e7b-85be-fa269727713f"},"vehicle_type_id":"4","last_reported":1703596069,"current_range_meters":31200,"station_id":"ce4bhop2rcd13ifvqh7g","pricing_plan_id":"free"},{"bike_id":"65431dc2-7219-4fc5-9aca-fdf25e4e1084","system_id":"levelo_inurba_marseille","lat":43.273613,"lon":5.362705,"is_reserved":false,"is_disabled":false,"rental_uris":{"android":"levelo://app?vid=65431dc2-7219-4fc5-9aca-fdf25e4e1084","ios":"levelo://app?vid=65431dc2-7219-4fc5-9aca-fdf25e4e1084"},"vehicle_type_id":"4","last_reported":1703596069,"current_range_meters":21600,"station_id":"ce4bhbh2rcd13ifvqeo0","pricing_plan_id":"free"},{"bike_id":"1b227829-f00a-47a8-a334-0c3ce8f714c9","system_id":"levelo_inurba_marseille","lat":43.273609,"lon":5.362708,"is_reserved":false,"is_disabled":false,"rental_uris":{"android":"levelo://app?vid=1b227829-f00a-47a8-a334-0c3ce8f714c9","ios":"levelo://app?vid=1b227829-f00a-47a8-a334-0c3ce8f714c9"},"vehicle_type_id":"4","last_reported":1703596069,"current_range_meters":26400,"station_id":"ce4bhbh2rcd13ifvqeo0","pricing_plan_id":"free"},{"bike_id":"7ce30daf-cbfe-4153-9586-63e249e70b2e","system_id":"levelo_inurba_marseille","lat":43.27562,"lon":5.384246,"is_reserved":false,"is_disabled":false,"rental_uris":{"android":"levelo://app?vid=7ce30daf-cbfe-4153-9586-63e249e70b2e","ios":"levelo://app?vid=7ce30daf-cbfe-4153-9586-63e249e70b2e"},"vehicle_type_id":"4","last_reported":1703596069,"current_range_meters":24000,"station_id":"ce4bhh92rcd13ifvqfi0","pricing_plan_id":"free"},{"bike_id":"a034fd5d-400a-45c1-8dc7-065ff66b2ccb","system_id":"levelo_inurba_marseille","lat":43.276771,"lon":5.388799,"is_reserved":false,"is_disabled":false,"rental_uris":{"android":"levelo://app?vid=a034fd5d-400a-45c1-8dc7-065ff66b2ccb","ios":"levelo://app?vid=a034fd5d-400a-45c1-8dc7-065ff66b2ccb"},"vehicle_type_id":"4","last_reported":1703596069,"current_range_meters":27600,"station_id":"ce4bhi12rcd13ifvqfo0","pricing_plan_id":"free"},{"bike_id":"136cb9da-15ee-40e3-bc2c-40c9c9d6a86d","system_id":"levelo_inurba_marseille","lat":43.317121,"lon":5.423936,"is_reserved":false,"is_disabled":false,"rental_uris":{"android":"levelo://app?vid=136cb9da-15ee-40e3-bc2c-40c9c9d6a86d","ios":"levelo://app?vid=136cb9da-15ee-40e3-bc2c-40c9c9d6a86d"},"vehicle_type_id":"4","last_reported":1703596069,"current_range_meters":30400,"station_id":"ce4bhp92rcd13ifvqhbg","pricing_plan_id":"free"},{"bike_id":"55c634c8-65ee-47b8-9656-14180506d92f","system_id":"levelo_inurba_marseille","lat":43.310785,"lon":5.424305,"is_reserved":false,"is_disabled":false,"rental_uris":{"android":"levelo://app?vid=55c634c8-65ee-47b8-9656-14180506d92f","ios":"levelo://app?vid=55c634c8-65ee-47b8-9656-14180506d92f"},"vehicle_type_id":"4","last_reported":1703596069,"current_range_meters":26000,"station_id":"ce4bhp92rcd13ifvqhag","pricing_plan_id":"free"},{"bike_id":"bb90a34b-3d33-434d-960c-40abe2f16ea4","system_id":"levelo_inurba_marseille","lat":43.310785,"lon":5.424305,"is_reserved":false,"is_disabled":false,"rental_uris":{"android":"levelo://app?vid=bb90a34b-3d33-434d-960c-40abe2f16ea4","ios":"levelo://app?vid=bb90a34b-3d33-434d-960c-40abe2f16ea4"},"vehicle_type_id":"4","last_reported":1703596069,"current_range_meters":28800,"station_id":"ce4bhp92rcd13ifvqhag","pricing_plan_id":"free"},{"bike_id":"55ce4e9a-d80a-4f9f-9837-ef785780d434","system_id":"levelo_inurba_marseille","lat":43.310785,"lon":5.424305,"is_reserved":false,"is_disabled":false,"rental_uris":{"android":"levelo://app?vid=55ce4e9a-d80a-4f9f-9837-ef785780d434","ios":"levelo://app?vid=55ce4e9a-d80a-4f9f-9837-ef785780d434"},"vehicle_type_id":"4","last_reported":1703596069,"current_range_meters":30400,"station_id":"ce4bhp92rcd13ifvqhag","pricing_plan_id":"free"},{"bike_id":"a5ef3ffe-074d-4034-8a49-1265e8309ea7","system_id":"levelo_inurba_marseille","lat":43.310785,"lon":5.424305,"is_reserved":false,"is_disabled":false,"rental_uris":{"android":"levelo://app?vid=a5ef3ffe-074d-4034-8a49-1265e8309ea7","ios":"levelo://app?vid=a5ef3ffe-074d-4034-8a49-1265e8309ea7"},"vehicle_type_id":"4","last_reported":1703596069,"current_range_meters":30800,"station_id":"ce4bhp92rcd13ifvqhag","pricing_plan_id":"free"},{"bike_id":"8688502e-c777-4738-8968-43d18688f77f","system_id":"levelo_inurba_marseille","lat":43.310785,"lon":5.424305,"is_reserved":false,"is_disabled":false,"rental_uris":{"android":"levelo://app?vid=8688502e-c777-4738-8968-43d18688f77f","ios":"levelo://app?vid=8688502e-c777-4738-8968-43d18688f77f"},"vehicle_type_id":"4","last_reported":1703596069,"current_range_meters":31600,"station_id":"ce4bhp92rcd13ifvqhag","pricing_plan_id":"free"},{"bike_id":"c228ce51-0034-408b-93aa-dbde9bbacd8a","system_id":"levelo_inurba_marseille","lat":43.310785,"lon":5.424305,"is_reserved":false,"is_disabled":false,"rental_uris":{"android":"levelo://app?vid=c228ce51-0034-408b-93aa-dbde9bbacd8a","ios":"levelo://app?vid=c228ce51-0034-408b-93aa-dbde9bbacd8a"},"vehicle_type_id":"4","last_reported":1703596069,"current_range_meters":31200,"station_id":"ce4bhp92rcd13ifvqhag","pricing_plan_id":"free"},{"bike_id":"c807b277-1704-46fd-9976-fda8eb7df135","system_id":"levelo_inurba_marseille","lat":43.310785,"lon":5.424305,"is_reserved":false,"is_disabled":false,"rental_uris":{"android":"levelo://app?vid=c807b277-1704-46fd-9976-fda8eb7df135","ios":"levelo://app?vid=c807b277-1704-46fd-9976-fda8eb7df135"},"vehicle_type_id":"4","last_reported":1703596069,"current_range_meters":22400,"station_id":"ce4bhp92rcd13ifvqhag","pricing_plan_id":"free"},{"bike_id":"68736a0c-c45e-44b7-9894-9250e5012bfe","system_id":"levelo_inurba_marseille","lat":43.310785,"lon":5.424305,"is_reserved":false,"is_disabled":false,"rental_uris":{"android":"levelo://app?vid=68736a0c-c45e-44b7-9894-9250e5012bfe","ios":"levelo://app?vid=68736a0c-c45e-44b7-9894-9250e5012bfe"},"vehicle_type_id":"4","last_reported":1703596069,"current_range_meters":27200,"station_id":"ce4bhp92rcd13ifvqhag","pricing_plan_id":"free"},{"bike_id":"b2974ce4-58ca-4652-8486-f4891c019db7","system_id":"levelo_inurba_marseille","lat":43.310828,"lon":5.424304,"is_reserved":false,"is_disabled":false,"rental_uris":{"android":"levelo://app?vid=b2974ce4-58ca-4652-8486-f4891c019db7","ios":"levelo://app?vid=b2974ce4-58ca-4652-8486-f4891c019db7"},"vehicle_type_id":"4","last_reported":1703596069,"current_range_meters":26400,"station_id":"","pricing_plan_id":"free"},{"bike_id":"40000c49-67f1-4183-81bd-797685f5b1f8","system_id":"levelo_inurba_marseille","lat":43.310785,"lon":5.424305,"is_reserved":false,"is_disabled":false,"rental_uris":{"android":"levelo://app?vid=40000c49-67f1-4183-81bd-797685f5b1f8","ios":"levelo://app?vid=40000c49-67f1-4183-81bd-797685f5b1f8"},"vehicle_type_id":"4","last_reported":1703596069,"current_range_meters":29600,"station_id":"ce4bhp92rcd13ifvqhag","pricing_plan_id":"free"},{"bike_id":"d34a21e9-75d4-4403-8c2a-13dda26f4543","system_id":"levelo_inurba_marseille","lat":43.274103,"lon":5.394016,"is_reserved":false,"is_disabled":false,"rental_uris":{"android":"levelo://app?vid=d34a21e9-75d4-4403-8c2a-13dda26f4543","ios":"levelo://app?vid=d34a21e9-75d4-4403-8c2a-13dda26f4543"},"vehicle_type_id":"4","last_reported":1703596069,"current_range_meters":31200,"station_id":"ce4bhdp2rcd13ifvqf20","pricing_plan_id":"free"},{"bike_id":"f556d316-c44a-4d50-a77d-683f4af0ce62","system_id":"levelo_inurba_marseille","lat":43.273129,"lon":5.390725,"is_reserved":false,"is_disabled":false,"rental_uris":{"android":"levelo://app?vid=f556d316-c44a-4d50-a77d-683f4af0ce62","ios":"levelo://app?vid=f556d316-c44a-4d50-a77d-683f4af0ce62"},"vehicle_type_id":"4","last_reported":1703596069,"current_range_meters":8400,"station_id":"ce4bhgp2rcd13ifvqfe0","pricing_plan_id":"free"},{"bike_id":"0ba5278f-fff4-4ae0-aaa9-b70917234f52","system_id":"levelo_inurba_marseille","lat":43.2732,"lon":5.39088,"is_reserved":false,"is_disabled":false,"rental_uris":{"android":"levelo://app?vid=0ba5278f-fff4-4ae0-aaa9-b70917234f52","ios":"levelo://app?vid=0ba5278f-fff4-4ae0-aaa9-b70917234f52"},"vehicle_type_id":"4","last_reported":1703596069,"current_range_meters":31200,"station_id":"ce4bhgp2rcd13ifvqfe0","pricing_plan_id":"free"},{"bike_id":"1d15b6fb-4c0e-4446-a794-4d1a49148511","system_id":"levelo_inurba_marseille","lat":43.274103,"lon":5.394016,"is_reserved":false,"is_disabled":false,"rental_uris":{"android":"levelo://app?vid=1d15b6fb-4c0e-4446-a794-4d1a49148511","ios":"levelo://app?vid=1d15b6fb-4c0e-4446-a794-4d1a49148511"},"vehicle_type_id":"4","last_reported":1703596069,"current_range_meters":12800,"station_id":"ce4bhdp2rcd13ifvqf20","pricing_plan_id":"free"},{"bike_id":"a033d72a-273f-4ee2-8235-783f52ac2440","system_id":"levelo_inurba_marseille","lat":43.273129,"lon":5.390725,"is_reserved":false,"is_disabled":false,"rental_uris":{"android":"levelo://app?vid=a033d72a-273f-4ee2-8235-783f52ac2440","ios":"levelo://app?vid=a033d72a-273f-4ee2-8235-783f52ac2440"},"vehicle_type_id":"4","last_reported":1703596069,"current_range_meters":25600,"station_id":"ce4bhgp2rcd13ifvqfe0","pricing_plan_id":"free"},{"bike_id":"a560a2ea-8ecf-46bf-a032-95ed52ede487","system_id":"levelo_inurba_marseille","lat":43.273129,"lon":5.390725,"is_reserved":false,"is_disabled":false,"rental_uris":{"android":"levelo://app?vid=a560a2ea-8ecf-46bf-a032-95ed52ede487","ios":"levelo://app?vid=a560a2ea-8ecf-46bf-a032-95ed52ede487"},"vehicle_type_id":"4","last_reported":1703596069,"current_range_meters":22400,"station_id":"ce4bhgp2rcd13ifvqfe0","pricing_plan_id":"free"},{"bike_id":"1c1ad0a5-6c3a-434e-a0c3-306aac6496d8","system_id":"levelo_inurba_marseille","lat":43.27314,"lon":5.39091,"is_reserved":false,"is_disabled":false,"rental_uris":{"android":"levelo://app?vid=1c1ad0a5-6c3a-434e-a0c3-306aac6496d8","ios":"levelo://app?vid=1c1ad0a5-6c3a-434e-a0c3-306aac6496d8"},"vehicle_type_id":"4","last_reported":1703596069,"current_range_meters":24800,"station_id":"ce4bhgp2rcd13ifvqfe0","pricing_plan_id":"free"},{"bike_id":"d1e397f3-b139-4ced-98a7-ebc706af9675","system_id":"levelo_inurba_marseille","lat":43.304096,"lon":5.425385,"is_reserved":false,"is_disabled":false,"rental_uris":{"android":"levelo://app?vid=d1e397f3-b139-4ced-98a7-ebc706af9675","ios":"levelo://app?vid=d1e397f3-b139-4ced-98a7-ebc706af9675"},"vehicle_type_id":"4","last_reported":1703596069,"current_range_meters":1600,"station_id":"ce4bhoh2rcd13ifvqh6g","pricing_plan_id":"free"},{"bike_id":"f6133491-ff83-415f-8a7d-195abfef63a4","system_id":"levelo_inurba_marseille","lat":43.304096,"lon":5.425385,"is_reserved":false,"is_disabled":false,"rental_uris":{"android":"levelo://app?vid=f6133491-ff83-415f-8a7d-195abfef63a4","ios":"levelo://app?vid=f6133491-ff83-415f-8a7d-195abfef63a4"},"vehicle_type_id":"4","last_reported":1703596069,"current_range_meters":28800,"station_id":"ce4bhoh2rcd13ifvqh6g","pricing_plan_id":"free"},{"bike_id":"f0480aff-1f9b-4adf-898b-b9e54070d8ae","system_id":"levelo_inurba_marseille","lat":43.304096,"lon":5.425385,"is_reserved":false,"is_disabled":false,"rental_uris":{"android":"levelo://app?vid=f0480aff-1f9b-4adf-898b-b9e54070d8ae","ios":"levelo://app?vid=f0480aff-1f9b-4adf-898b-b9e54070d8ae"},"vehicle_type_id":"4","last_reported":1703596069,"current_range_meters":24400,"station_id":"ce4bhoh2rcd13ifvqh6g","pricing_plan_id":"free"},{"bike_id":"41382738-9e52-4dc6-a61d-5eed9f020555","system_id":"levelo_inurba_marseille","lat":43.304096,"lon":5.425385,"is_reserved":false,"is_disabled":false,"rental_uris":{"android":"levelo://app?vid=41382738-9e52-4dc6-a61d-5eed9f020555","ios":"levelo://app?vid=41382738-9e52-4dc6-a61d-5eed9f020555"},"vehicle_type_id":"4","last_reported":1703596069,"current_range_meters":18400,"station_id":"ce4bhoh2rcd13ifvqh6g","pricing_plan_id":"free"},{"bike_id":"e192df68-2c2b-482d-b6fd-3b8920434290","system_id":"levelo_inurba_marseille","lat":43.295523,"lon":5.422926,"is_reserved":false,"is_disabled":false,"rental_uris":{"android":"levelo://app?vid=e192df68-2c2b-482d-b6fd-3b8920434290","ios":"levelo://app?vid=e192df68-2c2b-482d-b6fd-3b8920434290"},"vehicle_type_id":"4","last_reported":1703596069,"current_range_meters":31200,"station_id":"ce4bhph2rcd13ifvqhdg","pricing_plan_id":"free"},{"bike_id":"71515108-b0b9-4c99-bbc5-9ac366a2c43a","system_id":"levelo_inurba_marseille","lat":43.295511,"lon":5.422926,"is_reserved":false,"is_disabled":false,"rental_uris":{"android":"levelo://app?vid=71515108-b0b9-4c99-bbc5-9ac366a2c43a","ios":"levelo://app?vid=71515108-b0b9-4c99-bbc5-9ac366a2c43a"},"vehicle_type_id":"4","last_reported":1703596069,"current_range_meters":27200,"station_id":"ce4bhph2rcd13ifvqhdg","pricing_plan_id":"free"},{"bike_id":"cb6b2288-2fd3-4282-94eb-683acd48348a","system_id":"levelo_inurba_marseille","lat":43.295511,"lon":5.422926,"is_reserved":false,"is_disabled":false,"rental_uris":{"android":"levelo://app?vid=cb6b2288-2fd3-4282-94eb-683acd48348a","ios":"levelo://app?vid=cb6b2288-2fd3-4282-94eb-683acd48348a"},"vehicle_type_id":"4","last_reported":1703596069,"current_range_meters":28400,"station_id":"ce4bhph2rcd13ifvqhdg","pricing_plan_id":"free"},{"bike_id":"5b8be4a2-9e7a-457f-b482-e2479c2a3178","system_id":"levelo_inurba_marseille","lat":43.295511,"lon":5.422926,"is_reserved":false,"is_disabled":false,"rental_uris":{"android":"levelo://app?vid=5b8be4a2-9e7a-457f-b482-e2479c2a3178","ios":"levelo://app?vid=5b8be4a2-9e7a-457f-b482-e2479c2a3178"},"vehicle_type_id":"4","last_reported":1703596069,"current_range_meters":31200,"station_id":"ce4bhph2rcd13ifvqhdg","pricing_plan_id":"free"},{"bike_id":"b25844a5-727a-4c38-9d28-285f48cb7d43","system_id":"levelo_inurba_marseille","lat":43.295523,"lon":5.422926,"is_reserved":false,"is_disabled":false,"rental_uris":{"android":"levelo://app?vid=b25844a5-727a-4c38-9d28-285f48cb7d43","ios":"levelo://app?vid=b25844a5-727a-4c38-9d28-285f48cb7d43"},"vehicle_type_id":"4","last_reported":1703596069,"current_range_meters":26800,"station_id":"ce4bhph2rcd13ifvqhdg","pricing_plan_id":"free"},