{"last_updated":1683313488,"ttl":30,"version":"2.2","data":{"bikes":[{"bike_id":"2d7cf203-56a1-4fa2-856f-44b49ed45750","system_id":"levelo_inurba_marseille","lat":43.31341,"lon":5.367098,"is_reserved":false,"is_disabled":false,"rental_uris":{"android":"levelo://app?vid=2d7cf203-56a1-4fa2-856f-44b49ed45750","ios":"levelo://app?vid=2d7cf203-56a1-4fa2-856f-44b49ed45750"},"vehicle_type_id":"4","last_reported":1683313489,"current_range_meters":7200,"station_id":"ce4bgr92rcd13ifvqc6g","pricing_plan_id":"free"},{"bike_id":"ddf4fa75-1830-4b76-9606-b4da80a2cae6","system_id":"levelo_inurba_marseille","lat":43.313391,"lon":5.36706,"is_reserved":false,"is_disabled":false,"rental_uris":{"android":"levelo://app?vid=ddf4fa75-1830-4b76-9606-b4da80a2cae6","ios":"levelo://app?vid=ddf4fa75-1830-4b76-9606-b4da80a2cae6"},"vehicle_type_id":"4","last_reported":1683313489,"current_range_meters":12000,"station_id":"ce4bgr92rcd13ifvqc6g","pricing_plan_id":"free"},{"bike_id":"24720100-3391-4a13-8788-5372779897b5","system_id":"levelo_inurba_marseille","lat":43.313391,"lon":5.36706,"is_reserved":false,"is_disabled":false,"rental_uris":{"android":"levelo://app?vid=24720100-3391-4a13-8788-5372779897b5","ios":"levelo://app?vid=24720100-3391-4a13-8788-5372779897b5"},"vehicle_type_id":"4","last_reported":1683313489,"current_range_meters":23200,"station_id":"ce4bgr92rcd13ifvqc6g","pricing_plan_id":"free"},{"bike_id":"416ed621-5dcc-411b-af7a-78886df8b686","system_id":"levelo_inurba_marseille","lat":43.312239,"lon":5.368562,"is_reserved":false,"is_disabled":false,"rental_uris":{"android":"levelo://app?vid=416ed621-5dcc-411b-af7a-78886df8b686","ios":"levelo://app?vid=416ed621-5dcc-411b-af7a-78886df8b686"},"vehicle_type_id":"4","last_reported":1683313489,"current_range_meters":30000,"station_id":"ce4bgl92rcd13ifvqbq0","pricing_plan_id":"free"},{"bike_id":"c7f5d670-55b4-46e6-a645-f39184bf4a98","system_id":"levelo_inurba_marseille","lat":43.312239,"lon":5.368562,"is_reserved":false,"is_disabled":false,"rental_uris":{"android":"levelo://app?vid=c7f5d670-55b4-46e6-a645-f39184bf4a98","ios":"levelo://app?vid=c7f5d670-55b4-46e6-a645-f39184bf4a98"},"vehicle_type_id":"4","last_reported":1683313489,"current_range_meters":18800,"station_id":"ce4bgl92rcd13ifvqbq0","pricing_plan_id":"free"},{"bike_id":"bb568394-42b9-46ab-8803-ee22c5703ae7","system_id":"levelo_inurba_marseille","lat":43.312239,"lon":5.368562,"is_reserved":false,"is_disabled":false,"rental_uris":{"android":"levelo://app?vid=bb568394-42b9-46ab-8803-ee22c5703ae7","ios":"levelo://app?vid=bb568394-42b9-46ab-8803-ee22c5703ae7"},"vehicle_type_id":"4","last_reported":1683313489,"current_range_meters":24400,"station_id":"ce4bgl92rcd13ifvqbq0","pricing_plan_id":"free"},{"bike_id":"9f3a22c1-d25f-42a6-98e0-371109874fb1","system_id":"levelo_inurba_marseille","lat":43.312239,"lon":5.368562,"is_reserved":false,"is_disabled":false,"rental_uris":{"android":"levelo://app?vid=9f3a22c1-d25f-42a6-98e0-371109874fb1","ios":"levelo://app?vid=9f3a22c1-d25f-42a6-98e0-371109874fb1"},"vehicle_type_id":"4","last_reported":1683313489,"current_range_meters":31200,"station_id":"ce4bgl92rcd13ifvqbq0","pricing_plan_id":"free"},{"bike_id":"ac955a2f-0eed-4ecf-81b3-de19073a212d","system_id":"levelo_inurba_marseille","lat":43.312239,"lon":5.368562,"is_reserved":false,"is_disabled":false,"rental_uris":{"android":"levelo://app?vid=ac955a2f-0eed-4ecf-81b3-de19073a212d","ios":"levelo://app?vid=ac955a2f-0eed-4ecf-81b3-de19073a212d"},"vehicle_type_id":"4","last_reported":1683313489,"current_range_meters":19200,"station_id":"ce4bgl92rcd13ifvqbq0","pricing_plan_id":"free"},{"bike_id":"1ad9d66e-a406-4536-ac42-430aa68fdfcb","system_id":"levelo_inurba_marseille","lat":43.312239,"lon":5.368562,"is_reserved":false,"is_disabled":false,"rental_uris":{"android":"levelo://app?vid=1ad9d66e-a406-4536-ac42-430aa68fdfcb","ios":"levelo://app?vid=1ad9d66e-a406-4536-ac42-430aa68fdfcb"},"vehicle_type_id":"4","last_reported":1683313489,"current_range_meters":8400,"station_id":"ce4bgl92rcd13ifvqbq0","pricing_plan_id":"free"},{"bike_id":"6592fbb7-bf54-4a16-8e53-b0529f3dd343","system_id":"levelo_inurba_marseille","lat":43.309076,"lon":5.368465,"is_reserved":false,"is_disabled":false,"rental_uris":{"android":"levelo://app?vid=6592fbb7-bf54-4a16-8e53-b0529f3dd343","ios":"levelo://app?vid=6592fbb7-bf54-4a16-8e53-b0529f3dd343"},"vehicle_type_id":"4","last_reported":1683313489,"current_range_meters":20800,"station_id":"ce4bgn92rcd13ifvqbvg","pricing_plan_id":"free"},{"bike_id":"c5d9a6d2-9be9-4018-b369-f176440792a5","system_id":"levelo_inurba_marseille","lat":43.309076,"lon":5.368465,"is_reserved":false,"is_disabled":false,"rental_uris":{"android":"levelo://app?vid=c5d9a6d2-9be9-4018-b369-f176440792a5","ios":"levelo://app?vid=c5d9a6d2-9be9-4018-b369-f176440792a5"},"vehicle_type_id":"4","last_reported":1683313489,"current_range_meters":31200,"station_id":"ce4bgn92rcd13ifvqbvg","pricing_plan_id":"free"},{"bike_id":"565d7659-6781-4e6d-8c19-f9f7424c5bf2","system_id":"levelo_inurba_marseille","lat":43.309076,"lon":5.368465,"is_reserved":false,"is_disabled":false,"rental_uris":{"android":"levelo://app?vid=565d7659-6781-4e6d-8c19-f9f7424c5bf2","ios":"levelo://app?vid=565d7659-6781-4e6d-8c19-f9f7424c5bf2"},"vehicle_type_id":"4","last_reported":1683313489,"current_range_meters":31200,"station_id":"ce4bgn92rcd13ifvqbvg","pricing_plan_id":"free"},{"bike_id":"1bb5e3e5-29d9-4ac1-89a0-b9360780b6ea","system_id":"levelo_inurba_marseille","lat":43.309076,"lon":5.368465,"is_reserved":false,"is_disabled":false,"rental_uris":{"android":"levelo://app?vid=1bb5e3e5-29d9-4ac1-89a0-b9360780b6ea","ios":"levelo://app?vid=1bb5e3e5-29d9-4ac1-89a0-b9360780b6ea"},"vehicle_type_id":"4","last_reported":1683313489,"current_range_meters":5200,"station_id":"ce4bgn92rcd13ifvqbvg","pricing_plan_id":"free"},{"bike_id":"1f072171-bcaa-4b71-bd70-27714c553f1f","system_id":"levelo_inurba_marseille","lat":43.309076,"lon":5.368465,"is_reserved":false,"is_disabled":false,"rental_uris":{"android":"levelo://app?vid=1f072171-bcaa-4b71-bd70-27714c553f1f","ios":"levelo://app?vid=1f072171-bcaa-4b71-bd70-27714c553f1f"},"vehicle_type_id":"4","last_reported":1683313489,"current_range_meters":22400,"station_id":"ce4bgn92rcd13ifvqbvg","pricing_plan_id":"free"},{"bike_id":"490bc326-36f3-41ad-9ea9-e54d49406d8f","system_id":"levelo_inurba_marseille","lat":43.309076,"lon":5.368465,"is_reserved":false,"is_disabled":false,"rental_uris":{"android":"levelo://app?vid=490bc326-36f3-41ad-9ea9-e54d49406d8f","ios":"levelo://app?vid=490bc326-36f3-41ad-9ea9-e54d49406d8f"},"vehicle_type_id":"4","last_reported":1683313489,"current_range_meters":31200,"station_id":"ce4bgn92rcd13ifvqbvg","pricing_plan_id":"free"},{"bike_id":"82e580a3-1898-4001-8480-ea07307d7460","system_id":"levelo_inurba_marseille","lat":43.3148,"lon":5.373044,"is_reserved":false,"is_disabled":false,"rental_uris":{"android":"levelo://app?vid=82e580a3-1898-4001-8480-ea07307d7460","ios":"levelo://app?vid=82e580a3-1898-4001-8480-ea07307d7460"},"vehicle_type_id":"4","last_reported":1683313489,"current_range_meters":18800,"station_id":"ce4bgt12rcd13ifvqcd0","pricing_plan_id":"free"},{"bike_id":"6b90f7c2-15bb-426f-a9ef-84a11f737857","system_id":"levelo_inurba_marseille","lat":43.314811,"lon":5.373103,"is_reserved":false,"is_disabled":false,"rental_uris":{"android":"levelo://app?vid=6b90f7c2-15bb-426f-a9ef-84a11f737857","ios":"levelo://app?vid=6b90f7c2-15bb-426f-a9ef-84a11f737857"},"vehicle_type_id":"4","last_reported":1683313489,"current_range_meters":400,"station_id":"ce4bgt12rcd13ifvqcd0","pricing_plan_id":"free"},{"bike_id":"f7b0d8fb-3588-4d0a-9814-8901f1eab93d","system_id":"levelo_inurba_marseille","lat":43.314811,"lon":5.373103,"is_reserved":false,"is_disabled":false,"rental_uris":{"android":"levelo://app?vid=f7b0d8fb-3588-4d0a-9814-8901f1eab93d","ios":"levelo://app?vid=f7b0d8fb-3588-4d0a-9814-8901f1eab93d"},"vehicle_type_id":"4","last_reported":1683313489,"current_range_meters":5200,"station_id":"ce4bgt12rcd13ifvqcd0","pricing_plan_id":"free"},{"bike_id":"11236616-13b1-4d37-ab5e-f3f69064131a","system_id":"levelo_inurba_marseille","lat":43.308614,"lon":5.372098,"is_reserved":false,"is_disabled":false,"rental_uris":{"android":"levelo://app?vid=11236616-13b1-4d37-ab5e-f3f69064131a","ios":"levelo://app?vid=11236616-13b1-4d37-ab5e-f3f69064131a"},"vehicle_type_id":"4","last_reported":1683313489,"current_range_meters":30400,"station_id":"ce4bguh2rcd13ifvqckg","pricing_plan_id":"free"},{"bike_id":"611accda-3a05-4735-ae96-3bfb160a30ce","system_id":"levelo_inurba_marseille","lat":43.308614,"lon":5.372098,"is_reserved":false,"is_disabled":false,"rental_uris":{"android":"levelo://app?vid=611accda-3a05-4735-ae96-3bfb160a30ce","ios":"levelo://app?vid=611accda-3a05-4735-ae96-3bfb160a30ce"},"vehicle_type_id":"4","last_reported":1683313489,"current_range_meters":28800,"station_id":"ce4bguh2rcd13ifvqckg","pricing_plan_id":"free"},{"bike_id":"8758a7cd-8f5b-45a4-bb37-ff66c57afd03","system_id":"levelo_inurba_marseille","lat":43.308614,"lon":5.372098,"is_reserved":false,"is_disabled":false,"rental_uris":{"android":"levelo://app?vid=8758a7cd-8f5b-45a4-bb37-ff66c57afd03","ios":"levelo://app?vid=8758a7cd-8f5b-45a4-bb37-ff66c57afd03"},"vehicle_type_id":"4","last_reported":1683313489,"current_range_meters":30800,"station_id":"ce4bguh2rcd13ifvqckg","pricing_plan_id":"free"},{"bike_id":"26c8babe-fcba-4929-8132-72531cf3dcc4","system_id":"levelo_inurba_marseille","lat":43.308614,"lon":5.372098,"is_reserved":false,"is_disabled":false,"rental_uris":{"android":"levelo://app?vid=26c8babe-fcba-4929-8132-72531cf3dcc4","ios":"levelo://app?vid=26c8babe-fcba-4929-8132-72531cf3dcc4"},"vehicle_type_id":"4","last_reported":1683313489,"current_range_meters":20800,"station_id":"ce4bguh2rcd13ifvqckg","pricing_plan_id":"free"},{"bike_id":"493dd9c0-c49f-4406-8836-c423cc588ed5","system_id":"levelo_inurba_marseille","lat":43.308614,"lon":5.372098,"is_reserved":false,"is_disabled":false,"rental_uris":{"android":"levelo://app?vid=493dd9c0-c49f-4406-8836-c423cc588ed5","ios":"levelo://app?vid=493dd9c0-c49f-4406-8836-c423cc588ed5"},"vehicle_type_id":"4","last_reported":1683313489,"current_range_meters":28800,"station_id":"ce4bguh2rcd13ifvqckg","pricing_plan_id":"free"},{"bike_id":"f4832e3a-8042-4982-8bce-4d581074892c","system_id":"levelo_inurba_marseille","lat":43.308614,"lon":5.372098,"is_reserved":false,"is_disabled":false,"rental_uris":{"android":"levelo://app?vid=f4832e3a-8042-4982-8bce-4d581074892c","ios":"levelo://app?vid=f4832e3a-8042-4982-8bce-4d581074892c"},"vehicle_type_id":"4","last_reported":1683313489,"current_range_meters":29200,"station_id":"ce4bguh2rcd13ifvqckg","pricing_plan_id":"free"},{"bike_id":"5c21fbf5-ae6b-4172-9b9f-9966c555ae73","system_id":"levelo_inurba_marseille","lat":43.308614,"lon":5.372098,"is_reserved":false,"is_disabled":false,"rental_uris":{"android":"levelo://app?vid=5c21fbf5-ae6b-4172-9b9f-9966c555ae73","ios":"levelo://app?vid=5c21fbf5-ae6b-4172-9b9f-9966c555ae73"},"vehicle_type_id":"4","last_reported":1683313489,"current_range_meters":0,"station_id":"ce4bguh2rcd13ifvqckg","pricing_plan_id":"free"},{"bike_id":"a41da47d-2c71-4355-b6be-09ff9d0f5448","system_id":"levelo_inurba_marseille","lat":43.308614,"lon":5.372098,"is_reserved":false,"is_disabled":false,"rental_uris":{"android":"levelo://app?vid=a41da47d-2c71-4355-b6be-09ff9d0f5448","ios":"levelo://app?vid=a41da47d-2c71-4355-b6be-09ff9d0f5448"},"vehicle_type_id":"4","last_reported":1683313489,"current_range_meters":31200,"station_id":"ce4bguh2rcd13ifvqckg","pricing_plan_id":"free"},{"bike_id":"caea2489-5a5d-4f00-8e78-8c319f8ed68e","system_id":"levelo_inurba_marseille","lat":43.3057,"lon":5.36553,"is_reserved":false,"is_disabled":false,"rental_uris":{"android":"levelo://app?vid=caea2489-5a5d-4f00-8e78-8c319f8ed68e","ios":"levelo://app?vid=caea2489-5a5d-4f00-8e78-8c319f8ed68e"},"vehicle_type_id":"4","last_reported":1683313489,"current_range_meters":10800,"station_id":"","pricing_plan_id":"free"},{"bike_id":"d4e5d4fa-31cf-4a72-9245-1761fa6e7b72","system_id":"levelo_inurba_marseille","lat":43.305368,"lon":5.367343,"is_reserved":false,"is_disabled":false,"rental_uris":{"android":"levelo://app?vid=d4e5d4fa-31cf-4a72-9245-1761fa6e7b72","ios":"levelo://app?vid=d4e5d4fa-31cf-4a72-9245-1761fa6e7b72"},"vehicle_type_id":"4","last_reported":1683313489,"current_range_meters":12800,"station_id":"ce4bgrp2rcd13ifvqc9g","pricing_plan_id":"free"},{"bike_id":"b7a1f3bb-da4c-4e47-b853-df8fa9709b7d","system_id":"levelo_inurba_marseille","lat":43.305714,"lon":5.365633,"is_reserved":false,"is_disabled":false,"rental_uris":{"android":"levelo://app?vid=b7a1f3bb-da4c-4e47-b853-df8fa9709b7d","ios":"levelo://app?vid=b7a1f3bb-da4c-4e47-b853-df8fa9709b7d"},"vehicle_type_id":"4","last_reported":1683313489,"current_range_meters":6400,"station_id":"ce4bgs12rcd13ifvqcag","pricing_plan_id":"free"},{"bike_id":"786bc758-f13e-45a3-95eb-062685a7c435","system_id":"levelo_inurba_marseille","lat":43.305989,"lon":5.37225,"is_reserved":false,"is_disabled":false,"rental_uris":{"android":"levelo://app?vid=786bc758-f13e-45a3-95eb-062685a7c435","ios":"levelo://app?vid=786bc758-f13e-45a3-95eb-062685a7c435"},"vehicle_type_id":"4","last_reported":1683313489,"current_range_meters":8000,"station_id":"ce4bgqh2rcd13ifvqc4g","pricing_plan_id":"free"},{"bike_id":"249d009e-a16d-4002-9565-05b114f4cf2a","system_id":"levelo_inurba_marseille","lat":43.305989,"lon":5.37225,"is_reserved":false,"is_disabled":false,"rental_uris":{"android":"levelo://app?vid=249d009e-a16d-4002-9565-05b114f4cf2a","ios":"levelo://app?vid=249d009e-a16d-4002-9565-05b114f4cf2a"},"vehicle_type_id":"4","last_reported":1683313489,"current_range_meters":24400,"station_id":"ce4bgqh2rcd13ifvqc4g","pricing_plan_id":"free"},{"bike_id":"275d4618-9e89-4cd1-8df4-6b9ecb7c445a","system_id":"levelo_inurba_marseille","lat":43.305989,"lon":5.37225,"is_reserved":false,"is_disabled":false,"rental_uris":{"android":"levelo://app?vid=275d4618-9e89-4cd1-8df4-6b9ecb7c445a","ios":"levelo://app?vid=275d4618-9e89-4cd1-8df4-6b9ecb7c445a"},"vehicle_type_id":"4","last_reported":1683313489,"current_range_meters":3200,"station_id":"ce4bgqh2rcd13ifvqc4g","pricing_plan_id":"free"},{"bike_id":"d63c9a0d-2b67-44c3-a597-59699e6a0ce1","system_id":"levelo_inurba_marseille","lat":43.305989,"lon":5.37225,"is_reserved":false,"is_disabled":false,"rental_uris":{"android":"levelo://app?vid=d63c9a0d-2b67-44c3-a597-59699e6a0ce1","ios":"levelo://app?vid=d63c9a0d-2b67-44c3-a597-59699e6a0ce1"},"vehicle_type_id":"4","last_reported":1683313489,"current_range_meters":28000,"station_id":"ce4bgqh2rcd13ifvqc4g","pricing_plan_id":"free"},{"bike_id":"2e816221-8604-4fe9-a66f-0f2c556458a4","system_id":"levelo_inurba_marseille","lat":43.305989,"lon":5.37225,"is_reserved":false,"is_disabled":false,"rental_uris":{"android":"levelo://app?vid=2e816221-8604-4fe9-a66f-0f2c556458a4","ios":"levelo://app?vid=2e816221-8604-4fe9-a66f-0f2c556458a4"},"vehicle_type_id":"4","last_reported":1683313489,"current_range_meters":16000,"station_id":"ce4bgqh2rcd13ifvqc4g","pricing_plan_id":"free"},{"bike_id":"a880c7cf-1d50-4daf-850b-4af6850ee458","system_id":"levelo_inurba_marseille","lat":43.305989,"lon":5.37225,"is_reserved":false,"is_disabled":false,"rental_uris":{"android":"levelo://app?vid=a880c7cf-1d50-4daf-850b-4af6850ee458","ios":"levelo://app?vid=a880c7cf-1d50-4daf-850b-4af6850ee458"},"vehicle_type_id":"4","last_reported":1683313489,"current_range_meters":25600,"station_id":"ce4bgqh2rcd13ifvqc4g","pricing_plan_id":"free"},{"bike_id":"4a4d6ac7-929f-4743-bf1b-c5d837398877","system_id":"levelo_inurba_marseille","lat":43.317075,"lon":5.377367,"is_reserved":false,"is_disabled":false,"rental_uris":{"android":"levelo://app?vid=4a4d6ac7-929f-4743-bf1b-c5d837398877","ios":"levelo://app?vid=4a4d6ac7-929f-4743-bf1b-c5d837398877"},"vehicle_type_id":"4","last_reported":1683313489,"current_range_meters":21600,"station_id":"ce4bgth2rcd13ifvqch0","pricing_plan_id":"free"},{"bike_id":"2a9ba982-b2b3-404c-9cd8-3013399dd421","system_id":"levelo_inurba_marseille","lat":43.317075,"lon":5.377367,"is_reserved":false,"is_disabled":false,"rental_uris":{"android":"levelo://app?vid=2a9ba982-b2b3-404c-9cd8-3013399dd421","ios":"levelo://app?vid=2a9ba982-b2b3-404c-9cd8-3013399dd421"},"vehicle_type_id":"4","last_reported":1683313489,"current_range_meters":12800,"station_id":"ce4bgth2rcd13ifvqch0","pricing_plan_id":"free"},{"bike_id":"0ceddf03-75b7-4dff-ba07-11950b87c5d3","system_id":"levelo_inurba_marseille","lat":43.317075,"lon":5.377367,"is_reserved":false,"is_disabled":false,"rental_uris":{"android":"levelo://app?vid=0ceddf03-75b7-4dff-ba07-11950b87c5d3","ios":"levelo://app?vid=0ceddf03-75b7-4dff-ba07-11950b87c5d3"},"vehicle_type_id":"4","last_reported":1683313489,"current_range_meters":16000,"station_id":"ce4bgth2rcd13ifvqch0","pricing_plan_id":"free"},{"bike_id":"8170f3b4-b1c3-4994-93d8-7121a498d044","system_id":"levelo_inurba_marseille","lat":43.315289,"lon":5.380349,"is_reserved":false,"is_disabled":false,"rental_uris":{"android":"levelo://app?vid=8170f3b4-b1c3-4994-93d8-7121a498d044","ios":"levelo://app?vid=8170f3b4-b1c3-4994-93d8-7121a498d044"},"vehicle_type_id":"4","last_reported":1683313489,"current_range_meters":10800,"station_id":"ce4bhsp2rcd13ifvqi50","pricing_plan_id":"free"},{"bike_id":"d44ef1b5-aa87-494f-b80b-d91982363150","system_id":"levelo_inurba_marseille","lat":43.315289,"lon":5.380349,"is_reserved":false,"is_disabled":false,"rental_uris":{"android":"levelo://app?vid=d44ef1b5-aa87-494f-b80b-d91982363150","ios":"levelo://app?vid=d44ef1b5-aa87-494f-b80b-d91982363150"},"vehicle_type_id":"4","last_reported":1683313489,"current_range_meters":29200,"station_id":"ce4bhsp2rcd13ifvqi50","pricing_plan_id":"free"},{"bike_id":"6646f385-7df2-4aa2-8f2d-7587e9a3c28a","system_id":"levelo_inurba_marseille","lat":43.315293,"lon":5.380349,"is_reserved":false,"is_disabled":false,"rental_uris":{"android":"levelo://app?vid=6646f385-7df2-4aa2-8f2d-7587e9a3c28a","ios":"levelo://app?vid=6646f385-7df2-4aa2-8f2d-7587e9a3c28a"},"vehicle_type_id":"4","last_reported":1683313489,"current_range_meters":25200,"station_id":"ce4bhsp2rcd13ifvqi50","pricing_plan_id":"free"},{"bike_id":"5615e51f-1f47-461e-ac11-f8d0d69e43dc","system_id":"levelo_inurba_marseille","lat":43.315289,"lon":5.380349,"is_reserved":false,"is_disabled":false,"rental_uris":{"android":"levelo://app?vid=5615e51f-1f47-461e-ac11-f8d0d69e43dc","ios":"levelo://app?vid=5615e51f-1f47-461e-ac11-f8d0d69e43dc"},"vehicle_type_id":"4","last_reported":1683313489,"current_range_meters":0,"station_id":"ce4bhsp2rcd13ifvqi50","pricing_plan_id":"free"},{"bike_id":"2c092c6e-cbde-4ca9-bad6-4a4c87e328f7","system_id":"levelo_inurba_marseille","lat":43.301939,"lon":5.366286,"is_reserved":false,"is_disabled":false,"rental_uris":{"android":"levelo://app?vid=2c092c6e-cbde-4ca9-bad6-4a4c87e328f7","ios":"levelo://app?vid=2c092c6e-cbde-4ca9-bad6-4a4c87e328f7"},"vehicle_type_id":"4","last_reported":1683313489,"current_range_meters":800,"station_id":"ce4bgrh2rcd13ifvqc8g","pricing_plan_id":"free"},{"bike_id":"e2b9bcd8-fece-4518-9004-3f92942a729c","system_id":"levelo_inurba_marseille","lat":43.301939,"lon":5.366286,"is_reserved":false,"is_disabled":false,"rental_uris":{"android":"levelo://app?vid=e2b9bcd8-fece-4518-9004-3f92942a729c","ios":"levelo://app?vid=e2b9bcd8-fece-4518-9004-3f92942a729c"},"vehicle_type_id":"4","last_reported":1683313489,"current_range_meters":800,"station_id":"ce4bgrh2rcd13ifvqc8g","pricing_plan_id":"free"},{"bike_id":"14d17bd8-0bbf-4222-a033-78de0f0ec2ab","system_id":"levelo_inurba_marseille","lat":43.301939,"lon":5.366286,"is_reserved":false,"is_disabled":false,"rental_uris":{"android":"levelo://app?vid=14d17bd8-0bbf-4222-a033-78de0f0ec2ab","ios":"levelo://app?vid=14d17bd8-0bbf-4222-a033-78de0f0ec2ab"},"vehicle_type_id":"4","last_reported":1683313489,"current_range_meters":4000,"station_id":"ce4bgrh2rcd13ifvqc8g","pricing_plan_id":"free"},{"bike_id":"c5b476e3-d988-4be1-95e8-9e8f86c1a014","system_id":"levelo_inurba_marseille","lat":43.308012,"lon":5.381511,"is_reserved":false,"is_disabled":false,"rental_uris":{"android":"levelo://app?vid=c5b476e3-d988-4be1-95e8-9e8f86c1a014","ios":"levelo://app?vid=c5b476e3-d988-4be1-95e8-9e8f86c1a014"},"vehicle_type_id":"4","last_reported":1683313489,"current_range_meters":0,"station_id":"ce4bgt12rcd13ifvqce0","pricing_plan_id":"free"},{"bike_id":"0d921131-f37e-42d3-a942-d82477716baa","system_id":"levelo_inurba_marseille","lat":43.308012,"lon":5.381511,"is_reserved":false,"is_disabled":false,"rental_uris":{"android":"levelo://app?vid=0d921131-f37e-42d3-a942-d82477716baa","ios":"levelo://app?vid=0d921131-f37e-42d3-a942-d82477716baa"},"vehicle_type_id":"4","last_reported":1683313489,"current_range_meters":0,"station_id":"ce4bgt12rcd13ifvqce0","pricing_plan_id":"free"},{"bike_id":"55623f64-d8ba-424f-850e-5c9caf10fe3b","system_id":"levelo_inurba_marseille","lat":43.308012,"lon":5.381511,"is_reserved":false,"is_disabled":false,"rental_uris":{"android":"levelo://app?vid=55623f64-d8ba-424f-850e-5c9caf10fe3b","ios":"levelo://app?vid=55623f64-d8ba-424f-850e-5c9caf10fe3b"},"vehicle_type_id":"4","last_reported":1683313489,"current_range_meters":5600,"station_id":"ce4bgt12rcd13ifvqce0","pricing_plan_id":"free"},{"bike_id":"ff89da6a-0bd2-4c86-ae4f-409df56c195a","system_id":"levelo_inurba_marseille","lat":43.304606,"lon":5.379026,"is_reserved":false,"is_disabled":false,"rental_uris":{"android":"levelo://app?vid=ff89da6a-0bd2-4c86-ae4f-409df56c195a","ios":"levelo://app?vid=ff89da6a-0bd2-4c86-ae4f-409df56c195a"},"vehicle_type_id":"4","last_reported":1683313489,"current_range_meters":27200,"station_id":"ce4bgup2rcd13ifvqcn0","pricing_plan_id":"free"},{"bike_id":"180dfe95-08a9-477a-aa09-1818f8099e75","system_id":"levelo_inurba_marseille","lat":43.304606,"lon":5.379026,"is_reserved":false,"is_disabled":false,"rental_uris":{"android":"levelo://app?vid=180dfe95-08a9-477a-aa09-1818f8099e75","ios":"levelo://app?vid=180dfe95-08a9-477a-aa09-1818f8099e75"},"vehicle_type_id":"4","last_reported":1683313489,"current_range_meters":6800,"station_id":"ce4bgup2rcd13ifvqcn0","pricing_plan_id":"free"},{"bike_id":"0941c591-ea69-49fc-984b-d13a3407c625","system_id":"levelo_inurba_marseille","lat":43.304606,"lon":5.379026,"is_reserved":false,"is_disabled":false,"rental_uris":{"android":"levelo://app?vid=0941c591-ea69-49fc-984b-d13a3407c625","ios":"levelo://app?vid=0941c591-ea69-49fc-984b-d13a3407c625"},"vehicle_type_id":"4","last_reported":1683313489,"current_range_meters":18400,"station_id":"ce4bgup2rcd13ifvqcn0","pricing_plan_id":"free"},{"bike_id":"5d895b6d-a6b5-465c-815b-cdd569dd3bc2","system_id":"levelo_inurba_marseille","lat":43.304606,"lon":5.379026,"is_reserved":false,"is_disabled":false,"rental_uris":{"android":"levelo://app?vid=5d895b6d-a6b5-465c-815b-cdd569dd3bc2","ios":"levelo://app?vid=5d895b6d-a6b5-465c-815b-cdd569dd3bc2"},"vehicle_type_id":"4","last_reported":1683313489,"current_range_meters":1600,"station_id":"ce4bgup2rcd13ifvqcn0","pricing_plan_id":"free"},{"bike_id":"ef7f11df-80f0-499a-9e96-036dada902df","system_id":"levelo_inurba_marseille","lat":43.30144,"lon":5.37417,"is_reserved":false,"is_disabled":false,"rental_uris":{"android":"levelo://app?vid=ef7f11df-80f0-499a-9e96-036dada902df","ios":"levelo://app?vid=ef7f11df-80f0-499a-9e96-036dada902df"},"vehicle_type_id":"4","last_reported":1683313489,"current_range_meters":2000,"station_id":"ce4bgs92rcd13ifvqcc0","pricing_plan_id":"free"},{"bike_id":"ed823ae8-e73d-41df-b709-72e0e301e341","system_id":"levelo_inurba_marseille","lat":43.313571,"lon":5.384829,"is_reserved":false,"is_disabled":false,"rental_uris":{"android":"levelo://app?vid=ed823ae8-e73d-41df-b709-72e0e301e341","ios":"levelo://app?vid=ed823ae8-e73d-41df-b709-72e0e301e341"},"vehicle_type_id":"4","last_reported":1683313489,"current_range_meters":31600,"station_id":"ce4bgt92rcd13ifvqcf0","pricing_plan_id":"free"},{"bike_id":"3a249a4a-aa1f-4c3b-972d-b281d9c306d0","system_id":"levelo_inurba_marseille","lat":43.313571,"lon":5.384829,"is_reserved":false,"is_disabled":false,"rental_uris":{"android":"levelo://app?vid=3a249a4a-aa1f-4c3b-972d-b281d9c306d0","ios":"levelo://app?vid=3a249a4a-aa1f-4c3b-972d-b281d9c306d0"},"vehicle_type_id":"4","last_reported":1683313489,"current_range_meters":25200,"station_id":"ce4bgt92rcd13ifvqcf0","pricing_plan_id":"free"},{"bike_id":"e4c642f8-dfed-4b02-ae78-599808cd1c70","system_id":"levelo_inurba_marseille","lat":43.313571,"lon":5.384829,"is_reserved":false,"is_disabled":false,"rental_uris":{"android":"levelo://app?vid=e4c642f8-dfed-4b02-ae78-599808cd1c70","ios":"levelo://app?vid=e4c642f8-dfed-4b02-ae78-599808cd1c70"},"vehicle_type_id":"4","last_reported":1683313489,"current_range_meters":2400,"station_id":"ce4bgt92rcd13ifvqcf0","pricing_plan_id":"free"},{"bike_id":"a76499bd-49b9-4f87-b93d-482bdeea1973","system_id":"levelo_inurba_marseille","lat":43.299222,"lon":5.365554,"is_reserved":false,"is_disabled":false,"rental_uris":{"android":"levelo://app?vid=a76499bd-49b9-4f87-b93d-482bdeea1973","ios":"levelo://app?vid=a76499bd-49b9-4f87-b93d-482bdeea1973"},"vehicle_type_id":"4","last_reported":1683313489,"current_range_meters":0,"station_id":"ce4bgm92rcd13ifvqbr0","pricing_plan_id":"free"},{"bike_id":"be0a06ad-bec7-4483-8d9d-bce59039c275","system_id":"levelo_inurba_marseille","lat":43.299222,"lon":5.365554,"is_reserved":false,"is_disabled":false,"rental_uris":{"android":"levelo://app?vid=be0a06ad-bec7-4483-8d9d-bce59039c275","ios":"levelo://app?vid=be0a06ad-bec7-4483-8d9d-bce59039c275"},"vehicle_type_id":"4","last_reported":1683313489,"current_range_meters":1600,"station_id":"ce4bgm92rcd13ifvqbr0","pricing_plan_id":"free"},{"bike_id":"7d2158aa-e935-4323-9db3-a162068eaa16","system_id":"levelo_inurba_marseille","lat":43.299222,"lon":5.365554,"is_reserved":false,"is_disabled":false,"rental_uris":{"android":"levelo://app?vid=7d2158aa-e935-4323-9db3-a162068eaa16","ios":"levelo://app?vid=7d2158aa-e935-4323-9db3-a162068eaa16"},"vehicle_type_id":"4","last_reported":1683313489,"current_range_meters":400,"station_id":"ce4bgm92rcd13ifvqbr0","pricing_plan_id":"free"},{"bike_id":"3f00f0fb-aab2-47e6-ab61-9129733ce89e","system_id":"levelo_inurba_marseille","lat":43.299222,"lon":5.365554,"is_reserved":false,"is_disabled":false,"rental_uris":{"android":"levelo://app?vid=3f00f0fb-aab2-47e6-ab61-9129733ce89e","ios":"levelo://app?vid=3f00f0fb-aab2-47e6-ab61-9129733ce89e"},"vehicle_type_id":"4","last_reported":1683313489,"current_range_meters":22400,"station_id":"ce4bgm92rcd13ifvqbr0","pricing_plan_id":"free"},{"bike_id":"bcf12486-4d40-4884-969b-2c19f244a968","system_id":"levelo_inurba_marseille","lat":43.29857,"lon":5.3671,"is_reserved":false,"is_disabled":false,"rental_uris":{"android":"levelo://app?vid=bcf12486-4d40-4884-969b-2c19f244a968","ios":"levelo://app?vid=bcf12486-4d40-4884-969b-2c19f244a968"},"vehicle_type_id":"4","last_reported":1683313489,"current_range_meters":3200,"station_id":"","pricing_plan_id":"free"},{"bike_id":"5660b348-4c39-4b17-897a-29dce87612e4","system_id":"levelo_inurba_marseille","lat":43.305364,"lon":5.384119,"is_reserved":false,"is_disabled":false,"rental_uris":{"android":"levelo://app?vid=5660b348-4c39-4b17-897a-29dce87612e4","ios":"levelo://app?vid=5660b348-4c39-4b17-897a-29dce87612e4"},"vehicle_type_id":"4","last_reported":1683313489,"current_range_meters":8800,"station_id":"ce4bgg92rcd13ifvqb30","pricing_plan_id":"free"},{"bike_id":"9888a1dc-8d17-4e1c-9394-f268005dc780","system_id":"levelo_inurba_marseille","lat":43.29913,"lon":5.37461,"is_reserved":false,"is_disabled":false,"rental_uris":{"android":"levelo://app?vid=9888a1dc-8d17-4e1c-9394-f268005dc780","ios":"levelo://app?vid=9888a1dc-8d17-4e1c-9394-f268005dc780"},"vehicle_type_id":"4","last_reported":1683313489,"current_range_meters":2000,"station_id":"ce4bgjh2rcd13ifvqbg0","pricing_plan_id":"free"},{"bike_id":"ba5db858-af31-4cfe-99ff-47f4995f3617","system_id":"levelo_inurba_marseille","lat":43.328371,"lon":5.366909,"is_reserved":false,"is_disabled":false,"rental_uris":{"android":"levelo://app?vid=ba5db858-af31-4cfe-99ff-47f4995f3617","ios":"levelo://app?vid=ba5db858-af31-4cfe-99ff-47f4995f3617"},"vehicle_type_id":"4","last_reported":1683313489,"current_range_meters":18000,"station_id":"ce4bhs92rcd13ifvqi0g","pricing_plan_id":"free"},{"bike_id":"f01ec473-7fe9-47ec-852c-f195da583b5a","system_id":"levelo_inurba_marseille","lat":43.3283,"lon":5.36677,"is_reserved":false,"is_disabled":false,"rental_uris":{"android":"levelo://app?vid=f01ec473-7fe9-47ec-852c-f195da583b5a","ios":"levelo://app?vid=f01ec473-7fe9-47ec-852c-f195da583b5a"},"vehicle_type_id":"4","last_reported":1683313489,"current_range_meters":22000,"station_id":"ce4bhs92rcd13ifvqi0g","pricing_plan_id":"free"},{"bike_id":"552d195b-8276-4461-8817-9bef832a3301","system_id":"levelo_inurba_marseille","lat":43.32832,"lon":5.36678,"is_reserved":false,"is_disabled":false,"rental_uris":{"android":"levelo://app?vid=552d195b-8276-4461-8817-9bef832a3301","ios":"levelo://app?vid=552d195b-8276-4461-8817-9bef832a3301"},"vehicle_type_id":"4","last_reported":1683313489,"current_range_meters":28400,"station_id":"ce4bhs92rcd13ifvqi0g","pricing_plan_id":"free"},{"bike_id":"68fae7dd-9127-45ab-af87-1d51dc8bb480","system_id":"levelo_inurba_marseille","lat":43.32833,"lon":5.36686,"is_reserved":false,"is_disabled":false,"rental_uris":{"android":"levelo://app?vid=68fae7dd-9127-45ab-af87-1d51dc8bb480","ios":"levelo://app?vid=68fae7dd-9127-45ab-af87-1d51dc8bb480"},"vehicle_type_id":"4","last_reported":1683313489,"current_range_meters":0,"station_id":"ce4bhs92rcd13ifvqi0g","pricing_plan_id":"free"},{"bike_id":"aafcc005-5e38-4c52-a10d-6d0f89f0012b","system_id":"levelo_inurba_marseille","lat":43.302008,"lon":5.394694,"is_reserved":false,"is_disabled":false,"rental_uris":{"android":"levelo://app?vid=aafcc005-5e38-4c52-a10d-6d0f89f0012b","ios":"levelo://app?vid=aafcc005-5e38-4c52-a10d-6d0f89f0012b"},"vehicle_type_id":"4","last_reported":1683313489,"current_range_meters":8400,"station_id":"ce4bh0p2rcd13ifvqd70","pricing_plan_id":"free"},{"bike_id":"f7b326a9-ac2f-464b-94d7-70529505aaf3","system_id":"levelo_inurba_marseille","lat":43.296129,"lon":5.370777,"is_reserved":false,"is_disabled":false,"rental_uris":{"android":"levelo://app?vid=f7b326a9-ac2f-464b-94d7-70529505aaf3","ios":"levelo://app?vid=f7b326a9-ac2f-464b-94d7-70529505aaf3"},"vehicle_type_id":"4","last_reported":1683313489,"current_range_meters":14400,"station_id":"ce4bgnh2rcd13ifvqc0g","pricing_plan_id":"free"},{"bike_id":"3bf66b68-fc27-458d-9600-a7174506c9b6","system_id":"levelo_inurba_marseille","lat":43.296935,"lon":5.376544,"is_reserved":false,"is_disabled":false,"rental_uris":{"android":"levelo://app?vid=3bf66b68-fc27-458d-9600-a7174506c9b6","ios":"levelo://app?vid=3bf66b68-fc27-458d-9600-a7174506c9b6"},"vehicle_type_id":"4","last_reported":1683313489,"current_range_meters":14000,"station_id":"ce4bgkh2rcd13ifvqbl0","pricing_plan_id":"free"},{"bike_id":"9775eaca-d6bf-464b-b26d-6e46b6c12cab","system_id":"levelo_inurba_marseille","lat":43.296935,"lon":5.376544,"is_reserved":false,"is_disabled":false,"rental_uris":{"android":"levelo://app?vid=9775eaca-d6bf-464b-b26d-6e46b6c12cab","ios":"levelo://app?vid=9775eaca-d6bf-464b-b26d-6e46b6c12cab"},"vehicle_type_id":"4","last_reported":1683313489,"current_range_meters":25600,"station_id":"ce4bgkh2rcd13ifvqbl0","pricing_plan_id":"free"},{"bike_id":"35b5d55b-c7d0-4e18-bd34-2333b4760fc8","system_id":"levelo_inurba_marseille","lat":43.2991,"lon":5.38132,"is_reserved":false,"is_disabled":false,"rental_uris":{"android":"levelo://app?vid=35b5d55b-c7d0-4e18-bd34-2333b4760fc8","ios":"levelo://app?vid=35b5d55b-c7d0-4e18-bd34-2333b4760fc8"},"vehicle_type_id":"4","last_reported":1683313489,"current_range_meters":30400,"station_id":"","pricing_plan_id":"free"},{"bike_id":"06793f93-f099-4900-bbbe-a0890a1ebdc4","system_id":"levelo_inurba_marseille","lat":43.296935,"lon":5.376544,"is_reserved":false,"is_disabled":false,"rental_uris":{"android":"levelo://app?vid=06793f93-f099-4900-bbbe-a0890a1ebdc4","ios":"levelo://app?vid=06793f93-f099-4900-bbbe-a0890a1ebdc4"},"vehicle_type_id":"4","last_reported":1683313489,"current_range_meters":10800,"station_id":"ce4bgkh2rcd13ifvqbl0","pricing_plan_id":"free"},{"bike_id":"c71f383f-f349-4f8e-9706-d4c9949a2ca4","system_id":"levelo_inurba_marseille","lat":43.2971,"lon":5.37697,"is_reserved":false,"is_disabled":false,"rental_uris":{"android":"levelo://app?vid=c71f383f-f349-4f8e-9706-d4c9949a2ca4","ios":"levelo://app?vid=c71f383f-f349-4f8e-9706-d4c9949a2ca4"},"vehicle_type_id":"4","last_reported":1683313489,"current_range_meters":11200,"station_id":"","pricing_plan_id":"free"},{"bike_id":"ec8372c9-8302-42e7-9cf6-12f66c703f5d","system_id":"levelo_inurba_marseille","lat":43.299028,"lon":5.381509,"is_reserved":false,"is_disabled":false,"rental_uris":{"android":"levelo://app?vid=ec8372c9-8302-42e7-9cf6-12f66c703f5d","ios":"levelo://app?vid=ec8372c9-8302-42e7-9cf6-12f66c703f5d"},"vehicle_type_id":"4","last_reported":1683313489,"current_range_meters":29600,"station_id":"ce4bgj12rcd13ifvqbc0","pricing_plan_id":"free"},{"bike_id":"d1a7da33-0ef6-421f-af8a-f1bf4ac285b7","system_id":"levelo_inurba_marseille","lat":43.299028,"lon":5.381509,"is_reserved":false,"is_disabled":false,"rental_uris":{"android":"levelo://app?vid=d1a7da33-0ef6-421f-af8a-f1bf4ac285b7","ios":"levelo://app?vid=d1a7da33-0ef6-421f-af8a-f1bf4ac285b7"},"vehicle_type_id":"4","last_reported":1683313489,"current_range_meters":18000,"station_id":"ce4bgj12rcd13ifvqbc0","pricing_plan_id":"free"},{"bike_id":"c58705af-ca32-47cd-bf8a-76781434e781","system_id":"levelo_inurba_marseille","lat":43.299028,"lon":5.381509,"is_reserved":false,"is_disabled":false,"rental_uris":{"android":"levelo://app?vid=c58705af-ca32-47cd-bf8a-76781434e781","ios":"levelo://app?vid=c58705af-ca32-47cd-bf8a-76781434e781"},"vehicle_type_id":"4","last_reported":1683313489,"current_range_meters":12800,"station_id":"ce4bgj12rcd13ifvqbc0","pricing_plan_id":"free"},{"bike_id":"d3bded05-295a-4e27-816d-28fd9af6ceed","system_id":"levelo_inurba_marseille","lat":43.317557,"lon":5.390173,"is_reserved":false,"is_disabled":false,"rental_uris":{"android":"levelo://app?vid=d3bded05-295a-4e27-816d-28fd9af6ceed","ios":"levelo://app?vid=d3bded05-295a-4e27-816d-28fd9af6ceed"},"vehicle_type_id":"4","last_reported":1683313489,"current_range_meters":30000,"station_id":"ce4bhqp2rcd13ifvqhng","pricing_plan_id":"free"},{"bike_id":"fc664ecd-283b-4ad5-b8d8-fe7518401503","system_id":"levelo_inurba_marseille","lat":43.317557,"lon":5.390173,"is_reserved":false,"is_disabled":false,"rental_uris":{"android":"levelo://app?vid=fc664ecd-283b-4ad5-b8d8-fe7518401503","ios":"levelo://app?vid=fc664ecd-283b-4ad5-b8d8-fe7518401503"},"vehicle_type_id":"4","last_reported":1683313489,"current_range_meters":31200,"station_id":"ce4bhqp2rcd13ifvqhng","pricing_plan_id":"free"},{"bike_id":"aa822512-6d23-4984-a323-0b9c2c0d0af5","system_id":"levelo_inurba_marseille","lat":43.317557,"lon":5.390173,"is_reserved":false,"is_disabled":false,"rental_uris":{"android":"levelo://app?vid=aa822512-6d23-4984-a323-0b9c2c0d0af5","ios":"levelo://app?vid=aa822512-6d23-4984-a323-0b9c2c0d0af5"},"vehicle_type_id":"4","last_reported":1683313489,"current_range_meters":18400,"station_id":"ce4bhqp2rcd13ifvqhng","pricing_plan_id":"free"},{"bike_id":"16c6d769-d9a7-42bb-b225-301977df80b9","system_id":"levelo_inurba_marseille","lat":43.317557,"lon":5.390173,"is_reserved":false,"is_disabled":false,"rental_uris":{"android":"levelo://app?vid=16c6d769-d9a7-42bb-b225-301977df80b9","ios":"levelo://app?vid=16c6d769-d9a7-42bb-b225-301977df80b9"},"vehicle_type_id":"4","last_reported":1683313489,"current_range_meters":29600,"station_id":"ce4bhqp2rcd13ifvqhng","pricing_plan_id":"free"},{"bike_id":"75083129-cb37-4ae1-868b-cd09b5374176","system_id":"levelo_inurba_marseille","lat":43.317557,"lon":5.390173,"is_reserved":false,"is_disabled":false,"rental_uris":{"android":"levelo://app?vid=75083129-cb37-4ae1-868b-cd09b5374176","ios":"levelo://app?vid=75083129-cb37-4ae1-868b-cd09b5374176"},"vehicle_type_id":"4","last_reported":1683313489,"current_range_meters":18000,"station_id":"ce4bhqp2rcd13ifvqhng","pricing_plan_id":"free"},{"bike_id":"60ef946b-9459-4a60-b71e-9a93871770e0","system_id":"levelo_inurba_marseille","lat":43.317557,"lon":5.390173,"is_reserved":false,"is_disabled":false,"rental_uris":{"android":"levelo://app?vid=60ef946b-9459-4a60-b71e-9a93871770e0","ios":"levelo://app?vid=60ef946b-9459-4a60-b71e-9a93871770e0"},"vehicle_type_id":"4","last_reported":1683313489,"current_range_meters":31200,"station_id":"ce4bhqp2rcd13ifvqhng","pricing_plan_id":"free"},{"bike_id":"77f34d79-51d0-4db3-ab3a-5aec4d75e78b","system_id":"levelo_inurba_marseille","lat":43.317557,"lon":5.390173,"is_reserved":false,"is_disabled":false,"rental_uris":{"android":"levelo://app?vid=77f34d79-51d0-4db3-ab3a-5aec4d75e78b","ios":"levelo://app?vid=77f34d79-51d0-4db3-ab3a-5aec4d75e78b"},"vehicle_type_id":"4","last_reported":1683313489,"current_range_meters":21600,"station_id":"ce4bhqp2rcd13ifvqhng","pricing_plan_id":"free"},{"bike_id":"e00888f6-99e1-4c69-986f-1e3669edea53","system_id":"levelo_inurba_marseille","lat":43.317557,"lon":5.390173,"is_reserved":false,"is_disabled":false,"rental_uris":{"android":"levelo://app?vid=e00888f6-99e1-4c69-986f-1e3669edea53","ios":"levelo://app?vid=e00888f6-99e1-4c69-986f-1e3669edea53"},"vehicle_type_id":"4","last_reported":1683313489,"current_range_meters":19200,"station_id":"ce4bhqp2rcd13ifvqhng","pricing_plan_id":"free"},{"bike_id":"55e81a5c-dc18-4625-89aa-fe6acd3ab9fd","system_id":"levelo_inurba_marseille","lat":43.31754,"lon":5.39021,"is_reserved":false,"is_disabled":false,"rental_uris":{"android":"levelo://app?vid=55e81a5c-dc18-4625-89aa-fe6acd3ab9fd","ios":"levelo://app?vid=55e81a5c-dc18-4625-89aa-fe6acd3ab9fd"},"vehicle_type_id":"4","last_reported":1683313489,"current_range_meters":14400,"station_id":"ce4bhqp2rcd13ifvqhng","pricing_plan_id":"free"},{"bike_id":"f6924403-371f-4bff-939b-0ba8f87f2397","system_id":"levelo_inurba_marseille","lat":43.29809,"lon":5.38088,"is_reserved":false,"is_disabled":false,"rental_uris":{"android":"levelo://app?vid=f6924403-371f-4bff-939b-0ba8f87f2397","ios":"levelo://app?vid=f6924403-371f-4bff-939b-0ba8f87f2397"},"vehicle_type_id":"4","last_reported":1683313489,"current_range_meters":0,"station_id":"ce4bgip2rcd13ifvqbb0","pricing_plan_id":"free"},{"bike_id":"8e2f84c2-521b-42bb-a3f9-beaa7ca51f6c","system_id":"levelo_inurba_marseille","lat":43.29798,"lon":5.38093,"is_reserved":false,"is_disabled":false,"rental_uris":{"android":"levelo://app?vid=8e2f84c2-521b-42bb-a3f9-beaa7ca51f6c","ios":"levelo://app?vid=8e2f84c2-521b-42bb-a3f9-beaa7ca51f6c"},"vehicle_type_id":"4","last_reported":1683313489,"current_range_meters":2000,"station_id":"ce4bgip2rcd13ifvqbb0","pricing_plan_id":"free"},{"bike_id":"64e9fc03-b1e2-405b-b75e-e8b5b030ee5c","system_id":"levelo_inurba_marseille","lat":43.29581,"lon":5.37514,"is_reserved":false,"is_disabled":false,"rental_uris":{"android":"levelo://app?vid=64e9fc03-b1e2-405b-b75e-e8b5b030ee5c","ios":"levelo://app?vid=64e9fc03-b1e2-405b-b75e-e8b5b030ee5c"},"vehicle_type_id":"4","last_reported":1683313489,"current_range_meters":27200,"station_id":"ce4bgh92rcd13ifvqb50","pricing_plan_id":"free"},{"bike_id":"07463b46-c47f-489c-9c27-a6fb2c473c78","system_id":"levelo_inurba_marseille","lat":43.31466,"lon":5.39153,"is_reserved":false,"is_disabled":false,"rental_uris":{"android":"levelo://app?vid=07463b46-c47f-489c-9c27-a6fb2c473c78","ios":"levelo://app?vid=07463b46-c47f-489c-9c27-a6fb2c473c78"},"vehicle_type_id":"4","last_reported":1683313489,"current_range_meters":4800,"station_id":"","pricing_plan_id":"free"},{"bike_id":"26b83679-ee73-4776-8458-9f2d0f097fa9","system_id":"levelo_inurba_marseille","lat":43.295748,"lon":5.37522,"is_reserved":false,"is_disabled":false,"rental_uris":{"android":"levelo://app?vid=26b83679-ee73-4776-8458-9f2d0f097fa9","ios":"levelo://app?vid=26b83679-ee73-4776-8458-9f2d0f097fa9"},"vehicle_type_id":"4","last_reported":1683313489,"current_range_meters":1200,"station_id":"ce4bgh92rcd13ifvqb50","pricing_plan_id":"free"},{"bike_id":"264c79f9-610f-4847-a9ca-a54e66e83d28","system_id":"levelo_inurba_marseille","lat":43.304278,"lon":5.388868,"is_reserved":false,"is_disabled":false,"rental_uris":{"android":"levelo://app?vid=264c79f9-610f-4847-a9ca-a54e66e83d28","ios":"levelo://app?vid=264c79f9-610f-4847-a9ca-a54e66e83d28"},"vehicle_type_id":"4","last_reported":1683313489,"current_range_meters":3200,"station_id":"ce4bgk12rcd13ifvqbi0","pricing_plan_id":"free"},{"bike_id":"eff78fb0-a53c-4038-92e0-3b47af910496","system_id":"levelo_inurba_marseille","lat":43.295748,"lon":5.37522,"is_reserved":false,"is_disabled":false,"rental_uris":{"android":"levelo://app?vid=eff78fb0-a53c-4038-92e0-3b47af910496","ios":"levelo://app?vid=eff78fb0-a53c-4038-92e0-3b47af910496"},"vehicle_type_id":"4","last_reported":1683313489,"current_range_meters":7600,"station_id":"ce4bgh92rcd13ifvqb50","pricing_plan_id":"free"},{"bike_id":"b7255f3c-6e3b-4694-bba4-13aea55cd522","system_id":"levelo_inurba_marseille","lat":43.304274,"lon":5.388873,"is_reserved":false,"is_disabled":false,"rental_uris":{"android":"levelo://app?vid=b7255f3c-6e3b-4694-bba4-13aea55cd522","ios":"levelo://app?vid=b7255f3c-6e3b-4694-bba4-13aea55cd522"},"vehicle_type_id":"4","last_reported":1683313489,"current_range_meters":4400,"station_id":"ce4bgk12rcd13ifvqbi0","pricing_plan_id":"free"},{"bike_id":"e5b2bbcc-bbe6-4c68-a561-175366cae999","system_id":"levelo_inurba_marseille","lat":43.30433,"lon":5.38893,"is_reserved":false,"is_disabled":false,"rental_uris":{"android":"levelo://app?vid=e5b2bbcc-bbe6-4c68-a561-175366cae999","ios":"levelo://app?vid=e5b2bbcc-bbe6-4c68-a561-175366cae999"},"vehicle_type_id":"4","last_reported":1683313489,"current_range_meters":10800,"station_id":"ce4bgk12rcd13ifvqbi0","pricing_plan_id":"free"},{"bike_id":"556b02fb-9e8c-42aa-9b3e-758380555b89","system_id":"levelo_inurba_marseille","lat":43.30428,"lon":5.38895,"is_reserved":false,"is_disabled":false,"rental_uris":{"android":"levelo://app?vid=556b02fb-9e8c-42aa-9b3e-758380555b89","ios":"levelo://app?vid=556b02fb-9e8c-42aa-9b3e-758380555b89"},"vehicle_type_id":"4","last_reported":1683313489,"current_range_meters":0,"station_id":"ce4bgk12rcd13ifvqbi0","pricing_plan_id":"free"},{"bike_id":"ab7b8dc5-9722-47e7-8a78-100d1a674f6d","system_id":"levelo_inurba_marseille","lat":43.3236,"lon":5.38711,"is_reserved":false,"is_disabled":false,"rental_uris":{"android":"levelo://app?vid=ab7b8dc5-9722-47e7-8a78-100d1a674f6d","ios":"levelo://app?vid=ab7b8dc5-9722-47e7-8a78-100d1a674f6d"},"vehicle_type_id":"4","last_reported":1683313489,"current_range_meters":9600,"station_id":"","pricing_plan_id":"free"},{"bike_id":"ed8ac886-9b64-428a-84c2-5fcd6645f6a2","system_id":"levelo_inurba_marseille","lat":43.308012,"lon":5.381511,"is_reserved":false,"is_disabled":false,"rental_uris":{"android":"levelo://app?vid=ed8ac886-9b64-428a-84c2-5fcd6645f6a2","ios":"levelo://app?vid=ed8ac886-9b64-428a-84c2-5fcd6645f6a2"},"vehicle_type_id":"4","last_reported":1683313489,"current_range_meters":23600,"station_id":"ce4bgt12rcd13ifvqce0","pricing_plan_id":"free"},{"bike_id":"e8c6a5de-9fa4-4711-8ab1-deb963665cb2","system_id":"levelo_inurba_marseille","lat":43.295279,"lon":5.375048,"is_reserved":false,"is_disabled":false,"rental_uris":{"android":"levelo://app?vid=e8c6a5de-9fa4-4711-8ab1-deb963665cb2","ios":"levelo://app?vid=e8c6a5de-9fa4-4711-8ab1-deb963665cb2"},"vehicle_type_id":"4","last_reported":1683313489,"current_range_meters":20000,"station_id":"ce4bgkp2rcd13ifvqbmg","pricing_plan_id":"free"},{"bike_id":"96bfb52f-91dc-4978-b90b-720b37c82af0","system_id":"levelo_inurba_marseille","lat":43.29971,"lon":5.3849,"is_reserved":false,"is_disabled":false,"rental_uris":{"android":"levelo://app?vid=96bfb52f-91dc-4978-b90b-720b37c82af0","ios":"levelo://app?vid=96bfb52f-91dc-4978-b90b-720b37c82af0"},"vehicle_type_id":"4","last_reported":1683313489,"current_range_meters":8000,"station_id":"ce4bgj92rcd13ifvqbd0","pricing_plan_id":"free"},{"bike_id":"af67a531-90c6-4b30-84fb-34f9e9ee8b0b","system_id":"levelo_inurba_marseille","lat":43.295279,"lon":5.375048,"is_reserved":false,"is_disabled":false,"rental_uris":{"android":"levelo://app?vid=af67a531-90c6-4b30-84fb-34f9e9ee8b0b","ios":"levelo://app?vid=af67a531-90c6-4b30-84fb-34f9e9ee8b0b"},"vehicle_type_id":"4","last_reported":1683313489,"current_range_meters":8800,"station_id":"ce4bgkp2rcd13ifvqbmg","pricing_plan_id":"free"},{"bike_id":"fca3c8dc-cacf-4112-9c8f-e78026c96c46","system_id":"levelo_inurba_marseille","lat":43.29965,"lon":5.38488,"is_reserved":false,"is_disabled":false,"rental_uris":{"android":"levelo://app?vid=fca3c8dc-cacf-4112-9c8f-e78026c96c46","ios":"levelo://app?vid=fca3c8dc-cacf-4112-9c8f-e78026c96c46"},"vehicle_type_id":"4","last_reported":1683313489,"current_range_meters":0,"station_id":"ce4bgj92rcd13ifvqbd0","pricing_plan_id":"free"},{"bike_id":"6a1d3462-da72-434d-90bd-ffa7873453c0","system_id":"levelo_inurba_marseille","lat":43.2997,"lon":5.38495,"is_reserved":false,"is_disabled":false,"rental_uris":{"android":"levelo://app?vid=6a1d3462-da72-434d-90bd-ffa7873453c0","ios":"levelo://app?vid=6a1d3462-da72-434d-90bd-ffa7873453c0"},"vehicle_type_id":"4","last_reported":1683313489,"current_range_meters":0,"station_id":"ce4bgj92rcd13ifvqbd0","pricing_plan_id":"free"},{"bike_id":"775777e8-c8ab-4f63-8011-153c2d8a89a6","system_id":"levelo_inurba_marseille","lat":43.295279,"lon":5.375048,"is_reserved":false,"is_disabled":false,"rental_uris":{"android":"levelo://app?vid=775777e8-c8ab-4f63-8011-153c2d8a89a6","ios":"levelo://app?vid=775777e8-c8ab-4f63-8011-153c2d8a89a6"},"vehicle_type_id":"4","last_reported":1683313489,"current_range_meters":26000,"station_id":"ce4bgkp2rcd13ifvqbmg","pricing_plan_id":"free"},{"bike_id":"f61d3d92-ebac-491c-9ab7-f2e884de92c6","system_id":"levelo_inurba_marseille","lat":43.29967,"lon":5.38492,"is_reserved":false,"is_disabled":false,"rental_uris":{"android":"levelo://app?vid=f61d3d92-ebac-491c-9ab7-f2e884de92c6","ios":"levelo://app?vid=f61d3d92-ebac-491c-9ab7-f2e884de92c6"},"vehicle_type_id":"4","last_reported":1683313489,"current_range_meters":0,"station_id":"ce4bgj92rcd13ifvqbd0","pricing_plan_id":"free"},{"bike_id":"eecfda9b-35f2-4925-a760-692ecbe0b94b","system_id":"levelo_inurba_marseille","lat":43.295279,"lon":5.375048,"is_reserved":false,"is_disabled":false,"rental_uris":{"android":"levelo://app?vid=eecfda9b-35f2-4925-a760-692ecbe0b94b","ios":"levelo://app?vid=eecfda9b-35f2-4925-a760-692ecbe0b94b"},"vehicle_type_id":"4","last_reported":1683313489,"current_range_meters":8400,"station_id":"ce4bgkp2rcd13ifvqbmg","pricing_plan_id":"free"},{"bike_id":"b1b0c982-4245-49d8-adf9-95b23fca38d0","system_id":"levelo_inurba_marseille","lat":43.29967,"lon":5.38494,"is_reserved":false,"is_disabled":false,"rental_uris":{"android":"levelo://app?vid=b1b0c982-4245-49d8-adf9-95b23fca38d0","ios":"levelo://app?vid=b1b0c982-4245-49d8-adf9-95b23fca38d0"},"vehicle_type_id":"4","last_reported":1683313489,"current_range_meters":0,"station_id":"ce4bgj92rcd13ifvqbd0","pricing_plan_id":"free"},{"bike_id":"e7c883ca-6ff9-491b-86b6-2b0ec69e0e7d","system_id":"levelo_inurba_marseille","lat":43.29967,"lon":5.38497,"is_reserved":false,"is_disabled":false,"rental_uris":{"android":"levelo://app?vid=e7c883ca-6ff9-491b-86b6-2b0ec69e0e7d","ios":"levelo://app?vid=e7c883ca-6ff9-491b-86b6-2b0ec69e0e7d"},"vehicle_type_id":"4","last_reported":1683313489,"current_range_meters":29200,"station_id":"ce4bgj92rcd13ifvqbd0","pricing_plan_id":"free"},{"bike_id":"3e8a6a4a-6f50-4dbf-94ed-a6b9ec3aa715","system_id":"levelo_inurba_marseille","lat":43.29959,"lon":5.38497,"is_reserved":false,"is_disabled":false,"rental_uris":{"android":"levelo://app?vid=3e8a6a4a-6f50-4dbf-94ed-a6b9ec3aa715","ios":"levelo://app?vid=3e8a6a4a-6f50-4dbf-94ed-a6b9ec3aa715"},"vehicle_type_id":"4","last_reported":1683313489,"current_range_meters":1200,"station_id":"ce4bgj92rcd13ifvqbd0","pricing_plan_id":"free"},{"bike_id":"faab5a62-cbab-41d5-9a5f-60c32434b02a","system_id":"levelo_inurba_marseille","lat":43.29424,"lon":5.37399,"is_reserved":false,"is_disabled":false,"rental_uris":{"android":"levelo://app?vid=faab5a62-cbab-41d5-9a5f-60c32434b02a","ios":"levelo://app?vid=faab5a62-cbab-41d5-9a5f-60c32434b02a"},"vehicle_type_id":"4","last_reported":1683313489,"current_range_meters":15200,"station_id":"","pricing_plan_id":"free"},{"bike_id":"d12317f6-5e43-43d3-a282-57e40f56ad4e","system_id":"levelo_inurba_marseille","lat":43.29592,"lon":5.38005,"is_reserved":false,"is_disabled":false,"rental_uris":{"android":"levelo://app?vid=d12317f6-5e43-43d3-a282-57e40f56ad4e","ios":"levelo://app?vid=d12317f6-5e43-43d3-a282-57e40f56ad4e"},"vehicle_type_id":"4","last_reported":1683313489,"current_range_meters":10400,"station_id":"","pricing_plan_id":"free"},{"bike_id":"5560fb30-b37d-47e3-a3d2-a577e19f5f0a","system_id":"levelo_inurba_marseille","lat":43.3237,"lon":5.38903,"is_reserved":false,"is_disabled":false,"rental_uris":{"android":"levelo://app?vid=5560fb30-b37d-47e3-a3d2-a577e19f5f0a","ios":"levelo://app?vid=5560fb30-b37d-47e3-a3d2-a577e19f5f0a"},"vehicle_type_id":"4","last_reported":1683313489,"current_range_meters":17600,"station_id":"","pricing_plan_id":"free"},{"bike_id":"0756cc34-e8d7-43a2-b1af-3fd58cb49675","system_id":"levelo_inurba_marseille","lat":43.299028,"lon":5.381509,"is_reserved":false,"is_disabled":false,"rental_uris":{"android":"levelo://app?vid=0756cc34-e8d7-43a2-b1af-3fd58cb49675","ios":"levelo://app?vid=0756cc34-e8d7-43a2-b1af-3fd58cb49675"},"vehicle_type_id":"4","last_reported":1683313489,"current_range_meters":10400,"station_id":"ce4bgj12rcd13ifvqbc0","pricing_plan_id":"free"},{"bike_id":"4e59c157-b332-4b11-862a-d922033f86c4","system_id":"levelo_inurba_marseille","lat":43.29602,"lon":5.381084,"is_reserved":false,"is_disabled":false,"rental_uris":{"android":"levelo://app?vid=4e59c157-b332-4b11-862a-d922033f86c4","ios":"levelo://app?vid=4e59c157-b332-4b11-862a-d922033f86c4"},"vehicle_type_id":"4","last_reported":1683313489,"current_range_meters":0,"station_id":"ce4bgl12rcd13ifvqbo0","pricing_plan_id":"free"},{"bike_id":"81440b49-4b9b-4de0-be85-e1d32648b58f","system_id":"levelo_inurba_marseille","lat":43.292923,"lon":5.368474,"is_reserved":false,"is_disabled":false,"rental_uris":{"android":"levelo://app?vid=81440b49-4b9b-4de0-be85-e1d32648b58f","ios":"levelo://app?vid=81440b49-4b9b-4de0-be85-e1d32648b58f"},"vehicle_type_id":"4","last_reported":1683313489,"current_range_meters":400,"station_id":"ce4bhb92rcd13ifvqen0","pricing_plan_id":"free"},{"bike_id":"193e5064-1582-4875-a8c1-b90882f304ca","system_id":"levelo_inurba_marseille","lat":43.29274,"lon":5.36842,"is_reserved":false,"is_disabled":false,"rental_uris":{"android":"levelo://app?vid=193e5064-1582-4875-a8c1-b90882f304ca","ios":"levelo://app?vid=193e5064-1582-4875-a8c1-b90882f304ca"},"vehicle_type_id":"4","last_reported":1683313489,"current_range_meters":8000,"station_id":"ce4bhbp2rcd13ifvqesg","pricing_plan_id":"free"},{"bike_id":"d6faf34b-b11b-4b70-bde1-72d07cd40214","system_id":"levelo_inurba_marseille","lat":43.29267,"lon":5.36846,"is_reserved":false,"is_disabled":false,"rental_uris":{"android":"levelo://app?vid=d6faf34b-b11b-4b70-bde1-72d07cd40214","ios":"levelo://app?vid=d6faf34b-b11b-4b70-bde1-72d07cd40214"},"vehicle_type_id":"4","last_reported":1683313489,"current_range_meters":18400,"station_id":"ce4bhbp2rcd13ifvqesg","pricing_plan_id":"free"},{"bike_id":"a280c6ce-babe-4b3f-bef3-0c0a6bc83fc6","system_id":"levelo_inurba_marseille","lat":43.29266,"lon":5.3685,"is_reserved":false,"is_disabled":false,"rental_uris":{"android":"levelo://app?vid=a280c6ce-babe-4b3f-bef3-0c0a6bc83fc6","ios":"levelo://app?vid=a280c6ce-babe-4b3f-bef3-0c0a6bc83fc6"},"vehicle_type_id":"4","last_reported":1683313489,"current_range_meters":0,"station_id":"ce4bhbp2rcd13ifvqesg","pricing_plan_id":"free"},{"bike_id":"576f0156-a561-4448-b2ff-45e4cbe0191a","system_id":"levelo_inurba_marseille","lat":43.29265,"lon":5.36837,"is_reserved":false,"is_disabled":false,"rental_uris":{"android":"levelo://app?vid=576f0156-a561-4448-b2ff-45e4cbe0191a","ios":"levelo://app?vid=576f0156-a561-4448-b2ff-45e4cbe0191a"},"vehicle_type_id":"4","last_reported":1683313489,"current_range_meters":15200,"station_id":"ce4bhbp2rcd13ifvqesg","pricing_plan_id":"free"},{"bike_id":"bbe0e644-9064-4777-a72d-6ed271b38a5b","system_id":"levelo_inurba_marseille","lat":43.293009,"lon":5.374584,"is_reserved":false,"is_disabled":false,"rental_uris":{"android":"levelo://app?vid=bbe0e644-9064-4777-a72d-6ed271b38a5b","ios":"levelo://app?vid=bbe0e644-9064-4777-a72d-6ed271b38a5b"},"vehicle_type_id":"4","last_reported":1683313489,"current_range_meters":31200,"station_id":"ce4bgi12rcd13ifvqb70","pricing_plan_id":"free"},{"bike_id":"cebd2d02-d369-49a0-95b1-669adf66d2f1","system_id":"levelo_inurba_marseille","lat":43.305994,"lon":5.393687,"is_reserved":false,"is_disabled":false,"rental_uris":{"android":"levelo://app?vid=cebd2d02-d369-49a0-95b1-669adf66d2f1","ios":"levelo://app?vid=cebd2d02-d369-49a0-95b1-669adf66d2f1"},"vehicle_type_id":"4","last_reported":1683313489,"current_range_meters":16400,"station_id":"ce4bh0p2rcd13ifvqd80","pricing_plan_id":"free"},{"bike_id":"353875cf-f030-403f-b1b9-4818c781e6e6","system_id":"levelo_inurba_marseille","lat":43.30594,"lon":5.393554,"is_reserved":false,"is_disabled":false,"rental_uris":{"android":"levelo://app?vid=353875cf-f030-403f-b1b9-4818c781e6e6","ios":"levelo://app?vid=353875cf-f030-403f-b1b9-4818c781e6e6"},"vehicle_type_id":"4","last_reported":1683313489,"current_range_meters":20000,"station_id":"ce4bh0p2rcd13ifvqd80","pricing_plan_id":"free"},{"bike_id":"7e14e65b-52a7-43a7-8d7d-3e41ae91534a","system_id":"levelo_inurba_marseille","lat":43.305994,"lon":5.393687,"is_reserved":false,"is_disabled":false,"rental_uris":{"android":"levelo://app?vid=7e14e65b-52a7-43a7-8d7d-3e41ae91534a","ios":"levelo://app?vid=7e14e65b-52a7-43a7-8d7d-3e41ae91534a"},"vehicle_type_id":"4","last_reported":1683313489,"current_range_meters":30000,"station_id":"ce4bh0p2rcd13ifvqd80","pricing_plan_id":"free"},{"bike_id":"c7175043-c2e9-4e96-89b9-fe3a07ace1a7","system_id":"levelo_inurba_marseille","lat":43.305994,"lon":5.393687,"is_reserved":false,"is_disabled":false,"rental_uris":{"android":"levelo://app?vid=c7175043-c2e9-4e96-89b9-fe3a07ace1a7","ios":"levelo://app?vid=c7175043-c2e9-4e96-89b9-fe3a07ace1a7"},"vehicle_type_id":"4","last_reported":1683313489,"current_range_meters":21600,"station_id":"ce4bh0p2rcd13ifvqd80","pricing_plan_id":"free"},{"bike_id":"e35b59f0-8b3d-413b-ab4d-440d25b0ae6c","system_id":"levelo_inurba_marseille","lat":43.305994,"lon":5.393687,"is_reserved":false,"is_disabled":false,"rental_uris":{"android":"levelo://app?vid=e35b59f0-8b3d-413b-ab4d-440d25b0ae6c","ios":"levelo://app?vid=e35b59f0-8b3d-413b-ab4d-440d25b0ae6c"},"vehicle_type_id":"4","last_reported":1683313489,"current_range_meters":12800,"station_id":"ce4bh0p2rcd13ifvqd80","pricing_plan_id":"free"},{"bike_id":"6d42bdfb-2b65-4e84-bb32-50b75a197af5","system_id":"levelo_inurba_marseille","lat":43.2936,"lon":5.37835,"is_reserved":false,"is_disabled":false,"rental_uris":{"android":"levelo://app?vid=6d42bdfb-2b65-4e84-bb32-50b75a197af5","ios":"levelo://app?vid=6d42bdfb-2b65-4e84-bb32-50b75a197af5"},"vehicle_type_id":"4","last_reported":1683313489,"current_range_meters":14000,"station_id":"ce4bgjh2rcd13ifvqbf0","pricing_plan_id":"free"},{"bike_id":"1551453b-67df-4529-8e91-7e217082ec33","system_id":"levelo_inurba_marseille","lat":43.300852,"lon":5.390859,"is_reserved":false,"is_disabled":false,"rental_uris":{"android":"levelo://app?vid=1551453b-67df-4529-8e91-7e217082ec33","ios":"levelo://app?vid=1551453b-67df-4529-8e91-7e217082ec33"},"vehicle_type_id":"4","last_reported":1683313489,"current_range_meters":2800,"station_id":"ce4bh192rcd13ifvqdb0","pricing_plan_id":"free"},{"bike_id":"b0f87204-5d9b-487c-aa48-efbe682538cd","system_id":"levelo_inurba_marseille","lat":43.300852,"lon":5.390859,"is_reserved":false,"is_disabled":false,"rental_uris":{"android":"levelo://app?vid=b0f87204-5d9b-487c-aa48-efbe682538cd","ios":"levelo://app?vid=b0f87204-5d9b-487c-aa48-efbe682538cd"},"vehicle_type_id":"4","last_reported":1683313489,"current_range_meters":7200,"station_id":"ce4bh192rcd13ifvqdb0","pricing_plan_id":"free"},{"bike_id":"f0edd727-490f-4870-bf4d-5139582901ff","system_id":"levelo_inurba_marseille","lat":43.300852,"lon":5.390859,"is_reserved":false,"is_disabled":false,"rental_uris":{"android":"levelo://app?vid=f0edd727-490f-4870-bf4d-5139582901ff","ios":"levelo://app?vid=f0edd727-490f-4870-bf4d-5139582901ff"},"vehicle_type_id":"4","last_reported":1683313489,"current_range_meters":26000,"station_id":"ce4bh192rcd13ifvqdb0","pricing_plan_id":"free"},{"bike_id":"240b4c0e-ce11-4ce9-a648-c83bb5c6ca01","system_id":"levelo_inurba_marseille","lat":43.30085,"lon":5.390856,"is_reserved":false,"is_disabled":false,"rental_uris":{"android":"levelo://app?vid=240b4c0e-ce11-4ce9-a648-c83bb5c6ca01","ios":"levelo://app?vid=240b4c0e-ce11-4ce9-a648-c83bb5c6ca01"},"vehicle_type_id":"4","last_reported":1683313489,"current_range_meters":20000,"station_id":"ce4bh192rcd13ifvqdb0","pricing_plan_id":"free"},{"bike_id":"045ac27e-594b-4931-8e02-457d340cca66","system_id":"levelo_inurba_marseille","lat":43.291675,"lon":5.371583,"is_reserved":false,"is_disabled":false,"rental_uris":{"android":"levelo://app?vid=045ac27e-594b-4931-8e02-457d340cca66","ios":"levelo://app?vid=045ac27e-594b-4931-8e02-457d340cca66"},"vehicle_type_id":"4","last_reported":1683313489,"current_range_meters":16000,"station_id":"ce4bha92rcd13ifvqeh0","pricing_plan_id":"free"},{"bike_id":"8b7065a8-a37e-4a6e-9b66-7f7c2121767d","system_id":"levelo_inurba_marseille","lat":43.29169,"lon":5.37152,"is_reserved":false,"is_disabled":false,"rental_uris":{"android":"levelo://app?vid=8b7065a8-a37e-4a6e-9b66-7f7c2121767d","ios":"levelo://app?vid=8b7065a8-a37e-4a6e-9b66-7f7c2121767d"},"vehicle_type_id":"4","last_reported":1683313489,"current_range_meters":7600,"station_id":"ce4bha92rcd13ifvqeh0","pricing_plan_id":"free"},{"bike_id":"c4c43672-dd31-423c-a305-f7cba420cd44","system_id":"levelo_inurba_marseille","lat":43.29162,"lon":5.37162,"is_reserved":false,"is_disabled":false,"rental_uris":{"android":"levelo://app?vid=c4c43672-dd31-423c-a305-f7cba420cd44","ios":"levelo://app?vid=c4c43672-dd31-423c-a305-f7cba420cd44"},"vehicle_type_id":"4","last_reported":1683313489,"current_range_meters":18400,"station_id":"ce4bha92rcd13ifvqeh0","pricing_plan_id":"free"},{"bike_id":"a9c6e4fd-3ae1-46d7-b246-0ac0d6a11056","system_id":"levelo_inurba_marseille","lat":43.313291,"lon":5.396838,"is_reserved":false,"is_disabled":false,"rental_uris":{"android":"levelo://app?vid=a9c6e4fd-3ae1-46d7-b246-0ac0d6a11056","ios":"levelo://app?vid=a9c6e4fd-3ae1-46d7-b246-0ac0d6a11056"},"vehicle_type_id":"4","last_reported":1683313489,"current_range_meters":11600,"station_id":"ce4bgvp2rcd13ifvqcu0","pricing_plan_id":"free"},{"bike_id":"19cd4963-b12f-4ce1-941e-7af1afde7afa","system_id":"levelo_inurba_marseille","lat":43.313291,"lon":5.396838,"is_reserved":false,"is_disabled":false,"rental_uris":{"android":"levelo://app?vid=19cd4963-b12f-4ce1-941e-7af1afde7afa","ios":"levelo://app?vid=19cd4963-b12f-4ce1-941e-7af1afde7afa"},"vehicle_type_id":"4","last_reported":1683313489,"current_range_meters":5200,"station_id":"ce4bgvp2rcd13ifvqcu0","pricing_plan_id":"free"},{"bike_id":"12d550f2-61eb-40a9-80f4-fdab2578764c","system_id":"levelo_inurba_marseille","lat":43.30881,"lon":5.39644,"is_reserved":false,"is_disabled":false,"rental_uris":{"android":"levelo://app?vid=12d550f2-61eb-40a9-80f4-fdab2578764c","ios":"levelo://app?vid=12d550f2-61eb-40a9-80f4-fdab2578764c"},"vehicle_type_id":"4","last_reported":1683313489,"current_range_meters":0,"station_id":"","pricing_plan_id":"free"},{"bike_id":"3d72890b-becb-4aef-802e-9286d5dca197","system_id":"levelo_inurba_marseille","lat":43.309038,"lon":5.396546,"is_reserved":false,"is_disabled":false,"rental_uris":{"android":"levelo://app?vid=3d72890b-becb-4aef-802e-9286d5dca197","ios":"levelo://app?vid=3d72890b-becb-4aef-802e-9286d5dca197"},"vehicle_type_id":"4","last_reported":1683313489,"current_range_meters":15200,"station_id":"ce4bh012rcd13ifvqcv0","pricing_plan_id":"free"},{"bike_id":"27b8b878-4352-45d6-9163-061457486fb4","system_id":"levelo_inurba_marseille","lat":43.309038,"lon":5.396546,"is_reserved":false,"is_disabled":false,"rental_uris":{"android":"levelo://app?vid=27b8b878-4352-45d6-9163-061457486fb4","ios":"levelo://app?vid=27b8b878-4352-45d6-9163-061457486fb4"},"vehicle_type_id":"4","last_reported":1683313489,"current_range_meters":9200,"station_id":"ce4bh012rcd13ifvqcv0","pricing_plan_id":"free"},{"bike_id":"8a868eac-88af-4d8d-baba-c80cc14f7c6f","system_id":"levelo_inurba_marseille","lat":43.29529,"lon":5.385581,"is_reserved":false,"is_disabled":false,"rental_uris":{"android":"levelo://app?vid=8a868eac-88af-4d8d-baba-c80cc14f7c6f","ios":"levelo://app?vid=8a868eac-88af-4d8d-baba-c80cc14f7c6f"},"vehicle_type_id":"4","last_reported":1683313489,"current_range_meters":4400,"station_id":"ce4bgih2rcd13ifvqba0","pricing_plan_id":"free"},{"bike_id":"03090b2f-ed20-4bf2-9d60-43333edc32e4","system_id":"levelo_inurba_marseille","lat":43.309038,"lon":5.396546,"is_reserved":false,"is_disabled":false,"rental_uris":{"android":"levelo://app?vid=03090b2f-ed20-4bf2-9d60-43333edc32e4","ios":"levelo://app?vid=03090b2f-ed20-4bf2-9d60-43333edc32e4"},"vehicle_type_id":"4","last_reported":1683313489,"current_range_meters":12400,"station_id":"ce4bh012rcd13ifvqcv0","pricing_plan_id":"free"},{"bike_id":"0e3932e6-6afc-4620-a5f3-f34cce9c3f6b","system_id":"levelo_inurba_marseille","lat":43.309038,"lon":5.396546,"is_reserved":false,"is_disabled":false,"rental_uris":{"android":"levelo://app?vid=0e3932e6-6afc-4620-a5f3-f34cce9c3f6b","ios":"levelo://app?vid=0e3932e6-6afc-4620-a5f3-f34cce9c3f6b"},"vehicle_type_id":"4","last_reported":1683313489,"current_range_meters":13600,"station_id":"ce4bh012rcd13ifvqcv0","pricing_plan_id":"free"},{"bike_id":"ffcfbb79-729e-4a5f-b6e9-dd70d5d73ee0","system_id":"levelo_inurba_marseille","lat":43.309038,"lon":5.396546,"is_reserved":false,"is_disabled":false,"rental_uris":{"android":"levelo://app?vid=ffcfbb79-729e-4a5f-b6e9-dd70d5d73ee0","ios":"levelo://app?vid=ffcfbb79-729e-4a5f-b6e9-dd70d5d73ee0"},"vehicle_type_id":"4","last_reported":1683313489,"current_range_meters":21200,"station_id":"ce4bh012rcd13ifvqcv0","pricing_plan_id":"free"},{"bike_id":"1704ea80-1b81-4cf9-bdcf-e1dcd842ba72","system_id":"levelo_inurba_marseille","lat":43.29529,"lon":5.385581,"is_reserved":false,"is_disabled":false,"rental_uris":{"android":"levelo://app?vid=1704ea80-1b81-4cf9-bdcf-e1dcd842ba72","ios":"levelo://app?vid=1704ea80-1b81-4cf9-bdcf-e1dcd842ba72"},"vehicle_type_id":"4","last_reported":1683313489,"current_range_meters":2000,"station_id":"ce4bgih2rcd13ifvqba0","pricing_plan_id":"free"},{"bike_id":"01488cd3-a378-4158-ac15-2cc77e84ac29","system_id":"levelo_inurba_marseille","lat":43.29529,"lon":5.385581,"is_reserved":false,"is_disabled":false,"rental_uris":{"android":"levelo://app?vid=01488cd3-a378-4158-ac15-2cc77e84ac29","ios":"levelo://app?vid=01488cd3-a378-4158-ac15-2cc77e84ac29"},"vehicle_type_id":"4","last_reported":1683313489,"current_range_meters":16400,"station_id":"ce4bgih2rcd13ifvqba0","pricing_plan_id":"free"},{"bike_id":"c6a0137f-7c07-4bfe-9515-7b753ee02e01","system_id":"levelo_inurba_marseille","lat":43.29529,"lon":5.385581,"is_reserved":false,"is_disabled":false,"rental_uris":{"android":"levelo://app?vid=c6a0137f-7c07-4bfe-9515-7b753ee02e01","ios":"levelo://app?vid=c6a0137f-7c07-4bfe-9515-7b753ee02e01"},"vehicle_type_id":"4","last_reported":1683313489,"current_range_meters":15200,"station_id":"ce4bgih2rcd13ifvqba0","pricing_plan_id":"free"},{"bike_id":"002d829f-56e1-40ee-a66e-4a134abc576a","system_id":"levelo_inurba_marseille","lat":43.29529,"lon":5.385581,"is_reserved":false,"is_disabled":false,"rental_uris":{"android":"levelo://app?vid=002d829f-56e1-40ee-a66e-4a134abc576a","ios":"levelo://app?vid=002d829f-56e1-40ee-a66e-4a134abc576a"},"vehicle_type_id":"4","last_reported":1683313489,"current_range_meters":6000,"station_id":"ce4bgih2rcd13ifvqba0","pricing_plan_id":"free"},{"bike_id":"dcb6f6c0-f8e3-4ab7-8375-e857a132a91a","system_id":"levelo_inurba_marseille","lat":43.29529,"lon":5.385581,"is_reserved":false,"is_disabled":false,"rental_uris":{"android":"levelo://app?vid=dcb6f6c0-f8e3-4ab7-8375-e857a132a91a","ios":"levelo://app?vid=dcb6f6c0-f8e3-4ab7-8375-e857a132a91a"},"vehicle_type_id":"4","last_reported":1683313489,"current_range_meters":11600,"station_id":"ce4bgih2rcd13ifvqba0","pricing_plan_id":"free"},{"bike_id":"510acb5a-2f79-4c94-9d89-26c6b53aad75","system_id":"levelo_inurba_marseille","lat":43.29079,"lon":5.3717,"is_reserved":false,"is_disabled":false,"rental_uris":{"android":"levelo://app?vid=510acb5a-2f79-4c94-9d89-26c6b53aad75","ios":"levelo://app?vid=510acb5a-2f79-4c94-9d89-26c6b53aad75"},"vehicle_type_id":"4","last_reported":1683313489,"current_range_meters":11600,"station_id":"ce4bh5p2rcd13ifvqe4g","pricing_plan_id":"free"},{"bike_id":"5e37a12a-80dd-4596-99b6-1727357b1710","system_id":"levelo_inurba_marseille","lat":43.29076,"lon":5.37193,"is_reserved":false,"is_disabled":false,"rental_uris":{"android":"levelo://app?vid=5e37a12a-80dd-4596-99b6-1727357b1710","ios":"levelo://app?vid=5e37a12a-80dd-4596-99b6-1727357b1710"},"vehicle_type_id":"4","last_reported":1683313489,"current_range_meters":14000,"station_id":"ce4bh5p2rcd13ifvqe4g","pricing_plan_id":"free"},{"bike_id":"29c1ccd6-b501-40c9-a313-d4422d390a25","system_id":"levelo_inurba_marseille","lat":43.29073,"lon":5.37178,"is_reserved":false,"is_disabled":false,"rental_uris":{"android":"levelo://app?vid=29c1ccd6-b501-40c9-a313-d4422d390a25","ios":"levelo://app?vid=29c1ccd6-b501-40c9-a313-d4422d390a25"},"vehicle_type_id":"4","last_reported":1683313489,"current_range_meters":0,"station_id":"ce4bh5p2rcd13ifvqe4g","pricing_plan_id":"free"},{"bike_id":"6f1632d3-b398-4527-b46e-7da712326592","system_id":"levelo_inurba_marseille","lat":43.29073,"lon":5.37182,"is_reserved":false,"is_disabled":false,"rental_uris":{"android":"levelo://app?vid=6f1632d3-b398-4527-b46e-7da712326592","ios":"levelo://app?vid=6f1632d3-b398-4527-b46e-7da712326592"},"vehicle_type_id":"4","last_reported":1683313489,"current_range_meters":21600,"station_id":"","pricing_plan_id":"free"},{"bike_id":"6de67b9e-8353-48fd-bbc3-97e5c5cd7fa8","system_id":"levelo_inurba_marseille","lat":43.29069,"lon":5.37155,"is_reserved":false,"is_disabled":false,"rental_uris":{"android":"levelo://app?vid=6de67b9e-8353-48fd-bbc3-97e5c5cd7fa8","ios":"levelo://app?vid=6de67b9e-8353-48fd-bbc3-97e5c5cd7fa8"},"vehicle_type_id":"4","last_reported":1683313489,"current_range_meters":2400,"station_id":"ce4bh5p2rcd13ifvqe4g","pricing_plan_id":"free"},{"bike_id":"fd43b935-a13b-43d0-855e-a52635975686","system_id":"levelo_inurba_marseille","lat":43.302008,"lon":5.394694,"is_reserved":false,"is_disabled":false,"rental_uris":{"android":"levelo://app?vid=fd43b935-a13b-43d0-855e-a52635975686","ios":"levelo://app?vid=fd43b935-a13b-43d0-855e-a52635975686"},"vehicle_type_id":"4","last_reported":1683313489,"current_range_meters":23600,"station_id":"ce4bh0p2rcd13ifvqd70","pricing_plan_id":"free"},{"bike_id":"c8de9cf9-d9f4-4880-acfa-dfdd034d6ec0","system_id":"levelo_inurba_marseille","lat":43.290624,"lon":5.359245,"is_reserved":false,"is_disabled":false,"rental_uris":{"android":"levelo://app?vid=c8de9cf9-d9f4-4880-acfa-dfdd034d6ec0","ios":"levelo://app?vid=c8de9cf9-d9f4-4880-acfa-dfdd034d6ec0"},"vehicle_type_id":"4","last_reported":1683313489,"current_range_meters":6000,"station_id":"ce4bha92rcd13ifvqeg0","pricing_plan_id":"free"},{"bike_id":"231fbbbf-6184-40e6-ae01-eeb40c54e0d5","system_id":"levelo_inurba_marseille","lat":43.294153,"lon":5.386305,"is_reserved":false,"is_disabled":false,"rental_uris":{"android":"levelo://app?vid=231fbbbf-6184-40e6-ae01-eeb40c54e0d5","ios":"levelo://app?vid=231fbbbf-6184-40e6-ae01-eeb40c54e0d5"},"vehicle_type_id":"4","last_reported":1683313489,"current_range_meters":400,"station_id":"ce4bh2h2rcd13ifvqdh0","pricing_plan_id":"free"},{"bike_id":"9f37c10f-9015-4e56-a796-583c5027c690","system_id":"levelo_inurba_marseille","lat":43.294153,"lon":5.386305,"is_reserved":false,"is_disabled":false,"rental_uris":{"android":"levelo://app?vid=9f37c10f-9015-4e56-a796-583c5027c690","ios":"levelo://app?vid=9f37c10f-9015-4e56-a796-583c5027c690"},"vehicle_type_id":"4","last_reported":1683313489,"current_range_meters":9600,"station_id":"ce4bh2h2rcd13ifvqdh0","pricing_plan_id":"free"},{"bike_id":"7b2331b7-5ab9-4d22-a579-6141d1c60747","system_id":"levelo_inurba_marseille","lat":43.294153,"lon":5.386305,"is_reserved":false,"is_disabled":false,"rental_uris":{"android":"levelo://app?vid=7b2331b7-5ab9-4d22-a579-6141d1c60747","ios":"levelo://app?vid=7b2331b7-5ab9-4d22-a579-6141d1c60747"},"vehicle_type_id":"4","last_reported":1683313489,"current_range_meters":800,"station_id":"ce4bh2h2rcd13ifvqdh0","pricing_plan_id":"free"},{"bike_id":"dc8f8fd9-834c-4028-bbf2-efa9e71c0a99","system_id":"levelo_inurba_marseille","lat":43.294162,"lon":5.386292,"is_reserved":false,"is_disabled":false,"rental_uris":{"android":"levelo://app?vid=dc8f8fd9-834c-4028-bbf2-efa9e71c0a99","ios":"levelo://app?vid=dc8f8fd9-834c-4028-bbf2-efa9e71c0a99"},"vehicle_type_id":"4","last_reported":1683313489,"current_range_meters":4800,"station_id":"ce4bh2h2rcd13ifvqdh0","pricing_plan_id":"free"},{"bike_id":"87bf3e86-ca62-4849-97d7-26de8d323320","system_id":"levelo_inurba_marseille","lat":43.289184,"lon":5.366408,"is_reserved":false,"is_disabled":false,"rental_uris":{"android":"levelo://app?vid=87bf3e86-ca62-4849-97d7-26de8d323320","ios":"levelo://app?vid=87bf3e86-ca62-4849-97d7-26de8d323320"},"vehicle_type_id":"4","last_reported":1683313489,"current_range_meters":400,"station_id":"ce4bhap2rcd13ifvqek0","pricing_plan_id":"free"},{"bike_id":"bcb4733f-02fb-4a7a-a7e5-96038ecffa82","system_id":"levelo_inurba_marseille","lat":43.294153,"lon":5.386305,"is_reserved":false,"is_disabled":false,"rental_uris":{"android":"levelo://app?vid=bcb4733f-02fb-4a7a-a7e5-96038ecffa82","ios":"levelo://app?vid=bcb4733f-02fb-4a7a-a7e5-96038ecffa82"},"vehicle_type_id":"4","last_reported":1683313489,"current_range_meters":10800,"station_id":"ce4bh2h2rcd13ifvqdh0","pricing_plan_id":"free"},{"bike_id":"cee7fff2-484d-4715-b6d5-596a5d67d9f5","system_id":"levelo_inurba_marseille","lat":43.294153,"lon":5.386305,"is_reserved":false,"is_disabled":false,"rental_uris":{"android":"levelo://app?vid=cee7fff2-484d-4715-b6d5-596a5d67d9f5","ios":"levelo://app?vid=cee7fff2-484d-4715-b6d5-596a5d67d9f5"},"vehicle_type_id":"4","last_reported":1683313489,"current_range_meters":0,"station_id":"ce4bh2h2rcd13ifvqdh0","pricing_plan_id":"free"},{"bike_id":"349f3d52-db77-420f-91ad-609e4e4c757c","system_id":"levelo_inurba_marseille","lat":43.294153,"lon":5.386305,"is_reserved":false,"is_disabled":false,"rental_uris":{"android":"levelo://app?vid=349f3d52-db77-420f-91ad-609e4e4c757c","ios":"levelo://app?vid=349f3d52-db77-420f-91ad-609e4e4c757c"},"vehicle_type_id":"4","last_reported":1683313489,"current_range_meters":21200,"station_id":"ce4bh2h2rcd13ifvqdh0","pricing_plan_id":"free"},{"bike_id":"f88104b9-97a6-4c45-91a6-3a277ee474de","system_id":"levelo_inurba_marseille","lat":43.29424,"lon":5.38638,"is_reserved":false,"is_disabled":false,"rental_uris":{"android":"levelo://app?vid=f88104b9-97a6-4c45-91a6-3a277ee474de","ios":"levelo://app?vid=f88104b9-97a6-4c45-91a6-3a277ee474de"},"vehicle_type_id":"4","last_reported":1683313489,"current_range_meters":10000,"station_id":"ce4bh2h2rcd13ifvqdh0","pricing_plan_id":"free"},{"bike_id":"bc39020e-ee84-4585-8406-503636db75ec","system_id":"levelo_inurba_marseille","lat":43.294162,"lon":5.386292,"is_reserved":false,"is_disabled":false,"rental_uris":{"android":"levelo://app?vid=bc39020e-ee84-4585-8406-503636db75ec","ios":"levelo://app?vid=bc39020e-ee84-4585-8406-503636db75ec"},"vehicle_type_id":"4","last_reported":1683313489,"current_range_meters":7200,"station_id":"ce4bh2h2rcd13ifvqdh0","pricing_plan_id":"free"},{"bike_id":"dcfb8059-4d3c-4589-9a20-3f01830fc37b","system_id":"levelo_inurba_marseille","lat":43.289184,"lon":5.366408,"is_reserved":false,"is_disabled":false,"rental_uris":{"android":"levelo://app?vid=dcfb8059-4d3c-4589-9a20-3f01830fc37b","ios":"levelo://app?vid=dcfb8059-4d3c-4589-9a20-3f01830fc37b"},"vehicle_type_id":"4","last_reported":1683313489,"current_range_meters":4000,"station_id":"ce4bhap2rcd13ifvqek0","pricing_plan_id":"free"},{"bike_id":"fc6ed387-3da2-40b4-989c-b608a888d228","system_id":"levelo_inurba_marseille","lat":43.289184,"lon":5.366408,"is_reserved":false,"is_disabled":false,"rental_uris":{"android":"levelo://app?vid=fc6ed387-3da2-40b4-989c-b608a888d228","ios":"levelo://app?vid=fc6ed387-3da2-40b4-989c-b608a888d228"},"vehicle_type_id":"4","last_reported":1683313489,"current_range_meters":11600,"station_id":"ce4bhap2rcd13ifvqek0","pricing_plan_id":"free"},{"bike_id":"33e80398-dfa8-46e4-bf81-230d61870f85","system_id":"levelo_inurba_marseille","lat":43.294162,"lon":5.386292,"is_reserved":false,"is_disabled":false,"rental_uris":{"android":"levelo://app?vid=33e80398-dfa8-46e4-bf81-230d61870f85","ios":"levelo://app?vid=33e80398-dfa8-46e4-bf81-230d61870f85"},"vehicle_type_id":"4","last_reported":1683313489,"current_range_meters":22000,"station_id":"ce4bh2h2rcd13ifvqdh0","pricing_plan_id":"free"},{"bike_id":"e3d2afce-a02f-44e4-b3bd-4c0ffda05a94","system_id":"levelo_inurba_marseille","lat":43.294162,"lon":5.386292,"is_reserved":false,"is_disabled":false,"rental_uris":{"android":"levelo://app?vid=e3d2afce-a02f-44e4-b3bd-4c0ffda05a94","ios":"levelo://app?vid=e3d2afce-a02f-44e4-b3bd-4c0ffda05a94"},"vehicle_type_id":"4","last_reported":1683313489,"current_range_meters":9600,"station_id":"ce4bh2h2rcd13ifvqdh0","pricing_plan_id":"free"},{"bike_id":"a9390a13-e390-4b3c-b3f1-8840e7b935ce","system_id":"levelo_inurba_marseille","lat":43.289184,"lon":5.366408,"is_reserved":false,"is_disabled":false,"rental_uris":{"android":"levelo://app?vid=a9390a13-e390-4b3c-b3f1-8840e7b935ce","ios":"levelo://app?vid=a9390a13-e390-4b3c-b3f1-8840e7b935ce"},"vehicle_type_id":"4","last_reported":1683313489,"current_range_meters":31200,"station_id":"ce4bhap2rcd13ifvqek0","pricing_plan_id":"free"},{"bike_id":"e437b40e-bab5-4749-880a-35e7d837afec","system_id":"levelo_inurba_marseille","lat":43.289184,"lon":5.366408,"is_reserved":false,"is_disabled":false,"rental_uris":{"android":"levelo://app?vid=e437b40e-bab5-4749-880a-35e7d837afec","ios":"levelo://app?vid=e437b40e-bab5-4749-880a-35e7d837afec"},"vehicle_type_id":"4","last_reported":1683313489,"current_range_meters":22400,"station_id":"ce4bhap2rcd13ifvqek0","pricing_plan_id":"free"},{"bike_id":"ea2e4129-8b3f-480a-bf74-1d30246883fc","system_id":"levelo_inurba_marseille","lat":43.289184,"lon":5.366408,"is_reserved":false,"is_disabled":false,"rental_uris":{"android":"levelo://app?vid=ea2e4129-8b3f-480a-bf74-1d30246883fc","ios":"levelo://app?vid=ea2e4129-8b3f-480a-bf74-1d30246883fc"},"vehicle_type_id":"4","last_reported":1683313489,"current_range_meters":20800,"station_id":"ce4bhap2rcd13ifvqek0","pricing_plan_id":"free"},{"bike_id":"4bed4299-e684-42fa-b8d5-4189f4d24c97","system_id":"levelo_inurba_marseille","lat":43.289184,"lon":5.366408,"is_reserved":false,"is_disabled":false,"rental_uris":{"android":"levelo://app?vid=4bed4299-e684-42fa-b8d5-4189f4d24c97","ios":"levelo://app?vid=4bed4299-e684-42fa-b8d5-4189f4d24c97"},"vehicle_type_id":"4","last_reported":1683313489,"current_range_meters":11200,"station_id":"ce4bhap2rcd13ifvqek0","pricing_plan_id":"free"},{"bike_id":"0bc668fa-c7eb-4b07-b7d9-ff199b8ac796","system_id":"levelo_inurba_marseille","lat":43.294153,"lon":5.386305,"is_reserved":false,"is_disabled":false,"rental_uris":{"android":"levelo://app?vid=0bc668fa-c7eb-4b07-b7d9-ff199b8ac796","ios":"levelo://app?vid=0bc668fa-c7eb-4b07-b7d9-ff199b8ac796"},"vehicle_type_id":"4","last_reported":1683313489,"current_range_meters":6000,"station_id":"ce4bh2h2rcd13ifvqdh0","pricing_plan_id":"free"},{"bike_id":"2bfe7b28-33f6-4a4d-aacd-b880cc12ab9f","system_id":"levelo_inurba_marseille","lat":43.28937,"lon":5.36633,"is_reserved":false,"is_disabled":false,"rental_uris":{"android":"levelo://app?vid=2bfe7b28-33f6-4a4d-aacd-b880cc12ab9f","ios":"levelo://app?vid=2bfe7b28-33f6-4a4d-aacd-b880cc12ab9f"},"vehicle_type_id":"4","last_reported":1683313489,"current_range_meters":18800,"station_id":"ce4bhap2rcd13ifvqek0","pricing_plan_id":"free"},{"bike_id":"2d0281c9-e4eb-47e4-ab66-62ca5f79c177","system_id":"levelo_inurba_marseille","lat":43.289184,"lon":5.366408,"is_reserved":false,"is_disabled":false,"rental_uris":{"android":"levelo://app?vid=2d0281c9-e4eb-47e4-ab66-62ca5f79c177","ios":"levelo://app?vid=2d0281c9-e4eb-47e4-ab66-62ca5f79c177"},"vehicle_type_id":"4","last_reported":1683313489,"current_range_meters":8000,"station_id":"ce4bhap2rcd13ifvqek0","pricing_plan_id":"free"},{"bike_id":"807405a3-8d8d-41ca-93ab-8a6b5d03327b","system_id":"levelo_inurba_marseille","lat":43.289184,"lon":5.366408,"is_reserved":false,"is_disabled":false,"rental_uris":{"android":"levelo://app?vid=807405a3-8d8d-41ca-93ab-8a6b5d03327b","ios":"levelo://app?vid=807405a3-8d8d-41ca-93ab-8a6b5d03327b"},"vehicle_type_id":"4","last_reported":1683313489,"current_range_meters":14800,"station_id":"ce4bhap2rcd13ifvqek0","pricing_plan_id":"free"},{"bike_id":"7d647342-681d-49d9-be4c-b1f7647608fc","system_id":"levelo_inurba_marseille","lat":43.289468,"lon":5.363719,"is_reserved":false,"is_disabled":false,"rental_uris":{"android":"levelo://app?vid=7d647342-681d-49d9-be4c-b1f7647608fc","ios":"levelo://app?vid=7d647342-681d-49d9-be4c-b1f7647608fc"},"vehicle_type_id":"4","last_reported":1683313489,"current_range_meters":18800,"station_id":"ce4bhc92rcd13ifvqetg","pricing_plan_id":"free"},{"bike_id":"5365f9dc-390d-4ceb-b178-f7daa5352523","system_id":"levelo_inurba_marseille","lat":43.289184,"lon":5.366408,"is_reserved":false,"is_disabled":false,"rental_uris":{"android":"levelo://app?vid=5365f9dc-390d-4ceb-b178-f7daa5352523","ios":"levelo://app?vid=5365f9dc-390d-4ceb-b178-f7daa5352523"},"vehicle_type_id":"4","last_reported":1683313489,"current_range_meters":31200,"station_id":"ce4bhap2rcd13ifvqek0","pricing_plan_id":"free"},{"bike_id":"e3656171-4719-426d-aacf-cccee32dbab8","system_id":"levelo_inurba_marseille","lat":43.289184,"lon":5.366408,"is_reserved":false,"is_disabled":false,"rental_uris":{"android":"levelo://app?vid=e3656171-4719-426d-aacf-cccee32dbab8","ios":"levelo://app?vid=e3656171-4719-426d-aacf-cccee32dbab8"},"vehicle_type_id":"4","last_reported":1683313489,"current_range_meters":30800,"station_id":"ce4bhap2rcd13ifvqek0","pricing_plan_id":"free"},{"bike_id":"9ae0fa69-69a8-4e1e-9972-28f09c36fb7c","system_id":"levelo_inurba_marseille","lat":43.289184,"lon":5.366408,"is_reserved":false,"is_disabled":false,"rental_uris":{"android":"levelo://app?vid=9ae0fa69-69a8-4e1e-9972-28f09c36fb7c","ios":"levelo://app?vid=9ae0fa69-69a8-4e1e-9972-28f09c36fb7c"},"vehicle_type_id":"4","last_reported":1683313489,"current_range_meters":25200,"station_id":"ce4bhap2rcd13ifvqek0","pricing_plan_id":"free"},{"bike_id":"2fe73163-1655-46aa-8b80-72d744770023","system_id":"levelo_inurba_marseille","lat":43.289468,"lon":5.363719,"is_reserved":false,"is_disabled":false,"rental_uris":{"android":"levelo://app?vid=2fe73163-1655-46aa-8b80-72d744770023","ios":"levelo://app?vid=2fe73163-1655-46aa-8b80-72d744770023"},"vehicle_type_id":"4","last_reported":1683313489,"current_range_meters":18800,"station_id":"ce4bhc92rcd13ifvqetg","pricing_plan_id":"free"},{"bike_id":"6921e770-f4aa-4d9b-9f3a-19a2c0e8fd58","system_id":"levelo_inurba_marseille","lat":43.289184,"lon":5.366408,"is_reserved":false,"is_disabled":false,"rental_uris":{"android":"levelo://app?vid=6921e770-f4aa-4d9b-9f3a-19a2c0e8fd58","ios":"levelo://app?vid=6921e770-f4aa-4d9b-9f3a-19a2c0e8fd58"},"vehicle_type_id":"4","last_reported":1683313489,"current_range_meters":0,"station_id":"ce4bhap2rcd13ifvqek0","pricing_plan_id":"free"},{"bike_id":"3fff42cf-7db6-499a-9eb4-5d7b24957ee7","system_id":"levelo_inurba_marseille","lat":43.289184,"lon":5.366408,"is_reserved":false,"is_disabled":false,"rental_uris":{"android":"levelo://app?vid=3fff42cf-7db6-499a-9eb4-5d7b24957ee7","ios":"levelo://app?vid=3fff42cf-7db6-499a-9eb4-5d7b24957ee7"},"vehicle_type_id":"4","last_reported":1683313489,"current_range_meters":16400,"station_id":"ce4bhap2rcd13ifvqek0","pricing_plan_id":"free"},{"bike_id":"3e4d8d3e-3a74-4649-a9e4-2580cd049b4b","system_id":"levelo_inurba_marseille","lat":43.289184,"lon":5.366408,"is_reserved":false,"is_disabled":false,"rental_uris":{"android":"levelo://app?vid=3e4d8d3e-3a74-4649-a9e4-2580cd049b4b","ios":"levelo://app?vid=3e4d8d3e-3a74-4649-a9e4-2580cd049b4b"},"vehicle_type_id":"4","last_reported":1683313489,"current_range_meters":11600,"station_id":"ce4bhap2rcd13ifvqek0","pricing_plan_id":"free"},{"bike_id":"dd76f83c-d667-4e50-9905-1420228c1223","system_id":"levelo_inurba_marseille","lat":43.289468,"lon":5.363719,"is_reserved":false,"is_disabled":false,"rental_uris":{"android":"levelo://app?vid=dd76f83c-d667-4e50-9905-1420228c1223","ios":"levelo://app?vid=dd76f83c-d667-4e50-9905-1420228c1223"},"vehicle_type_id":"4","last_reported":1683313489,"current_range_meters":19600,"station_id":"ce4bhc92rcd13ifvqetg","pricing_plan_id":"free"},{"bike_id":"116e13e6-7f0f-4b74-aa7f-934363f1b6e9","system_id":"levelo_inurba_marseille","lat":43.292644,"lon":5.384257,"is_reserved":false,"is_disabled":false,"rental_uris":{"android":"levelo://app?vid=116e13e6-7f0f-4b74-aa7f-934363f1b6e9","ios":"levelo://app?vid=116e13e6-7f0f-4b74-aa7f-934363f1b6e9"},"vehicle_type_id":"4","last_reported":1683313489,"current_range_meters":18800,"station_id":"ce4bh692rcd13ifvqea0","pricing_plan_id":"free"},{"bike_id":"35df0e66-f90e-4ad4-9bfa-c2e3510248cf","system_id":"levelo_inurba_marseille","lat":43.292642,"lon":5.384254,"is_reserved":false,"is_disabled":false,"rental_uris":{"android":"levelo://app?vid=35df0e66-f90e-4ad4-9bfa-c2e3510248cf","ios":"levelo://app?vid=35df0e66-f90e-4ad4-9bfa-c2e3510248cf"},"vehicle_type_id":"4","last_reported":1683313489,"current_range_meters":0,"station_id":"ce4bh692rcd13ifvqea0","pricing_plan_id":"free"},{"bike_id":"5a147a84-141f-499e-948c-6af71b713ad2","system_id":"levelo_inurba_marseille","lat":43.292644,"lon":5.384257,"is_reserved":false,"is_disabled":false,"rental_uris":{"android":"levelo://app?vid=5a147a84-141f-499e-948c-6af71b713ad2","ios":"levelo://app?vid=5a147a84-141f-499e-948c-6af71b713ad2"},"vehicle_type_id":"4","last_reported":1683313489,"current_range_meters":17600,"station_id":"ce4bh692rcd13ifvqea0","pricing_plan_id":"free"},{"bike_id":"ad505a2e-4906-4fc0-98da-0b4bd4e14eb2","system_id":"levelo_inurba_marseille","lat":43.29261,"lon":5.38449,"is_reserved":false,"is_disabled":false,"rental_uris":{"android":"levelo://app?vid=ad505a2e-4906-4fc0-98da-0b4bd4e14eb2","ios":"levelo://app?vid=ad505a2e-4906-4fc0-98da-0b4bd4e14eb2"},"vehicle_type_id":"4","last_reported":1683313489,"current_range_meters":14000,"station_id":"ce4bh692rcd13ifvqea0","pricing_plan_id":"free"},{"bike_id":"fbf4912c-dfcc-4723-b4f2-b5012e8d4f5c","system_id":"levelo_inurba_marseille","lat":43.299028,"lon":5.381509,"is_reserved":false,"is_disabled":false,"rental_uris":{"android":"levelo://app?vid=fbf4912c-dfcc-4723-b4f2-b5012e8d4f5c","ios":"levelo://app?vid=fbf4912c-dfcc-4723-b4f2-b5012e8d4f5c"},"vehicle_type_id":"4","last_reported":1683313489,"current_range_meters":10000,"station_id":"ce4bgj12rcd13ifvqbc0","pricing_plan_id":"free"},{"bike_id":"5386ea6f-18b2-47cb-a630-069d42cef193","system_id":"levelo_inurba_marseille","lat":43.304274,"lon":5.397513,"is_reserved":false,"is_disabled":false,"rental_uris":{"android":"levelo://app?vid=5386ea6f-18b2-47cb-a630-069d42cef193","ios":"levelo://app?vid=5386ea6f-18b2-47cb-a630-069d42cef193"},"vehicle_type_id":"4","last_reported":1683313489,"current_range_meters":12000,"station_id":"ce4bh092rcd13ifvqd20","pricing_plan_id":"free"},{"bike_id":"443b2cbe-beda-4cba-8400-38f32e86a698","system_id":"levelo_inurba_marseille","lat":43.2901,"lon":5.35618,"is_reserved":false,"is_disabled":false,"rental_uris":{"android":"levelo://app?vid=443b2cbe-beda-4cba-8400-38f32e86a698","ios":"levelo://app?vid=443b2cbe-beda-4cba-8400-38f32e86a698"},"vehicle_type_id":"4","last_reported":1683313489,"current_range_meters":0,"station_id":"ce4bhb92rcd13ifvqen0","pricing_plan_id":"free"},{"bike_id":"d6233f8b-531d-433b-b8e9-589e3920c098","system_id":"levelo_inurba_marseille","lat":43.330407,"lon":5.389165,"is_reserved":false,"is_disabled":false,"rental_uris":{"android":"levelo://app?vid=d6233f8b-531d-433b-b8e9-589e3920c098","ios":"levelo://app?vid=d6233f8b-531d-433b-b8e9-589e3920c098"},"vehicle_type_id":"4","last_reported":1683313489,"current_range_meters":25200,"station_id":"ce4bhr92rcd13ifvqhrg","pricing_plan_id":"free"},{"bike_id":"c0b39783-7886-4047-9a8d-355fea0e4444","system_id":"levelo_inurba_marseille","lat":43.330412,"lon":5.389164,"is_reserved":false,"is_disabled":false,"rental_uris":{"android":"levelo://app?vid=c0b39783-7886-4047-9a8d-355fea0e4444","ios":"levelo://app?vid=c0b39783-7886-4047-9a8d-355fea0e4444"},"vehicle_type_id":"4","last_reported":1683313489,"current_range_meters":24800,"station_id":"ce4bhr92rcd13ifvqhrg","pricing_plan_id":"free"},{"bike_id":"c7d204ce-6619-491c-8812-dc4b0a6a663b","system_id":"levelo_inurba_marseille","lat":43.330406,"lon":5.389172,"is_reserved":false,"is_disabled":false,"rental_uris":{"android":"levelo://app?vid=c7d204ce-6619-491c-8812-dc4b0a6a663b","ios":"levelo://app?vid=c7d204ce-6619-491c-8812-dc4b0a6a663b"},"vehicle_type_id":"4","last_reported":1683313489,"current_range_meters":31600,"station_id":"ce4bhr92rcd13ifvqhrg","pricing_plan_id":"free"},{"bike_id":"abc8910a-11a1-428d-9307-82a3e105047a","system_id":"levelo_inurba_marseille","lat":43.290104,"lon":5.356111,"is_reserved":false,"is_disabled":false,"rental_uris":{"android":"levelo://app?vid=abc8910a-11a1-428d-9307-82a3e105047a","ios":"levelo://app?vid=abc8910a-11a1-428d-9307-82a3e105047a"},"vehicle_type_id":"4","last_reported":1683313489,"current_range_meters":13600,"station_id":"ce4bhb92rcd13ifvqen0","pricing_plan_id":"free"},{"bike_id":"c6a5f3db-467c-47f5-acd9-61fe8cd674ee","system_id":"levelo_inurba_marseille","lat":43.330417,"lon":5.389183,"is_reserved":false,"is_disabled":false,"rental_uris":{"android":"levelo://app?vid=c6a5f3db-467c-47f5-acd9-61fe8cd674ee","ios":"levelo://app?vid=c6a5f3db-467c-47f5-acd9-61fe8cd674ee"},"vehicle_type_id":"4","last_reported":1683313489,"current_range_meters":26800,"station_id":"ce4bhr92rcd13ifvqhrg","pricing_plan_id":"free"},{"bike_id":"91ca08cc-a5cd-4892-a221-5d899e4b82b0","system_id":"levelo_inurba_marseille","lat":43.290103,"lon":5.356114,"is_reserved":false,"is_disabled":false,"rental_uris":{"android":"levelo://app?vid=91ca08cc-a5cd-4892-a221-5d899e4b82b0","ios":"levelo://app?vid=91ca08cc-a5cd-4892-a221-5d899e4b82b0"},"vehicle_type_id":"4","last_reported":1683313489,"current_range_meters":21600,"station_id":"ce4bhb92rcd13ifvqen0","pricing_plan_id":"free"},{"bike_id":"53fe0696-8fbc-48b8-831c-c78693c5a58b","system_id":"levelo_inurba_marseille","lat":43.330443,"lon":5.38917,"is_reserved":false,"is_disabled":false,"rental_uris":{"android":"levelo://app?vid=53fe0696-8fbc-48b8-831c-c78693c5a58b","ios":"levelo://app?vid=53fe0696-8fbc-48b8-831c-c78693c5a58b"},"vehicle_type_id":"4","last_reported":1683313489,"current_range_meters":19600,"station_id":"ce4bhr92rcd13ifvqhrg","pricing_plan_id":"free"},{"bike_id":"da86836b-d020-456b-ad95-a73c452d8db8","system_id":"levelo_inurba_marseille","lat":43.33045,"lon":5.38916,"is_reserved":false,"is_disabled":false,"rental_uris":{"android":"levelo://app?vid=da86836b-d020-456b-ad95-a73c452d8db8","ios":"levelo://app?vid=da86836b-d020-456b-ad95-a73c452d8db8"},"vehicle_type_id":"4","last_reported":1683313489,"current_range_meters":20800,"station_id":"ce4bhr92rcd13ifvqhrg","pricing_plan_id":"free"},{"bike_id":"8354f027-4ab3-43cf-aa5a-b91f8b7b635d","system_id":"levelo_inurba_marseille","lat":43.33047,"lon":5.38914,"is_reserved":false,"is_disabled":false,"rental_uris":{"android":"levelo://app?vid=8354f027-4ab3-43cf-aa5a-b91f8b7b635d","ios":"levelo://app?vid=8354f027-4ab3-43cf-aa5a-b91f8b7b635d"},"vehicle_type_id":"4","last_reported":1683313489,"current_range_meters":15600,"station_id":"ce4bhr92rcd13ifvqhrg","pricing_plan_id":"free"},{"bike_id":"10a8eeb7-4f93-4e8d-81bd-f27d3d4ef515","system_id":"levelo_inurba_marseille","lat":43.330408,"lon":5.389234,"is_reserved":false,"is_disabled":false,"rental_uris":{"android":"levelo://app?vid=10a8eeb7-4f93-4e8d-81bd-f27d3d4ef515","ios":"levelo://app?vid=10a8eeb7-4f93-4e8d-81bd-f27d3d4ef515"},"vehicle_type_id":"4","last_reported":1683313489,"current_range_meters":29600,"station_id":"ce4bhr92rcd13ifvqhrg","pricing_plan_id":"free"},{"bike_id":"ca24a59f-d386-41a3-bec3-cccfb35035a7","system_id":"levelo_inurba_marseille","lat":43.33048,"lon":5.38913,"is_reserved":false,"is_disabled":false,"rental_uris":{"android":"levelo://app?vid=ca24a59f-d386-41a3-bec3-cccfb35035a7","ios":"levelo://app?vid=ca24a59f-d386-41a3-bec3-cccfb35035a7"},"vehicle_type_id":"4","last_reported":1683313489,"current_range_meters":3200,"station_id":"ce4bhr92rcd13ifvqhrg","pricing_plan_id":"free"},{"bike_id":"eec179c5-79de-473a-a2fe-2282099fce04","system_id":"levelo_inurba_marseille","lat":43.33043,"lon":5.38923,"is_reserved":false,"is_disabled":false,"rental_uris":{"android":"levelo://app?vid=eec179c5-79de-473a-a2fe-2282099fce04","ios":"levelo://app?vid=eec179c5-79de-473a-a2fe-2282099fce04"},"vehicle_type_id":"4","last_reported":1683313489,"current_range_meters":23200,"station_id":"ce4bhr92rcd13ifvqhrg","pricing_plan_id":"free"},{"bike_id":"59e80f36-b3f1-429c-a32c-105a6092fde6","system_id":"levelo_inurba_marseille","lat":43.290104,"lon":5.356111,"is_reserved":false,"is_disabled":false,"rental_uris":{"android":"levelo://app?vid=59e80f36-b3f1-429c-a32c-105a6092fde6","ios":"levelo://app?vid=59e80f36-b3f1-429c-a32c-105a6092fde6"},"vehicle_type_id":"4","last_reported":1683313489,"current_range_meters":19200,"station_id":"ce4bhb92rcd13ifvqen0","pricing_plan_id":"free"},{"bike_id":"206c8af1-a56d-48ca-9b60-4c2387bf9276","system_id":"levelo_inurba_marseille","lat":43.290103,"lon":5.356114,"is_reserved":false,"is_disabled":false,"rental_uris":{"android":"levelo://app?vid=206c8af1-a56d-48ca-9b60-4c2387bf9276","ios":"levelo://app?vid=206c8af1-a56d-48ca-9b60-4c2387bf9276"},"vehicle_type_id":"4","last_reported":1683313489,"current_range_meters":0,"station_id":"ce4bhb92rcd13ifvqen0","pricing_plan_id":"free"},{"bike_id":"496fc879-c6a2-4335-9eab-2fdd6a6f8bf1","system_id":"levelo_inurba_marseille","lat":43.33046,"lon":5.3892,"is_reserved":false,"is_disabled":false,"rental_uris":{"android":"levelo://app?vid=496fc879-c6a2-4335-9eab-2fdd6a6f8bf1","ios":"levelo://app?vid=496fc879-c6a2-4335-9eab-2fdd6a6f8bf1"},"vehicle_type_id":"4","last_reported":1683313489,"current_range_meters":20400,"station_id":"ce4bhr92rcd13ifvqhrg","pricing_plan_id":"free"},{"bike_id":"3ef85353-2d32-473e-80f5-60de989bb4bd","system_id":"levelo_inurba_marseille","lat":43.290995,"lon":5.381361,"is_reserved":false,"is_disabled":false,"rental_uris":{"android":"levelo://app?vid=3ef85353-2d32-473e-80f5-60de989bb4bd","ios":"levelo://app?vid=3ef85353-2d32-473e-80f5-60de989bb4bd"},"vehicle_type_id":"4","last_reported":1683313489,"current_range_meters":0,"station_id":"ce4bh512rcd13ifvqe2g","pricing_plan_id":"free"},{"bike_id":"85c89989-8992-4865-90cb-28b70dbd9b76","system_id":"levelo_inurba_marseille","lat":43.295169,"lon":5.390426,"is_reserved":false,"is_disabled":false,"rental_uris":{"android":"levelo://app?vid=85c89989-8992-4865-90cb-28b70dbd9b76","ios":"levelo://app?vid=85c89989-8992-4865-90cb-28b70dbd9b76"},"vehicle_type_id":"4","last_reported":1683313489,"current_range_meters":22000,"station_id":"ce4bh3p2rcd13ifvqdp0","pricing_plan_id":"free"},{"bike_id":"d6ed81ac-0c18-4eef-860e-710c136cfd2a","system_id":"levelo_inurba_marseille","lat":43.2901,"lon":5.381269,"is_reserved":false,"is_disabled":false,"rental_uris":{"android":"levelo://app?vid=d6ed81ac-0c18-4eef-860e-710c136cfd2a","ios":"levelo://app?vid=d6ed81ac-0c18-4eef-860e-710c136cfd2a"},"vehicle_type_id":"4","last_reported":1683313489,"current_range_meters":800,"station_id":"ce4bh4p2rcd13ifvqe1g","pricing_plan_id":"free"},{"bike_id":"c7ea55b2-d79f-474e-b710-6d68f5af58d1","system_id":"levelo_inurba_marseille","lat":43.28856,"lon":5.358371,"is_reserved":false,"is_disabled":false,"rental_uris":{"android":"levelo://app?vid=c7ea55b2-d79f-474e-b710-6d68f5af58d1","ios":"levelo://app?vid=c7ea55b2-d79f-474e-b710-6d68f5af58d1"},"vehicle_type_id":"4","last_reported":1683313489,"current_range_meters":2000,"station_id":"ce4bhb12rcd13ifvqem0","pricing_plan_id":"free"},{"bike_id":"e65a4a59-f25c-4aeb-aede-cb55253ee760","system_id":"levelo_inurba_marseille","lat":43.28856,"lon":5.358371,"is_reserved":false,"is_disabled":false,"rental_uris":{"android":"levelo://app?vid=e65a4a59-f25c-4aeb-aede-cb55253ee760","ios":"levelo://app?vid=e65a4a59-f25c-4aeb-aede-cb55253ee760"},"vehicle_type_id":"4","last_reported":1683313489,"current_range_meters":25600,"station_id":"ce4bhb12rcd13ifvqem0","pricing_plan_id":"free"},{"bike_id":"09f64117-3203-4d7e-b332-a4143d032af6","system_id":"levelo_inurba_marseille","lat":43.28856,"lon":5.358371,"is_reserved":false,"is_disabled":false,"rental_uris":{"android":"levelo://app?vid=09f64117-3203-4d7e-b332-a4143d032af6","ios":"levelo://app?vid=09f64117-3203-4d7e-b332-a4143d032af6"},"vehicle_type_id":"4","last_reported":1683313489,"current_range_meters":30800,"station_id":"ce4bhb12rcd13ifvqem0","pricing_plan_id":"free"},{"bike_id":"34320fce-24bb-4291-be42-2c361aed67f0","system_id":"levelo_inurba_marseille","lat":43.33746,"lon":5.3745,"is_reserved":false,"is_disabled":false,"rental_uris":{"android":"levelo://app?vid=34320fce-24bb-4291-be42-2c361aed67f0","ios":"levelo://app?vid=34320fce-24bb-4291-be42-2c361aed67f0"},"vehicle_type_id":"4","last_reported":1683313489,"current_range_meters":26800,"station_id":"","pricing_plan_id":"free"},{"bike_id":"d1338cde-b3d1-46b1-8800-7a50c92c327c","system_id":"levelo_inurba_marseille","lat":43.3375,"lon":5.3743,"is_reserved":false,"is_disabled":false,"rental_uris":{"android":"levelo://app?vid=d1338cde-b3d1-46b1-8800-7a50c92c327c","ios":"levelo://app?vid=d1338cde-b3d1-46b1-8800-7a50c92c327c"},"vehicle_type_id":"4","last_reported":1683313489,"current_range_meters":30000,"station_id":"","pricing_plan_id":"free"},{"bike_id":"cc5900b6-b927-49fc-82db-4d13a3d02316","system_id":"levelo_inurba_marseille","lat":43.33752,"lon":5.37486,"is_reserved":false,"is_disabled":false,"rental_uris":{"android":"levelo://app?vid=cc5900b6-b927-49fc-82db-4d13a3d02316","ios":"levelo://app?vid=cc5900b6-b927-49fc-82db-4d13a3d02316"},"vehicle_type_id":"4","last_reported":1683313489,"current_range_meters":29200,"station_id":"","pricing_plan_id":"free"},{"bike_id":"20083ae5-f09f-4d10-9758-3cdd331d6a45","system_id":"levelo_inurba_marseille","lat":43.3376,"lon":5.37456,"is_reserved":false,"is_disabled":false,"rental_uris":{"android":"levelo://app?vid=20083ae5-f09f-4d10-9758-3cdd331d6a45","ios":"levelo://app?vid=20083ae5-f09f-4d10-9758-3cdd331d6a45"},"vehicle_type_id":"4","last_reported":1683313489,"current_range_meters":19600,"station_id":"","pricing_plan_id":"free"},{"bike_id":"db84b57a-c242-4d31-93f3-e9f12005c4b3","system_id":"levelo_inurba_marseille","lat":43.33762,"lon":5.37494,"is_reserved":false,"is_disabled":false,"rental_uris":{"android":"levelo://app?vid=db84b57a-c242-4d31-93f3-e9f12005c4b3","ios":"levelo://app?vid=db84b57a-c242-4d31-93f3-e9f12005c4b3"},"vehicle_type_id":"4","last_reported":1683313489,"current_range_meters":30000,"station_id":"","pricing_plan_id":"free"},{"bike_id":"58496610-6b77-41cc-888f-a44d3d601abf","system_id":"levelo_inurba_marseille","lat":43.301117,"lon":5.398795,"is_reserved":false,"is_disabled":false,"rental_uris":{"android":"levelo://app?vid=58496610-6b77-41cc-888f-a44d3d601abf","ios":"levelo://app?vid=58496610-6b77-41cc-888f-a44d3d601abf"},"vehicle_type_id":"4","last_reported":1683313489,"current_range_meters":18800,"station_id":"ce4bh0h2rcd13ifvqd40","pricing_plan_id":"free"},{"bike_id":"8a9817be-9040-4f9d-90f1-7d2d992f78cb","system_id":"levelo_inurba_marseille","lat":43.30114,"lon":5.39845,"is_reserved":false,"is_disabled":false,"rental_uris":{"android":"levelo://app?vid=8a9817be-9040-4f9d-90f1-7d2d992f78cb","ios":"levelo://app?vid=8a9817be-9040-4f9d-90f1-7d2d992f78cb"},"vehicle_type_id":"4","last_reported":1683313489,"current_range_meters":4800,"station_id":"","pricing_plan_id":"free"},{"bike_id":"3afab6ec-8aeb-4c44-ab25-ecb85e386774","system_id":"levelo_inurba_marseille","lat":43.301117,"lon":5.398795,"is_reserved":false,"is_disabled":false,"rental_uris":{"android":"levelo://app?vid=3afab6ec-8aeb-4c44-ab25-ecb85e386774","ios":"levelo://app?vid=3afab6ec-8aeb-4c44-ab25-ecb85e386774"},"vehicle_type_id":"4","last_reported":1683313489,"current_range_meters":24800,"station_id":"ce4bh0h2rcd13ifvqd40","pricing_plan_id":"free"},{"bike_id":"b345fc38-4e94-4de5-af3c-7a5d7e580b39","system_id":"levelo_inurba_marseille","lat":43.298681,"lon":5.397225,"is_reserved":false,"is_disabled":false,"rental_uris":{"android":"levelo://app?vid=b345fc38-4e94-4de5-af3c-7a5d7e580b39","ios":"levelo://app?vid=b345fc38-4e94-4de5-af3c-7a5d7e580b39"},"vehicle_type_id":"4","last_reported":1683313489,"current_range_meters":9600,"station_id":"ce4bh0h2rcd13ifvqd50","pricing_plan_id":"free"},{"bike_id":"c452a78d-8a25-4dac-a034-b406e8dd2a51","system_id":"levelo_inurba_marseille","lat":43.28739,"lon":5.358,"is_reserved":false,"is_disabled":false,"rental_uris":{"android":"levelo://app?vid=c452a78d-8a25-4dac-a034-b406e8dd2a51","ios":"levelo://app?vid=c452a78d-8a25-4dac-a034-b406e8dd2a51"},"vehicle_type_id":"4","last_reported":1683313489,"current_range_meters":8800,"station_id":"","pricing_plan_id":"free"},{"bike_id":"be7600b0-bea7-4e1d-bf49-5295aab51154","system_id":"levelo_inurba_marseille","lat":43.286593,"lon":5.363346,"is_reserved":false,"is_disabled":false,"rental_uris":{"android":"levelo://app?vid=be7600b0-bea7-4e1d-bf49-5295aab51154","ios":"levelo://app?vid=be7600b0-bea7-4e1d-bf49-5295aab51154"},"vehicle_type_id":"4","last_reported":1683313489,"current_range_meters":28000,"station_id":"ce4bhah2rcd13ifvqej0","pricing_plan_id":"free"},{"bike_id":"8d215c16-141a-41dc-9fe1-3cc4ca75acd8","system_id":"levelo_inurba_marseille","lat":43.298681,"lon":5.397225,"is_reserved":false,"is_disabled":false,"rental_uris":{"android":"levelo://app?vid=8d215c16-141a-41dc-9fe1-3cc4ca75acd8","ios":"levelo://app?vid=8d215c16-141a-41dc-9fe1-3cc4ca75acd8"},"vehicle_type_id":"4","last_reported":1683313489,"current_range_meters":26800,"station_id":"ce4bh0h2rcd13ifvqd50","pricing_plan_id":"free"},{"bike_id":"3e3892e1-569e-4cf5-a2d3-a2ecb87a3bca","system_id":"levelo_inurba_marseille","lat":43.298681,"lon":5.397225,"is_reserved":false,"is_disabled":false,"rental_uris":{"android":"levelo://app?vid=3e3892e1-569e-4cf5-a2d3-a2ecb87a3bca","ios":"levelo://app?vid=3e3892e1-569e-4cf5-a2d3-a2ecb87a3bca"},"vehicle_type_id":"4","last_reported":1683313489,"current_range_meters":27200,"station_id":"ce4bh0h2rcd13ifvqd50","pricing_plan_id":"free"},{"bike_id":"eba8acce-33e5-4827-8606-d5074ab8a161","system_id":"levelo_inurba_marseille","lat":43.298681,"lon":5.397225,"is_reserved":false,"is_disabled":false,"rental_uris":{"android":"levelo://app?vid=eba8acce-33e5-4827-8606-d5074ab8a161","ios":"levelo://app?vid=eba8acce-33e5-4827-8606-d5074ab8a161"},"vehicle_type_id":"4","last_reported":1683313489,"current_range_meters":2800,"station_id":"ce4bh0h2rcd13ifvqd50","pricing_plan_id":"free"},