{"last_updated":1778495229,"ttl":60,"version":"2.2","data":{"bikes":[{"bike_id":"206d0257-924f-44b2-848a-c3793bb042d2","system_id":"levelo_inurba_marseille","lat":43.27451,"lon":5.39402,"is_reserved":false,"is_disabled":true,"rental_uris":{"android":"levelo://app?vid=206d0257-924f-44b2-848a-c3793bb042d2","ios":"levelo://app?vid=206d0257-924f-44b2-848a-c3793bb042d2"},"vehicle_type_id":"4","last_reported":1778495230,"current_range_meters":2800,"station_id":"ce4bhdp2rcd13ifvqf20","pricing_plan_id":"cebpf4jnsgd1na2vs0mg"},{"bike_id":"1aacab34-8d6b-4103-8c30-df8f21e6b398","system_id":"levelo_inurba_marseille","lat":43.29493,"lon":5.37431,"is_reserved":false,"is_disabled":true,"rental_uris":{"android":"levelo://app?vid=1aacab34-8d6b-4103-8c30-df8f21e6b398","ios":"levelo://app?vid=1aacab34-8d6b-4103-8c30-df8f21e6b398"},"vehicle_type_id":"4","last_reported":1778495230,"current_range_meters":2800,"station_id":"","pricing_plan_id":"cebpf4jnsgd1na2vs0mg"},{"bike_id":"2e94dd12-e1ba-4921-80e2-0115f1a42a93","system_id":"levelo_inurba_marseille","lat":43.25701,"lon":5.41129,"is_reserved":false,"is_disabled":false,"rental_uris":{"android":"levelo://app?vid=2e94dd12-e1ba-4921-80e2-0115f1a42a93","ios":"levelo://app?vid=2e94dd12-e1ba-4921-80e2-0115f1a42a93"},"vehicle_type_id":"4","last_reported":1778495230,"current_range_meters":2800,"station_id":"ce4bhkp2rcd13ifvqgd0","pricing_plan_id":"cebpf4jnsgd1na2vs0mg"},{"bike_id":"c195363b-f554-48aa-8ffb-c7719ee1b34c","system_id":"levelo_inurba_marseille","lat":43.25536,"lon":5.37526,"is_reserved":false,"is_disabled":false,"rental_uris":{"android":"levelo://app?vid=c195363b-f554-48aa-8ffb-c7719ee1b34c","ios":"levelo://app?vid=c195363b-f554-48aa-8ffb-c7719ee1b34c"},"vehicle_type_id":"4","last_reported":1778495230,"current_range_meters":3200,"station_id":"","pricing_plan_id":"cebpf4jnsgd1na2vs0mg"},{"bike_id":"fc9021dd-6a45-4eae-9ef5-c862bf514c41","system_id":"levelo_inurba_marseille","lat":43.29913,"lon":5.37462,"is_reserved":false,"is_disabled":true,"rental_uris":{"android":"levelo://app?vid=fc9021dd-6a45-4eae-9ef5-c862bf514c41","ios":"levelo://app?vid=fc9021dd-6a45-4eae-9ef5-c862bf514c41"},"vehicle_type_id":"4","last_reported":1778495230,"current_range_meters":3200,"station_id":"","pricing_plan_id":"cebpf4jnsgd1na2vs0mg"},{"bike_id":"18ce8587-878a-4858-b601-9d7adf009359","system_id":"levelo_inurba_marseille","lat":43.27172,"lon":5.39156,"is_reserved":false,"is_disabled":false,"rental_uris":{"android":"levelo://app?vid=18ce8587-878a-4858-b601-9d7adf009359","ios":"levelo://app?vid=18ce8587-878a-4858-b601-9d7adf009359"},"vehicle_type_id":"4","last_reported":1778495230,"current_range_meters":3600,"station_id":"ce4bhhp2rcd13ifvqfm0","pricing_plan_id":"cebpf4jnsgd1na2vs0mg"},{"bike_id":"97018414-c55b-4598-81d9-42a06d4723fe","system_id":"levelo_inurba_marseille","lat":43.26365,"lon":5.41074,"is_reserved":false,"is_disabled":false,"rental_uris":{"android":"levelo://app?vid=97018414-c55b-4598-81d9-42a06d4723fe","ios":"levelo://app?vid=97018414-c55b-4598-81d9-42a06d4723fe"},"vehicle_type_id":"4","last_reported":1778495230,"current_range_meters":3600,"station_id":"st_d4e5ca6na9uc73bfl5fg","pricing_plan_id":"cebpf4jnsgd1na2vs0mg"},{"bike_id":"cc1ec23c-80f3-4e83-99c0-bfca4ca92913","system_id":"levelo_inurba_marseille","lat":43.25583,"lon":5.38221,"is_reserved":false,"is_disabled":false,"rental_uris":{"android":"levelo://app?vid=cc1ec23c-80f3-4e83-99c0-bfca4ca92913","ios":"levelo://app?vid=cc1ec23c-80f3-4e83-99c0-bfca4ca92913"},"vehicle_type_id":"4","last_reported":1778495230,"current_range_meters":3600,"station_id":"ce4bhih2rcd13ifvqfs0","pricing_plan_id":"cebpf4jnsgd1na2vs0mg"},{"bike_id":"be7383ac-c2d2-402b-8bfc-4584706b845c","system_id":"levelo_inurba_marseille","lat":43.26393,"lon":5.41084,"is_reserved":false,"is_disabled":false,"rental_uris":{"android":"levelo://app?vid=be7383ac-c2d2-402b-8bfc-4584706b845c","ios":"levelo://app?vid=be7383ac-c2d2-402b-8bfc-4584706b845c"},"vehicle_type_id":"4","last_reported":1778495230,"current_range_meters":3600,"station_id":"st_d4e5ca6na9uc73bfl5fg","pricing_plan_id":"cebpf4jnsgd1na2vs0mg"},{"bike_id":"410ba55f-30b6-4e47-8c64-2e5a357a1802","system_id":"levelo_inurba_marseille","lat":43.23967,"lon":5.36627,"is_reserved":false,"is_disabled":false,"rental_uris":{"android":"levelo://app?vid=410ba55f-30b6-4e47-8c64-2e5a357a1802","ios":"levelo://app?vid=410ba55f-30b6-4e47-8c64-2e5a357a1802"},"vehicle_type_id":"4","last_reported":1778495230,"current_range_meters":3600,"station_id":"ce4bhi12rcd13ifvqfp0","pricing_plan_id":"cebpf4jnsgd1na2vs0mg"},{"bike_id":"6e624477-b4c6-47d9-8c3c-0abefd9f77ea","system_id":"levelo_inurba_marseille","lat":43.2996,"lon":5.41323,"is_reserved":false,"is_disabled":false,"rental_uris":{"android":"levelo://app?vid=6e624477-b4c6-47d9-8c3c-0abefd9f77ea","ios":"levelo://app?vid=6e624477-b4c6-47d9-8c3c-0abefd9f77ea"},"vehicle_type_id":"4","last_reported":1778495230,"current_range_meters":3600,"station_id":"ce4bhp12rcd13ifvqh9g","pricing_plan_id":"cebpf4jnsgd1na2vs0mg"},{"bike_id":"1d4a0be7-b1c8-4c1c-8e52-2642abc6d953","system_id":"levelo_inurba_marseille","lat":43.30545,"lon":5.36527,"is_reserved":false,"is_disabled":false,"rental_uris":{"android":"levelo://app?vid=1d4a0be7-b1c8-4c1c-8e52-2642abc6d953","ios":"levelo://app?vid=1d4a0be7-b1c8-4c1c-8e52-2642abc6d953"},"vehicle_type_id":"4","last_reported":1778495230,"current_range_meters":3600,"station_id":"ce4bgs12rcd13ifvqcag","pricing_plan_id":"cebpf4jnsgd1na2vs0mg"},{"bike_id":"fbe4a5f5-dbcd-408e-be5f-a21d887706b4","system_id":"levelo_inurba_marseille","lat":43.273658,"lon":5.362368,"is_reserved":false,"is_disabled":false,"rental_uris":{"android":"levelo://app?vid=fbe4a5f5-dbcd-408e-be5f-a21d887706b4","ios":"levelo://app?vid=fbe4a5f5-dbcd-408e-be5f-a21d887706b4"},"vehicle_type_id":"4","last_reported":1778495230,"current_range_meters":3600,"station_id":"ce4bhbh2rcd13ifvqeo0","pricing_plan_id":"cebpf4jnsgd1na2vs0mg"},{"bike_id":"577d0ba9-e2af-4eed-af56-f15cace83bcc","system_id":"levelo_inurba_marseille","lat":43.29263,"lon":5.37616,"is_reserved":false,"is_disabled":false,"rental_uris":{"android":"levelo://app?vid=577d0ba9-e2af-4eed-af56-f15cace83bcc","ios":"levelo://app?vid=577d0ba9-e2af-4eed-af56-f15cace83bcc"},"vehicle_type_id":"4","last_reported":1778495230,"current_range_meters":3600,"station_id":"ce4bgi12rcd13ifvqb80","pricing_plan_id":"cebpf4jnsgd1na2vs0mg"},{"bike_id":"47233bff-c071-48e3-9d2d-1470323b23f8","system_id":"levelo_inurba_marseille","lat":43.23152,"lon":5.4371,"is_reserved":false,"is_disabled":false,"rental_uris":{"android":"levelo://app?vid=47233bff-c071-48e3-9d2d-1470323b23f8","ios":"levelo://app?vid=47233bff-c071-48e3-9d2d-1470323b23f8"},"vehicle_type_id":"4","last_reported":1778495230,"current_range_meters":4000,"station_id":"ce4bhmp2rcd13ifvqgog","pricing_plan_id":"cebpf4jnsgd1na2vs0mg"},{"bike_id":"7a55cea0-fb18-4ae3-8d05-e6520bed9b73","system_id":"levelo_inurba_marseille","lat":43.32112,"lon":5.36755,"is_reserved":false,"is_disabled":false,"rental_uris":{"android":"levelo://app?vid=7a55cea0-fb18-4ae3-8d05-e6520bed9b73","ios":"levelo://app?vid=7a55cea0-fb18-4ae3-8d05-e6520bed9b73"},"vehicle_type_id":"4","last_reported":1778495230,"current_range_meters":4000,"station_id":"ce4bhrh2rcd13ifvqhug","pricing_plan_id":"cebpf4jnsgd1na2vs0mg"},{"bike_id":"d1fd40ae-1fab-4ddf-8152-fc585bd77ce0","system_id":"levelo_inurba_marseille","lat":43.255068,"lon":5.376533,"is_reserved":false,"is_disabled":false,"rental_uris":{"android":"levelo://app?vid=d1fd40ae-1fab-4ddf-8152-fc585bd77ce0","ios":"levelo://app?vid=d1fd40ae-1fab-4ddf-8152-fc585bd77ce0"},"vehicle_type_id":"4","last_reported":1778495230,"current_range_meters":4000,"station_id":"ce4bhh12rcd13ifvqff0","pricing_plan_id":"cebpf4jnsgd1na2vs0mg"},{"bike_id":"89bdea9c-d861-4eda-8128-66d6f942d629","system_id":"levelo_inurba_marseille","lat":43.25322,"lon":5.4216,"is_reserved":false,"is_disabled":true,"rental_uris":{"android":"levelo://app?vid=89bdea9c-d861-4eda-8128-66d6f942d629","ios":"levelo://app?vid=89bdea9c-d861-4eda-8128-66d6f942d629"},"vehicle_type_id":"4","last_reported":1778495230,"current_range_meters":4000,"station_id":"st_d2m65c5bi1j21697t3ng","pricing_plan_id":"cebpf4jnsgd1na2vs0mg"},{"bike_id":"261cf649-a1c5-48d3-88d5-125a9f5c6fac","system_id":"levelo_inurba_marseille","lat":43.28518,"lon":5.3849,"is_reserved":false,"is_disabled":false,"rental_uris":{"android":"levelo://app?vid=261cf649-a1c5-48d3-88d5-125a9f5c6fac","ios":"levelo://app?vid=261cf649-a1c5-48d3-88d5-125a9f5c6fac"},"vehicle_type_id":"4","last_reported":1778495230,"current_range_meters":4000,"station_id":"","pricing_plan_id":"cebpf4jnsgd1na2vs0mg"},{"bike_id":"44ee2362-fe04-4866-ae78-314487a1c926","system_id":"levelo_inurba_marseille","lat":43.26005,"lon":5.38706,"is_reserved":false,"is_disabled":false,"rental_uris":{"android":"levelo://app?vid=44ee2362-fe04-4866-ae78-314487a1c926","ios":"levelo://app?vid=44ee2362-fe04-4866-ae78-314487a1c926"},"vehicle_type_id":"4","last_reported":1778495230,"current_range_meters":4000,"station_id":"","pricing_plan_id":"cebpf4jnsgd1na2vs0mg"},{"bike_id":"733da0ee-4c70-4fa9-b226-8117106f9a96","system_id":"levelo_inurba_marseille","lat":43.25567,"lon":5.38205,"is_reserved":false,"is_disabled":false,"rental_uris":{"android":"levelo://app?vid=733da0ee-4c70-4fa9-b226-8117106f9a96","ios":"levelo://app?vid=733da0ee-4c70-4fa9-b226-8117106f9a96"},"vehicle_type_id":"4","last_reported":1778495230,"current_range_meters":4000,"station_id":"ce4bhih2rcd13ifvqfs0","pricing_plan_id":"cebpf4jnsgd1na2vs0mg"},{"bike_id":"309ad8db-5b27-4540-9be5-5c1112ee4d6c","system_id":"levelo_inurba_marseille","lat":43.26553,"lon":5.37289,"is_reserved":false,"is_disabled":false,"rental_uris":{"android":"levelo://app?vid=309ad8db-5b27-4540-9be5-5c1112ee4d6c","ios":"levelo://app?vid=309ad8db-5b27-4540-9be5-5c1112ee4d6c"},"vehicle_type_id":"4","last_reported":1778495230,"current_range_meters":4000,"station_id":"ce4bhg12rcd13ifvqf70","pricing_plan_id":"cebpf4jnsgd1na2vs0mg"},{"bike_id":"1b30392a-f2d4-431b-94a8-cc27a2f048f7","system_id":"levelo_inurba_marseille","lat":43.30535,"lon":5.36685,"is_reserved":false,"is_disabled":false,"rental_uris":{"android":"levelo://app?vid=1b30392a-f2d4-431b-94a8-cc27a2f048f7","ios":"levelo://app?vid=1b30392a-f2d4-431b-94a8-cc27a2f048f7"},"vehicle_type_id":"4","last_reported":1778495230,"current_range_meters":4000,"station_id":"ce4bgrp2rcd13ifvqc9g","pricing_plan_id":"cebpf4jnsgd1na2vs0mg"},{"bike_id":"0428e42c-23a2-4ded-bbf4-524b3924bb46","system_id":"levelo_inurba_marseille","lat":43.21751,"lon":5.34609,"is_reserved":false,"is_disabled":false,"rental_uris":{"android":"levelo://app?vid=0428e42c-23a2-4ded-bbf4-524b3924bb46","ios":"levelo://app?vid=0428e42c-23a2-4ded-bbf4-524b3924bb46"},"vehicle_type_id":"4","last_reported":1778495230,"current_range_meters":4000,"station_id":"st_cvj6r9ubvosntc0bgbag","pricing_plan_id":"cebpf4jnsgd1na2vs0mg"},{"bike_id":"103ccc8b-89ea-4672-baa1-7ed7fb06f1e1","system_id":"levelo_inurba_marseille","lat":43.308042,"lon":5.400217,"is_reserved":false,"is_disabled":false,"rental_uris":{"android":"levelo://app?vid=103ccc8b-89ea-4672-baa1-7ed7fb06f1e1","ios":"levelo://app?vid=103ccc8b-89ea-4672-baa1-7ed7fb06f1e1"},"vehicle_type_id":"4","last_reported":1778495230,"current_range_meters":4000,"station_id":"","pricing_plan_id":"cebpf4jnsgd1na2vs0mg"},{"bike_id":"b5f29cd1-9b76-4e43-a4e7-d260fbddd313","system_id":"levelo_inurba_marseille","lat":43.32379,"lon":5.37018,"is_reserved":false,"is_disabled":false,"rental_uris":{"android":"levelo://app?vid=b5f29cd1-9b76-4e43-a4e7-d260fbddd313","ios":"levelo://app?vid=b5f29cd1-9b76-4e43-a4e7-d260fbddd313"},"vehicle_type_id":"4","last_reported":1778495230,"current_range_meters":4400,"station_id":"","pricing_plan_id":"cebpf4jnsgd1na2vs0mg"},{"bike_id":"b19d737f-aaa9-4896-b494-f58a195f2525","system_id":"levelo_inurba_marseille","lat":43.25105,"lon":5.40319,"is_reserved":false,"is_disabled":true,"rental_uris":{"android":"levelo://app?vid=b19d737f-aaa9-4896-b494-f58a195f2525","ios":"levelo://app?vid=b19d737f-aaa9-4896-b494-f58a195f2525"},"vehicle_type_id":"4","last_reported":1778495230,"current_range_meters":4400,"station_id":"ce4bhlh2rcd13ifvqgig","pricing_plan_id":"cebpf4jnsgd1na2vs0mg"},{"bike_id":"04318cd3-98ea-450b-b5f3-4a7277c0604c","system_id":"levelo_inurba_marseille","lat":43.2465,"lon":5.43151,"is_reserved":false,"is_disabled":true,"rental_uris":{"android":"levelo://app?vid=04318cd3-98ea-450b-b5f3-4a7277c0604c","ios":"levelo://app?vid=04318cd3-98ea-450b-b5f3-4a7277c0604c"},"vehicle_type_id":"4","last_reported":1778495230,"current_range_meters":4400,"station_id":"st_d2m6c4gdas8pm72e190g","pricing_plan_id":"cebpf4jnsgd1na2vs0mg"},{"bike_id":"35693135-8f79-42dd-b68e-6f35f1df5427","system_id":"levelo_inurba_marseille","lat":43.29777,"lon":5.38097,"is_reserved":false,"is_disabled":false,"rental_uris":{"android":"levelo://app?vid=35693135-8f79-42dd-b68e-6f35f1df5427","ios":"levelo://app?vid=35693135-8f79-42dd-b68e-6f35f1df5427"},"vehicle_type_id":"4","last_reported":1778495230,"current_range_meters":4400,"station_id":"ce4bgip2rcd13ifvqbb0","pricing_plan_id":"cebpf4jnsgd1na2vs0mg"},{"bike_id":"721238cb-cdf7-40ba-b7e5-216a56eb01e7","system_id":"levelo_inurba_marseille","lat":43.29888,"lon":5.4366,"is_reserved":false,"is_disabled":false,"rental_uris":{"android":"levelo://app?vid=721238cb-cdf7-40ba-b7e5-216a56eb01e7","ios":"levelo://app?vid=721238cb-cdf7-40ba-b7e5-216a56eb01e7"},"vehicle_type_id":"4","last_reported":1778495230,"current_range_meters":4400,"station_id":"ce4bhpp2rcd13ifvqhfg","pricing_plan_id":"cebpf4jnsgd1na2vs0mg"},{"bike_id":"507be34d-72bf-45c5-957c-3bfa43203607","system_id":"levelo_inurba_marseille","lat":43.31988,"lon":5.38144,"is_reserved":false,"is_disabled":true,"rental_uris":{"android":"levelo://app?vid=507be34d-72bf-45c5-957c-3bfa43203607","ios":"levelo://app?vid=507be34d-72bf-45c5-957c-3bfa43203607"},"vehicle_type_id":"4","last_reported":1778495230,"current_range_meters":4400,"station_id":"ce4bhr12rcd13ifvqhpg","pricing_plan_id":"cebpf4jnsgd1na2vs0mg"},{"bike_id":"37b581d4-a78c-4db1-8701-3ab33cd83c8a","system_id":"levelo_inurba_marseille","lat":43.30142,"lon":5.43079,"is_reserved":false,"is_disabled":true,"rental_uris":{"android":"levelo://app?vid=37b581d4-a78c-4db1-8701-3ab33cd83c8a","ios":"levelo://app?vid=37b581d4-a78c-4db1-8701-3ab33cd83c8a"},"vehicle_type_id":"4","last_reported":1778495230,"current_range_meters":4400,"station_id":"st_d3js3co5814s73ftftug","pricing_plan_id":"cebpf4jnsgd1na2vs0mg"},{"bike_id":"77b3d37b-8f45-44fe-b681-2e376ba276f0","system_id":"levelo_inurba_marseille","lat":43.22584,"lon":5.41606,"is_reserved":false,"is_disabled":false,"rental_uris":{"android":"levelo://app?vid=77b3d37b-8f45-44fe-b681-2e376ba276f0","ios":"levelo://app?vid=77b3d37b-8f45-44fe-b681-2e376ba276f0"},"vehicle_type_id":"4","last_reported":1778495230,"current_range_meters":4400,"station_id":"st_d2o4gvlbi1j2169b742g","pricing_plan_id":"cebpf4jnsgd1na2vs0mg"},{"bike_id":"fd2aabb0-69b1-4e19-8f89-0b64d5239b99","system_id":"levelo_inurba_marseille","lat":43.249451,"lon":5.404881,"is_reserved":false,"is_disabled":false,"rental_uris":{"android":"levelo://app?vid=fd2aabb0-69b1-4e19-8f89-0b64d5239b99","ios":"levelo://app?vid=fd2aabb0-69b1-4e19-8f89-0b64d5239b99"},"vehicle_type_id":"4","last_reported":1778495230,"current_range_meters":4400,"station_id":"","pricing_plan_id":"cebpf4jnsgd1na2vs0mg"},{"bike_id":"5496490a-f238-48c8-89d2-84a5c7f555c4","system_id":"levelo_inurba_marseille","lat":43.28697,"lon":5.39985,"is_reserved":false,"is_disabled":false,"rental_uris":{"android":"levelo://app?vid=5496490a-f238-48c8-89d2-84a5c7f555c4","ios":"levelo://app?vid=5496490a-f238-48c8-89d2-84a5c7f555c4"},"vehicle_type_id":"4","last_reported":1778495230,"current_range_meters":4400,"station_id":"ce4bho92rcd13ifvqh3g","pricing_plan_id":"cebpf4jnsgd1na2vs0mg"},{"bike_id":"328fc79b-6804-4d01-af71-228a208e5176","system_id":"levelo_inurba_marseille","lat":43.23322,"lon":5.358,"is_reserved":false,"is_disabled":false,"rental_uris":{"android":"levelo://app?vid=328fc79b-6804-4d01-af71-228a208e5176","ios":"levelo://app?vid=328fc79b-6804-4d01-af71-228a208e5176"},"vehicle_type_id":"4","last_reported":1778495230,"current_range_meters":4400,"station_id":"","pricing_plan_id":"cebpf4jnsgd1na2vs0mg"},{"bike_id":"1c82e25a-ed4b-44ed-a519-29246733a9ea","system_id":"levelo_inurba_marseille","lat":43.28936,"lon":5.38393,"is_reserved":false,"is_disabled":false,"rental_uris":{"android":"levelo://app?vid=1c82e25a-ed4b-44ed-a519-29246733a9ea","ios":"levelo://app?vid=1c82e25a-ed4b-44ed-a519-29246733a9ea"},"vehicle_type_id":"4","last_reported":1778495230,"current_range_meters":4400,"station_id":"ce4bh612rcd13ifvqe6g","pricing_plan_id":"cebpf4jnsgd1na2vs0mg"},{"bike_id":"a8c2b891-dc5e-4292-aa83-307d2e8c7830","system_id":"levelo_inurba_marseille","lat":43.2638,"lon":5.41067,"is_reserved":false,"is_disabled":false,"rental_uris":{"android":"levelo://app?vid=a8c2b891-dc5e-4292-aa83-307d2e8c7830","ios":"levelo://app?vid=a8c2b891-dc5e-4292-aa83-307d2e8c7830"},"vehicle_type_id":"4","last_reported":1778495230,"current_range_meters":4800,"station_id":"st_d4e5ca6na9uc73bfl5fg","pricing_plan_id":"cebpf4jnsgd1na2vs0mg"},{"bike_id":"d4b82220-b80f-4072-9d63-30aaa267b9e0","system_id":"levelo_inurba_marseille","lat":43.30508,"lon":5.36755,"is_reserved":false,"is_disabled":false,"rental_uris":{"android":"levelo://app?vid=d4b82220-b80f-4072-9d63-30aaa267b9e0","ios":"levelo://app?vid=d4b82220-b80f-4072-9d63-30aaa267b9e0"},"vehicle_type_id":"4","last_reported":1778495230,"current_range_meters":4800,"station_id":"ce4bgrp2rcd13ifvqc9g","pricing_plan_id":"cebpf4jnsgd1na2vs0mg"},{"bike_id":"44ba616c-102d-4859-acf6-1c3a43efa65a","system_id":"levelo_inurba_marseille","lat":43.26228,"lon":5.40451,"is_reserved":false,"is_disabled":false,"rental_uris":{"android":"levelo://app?vid=44ba616c-102d-4859-acf6-1c3a43efa65a","ios":"levelo://app?vid=44ba616c-102d-4859-acf6-1c3a43efa65a"},"vehicle_type_id":"4","last_reported":1778495230,"current_range_meters":4800,"station_id":"ce4bhmh2rcd13ifvqgmg","pricing_plan_id":"cebpf4jnsgd1na2vs0mg"},{"bike_id":"16c2f8a9-69ea-4448-b67e-aa72ddd8f31c","system_id":"levelo_inurba_marseille","lat":43.30143,"lon":5.37406,"is_reserved":false,"is_disabled":false,"rental_uris":{"android":"levelo://app?vid=16c2f8a9-69ea-4448-b67e-aa72ddd8f31c","ios":"levelo://app?vid=16c2f8a9-69ea-4448-b67e-aa72ddd8f31c"},"vehicle_type_id":"4","last_reported":1778495230,"current_range_meters":4800,"station_id":"ce4bgs92rcd13ifvqcc0","pricing_plan_id":"cebpf4jnsgd1na2vs0mg"},{"bike_id":"ef3f9738-c4f7-4e33-9bdc-18d156a38709","system_id":"levelo_inurba_marseille","lat":43.24966,"lon":5.40488,"is_reserved":false,"is_disabled":false,"rental_uris":{"android":"levelo://app?vid=ef3f9738-c4f7-4e33-9bdc-18d156a38709","ios":"levelo://app?vid=ef3f9738-c4f7-4e33-9bdc-18d156a38709"},"vehicle_type_id":"4","last_reported":1778495230,"current_range_meters":4800,"station_id":"st_d2ngiaodas8pm72gd1h0","pricing_plan_id":"cebpf4jnsgd1na2vs0mg"},{"bike_id":"931e37ed-d91a-4f80-acc2-0371059dc627","system_id":"levelo_inurba_marseille","lat":43.231539,"lon":5.437113,"is_reserved":false,"is_disabled":false,"rental_uris":{"android":"levelo://app?vid=931e37ed-d91a-4f80-acc2-0371059dc627","ios":"levelo://app?vid=931e37ed-d91a-4f80-acc2-0371059dc627"},"vehicle_type_id":"4","last_reported":1778495230,"current_range_meters":4800,"station_id":"ce4bhmp2rcd13ifvqgog","pricing_plan_id":"cebpf4jnsgd1na2vs0mg"},{"bike_id":"63cb6157-5785-47b6-add8-04dad3600871","system_id":"levelo_inurba_marseille","lat":43.24078,"lon":5.37728,"is_reserved":false,"is_disabled":false,"rental_uris":{"android":"levelo://app?vid=63cb6157-5785-47b6-add8-04dad3600871","ios":"levelo://app?vid=63cb6157-5785-47b6-add8-04dad3600871"},"vehicle_type_id":"4","last_reported":1778495230,"current_range_meters":4800,"station_id":"ce4bhnp2rcd13ifvqgvg","pricing_plan_id":"cebpf4jnsgd1na2vs0mg"},{"bike_id":"7fb397a5-c0e2-4b6b-bb41-cc82ff328168","system_id":"levelo_inurba_marseille","lat":43.25488,"lon":5.37648,"is_reserved":false,"is_disabled":false,"rental_uris":{"android":"levelo://app?vid=7fb397a5-c0e2-4b6b-bb41-cc82ff328168","ios":"levelo://app?vid=7fb397a5-c0e2-4b6b-bb41-cc82ff328168"},"vehicle_type_id":"4","last_reported":1778495230,"current_range_meters":4800,"station_id":"ce4bhh12rcd13ifvqff0","pricing_plan_id":"cebpf4jnsgd1na2vs0mg"},{"bike_id":"f7325664-231f-4d91-adea-08851f268f90","system_id":"levelo_inurba_marseille","lat":43.33159,"lon":5.37677,"is_reserved":false,"is_disabled":false,"rental_uris":{"android":"levelo://app?vid=f7325664-231f-4d91-adea-08851f268f90","ios":"levelo://app?vid=f7325664-231f-4d91-adea-08851f268f90"},"vehicle_type_id":"4","last_reported":1778495230,"current_range_meters":4800,"station_id":"st_d46cu089ee8s73dldbu0","pricing_plan_id":"cebpf4jnsgd1na2vs0mg"},{"bike_id":"7a1685d6-5443-4151-bfa9-48a1a6141ca1","system_id":"levelo_inurba_marseille","lat":43.28706,"lon":5.46675,"is_reserved":false,"is_disabled":false,"rental_uris":{"android":"levelo://app?vid=7a1685d6-5443-4151-bfa9-48a1a6141ca1","ios":"levelo://app?vid=7a1685d6-5443-4151-bfa9-48a1a6141ca1"},"vehicle_type_id":"4","last_reported":1778495230,"current_range_meters":4800,"station_id":"st_d6tc3vkotcvc738tfjhg","pricing_plan_id":"cebpf4jnsgd1na2vs0mg"},{"bike_id":"b890739d-c216-4af5-9546-9d46179f7e8e","system_id":"levelo_inurba_marseille","lat":43.276684,"lon":5.388781,"is_reserved":false,"is_disabled":false,"rental_uris":{"android":"levelo://app?vid=b890739d-c216-4af5-9546-9d46179f7e8e","ios":"levelo://app?vid=b890739d-c216-4af5-9546-9d46179f7e8e"},"vehicle_type_id":"4","last_reported":1778495230,"current_range_meters":4800,"station_id":"ce4bhi12rcd13ifvqfo0","pricing_plan_id":"cebpf4jnsgd1na2vs0mg"},{"bike_id":"00924d2f-1daf-4de9-a8a1-25a1ac4a461b","system_id":"levelo_inurba_marseille","lat":43.2407,"lon":5.37722,"is_reserved":false,"is_disabled":false,"rental_uris":{"android":"levelo://app?vid=00924d2f-1daf-4de9-a8a1-25a1ac4a461b","ios":"levelo://app?vid=00924d2f-1daf-4de9-a8a1-25a1ac4a461b"},"vehicle_type_id":"4","last_reported":1778495230,"current_range_meters":5600,"station_id":"ce4bhnp2rcd13ifvqgvg","pricing_plan_id":"cebpf4jnsgd1na2vs0mg"},{"bike_id":"17a6c136-b38f-4cce-948f-b2b4b128b0ae","system_id":"levelo_inurba_marseille","lat":43.30508,"lon":5.36533,"is_reserved":false,"is_disabled":false,"rental_uris":{"android":"levelo://app?vid=17a6c136-b38f-4cce-948f-b2b4b128b0ae","ios":"levelo://app?vid=17a6c136-b38f-4cce-948f-b2b4b128b0ae"},"vehicle_type_id":"4","last_reported":1778495230,"current_range_meters":5600,"station_id":"","pricing_plan_id":"cebpf4jnsgd1na2vs0mg"},{"bike_id":"5d08888b-80fc-4059-a30c-38d30166603a","system_id":"levelo_inurba_marseille","lat":43.21743,"lon":5.34605,"is_reserved":false,"is_disabled":false,"rental_uris":{"android":"levelo://app?vid=5d08888b-80fc-4059-a30c-38d30166603a","ios":"levelo://app?vid=5d08888b-80fc-4059-a30c-38d30166603a"},"vehicle_type_id":"4","last_reported":1778495230,"current_range_meters":5600,"station_id":"st_cvj6r9ubvosntc0bgbag","pricing_plan_id":"cebpf4jnsgd1na2vs0mg"},{"bike_id":"50b9163b-20cf-4836-b9a5-535132894940","system_id":"levelo_inurba_marseille","lat":43.28864,"lon":5.42544,"is_reserved":false,"is_disabled":false,"rental_uris":{"android":"levelo://app?vid=50b9163b-20cf-4836-b9a5-535132894940","ios":"levelo://app?vid=50b9163b-20cf-4836-b9a5-535132894940"},"vehicle_type_id":"4","last_reported":1778495230,"current_range_meters":5600,"station_id":"st_d3b462108ojc7389ooeg","pricing_plan_id":"cebpf4jnsgd1na2vs0mg"},{"bike_id":"36cd0fff-6703-4963-ba88-27357b3778cd","system_id":"levelo_inurba_marseille","lat":43.24948,"lon":5.40493,"is_reserved":false,"is_disabled":false,"rental_uris":{"android":"levelo://app?vid=36cd0fff-6703-4963-ba88-27357b3778cd","ios":"levelo://app?vid=36cd0fff-6703-4963-ba88-27357b3778cd"},"vehicle_type_id":"4","last_reported":1778495230,"current_range_meters":5600,"station_id":"st_d2ngiaodas8pm72gd1h0","pricing_plan_id":"cebpf4jnsgd1na2vs0mg"},{"bike_id":"50923957-aabe-4b5c-a5da-e5bd054575cf","system_id":"levelo_inurba_marseille","lat":43.21738,"lon":5.34613,"is_reserved":false,"is_disabled":false,"rental_uris":{"android":"levelo://app?vid=50923957-aabe-4b5c-a5da-e5bd054575cf","ios":"levelo://app?vid=50923957-aabe-4b5c-a5da-e5bd054575cf"},"vehicle_type_id":"4","last_reported":1778495230,"current_range_meters":6000,"station_id":"st_cvj6r9ubvosntc0bgbag","pricing_plan_id":"cebpf4jnsgd1na2vs0mg"},{"bike_id":"a689c208-6c2b-4a95-81ae-77dcf72d227d","system_id":"levelo_inurba_marseille","lat":43.27199,"lon":5.39153,"is_reserved":false,"is_disabled":false,"rental_uris":{"android":"levelo://app?vid=a689c208-6c2b-4a95-81ae-77dcf72d227d","ios":"levelo://app?vid=a689c208-6c2b-4a95-81ae-77dcf72d227d"},"vehicle_type_id":"4","last_reported":1778495230,"current_range_meters":6000,"station_id":"ce4bhhp2rcd13ifvqfm0","pricing_plan_id":"cebpf4jnsgd1na2vs0mg"},{"bike_id":"f6f40374-43fa-47de-b3a0-6f7526ff03b2","system_id":"levelo_inurba_marseille","lat":43.24073,"lon":5.3776,"is_reserved":false,"is_disabled":false,"rental_uris":{"android":"levelo://app?vid=f6f40374-43fa-47de-b3a0-6f7526ff03b2","ios":"levelo://app?vid=f6f40374-43fa-47de-b3a0-6f7526ff03b2"},"vehicle_type_id":"4","last_reported":1778495230,"current_range_meters":6000,"station_id":"ce4bhnp2rcd13ifvqgvg","pricing_plan_id":"cebpf4jnsgd1na2vs0mg"},{"bike_id":"40326dfc-c43c-49b9-91fd-f253b800ccf8","system_id":"levelo_inurba_marseille","lat":43.28694,"lon":5.37907,"is_reserved":false,"is_disabled":true,"rental_uris":{"android":"levelo://app?vid=40326dfc-c43c-49b9-91fd-f253b800ccf8","ios":"levelo://app?vid=40326dfc-c43c-49b9-91fd-f253b800ccf8"},"vehicle_type_id":"4","last_reported":1778495230,"current_range_meters":6000,"station_id":"ce4bh9p2rcd13ifvqec0","pricing_plan_id":"cebpf4jnsgd1na2vs0mg"},{"bike_id":"62521615-757e-4d69-a6d2-e5ddf27fce8d","system_id":"levelo_inurba_marseille","lat":43.29173,"lon":5.37155,"is_reserved":false,"is_disabled":false,"rental_uris":{"android":"levelo://app?vid=62521615-757e-4d69-a6d2-e5ddf27fce8d","ios":"levelo://app?vid=62521615-757e-4d69-a6d2-e5ddf27fce8d"},"vehicle_type_id":"4","last_reported":1778495230,"current_range_meters":6000,"station_id":"ce4bha92rcd13ifvqeh0","pricing_plan_id":"cebpf4jnsgd1na2vs0mg"},{"bike_id":"f84cebb1-9831-43b9-b9a9-007babb32c4d","system_id":"levelo_inurba_marseille","lat":43.31184,"lon":5.3773,"is_reserved":false,"is_disabled":false,"rental_uris":{"android":"levelo://app?vid=f84cebb1-9831-43b9-b9a9-007babb32c4d","ios":"levelo://app?vid=f84cebb1-9831-43b9-b9a9-007babb32c4d"},"vehicle_type_id":"4","last_reported":1778495230,"current_range_meters":6000,"station_id":"","pricing_plan_id":"cebpf4jnsgd1na2vs0mg"},{"bike_id":"88f94a2d-9e83-435c-8c78-79839468d82b","system_id":"levelo_inurba_marseille","lat":43.32483,"lon":5.38459,"is_reserved":false,"is_disabled":false,"rental_uris":{"android":"levelo://app?vid=88f94a2d-9e83-435c-8c78-79839468d82b","ios":"levelo://app?vid=88f94a2d-9e83-435c-8c78-79839468d82b"},"vehicle_type_id":"4","last_reported":1778495230,"current_range_meters":6000,"station_id":"","pricing_plan_id":"cebpf4jnsgd1na2vs0mg"},{"bike_id":"dc3d872f-b541-4dd3-a578-2855f0ad8694","system_id":"levelo_inurba_marseille","lat":43.3316,"lon":5.37705,"is_reserved":false,"is_disabled":false,"rental_uris":{"android":"levelo://app?vid=dc3d872f-b541-4dd3-a578-2855f0ad8694","ios":"levelo://app?vid=dc3d872f-b541-4dd3-a578-2855f0ad8694"},"vehicle_type_id":"4","last_reported":1778495230,"current_range_meters":6000,"station_id":"st_d46cu089ee8s73dldbu0","pricing_plan_id":"cebpf4jnsgd1na2vs0mg"},{"bike_id":"0a69c15d-9b30-469e-9063-1ba4c113aa45","system_id":"levelo_inurba_marseille","lat":43.31369,"lon":5.3674,"is_reserved":false,"is_disabled":false,"rental_uris":{"android":"levelo://app?vid=0a69c15d-9b30-469e-9063-1ba4c113aa45","ios":"levelo://app?vid=0a69c15d-9b30-469e-9063-1ba4c113aa45"},"vehicle_type_id":"4","last_reported":1778495230,"current_range_meters":6000,"station_id":"ce4bgr92rcd13ifvqc6g","pricing_plan_id":"cebpf4jnsgd1na2vs0mg"},{"bike_id":"ee35c9fc-e38a-441f-a708-f37e57bcdb3b","system_id":"levelo_inurba_marseille","lat":43.248092,"lon":5.374632,"is_reserved":false,"is_disabled":false,"rental_uris":{"android":"levelo://app?vid=ee35c9fc-e38a-441f-a708-f37e57bcdb3b","ios":"levelo://app?vid=ee35c9fc-e38a-441f-a708-f37e57bcdb3b"},"vehicle_type_id":"4","last_reported":1778495230,"current_range_meters":6400,"station_id":"ce4bhgh2rcd13ifvqfb0","pricing_plan_id":"cebpf4jnsgd1na2vs0mg"},{"bike_id":"bfaced7c-e1f7-4d34-8590-e2cd723937fb","system_id":"levelo_inurba_marseille","lat":43.28441,"lon":5.39201,"is_reserved":false,"is_disabled":false,"rental_uris":{"android":"levelo://app?vid=bfaced7c-e1f7-4d34-8590-e2cd723937fb","ios":"levelo://app?vid=bfaced7c-e1f7-4d34-8590-e2cd723937fb"},"vehicle_type_id":"4","last_reported":1778495230,"current_range_meters":6400,"station_id":"ce4bhoh2rcd13ifvqh5g","pricing_plan_id":"cebpf4jnsgd1na2vs0mg"},{"bike_id":"4084ae76-3cea-4122-bfc3-addd8584af62","system_id":"levelo_inurba_marseille","lat":43.21744,"lon":5.34602,"is_reserved":false,"is_disabled":false,"rental_uris":{"android":"levelo://app?vid=4084ae76-3cea-4122-bfc3-addd8584af62","ios":"levelo://app?vid=4084ae76-3cea-4122-bfc3-addd8584af62"},"vehicle_type_id":"4","last_reported":1778495230,"current_range_meters":6400,"station_id":"st_cvj6r9ubvosntc0bgbag","pricing_plan_id":"cebpf4jnsgd1na2vs0mg"},{"bike_id":"df36804c-76e0-46da-b589-9672ef5fe9ad","system_id":"levelo_inurba_marseille","lat":43.27673,"lon":5.38887,"is_reserved":false,"is_disabled":false,"rental_uris":{"android":"levelo://app?vid=df36804c-76e0-46da-b589-9672ef5fe9ad","ios":"levelo://app?vid=df36804c-76e0-46da-b589-9672ef5fe9ad"},"vehicle_type_id":"4","last_reported":1778495230,"current_range_meters":6400,"station_id":"ce4bhi12rcd13ifvqfo0","pricing_plan_id":"cebpf4jnsgd1na2vs0mg"},{"bike_id":"a2234a18-46f4-4b57-9b26-ff0492c09d5e","system_id":"levelo_inurba_marseille","lat":43.28863,"lon":5.42522,"is_reserved":false,"is_disabled":false,"rental_uris":{"android":"levelo://app?vid=a2234a18-46f4-4b57-9b26-ff0492c09d5e","ios":"levelo://app?vid=a2234a18-46f4-4b57-9b26-ff0492c09d5e"},"vehicle_type_id":"4","last_reported":1778495230,"current_range_meters":6400,"station_id":"st_d3b462108ojc7389ooeg","pricing_plan_id":"cebpf4jnsgd1na2vs0mg"},{"bike_id":"88cd4c36-85a2-4944-8845-8fe450595026","system_id":"levelo_inurba_marseille","lat":43.2827,"lon":5.35065,"is_reserved":false,"is_disabled":false,"rental_uris":{"android":"levelo://app?vid=88cd4c36-85a2-4944-8845-8fe450595026","ios":"levelo://app?vid=88cd4c36-85a2-4944-8845-8fe450595026"},"vehicle_type_id":"4","last_reported":1778495230,"current_range_meters":6400,"station_id":"ce4bhbp2rcd13ifvqerg","pricing_plan_id":"cebpf4jnsgd1na2vs0mg"},{"bike_id":"a5d6933b-d56b-4291-aa61-26dfb66725ec","system_id":"levelo_inurba_marseille","lat":43.28262,"lon":5.38875,"is_reserved":false,"is_disabled":false,"rental_uris":{"android":"levelo://app?vid=a5d6933b-d56b-4291-aa61-26dfb66725ec","ios":"levelo://app?vid=a5d6933b-d56b-4291-aa61-26dfb66725ec"},"vehicle_type_id":"4","last_reported":1778495230,"current_range_meters":6400,"station_id":"","pricing_plan_id":"cebpf4jnsgd1na2vs0mg"},{"bike_id":"19975dd2-0aba-4cce-8eea-20cce4899999","system_id":"levelo_inurba_marseille","lat":43.29277,"lon":5.3717,"is_reserved":false,"is_disabled":false,"rental_uris":{"android":"levelo://app?vid=19975dd2-0aba-4cce-8eea-20cce4899999","ios":"levelo://app?vid=19975dd2-0aba-4cce-8eea-20cce4899999"},"vehicle_type_id":"4","last_reported":1778495230,"current_range_meters":6400,"station_id":"ce4bgh92rcd13ifvqb40","pricing_plan_id":"cebpf4jnsgd1na2vs0mg"},{"bike_id":"16032a73-cd9b-4e17-97f2-cc5a524b704d","system_id":"levelo_inurba_marseille","lat":43.29634,"lon":5.37676,"is_reserved":false,"is_disabled":false,"rental_uris":{"android":"levelo://app?vid=16032a73-cd9b-4e17-97f2-cc5a524b704d","ios":"levelo://app?vid=16032a73-cd9b-4e17-97f2-cc5a524b704d"},"vehicle_type_id":"4","last_reported":1778495230,"current_range_meters":6400,"station_id":"ce4bgi92rcd13ifvqb90","pricing_plan_id":"cebpf4jnsgd1na2vs0mg"},{"bike_id":"85b91fc3-5e4b-4ab8-871e-244077c4ec75","system_id":"levelo_inurba_marseille","lat":43.24643,"lon":5.43136,"is_reserved":false,"is_disabled":false,"rental_uris":{"android":"levelo://app?vid=85b91fc3-5e4b-4ab8-871e-244077c4ec75","ios":"levelo://app?vid=85b91fc3-5e4b-4ab8-871e-244077c4ec75"},"vehicle_type_id":"4","last_reported":1778495230,"current_range_meters":6400,"station_id":"st_d2m6c4gdas8pm72e190g","pricing_plan_id":"cebpf4jnsgd1na2vs0mg"},{"bike_id":"dec258b3-c130-43be-aabb-2d11497a2264","system_id":"levelo_inurba_marseille","lat":43.24627,"lon":5.43148,"is_reserved":false,"is_disabled":false,"rental_uris":{"android":"levelo://app?vid=dec258b3-c130-43be-aabb-2d11497a2264","ios":"levelo://app?vid=dec258b3-c130-43be-aabb-2d11497a2264"},"vehicle_type_id":"4","last_reported":1778495230,"current_range_meters":6400,"station_id":"st_d2m6c4gdas8pm72e190g","pricing_plan_id":"cebpf4jnsgd1na2vs0mg"},{"bike_id":"28dff6bb-afd2-4d4f-a533-73c109347c3d","system_id":"levelo_inurba_marseille","lat":43.31235,"lon":5.36863,"is_reserved":false,"is_disabled":false,"rental_uris":{"android":"levelo://app?vid=28dff6bb-afd2-4d4f-a533-73c109347c3d","ios":"levelo://app?vid=28dff6bb-afd2-4d4f-a533-73c109347c3d"},"vehicle_type_id":"4","last_reported":1778495230,"current_range_meters":6400,"station_id":"ce4bgl92rcd13ifvqbq0","pricing_plan_id":"cebpf4jnsgd1na2vs0mg"},{"bike_id":"f00c248b-fecd-46a7-889e-7df6169475f1","system_id":"levelo_inurba_marseille","lat":43.27411,"lon":5.39384,"is_reserved":false,"is_disabled":false,"rental_uris":{"android":"levelo://app?vid=f00c248b-fecd-46a7-889e-7df6169475f1","ios":"levelo://app?vid=f00c248b-fecd-46a7-889e-7df6169475f1"},"vehicle_type_id":"4","last_reported":1778495230,"current_range_meters":6800,"station_id":"ce4bhdp2rcd13ifvqf20","pricing_plan_id":"cebpf4jnsgd1na2vs0mg"},{"bike_id":"2b589459-ec78-49cd-8740-cea23f8d460d","system_id":"levelo_inurba_marseille","lat":43.21762,"lon":5.34581,"is_reserved":false,"is_disabled":false,"rental_uris":{"android":"levelo://app?vid=2b589459-ec78-49cd-8740-cea23f8d460d","ios":"levelo://app?vid=2b589459-ec78-49cd-8740-cea23f8d460d"},"vehicle_type_id":"4","last_reported":1778495230,"current_range_meters":6800,"station_id":"st_cvj6r9ubvosntc0bgbag","pricing_plan_id":"cebpf4jnsgd1na2vs0mg"},{"bike_id":"4d17f59d-a04f-4e4f-beb8-f39cdaed5e66","system_id":"levelo_inurba_marseille","lat":43.27417,"lon":5.39407,"is_reserved":false,"is_disabled":false,"rental_uris":{"android":"levelo://app?vid=4d17f59d-a04f-4e4f-beb8-f39cdaed5e66","ios":"levelo://app?vid=4d17f59d-a04f-4e4f-beb8-f39cdaed5e66"},"vehicle_type_id":"4","last_reported":1778495230,"current_range_meters":6800,"station_id":"ce4bhdp2rcd13ifvqf20","pricing_plan_id":"cebpf4jnsgd1na2vs0mg"},{"bike_id":"3ee18444-a5a8-4d64-ae10-f4ab9ef0e92b","system_id":"levelo_inurba_marseille","lat":43.26204,"lon":5.37909,"is_reserved":false,"is_disabled":false,"rental_uris":{"android":"levelo://app?vid=3ee18444-a5a8-4d64-ae10-f4ab9ef0e92b","ios":"levelo://app?vid=3ee18444-a5a8-4d64-ae10-f4ab9ef0e92b"},"vehicle_type_id":"4","last_reported":1778495230,"current_range_meters":6800,"station_id":"ce4bhjp2rcd13ifvqg90","pricing_plan_id":"cebpf4jnsgd1na2vs0mg"},{"bike_id":"773a42e8-f231-4620-8d5c-549f2ffc2bc7","system_id":"levelo_inurba_marseille","lat":43.2593,"lon":5.40894,"is_reserved":false,"is_disabled":false,"rental_uris":{"android":"levelo://app?vid=773a42e8-f231-4620-8d5c-549f2ffc2bc7","ios":"levelo://app?vid=773a42e8-f231-4620-8d5c-549f2ffc2bc7"},"vehicle_type_id":"4","last_reported":1778495230,"current_range_meters":6800,"station_id":"ce4bhm92rcd13ifvqglg","pricing_plan_id":"cebpf4jnsgd1na2vs0mg"},{"bike_id":"42969dc5-e5aa-4529-8cb9-d8543f680591","system_id":"levelo_inurba_marseille","lat":43.31497,"lon":5.37275,"is_reserved":false,"is_disabled":false,"rental_uris":{"android":"levelo://app?vid=42969dc5-e5aa-4529-8cb9-d8543f680591","ios":"levelo://app?vid=42969dc5-e5aa-4529-8cb9-d8543f680591"},"vehicle_type_id":"4","last_reported":1778495230,"current_range_meters":6800,"station_id":"ce4bgt12rcd13ifvqcd0","pricing_plan_id":"cebpf4jnsgd1na2vs0mg"},{"bike_id":"43508dde-469c-4176-8d9a-ef9992e89043","system_id":"levelo_inurba_marseille","lat":43.31411,"lon":5.36628,"is_reserved":false,"is_disabled":false,"rental_uris":{"android":"levelo://app?vid=43508dde-469c-4176-8d9a-ef9992e89043","ios":"levelo://app?vid=43508dde-469c-4176-8d9a-ef9992e89043"},"vehicle_type_id":"4","last_reported":1778495230,"current_range_meters":6800,"station_id":"","pricing_plan_id":"cebpf4jnsgd1na2vs0mg"},{"bike_id":"34579e87-4e2f-4434-a851-ea2985c7620e","system_id":"levelo_inurba_marseille","lat":43.28346,"lon":5.38065,"is_reserved":false,"is_disabled":true,"rental_uris":{"android":"levelo://app?vid=34579e87-4e2f-4434-a851-ea2985c7620e","ios":"levelo://app?vid=34579e87-4e2f-4434-a851-ea2985c7620e"},"vehicle_type_id":"4","last_reported":1778495230,"current_range_meters":6800,"station_id":"ce4bh412rcd13ifvqdr0","pricing_plan_id":"cebpf4jnsgd1na2vs0mg"},{"bike_id":"9079a0b7-622c-4af0-9a02-529117624bb2","system_id":"levelo_inurba_marseille","lat":43.23898,"lon":5.3744,"is_reserved":false,"is_disabled":false,"rental_uris":{"android":"levelo://app?vid=9079a0b7-622c-4af0-9a02-529117624bb2","ios":"levelo://app?vid=9079a0b7-622c-4af0-9a02-529117624bb2"},"vehicle_type_id":"4","last_reported":1778495230,"current_range_meters":6800,"station_id":"st_d6sm7csbq4hs73f8fpjg","pricing_plan_id":"cebpf4jnsgd1na2vs0mg"},{"bike_id":"d408f7a4-799c-42f6-984d-a550f89c7e22","system_id":"levelo_inurba_marseille","lat":43.30541,"lon":5.36704,"is_reserved":false,"is_disabled":false,"rental_uris":{"android":"levelo://app?vid=d408f7a4-799c-42f6-984d-a550f89c7e22","ios":"levelo://app?vid=d408f7a4-799c-42f6-984d-a550f89c7e22"},"vehicle_type_id":"4","last_reported":1778495230,"current_range_meters":6800,"station_id":"ce4bgrp2rcd13ifvqc9g","pricing_plan_id":"cebpf4jnsgd1na2vs0mg"},{"bike_id":"fead0082-95a2-43ea-889d-2d3099afaff8","system_id":"levelo_inurba_marseille","lat":43.29891,"lon":5.38051,"is_reserved":false,"is_disabled":false,"rental_uris":{"android":"levelo://app?vid=fead0082-95a2-43ea-889d-2d3099afaff8","ios":"levelo://app?vid=fead0082-95a2-43ea-889d-2d3099afaff8"},"vehicle_type_id":"4","last_reported":1778495230,"current_range_meters":6800,"station_id":"","pricing_plan_id":"cebpf4jnsgd1na2vs0mg"},{"bike_id":"0870936c-e825-4ccd-bf9f-21553a91d43c","system_id":"levelo_inurba_marseille","lat":43.24693,"lon":5.41668,"is_reserved":false,"is_disabled":false,"rental_uris":{"android":"levelo://app?vid=0870936c-e825-4ccd-bf9f-21553a91d43c","ios":"levelo://app?vid=0870936c-e825-4ccd-bf9f-21553a91d43c"},"vehicle_type_id":"4","last_reported":1778495230,"current_range_meters":6800,"station_id":"","pricing_plan_id":"cebpf4jnsgd1na2vs0mg"},{"bike_id":"88049ccf-a823-49be-a699-eb2ad440588f","system_id":"levelo_inurba_marseille","lat":43.25888,"lon":5.39871,"is_reserved":false,"is_disabled":true,"rental_uris":{"android":"levelo://app?vid=88049ccf-a823-49be-a699-eb2ad440588f","ios":"levelo://app?vid=88049ccf-a823-49be-a699-eb2ad440588f"},"vehicle_type_id":"4","last_reported":1778495230,"current_range_meters":6800,"station_id":"ce4bhl92rcd13ifvqghg","pricing_plan_id":"cebpf4jnsgd1na2vs0mg"},{"bike_id":"38ea9569-6656-4db7-80b5-76212b3af97a","system_id":"levelo_inurba_marseille","lat":43.26216,"lon":5.37428,"is_reserved":false,"is_disabled":false,"rental_uris":{"android":"levelo://app?vid=38ea9569-6656-4db7-80b5-76212b3af97a","ios":"levelo://app?vid=38ea9569-6656-4db7-80b5-76212b3af97a"},"vehicle_type_id":"4","last_reported":1778495230,"current_range_meters":6800,"station_id":"ce4bhgp2rcd13ifvqfc0","pricing_plan_id":"cebpf4jnsgd1na2vs0mg"},{"bike_id":"85848f87-2086-4bcc-99c6-54082387897b","system_id":"levelo_inurba_marseille","lat":43.24628,"lon":5.43155,"is_reserved":false,"is_disabled":false,"rental_uris":{"android":"levelo://app?vid=85848f87-2086-4bcc-99c6-54082387897b","ios":"levelo://app?vid=85848f87-2086-4bcc-99c6-54082387897b"},"vehicle_type_id":"4","last_reported":1778495230,"current_range_meters":7200,"station_id":"st_d2m6c4gdas8pm72e190g","pricing_plan_id":"cebpf4jnsgd1na2vs0mg"},{"bike_id":"791c74b2-cd78-47b0-86de-d73597579821","system_id":"levelo_inurba_marseille","lat":43.305964,"lon":5.393521,"is_reserved":false,"is_disabled":true,"rental_uris":{"android":"levelo://app?vid=791c74b2-cd78-47b0-86de-d73597579821","ios":"levelo://app?vid=791c74b2-cd78-47b0-86de-d73597579821"},"vehicle_type_id":"4","last_reported":1778495230,"current_range_meters":7200,"station_id":"ce4bgh92rcd13ifvqb40","pricing_plan_id":"cebpf4jnsgd1na2vs0mg"},{"bike_id":"73e6f80a-b54a-4863-a594-a6fb1a5f606e","system_id":"levelo_inurba_marseille","lat":43.24094,"lon":5.37734,"is_reserved":false,"is_disabled":false,"rental_uris":{"android":"levelo://app?vid=73e6f80a-b54a-4863-a594-a6fb1a5f606e","ios":"levelo://app?vid=73e6f80a-b54a-4863-a594-a6fb1a5f606e"},"vehicle_type_id":"4","last_reported":1778495230,"current_range_meters":7200,"station_id":"ce4bhnp2rcd13ifvqgvg","pricing_plan_id":"cebpf4jnsgd1na2vs0mg"},{"bike_id":"7db0b25b-9432-46d9-bfb6-e95506cbb6b5","system_id":"levelo_inurba_marseille","lat":43.26205,"lon":5.37435,"is_reserved":false,"is_disabled":false,"rental_uris":{"android":"levelo://app?vid=7db0b25b-9432-46d9-bfb6-e95506cbb6b5","ios":"levelo://app?vid=7db0b25b-9432-46d9-bfb6-e95506cbb6b5"},"vehicle_type_id":"4","last_reported":1778495230,"current_range_meters":7200,"station_id":"ce4bhgp2rcd13ifvqfc0","pricing_plan_id":"cebpf4jnsgd1na2vs0mg"},{"bike_id":"2a88c8d6-901a-46de-936e-8ca8169700e0","system_id":"levelo_inurba_marseille","lat":43.24671,"lon":5.38842,"is_reserved":false,"is_disabled":false,"rental_uris":{"android":"levelo://app?vid=2a88c8d6-901a-46de-936e-8ca8169700e0","ios":"levelo://app?vid=2a88c8d6-901a-46de-936e-8ca8169700e0"},"vehicle_type_id":"4","last_reported":1778495230,"current_range_meters":7200,"station_id":"","pricing_plan_id":"cebpf4jnsgd1na2vs0mg"},{"bike_id":"51c33c4f-93e3-4914-8b70-f8494a43df13","system_id":"levelo_inurba_marseille","lat":43.28412,"lon":5.37523,"is_reserved":false,"is_disabled":true,"rental_uris":{"android":"levelo://app?vid=51c33c4f-93e3-4914-8b70-f8494a43df13","ios":"levelo://app?vid=51c33c4f-93e3-4914-8b70-f8494a43df13"},"vehicle_type_id":"4","last_reported":1778495230,"current_range_meters":7200,"station_id":"ce4bh412rcd13ifvqds0","pricing_plan_id":"cebpf4jnsgd1na2vs0mg"},{"bike_id":"44b82dc4-674a-446b-8c81-727d389f2177","system_id":"levelo_inurba_marseille","lat":43.28696,"lon":5.46682,"is_reserved":false,"is_disabled":false,"rental_uris":{"android":"levelo://app?vid=44b82dc4-674a-446b-8c81-727d389f2177","ios":"levelo://app?vid=44b82dc4-674a-446b-8c81-727d389f2177"},"vehicle_type_id":"4","last_reported":1778495230,"current_range_meters":7200,"station_id":"st_d6tc3vkotcvc738tfjhg","pricing_plan_id":"cebpf4jnsgd1na2vs0mg"},{"bike_id":"a92dc77f-df39-48c8-affc-a8c97580f9c0","system_id":"levelo_inurba_marseille","lat":43.26544,"lon":5.37284,"is_reserved":false,"is_disabled":false,"rental_uris":{"android":"levelo://app?vid=a92dc77f-df39-48c8-affc-a8c97580f9c0","ios":"levelo://app?vid=a92dc77f-df39-48c8-affc-a8c97580f9c0"},"vehicle_type_id":"4","last_reported":1778495230,"current_range_meters":7200,"station_id":"ce4bhg12rcd13ifvqf70","pricing_plan_id":"cebpf4jnsgd1na2vs0mg"},{"bike_id":"5fe9b07e-e26d-444f-b4f1-faeed3f13e1d","system_id":"levelo_inurba_marseille","lat":43.30669,"lon":5.40024,"is_reserved":false,"is_disabled":false,"rental_uris":{"android":"levelo://app?vid=5fe9b07e-e26d-444f-b4f1-faeed3f13e1d","ios":"levelo://app?vid=5fe9b07e-e26d-444f-b4f1-faeed3f13e1d"},"vehicle_type_id":"4","last_reported":1778495230,"current_range_meters":7200,"station_id":"","pricing_plan_id":"cebpf4jnsgd1na2vs0mg"},{"bike_id":"08d66599-56da-4017-8845-11edb4efecdf","system_id":"levelo_inurba_marseille","lat":43.24673,"lon":5.3815,"is_reserved":false,"is_disabled":false,"rental_uris":{"android":"levelo://app?vid=08d66599-56da-4017-8845-11edb4efecdf","ios":"levelo://app?vid=08d66599-56da-4017-8845-11edb4efecdf"},"vehicle_type_id":"4","last_reported":1778495230,"current_range_meters":7200,"station_id":"ce4bhih2rcd13ifvqfr0","pricing_plan_id":"cebpf4jnsgd1na2vs0mg"},{"bike_id":"0aa0f504-94fe-42c5-a1d6-d8ddfb182735","system_id":"levelo_inurba_marseille","lat":43.24305,"lon":5.38808,"is_reserved":false,"is_disabled":false,"rental_uris":{"android":"levelo://app?vid=0aa0f504-94fe-42c5-a1d6-d8ddfb182735","ios":"levelo://app?vid=0aa0f504-94fe-42c5-a1d6-d8ddfb182735"},"vehicle_type_id":"4","last_reported":1778495230,"current_range_meters":7200,"station_id":"","pricing_plan_id":"cebpf4jnsgd1na2vs0mg"},{"bike_id":"9aad11a4-9a52-4fec-9725-ef5ceb82088c","system_id":"levelo_inurba_marseille","lat":43.24673,"lon":5.43122,"is_reserved":false,"is_disabled":true,"rental_uris":{"android":"levelo://app?vid=9aad11a4-9a52-4fec-9725-ef5ceb82088c","ios":"levelo://app?vid=9aad11a4-9a52-4fec-9725-ef5ceb82088c"},"vehicle_type_id":"4","last_reported":1778495230,"current_range_meters":7200,"station_id":"st_d2m6c4gdas8pm72e190g","pricing_plan_id":"cebpf4jnsgd1na2vs0mg"},{"bike_id":"32dc8e0c-9867-4159-803a-6a99916c81de","system_id":"levelo_inurba_marseille","lat":43.31385,"lon":5.36696,"is_reserved":false,"is_disabled":false,"rental_uris":{"android":"levelo://app?vid=32dc8e0c-9867-4159-803a-6a99916c81de","ios":"levelo://app?vid=32dc8e0c-9867-4159-803a-6a99916c81de"},"vehicle_type_id":"4","last_reported":1778495230,"current_range_meters":7200,"station_id":"","pricing_plan_id":"cebpf4jnsgd1na2vs0mg"},{"bike_id":"b8b5cb12-88d7-4f4c-ba7f-39382f313467","system_id":"levelo_inurba_marseille","lat":43.21198,"lon":5.35067,"is_reserved":false,"is_disabled":false,"rental_uris":{"android":"levelo://app?vid=b8b5cb12-88d7-4f4c-ba7f-39382f313467","ios":"levelo://app?vid=b8b5cb12-88d7-4f4c-ba7f-39382f313467"},"vehicle_type_id":"4","last_reported":1778495230,"current_range_meters":7200,"station_id":"st_cvj6sg6p6f1abm77japg","pricing_plan_id":"cebpf4jnsgd1na2vs0mg"},{"bike_id":"94720c31-0eca-4c2a-9168-b1e29e232365","system_id":"levelo_inurba_marseille","lat":43.27662,"lon":5.38881,"is_reserved":false,"is_disabled":false,"rental_uris":{"android":"levelo://app?vid=94720c31-0eca-4c2a-9168-b1e29e232365","ios":"levelo://app?vid=94720c31-0eca-4c2a-9168-b1e29e232365"},"vehicle_type_id":"4","last_reported":1778495230,"current_range_meters":8000,"station_id":"ce4bhi12rcd13ifvqfo0","pricing_plan_id":"cebpf4jnsgd1na2vs0mg"},{"bike_id":"9385a7db-a696-47a2-8c9b-9a34adad8836","system_id":"levelo_inurba_marseille","lat":43.30509,"lon":5.36598,"is_reserved":false,"is_disabled":false,"rental_uris":{"android":"levelo://app?vid=9385a7db-a696-47a2-8c9b-9a34adad8836","ios":"levelo://app?vid=9385a7db-a696-47a2-8c9b-9a34adad8836"},"vehicle_type_id":"4","last_reported":1778495230,"current_range_meters":8000,"station_id":"","pricing_plan_id":"cebpf4jnsgd1na2vs0mg"},{"bike_id":"29a7eadc-8c9a-4fbe-8370-c1df414fba9e","system_id":"levelo_inurba_marseille","lat":43.31456,"lon":5.37368,"is_reserved":false,"is_disabled":true,"rental_uris":{"android":"levelo://app?vid=29a7eadc-8c9a-4fbe-8370-c1df414fba9e","ios":"levelo://app?vid=29a7eadc-8c9a-4fbe-8370-c1df414fba9e"},"vehicle_type_id":"4","last_reported":1778495230,"current_range_meters":8000,"station_id":"","pricing_plan_id":"cebpf4jnsgd1na2vs0mg"},{"bike_id":"cf7ae309-d891-460e-ab87-bc46e8324309","system_id":"levelo_inurba_marseille","lat":43.33542,"lon":5.37466,"is_reserved":false,"is_disabled":false,"rental_uris":{"android":"levelo://app?vid=cf7ae309-d891-460e-ab87-bc46e8324309","ios":"levelo://app?vid=cf7ae309-d891-460e-ab87-bc46e8324309"},"vehicle_type_id":"4","last_reported":1778495230,"current_range_meters":8000,"station_id":"st_d46tts09ee8s73dlu43g","pricing_plan_id":"cebpf4jnsgd1na2vs0mg"},{"bike_id":"ac3d0288-806c-484d-a53f-2698f9156917","system_id":"levelo_inurba_marseille","lat":43.26064,"lon":5.39381,"is_reserved":false,"is_disabled":false,"rental_uris":{"android":"levelo://app?vid=ac3d0288-806c-484d-a53f-2698f9156917","ios":"levelo://app?vid=ac3d0288-806c-484d-a53f-2698f9156917"},"vehicle_type_id":"4","last_reported":1778495230,"current_range_meters":8000,"station_id":"ce4bhh92rcd13ifvqfj0","pricing_plan_id":"cebpf4jnsgd1na2vs0mg"},{"bike_id":"662c8520-bfe6-4791-897f-ed06d541dc6e","system_id":"levelo_inurba_marseille","lat":43.27024,"lon":5.38354,"is_reserved":false,"is_disabled":false,"rental_uris":{"android":"levelo://app?vid=662c8520-bfe6-4791-897f-ed06d541dc6e","ios":"levelo://app?vid=662c8520-bfe6-4791-897f-ed06d541dc6e"},"vehicle_type_id":"4","last_reported":1778495230,"current_range_meters":8000,"station_id":"st_d3n2fo6cfp8s73cte1j0","pricing_plan_id":"cebpf4jnsgd1na2vs0mg"},{"bike_id":"3846189f-ef8a-4416-862e-758a0e9d0921","system_id":"levelo_inurba_marseille","lat":43.2467,"lon":5.38142,"is_reserved":false,"is_disabled":true,"rental_uris":{"android":"levelo://app?vid=3846189f-ef8a-4416-862e-758a0e9d0921","ios":"levelo://app?vid=3846189f-ef8a-4416-862e-758a0e9d0921"},"vehicle_type_id":"4","last_reported":1778495230,"current_range_meters":8000,"station_id":"ce4bhih2rcd13ifvqfr0","pricing_plan_id":"cebpf4jnsgd1na2vs0mg"},{"bike_id":"aa0c8b0b-4233-4521-ad3e-361a43272d65","system_id":"levelo_inurba_marseille","lat":43.31364,"lon":5.36678,"is_reserved":false,"is_disabled":false,"rental_uris":{"android":"levelo://app?vid=aa0c8b0b-4233-4521-ad3e-361a43272d65","ios":"levelo://app?vid=aa0c8b0b-4233-4521-ad3e-361a43272d65"},"vehicle_type_id":"4","last_reported":1778495230,"current_range_meters":8000,"station_id":"ce4bgr92rcd13ifvqc6g","pricing_plan_id":"cebpf4jnsgd1na2vs0mg"},{"bike_id":"4c50ceb6-cdba-4a6f-be3f-66ed2699630e","system_id":"levelo_inurba_marseille","lat":43.28485,"lon":5.38569,"is_reserved":false,"is_disabled":false,"rental_uris":{"android":"levelo://app?vid=4c50ceb6-cdba-4a6f-be3f-66ed2699630e","ios":"levelo://app?vid=4c50ceb6-cdba-4a6f-be3f-66ed2699630e"},"vehicle_type_id":"4","last_reported":1778495230,"current_range_meters":8000,"station_id":"ce4bh8p2rcd13ifvqeb0","pricing_plan_id":"cebpf4jnsgd1na2vs0mg"},{"bike_id":"2045449d-114f-47cf-8791-7d12be9f5d63","system_id":"levelo_inurba_marseille","lat":43.2981,"lon":5.44081,"is_reserved":false,"is_disabled":false,"rental_uris":{"android":"levelo://app?vid=2045449d-114f-47cf-8791-7d12be9f5d63","ios":"levelo://app?vid=2045449d-114f-47cf-8791-7d12be9f5d63"},"vehicle_type_id":"4","last_reported":1778495230,"current_range_meters":8000,"station_id":"st_d3jp68qikq2c7381ktn0","pricing_plan_id":"cebpf4jnsgd1na2vs0mg"},{"bike_id":"369803e0-cf2f-4230-a91a-a5b633dc7de3","system_id":"levelo_inurba_marseille","lat":43.33157,"lon":5.3767,"is_reserved":false,"is_disabled":false,"rental_uris":{"android":"levelo://app?vid=369803e0-cf2f-4230-a91a-a5b633dc7de3","ios":"levelo://app?vid=369803e0-cf2f-4230-a91a-a5b633dc7de3"},"vehicle_type_id":"4","last_reported":1778495230,"current_range_meters":8000,"station_id":"st_d46cu089ee8s73dldbu0","pricing_plan_id":"cebpf4jnsgd1na2vs0mg"},{"bike_id":"d71b8319-0a59-45b5-867b-1b32c61cadff","system_id":"levelo_inurba_marseille","lat":43.29787,"lon":5.3935,"is_reserved":false,"is_disabled":true,"rental_uris":{"android":"levelo://app?vid=d71b8319-0a59-45b5-867b-1b32c61cadff","ios":"levelo://app?vid=d71b8319-0a59-45b5-867b-1b32c61cadff"},"vehicle_type_id":"4","last_reported":1778495230,"current_range_meters":8000,"station_id":"chh1huq6cuj3fo74tm60","pricing_plan_id":"cebpf4jnsgd1na2vs0mg"},{"bike_id":"8b7cdd2e-8559-4219-8a1c-bd7f59654c98","system_id":"levelo_inurba_marseille","lat":43.30463,"lon":5.37892,"is_reserved":false,"is_disabled":false,"rental_uris":{"android":"levelo://app?vid=8b7cdd2e-8559-4219-8a1c-bd7f59654c98","ios":"levelo://app?vid=8b7cdd2e-8559-4219-8a1c-bd7f59654c98"},"vehicle_type_id":"4","last_reported":1778495230,"current_range_meters":8000,"station_id":"ce4bgup2rcd13ifvqcn0","pricing_plan_id":"cebpf4jnsgd1na2vs0mg"},{"bike_id":"d4aff205-73f1-42ee-8e1f-95ea17a0f3d5","system_id":"levelo_inurba_marseille","lat":43.28893,"lon":5.37803,"is_reserved":false,"is_disabled":false,"rental_uris":{"android":"levelo://app?vid=d4aff205-73f1-42ee-8e1f-95ea17a0f3d5","ios":"levelo://app?vid=d4aff205-73f1-42ee-8e1f-95ea17a0f3d5"},"vehicle_type_id":"4","last_reported":1778495230,"current_range_meters":8000,"station_id":"","pricing_plan_id":"cebpf4jnsgd1na2vs0mg"},{"bike_id":"983e3ee9-6e85-423f-a86e-499e74730595","system_id":"levelo_inurba_marseille","lat":43.239618,"lon":5.36623,"is_reserved":false,"is_disabled":false,"rental_uris":{"android":"levelo://app?vid=983e3ee9-6e85-423f-a86e-499e74730595","ios":"levelo://app?vid=983e3ee9-6e85-423f-a86e-499e74730595"},"vehicle_type_id":"4","last_reported":1778495230,"current_range_meters":8000,"station_id":"ce4bhi12rcd13ifvqfp0","pricing_plan_id":"cebpf4jnsgd1na2vs0mg"},{"bike_id":"1fa4b452-9d0c-43b3-a29a-3d70cafac9f2","system_id":"levelo_inurba_marseille","lat":43.32238,"lon":5.36884,"is_reserved":false,"is_disabled":false,"rental_uris":{"android":"levelo://app?vid=1fa4b452-9d0c-43b3-a29a-3d70cafac9f2","ios":"levelo://app?vid=1fa4b452-9d0c-43b3-a29a-3d70cafac9f2"},"vehicle_type_id":"4","last_reported":1778495230,"current_range_meters":8000,"station_id":"","pricing_plan_id":"cebpf4jnsgd1na2vs0mg"},{"bike_id":"eb77a4c1-971a-4242-88f3-b2ec5c06ea79","system_id":"levelo_inurba_marseille","lat":43.33176,"lon":5.37638,"is_reserved":false,"is_disabled":false,"rental_uris":{"android":"levelo://app?vid=eb77a4c1-971a-4242-88f3-b2ec5c06ea79","ios":"levelo://app?vid=eb77a4c1-971a-4242-88f3-b2ec5c06ea79"},"vehicle_type_id":"4","last_reported":1778495230,"current_range_meters":8000,"station_id":"st_d46cu089ee8s73dldbu0","pricing_plan_id":"cebpf4jnsgd1na2vs0mg"},{"bike_id":"e1503575-8d47-4546-b8cd-a7397d82e305","system_id":"levelo_inurba_marseille","lat":43.28862,"lon":5.42524,"is_reserved":false,"is_disabled":false,"rental_uris":{"android":"levelo://app?vid=e1503575-8d47-4546-b8cd-a7397d82e305","ios":"levelo://app?vid=e1503575-8d47-4546-b8cd-a7397d82e305"},"vehicle_type_id":"4","last_reported":1778495230,"current_range_meters":8000,"station_id":"st_d3b462108ojc7389ooeg","pricing_plan_id":"cebpf4jnsgd1na2vs0mg"},{"bike_id":"a3ed2d44-8104-4877-b9af-7ce6ad2a01a2","system_id":"levelo_inurba_marseille","lat":43.29051,"lon":5.37154,"is_reserved":false,"is_disabled":false,"rental_uris":{"android":"levelo://app?vid=a3ed2d44-8104-4877-b9af-7ce6ad2a01a2","ios":"levelo://app?vid=a3ed2d44-8104-4877-b9af-7ce6ad2a01a2"},"vehicle_type_id":"4","last_reported":1778495230,"current_range_meters":8000,"station_id":"ce4bh5p2rcd13ifvqe4g","pricing_plan_id":"cebpf4jnsgd1na2vs0mg"},{"bike_id":"9d4784b8-10a9-4863-8ff2-38cf427d852c","system_id":"levelo_inurba_marseille","lat":43.23905,"lon":5.37448,"is_reserved":false,"is_disabled":false,"rental_uris":{"android":"levelo://app?vid=9d4784b8-10a9-4863-8ff2-38cf427d852c","ios":"levelo://app?vid=9d4784b8-10a9-4863-8ff2-38cf427d852c"},"vehicle_type_id":"4","last_reported":1778495230,"current_range_meters":8000,"station_id":"st_d6sm7csbq4hs73f8fpjg","pricing_plan_id":"cebpf4jnsgd1na2vs0mg"},{"bike_id":"eaa46970-3ae2-41f2-a7df-b5b40f3e2ef9","system_id":"levelo_inurba_marseille","lat":43.28716,"lon":5.37947,"is_reserved":false,"is_disabled":false,"rental_uris":{"android":"levelo://app?vid=eaa46970-3ae2-41f2-a7df-b5b40f3e2ef9","ios":"levelo://app?vid=eaa46970-3ae2-41f2-a7df-b5b40f3e2ef9"},"vehicle_type_id":"4","last_reported":1778495230,"current_range_meters":8000,"station_id":"ce4bh9p2rcd13ifvqec0","pricing_plan_id":"cebpf4jnsgd1na2vs0mg"},{"bike_id":"168f4a9e-736f-4dd7-91dd-519b879aa5a5","system_id":"levelo_inurba_marseille","lat":43.32521,"lon":5.41486,"is_reserved":false,"is_disabled":false,"rental_uris":{"android":"levelo://app?vid=168f4a9e-736f-4dd7-91dd-519b879aa5a5","ios":"levelo://app?vid=168f4a9e-736f-4dd7-91dd-519b879aa5a5"},"vehicle_type_id":"4","last_reported":1778495230,"current_range_meters":8000,"station_id":"ce4bhq12rcd13ifvqhhg","pricing_plan_id":"cebpf4jnsgd1na2vs0mg"},{"bike_id":"d41dd175-5bfe-48c4-8352-4a80d32b168e","system_id":"levelo_inurba_marseille","lat":43.24992,"lon":5.38933,"is_reserved":false,"is_disabled":false,"rental_uris":{"android":"levelo://app?vid=d41dd175-5bfe-48c4-8352-4a80d32b168e","ios":"levelo://app?vid=d41dd175-5bfe-48c4-8352-4a80d32b168e"},"vehicle_type_id":"4","last_reported":1778495230,"current_range_meters":8000,"station_id":"ce4bhgp2rcd13ifvqfd0","pricing_plan_id":"cebpf4jnsgd1na2vs0mg"},{"bike_id":"eea44eb9-13bb-40d8-b929-ea5b2cf488f4","system_id":"levelo_inurba_marseille","lat":43.28284,"lon":5.35066,"is_reserved":false,"is_disabled":false,"rental_uris":{"android":"levelo://app?vid=eea44eb9-13bb-40d8-b929-ea5b2cf488f4","ios":"levelo://app?vid=eea44eb9-13bb-40d8-b929-ea5b2cf488f4"},"vehicle_type_id":"4","last_reported":1778495230,"current_range_meters":8400,"station_id":"ce4bhbp2rcd13ifvqerg","pricing_plan_id":"cebpf4jnsgd1na2vs0mg"},{"bike_id":"0bb97876-57ef-4d3a-813d-206f73945879","system_id":"levelo_inurba_marseille","lat":43.24807,"lon":5.37465,"is_reserved":false,"is_disabled":false,"rental_uris":{"android":"levelo://app?vid=0bb97876-57ef-4d3a-813d-206f73945879","ios":"levelo://app?vid=0bb97876-57ef-4d3a-813d-206f73945879"},"vehicle_type_id":"4","last_reported":1778495230,"current_range_meters":8400,"station_id":"ce4bhgh2rcd13ifvqfb0","pricing_plan_id":"cebpf4jnsgd1na2vs0mg"},{"bike_id":"d41a4fa9-71aa-4d69-887f-b613c5b098ab","system_id":"levelo_inurba_marseille","lat":43.29593,"lon":5.37519,"is_reserved":false,"is_disabled":false,"rental_uris":{"android":"levelo://app?vid=d41a4fa9-71aa-4d69-887f-b613c5b098ab","ios":"levelo://app?vid=d41a4fa9-71aa-4d69-887f-b613c5b098ab"},"vehicle_type_id":"4","last_reported":1778495230,"current_range_meters":8400,"station_id":"ce4bgh92rcd13ifvqb50","pricing_plan_id":"cebpf4jnsgd1na2vs0mg"},{"bike_id":"ffb34908-81f0-450d-91ec-59fc53e9ad76","system_id":"levelo_inurba_marseille","lat":43.33964,"lon":5.41661,"is_reserved":false,"is_disabled":false,"rental_uris":{"android":"levelo://app?vid=ffb34908-81f0-450d-91ec-59fc53e9ad76","ios":"levelo://app?vid=ffb34908-81f0-450d-91ec-59fc53e9ad76"},"vehicle_type_id":"4","last_reported":1778495230,"current_range_meters":8400,"station_id":"","pricing_plan_id":"cebpf4jnsgd1na2vs0mg"},{"bike_id":"6ff26e1e-c165-48e6-a586-46f84a81bf64","system_id":"levelo_inurba_marseille","lat":43.30559,"lon":5.36508,"is_reserved":false,"is_disabled":false,"rental_uris":{"android":"levelo://app?vid=6ff26e1e-c165-48e6-a586-46f84a81bf64","ios":"levelo://app?vid=6ff26e1e-c165-48e6-a586-46f84a81bf64"},"vehicle_type_id":"4","last_reported":1778495230,"current_range_meters":8400,"station_id":"ce4bgs12rcd13ifvqcag","pricing_plan_id":"cebpf4jnsgd1na2vs0mg"},{"bike_id":"d508981c-4bb3-47a6-805a-1de997ca9a9f","system_id":"levelo_inurba_marseille","lat":43.30561,"lon":5.36687,"is_reserved":false,"is_disabled":false,"rental_uris":{"android":"levelo://app?vid=d508981c-4bb3-47a6-805a-1de997ca9a9f","ios":"levelo://app?vid=d508981c-4bb3-47a6-805a-1de997ca9a9f"},"vehicle_type_id":"4","last_reported":1778495230,"current_range_meters":8400,"station_id":"ce4bgrp2rcd13ifvqc9g","pricing_plan_id":"cebpf4jnsgd1na2vs0mg"},{"bike_id":"5e16a763-1b64-44f2-b790-753d56bfcc65","system_id":"levelo_inurba_marseille","lat":43.29018,"lon":5.37137,"is_reserved":false,"is_disabled":false,"rental_uris":{"android":"levelo://app?vid=5e16a763-1b64-44f2-b790-753d56bfcc65","ios":"levelo://app?vid=5e16a763-1b64-44f2-b790-753d56bfcc65"},"vehicle_type_id":"4","last_reported":1778495230,"current_range_meters":8400,"station_id":"","pricing_plan_id":"cebpf4jnsgd1na2vs0mg"},{"bike_id":"d88d7dec-0392-44fb-a6ae-9111ad64d508","system_id":"levelo_inurba_marseille","lat":43.21754,"lon":5.34598,"is_reserved":false,"is_disabled":false,"rental_uris":{"android":"levelo://app?vid=d88d7dec-0392-44fb-a6ae-9111ad64d508","ios":"levelo://app?vid=d88d7dec-0392-44fb-a6ae-9111ad64d508"},"vehicle_type_id":"4","last_reported":1778495230,"current_range_meters":8400,"station_id":"st_cvj6r9ubvosntc0bgbag","pricing_plan_id":"cebpf4jnsgd1na2vs0mg"},{"bike_id":"8e34e53c-0141-469e-978e-c2b09178d81e","system_id":"levelo_inurba_marseille","lat":43.336043,"lon":5.410274,"is_reserved":false,"is_disabled":false,"rental_uris":{"android":"levelo://app?vid=8e34e53c-0141-469e-978e-c2b09178d81e","ios":"levelo://app?vid=8e34e53c-0141-469e-978e-c2b09178d81e"},"vehicle_type_id":"4","last_reported":1778495230,"current_range_meters":8400,"station_id":"ce4bhqh2rcd13ifvqhmg","pricing_plan_id":"cebpf4jnsgd1na2vs0mg"},{"bike_id":"2bc3947b-6881-4006-9f75-a5d6db31ba76","system_id":"levelo_inurba_marseille","lat":43.29237,"lon":5.36078,"is_reserved":false,"is_disabled":false,"rental_uris":{"android":"levelo://app?vid=2bc3947b-6881-4006-9f75-a5d6db31ba76","ios":"levelo://app?vid=2bc3947b-6881-4006-9f75-a5d6db31ba76"},"vehicle_type_id":"4","last_reported":1778495230,"current_range_meters":8400,"station_id":"ce4bhbh2rcd13ifvqeqg","pricing_plan_id":"cebpf4jnsgd1na2vs0mg"},{"bike_id":"4e3fad5a-50f9-4f99-a9ef-355b0b1b6782","system_id":"levelo_inurba_marseille","lat":43.29485,"lon":5.43297,"is_reserved":false,"is_disabled":false,"rental_uris":{"android":"levelo://app?vid=4e3fad5a-50f9-4f99-a9ef-355b0b1b6782","ios":"levelo://app?vid=4e3fad5a-50f9-4f99-a9ef-355b0b1b6782"},"vehicle_type_id":"4","last_reported":1778495230,"current_range_meters":8400,"station_id":"st_d3j5ugp08ojc73fj9d10","pricing_plan_id":"cebpf4jnsgd1na2vs0mg"},{"bike_id":"d7dbf59b-5468-472d-b78e-c8fcdde2744f","system_id":"levelo_inurba_marseille","lat":43.2313,"lon":5.43719,"is_reserved":false,"is_disabled":false,"rental_uris":{"android":"levelo://app?vid=d7dbf59b-5468-472d-b78e-c8fcdde2744f","ios":"levelo://app?vid=d7dbf59b-5468-472d-b78e-c8fcdde2744f"},"vehicle_type_id":"4","last_reported":1778495230,"current_range_meters":8400,"station_id":"ce4bhmp2rcd13ifvqgog","pricing_plan_id":"cebpf4jnsgd1na2vs0mg"},{"bike_id":"fbbeb3ca-a3b8-4356-9ed2-9b1dc2cbcc00","system_id":"levelo_inurba_marseille","lat":43.29294,"lon":5.37449,"is_reserved":false,"is_disabled":false,"rental_uris":{"android":"levelo://app?vid=fbbeb3ca-a3b8-4356-9ed2-9b1dc2cbcc00","ios":"levelo://app?vid=fbbeb3ca-a3b8-4356-9ed2-9b1dc2cbcc00"},"vehicle_type_id":"4","last_reported":1778495230,"current_range_meters":8400,"station_id":"ce4bgi12rcd13ifvqb70","pricing_plan_id":"cebpf4jnsgd1na2vs0mg"},{"bike_id":"49b71b72-db00-4cfb-9d1f-a835d1e8ea55","system_id":"levelo_inurba_marseille","lat":43.317232,"lon":5.423944,"is_reserved":false,"is_disabled":false,"rental_uris":{"android":"levelo://app?vid=49b71b72-db00-4cfb-9d1f-a835d1e8ea55","ios":"levelo://app?vid=49b71b72-db00-4cfb-9d1f-a835d1e8ea55"},"vehicle_type_id":"4","last_reported":1778495230,"current_range_meters":8400,"station_id":"ce4bhp92rcd13ifvqhbg","pricing_plan_id":"cebpf4jnsgd1na2vs0mg"},{"bike_id":"af19c917-67d2-4c6a-89f7-c7e74c9aa27b","system_id":"levelo_inurba_marseille","lat":43.28261,"lon":5.35068,"is_reserved":false,"is_disabled":false,"rental_uris":{"android":"levelo://app?vid=af19c917-67d2-4c6a-89f7-c7e74c9aa27b","ios":"levelo://app?vid=af19c917-67d2-4c6a-89f7-c7e74c9aa27b"},"vehicle_type_id":"4","last_reported":1778495230,"current_range_meters":8400,"station_id":"ce4bhbp2rcd13ifvqerg","pricing_plan_id":"cebpf4jnsgd1na2vs0mg"},{"bike_id":"1f7a5c03-1114-474e-a6a1-963a47a0daa8","system_id":"levelo_inurba_marseille","lat":43.297262,"lon":5.376889,"is_reserved":false,"is_disabled":false,"rental_uris":{"android":"levelo://app?vid=1f7a5c03-1114-474e-a6a1-963a47a0daa8","ios":"levelo://app?vid=1f7a5c03-1114-474e-a6a1-963a47a0daa8"},"vehicle_type_id":"4","last_reported":1778495230,"current_range_meters":8400,"station_id":"ce4bgkh2rcd13ifvqbl0","pricing_plan_id":"cebpf4jnsgd1na2vs0mg"},{"bike_id":"48a7b932-5225-40f2-96e9-d944866b7722","system_id":"levelo_inurba_marseille","lat":43.32806,"lon":5.35943,"is_reserved":false,"is_disabled":false,"rental_uris":{"android":"levelo://app?vid=48a7b932-5225-40f2-96e9-d944866b7722","ios":"levelo://app?vid=48a7b932-5225-40f2-96e9-d944866b7722"},"vehicle_type_id":"4","last_reported":1778495230,"current_range_meters":8800,"station_id":"","pricing_plan_id":"cebpf4jnsgd1na2vs0mg"},{"bike_id":"ff750a6d-4eb9-4369-a446-03b9f1f21b2f","system_id":"levelo_inurba_marseille","lat":43.31247,"lon":5.36879,"is_reserved":false,"is_disabled":false,"rental_uris":{"android":"levelo://app?vid=ff750a6d-4eb9-4369-a446-03b9f1f21b2f","ios":"levelo://app?vid=ff750a6d-4eb9-4369-a446-03b9f1f21b2f"},"vehicle_type_id":"4","last_reported":1778495230,"current_range_meters":8800,"station_id":"ce4bgl92rcd13ifvqbq0","pricing_plan_id":"cebpf4jnsgd1na2vs0mg"},{"bike_id":"2a15f532-2d52-4f08-85d5-53f0f8106724","system_id":"levelo_inurba_marseille","lat":43.31411,"lon":5.36612,"is_reserved":false,"is_disabled":false,"rental_uris":{"android":"levelo://app?vid=2a15f532-2d52-4f08-85d5-53f0f8106724","ios":"levelo://app?vid=2a15f532-2d52-4f08-85d5-53f0f8106724"},"vehicle_type_id":"4","last_reported":1778495230,"current_range_meters":8800,"station_id":"ce4bgr92rcd13ifvqc6g","pricing_plan_id":"cebpf4jnsgd1na2vs0mg"},{"bike_id":"abef5b6c-1ccc-45e4-8c2e-19519fcf785d","system_id":"levelo_inurba_marseille","lat":43.31305,"lon":5.36709,"is_reserved":false,"is_disabled":false,"rental_uris":{"android":"levelo://app?vid=abef5b6c-1ccc-45e4-8c2e-19519fcf785d","ios":"levelo://app?vid=abef5b6c-1ccc-45e4-8c2e-19519fcf785d"},"vehicle_type_id":"4","last_reported":1778495230,"current_range_meters":8800,"station_id":"ce4bgr92rcd13ifvqc6g","pricing_plan_id":"cebpf4jnsgd1na2vs0mg"},{"bike_id":"f686b01a-c70f-439e-97a0-39cc13ce32f3","system_id":"levelo_inurba_marseille","lat":43.24054,"lon":5.37715,"is_reserved":false,"is_disabled":true,"rental_uris":{"android":"levelo://app?vid=f686b01a-c70f-439e-97a0-39cc13ce32f3","ios":"levelo://app?vid=f686b01a-c70f-439e-97a0-39cc13ce32f3"},"vehicle_type_id":"4","last_reported":1778495230,"current_range_meters":8800,"station_id":"ce4bhnp2rcd13ifvqgvg","pricing_plan_id":"cebpf4jnsgd1na2vs0mg"},{"bike_id":"8ed842d5-11ab-4284-b9ac-f0538153653d","system_id":"levelo_inurba_marseille","lat":43.31384,"lon":5.36686,"is_reserved":false,"is_disabled":false,"rental_uris":{"android":"levelo://app?vid=8ed842d5-11ab-4284-b9ac-f0538153653d","ios":"levelo://app?vid=8ed842d5-11ab-4284-b9ac-f0538153653d"},"vehicle_type_id":"4","last_reported":1778495230,"current_range_meters":8800,"station_id":"","pricing_plan_id":"cebpf4jnsgd1na2vs0mg"},{"bike_id":"19ecf298-9a0e-43ed-97a5-06419c69b4aa","system_id":"levelo_inurba_marseille","lat":43.31452,"lon":5.37376,"is_reserved":false,"is_disabled":false,"rental_uris":{"android":"levelo://app?vid=19ecf298-9a0e-43ed-97a5-06419c69b4aa","ios":"levelo://app?vid=19ecf298-9a0e-43ed-97a5-06419c69b4aa"},"vehicle_type_id":"4","last_reported":1778495230,"current_range_meters":8800,"station_id":"","pricing_plan_id":"cebpf4jnsgd1na2vs0mg"},{"bike_id":"f08fd671-6039-42d3-9555-565586ddb900","system_id":"levelo_inurba_marseille","lat":43.23189,"lon":5.3556,"is_reserved":false,"is_disabled":false,"rental_uris":{"android":"levelo://app?vid=f08fd671-6039-42d3-9555-565586ddb900","ios":"levelo://app?vid=f08fd671-6039-42d3-9555-565586ddb900"},"vehicle_type_id":"4","last_reported":1778495230,"current_range_meters":8800,"station_id":"ce4bhu92rcd13ifvqi70","pricing_plan_id":"cebpf4jnsgd1na2vs0mg"},{"bike_id":"b06dc624-9d1b-44bd-b8d1-2da3c164f736","system_id":"levelo_inurba_marseille","lat":43.30504,"lon":5.45992,"is_reserved":false,"is_disabled":false,"rental_uris":{"android":"levelo://app?vid=b06dc624-9d1b-44bd-b8d1-2da3c164f736","ios":"levelo://app?vid=b06dc624-9d1b-44bd-b8d1-2da3c164f736"},"vehicle_type_id":"4","last_reported":1778495230,"current_range_meters":8800,"station_id":"","pricing_plan_id":"cebpf4jnsgd1na2vs0mg"},{"bike_id":"d203041f-4e92-486f-9967-4f92ce8fe8a5","system_id":"levelo_inurba_marseille","lat":43.28298,"lon":5.35041,"is_reserved":false,"is_disabled":false,"rental_uris":{"android":"levelo://app?vid=d203041f-4e92-486f-9967-4f92ce8fe8a5","ios":"levelo://app?vid=d203041f-4e92-486f-9967-4f92ce8fe8a5"},"vehicle_type_id":"4","last_reported":1778495230,"current_range_meters":8800,"station_id":"ce4bhbp2rcd13ifvqerg","pricing_plan_id":"cebpf4jnsgd1na2vs0mg"},{"bike_id":"a477a1a3-f071-4e56-a635-b34d7283b460","system_id":"levelo_inurba_marseille","lat":43.33517,"lon":5.37442,"is_reserved":false,"is_disabled":false,"rental_uris":{"android":"levelo://app?vid=a477a1a3-f071-4e56-a635-b34d7283b460","ios":"levelo://app?vid=a477a1a3-f071-4e56-a635-b34d7283b460"},"vehicle_type_id":"4","last_reported":1778495230,"current_range_meters":8800,"station_id":"st_d46tts09ee8s73dlu43g","pricing_plan_id":"cebpf4jnsgd1na2vs0mg"},{"bike_id":"0a31404c-6afa-4ef3-9273-dea3f9d30f94","system_id":"levelo_inurba_marseille","lat":43.25719,"lon":5.41043,"is_reserved":false,"is_disabled":false,"rental_uris":{"android":"levelo://app?vid=0a31404c-6afa-4ef3-9273-dea3f9d30f94","ios":"levelo://app?vid=0a31404c-6afa-4ef3-9273-dea3f9d30f94"},"vehicle_type_id":"4","last_reported":1778495230,"current_range_meters":8800,"station_id":"","pricing_plan_id":"cebpf4jnsgd1na2vs0mg"},{"bike_id":"aa34428c-1f56-46a7-994c-0122e005c197","system_id":"levelo_inurba_marseille","lat":43.28867,"lon":5.39302,"is_reserved":false,"is_disabled":true,"rental_uris":{"android":"levelo://app?vid=aa34428c-1f56-46a7-994c-0122e005c197","ios":"levelo://app?vid=aa34428c-1f56-46a7-994c-0122e005c197"},"vehicle_type_id":"4","last_reported":1778495230,"current_range_meters":8800,"station_id":"ce4bh2p2rcd13ifvqdi0","pricing_plan_id":"cebpf4jnsgd1na2vs0mg"},{"bike_id":"1daf9920-f62c-4989-9fee-7d9cf6d5869b","system_id":"levelo_inurba_marseille","lat":43.25583,"lon":5.38217,"is_reserved":false,"is_disabled":false,"rental_uris":{"android":"levelo://app?vid=1daf9920-f62c-4989-9fee-7d9cf6d5869b","ios":"levelo://app?vid=1daf9920-f62c-4989-9fee-7d9cf6d5869b"},"vehicle_type_id":"4","last_reported":1778495230,"current_range_meters":8800,"station_id":"ce4bhih2rcd13ifvqfs0","pricing_plan_id":"cebpf4jnsgd1na2vs0mg"},{"bike_id":"08ea9bf7-363f-4ee9-9e69-2d90ee75a08b","system_id":"levelo_inurba_marseille","lat":43.27502,"lon":5.4243,"is_reserved":false,"is_disabled":false,"rental_uris":{"android":"levelo://app?vid=08ea9bf7-363f-4ee9-9e69-2d90ee75a08b","ios":"levelo://app?vid=08ea9bf7-363f-4ee9-9e69-2d90ee75a08b"},"vehicle_type_id":"4","last_reported":1778495230,"current_range_meters":8800,"station_id":"ce4bhn92rcd13ifvqgrg","pricing_plan_id":"cebpf4jnsgd1na2vs0mg"},{"bike_id":"89057c05-c72e-4f5a-a0db-f5b7c4f54905","system_id":"levelo_inurba_marseille","lat":43.27962,"lon":5.41026,"is_reserved":false,"is_disabled":true,"rental_uris":{"android":"levelo://app?vid=89057c05-c72e-4f5a-a0db-f5b7c4f54905","ios":"levelo://app?vid=89057c05-c72e-4f5a-a0db-f5b7c4f54905"},"vehicle_type_id":"4","last_reported":1778495230,"current_range_meters":8800,"station_id":"ce4bhnp2rcd13ifvqh0g","pricing_plan_id":"cebpf4jnsgd1na2vs0mg"},{"bike_id":"90abd9b6-81dd-48ff-ab2e-fcb0f5bba0ab","system_id":"levelo_inurba_marseille","lat":43.33603,"lon":5.41037,"is_reserved":false,"is_disabled":false,"rental_uris":{"android":"levelo://app?vid=90abd9b6-81dd-48ff-ab2e-fcb0f5bba0ab","ios":"levelo://app?vid=90abd9b6-81dd-48ff-ab2e-fcb0f5bba0ab"},"vehicle_type_id":"4","last_reported":1778495230,"current_range_meters":8800,"station_id":"ce4bhqh2rcd13ifvqhmg","pricing_plan_id":"cebpf4jnsgd1na2vs0mg"},{"bike_id":"4f02f0f9-0e51-41d9-83f2-56712e163386","system_id":"levelo_inurba_marseille","lat":43.30503,"lon":5.36506,"is_reserved":false,"is_disabled":false,"rental_uris":{"android":"levelo://app?vid=4f02f0f9-0e51-41d9-83f2-56712e163386","ios":"levelo://app?vid=4f02f0f9-0e51-41d9-83f2-56712e163386"},"vehicle_type_id":"4","last_reported":1778495230,"current_range_meters":8800,"station_id":"","pricing_plan_id":"cebpf4jnsgd1na2vs0mg"},{"bike_id":"ee4ae8ad-baac-4ca4-b488-3ec551753c66","system_id":"levelo_inurba_marseille","lat":43.21196,"lon":5.35067,"is_reserved":false,"is_disabled":false,"rental_uris":{"android":"levelo://app?vid=ee4ae8ad-baac-4ca4-b488-3ec551753c66","ios":"levelo://app?vid=ee4ae8ad-baac-4ca4-b488-3ec551753c66"},"vehicle_type_id":"4","last_reported":1778495230,"current_range_meters":8800,"station_id":"st_cvj6sg6p6f1abm77japg","pricing_plan_id":"cebpf4jnsgd1na2vs0mg"},{"bike_id":"63fb50bb-626e-4c8c-a904-a1887ca132bf","system_id":"levelo_inurba_marseille","lat":43.25493,"lon":5.37598,"is_reserved":false,"is_disabled":false,"rental_uris":{"android":"levelo://app?vid=63fb50bb-626e-4c8c-a904-a1887ca132bf","ios":"levelo://app?vid=63fb50bb-626e-4c8c-a904-a1887ca132bf"},"vehicle_type_id":"4","last_reported":1778495230,"current_range_meters":8800,"station_id":"ce4bhh12rcd13ifvqff0","pricing_plan_id":"cebpf4jnsgd1na2vs0mg"},{"bike_id":"8e4b050e-78bc-4587-a179-01ce687f4825","system_id":"levelo_inurba_marseille","lat":43.24651,"lon":5.38877,"is_reserved":false,"is_disabled":false,"rental_uris":{"android":"levelo://app?vid=8e4b050e-78bc-4587-a179-01ce687f4825","ios":"levelo://app?vid=8e4b050e-78bc-4587-a179-01ce687f4825"},"vehicle_type_id":"4","last_reported":1778495230,"current_range_meters":8800,"station_id":"ce4bhg12rcd13ifvqf60","pricing_plan_id":"cebpf4jnsgd1na2vs0mg"},{"bike_id":"e3b32efc-f569-4792-8761-60c097854bfa","system_id":"levelo_inurba_marseille","lat":43.29205,"lon":5.42691,"is_reserved":false,"is_disabled":false,"rental_uris":{"android":"levelo://app?vid=e3b32efc-f569-4792-8761-60c097854bfa","ios":"levelo://app?vid=e3b32efc-f569-4792-8761-60c097854bfa"},"vehicle_type_id":"4","last_reported":1778495230,"current_range_meters":8800,"station_id":"","pricing_plan_id":"cebpf4jnsgd1na2vs0mg"},{"bike_id":"914b94a4-bf59-4af5-993a-5a5d7a6154fb","system_id":"levelo_inurba_marseille","lat":43.31802,"lon":5.38979,"is_reserved":false,"is_disabled":false,"rental_uris":{"android":"levelo://app?vid=914b94a4-bf59-4af5-993a-5a5d7a6154fb","ios":"levelo://app?vid=914b94a4-bf59-4af5-993a-5a5d7a6154fb"},"vehicle_type_id":"4","last_reported":1778495230,"current_range_meters":8800,"station_id":"ce4bhqp2rcd13ifvqhng","pricing_plan_id":"cebpf4jnsgd1na2vs0mg"},{"bike_id":"c91df724-5b59-4289-b01a-509c9ed50268","system_id":"levelo_inurba_marseille","lat":43.23883,"lon":5.37454,"is_reserved":false,"is_disabled":false,"rental_uris":{"android":"levelo://app?vid=c91df724-5b59-4289-b01a-509c9ed50268","ios":"levelo://app?vid=c91df724-5b59-4289-b01a-509c9ed50268"},"vehicle_type_id":"4","last_reported":1778495230,"current_range_meters":9200,"station_id":"st_d6sm7csbq4hs73f8fpjg","pricing_plan_id":"cebpf4jnsgd1na2vs0mg"},{"bike_id":"f646d4d0-fd51-4800-ae3a-38574494b2bf","system_id":"levelo_inurba_marseille","lat":43.30313,"lon":5.36875,"is_reserved":false,"is_disabled":false,"rental_uris":{"android":"levelo://app?vid=f646d4d0-fd51-4800-ae3a-38574494b2bf","ios":"levelo://app?vid=f646d4d0-fd51-4800-ae3a-38574494b2bf"},"vehicle_type_id":"4","last_reported":1778495230,"current_range_meters":9200,"station_id":"ce4bgqh2rcd13ifvqc5g","pricing_plan_id":"cebpf4jnsgd1na2vs0mg"},{"bike_id":"ce8907b4-95ae-4cb1-8ed0-698c7f370c57","system_id":"levelo_inurba_marseille","lat":43.28145,"lon":5.42625,"is_reserved":false,"is_disabled":false,"rental_uris":{"android":"levelo://app?vid=ce8907b4-95ae-4cb1-8ed0-698c7f370c57","ios":"levelo://app?vid=ce8907b4-95ae-4cb1-8ed0-698c7f370c57"},"vehicle_type_id":"4","last_reported":1778495230,"current_range_meters":9200,"station_id":"ce4bhnh2rcd13ifvqgug","pricing_plan_id":"cebpf4jnsgd1na2vs0mg"},{"bike_id":"028e5f20-5146-49f3-a7db-aadde221fb20","system_id":"levelo_inurba_marseille","lat":43.31707,"lon":5.40458,"is_reserved":false,"is_disabled":false,"rental_uris":{"android":"levelo://app?vid=028e5f20-5146-49f3-a7db-aadde221fb20","ios":"levelo://app?vid=028e5f20-5146-49f3-a7db-aadde221fb20"},"vehicle_type_id":"4","last_reported":1778495230,"current_range_meters":9200,"station_id":"ce4bh012rcd13ifvqd00","pricing_plan_id":"cebpf4jnsgd1na2vs0mg"},{"bike_id":"1996ac1c-85c4-436f-81e2-534bdb16bdef","system_id":"levelo_inurba_marseille","lat":43.2959,"lon":5.36732,"is_reserved":false,"is_disabled":false,"rental_uris":{"android":"levelo://app?vid=1996ac1c-85c4-436f-81e2-534bdb16bdef","ios":"levelo://app?vid=1996ac1c-85c4-436f-81e2-534bdb16bdef"},"vehicle_type_id":"4","last_reported":1778495230,"current_range_meters":9200,"station_id":"ce4bgph2rcd13ifvqc2g","pricing_plan_id":"cebpf4jnsgd1na2vs0mg"},{"bike_id":"d6de5f27-c5bb-480e-bf49-10bc8b5c54b8","system_id":"levelo_inurba_marseille","lat":43.25111,"lon":5.40314,"is_reserved":false,"is_disabled":false,"rental_uris":{"android":"levelo://app?vid=d6de5f27-c5bb-480e-bf49-10bc8b5c54b8","ios":"levelo://app?vid=d6de5f27-c5bb-480e-bf49-10bc8b5c54b8"},"vehicle_type_id":"4","last_reported":1778495230,"current_range_meters":9200,"station_id":"ce4bhlh2rcd13ifvqgig","pricing_plan_id":"cebpf4jnsgd1na2vs0mg"},{"bike_id":"17199a08-850a-475b-8d64-663bd0d7d37b","system_id":"levelo_inurba_marseille","lat":43.26554,"lon":5.40315,"is_reserved":false,"is_disabled":false,"rental_uris":{"android":"levelo://app?vid=17199a08-850a-475b-8d64-663bd0d7d37b","ios":"levelo://app?vid=17199a08-850a-475b-8d64-663bd0d7d37b"},"vehicle_type_id":"4","last_reported":1778495230,"current_range_meters":9200,"station_id":"ce4bhmp2rcd13ifvqgng","pricing_plan_id":"cebpf4jnsgd1na2vs0mg"},{"bike_id":"de15025b-6ccd-4c02-a679-94e68edc9c98","system_id":"levelo_inurba_marseille","lat":43.28784,"lon":5.42415,"is_reserved":false,"is_disabled":false,"rental_uris":{"android":"levelo://app?vid=de15025b-6ccd-4c02-a679-94e68edc9c98","ios":"levelo://app?vid=de15025b-6ccd-4c02-a679-94e68edc9c98"},"vehicle_type_id":"4","last_reported":1778495230,"current_range_meters":9200,"station_id":"","pricing_plan_id":"cebpf4jnsgd1na2vs0mg"},{"bike_id":"b3614ce1-4da5-4819-9378-497be84f5754","system_id":"levelo_inurba_marseille","lat":43.24071,"lon":5.3775,"is_reserved":false,"is_disabled":false,"rental_uris":{"android":"levelo://app?vid=b3614ce1-4da5-4819-9378-497be84f5754","ios":"levelo://app?vid=b3614ce1-4da5-4819-9378-497be84f5754"},"vehicle_type_id":"4","last_reported":1778495230,"current_range_meters":9200,"station_id":"ce4bhnp2rcd13ifvqgvg","pricing_plan_id":"cebpf4jnsgd1na2vs0mg"},{"bike_id":"72085cb8-14c4-44be-9eed-d127bc6e9f15","system_id":"levelo_inurba_marseille","lat":43.31054,"lon":5.37175,"is_reserved":false,"is_disabled":false,"rental_uris":{"android":"levelo://app?vid=72085cb8-14c4-44be-9eed-d127bc6e9f15","ios":"levelo://app?vid=72085cb8-14c4-44be-9eed-d127bc6e9f15"},"vehicle_type_id":"4","last_reported":1778495230,"current_range_meters":9200,"station_id":"st_d4kl2rp97mjs73e7tdfg","pricing_plan_id":"cebpf4jnsgd1na2vs0mg"},{"bike_id":"911e9589-3255-44b1-85eb-11666cbfd703","system_id":"levelo_inurba_marseille","lat":43.24074,"lon":5.37771,"is_reserved":false,"is_disabled":false,"rental_uris":{"android":"levelo://app?vid=911e9589-3255-44b1-85eb-11666cbfd703","ios":"levelo://app?vid=911e9589-3255-44b1-85eb-11666cbfd703"},"vehicle_type_id":"4","last_reported":1778495230,"current_range_meters":9600,"station_id":"ce4bhnp2rcd13ifvqgvg","pricing_plan_id":"cebpf4jnsgd1na2vs0mg"},{"bike_id":"3d635ac5-5a9d-4ccb-a2ae-7125267d9eca","system_id":"levelo_inurba_marseille","lat":43.23191,"lon":5.43697,"is_reserved":false,"is_disabled":false,"rental_uris":{"android":"levelo://app?vid=3d635ac5-5a9d-4ccb-a2ae-7125267d9eca","ios":"levelo://app?vid=3d635ac5-5a9d-4ccb-a2ae-7125267d9eca"},"vehicle_type_id":"4","last_reported":1778495230,"current_range_meters":9600,"station_id":"ce4bhmp2rcd13ifvqgog","pricing_plan_id":"cebpf4jnsgd1na2vs0mg"},{"bike_id":"002d1676-a704-4135-b245-6c297a5aed56","system_id":"levelo_inurba_marseille","lat":43.2417,"lon":5.36403,"is_reserved":false,"is_disabled":false,"rental_uris":{"android":"levelo://app?vid=002d1676-a704-4135-b245-6c297a5aed56","ios":"levelo://app?vid=002d1676-a704-4135-b245-6c297a5aed56"},"vehicle_type_id":"4","last_reported":1778495230,"current_range_meters":9600,"station_id":"cpo36qri1sfpv3e86is0","pricing_plan_id":"cebpf4jnsgd1na2vs0mg"},{"bike_id":"d865f9a0-14b6-46bd-bba4-d835d1328292","system_id":"levelo_inurba_marseille","lat":43.31175,"lon":5.38711,"is_reserved":false,"is_disabled":true,"rental_uris":{"android":"levelo://app?vid=d865f9a0-14b6-46bd-bba4-d835d1328292","ios":"levelo://app?vid=d865f9a0-14b6-46bd-bba4-d835d1328292"},"vehicle_type_id":"4","last_reported":1778495230,"current_range_meters":9600,"station_id":"ce4bgv12rcd13ifvqcp0","pricing_plan_id":"cebpf4jnsgd1na2vs0mg"},{"bike_id":"3f2b095b-a62f-4594-b8fb-49cc153af126","system_id":"levelo_inurba_marseille","lat":43.24657,"lon":5.38153,"is_reserved":false,"is_disabled":false,"rental_uris":{"android":"levelo://app?vid=3f2b095b-a62f-4594-b8fb-49cc153af126","ios":"levelo://app?vid=3f2b095b-a62f-4594-b8fb-49cc153af126"},"vehicle_type_id":"4","last_reported":1778495230,"current_range_meters":9600,"station_id":"ce4bhih2rcd13ifvqfr0","pricing_plan_id":"cebpf4jnsgd1na2vs0mg"},{"bike_id":"6763b0b4-a7d8-410f-aaf8-3fadc4644b7c","system_id":"levelo_inurba_marseille","lat":43.29199,"lon":5.39997,"is_reserved":false,"is_disabled":false,"rental_uris":{"android":"levelo://app?vid=6763b0b4-a7d8-410f-aaf8-3fadc4644b7c","ios":"levelo://app?vid=6763b0b4-a7d8-410f-aaf8-3fadc4644b7c"},"vehicle_type_id":"4","last_reported":1778495230,"current_range_meters":9600,"station_id":"ce4bh312rcd13ifvqdk0","pricing_plan_id":"cebpf4jnsgd1na2vs0mg"},{"bike_id":"be5f4577-3b4a-485a-8c4b-23d34115983e","system_id":"levelo_inurba_marseille","lat":43.31362,"lon":5.36717,"is_reserved":false,"is_disabled":false,"rental_uris":{"android":"levelo://app?vid=be5f4577-3b4a-485a-8c4b-23d34115983e","ios":"levelo://app?vid=be5f4577-3b4a-485a-8c4b-23d34115983e"},"vehicle_type_id":"4","last_reported":1778495230,"current_range_meters":9600,"station_id":"ce4bgr92rcd13ifvqc6g","pricing_plan_id":"cebpf4jnsgd1na2vs0mg"},{"bike_id":"8de3e2aa-00df-4e48-ac24-764efb227e87","system_id":"levelo_inurba_marseille","lat":43.25728,"lon":5.41069,"is_reserved":false,"is_disabled":false,"rental_uris":{"android":"levelo://app?vid=8de3e2aa-00df-4e48-ac24-764efb227e87","ios":"levelo://app?vid=8de3e2aa-00df-4e48-ac24-764efb227e87"},"vehicle_type_id":"4","last_reported":1778495230,"current_range_meters":9600,"station_id":"ce4bhkp2rcd13ifvqgd0","pricing_plan_id":"cebpf4jnsgd1na2vs0mg"},{"bike_id":"3ba83b48-1d42-4a86-bc26-b35cdac413f5","system_id":"levelo_inurba_marseille","lat":43.33159,"lon":5.37674,"is_reserved":false,"is_disabled":false,"rental_uris":{"android":"levelo://app?vid=3ba83b48-1d42-4a86-bc26-b35cdac413f5","ios":"levelo://app?vid=3ba83b48-1d42-4a86-bc26-b35cdac413f5"},"vehicle_type_id":"4","last_reported":1778495230,"current_range_meters":9600,"station_id":"st_d46cu089ee8s73dldbu0","pricing_plan_id":"cebpf4jnsgd1na2vs0mg"},{"bike_id":"77f5d1ec-fc0e-4df1-a5c4-fcac1e260c2e","system_id":"levelo_inurba_marseille","lat":43.30321,"lon":5.36876,"is_reserved":false,"is_disabled":false,"rental_uris":{"android":"levelo://app?vid=77f5d1ec-fc0e-4df1-a5c4-fcac1e260c2e","ios":"levelo://app?vid=77f5d1ec-fc0e-4df1-a5c4-fcac1e260c2e"},"vehicle_type_id":"4","last_reported":1778495230,"current_range_meters":9600,"station_id":"ce4bgqh2rcd13ifvqc5g","pricing_plan_id":"cebpf4jnsgd1na2vs0mg"},{"bike_id":"6f7ecaed-ae67-459f-8a30-48a98da37f6e","system_id":"levelo_inurba_marseille","lat":43.23202,"lon":5.35544,"is_reserved":false,"is_disabled":false,"rental_uris":{"android":"levelo://app?vid=6f7ecaed-ae67-459f-8a30-48a98da37f6e","ios":"levelo://app?vid=6f7ecaed-ae67-459f-8a30-48a98da37f6e"},"vehicle_type_id":"4","last_reported":1778495230,"current_range_meters":9600,"station_id":"ce4bhu92rcd13ifvqi70","pricing_plan_id":"cebpf4jnsgd1na2vs0mg"},{"bike_id":"7f02ab8b-d894-4e55-a70b-b9889a16b6d5","system_id":"levelo_inurba_marseille","lat":43.31211,"lon":5.36806,"is_reserved":false,"is_disabled":false,"rental_uris":{"android":"levelo://app?vid=7f02ab8b-d894-4e55-a70b-b9889a16b6d5","ios":"levelo://app?vid=7f02ab8b-d894-4e55-a70b-b9889a16b6d5"},"vehicle_type_id":"4","last_reported":1778495230,"current_range_meters":9600,"station_id":"ce4bgl92rcd13ifvqbq0","pricing_plan_id":"cebpf4jnsgd1na2vs0mg"},{"bike_id":"d854bc6f-909b-4d3e-90cc-8439f71a5d98","system_id":"levelo_inurba_marseille","lat":43.23125,"lon":5.43724,"is_reserved":false,"is_disabled":false,"rental_uris":{"android":"levelo://app?vid=d854bc6f-909b-4d3e-90cc-8439f71a5d98","ios":"levelo://app?vid=d854bc6f-909b-4d3e-90cc-8439f71a5d98"},"vehicle_type_id":"4","last_reported":1778495230,"current_range_meters":9600,"station_id":"ce4bhmp2rcd13ifvqgog","pricing_plan_id":"cebpf4jnsgd1na2vs0mg"},{"bike_id":"ce4e6d3d-4673-43cd-8ecc-c61d227e3357","system_id":"levelo_inurba_marseille","lat":43.31297,"lon":5.36802,"is_reserved":false,"is_disabled":false,"rental_uris":{"android":"levelo://app?vid=ce4e6d3d-4673-43cd-8ecc-c61d227e3357","ios":"levelo://app?vid=ce4e6d3d-4673-43cd-8ecc-c61d227e3357"},"vehicle_type_id":"4","last_reported":1778495230,"current_range_meters":9600,"station_id":"","pricing_plan_id":"cebpf4jnsgd1na2vs0mg"},{"bike_id":"3c6bad87-dedc-41f3-91de-0d07855c3c4d","system_id":"levelo_inurba_marseille","lat":43.27387,"lon":5.39364,"is_reserved":false,"is_disabled":false,"rental_uris":{"android":"levelo://app?vid=3c6bad87-dedc-41f3-91de-0d07855c3c4d","ios":"levelo://app?vid=3c6bad87-dedc-41f3-91de-0d07855c3c4d"},"vehicle_type_id":"4","last_reported":1778495230,"current_range_meters":9600,"station_id":"ce4bhdp2rcd13ifvqf20","pricing_plan_id":"cebpf4jnsgd1na2vs0mg"},{"bike_id":"4b8e0b3a-522d-46e5-8cba-f992b6ef9d16","system_id":"levelo_inurba_marseille","lat":43.24107,"lon":5.37765,"is_reserved":false,"is_disabled":false,"rental_uris":{"android":"levelo://app?vid=4b8e0b3a-522d-46e5-8cba-f992b6ef9d16","ios":"levelo://app?vid=4b8e0b3a-522d-46e5-8cba-f992b6ef9d16"},"vehicle_type_id":"4","last_reported":1778495230,"current_range_meters":9600,"station_id":"ce4bhnp2rcd13ifvqgvg","pricing_plan_id":"cebpf4jnsgd1na2vs0mg"},{"bike_id":"c31a5d38-a51e-433c-a430-9f15f088d523","system_id":"levelo_inurba_marseille","lat":43.29045,"lon":5.3715,"is_reserved":false,"is_disabled":false,"rental_uris":{"android":"levelo://app?vid=c31a5d38-a51e-433c-a430-9f15f088d523","ios":"levelo://app?vid=c31a5d38-a51e-433c-a430-9f15f088d523"},"vehicle_type_id":"4","last_reported":1778495230,"current_range_meters":9600,"station_id":"ce4bh5p2rcd13ifvqe4g","pricing_plan_id":"cebpf4jnsgd1na2vs0mg"},{"bike_id":"449a7ec8-3b8c-48af-8eeb-ef3e955542ee","system_id":"levelo_inurba_marseille","lat":43.29037,"lon":5.42837,"is_reserved":false,"is_disabled":false,"rental_uris":{"android":"levelo://app?vid=449a7ec8-3b8c-48af-8eeb-ef3e955542ee","ios":"levelo://app?vid=449a7ec8-3b8c-48af-8eeb-ef3e955542ee"},"vehicle_type_id":"4","last_reported":1778495230,"current_range_meters":9600,"station_id":"","pricing_plan_id":"cebpf4jnsgd1na2vs0mg"},{"bike_id":"3348a460-8c55-4a35-a952-8c7d4d6c732e","system_id":"levelo_inurba_marseille","lat":43.28408,"lon":5.34973,"is_reserved":false,"is_disabled":false,"rental_uris":{"android":"levelo://app?vid=3348a460-8c55-4a35-a952-8c7d4d6c732e","ios":"levelo://app?vid=3348a460-8c55-4a35-a952-8c7d4d6c732e"},"vehicle_type_id":"4","last_reported":1778495230,"current_range_meters":10000,"station_id":"ce4bhbh2rcd13ifvqepg","pricing_plan_id":"cebpf4jnsgd1na2vs0mg"},{"bike_id":"6404d429-d7aa-4fe1-9b5b-cee756c89926","system_id":"levelo_inurba_marseille","lat":43.24666,"lon":5.38131,"is_reserved":false,"is_disabled":false,"rental_uris":{"android":"levelo://app?vid=6404d429-d7aa-4fe1-9b5b-cee756c89926","ios":"levelo://app?vid=6404d429-d7aa-4fe1-9b5b-cee756c89926"},"vehicle_type_id":"4","last_reported":1778495230,"current_range_meters":10000,"station_id":"ce4bhih2rcd13ifvqfr0","pricing_plan_id":"cebpf4jnsgd1na2vs0mg"},{"bike_id":"1db4830a-e8be-4666-8833-01c8356da013","system_id":"levelo_inurba_marseille","lat":43.29296,"lon":5.37461,"is_reserved":false,"is_disabled":false,"rental_uris":{"android":"levelo://app?vid=1db4830a-e8be-4666-8833-01c8356da013","ios":"levelo://app?vid=1db4830a-e8be-4666-8833-01c8356da013"},"vehicle_type_id":"4","last_reported":1778495230,"current_range_meters":10000,"station_id":"ce4bgi12rcd13ifvqb70","pricing_plan_id":"cebpf4jnsgd1na2vs0mg"},{"bike_id":"3af05bb2-2bfb-41a0-839d-60cceeb971c7","system_id":"levelo_inurba_marseille","lat":43.29024,"lon":5.38129,"is_reserved":false,"is_disabled":false,"rental_uris":{"android":"levelo://app?vid=3af05bb2-2bfb-41a0-839d-60cceeb971c7","ios":"levelo://app?vid=3af05bb2-2bfb-41a0-839d-60cceeb971c7"},"vehicle_type_id":"4","last_reported":1778495230,"current_range_meters":10000,"station_id":"ce4bh4p2rcd13ifvqe1g","pricing_plan_id":"cebpf4jnsgd1na2vs0mg"},{"bike_id":"3a9aebeb-2549-4841-86bf-bd0de5a4ebbc","system_id":"levelo_inurba_marseille","lat":43.2842,"lon":5.34995,"is_reserved":false,"is_disabled":false,"rental_uris":{"android":"levelo://app?vid=3a9aebeb-2549-4841-86bf-bd0de5a4ebbc","ios":"levelo://app?vid=3a9aebeb-2549-4841-86bf-bd0de5a4ebbc"},"vehicle_type_id":"4","last_reported":1778495230,"current_range_meters":10000,"station_id":"ce4bhbh2rcd13ifvqepg","pricing_plan_id":"cebpf4jnsgd1na2vs0mg"},{"bike_id":"29bfbd1c-5438-4fe1-8f5e-21c75f0f87df","system_id":"levelo_inurba_marseille","lat":43.31257,"lon":5.36837,"is_reserved":false,"is_disabled":true,"rental_uris":{"android":"levelo://app?vid=29bfbd1c-5438-4fe1-8f5e-21c75f0f87df","ios":"levelo://app?vid=29bfbd1c-5438-4fe1-8f5e-21c75f0f87df"},"vehicle_type_id":"4","last_reported":1778495230,"current_range_meters":10000,"station_id":"ce4bgl92rcd13ifvqbq0","pricing_plan_id":"cebpf4jnsgd1na2vs0mg"},{"bike_id":"2abb2ff8-06d5-4e4a-ba40-c51367cc0f82","system_id":"levelo_inurba_marseille","lat":43.21192,"lon":5.35067,"is_reserved":false,"is_disabled":false,"rental_uris":{"android":"levelo://app?vid=2abb2ff8-06d5-4e4a-ba40-c51367cc0f82","ios":"levelo://app?vid=2abb2ff8-06d5-4e4a-ba40-c51367cc0f82"},"vehicle_type_id":"4","last_reported":1778495230,"current_range_meters":10000,"station_id":"st_cvj6sg6p6f1abm77japg","pricing_plan_id":"cebpf4jnsgd1na2vs0mg"},{"bike_id":"f9247648-adf3-42af-98e5-3942b00336c8","system_id":"levelo_inurba_marseille","lat":43.28002,"lon":5.40004,"is_reserved":false,"is_disabled":false,"rental_uris":{"android":"levelo://app?vid=f9247648-adf3-42af-98e5-3942b00336c8","ios":"levelo://app?vid=f9247648-adf3-42af-98e5-3942b00336c8"},"vehicle_type_id":"4","last_reported":1778495230,"current_range_meters":10000,"station_id":"ce4bho92rcd13ifvqh4g","pricing_plan_id":"cebpf4jnsgd1na2vs0mg"},{"bike_id":"a85e746e-5c98-4ed4-9554-4f792e6cbed8","system_id":"levelo_inurba_marseille","lat":43.32827,"lon":5.42594,"is_reserved":false,"is_disabled":false,"rental_uris":{"android":"levelo://app?vid=a85e746e-5c98-4ed4-9554-4f792e6cbed8","ios":"levelo://app?vid=a85e746e-5c98-4ed4-9554-4f792e6cbed8"},"vehicle_type_id":"4","last_reported":1778495230,"current_range_meters":10000,"station_id":"","pricing_plan_id":"cebpf4jnsgd1na2vs0mg"},{"bike_id":"78514363-d912-42a3-9292-1ab8533de87b","system_id":"levelo_inurba_marseille","lat":43.21747,"lon":5.34608,"is_reserved":false,"is_disabled":false,"rental_uris":{"android":"levelo://app?vid=78514363-d912-42a3-9292-1ab8533de87b","ios":"levelo://app?vid=78514363-d912-42a3-9292-1ab8533de87b"},"vehicle_type_id":"4","last_reported":1778495230,"current_range_meters":10000,"station_id":"st_cvj6r9ubvosntc0bgbag","pricing_plan_id":"cebpf4jnsgd1na2vs0mg"},{"bike_id":"92aeb3e3-d078-48c1-8cfd-b42a2629bdc0","system_id":"levelo_inurba_marseille","lat":43.24074,"lon":5.3773,"is_reserved":false,"is_disabled":false,"rental_uris":{"android":"levelo://app?vid=92aeb3e3-d078-48c1-8cfd-b42a2629bdc0","ios":"levelo://app?vid=92aeb3e3-d078-48c1-8cfd-b42a2629bdc0"},"vehicle_type_id":"4","last_reported":1778495230,"current_range_meters":10000,"station_id":"ce4bhnp2rcd13ifvqgvg","pricing_plan_id":"cebpf4jnsgd1na2vs0mg"},{"bike_id":"1c373155-f809-4eee-8fad-0170e15b96e4","system_id":"levelo_inurba_marseille","lat":43.29597,"lon":5.36741,"is_reserved":false,"is_disabled":true,"rental_uris":{"android":"levelo://app?vid=1c373155-f809-4eee-8fad-0170e15b96e4","ios":"levelo://app?vid=1c373155-f809-4eee-8fad-0170e15b96e4"},"vehicle_type_id":"4","last_reported":1778495230,"current_range_meters":10000,"station_id":"ce4bgph2rcd13ifvqc2g","pricing_plan_id":"cebpf4jnsgd1na2vs0mg"},{"bike_id":"f29030db-bac1-471c-b48f-1c77c779348f","system_id":"levelo_inurba_marseille","lat":43.26882,"lon":5.3898,"is_reserved":false,"is_disabled":false,"rental_uris":{"android":"levelo://app?vid=f29030db-bac1-471c-b48f-1c77c779348f","ios":"levelo://app?vid=f29030db-bac1-471c-b48f-1c77c779348f"},"vehicle_type_id":"4","last_reported":1778495230,"current_range_meters":10000,"station_id":"","pricing_plan_id":"cebpf4jnsgd1na2vs0mg"},{"bike_id":"709e5872-ac98-4693-bd41-4a52c7ad5d4a","system_id":"levelo_inurba_marseille","lat":43.26788,"lon":5.39418,"is_reserved":false,"is_disabled":true,"rental_uris":{"android":"levelo://app?vid=709e5872-ac98-4693-bd41-4a52c7ad5d4a","ios":"levelo://app?vid=709e5872-ac98-4693-bd41-4a52c7ad5d4a"},"vehicle_type_id":"4","last_reported":1778495230,"current_range_meters":10800,"station_id":"ce4bhh12rcd13ifvqfg0","pricing_plan_id":"cebpf4jnsgd1na2vs0mg"},{"bike_id":"1e81e120-cb06-4f14-a5e6-b1627c7b2b59","system_id":"levelo_inurba_marseille","lat":43.26189,"lon":5.40354,"is_reserved":false,"is_disabled":false,"rental_uris":{"android":"levelo://app?vid=1e81e120-cb06-4f14-a5e6-b1627c7b2b59","ios":"levelo://app?vid=1e81e120-cb06-4f14-a5e6-b1627c7b2b59"},"vehicle_type_id":"4","last_reported":1778495230,"current_range_meters":10800,"station_id":"","pricing_plan_id":"cebpf4jnsgd1na2vs0mg"},{"bike_id":"0fe5a238-7947-4eb7-a494-f9061b6ad3fd","system_id":"levelo_inurba_marseille","lat":43.26206,"lon":5.37911,"is_reserved":false,"is_disabled":false,"rental_uris":{"android":"levelo://app?vid=0fe5a238-7947-4eb7-a494-f9061b6ad3fd","ios":"levelo://app?vid=0fe5a238-7947-4eb7-a494-f9061b6ad3fd"},"vehicle_type_id":"4","last_reported":1778495230,"current_range_meters":10800,"station_id":"ce4bhjp2rcd13ifvqg90","pricing_plan_id":"cebpf4jnsgd1na2vs0mg"},{"bike_id":"5d65d0c9-b719-40aa-bd9e-57a835d78001","system_id":"levelo_inurba_marseille","lat":43.30735,"lon":5.42446,"is_reserved":false,"is_disabled":false,"rental_uris":{"android":"levelo://app?vid=5d65d0c9-b719-40aa-bd9e-57a835d78001","ios":"levelo://app?vid=5d65d0c9-b719-40aa-bd9e-57a835d78001"},"vehicle_type_id":"4","last_reported":1778495230,"current_range_meters":10800,"station_id":"st_cvj6ca6bvosntc0bfgr0","pricing_plan_id":"cebpf4jnsgd1na2vs0mg"},{"bike_id":"c003944d-7f52-4602-a12c-2be0a8a0f8db","system_id":"levelo_inurba_marseille","lat":43.28971,"lon":5.37818,"is_reserved":false,"is_disabled":false,"rental_uris":{"android":"levelo://app?vid=c003944d-7f52-4602-a12c-2be0a8a0f8db","ios":"levelo://app?vid=c003944d-7f52-4602-a12c-2be0a8a0f8db"},"vehicle_type_id":"4","last_reported":1778495230,"current_range_meters":10800,"station_id":"ce4bh9p2rcd13ifvqed0","pricing_plan_id":"cebpf4jnsgd1na2vs0mg"},{"bike_id":"e1294676-8fd0-4c62-a295-b80b3a7c89e9","system_id":"levelo_inurba_marseille","lat":43.28254,"lon":5.35055,"is_reserved":false,"is_disabled":false,"rental_uris":{"android":"levelo://app?vid=e1294676-8fd0-4c62-a295-b80b3a7c89e9","ios":"levelo://app?vid=e1294676-8fd0-4c62-a295-b80b3a7c89e9"},"vehicle_type_id":"4","last_reported":1778495230,"current_range_meters":10800,"station_id":"ce4bhbp2rcd13ifvqerg","pricing_plan_id":"cebpf4jnsgd1na2vs0mg"},{"bike_id":"81c2f011-134e-4ff0-9c9e-9f15f371b97d","system_id":"levelo_inurba_marseille","lat":43.31742,"lon":5.40405,"is_reserved":false,"is_disabled":false,"rental_uris":{"android":"levelo://app?vid=81c2f011-134e-4ff0-9c9e-9f15f371b97d","ios":"levelo://app?vid=81c2f011-134e-4ff0-9c9e-9f15f371b97d"},"vehicle_type_id":"4","last_reported":1778495230,"current_range_meters":10800,"station_id":"","pricing_plan_id":"cebpf4jnsgd1na2vs0mg"},{"bike_id":"12534441-a1b2-4f25-966c-250905ef6a38","system_id":"levelo_inurba_marseille","lat":43.21186,"lon":5.3507,"is_reserved":false,"is_disabled":false,"rental_uris":{"android":"levelo://app?vid=12534441-a1b2-4f25-966c-250905ef6a38","ios":"levelo://app?vid=12534441-a1b2-4f25-966c-250905ef6a38"},"vehicle_type_id":"4","last_reported":1778495230,"current_range_meters":10800,"station_id":"st_cvj6sg6p6f1abm77japg","pricing_plan_id":"cebpf4jnsgd1na2vs0mg"},{"bike_id":"ed7ac18c-690a-4ff0-a3f3-ca5e3def8b39","system_id":"levelo_inurba_marseille","lat":43.25596,"lon":5.38206,"is_reserved":false,"is_disabled":false,"rental_uris":{"android":"levelo://app?vid=ed7ac18c-690a-4ff0-a3f3-ca5e3def8b39","ios":"levelo://app?vid=ed7ac18c-690a-4ff0-a3f3-ca5e3def8b39"},"vehicle_type_id":"4","last_reported":1778495230,"current_range_meters":10800,"station_id":"ce4bhih2rcd13ifvqfs0","pricing_plan_id":"cebpf4jnsgd1na2vs0mg"},{"bike_id":"3bf58ae3-c8f1-4d2d-892d-9aa2dacf1a1a","system_id":"levelo_inurba_marseille","lat":43.26168,"lon":5.37471,"is_reserved":false,"is_disabled":true,"rental_uris":{"android":"levelo://app?vid=3bf58ae3-c8f1-4d2d-892d-9aa2dacf1a1a","ios":"levelo://app?vid=3bf58ae3-c8f1-4d2d-892d-9aa2dacf1a1a"},"vehicle_type_id":"4","last_reported":1778495230,"current_range_meters":10800,"station_id":"ce4bhgp2rcd13ifvqfc0","pricing_plan_id":"cebpf4jnsgd1na2vs0mg"},{"bike_id":"faa9ace7-3113-40ca-a34a-3d0fb30b48f6","system_id":"levelo_inurba_marseille","lat":43.29278,"lon":5.42432,"is_reserved":false,"is_disabled":false,"rental_uris":{"android":"levelo://app?vid=faa9ace7-3113-40ca-a34a-3d0fb30b48f6","ios":"levelo://app?vid=faa9ace7-3113-40ca-a34a-3d0fb30b48f6"},"vehicle_type_id":"4","last_reported":1778495230,"current_range_meters":11200,"station_id":"","pricing_plan_id":"cebpf4jnsgd1na2vs0mg"},{"bike_id":"d7cf9384-2f88-495d-973c-1e630bb31a6f","system_id":"levelo_inurba_marseille","lat":43.29611,"lon":5.37716,"is_reserved":false,"is_disabled":true,"rental_uris":{"android":"levelo://app?vid=d7cf9384-2f88-495d-973c-1e630bb31a6f","ios":"levelo://app?vid=d7cf9384-2f88-495d-973c-1e630bb31a6f"},"vehicle_type_id":"4","last_reported":1778495230,"current_range_meters":11200,"station_id":"ce4bgi92rcd13ifvqb90","pricing_plan_id":"cebpf4jnsgd1na2vs0mg"},{"bike_id":"88c23445-b18d-4869-99e0-9ef70a519fd5","system_id":"levelo_inurba_marseille","lat":43.25021,"lon":5.38883,"is_reserved":false,"is_disabled":true,"rental_uris":{"android":"levelo://app?vid=88c23445-b18d-4869-99e0-9ef70a519fd5","ios":"levelo://app?vid=88c23445-b18d-4869-99e0-9ef70a519fd5"},"vehicle_type_id":"4","last_reported":1778495230,"current_range_meters":11200,"station_id":"ce4bhgp2rcd13ifvqfd0","pricing_plan_id":"cebpf4jnsgd1na2vs0mg"},{"bike_id":"21fe8eaa-3838-42a7-807c-db3e4750b010","system_id":"levelo_inurba_marseille","lat":43.29578,"lon":5.37496,"is_reserved":false,"is_disabled":false,"rental_uris":{"android":"levelo://app?vid=21fe8eaa-3838-42a7-807c-db3e4750b010","ios":"levelo://app?vid=21fe8eaa-3838-42a7-807c-db3e4750b010"},"vehicle_type_id":"4","last_reported":1778495230,"current_range_meters":11200,"station_id":"ce4bgh92rcd13ifvqb50","pricing_plan_id":"cebpf4jnsgd1na2vs0mg"},{"bike_id":"7e123322-b4fe-4cd1-a546-a10e1b7a558b","system_id":"levelo_inurba_marseille","lat":43.31443,"lon":5.37409,"is_reserved":false,"is_disabled":true,"rental_uris":{"android":"levelo://app?vid=7e123322-b4fe-4cd1-a546-a10e1b7a558b","ios":"levelo://app?vid=7e123322-b4fe-4cd1-a546-a10e1b7a558b"},"vehicle_type_id":"4","last_reported":1778495230,"current_range_meters":11200,"station_id":"ce4bgt12rcd13ifvqcd0","pricing_plan_id":"cebpf4jnsgd1na2vs0mg"},{"bike_id":"ea8f6d5f-b9e1-4580-9096-a1e7c75cdf29","system_id":"levelo_inurba_marseille","lat":43.25098,"lon":5.39517,"is_reserved":false,"is_disabled":true,"rental_uris":{"android":"levelo://app?vid=ea8f6d5f-b9e1-4580-9096-a1e7c75cdf29","ios":"levelo://app?vid=ea8f6d5f-b9e1-4580-9096-a1e7c75cdf29"},