{"last_updated":1778356169,"ttl":60,"version":"2.2","data":{"bikes":[{"bike_id":"8a49b974-c5bd-4fff-bba4-1ba3ffaa22c1","system_id":"levelo_inurba_marseille","lat":43.26346,"lon":5.411,"is_reserved":false,"is_disabled":false,"rental_uris":{"android":"levelo://app?vid=8a49b974-c5bd-4fff-bba4-1ba3ffaa22c1","ios":"levelo://app?vid=8a49b974-c5bd-4fff-bba4-1ba3ffaa22c1"},"vehicle_type_id":"4","last_reported":1778356170,"current_range_meters":400,"station_id":"st_d4e5ca6na9uc73bfl5fg","pricing_plan_id":"cebpf4jnsgd1na2vs0mg"},{"bike_id":"a14f2281-aa87-4836-adee-1d8773ec6d53","system_id":"levelo_inurba_marseille","lat":43.28687,"lon":5.38669,"is_reserved":false,"is_disabled":false,"rental_uris":{"android":"levelo://app?vid=a14f2281-aa87-4836-adee-1d8773ec6d53","ios":"levelo://app?vid=a14f2281-aa87-4836-adee-1d8773ec6d53"},"vehicle_type_id":"4","last_reported":1778356170,"current_range_meters":800,"station_id":"ce4bh492rcd13ifvqdug","pricing_plan_id":"cebpf4jnsgd1na2vs0mg"},{"bike_id":"64c7b10b-21e5-43c3-9ebc-64277db28bef","system_id":"levelo_inurba_marseille","lat":43.34141,"lon":5.40909,"is_reserved":false,"is_disabled":false,"rental_uris":{"android":"levelo://app?vid=64c7b10b-21e5-43c3-9ebc-64277db28bef","ios":"levelo://app?vid=64c7b10b-21e5-43c3-9ebc-64277db28bef"},"vehicle_type_id":"4","last_reported":1778356170,"current_range_meters":800,"station_id":"ce4bhqh2rcd13ifvqhlg","pricing_plan_id":"cebpf4jnsgd1na2vs0mg"},{"bike_id":"0fd89b04-3d2a-4c7a-8d03-d98f8ab3ebb9","system_id":"levelo_inurba_marseille","lat":43.27497,"lon":5.42448,"is_reserved":false,"is_disabled":false,"rental_uris":{"android":"levelo://app?vid=0fd89b04-3d2a-4c7a-8d03-d98f8ab3ebb9","ios":"levelo://app?vid=0fd89b04-3d2a-4c7a-8d03-d98f8ab3ebb9"},"vehicle_type_id":"4","last_reported":1778356170,"current_range_meters":2000,"station_id":"ce4bhn92rcd13ifvqgrg","pricing_plan_id":"cebpf4jnsgd1na2vs0mg"},{"bike_id":"91d78913-28b2-401d-850a-f1af99bf6768","system_id":"levelo_inurba_marseille","lat":43.28859,"lon":5.42515,"is_reserved":false,"is_disabled":false,"rental_uris":{"android":"levelo://app?vid=91d78913-28b2-401d-850a-f1af99bf6768","ios":"levelo://app?vid=91d78913-28b2-401d-850a-f1af99bf6768"},"vehicle_type_id":"4","last_reported":1778356170,"current_range_meters":2800,"station_id":"st_d3b462108ojc7389ooeg","pricing_plan_id":"cebpf4jnsgd1na2vs0mg"},{"bike_id":"7796f6bc-e60b-41b0-889b-d24ebaf7b59a","system_id":"levelo_inurba_marseille","lat":43.30597,"lon":5.40128,"is_reserved":false,"is_disabled":false,"rental_uris":{"android":"levelo://app?vid=7796f6bc-e60b-41b0-889b-d24ebaf7b59a","ios":"levelo://app?vid=7796f6bc-e60b-41b0-889b-d24ebaf7b59a"},"vehicle_type_id":"4","last_reported":1778356170,"current_range_meters":2800,"station_id":"","pricing_plan_id":"cebpf4jnsgd1na2vs0mg"},{"bike_id":"37eb5192-cf10-431c-b43c-569a875c97c3","system_id":"levelo_inurba_marseille","lat":43.23379,"lon":5.41232,"is_reserved":false,"is_disabled":false,"rental_uris":{"android":"levelo://app?vid=37eb5192-cf10-431c-b43c-569a875c97c3","ios":"levelo://app?vid=37eb5192-cf10-431c-b43c-569a875c97c3"},"vehicle_type_id":"4","last_reported":1778356170,"current_range_meters":2800,"station_id":"st_d75pvndhf9lc73cqq3eg","pricing_plan_id":"cebpf4jnsgd1na2vs0mg"},{"bike_id":"32beef37-64ec-4e41-a811-a172ab1b9d29","system_id":"levelo_inurba_marseille","lat":43.2796,"lon":5.38732,"is_reserved":false,"is_disabled":false,"rental_uris":{"android":"levelo://app?vid=32beef37-64ec-4e41-a811-a172ab1b9d29","ios":"levelo://app?vid=32beef37-64ec-4e41-a811-a172ab1b9d29"},"vehicle_type_id":"4","last_reported":1778356170,"current_range_meters":2800,"station_id":"ce4bhg12rcd13ifvqf80","pricing_plan_id":"cebpf4jnsgd1na2vs0mg"},{"bike_id":"65af105d-5c5e-4afa-bb8e-8c7a072ebfc4","system_id":"levelo_inurba_marseille","lat":43.26556,"lon":5.40313,"is_reserved":false,"is_disabled":false,"rental_uris":{"android":"levelo://app?vid=65af105d-5c5e-4afa-bb8e-8c7a072ebfc4","ios":"levelo://app?vid=65af105d-5c5e-4afa-bb8e-8c7a072ebfc4"},"vehicle_type_id":"4","last_reported":1778356170,"current_range_meters":2800,"station_id":"ce4bhmp2rcd13ifvqgng","pricing_plan_id":"cebpf4jnsgd1na2vs0mg"},{"bike_id":"f03e9416-653d-45fd-aba7-c2ee459eb1bb","system_id":"levelo_inurba_marseille","lat":43.3354,"lon":5.37469,"is_reserved":false,"is_disabled":false,"rental_uris":{"android":"levelo://app?vid=f03e9416-653d-45fd-aba7-c2ee459eb1bb","ios":"levelo://app?vid=f03e9416-653d-45fd-aba7-c2ee459eb1bb"},"vehicle_type_id":"4","last_reported":1778356170,"current_range_meters":2800,"station_id":"st_d46tts09ee8s73dlu43g","pricing_plan_id":"cebpf4jnsgd1na2vs0mg"},{"bike_id":"b3f390ac-528a-4b92-92e9-7a09925a063d","system_id":"levelo_inurba_marseille","lat":43.27371,"lon":5.36257,"is_reserved":false,"is_disabled":false,"rental_uris":{"android":"levelo://app?vid=b3f390ac-528a-4b92-92e9-7a09925a063d","ios":"levelo://app?vid=b3f390ac-528a-4b92-92e9-7a09925a063d"},"vehicle_type_id":"4","last_reported":1778356170,"current_range_meters":2800,"station_id":"ce4bhbh2rcd13ifvqeo0","pricing_plan_id":"cebpf4jnsgd1na2vs0mg"},{"bike_id":"6400099d-f713-4246-a4ce-1b44f22e3329","system_id":"levelo_inurba_marseille","lat":43.32116,"lon":5.36813,"is_reserved":false,"is_disabled":false,"rental_uris":{"android":"levelo://app?vid=6400099d-f713-4246-a4ce-1b44f22e3329","ios":"levelo://app?vid=6400099d-f713-4246-a4ce-1b44f22e3329"},"vehicle_type_id":"4","last_reported":1778356170,"current_range_meters":2800,"station_id":"ce4bhrh2rcd13ifvqhug","pricing_plan_id":"cebpf4jnsgd1na2vs0mg"},{"bike_id":"7eb2b478-c255-4368-b1eb-66e0e2af9eed","system_id":"levelo_inurba_marseille","lat":43.293002,"lon":5.371573,"is_reserved":false,"is_disabled":true,"rental_uris":{"android":"levelo://app?vid=7eb2b478-c255-4368-b1eb-66e0e2af9eed","ios":"levelo://app?vid=7eb2b478-c255-4368-b1eb-66e0e2af9eed"},"vehicle_type_id":"4","last_reported":1778356170,"current_range_meters":2800,"station_id":"ce4bgh92rcd13ifvqb40","pricing_plan_id":"cebpf4jnsgd1na2vs0mg"},{"bike_id":"d887cdf3-66ee-4a37-985b-e7ed35671fff","system_id":"levelo_inurba_marseille","lat":43.27325,"lon":5.39108,"is_reserved":false,"is_disabled":false,"rental_uris":{"android":"levelo://app?vid=d887cdf3-66ee-4a37-985b-e7ed35671fff","ios":"levelo://app?vid=d887cdf3-66ee-4a37-985b-e7ed35671fff"},"vehicle_type_id":"4","last_reported":1778356170,"current_range_meters":2800,"station_id":"ce4bhgp2rcd13ifvqfe0","pricing_plan_id":"cebpf4jnsgd1na2vs0mg"},{"bike_id":"bf4e98a9-c584-4c52-8a65-60313068ee02","system_id":"levelo_inurba_marseille","lat":43.27561,"lon":5.38442,"is_reserved":false,"is_disabled":false,"rental_uris":{"android":"levelo://app?vid=bf4e98a9-c584-4c52-8a65-60313068ee02","ios":"levelo://app?vid=bf4e98a9-c584-4c52-8a65-60313068ee02"},"vehicle_type_id":"4","last_reported":1778356170,"current_range_meters":2800,"station_id":"ce4bhh92rcd13ifvqfi0","pricing_plan_id":"cebpf4jnsgd1na2vs0mg"},{"bike_id":"8173e95f-e0ab-49bc-93b6-200c75305dd4","system_id":"levelo_inurba_marseille","lat":43.26783,"lon":5.39417,"is_reserved":false,"is_disabled":false,"rental_uris":{"android":"levelo://app?vid=8173e95f-e0ab-49bc-93b6-200c75305dd4","ios":"levelo://app?vid=8173e95f-e0ab-49bc-93b6-200c75305dd4"},"vehicle_type_id":"4","last_reported":1778356170,"current_range_meters":2800,"station_id":"ce4bhh12rcd13ifvqfg0","pricing_plan_id":"cebpf4jnsgd1na2vs0mg"},{"bike_id":"ff41f028-e74e-477a-8abb-51c0d2444223","system_id":"levelo_inurba_marseille","lat":43.251078,"lon":5.403234,"is_reserved":false,"is_disabled":false,"rental_uris":{"android":"levelo://app?vid=ff41f028-e74e-477a-8abb-51c0d2444223","ios":"levelo://app?vid=ff41f028-e74e-477a-8abb-51c0d2444223"},"vehicle_type_id":"4","last_reported":1778356170,"current_range_meters":2800,"station_id":"ce4bhlh2rcd13ifvqgig","pricing_plan_id":"cebpf4jnsgd1na2vs0mg"},{"bike_id":"7fbbaa54-f508-411f-8e1e-c4fe39b1debd","system_id":"levelo_inurba_marseille","lat":43.31743,"lon":5.40415,"is_reserved":false,"is_disabled":false,"rental_uris":{"android":"levelo://app?vid=7fbbaa54-f508-411f-8e1e-c4fe39b1debd","ios":"levelo://app?vid=7fbbaa54-f508-411f-8e1e-c4fe39b1debd"},"vehicle_type_id":"4","last_reported":1778356170,"current_range_meters":2800,"station_id":"","pricing_plan_id":"cebpf4jnsgd1na2vs0mg"},{"bike_id":"8aba812c-c815-4a1c-aa19-2d1b97ab1a6e","system_id":"levelo_inurba_marseille","lat":43.26952,"lon":5.38629,"is_reserved":false,"is_disabled":false,"rental_uris":{"android":"levelo://app?vid=8aba812c-c815-4a1c-aa19-2d1b97ab1a6e","ios":"levelo://app?vid=8aba812c-c815-4a1c-aa19-2d1b97ab1a6e"},"vehicle_type_id":"4","last_reported":1778356170,"current_range_meters":2800,"station_id":"ce4bhh92rcd13ifvqfh0","pricing_plan_id":"cebpf4jnsgd1na2vs0mg"},{"bike_id":"02e6d528-8e91-466f-9826-bd385a885f71","system_id":"levelo_inurba_marseille","lat":43.28077,"lon":5.39653,"is_reserved":false,"is_disabled":false,"rental_uris":{"android":"levelo://app?vid=02e6d528-8e91-466f-9826-bd385a885f71","ios":"levelo://app?vid=02e6d528-8e91-466f-9826-bd385a885f71"},"vehicle_type_id":"4","last_reported":1778356170,"current_range_meters":2800,"station_id":"ce4bho12rcd13ifvqh2g","pricing_plan_id":"cebpf4jnsgd1na2vs0mg"},{"bike_id":"6f47ee68-f59f-4a7c-b69c-13224ef1f552","system_id":"levelo_inurba_marseille","lat":43.27373,"lon":5.36236,"is_reserved":false,"is_disabled":false,"rental_uris":{"android":"levelo://app?vid=6f47ee68-f59f-4a7c-b69c-13224ef1f552","ios":"levelo://app?vid=6f47ee68-f59f-4a7c-b69c-13224ef1f552"},"vehicle_type_id":"4","last_reported":1778356170,"current_range_meters":2800,"station_id":"ce4bhbh2rcd13ifvqeo0","pricing_plan_id":"cebpf4jnsgd1na2vs0mg"},{"bike_id":"83c53200-e80f-47bb-b870-a7652825089e","system_id":"levelo_inurba_marseille","lat":43.246577,"lon":5.381577,"is_reserved":false,"is_disabled":false,"rental_uris":{"android":"levelo://app?vid=83c53200-e80f-47bb-b870-a7652825089e","ios":"levelo://app?vid=83c53200-e80f-47bb-b870-a7652825089e"},"vehicle_type_id":"4","last_reported":1778356170,"current_range_meters":3200,"station_id":"ce4bhih2rcd13ifvqfr0","pricing_plan_id":"cebpf4jnsgd1na2vs0mg"},{"bike_id":"946d2724-7ad8-484b-84ba-32c593ee84b2","system_id":"levelo_inurba_marseille","lat":43.2757,"lon":5.38436,"is_reserved":false,"is_disabled":false,"rental_uris":{"android":"levelo://app?vid=946d2724-7ad8-484b-84ba-32c593ee84b2","ios":"levelo://app?vid=946d2724-7ad8-484b-84ba-32c593ee84b2"},"vehicle_type_id":"4","last_reported":1778356170,"current_range_meters":3200,"station_id":"ce4bhh92rcd13ifvqfi0","pricing_plan_id":"cebpf4jnsgd1na2vs0mg"},{"bike_id":"d3b1abc4-237d-4db7-958a-b711d8c73570","system_id":"levelo_inurba_marseille","lat":43.29271,"lon":5.40901,"is_reserved":false,"is_disabled":false,"rental_uris":{"android":"levelo://app?vid=d3b1abc4-237d-4db7-958a-b711d8c73570","ios":"levelo://app?vid=d3b1abc4-237d-4db7-958a-b711d8c73570"},"vehicle_type_id":"4","last_reported":1778356170,"current_range_meters":3200,"station_id":"ce4bh192rcd13ifvqdc0","pricing_plan_id":"cebpf4jnsgd1na2vs0mg"},{"bike_id":"b44a9cd4-5b24-4ba8-878e-e9ddbed75cb6","system_id":"levelo_inurba_marseille","lat":43.27952,"lon":5.38716,"is_reserved":false,"is_disabled":true,"rental_uris":{"android":"levelo://app?vid=b44a9cd4-5b24-4ba8-878e-e9ddbed75cb6","ios":"levelo://app?vid=b44a9cd4-5b24-4ba8-878e-e9ddbed75cb6"},"vehicle_type_id":"4","last_reported":1778356170,"current_range_meters":3200,"station_id":"ce4bhg12rcd13ifvqf80","pricing_plan_id":"cebpf4jnsgd1na2vs0mg"},{"bike_id":"0ecddad9-091b-47fd-a45d-db67559668c1","system_id":"levelo_inurba_marseille","lat":43.27974,"lon":5.3876,"is_reserved":false,"is_disabled":true,"rental_uris":{"android":"levelo://app?vid=0ecddad9-091b-47fd-a45d-db67559668c1","ios":"levelo://app?vid=0ecddad9-091b-47fd-a45d-db67559668c1"},"vehicle_type_id":"4","last_reported":1778356170,"current_range_meters":3200,"station_id":"ce4bhg12rcd13ifvqf80","pricing_plan_id":"cebpf4jnsgd1na2vs0mg"},{"bike_id":"3cea0c61-5600-40f7-8bdd-cd8df0e98936","system_id":"levelo_inurba_marseille","lat":43.31551,"lon":5.38598,"is_reserved":false,"is_disabled":false,"rental_uris":{"android":"levelo://app?vid=3cea0c61-5600-40f7-8bdd-cd8df0e98936","ios":"levelo://app?vid=3cea0c61-5600-40f7-8bdd-cd8df0e98936"},"vehicle_type_id":"4","last_reported":1778356170,"current_range_meters":3200,"station_id":"","pricing_plan_id":"cebpf4jnsgd1na2vs0mg"},{"bike_id":"ebd585c6-ba11-44ca-8cb2-a879b03ec4d9","system_id":"levelo_inurba_marseille","lat":43.29692,"lon":5.37275,"is_reserved":false,"is_disabled":false,"rental_uris":{"android":"levelo://app?vid=ebd585c6-ba11-44ca-8cb2-a879b03ec4d9","ios":"levelo://app?vid=ebd585c6-ba11-44ca-8cb2-a879b03ec4d9"},"vehicle_type_id":"4","last_reported":1778356170,"current_range_meters":3200,"station_id":"ce4bgk12rcd13ifvqbj0","pricing_plan_id":"cebpf4jnsgd1na2vs0mg"},{"bike_id":"9a3140d6-e3fa-492e-8460-9c6f22636700","system_id":"levelo_inurba_marseille","lat":43.31366,"lon":5.39976,"is_reserved":false,"is_disabled":false,"rental_uris":{"android":"levelo://app?vid=9a3140d6-e3fa-492e-8460-9c6f22636700","ios":"levelo://app?vid=9a3140d6-e3fa-492e-8460-9c6f22636700"},"vehicle_type_id":"4","last_reported":1778356170,"current_range_meters":3200,"station_id":"","pricing_plan_id":"cebpf4jnsgd1na2vs0mg"},{"bike_id":"fa833790-fea7-4b87-ab01-22a9071ab066","system_id":"levelo_inurba_marseille","lat":43.28465,"lon":5.48401,"is_reserved":false,"is_disabled":false,"rental_uris":{"android":"levelo://app?vid=fa833790-fea7-4b87-ab01-22a9071ab066","ios":"levelo://app?vid=fa833790-fea7-4b87-ab01-22a9071ab066"},"vehicle_type_id":"4","last_reported":1778356170,"current_range_meters":3200,"station_id":"","pricing_plan_id":"cebpf4jnsgd1na2vs0mg"},{"bike_id":"415142c7-f50e-411e-adf6-f39700e22f6d","system_id":"levelo_inurba_marseille","lat":43.32678,"lon":5.35564,"is_reserved":false,"is_disabled":false,"rental_uris":{"android":"levelo://app?vid=415142c7-f50e-411e-adf6-f39700e22f6d","ios":"levelo://app?vid=415142c7-f50e-411e-adf6-f39700e22f6d"},"vehicle_type_id":"4","last_reported":1778356170,"current_range_meters":3200,"station_id":"","pricing_plan_id":"cebpf4jnsgd1na2vs0mg"},{"bike_id":"95489a07-b280-4aea-935b-70fc8cc33653","system_id":"levelo_inurba_marseille","lat":43.2176,"lon":5.34624,"is_reserved":false,"is_disabled":true,"rental_uris":{"android":"levelo://app?vid=95489a07-b280-4aea-935b-70fc8cc33653","ios":"levelo://app?vid=95489a07-b280-4aea-935b-70fc8cc33653"},"vehicle_type_id":"4","last_reported":1778356170,"current_range_meters":3200,"station_id":"st_cvj6r9ubvosntc0bgbag","pricing_plan_id":"cebpf4jnsgd1na2vs0mg"},{"bike_id":"5fc85a70-cd51-491b-a363-a46b0850da15","system_id":"levelo_inurba_marseille","lat":43.32878,"lon":5.36688,"is_reserved":false,"is_disabled":false,"rental_uris":{"android":"levelo://app?vid=5fc85a70-cd51-491b-a363-a46b0850da15","ios":"levelo://app?vid=5fc85a70-cd51-491b-a363-a46b0850da15"},"vehicle_type_id":"4","last_reported":1778356170,"current_range_meters":3200,"station_id":"","pricing_plan_id":"cebpf4jnsgd1na2vs0mg"},{"bike_id":"89ae5690-28bf-4b15-ae03-941d1c512dfe","system_id":"levelo_inurba_marseille","lat":43.30056,"lon":5.37974,"is_reserved":false,"is_disabled":false,"rental_uris":{"android":"levelo://app?vid=89ae5690-28bf-4b15-ae03-941d1c512dfe","ios":"levelo://app?vid=89ae5690-28bf-4b15-ae03-941d1c512dfe"},"vehicle_type_id":"4","last_reported":1778356170,"current_range_meters":3200,"station_id":"","pricing_plan_id":"cebpf4jnsgd1na2vs0mg"},{"bike_id":"bc3fb06a-20b6-41be-b4bb-38bf731954ef","system_id":"levelo_inurba_marseille","lat":43.2959,"lon":5.38109,"is_reserved":false,"is_disabled":false,"rental_uris":{"android":"levelo://app?vid=bc3fb06a-20b6-41be-b4bb-38bf731954ef","ios":"levelo://app?vid=bc3fb06a-20b6-41be-b4bb-38bf731954ef"},"vehicle_type_id":"4","last_reported":1778356170,"current_range_meters":3200,"station_id":"ce4bgl12rcd13ifvqbo0","pricing_plan_id":"cebpf4jnsgd1na2vs0mg"},{"bike_id":"feed6869-4f51-4662-9ae3-00c43cc86309","system_id":"levelo_inurba_marseille","lat":43.27307,"lon":5.3911,"is_reserved":false,"is_disabled":false,"rental_uris":{"android":"levelo://app?vid=feed6869-4f51-4662-9ae3-00c43cc86309","ios":"levelo://app?vid=feed6869-4f51-4662-9ae3-00c43cc86309"},"vehicle_type_id":"4","last_reported":1778356170,"current_range_meters":3200,"station_id":"ce4bhgp2rcd13ifvqfe0","pricing_plan_id":"cebpf4jnsgd1na2vs0mg"},{"bike_id":"98f5cdea-6707-49c2-8516-f2a890ab1592","system_id":"levelo_inurba_marseille","lat":43.32293,"lon":5.38266,"is_reserved":false,"is_disabled":false,"rental_uris":{"android":"levelo://app?vid=98f5cdea-6707-49c2-8516-f2a890ab1592","ios":"levelo://app?vid=98f5cdea-6707-49c2-8516-f2a890ab1592"},"vehicle_type_id":"4","last_reported":1778356170,"current_range_meters":3200,"station_id":"ce4bhr12rcd13ifvqhqg","pricing_plan_id":"cebpf4jnsgd1na2vs0mg"},{"bike_id":"13b1bcc7-e9d8-48b8-a72f-6d1f9d17e51d","system_id":"levelo_inurba_marseille","lat":43.24965,"lon":5.38911,"is_reserved":false,"is_disabled":false,"rental_uris":{"android":"levelo://app?vid=13b1bcc7-e9d8-48b8-a72f-6d1f9d17e51d","ios":"levelo://app?vid=13b1bcc7-e9d8-48b8-a72f-6d1f9d17e51d"},"vehicle_type_id":"4","last_reported":1778356170,"current_range_meters":3200,"station_id":"ce4bhgp2rcd13ifvqfd0","pricing_plan_id":"cebpf4jnsgd1na2vs0mg"},{"bike_id":"e273d521-d8da-4860-a41e-6cf955e66ddd","system_id":"levelo_inurba_marseille","lat":43.289334,"lon":5.366429,"is_reserved":false,"is_disabled":false,"rental_uris":{"android":"levelo://app?vid=e273d521-d8da-4860-a41e-6cf955e66ddd","ios":"levelo://app?vid=e273d521-d8da-4860-a41e-6cf955e66ddd"},"vehicle_type_id":"4","last_reported":1778356170,"current_range_meters":3200,"station_id":"ce4bhap2rcd13ifvqek0","pricing_plan_id":"cebpf4jnsgd1na2vs0mg"},{"bike_id":"4b65741e-5ed9-4da8-8620-3a00f88659d6","system_id":"levelo_inurba_marseille","lat":43.28473,"lon":5.48397,"is_reserved":false,"is_disabled":false,"rental_uris":{"android":"levelo://app?vid=4b65741e-5ed9-4da8-8620-3a00f88659d6","ios":"levelo://app?vid=4b65741e-5ed9-4da8-8620-3a00f88659d6"},"vehicle_type_id":"4","last_reported":1778356170,"current_range_meters":3600,"station_id":"","pricing_plan_id":"cebpf4jnsgd1na2vs0mg"},{"bike_id":"38f21802-ffc2-4216-abed-b3d67fab4feb","system_id":"levelo_inurba_marseille","lat":43.30253,"lon":5.40057,"is_reserved":false,"is_disabled":false,"rental_uris":{"android":"levelo://app?vid=38f21802-ffc2-4216-abed-b3d67fab4feb","ios":"levelo://app?vid=38f21802-ffc2-4216-abed-b3d67fab4feb"},"vehicle_type_id":"4","last_reported":1778356170,"current_range_meters":3600,"station_id":"ce4bgvh2rcd13ifvqcs0","pricing_plan_id":"cebpf4jnsgd1na2vs0mg"},{"bike_id":"fab4200b-be1c-47e0-851e-c35e188d9ff8","system_id":"levelo_inurba_marseille","lat":43.314435,"lon":5.372635,"is_reserved":false,"is_disabled":false,"rental_uris":{"android":"levelo://app?vid=fab4200b-be1c-47e0-851e-c35e188d9ff8","ios":"levelo://app?vid=fab4200b-be1c-47e0-851e-c35e188d9ff8"},"vehicle_type_id":"4","last_reported":1778356170,"current_range_meters":3600,"station_id":"ce4bgt12rcd13ifvqcd0","pricing_plan_id":"cebpf4jnsgd1na2vs0mg"},{"bike_id":"db1ac9e8-2733-492b-8480-e00e6de58734","system_id":"levelo_inurba_marseille","lat":43.27318,"lon":5.39098,"is_reserved":false,"is_disabled":false,"rental_uris":{"android":"levelo://app?vid=db1ac9e8-2733-492b-8480-e00e6de58734","ios":"levelo://app?vid=db1ac9e8-2733-492b-8480-e00e6de58734"},"vehicle_type_id":"4","last_reported":1778356170,"current_range_meters":3600,"station_id":"ce4bhgp2rcd13ifvqfe0","pricing_plan_id":"cebpf4jnsgd1na2vs0mg"},{"bike_id":"639e2ee0-236e-4cfd-ad26-7e3f6111102b","system_id":"levelo_inurba_marseille","lat":43.26783,"lon":5.3944,"is_reserved":false,"is_disabled":false,"rental_uris":{"android":"levelo://app?vid=639e2ee0-236e-4cfd-ad26-7e3f6111102b","ios":"levelo://app?vid=639e2ee0-236e-4cfd-ad26-7e3f6111102b"},"vehicle_type_id":"4","last_reported":1778356170,"current_range_meters":3600,"station_id":"ce4bhh12rcd13ifvqfg0","pricing_plan_id":"cebpf4jnsgd1na2vs0mg"},{"bike_id":"c63ff33a-ae31-4c7f-ab16-4903dd497608","system_id":"levelo_inurba_marseille","lat":43.26749,"lon":5.39448,"is_reserved":false,"is_disabled":false,"rental_uris":{"android":"levelo://app?vid=c63ff33a-ae31-4c7f-ab16-4903dd497608","ios":"levelo://app?vid=c63ff33a-ae31-4c7f-ab16-4903dd497608"},"vehicle_type_id":"4","last_reported":1778356170,"current_range_meters":3600,"station_id":"","pricing_plan_id":"cebpf4jnsgd1na2vs0mg"},{"bike_id":"7afac39b-ec7f-441c-854a-bc035a5b385e","system_id":"levelo_inurba_marseille","lat":43.27575,"lon":5.38401,"is_reserved":false,"is_disabled":false,"rental_uris":{"android":"levelo://app?vid=7afac39b-ec7f-441c-854a-bc035a5b385e","ios":"levelo://app?vid=7afac39b-ec7f-441c-854a-bc035a5b385e"},"vehicle_type_id":"4","last_reported":1778356170,"current_range_meters":3600,"station_id":"ce4bhh92rcd13ifvqfi0","pricing_plan_id":"cebpf4jnsgd1na2vs0mg"},{"bike_id":"5b17b337-4e55-486b-b310-212b10614e57","system_id":"levelo_inurba_marseille","lat":43.32357,"lon":5.36748,"is_reserved":false,"is_disabled":false,"rental_uris":{"android":"levelo://app?vid=5b17b337-4e55-486b-b310-212b10614e57","ios":"levelo://app?vid=5b17b337-4e55-486b-b310-212b10614e57"},"vehicle_type_id":"4","last_reported":1778356170,"current_range_meters":3600,"station_id":"ce4bhsh2rcd13ifvqi2g","pricing_plan_id":"cebpf4jnsgd1na2vs0mg"},{"bike_id":"b814abf4-d77d-4013-8042-4e39661fb9e7","system_id":"levelo_inurba_marseille","lat":43.27215,"lon":5.39163,"is_reserved":false,"is_disabled":false,"rental_uris":{"android":"levelo://app?vid=b814abf4-d77d-4013-8042-4e39661fb9e7","ios":"levelo://app?vid=b814abf4-d77d-4013-8042-4e39661fb9e7"},"vehicle_type_id":"4","last_reported":1778356170,"current_range_meters":3600,"station_id":"ce4bhhp2rcd13ifvqfm0","pricing_plan_id":"cebpf4jnsgd1na2vs0mg"},{"bike_id":"de45da21-e378-438e-9fa8-fb8f38b904ec","system_id":"levelo_inurba_marseille","lat":43.30333,"lon":5.40442,"is_reserved":false,"is_disabled":false,"rental_uris":{"android":"levelo://app?vid=de45da21-e378-438e-9fa8-fb8f38b904ec","ios":"levelo://app?vid=de45da21-e378-438e-9fa8-fb8f38b904ec"},"vehicle_type_id":"4","last_reported":1778356170,"current_range_meters":3600,"station_id":"ce4bh012rcd13ifvqd10","pricing_plan_id":"cebpf4jnsgd1na2vs0mg"},{"bike_id":"ba1a84df-99bc-4f91-b102-9b8b01f50ffc","system_id":"levelo_inurba_marseille","lat":43.31869,"lon":5.36819,"is_reserved":false,"is_disabled":false,"rental_uris":{"android":"levelo://app?vid=ba1a84df-99bc-4f91-b102-9b8b01f50ffc","ios":"levelo://app?vid=ba1a84df-99bc-4f91-b102-9b8b01f50ffc"},"vehicle_type_id":"4","last_reported":1778356170,"current_range_meters":4000,"station_id":"st_d6o2h0d0559c73evc1b0","pricing_plan_id":"cebpf4jnsgd1na2vs0mg"},{"bike_id":"826e71d3-8f95-44d0-bd2b-371dff283fc8","system_id":"levelo_inurba_marseille","lat":43.32285,"lon":5.38286,"is_reserved":false,"is_disabled":false,"rental_uris":{"android":"levelo://app?vid=826e71d3-8f95-44d0-bd2b-371dff283fc8","ios":"levelo://app?vid=826e71d3-8f95-44d0-bd2b-371dff283fc8"},"vehicle_type_id":"4","last_reported":1778356170,"current_range_meters":4000,"station_id":"ce4bhr12rcd13ifvqhqg","pricing_plan_id":"cebpf4jnsgd1na2vs0mg"},{"bike_id":"c9c762dc-7137-41fe-b12d-e38afe643524","system_id":"levelo_inurba_marseille","lat":43.29252,"lon":5.38449,"is_reserved":false,"is_disabled":false,"rental_uris":{"android":"levelo://app?vid=c9c762dc-7137-41fe-b12d-e38afe643524","ios":"levelo://app?vid=c9c762dc-7137-41fe-b12d-e38afe643524"},"vehicle_type_id":"4","last_reported":1778356170,"current_range_meters":4000,"station_id":"ce4bh692rcd13ifvqea0","pricing_plan_id":"cebpf4jnsgd1na2vs0mg"},{"bike_id":"09f03c71-3135-488b-aa1b-16f1834011a9","system_id":"levelo_inurba_marseille","lat":43.29198,"lon":5.35677,"is_reserved":false,"is_disabled":false,"rental_uris":{"android":"levelo://app?vid=09f03c71-3135-488b-aa1b-16f1834011a9","ios":"levelo://app?vid=09f03c71-3135-488b-aa1b-16f1834011a9"},"vehicle_type_id":"4","last_reported":1778356170,"current_range_meters":4000,"station_id":"","pricing_plan_id":"cebpf4jnsgd1na2vs0mg"},{"bike_id":"aea747f8-311b-4ded-9e0e-45c22d0f6c1f","system_id":"levelo_inurba_marseille","lat":43.27325,"lon":5.39092,"is_reserved":false,"is_disabled":false,"rental_uris":{"android":"levelo://app?vid=aea747f8-311b-4ded-9e0e-45c22d0f6c1f","ios":"levelo://app?vid=aea747f8-311b-4ded-9e0e-45c22d0f6c1f"},"vehicle_type_id":"4","last_reported":1778356170,"current_range_meters":4000,"station_id":"ce4bhgp2rcd13ifvqfe0","pricing_plan_id":"cebpf4jnsgd1na2vs0mg"},{"bike_id":"075e7a6c-4f4b-400a-a226-e30e8c6d4f53","system_id":"levelo_inurba_marseille","lat":43.2781,"lon":5.40712,"is_reserved":false,"is_disabled":false,"rental_uris":{"android":"levelo://app?vid=075e7a6c-4f4b-400a-a226-e30e8c6d4f53","ios":"levelo://app?vid=075e7a6c-4f4b-400a-a226-e30e8c6d4f53"},"vehicle_type_id":"4","last_reported":1778356170,"current_range_meters":4000,"station_id":"ce4bhnh2rcd13ifvqgtg","pricing_plan_id":"cebpf4jnsgd1na2vs0mg"},{"bike_id":"ebc96968-e4b8-40e4-84de-ae7324189aaa","system_id":"levelo_inurba_marseille","lat":43.30761,"lon":5.40913,"is_reserved":false,"is_disabled":false,"rental_uris":{"android":"levelo://app?vid=ebc96968-e4b8-40e4-84de-ae7324189aaa","ios":"levelo://app?vid=ebc96968-e4b8-40e4-84de-ae7324189aaa"},"vehicle_type_id":"4","last_reported":1778356170,"current_range_meters":4000,"station_id":"","pricing_plan_id":"cebpf4jnsgd1na2vs0mg"},{"bike_id":"c1b768b5-78ad-4562-8b11-acf628f13106","system_id":"levelo_inurba_marseille","lat":43.27948,"lon":5.44156,"is_reserved":false,"is_disabled":false,"rental_uris":{"android":"levelo://app?vid=c1b768b5-78ad-4562-8b11-acf628f13106","ios":"levelo://app?vid=c1b768b5-78ad-4562-8b11-acf628f13106"},"vehicle_type_id":"4","last_reported":1778356170,"current_range_meters":4000,"station_id":"","pricing_plan_id":"cebpf4jnsgd1na2vs0mg"},{"bike_id":"89d22d1a-5846-4ec1-8570-c41c52265392","system_id":"levelo_inurba_marseille","lat":43.2649,"lon":5.3955,"is_reserved":false,"is_disabled":false,"rental_uris":{"android":"levelo://app?vid=89d22d1a-5846-4ec1-8570-c41c52265392","ios":"levelo://app?vid=89d22d1a-5846-4ec1-8570-c41c52265392"},"vehicle_type_id":"4","last_reported":1778356170,"current_range_meters":4000,"station_id":"ce4bhi12rcd13ifvqfq0","pricing_plan_id":"cebpf4jnsgd1na2vs0mg"},{"bike_id":"138fd523-ab17-4987-9430-1b46314f5d15","system_id":"levelo_inurba_marseille","lat":43.26947,"lon":5.40243,"is_reserved":false,"is_disabled":false,"rental_uris":{"android":"levelo://app?vid=138fd523-ab17-4987-9430-1b46314f5d15","ios":"levelo://app?vid=138fd523-ab17-4987-9430-1b46314f5d15"},"vehicle_type_id":"4","last_reported":1778356170,"current_range_meters":4000,"station_id":"cjm6bp8fraef2m0cb0m0","pricing_plan_id":"cebpf4jnsgd1na2vs0mg"},{"bike_id":"2604fbbc-e049-4cc7-8069-721d8cb88417","system_id":"levelo_inurba_marseille","lat":43.2448,"lon":5.42524,"is_reserved":false,"is_disabled":false,"rental_uris":{"android":"levelo://app?vid=2604fbbc-e049-4cc7-8069-721d8cb88417","ios":"levelo://app?vid=2604fbbc-e049-4cc7-8069-721d8cb88417"},"vehicle_type_id":"4","last_reported":1778356170,"current_range_meters":4000,"station_id":"st_d4a3vfp97mjs738cd8kg","pricing_plan_id":"cebpf4jnsgd1na2vs0mg"},{"bike_id":"c3289b34-56f2-4648-9019-d62251ccc31c","system_id":"levelo_inurba_marseille","lat":43.29193,"lon":5.3582,"is_reserved":false,"is_disabled":false,"rental_uris":{"android":"levelo://app?vid=c3289b34-56f2-4648-9019-d62251ccc31c","ios":"levelo://app?vid=c3289b34-56f2-4648-9019-d62251ccc31c"},"vehicle_type_id":"4","last_reported":1778356170,"current_range_meters":4000,"station_id":"ce4bhb12rcd13ifvqel0","pricing_plan_id":"cebpf4jnsgd1na2vs0mg"},{"bike_id":"be503bc8-9908-4e34-b955-eb291061b0f1","system_id":"levelo_inurba_marseille","lat":43.2846,"lon":5.35892,"is_reserved":false,"is_disabled":true,"rental_uris":{"android":"levelo://app?vid=be503bc8-9908-4e34-b955-eb291061b0f1","ios":"levelo://app?vid=be503bc8-9908-4e34-b955-eb291061b0f1"},"vehicle_type_id":"4","last_reported":1778356170,"current_range_meters":4000,"station_id":"ce4bhah2rcd13ifvqei0","pricing_plan_id":"cebpf4jnsgd1na2vs0mg"},{"bike_id":"4acb43ed-3642-4736-9baa-453b9005f3a4","system_id":"levelo_inurba_marseille","lat":43.29556,"lon":5.38691,"is_reserved":false,"is_disabled":false,"rental_uris":{"android":"levelo://app?vid=4acb43ed-3642-4736-9baa-453b9005f3a4","ios":"levelo://app?vid=4acb43ed-3642-4736-9baa-453b9005f3a4"},"vehicle_type_id":"4","last_reported":1778356170,"current_range_meters":4000,"station_id":"","pricing_plan_id":"cebpf4jnsgd1na2vs0mg"},{"bike_id":"eee51eae-5aaa-4a90-b6bb-0ee2250819e2","system_id":"levelo_inurba_marseille","lat":43.27886,"lon":5.38754,"is_reserved":false,"is_disabled":false,"rental_uris":{"android":"levelo://app?vid=eee51eae-5aaa-4a90-b6bb-0ee2250819e2","ios":"levelo://app?vid=eee51eae-5aaa-4a90-b6bb-0ee2250819e2"},"vehicle_type_id":"4","last_reported":1778356170,"current_range_meters":4400,"station_id":"","pricing_plan_id":"cebpf4jnsgd1na2vs0mg"},{"bike_id":"c29e213d-8054-4b1f-ad68-8b60505d46cc","system_id":"levelo_inurba_marseille","lat":43.2466,"lon":5.3815,"is_reserved":false,"is_disabled":true,"rental_uris":{"android":"levelo://app?vid=c29e213d-8054-4b1f-ad68-8b60505d46cc","ios":"levelo://app?vid=c29e213d-8054-4b1f-ad68-8b60505d46cc"},"vehicle_type_id":"4","last_reported":1778356170,"current_range_meters":4400,"station_id":"ce4bhih2rcd13ifvqfr0","pricing_plan_id":"cebpf4jnsgd1na2vs0mg"},{"bike_id":"e9603e54-ff6b-4fae-9e9b-b17dd395cbe4","system_id":"levelo_inurba_marseille","lat":43.26357,"lon":5.39909,"is_reserved":false,"is_disabled":false,"rental_uris":{"android":"levelo://app?vid=e9603e54-ff6b-4fae-9e9b-b17dd395cbe4","ios":"levelo://app?vid=e9603e54-ff6b-4fae-9e9b-b17dd395cbe4"},"vehicle_type_id":"4","last_reported":1778356170,"current_range_meters":4400,"station_id":"","pricing_plan_id":"cebpf4jnsgd1na2vs0mg"},{"bike_id":"48c264b9-5774-4c84-bbfe-2fb5a55e097d","system_id":"levelo_inurba_marseille","lat":43.27219,"lon":5.3919,"is_reserved":false,"is_disabled":false,"rental_uris":{"android":"levelo://app?vid=48c264b9-5774-4c84-bbfe-2fb5a55e097d","ios":"levelo://app?vid=48c264b9-5774-4c84-bbfe-2fb5a55e097d"},"vehicle_type_id":"4","last_reported":1778356170,"current_range_meters":4400,"station_id":"ce4bhhp2rcd13ifvqfm0","pricing_plan_id":"cebpf4jnsgd1na2vs0mg"},{"bike_id":"c3f40a13-518f-49e9-9406-fb1beeee765b","system_id":"levelo_inurba_marseille","lat":43.30324,"lon":5.40433,"is_reserved":false,"is_disabled":false,"rental_uris":{"android":"levelo://app?vid=c3f40a13-518f-49e9-9406-fb1beeee765b","ios":"levelo://app?vid=c3f40a13-518f-49e9-9406-fb1beeee765b"},"vehicle_type_id":"4","last_reported":1778356170,"current_range_meters":4400,"station_id":"ce4bh012rcd13ifvqd10","pricing_plan_id":"cebpf4jnsgd1na2vs0mg"},{"bike_id":"012436db-213f-4ce3-a46b-2b318f2b65c1","system_id":"levelo_inurba_marseille","lat":43.2959,"lon":5.37496,"is_reserved":false,"is_disabled":true,"rental_uris":{"android":"levelo://app?vid=012436db-213f-4ce3-a46b-2b318f2b65c1","ios":"levelo://app?vid=012436db-213f-4ce3-a46b-2b318f2b65c1"},"vehicle_type_id":"4","last_reported":1778356170,"current_range_meters":4400,"station_id":"ce4bgh92rcd13ifvqb50","pricing_plan_id":"cebpf4jnsgd1na2vs0mg"},{"bike_id":"4490e93e-631c-4603-93a7-b97e44dd23ae","system_id":"levelo_inurba_marseille","lat":43.28371,"lon":5.38622,"is_reserved":false,"is_disabled":false,"rental_uris":{"android":"levelo://app?vid=4490e93e-631c-4603-93a7-b97e44dd23ae","ios":"levelo://app?vid=4490e93e-631c-4603-93a7-b97e44dd23ae"},"vehicle_type_id":"4","last_reported":1778356170,"current_range_meters":4400,"station_id":"ce4bh492rcd13ifvqdvg","pricing_plan_id":"cebpf4jnsgd1na2vs0mg"},{"bike_id":"27e81979-15ff-41ac-b6f6-72665ef9bdb8","system_id":"levelo_inurba_marseille","lat":43.31201,"lon":5.38772,"is_reserved":false,"is_disabled":false,"rental_uris":{"android":"levelo://app?vid=27e81979-15ff-41ac-b6f6-72665ef9bdb8","ios":"levelo://app?vid=27e81979-15ff-41ac-b6f6-72665ef9bdb8"},"vehicle_type_id":"4","last_reported":1778356170,"current_range_meters":4400,"station_id":"ce4bgv12rcd13ifvqcp0","pricing_plan_id":"cebpf4jnsgd1na2vs0mg"},{"bike_id":"17089156-266c-4f25-b6d9-07a04751f9e9","system_id":"levelo_inurba_marseille","lat":43.323617,"lon":5.367532,"is_reserved":false,"is_disabled":false,"rental_uris":{"android":"levelo://app?vid=17089156-266c-4f25-b6d9-07a04751f9e9","ios":"levelo://app?vid=17089156-266c-4f25-b6d9-07a04751f9e9"},"vehicle_type_id":"4","last_reported":1778356170,"current_range_meters":4400,"station_id":"ce4bhsh2rcd13ifvqi2g","pricing_plan_id":"cebpf4jnsgd1na2vs0mg"},{"bike_id":"50f33016-33ac-4ae5-8736-062d7e7a394a","system_id":"levelo_inurba_marseille","lat":43.25088,"lon":5.39528,"is_reserved":false,"is_disabled":false,"rental_uris":{"android":"levelo://app?vid=50f33016-33ac-4ae5-8736-062d7e7a394a","ios":"levelo://app?vid=50f33016-33ac-4ae5-8736-062d7e7a394a"},"vehicle_type_id":"4","last_reported":1778356170,"current_range_meters":4400,"station_id":"ce4bhm12rcd13ifvqgkg","pricing_plan_id":"cebpf4jnsgd1na2vs0mg"},{"bike_id":"761ede00-4515-4eff-96c1-9894d0e7deed","system_id":"levelo_inurba_marseille","lat":43.2953,"lon":5.38534,"is_reserved":false,"is_disabled":false,"rental_uris":{"android":"levelo://app?vid=761ede00-4515-4eff-96c1-9894d0e7deed","ios":"levelo://app?vid=761ede00-4515-4eff-96c1-9894d0e7deed"},"vehicle_type_id":"4","last_reported":1778356170,"current_range_meters":4400,"station_id":"ce4bgih2rcd13ifvqba0","pricing_plan_id":"cebpf4jnsgd1na2vs0mg"},{"bike_id":"348bfdba-9d6e-4aa7-8d67-36f0a3487da5","system_id":"levelo_inurba_marseille","lat":43.31382,"lon":5.38489,"is_reserved":false,"is_disabled":false,"rental_uris":{"android":"levelo://app?vid=348bfdba-9d6e-4aa7-8d67-36f0a3487da5","ios":"levelo://app?vid=348bfdba-9d6e-4aa7-8d67-36f0a3487da5"},"vehicle_type_id":"4","last_reported":1778356170,"current_range_meters":4400,"station_id":"ce4bgt92rcd13ifvqcf0","pricing_plan_id":"cebpf4jnsgd1na2vs0mg"},{"bike_id":"994bf927-2af7-40db-aae7-fee463dab7aa","system_id":"levelo_inurba_marseille","lat":43.29264,"lon":5.3844,"is_reserved":false,"is_disabled":false,"rental_uris":{"android":"levelo://app?vid=994bf927-2af7-40db-aae7-fee463dab7aa","ios":"levelo://app?vid=994bf927-2af7-40db-aae7-fee463dab7aa"},"vehicle_type_id":"4","last_reported":1778356170,"current_range_meters":4400,"station_id":"ce4bh692rcd13ifvqea0","pricing_plan_id":"cebpf4jnsgd1na2vs0mg"},{"bike_id":"84cf6ea0-1a95-4238-8661-60a7f50a7ee9","system_id":"levelo_inurba_marseille","lat":43.29848,"lon":5.36294,"is_reserved":false,"is_disabled":false,"rental_uris":{"android":"levelo://app?vid=84cf6ea0-1a95-4238-8661-60a7f50a7ee9","ios":"levelo://app?vid=84cf6ea0-1a95-4238-8661-60a7f50a7ee9"},"vehicle_type_id":"4","last_reported":1778356170,"current_range_meters":4400,"station_id":"ce4bgpp2rcd13ifvqc3g","pricing_plan_id":"cebpf4jnsgd1na2vs0mg"},{"bike_id":"4df25aff-fef0-4554-8578-eda7b7e0492b","system_id":"levelo_inurba_marseille","lat":43.27223,"lon":5.39159,"is_reserved":false,"is_disabled":false,"rental_uris":{"android":"levelo://app?vid=4df25aff-fef0-4554-8578-eda7b7e0492b","ios":"levelo://app?vid=4df25aff-fef0-4554-8578-eda7b7e0492b"},"vehicle_type_id":"4","last_reported":1778356170,"current_range_meters":4400,"station_id":"ce4bhhp2rcd13ifvqfm0","pricing_plan_id":"cebpf4jnsgd1na2vs0mg"},{"bike_id":"cad34172-e400-49e7-804c-04a869e760a9","system_id":"levelo_inurba_marseille","lat":43.27306,"lon":5.39115,"is_reserved":false,"is_disabled":false,"rental_uris":{"android":"levelo://app?vid=cad34172-e400-49e7-804c-04a869e760a9","ios":"levelo://app?vid=cad34172-e400-49e7-804c-04a869e760a9"},"vehicle_type_id":"4","last_reported":1778356170,"current_range_meters":4400,"station_id":"ce4bhgp2rcd13ifvqfe0","pricing_plan_id":"cebpf4jnsgd1na2vs0mg"},{"bike_id":"92c9d0a0-7699-4a8f-9822-768984018037","system_id":"levelo_inurba_marseille","lat":43.337444,"lon":5.374475,"is_reserved":false,"is_disabled":false,"rental_uris":{"android":"levelo://app?vid=92c9d0a0-7699-4a8f-9822-768984018037","ios":"levelo://app?vid=92c9d0a0-7699-4a8f-9822-768984018037"},"vehicle_type_id":"4","last_reported":1778356170,"current_range_meters":4400,"station_id":"ce4bhbh2rcd13ifvqeqg","pricing_plan_id":"cebpf4jnsgd1na2vs0mg"},{"bike_id":"975ca0be-970c-4f9b-9eef-153775b6ef99","system_id":"levelo_inurba_marseille","lat":43.28234,"lon":5.39065,"is_reserved":false,"is_disabled":false,"rental_uris":{"android":"levelo://app?vid=975ca0be-970c-4f9b-9eef-153775b6ef99","ios":"levelo://app?vid=975ca0be-970c-4f9b-9eef-153775b6ef99"},"vehicle_type_id":"4","last_reported":1778356170,"current_range_meters":4800,"station_id":"ce4bhn92rcd13ifvqgsg","pricing_plan_id":"cebpf4jnsgd1na2vs0mg"},{"bike_id":"8127a179-0b6c-4390-978d-34e331e55652","system_id":"levelo_inurba_marseille","lat":43.31674,"lon":5.40486,"is_reserved":false,"is_disabled":false,"rental_uris":{"android":"levelo://app?vid=8127a179-0b6c-4390-978d-34e331e55652","ios":"levelo://app?vid=8127a179-0b6c-4390-978d-34e331e55652"},"vehicle_type_id":"4","last_reported":1778356170,"current_range_meters":4800,"station_id":"ce4bh012rcd13ifvqd00","pricing_plan_id":"cebpf4jnsgd1na2vs0mg"},{"bike_id":"798dd442-ecce-41be-b4b9-436ee7f8a467","system_id":"levelo_inurba_marseille","lat":43.272094,"lon":5.390291,"is_reserved":false,"is_disabled":false,"rental_uris":{"android":"levelo://app?vid=798dd442-ecce-41be-b4b9-436ee7f8a467","ios":"levelo://app?vid=798dd442-ecce-41be-b4b9-436ee7f8a467"},"vehicle_type_id":"4","last_reported":1778356170,"current_range_meters":4800,"station_id":"ce4bhhp2rcd13ifvqfm0","pricing_plan_id":"cebpf4jnsgd1na2vs0mg"},{"bike_id":"a4e67437-f0c6-4c98-b5d9-1f9f175bdb7a","system_id":"levelo_inurba_marseille","lat":43.28948,"lon":5.36621,"is_reserved":false,"is_disabled":false,"rental_uris":{"android":"levelo://app?vid=a4e67437-f0c6-4c98-b5d9-1f9f175bdb7a","ios":"levelo://app?vid=a4e67437-f0c6-4c98-b5d9-1f9f175bdb7a"},"vehicle_type_id":"4","last_reported":1778356170,"current_range_meters":4800,"station_id":"ce4bhap2rcd13ifvqek0","pricing_plan_id":"cebpf4jnsgd1na2vs0mg"},{"bike_id":"751cdc66-8641-4875-a1dd-40c6831f96d1","system_id":"levelo_inurba_marseille","lat":43.26769,"lon":5.39441,"is_reserved":false,"is_disabled":false,"rental_uris":{"android":"levelo://app?vid=751cdc66-8641-4875-a1dd-40c6831f96d1","ios":"levelo://app?vid=751cdc66-8641-4875-a1dd-40c6831f96d1"},"vehicle_type_id":"4","last_reported":1778356170,"current_range_meters":4800,"station_id":"ce4bhh12rcd13ifvqfg0","pricing_plan_id":"cebpf4jnsgd1na2vs0mg"},{"bike_id":"5361539f-a584-4329-8108-172e9f5f2d2f","system_id":"levelo_inurba_marseille","lat":43.26066,"lon":5.39399,"is_reserved":false,"is_disabled":false,"rental_uris":{"android":"levelo://app?vid=5361539f-a584-4329-8108-172e9f5f2d2f","ios":"levelo://app?vid=5361539f-a584-4329-8108-172e9f5f2d2f"},"vehicle_type_id":"4","last_reported":1778356170,"current_range_meters":4800,"station_id":"ce4bhh92rcd13ifvqfj0","pricing_plan_id":"cebpf4jnsgd1na2vs0mg"},{"bike_id":"c5f72ad7-1242-4a4d-ba25-d7d97c483db7","system_id":"levelo_inurba_marseille","lat":43.27299,"lon":5.39129,"is_reserved":false,"is_disabled":false,"rental_uris":{"android":"levelo://app?vid=c5f72ad7-1242-4a4d-ba25-d7d97c483db7","ios":"levelo://app?vid=c5f72ad7-1242-4a4d-ba25-d7d97c483db7"},"vehicle_type_id":"4","last_reported":1778356170,"current_range_meters":4800,"station_id":"ce4bhgp2rcd13ifvqfe0","pricing_plan_id":"cebpf4jnsgd1na2vs0mg"},{"bike_id":"07829fdc-c599-44a2-8a5d-d38b8b9f7bb8","system_id":"levelo_inurba_marseille","lat":43.30383,"lon":5.4249,"is_reserved":false,"is_disabled":true,"rental_uris":{"android":"levelo://app?vid=07829fdc-c599-44a2-8a5d-d38b8b9f7bb8","ios":"levelo://app?vid=07829fdc-c599-44a2-8a5d-d38b8b9f7bb8"},"vehicle_type_id":"4","last_reported":1778356170,"current_range_meters":4800,"station_id":"ce4bhoh2rcd13ifvqh6g","pricing_plan_id":"cebpf4jnsgd1na2vs0mg"},{"bike_id":"edd39cc9-0ca9-4de9-bb9c-cdf6105a047f","system_id":"levelo_inurba_marseille","lat":43.29527,"lon":5.3854,"is_reserved":false,"is_disabled":true,"rental_uris":{"android":"levelo://app?vid=edd39cc9-0ca9-4de9-bb9c-cdf6105a047f","ios":"levelo://app?vid=edd39cc9-0ca9-4de9-bb9c-cdf6105a047f"},"vehicle_type_id":"4","last_reported":1778356170,"current_range_meters":4800,"station_id":"ce4bgih2rcd13ifvqba0","pricing_plan_id":"cebpf4jnsgd1na2vs0mg"},{"bike_id":"b8425fa1-a298-4679-ba8a-777546e14eca","system_id":"levelo_inurba_marseille","lat":43.33756,"lon":5.37462,"is_reserved":false,"is_disabled":false,"rental_uris":{"android":"levelo://app?vid=b8425fa1-a298-4679-ba8a-777546e14eca","ios":"levelo://app?vid=b8425fa1-a298-4679-ba8a-777546e14eca"},"vehicle_type_id":"4","last_reported":1778356170,"current_range_meters":4800,"station_id":"","pricing_plan_id":"cebpf4jnsgd1na2vs0mg"},{"bike_id":"2e95cbe4-b1d3-418e-b43c-322812e33691","system_id":"levelo_inurba_marseille","lat":43.27294,"lon":5.3909,"is_reserved":false,"is_disabled":false,"rental_uris":{"android":"levelo://app?vid=2e95cbe4-b1d3-418e-b43c-322812e33691","ios":"levelo://app?vid=2e95cbe4-b1d3-418e-b43c-322812e33691"},"vehicle_type_id":"4","last_reported":1778356170,"current_range_meters":4800,"station_id":"ce4bhgp2rcd13ifvqfe0","pricing_plan_id":"cebpf4jnsgd1na2vs0mg"},{"bike_id":"8e7bacc7-a10b-4c25-9a0c-638743c4cdd3","system_id":"levelo_inurba_marseille","lat":43.30131,"lon":5.388,"is_reserved":false,"is_disabled":false,"rental_uris":{"android":"levelo://app?vid=8e7bacc7-a10b-4c25-9a0c-638743c4cdd3","ios":"levelo://app?vid=8e7bacc7-a10b-4c25-9a0c-638743c4cdd3"},"vehicle_type_id":"4","last_reported":1778356170,"current_range_meters":4800,"station_id":"ce4bghh2rcd13ifvqb60","pricing_plan_id":"cebpf4jnsgd1na2vs0mg"},{"bike_id":"b888d006-5d40-4555-be47-19d4d1263d91","system_id":"levelo_inurba_marseille","lat":43.27334,"lon":5.39067,"is_reserved":false,"is_disabled":false,"rental_uris":{"android":"levelo://app?vid=b888d006-5d40-4555-be47-19d4d1263d91","ios":"levelo://app?vid=b888d006-5d40-4555-be47-19d4d1263d91"},"vehicle_type_id":"4","last_reported":1778356170,"current_range_meters":4800,"station_id":"ce4bhgp2rcd13ifvqfe0","pricing_plan_id":"cebpf4jnsgd1na2vs0mg"},{"bike_id":"b34e11b9-3c68-4409-b941-ded8e7d7974e","system_id":"levelo_inurba_marseille","lat":43.30225,"lon":5.39464,"is_reserved":false,"is_disabled":true,"rental_uris":{"android":"levelo://app?vid=b34e11b9-3c68-4409-b941-ded8e7d7974e","ios":"levelo://app?vid=b34e11b9-3c68-4409-b941-ded8e7d7974e"},"vehicle_type_id":"4","last_reported":1778356170,"current_range_meters":4800,"station_id":"ce4bh0p2rcd13ifvqd70","pricing_plan_id":"cebpf4jnsgd1na2vs0mg"},{"bike_id":"5a436f11-afe4-43ad-a9a1-056bd0578be1","system_id":"levelo_inurba_marseille","lat":43.27969,"lon":5.38747,"is_reserved":false,"is_disabled":true,"rental_uris":{"android":"levelo://app?vid=5a436f11-afe4-43ad-a9a1-056bd0578be1","ios":"levelo://app?vid=5a436f11-afe4-43ad-a9a1-056bd0578be1"},"vehicle_type_id":"4","last_reported":1778356170,"current_range_meters":4800,"station_id":"ce4bhg12rcd13ifvqf80","pricing_plan_id":"cebpf4jnsgd1na2vs0mg"},{"bike_id":"b7785eb4-2ec2-477e-84df-a4c7edcf4b95","system_id":"levelo_inurba_marseille","lat":43.29248,"lon":5.38439,"is_reserved":false,"is_disabled":false,"rental_uris":{"android":"levelo://app?vid=b7785eb4-2ec2-477e-84df-a4c7edcf4b95","ios":"levelo://app?vid=b7785eb4-2ec2-477e-84df-a4c7edcf4b95"},"vehicle_type_id":"4","last_reported":1778356170,"current_range_meters":4800,"station_id":"ce4bh692rcd13ifvqea0","pricing_plan_id":"cebpf4jnsgd1na2vs0mg"},{"bike_id":"3a7a6490-34c7-4e66-a967-52dc19722c9c","system_id":"levelo_inurba_marseille","lat":43.25392,"lon":5.39434,"is_reserved":false,"is_disabled":false,"rental_uris":{"android":"levelo://app?vid=3a7a6490-34c7-4e66-a967-52dc19722c9c","ios":"levelo://app?vid=3a7a6490-34c7-4e66-a967-52dc19722c9c"},"vehicle_type_id":"4","last_reported":1778356170,"current_range_meters":4800,"station_id":"","pricing_plan_id":"cebpf4jnsgd1na2vs0mg"},{"bike_id":"0cce3dc3-64b9-4d1c-a0cb-73f0c02db627","system_id":"levelo_inurba_marseille","lat":43.29615,"lon":5.381,"is_reserved":false,"is_disabled":false,"rental_uris":{"android":"levelo://app?vid=0cce3dc3-64b9-4d1c-a0cb-73f0c02db627","ios":"levelo://app?vid=0cce3dc3-64b9-4d1c-a0cb-73f0c02db627"},"vehicle_type_id":"4","last_reported":1778356170,"current_range_meters":4800,"station_id":"ce4bgl12rcd13ifvqbo0","pricing_plan_id":"cebpf4jnsgd1na2vs0mg"},{"bike_id":"ef4c0d2f-d37c-409b-be4c-7cceaa4aabfa","system_id":"levelo_inurba_marseille","lat":43.28478,"lon":5.48402,"is_reserved":false,"is_disabled":false,"rental_uris":{"android":"levelo://app?vid=ef4c0d2f-d37c-409b-be4c-7cceaa4aabfa","ios":"levelo://app?vid=ef4c0d2f-d37c-409b-be4c-7cceaa4aabfa"},"vehicle_type_id":"4","last_reported":1778356170,"current_range_meters":5600,"station_id":"","pricing_plan_id":"cebpf4jnsgd1na2vs0mg"},{"bike_id":"8fdbe986-716a-4dce-a50d-3af695e9688c","system_id":"levelo_inurba_marseille","lat":43.33549,"lon":5.37455,"is_reserved":false,"is_disabled":false,"rental_uris":{"android":"levelo://app?vid=8fdbe986-716a-4dce-a50d-3af695e9688c","ios":"levelo://app?vid=8fdbe986-716a-4dce-a50d-3af695e9688c"},"vehicle_type_id":"4","last_reported":1778356170,"current_range_meters":5600,"station_id":"st_d46tts09ee8s73dlu43g","pricing_plan_id":"cebpf4jnsgd1na2vs0mg"},{"bike_id":"1f2e3678-2790-4134-b0b0-63d504b63bcc","system_id":"levelo_inurba_marseille","lat":43.2987,"lon":5.36299,"is_reserved":false,"is_disabled":false,"rental_uris":{"android":"levelo://app?vid=1f2e3678-2790-4134-b0b0-63d504b63bcc","ios":"levelo://app?vid=1f2e3678-2790-4134-b0b0-63d504b63bcc"},"vehicle_type_id":"4","last_reported":1778356170,"current_range_meters":5600,"station_id":"ce4bgpp2rcd13ifvqc3g","pricing_plan_id":"cebpf4jnsgd1na2vs0mg"},{"bike_id":"5128aeda-bc18-4029-839a-d140ab1c6a85","system_id":"levelo_inurba_marseille","lat":43.29311,"lon":5.37173,"is_reserved":false,"is_disabled":false,"rental_uris":{"android":"levelo://app?vid=5128aeda-bc18-4029-839a-d140ab1c6a85","ios":"levelo://app?vid=5128aeda-bc18-4029-839a-d140ab1c6a85"},"vehicle_type_id":"4","last_reported":1778356170,"current_range_meters":5600,"station_id":"ce4bgh92rcd13ifvqb40","pricing_plan_id":"cebpf4jnsgd1na2vs0mg"},{"bike_id":"8d433cd8-ede2-498a-84f5-0980fac50dc8","system_id":"levelo_inurba_marseille","lat":43.3041,"lon":5.42353,"is_reserved":false,"is_disabled":false,"rental_uris":{"android":"levelo://app?vid=8d433cd8-ede2-498a-84f5-0980fac50dc8","ios":"levelo://app?vid=8d433cd8-ede2-498a-84f5-0980fac50dc8"},"vehicle_type_id":"4","last_reported":1778356170,"current_range_meters":5600,"station_id":"","pricing_plan_id":"cebpf4jnsgd1na2vs0mg"},{"bike_id":"558ecc7a-7ed0-4d4d-8eaf-a0bf6d6ce907","system_id":"levelo_inurba_marseille","lat":43.28226,"lon":5.40563,"is_reserved":false,"is_disabled":false,"rental_uris":{"android":"levelo://app?vid=558ecc7a-7ed0-4d4d-8eaf-a0bf6d6ce907","ios":"levelo://app?vid=558ecc7a-7ed0-4d4d-8eaf-a0bf6d6ce907"},"vehicle_type_id":"4","last_reported":1778356170,"current_range_meters":5600,"station_id":"","pricing_plan_id":"cebpf4jnsgd1na2vs0mg"},{"bike_id":"93b04531-424f-4327-bf0d-4e3bfaedafc0","system_id":"levelo_inurba_marseille","lat":43.30625,"lon":5.4008,"is_reserved":false,"is_disabled":false,"rental_uris":{"android":"levelo://app?vid=93b04531-424f-4327-bf0d-4e3bfaedafc0","ios":"levelo://app?vid=93b04531-424f-4327-bf0d-4e3bfaedafc0"},"vehicle_type_id":"4","last_reported":1778356170,"current_range_meters":5600,"station_id":"ce4bh112rcd13ifvqda0","pricing_plan_id":"cebpf4jnsgd1na2vs0mg"},{"bike_id":"e744fd51-d53a-4993-92a1-3a6752e7a33c","system_id":"levelo_inurba_marseille","lat":43.3211,"lon":5.36768,"is_reserved":false,"is_disabled":false,"rental_uris":{"android":"levelo://app?vid=e744fd51-d53a-4993-92a1-3a6752e7a33c","ios":"levelo://app?vid=e744fd51-d53a-4993-92a1-3a6752e7a33c"},"vehicle_type_id":"4","last_reported":1778356170,"current_range_meters":5600,"station_id":"ce4bhrh2rcd13ifvqhug","pricing_plan_id":"cebpf4jnsgd1na2vs0mg"},{"bike_id":"10c1c852-27c1-4a93-8a9e-687fcc741284","system_id":"levelo_inurba_marseille","lat":43.29844,"lon":5.36283,"is_reserved":false,"is_disabled":false,"rental_uris":{"android":"levelo://app?vid=10c1c852-27c1-4a93-8a9e-687fcc741284","ios":"levelo://app?vid=10c1c852-27c1-4a93-8a9e-687fcc741284"},"vehicle_type_id":"4","last_reported":1778356170,"current_range_meters":5600,"station_id":"ce4bgpp2rcd13ifvqc3g","pricing_plan_id":"cebpf4jnsgd1na2vs0mg"},{"bike_id":"6084befa-84c6-4142-adec-b82f1677a0f1","system_id":"levelo_inurba_marseille","lat":43.26751,"lon":5.39409,"is_reserved":false,"is_disabled":false,"rental_uris":{"android":"levelo://app?vid=6084befa-84c6-4142-adec-b82f1677a0f1","ios":"levelo://app?vid=6084befa-84c6-4142-adec-b82f1677a0f1"},"vehicle_type_id":"4","last_reported":1778356170,"current_range_meters":5600,"station_id":"","pricing_plan_id":"cebpf4jnsgd1na2vs0mg"},{"bike_id":"c8839437-c286-4318-b7be-1ada9dfcd256","system_id":"levelo_inurba_marseille","lat":43.26388,"lon":5.41058,"is_reserved":false,"is_disabled":false,"rental_uris":{"android":"levelo://app?vid=c8839437-c286-4318-b7be-1ada9dfcd256","ios":"levelo://app?vid=c8839437-c286-4318-b7be-1ada9dfcd256"},"vehicle_type_id":"4","last_reported":1778356170,"current_range_meters":5600,"station_id":"st_d4e5ca6na9uc73bfl5fg","pricing_plan_id":"cebpf4jnsgd1na2vs0mg"},{"bike_id":"8417c372-2ac9-4540-9709-1ead3b355002","system_id":"levelo_inurba_marseille","lat":43.29799,"lon":5.4042,"is_reserved":false,"is_disabled":false,"rental_uris":{"android":"levelo://app?vid=8417c372-2ac9-4540-9709-1ead3b355002","ios":"levelo://app?vid=8417c372-2ac9-4540-9709-1ead3b355002"},"vehicle_type_id":"4","last_reported":1778356170,"current_range_meters":5600,"station_id":"ce4bh112rcd13ifvqd90","pricing_plan_id":"cebpf4jnsgd1na2vs0mg"},{"bike_id":"21a8a262-5f9b-4990-b361-fe99868df2f8","system_id":"levelo_inurba_marseille","lat":43.28978,"lon":5.37842,"is_reserved":false,"is_disabled":false,"rental_uris":{"android":"levelo://app?vid=21a8a262-5f9b-4990-b361-fe99868df2f8","ios":"levelo://app?vid=21a8a262-5f9b-4990-b361-fe99868df2f8"},"vehicle_type_id":"4","last_reported":1778356170,"current_range_meters":5600,"station_id":"ce4bh9p2rcd13ifvqed0","pricing_plan_id":"cebpf4jnsgd1na2vs0mg"},{"bike_id":"6c5cb9c0-f3ca-403c-9e9d-b0fda60f7067","system_id":"levelo_inurba_marseille","lat":43.295971,"lon":5.380986,"is_reserved":false,"is_disabled":false,"rental_uris":{"android":"levelo://app?vid=6c5cb9c0-f3ca-403c-9e9d-b0fda60f7067","ios":"levelo://app?vid=6c5cb9c0-f3ca-403c-9e9d-b0fda60f7067"},"vehicle_type_id":"4","last_reported":1778356170,"current_range_meters":5600,"station_id":"ce4bgl12rcd13ifvqbo0","pricing_plan_id":"cebpf4jnsgd1na2vs0mg"},{"bike_id":"496d9d23-0758-4b07-831b-1c112b733a7b","system_id":"levelo_inurba_marseille","lat":43.27918,"lon":5.37985,"is_reserved":false,"is_disabled":false,"rental_uris":{"android":"levelo://app?vid=496d9d23-0758-4b07-831b-1c112b733a7b","ios":"levelo://app?vid=496d9d23-0758-4b07-831b-1c112b733a7b"},"vehicle_type_id":"4","last_reported":1778356170,"current_range_meters":5600,"station_id":"ce4bhf92rcd13ifvqf50","pricing_plan_id":"cebpf4jnsgd1na2vs0mg"},{"bike_id":"136865c1-861e-4808-bdd6-86bfc13f7ee6","system_id":"levelo_inurba_marseille","lat":43.24625,"lon":5.41809,"is_reserved":false,"is_disabled":false,"rental_uris":{"android":"levelo://app?vid=136865c1-861e-4808-bdd6-86bfc13f7ee6","ios":"levelo://app?vid=136865c1-861e-4808-bdd6-86bfc13f7ee6"},"vehicle_type_id":"4","last_reported":1778356170,"current_range_meters":5600,"station_id":"","pricing_plan_id":"cebpf4jnsgd1na2vs0mg"},{"bike_id":"052ba0ff-1efd-45bf-a179-9941738bf622","system_id":"levelo_inurba_marseille","lat":43.27321,"lon":5.39127,"is_reserved":false,"is_disabled":false,"rental_uris":{"android":"levelo://app?vid=052ba0ff-1efd-45bf-a179-9941738bf622","ios":"levelo://app?vid=052ba0ff-1efd-45bf-a179-9941738bf622"},"vehicle_type_id":"4","last_reported":1778356170,"current_range_meters":6000,"station_id":"ce4bhgp2rcd13ifvqfe0","pricing_plan_id":"cebpf4jnsgd1na2vs0mg"},{"bike_id":"c697e4ab-e311-4735-b88a-50c7c706d7e6","system_id":"levelo_inurba_marseille","lat":43.26943,"lon":5.40258,"is_reserved":false,"is_disabled":false,"rental_uris":{"android":"levelo://app?vid=c697e4ab-e311-4735-b88a-50c7c706d7e6","ios":"levelo://app?vid=c697e4ab-e311-4735-b88a-50c7c706d7e6"},"vehicle_type_id":"4","last_reported":1778356170,"current_range_meters":6000,"station_id":"cjm6bp8fraef2m0cb0m0","pricing_plan_id":"cebpf4jnsgd1na2vs0mg"},{"bike_id":"0905bf26-d1df-4967-bcf7-a2c7f347956a","system_id":"levelo_inurba_marseille","lat":43.28942,"lon":5.39636,"is_reserved":false,"is_disabled":true,"rental_uris":{"android":"levelo://app?vid=0905bf26-d1df-4967-bcf7-a2c7f347956a","ios":"levelo://app?vid=0905bf26-d1df-4967-bcf7-a2c7f347956a"},"vehicle_type_id":"4","last_reported":1778356170,"current_range_meters":6000,"station_id":"ce4bh3h2rcd13ifvqdn0","pricing_plan_id":"cebpf4jnsgd1na2vs0mg"},{"bike_id":"a72a4bad-7473-4221-b947-1493b6657f86","system_id":"levelo_inurba_marseille","lat":43.29261,"lon":5.38451,"is_reserved":false,"is_disabled":false,"rental_uris":{"android":"levelo://app?vid=a72a4bad-7473-4221-b947-1493b6657f86","ios":"levelo://app?vid=a72a4bad-7473-4221-b947-1493b6657f86"},"vehicle_type_id":"4","last_reported":1778356170,"current_range_meters":6000,"station_id":"ce4bh692rcd13ifvqea0","pricing_plan_id":"cebpf4jnsgd1na2vs0mg"},{"bike_id":"3d6aabb2-897c-462b-b2a5-511a9ca22a13","system_id":"levelo_inurba_marseille","lat":43.29538,"lon":5.38542,"is_reserved":false,"is_disabled":false,"rental_uris":{"android":"levelo://app?vid=3d6aabb2-897c-462b-b2a5-511a9ca22a13","ios":"levelo://app?vid=3d6aabb2-897c-462b-b2a5-511a9ca22a13"},"vehicle_type_id":"4","last_reported":1778356170,"current_range_meters":6000,"station_id":"ce4bgih2rcd13ifvqba0","pricing_plan_id":"cebpf4jnsgd1na2vs0mg"},{"bike_id":"64ca439b-a2a6-4835-bc6b-b3a491984dcf","system_id":"levelo_inurba_marseille","lat":43.2727,"lon":5.39018,"is_reserved":false,"is_disabled":false,"rental_uris":{"android":"levelo://app?vid=64ca439b-a2a6-4835-bc6b-b3a491984dcf","ios":"levelo://app?vid=64ca439b-a2a6-4835-bc6b-b3a491984dcf"},"vehicle_type_id":"4","last_reported":1778356170,"current_range_meters":6000,"station_id":"","pricing_plan_id":"cebpf4jnsgd1na2vs0mg"},{"bike_id":"a20a2d39-2574-4c17-82d6-5d8d47cf07ff","system_id":"levelo_inurba_marseille","lat":43.3031,"lon":5.36892,"is_reserved":false,"is_disabled":false,"rental_uris":{"android":"levelo://app?vid=a20a2d39-2574-4c17-82d6-5d8d47cf07ff","ios":"levelo://app?vid=a20a2d39-2574-4c17-82d6-5d8d47cf07ff"},"vehicle_type_id":"4","last_reported":1778356170,"current_range_meters":6000,"station_id":"ce4bgqh2rcd13ifvqc5g","pricing_plan_id":"cebpf4jnsgd1na2vs0mg"},{"bike_id":"aad10db8-b026-409c-9558-2748d08f6222","system_id":"levelo_inurba_marseille","lat":43.2926,"lon":5.38444,"is_reserved":false,"is_disabled":false,"rental_uris":{"android":"levelo://app?vid=aad10db8-b026-409c-9558-2748d08f6222","ios":"levelo://app?vid=aad10db8-b026-409c-9558-2748d08f6222"},"vehicle_type_id":"4","last_reported":1778356170,"current_range_meters":6000,"station_id":"ce4bh692rcd13ifvqea0","pricing_plan_id":"cebpf4jnsgd1na2vs0mg"},{"bike_id":"65666ea9-4d4d-4171-8c55-ce4ebb06a6c0","system_id":"levelo_inurba_marseille","lat":43.28722,"lon":5.36095,"is_reserved":false,"is_disabled":false,"rental_uris":{"android":"levelo://app?vid=65666ea9-4d4d-4171-8c55-ce4ebb06a6c0","ios":"levelo://app?vid=65666ea9-4d4d-4171-8c55-ce4ebb06a6c0"},"vehicle_type_id":"4","last_reported":1778356170,"current_range_meters":6000,"station_id":"cki0cbj6b192h4jlfktg","pricing_plan_id":"cebpf4jnsgd1na2vs0mg"},{"bike_id":"ede8a63a-2c56-46c1-b549-940b666fa307","system_id":"levelo_inurba_marseille","lat":43.27328,"lon":5.39097,"is_reserved":false,"is_disabled":false,"rental_uris":{"android":"levelo://app?vid=ede8a63a-2c56-46c1-b549-940b666fa307","ios":"levelo://app?vid=ede8a63a-2c56-46c1-b549-940b666fa307"},"vehicle_type_id":"4","last_reported":1778356170,"current_range_meters":6000,"station_id":"ce4bhgp2rcd13ifvqfe0","pricing_plan_id":"cebpf4jnsgd1na2vs0mg"},{"bike_id":"5dda00a1-f787-488a-aa64-058079c40c64","system_id":"levelo_inurba_marseille","lat":43.26975,"lon":5.39248,"is_reserved":false,"is_disabled":false,"rental_uris":{"android":"levelo://app?vid=5dda00a1-f787-488a-aa64-058079c40c64","ios":"levelo://app?vid=5dda00a1-f787-488a-aa64-058079c40c64"},"vehicle_type_id":"4","last_reported":1778356170,"current_range_meters":6000,"station_id":"","pricing_plan_id":"cebpf4jnsgd1na2vs0mg"},{"bike_id":"4e439951-b038-4836-9ad5-387115b4b494","system_id":"levelo_inurba_marseille","lat":43.313612,"lon":5.38488,"is_reserved":false,"is_disabled":false,"rental_uris":{"android":"levelo://app?vid=4e439951-b038-4836-9ad5-387115b4b494","ios":"levelo://app?vid=4e439951-b038-4836-9ad5-387115b4b494"},"vehicle_type_id":"4","last_reported":1778356170,"current_range_meters":6000,"station_id":"ce4bgt92rcd13ifvqcf0","pricing_plan_id":"cebpf4jnsgd1na2vs0mg"},{"bike_id":"08e29f24-b26e-4e3f-a25f-c08599a622d5","system_id":"levelo_inurba_marseille","lat":43.29029,"lon":5.38642,"is_reserved":false,"is_disabled":false,"rental_uris":{"android":"levelo://app?vid=08e29f24-b26e-4e3f-a25f-c08599a622d5","ios":"levelo://app?vid=08e29f24-b26e-4e3f-a25f-c08599a622d5"},"vehicle_type_id":"4","last_reported":1778356170,"current_range_meters":6000,"station_id":"ce4bh4p2rcd13ifvqe0g","pricing_plan_id":"cebpf4jnsgd1na2vs0mg"},{"bike_id":"2ff9251c-7b0d-4f23-9ffb-0b20d3d095d6","system_id":"levelo_inurba_marseille","lat":43.2925,"lon":5.37614,"is_reserved":false,"is_disabled":false,"rental_uris":{"android":"levelo://app?vid=2ff9251c-7b0d-4f23-9ffb-0b20d3d095d6","ios":"levelo://app?vid=2ff9251c-7b0d-4f23-9ffb-0b20d3d095d6"},"vehicle_type_id":"4","last_reported":1778356170,"current_range_meters":6000,"station_id":"ce4bgi12rcd13ifvqb80","pricing_plan_id":"cebpf4jnsgd1na2vs0mg"},{"bike_id":"d9bc5efb-4529-4c79-b551-213ef29ab0f9","system_id":"levelo_inurba_marseille","lat":43.30112,"lon":5.39072,"is_reserved":false,"is_disabled":false,"rental_uris":{"android":"levelo://app?vid=d9bc5efb-4529-4c79-b551-213ef29ab0f9","ios":"levelo://app?vid=d9bc5efb-4529-4c79-b551-213ef29ab0f9"},"vehicle_type_id":"4","last_reported":1778356170,"current_range_meters":6000,"station_id":"ce4bh192rcd13ifvqdb0","pricing_plan_id":"cebpf4jnsgd1na2vs0mg"},{"bike_id":"80ce62aa-95db-4134-a27f-af6f321881d8","system_id":"levelo_inurba_marseille","lat":43.3303,"lon":5.39033,"is_reserved":false,"is_disabled":false,"rental_uris":{"android":"levelo://app?vid=80ce62aa-95db-4134-a27f-af6f321881d8","ios":"levelo://app?vid=80ce62aa-95db-4134-a27f-af6f321881d8"},"vehicle_type_id":"4","last_reported":1778356170,"current_range_meters":6000,"station_id":"ce4bhr92rcd13ifvqhrg","pricing_plan_id":"cebpf4jnsgd1na2vs0mg"},{"bike_id":"038f20db-53a0-417e-8564-80b1b53a64be","system_id":"levelo_inurba_marseille","lat":43.295319,"lon":5.385415,"is_reserved":false,"is_disabled":false,"rental_uris":{"android":"levelo://app?vid=038f20db-53a0-417e-8564-80b1b53a64be","ios":"levelo://app?vid=038f20db-53a0-417e-8564-80b1b53a64be"},"vehicle_type_id":"4","last_reported":1778356170,"current_range_meters":6000,"station_id":"ce4bgih2rcd13ifvqba0","pricing_plan_id":"cebpf4jnsgd1na2vs0mg"},{"bike_id":"d4b73cc5-f3e9-4c24-9184-b074a037f328","system_id":"levelo_inurba_marseille","lat":43.2722,"lon":5.39187,"is_reserved":false,"is_disabled":false,"rental_uris":{"android":"levelo://app?vid=d4b73cc5-f3e9-4c24-9184-b074a037f328","ios":"levelo://app?vid=d4b73cc5-f3e9-4c24-9184-b074a037f328"},"vehicle_type_id":"4","last_reported":1778356170,"current_range_meters":6000,"station_id":"ce4bhhp2rcd13ifvqfm0","pricing_plan_id":"cebpf4jnsgd1na2vs0mg"},{"bike_id":"b04be0b9-e1f1-4b3a-a624-da85cca3a01a","system_id":"levelo_inurba_marseille","lat":43.24615,"lon":5.38184,"is_reserved":false,"is_disabled":false,"rental_uris":{"android":"levelo://app?vid=b04be0b9-e1f1-4b3a-a624-da85cca3a01a","ios":"levelo://app?vid=b04be0b9-e1f1-4b3a-a624-da85cca3a01a"},"vehicle_type_id":"4","last_reported":1778356170,"current_range_meters":6000,"station_id":"","pricing_plan_id":"cebpf4jnsgd1na2vs0mg"},{"bike_id":"4d702a8b-2ea6-48df-8b31-80109eec24be","system_id":"levelo_inurba_marseille","lat":43.254941,"lon":5.376372,"is_reserved":false,"is_disabled":false,"rental_uris":{"android":"levelo://app?vid=4d702a8b-2ea6-48df-8b31-80109eec24be","ios":"levelo://app?vid=4d702a8b-2ea6-48df-8b31-80109eec24be"},"vehicle_type_id":"4","last_reported":1778356170,"current_range_meters":6000,"station_id":"ce4bhh12rcd13ifvqff0","pricing_plan_id":"cebpf4jnsgd1na2vs0mg"},{"bike_id":"0d5a0d46-4b64-47fb-9721-471fcabdf7db","system_id":"levelo_inurba_marseille","lat":43.28676,"lon":5.38671,"is_reserved":false,"is_disabled":false,"rental_uris":{"android":"levelo://app?vid=0d5a0d46-4b64-47fb-9721-471fcabdf7db","ios":"levelo://app?vid=0d5a0d46-4b64-47fb-9721-471fcabdf7db"},"vehicle_type_id":"4","last_reported":1778356170,"current_range_meters":6000,"station_id":"ce4bh492rcd13ifvqdug","pricing_plan_id":"cebpf4jnsgd1na2vs0mg"},{"bike_id":"45f8fdb7-2cb1-45b9-8a88-adeab1f325d7","system_id":"levelo_inurba_marseille","lat":43.29236,"lon":5.38328,"is_reserved":false,"is_disabled":false,"rental_uris":{"android":"levelo://app?vid=45f8fdb7-2cb1-45b9-8a88-adeab1f325d7","ios":"levelo://app?vid=45f8fdb7-2cb1-45b9-8a88-adeab1f325d7"},"vehicle_type_id":"4","last_reported":1778356170,"current_range_meters":6000,"station_id":"","pricing_plan_id":"cebpf4jnsgd1na2vs0mg"},{"bike_id":"ae1a1fa1-0ba2-444a-aafb-fc7dc82385cb","system_id":"levelo_inurba_marseille","lat":43.27319,"lon":5.390776,"is_reserved":false,"is_disabled":false,"rental_uris":{"android":"levelo://app?vid=ae1a1fa1-0ba2-444a-aafb-fc7dc82385cb","ios":"levelo://app?vid=ae1a1fa1-0ba2-444a-aafb-fc7dc82385cb"},"vehicle_type_id":"4","last_reported":1778356170,"current_range_meters":6400,"station_id":"ce4bhgp2rcd13ifvqfe0","pricing_plan_id":"cebpf4jnsgd1na2vs0mg"},{"bike_id":"7c7b344b-413d-40d3-808c-226d16a297cd","system_id":"levelo_inurba_marseille","lat":43.28565,"lon":5.39493,"is_reserved":false,"is_disabled":false,"rental_uris":{"android":"levelo://app?vid=7c7b344b-413d-40d3-808c-226d16a297cd","ios":"levelo://app?vid=7c7b344b-413d-40d3-808c-226d16a297cd"},"vehicle_type_id":"4","last_reported":1778356170,"current_range_meters":6400,"station_id":"ce4bh292rcd13ifvqdg0","pricing_plan_id":"cebpf4jnsgd1na2vs0mg"},{"bike_id":"e6bd8138-3d56-4ae6-9878-8794caa087c5","system_id":"levelo_inurba_marseille","lat":43.24464,"lon":5.42525,"is_reserved":false,"is_disabled":true,"rental_uris":{"android":"levelo://app?vid=e6bd8138-3d56-4ae6-9878-8794caa087c5","ios":"levelo://app?vid=e6bd8138-3d56-4ae6-9878-8794caa087c5"},"vehicle_type_id":"4","last_reported":1778356170,"current_range_meters":6400,"station_id":"st_d4a3vfp97mjs738cd8kg","pricing_plan_id":"cebpf4jnsgd1na2vs0mg"},{"bike_id":"3ec74314-bbf4-429f-ac5e-6a4b6cc1e740","system_id":"levelo_inurba_marseille","lat":43.29598,"lon":5.38095,"is_reserved":false,"is_disabled":false,"rental_uris":{"android":"levelo://app?vid=3ec74314-bbf4-429f-ac5e-6a4b6cc1e740","ios":"levelo://app?vid=3ec74314-bbf4-429f-ac5e-6a4b6cc1e740"},"vehicle_type_id":"4","last_reported":1778356170,"current_range_meters":6400,"station_id":"ce4bgl12rcd13ifvqbo0","pricing_plan_id":"cebpf4jnsgd1na2vs0mg"},{"bike_id":"b78f3633-ae6f-4946-91a4-54af91fb66d0","system_id":"levelo_inurba_marseille","lat":43.27953,"lon":5.38718,"is_reserved":false,"is_disabled":false,"rental_uris":{"android":"levelo://app?vid=b78f3633-ae6f-4946-91a4-54af91fb66d0","ios":"levelo://app?vid=b78f3633-ae6f-4946-91a4-54af91fb66d0"},"vehicle_type_id":"4","last_reported":1778356170,"current_range_meters":6400,"station_id":"ce4bhg12rcd13ifvqf80","pricing_plan_id":"cebpf4jnsgd1na2vs0mg"},{"bike_id":"9c6f744c-0e72-49bc-9387-3a540d0fe052","system_id":"levelo_inurba_marseille","lat":43.24817,"lon":5.37448,"is_reserved":false,"is_disabled":false,"rental_uris":{"android":"levelo://app?vid=9c6f744c-0e72-49bc-9387-3a540d0fe052","ios":"levelo://app?vid=9c6f744c-0e72-49bc-9387-3a540d0fe052"},"vehicle_type_id":"4","last_reported":1778356170,"current_range_meters":6400,"station_id":"ce4bhgh2rcd13ifvqfb0","pricing_plan_id":"cebpf4jnsgd1na2vs0mg"},{"bike_id":"ed48bdde-5fab-468a-9175-6b9f745e29ac","system_id":"levelo_inurba_marseille","lat":43.30843,"lon":5.38285,"is_reserved":false,"is_disabled":false,"rental_uris":{"android":"levelo://app?vid=ed48bdde-5fab-468a-9175-6b9f745e29ac","ios":"levelo://app?vid=ed48bdde-5fab-468a-9175-6b9f745e29ac"},"vehicle_type_id":"4","last_reported":1778356170,"current_range_meters":6400,"station_id":"ce4bgt12rcd13ifvqce0","pricing_plan_id":"cebpf4jnsgd1na2vs0mg"},{"bike_id":"7a97d9f9-918f-460d-89df-53a0f74093da","system_id":"levelo_inurba_marseille","lat":43.29228,"lon":5.39633,"is_reserved":false,"is_disabled":false,"rental_uris":{"android":"levelo://app?vid=7a97d9f9-918f-460d-89df-53a0f74093da","ios":"levelo://app?vid=7a97d9f9-918f-460d-89df-53a0f74093da"},"vehicle_type_id":"4","last_reported":1778356170,"current_range_meters":6400,"station_id":"","pricing_plan_id":"cebpf4jnsgd1na2vs0mg"},{"bike_id":"a30008ae-a2df-4129-8ea6-0f377536b8ba","system_id":"levelo_inurba_marseille","lat":43.321,"lon":5.36775,"is_reserved":false,"is_disabled":false,"rental_uris":{"android":"levelo://app?vid=a30008ae-a2df-4129-8ea6-0f377536b8ba","ios":"levelo://app?vid=a30008ae-a2df-4129-8ea6-0f377536b8ba"},"vehicle_type_id":"4","last_reported":1778356170,"current_range_meters":6400,"station_id":"ce4bhrh2rcd13ifvqhug","pricing_plan_id":"cebpf4jnsgd1na2vs0mg"},{"bike_id":"82d18990-3bc8-442d-ae7c-bfbcae851806","system_id":"levelo_inurba_marseille","lat":43.30128,"lon":5.38787,"is_reserved":false,"is_disabled":false,"rental_uris":{"android":"levelo://app?vid=82d18990-3bc8-442d-ae7c-bfbcae851806","ios":"levelo://app?vid=82d18990-3bc8-442d-ae7c-bfbcae851806"},"vehicle_type_id":"4","last_reported":1778356170,"current_range_meters":6400,"station_id":"ce4bghh2rcd13ifvqb60","pricing_plan_id":"cebpf4jnsgd1na2vs0mg"},{"bike_id":"ac669cf6-3802-49e7-8567-a514ce79081d","system_id":"levelo_inurba_marseille","lat":43.29111,"lon":5.38525,"is_reserved":false,"is_disabled":true,"rental_uris":{"android":"levelo://app?vid=ac669cf6-3802-49e7-8567-a514ce79081d","ios":"levelo://app?vid=ac669cf6-3802-49e7-8567-a514ce79081d"},"vehicle_type_id":"4","last_reported":1778356170,"current_range_meters":6400,"station_id":"","pricing_plan_id":"cebpf4jnsgd1na2vs0mg"},{"bike_id":"cdd1c56b-20c6-495d-a768-c65949e84a42","system_id":"levelo_inurba_marseille","lat":43.26949,"lon":5.40242,"is_reserved":false,"is_disabled":false,"rental_uris":{"android":"levelo://app?vid=cdd1c56b-20c6-495d-a768-c65949e84a42","ios":"levelo://app?vid=cdd1c56b-20c6-495d-a768-c65949e84a42"},"vehicle_type_id":"4","last_reported":1778356170,"current_range_meters":6400,"station_id":"cjm6bp8fraef2m0cb0m0","pricing_plan_id":"cebpf4jnsgd1na2vs0mg"},{"bike_id":"c32661d8-2da8-4ddd-b087-54ab5080d50c","system_id":"levelo_inurba_marseille","lat":43.24948,"lon":5.40508,"is_reserved":false,"is_disabled":false,"rental_uris":{"android":"levelo://app?vid=c32661d8-2da8-4ddd-b087-54ab5080d50c","ios":"levelo://app?vid=c32661d8-2da8-4ddd-b087-54ab5080d50c"},"vehicle_type_id":"4","last_reported":1778356170,"current_range_meters":6400,"station_id":"st_d2ngiaodas8pm72gd1h0","pricing_plan_id":"cebpf4jnsgd1na2vs0mg"},{"bike_id":"b1eefa37-96ae-4f95-a344-438091e1d04d","system_id":"levelo_inurba_marseille","lat":43.31037,"lon":5.39382,"is_reserved":false,"is_disabled":false,"rental_uris":{"android":"levelo://app?vid=b1eefa37-96ae-4f95-a344-438091e1d04d","ios":"levelo://app?vid=b1eefa37-96ae-4f95-a344-438091e1d04d"},"vehicle_type_id":"4","last_reported":1778356170,"current_range_meters":6400,"station_id":"","pricing_plan_id":"cebpf4jnsgd1na2vs0mg"},{"bike_id":"4c1ad0ad-f9d6-4835-98f8-eca37e662a45","system_id":"levelo_inurba_marseille","lat":43.29314,"lon":5.37153,"is_reserved":false,"is_disabled":false,"rental_uris":{"android":"levelo://app?vid=4c1ad0ad-f9d6-4835-98f8-eca37e662a45","ios":"levelo://app?vid=4c1ad0ad-f9d6-4835-98f8-eca37e662a45"},"vehicle_type_id":"4","last_reported":1778356170,"current_range_meters":6400,"station_id":"ce4bgh92rcd13ifvqb40","pricing_plan_id":"cebpf4jnsgd1na2vs0mg"},{"bike_id":"296921d4-d837-47f5-8f08-d0f78154b13e","system_id":"levelo_inurba_marseille","lat":43.29773,"lon":5.38118,"is_reserved":false,"is_disabled":false,"rental_uris":{"android":"levelo://app?vid=296921d4-d837-47f5-8f08-d0f78154b13e","ios":"levelo://app?vid=296921d4-d837-47f5-8f08-d0f78154b13e"},"vehicle_type_id":"4","last_reported":1778356170,"current_range_meters":6400,"station_id":"ce4bgip2rcd13ifvqbb0","pricing_plan_id":"cebpf4jnsgd1na2vs0mg"},{"bike_id":"fd15faf6-f969-4bda-be30-e042b3108596","system_id":"levelo_inurba_marseille","lat":43.26377,"lon":5.41075,"is_reserved":false,"is_disabled":false,"rental_uris":{"android":"levelo://app?vid=fd15faf6-f969-4bda-be30-e042b3108596","ios":"levelo://app?vid=fd15faf6-f969-4bda-be30-e042b3108596"},"vehicle_type_id":"4","last_reported":1778356170,"current_range_meters":6400,"station_id":"st_d4e5ca6na9uc73bfl5fg","pricing_plan_id":"cebpf4jnsgd1na2vs0mg"},{"bike_id":"0259c7f9-4a67-468b-967d-555f1f780b18","system_id":"levelo_inurba_marseille","lat":43.24659,"lon":5.38166,"is_reserved":false,"is_disabled":false,"rental_uris":{"android":"levelo://app?vid=0259c7f9-4a67-468b-967d-555f1f780b18","ios":"levelo://app?vid=0259c7f9-4a67-468b-967d-555f1f780b18"},"vehicle_type_id":"4","last_reported":1778356170,"current_range_meters":6400,"station_id":"ce4bhih2rcd13ifvqfr0","pricing_plan_id":"cebpf4jnsgd1na2vs0mg"},{"bike_id":"7f40cbde-87c3-42fc-aa50-19e2d097a2b7","system_id":"levelo_inurba_marseille","lat":43.27202,"lon":5.39175,"is_reserved":false,"is_disabled":false,"rental_uris":{"android":"levelo://app?vid=7f40cbde-87c3-42fc-aa50-19e2d097a2b7","ios":"levelo://app?vid=7f40cbde-87c3-42fc-aa50-19e2d097a2b7"},"vehicle_type_id":"4","last_reported":1778356170,"current_range_meters":6400,"station_id":"ce4bhhp2rcd13ifvqfm0","pricing_plan_id":"cebpf4jnsgd1na2vs0mg"},{"bike_id":"6dfe43ac-6131-42a7-8c3d-86b7cfec6e79","system_id":"levelo_inurba_marseille","lat":43.29022,"lon":5.3723,"is_reserved":false,"is_disabled":false,"rental_uris":{"android":"levelo://app?vid=6dfe43ac-6131-42a7-8c3d-86b7cfec6e79","ios":"levelo://app?vid=6dfe43ac-6131-42a7-8c3d-86b7cfec6e79"},"vehicle_type_id":"4","last_reported":1778356170,"current_range_meters":6400,"station_id":"","pricing_plan_id":"cebpf4jnsgd1na2vs0mg"},{"bike_id":"6a9ad11d-0524-4a35-9372-775dbb1b20dc","system_id":"levelo_inurba_marseille","lat":43.295964,"lon":5.380876,"is_reserved":false,"is_disabled":false,"rental_uris":{"android":"levelo://app?vid=6a9ad11d-0524-4a35-9372-775dbb1b20dc","ios":"levelo://app?vid=6a9ad11d-0524-4a35-9372-775dbb1b20dc"},"vehicle_type_id":"4","last_reported":1778356170,"current_range_meters":6400,"station_id":"ce4bgl12rcd13ifvqbo0","pricing_plan_id":"cebpf4jnsgd1na2vs0mg"},{"bike_id":"cbea87e0-9891-4123-8e6d-591b1f44dfdf","system_id":"levelo_inurba_marseille","lat":43.28614,"lon":5.3987,"is_reserved":false,"is_disabled":false,"rental_uris":{"android":"levelo://app?vid=cbea87e0-9891-4123-8e6d-591b1f44dfdf","ios":"levelo://app?vid=cbea87e0-9891-4123-8e6d-591b1f44dfdf"},"vehicle_type_id":"4","last_reported":1778356170,"current_range_meters":6400,"station_id":"st_d4a7ka997mjs738ck50g","pricing_plan_id":"cebpf4jnsgd1na2vs0mg"},{"bike_id":"627ea465-4e71-4046-a508-023e31352421","system_id":"levelo_inurba_marseille","lat":43.25056,"lon":5.40549,"is_reserved":false,"is_disabled":false,"rental_uris":{"android":"levelo://app?vid=627ea465-4e71-4046-a508-023e31352421","ios":"levelo://app?vid=627ea465-4e71-4046-a508-023e31352421"},"vehicle_type_id":"4","last_reported":1778356170,"current_range_meters":6400,"station_id":"","pricing_plan_id":"cebpf4jnsgd1na2vs0mg"},{"bike_id":"15302377-13d7-47ae-ad35-76e3359c1b35","system_id":"levelo_inurba_marseille","lat":43.29535,"lon":5.39032,"is_reserved":false,"is_disabled":false,"rental_uris":{"android":"levelo://app?vid=15302377-13d7-47ae-ad35-76e3359c1b35","ios":"levelo://app?vid=15302377-13d7-47ae-ad35-76e3359c1b35"},"vehicle_type_id":"4","last_reported":1778356170,"current_range_meters":6400,"station_id":"ce4bh3p2rcd13ifvqdp0","pricing_plan_id":"cebpf4jnsgd1na2vs0mg"},{"bike_id":"cccda472-7561-4978-9b74-a8c6197a578e","system_id":"levelo_inurba_marseille","lat":43.33152,"lon":5.37693,"is_reserved":false,"is_disabled":false,"rental_uris":{"android":"levelo://app?vid=cccda472-7561-4978-9b74-a8c6197a578e","ios":"levelo://app?vid=cccda472-7561-4978-9b74-a8c6197a578e"},"vehicle_type_id":"4","last_reported":1778356170,"current_range_meters":6400,"station_id":"st_d46cu089ee8s73dldbu0","pricing_plan_id":"cebpf4jnsgd1na2vs0mg"},{"bike_id":"bbbb4391-9a01-4f67-b38e-ccd9563146c4","system_id":"levelo_inurba_marseille","lat":43.23182,"lon":5.39986,"is_reserved":false,"is_disabled":false,"rental_uris":{"android":"levelo://app?vid=bbbb4391-9a01-4f67-b38e-ccd9563146c4","ios":"levelo://app?vid=bbbb4391-9a01-4f67-b38e-ccd9563146c4"},"vehicle_type_id":"4","last_reported":1778356170,"current_range_meters":6400,"station_id":"ce4bhn12rcd13ifvqgqg","pricing_plan_id":"cebpf4jnsgd1na2vs0mg"},{"bike_id":"aa46b65e-59a2-4e04-8ae5-e4deb8393e11","system_id":"levelo_inurba_marseille","lat":43.27215,"lon":5.39175,"is_reserved":false,"is_disabled":false,"rental_uris":{"android":"levelo://app?vid=aa46b65e-59a2-4e04-8ae5-e4deb8393e11","ios":"levelo://app?vid=aa46b65e-59a2-4e04-8ae5-e4deb8393e11"},"vehicle_type_id":"4","last_reported":1778356170,"current_range_meters":6400,"station_id":"ce4bhhp2rcd13ifvqfm0","pricing_plan_id":"cebpf4jnsgd1na2vs0mg"},{"bike_id":"6eec760c-5e8b-4ec2-8818-5088580d0e9c","system_id":"levelo_inurba_marseille","lat":43.25174,"lon":5.37455,"is_reserved":false,"is_disabled":false,"rental_uris":{"android":"levelo://app?vid=6eec760c-5e8b-4ec2-8818-5088580d0e9c","ios":"levelo://app?vid=6eec760c-5e8b-4ec2-8818-5088580d0e9c"},"vehicle_type_id":"4","last_reported":1778356170,"current_range_meters":6400,"station_id":"","pricing_plan_id":"cebpf4jnsgd1na2vs0mg"},{"bike_id":"2a9350d8-84a8-4aa8-a1c7-35bc993f67c8","system_id":"levelo_inurba_marseille","lat":43.29219,"lon":5.36079,"is_reserved":false,"is_disabled":false,"rental_uris":{"android":"levelo://app?vid=2a9350d8-84a8-4aa8-a1c7-35bc993f67c8","ios":"levelo://app?vid=2a9350d8-84a8-4aa8-a1c7-35bc993f67c8"},"vehicle_type_id":"4","last_reported":1778356170,"current_range_meters":6800,"station_id":"ce4bhbh2rcd13ifvqeqg","pricing_plan_id":"cebpf4jnsgd1na2vs0mg"},{"bike_id":"9823859d-b573-4d6a-89ad-070fcef1fd02","system_id":"levelo_inurba_marseille","lat":43.268,"lon":5.40269,"is_reserved":false,"is_disabled":false,"rental_uris":{"android":"levelo://app?vid=9823859d-b573-4d6a-89ad-070fcef1fd02","ios":"levelo://app?vid=9823859d-b573-4d6a-89ad-070fcef1fd02"},"vehicle_type_id":"4","last_reported":1778356170,"current_range_meters":6800,"station_id":"ce501612rcd8frsf0b60","pricing_plan_id":"cebpf4jnsgd1na2vs0mg"},{"bike_id":"9a45abed-8a50-4591-a381-dce67a2e04c0","system_id":"levelo_inurba_marseille","lat":43.29793,"lon":5.39346,"is_reserved":false,"is_disabled":true,"rental_uris":{"android":"levelo://app?vid=9a45abed-8a50-4591-a381-dce67a2e04c0","ios":"levelo://app?vid=9a45abed-8a50-4591-a381-dce67a2e04c0"},"vehicle_type_id":"4","last_reported":1778356170,"current_range_meters":6800,"station_id":"chh1huq6cuj3fo74tm60","pricing_plan_id":"cebpf4jnsgd1na2vs0mg"},{"bike_id":"f539bb17-16cf-4505-8a99-d64e79a69d9e","system_id":"levelo_inurba_marseille","lat":43.32102,"lon":5.36761,"is_reserved":false,"is_disabled":false,"rental_uris":{"android":"levelo://app?vid=f539bb17-16cf-4505-8a99-d64e79a69d9e","ios":"levelo://app?vid=f539bb17-16cf-4505-8a99-d64e79a69d9e"},"vehicle_type_id":"4","last_reported":1778356170,"current_range_meters":6800,"station_id":"ce4bhrh2rcd13ifvqhug","pricing_plan_id":"cebpf4jnsgd1na2vs0mg"},{"bike_id":"6027c78f-4acb-4c82-b846-a908464aca88","system_id":"levelo_inurba_marseille","lat":43.30307,"lon":5.36874,"is_reserved":false,"is_disabled":false,"rental_uris":{"android":"levelo://app?vid=6027c78f-4acb-4c82-b846-a908464aca88","ios":"levelo://app?vid=6027c78f-4acb-4c82-b846-a908464aca88"},"vehicle_type_id":"4","last_reported":1778356170,"current_range_meters":6800,"station_id":"ce4bgqh2rcd13ifvqc5g","pricing_plan_id":"cebpf4jnsgd1na2vs0mg"},{"bike_id":"234d937c-0a51-4b7b-a5da-54c58b1cfe2d","system_id":"levelo_inurba_marseille","lat":43.30521,"lon":5.36709,"is_reserved":false,"is_disabled":true,"rental_uris":{"android":"levelo://app?vid=234d937c-0a51-4b7b-a5da-54c58b1cfe2d","ios":"levelo://app?vid=234d937c-0a51-4b7b-a5da-54c58b1cfe2d"},"vehicle_type_id":"4","last_reported":1778356170,"current_range_meters":6800,"station_id":"ce4bgrp2rcd13ifvqc9g","pricing_plan_id":"cebpf4jnsgd1na2vs0mg"},{"bike_id":"f422b51e-1ef9-42a2-8365-1d33f807a8e0","system_id":"levelo_inurba_marseille","lat":43.2389,"lon":5.37462,"is_reserved":false,"is_disabled":true,"rental_uris":{"android":"levelo://app?vid=f422b51e-1ef9-42a2-8365-1d33f807a8e0","ios":"levelo://app?vid=f422b51e-1ef9-42a2-8365-1d33f807a8e0"},"vehicle_type_id":"4","last_reported":1778356170,"current_range_meters":6800,"station_id":"st_d6sm7csbq4hs73f8fpjg","pricing_plan_id":"cebpf4jnsgd1na2vs0mg"},{"bike_id":"d5b1780b-e346-4f12-b171-c0fd994c9f82","system_id":"levelo_inurba_marseille","lat":43.2693,"lon":5.40248,"is_reserved":false,"is_disabled":false,"rental_uris":{"android":"levelo://app?vid=d5b1780b-e346-4f12-b171-c0fd994c9f82","ios":"levelo://app?vid=d5b1780b-e346-4f12-b171-c0fd994c9f82"},"vehicle_type_id":"4","last_reported":1778356170,"current_range_meters":6800,"station_id":"cjm6bp8fraef2m0cb0m0","pricing_plan_id":"cebpf4jnsgd1na2vs0mg"},{"bike_id":"4dec3f77-862e-461b-9f36-19a99cad7900","system_id":"levelo_inurba_marseille","lat":43.26566,"lon":5.39005,"is_reserved":false,"is_disabled":false,"rental_uris":{"android":"levelo://app?vid=4dec3f77-862e-461b-9f36-19a99cad7900","ios":"levelo://app?vid=4dec3f77-862e-461b-9f36-19a99cad7900"},"vehicle_type_id":"4","last_reported":1778356170,"current_range_meters":6800,"station_id":"ce4bhe12rcd13ifvqf30","pricing_plan_id":"cebpf4jnsgd1na2vs0mg"},{"bike_id":"74a938f2-f578-4294-9976-174677fe2f35","system_id":"levelo_inurba_marseille","lat":43.295,"lon":5.43307,"is_reserved":false,"is_disabled":false,"rental_uris":{"android":"levelo://app?vid=74a938f2-f578-4294-9976-174677fe2f35","ios":"levelo://app?vid=74a938f2-f578-4294-9976-174677fe2f35"},"vehicle_type_id":"4","last_reported":1778356170,"current_range_meters":6800,"station_id":"st_d3j5ugp08ojc73fj9d10","pricing_plan_id":"cebpf4jnsgd1na2vs0mg"},{"bike_id":"bf199b2e-2f10-4962-a950-e1d2d8cd97cb","system_id":"levelo_inurba_marseille","lat":43.28043,"lon":5.35375,"is_reserved":false,"is_disabled":false,"rental_uris":{"android":"levelo://app?vid=bf199b2e-2f10-4962-a950-e1d2d8cd97cb","ios":"levelo://app?vid=bf199b2e-2f10-4962-a950-e1d2d8cd97cb"},"vehicle_type_id":"4","last_reported":1778356170,"current_range_meters":6800,"station_id":"","pricing_plan_id":"cebpf4jnsgd1na2vs0mg"},{"bike_id":"0cdbcb90-cdfd-41b2-b3ad-5d18561f62ca","system_id":"levelo_inurba_marseille","lat":43.29536,"lon":5.38531,"is_reserved":false,"is_disabled":false,"rental_uris":{"android":"levelo://app?vid=0cdbcb90-cdfd-41b2-b3ad-5d18561f62ca","ios":"levelo://app?vid=0cdbcb90-cdfd-41b2-b3ad-5d18561f62ca"},"vehicle_type_id":"4","last_reported":1778356170,"current_range_meters":6800,"station_id":"ce4bgih2rcd13ifvqba0","pricing_plan_id":"cebpf4jnsgd1na2vs0mg"},{"bike_id":"1b055812-bcf8-4e5f-910e-e0fe2bb3c5fe","system_id":"levelo_inurba_marseille","lat":43.28944,"lon":5.36637,"is_reserved":false,"is_disabled":false,"rental_uris":{"android":"levelo://app?vid=1b055812-bcf8-4e5f-910e-e0fe2bb3c5fe","ios":"levelo://app?vid=1b055812-bcf8-4e5f-910e-e0fe2bb3c5fe"},"vehicle_type_id":"4","last_reported":1778356170,"current_range_meters":6800,"station_id":"ce4bhap2rcd13ifvqek0","pricing_plan_id":"cebpf4jnsgd1na2vs0mg"},{"bike_id":"0459c2a8-c413-48e7-a118-d2b5e126c8f8","system_id":"levelo_inurba_marseille","lat":43.26778,"lon":5.39422,"is_reserved":false,"is_disabled":false,"rental_uris":{"android":"levelo://app?vid=0459c2a8-c413-48e7-a118-d2b5e126c8f8","ios":"levelo://app?vid=0459c2a8-c413-48e7-a118-d2b5e126c8f8"},"vehicle_type_id":"4","last_reported":1778356170,"current_range_meters":6800,"station_id":"ce4bhh12rcd13ifvqfg0","pricing_plan_id":"cebpf4jnsgd1na2vs0mg"},{"bike_id":"8dae212c-7c3d-42c7-9535-8f7780f6eecd","system_id":"levelo_inurba_marseille","lat":43.28708,"lon":5.37948,"is_reserved":false,"is_disabled":false,"rental_uris":{"android":"levelo://app?vid=8dae212c-7c3d-42c7-9535-8f7780f6eecd","ios":"levelo://app?vid=8dae212c-7c3d-42c7-9535-8f7780f6eecd"},"vehicle_type_id":"4","last_reported":1778356170,"current_range_meters":6800,"station_id":"ce4bh9p2rcd13ifvqec0","pricing_plan_id":"cebpf4jnsgd1na2vs0mg"},{"bike_id":"0152740e-06db-4ade-88eb-e3632fbb8a1f","system_id":"levelo_inurba_marseille","lat":43.28297,"lon":5.35063,"is_reserved":false,"is_disabled":true,"rental_uris":{"android":"levelo://app?vid=0152740e-06db-4ade-88eb-e3632fbb8a1f","ios":"levelo://app?vid=0152740e-06db-4ade-88eb-e3632fbb8a1f"},"vehicle_type_id":"4","last_reported":1778356170,"current_range_meters":6800,"station_id":"ce4bhbp2rcd13ifvqerg","pricing_plan_id":"cebpf4jnsgd1na2vs0mg"},{"bike_id":"f62f892b-35da-4575-91cd-6ff29b858255","system_id":"levelo_inurba_marseille","lat":43.29984,"lon":5.38472,"is_reserved":false,"is_disabled":true,"rental_uris":{"android":"levelo://app?vid=f62f892b-35da-4575-91cd-6ff29b858255","ios":"levelo://app?vid=f62f892b-35da-4575-91cd-6ff29b858255"},"vehicle_type_id":"4","last_reported":1778356170,"current_range_meters":6800,"station_id":"ce4bgj92rcd13ifvqbd0","pricing_plan_id":"cebpf4jnsgd1na2vs0mg"},{"bike_id":"f83958a3-45ab-46c9-bebc-e01c5686e9c5","system_id":"levelo_inurba_marseille","lat":43.29843,"lon":5.36285,"is_reserved":false,"is_disabled":false,"rental_uris":{"android":"levelo://app?vid=f83958a3-45ab-46c9-bebc-e01c5686e9c5","ios":"levelo://app?vid=f83958a3-45ab-46c9-bebc-e01c5686e9c5"},"vehicle_type_id":"4","last_reported":1778356170,"current_range_meters":6800,"station_id":"ce4bgpp2rcd13ifvqc3g","pricing_plan_id":"cebpf4jnsgd1na2vs0mg"},{"bike_id":"d450aa31-a41b-4132-b097-69a46cdb9c7c","system_id":"levelo_inurba_marseille","lat":43.29616,"lon":5.38103,"is_reserved":false,"is_disabled":false,"rental_uris":{"android":"levelo://app?vid=d450aa31-a41b-4132-b097-69a46cdb9c7c","ios":"levelo://app?vid=d450aa31-a41b-4132-b097-69a46cdb9c7c"},"vehicle_type_id":"4","last_reported":1778356170,"current_range_meters":6800,"station_id":"ce4bgl12rcd13ifvqbo0","pricing_plan_id":"cebpf4jnsgd1na2vs0mg"},{"bike_id":"7ab5c60f-aa12-49fb-978d-56d9b566674c","system_id":"levelo_inurba_marseille","lat":43.29302,"lon":5.38411,"is_reserved":false,"is_disabled":false,"rental_uris":{"android":"levelo://app?vid=7ab5c60f-aa12-49fb-978d-56d9b566674c","ios":"levelo://app?vid=7ab5c60f-aa12-49fb-978d-56d9b566674c"},"vehicle_type_id":"4","last_reported":1778356170,"current_range_meters":6800,"station_id":"ce4bh692rcd13ifvqea0","pricing_plan_id":"cebpf4jnsgd1na2vs0mg"},{"bike_id":"d0422a3d-e193-4cef-8d02-e1260b86002b","system_id":"levelo_inurba_marseille","lat":43.2927,"lon":5.37617,"is_reserved":false,"is_disabled":true,"rental_uris":{"android":"levelo://app?vid=d0422a3d-e193-4cef-8d02-e1260b86002b","ios":"levelo://app?vid=d0422a3d-e193-4cef-8d02-e1260b86002b"},"vehicle_type_id":"4","last_reported":1778356170,"current_range_meters":7200,"station_id":"ce4bgi12rcd13ifvqb80","pricing_plan_id":"cebpf4jnsgd1na2vs0mg"},{"bike_id":"261442be-df01-487c-b82d-848abe824608","system_id":"levelo_inurba_marseille","lat":43.26248,"lon":5.40479,"is_reserved":false,"is_disabled":false,"rental_uris":{"android":"levelo://app?vid=261442be-df01-487c-b82d-848abe824608","ios":"levelo://app?vid=261442be-df01-487c-b82d-848abe824608"},"vehicle_type_id":"4","last_reported":1778356170,"current_range_meters":7200,"station_id":"ce4bhmh2rcd13ifvqgmg","pricing_plan_id":"cebpf4jnsgd1na2vs0mg"},{"bike_id":"6185c6b4-782e-4ff8-b9f0-cc828921242d","system_id":"levelo_inurba_marseille","lat":43.27089,"lon":5.42301,"is_reserved":false,"is_disabled":false,"rental_uris":{"android":"levelo://app?vid=6185c6b4-782e-4ff8-b9f0-cc828921242d","ios":"levelo://app?vid=6185c6b4-782e-4ff8-b9f0-cc828921242d"},"vehicle_type_id":"4","last_reported":1778356170,"current_range_meters":7200,"station_id":"ce4bhk92rcd13ifvqgb0","pricing_plan_id":"cebpf4jnsgd1na2vs0mg"},{"bike_id":"4fd5b212-cba9-47fe-a389-1fe7b66457c2","system_id":"levelo_inurba_marseille","lat":43.30318,"lon":5.36896,"is_reserved":false,"is_disabled":false,"rental_uris":{"android":"levelo://app?vid=4fd5b212-cba9-47fe-a389-1fe7b66457c2","ios":"levelo://app?vid=4fd5b212-cba9-47fe-a389-1fe7b66457c2"},"vehicle_type_id":"4","last_reported":1778356170,"current_range_meters":7200,"station_id":"ce4bgqh2rcd13ifvqc5g","pricing_plan_id":"cebpf4jnsgd1na2vs0mg"},{"bike_id":"a59e4862-a677-4338-acb9-45b1ca5db8d4","system_id":"levelo_inurba_marseille","lat":43.29541,"lon":5.38544,"is_reserved":false,"is_disabled":false,"rental_uris":{"android":"levelo://app?vid=a59e4862-a677-4338-acb9-45b1ca5db8d4","ios":"levelo://app?vid=a59e4862-a677-4338-acb9-45b1ca5db8d4"},"vehicle_type_id":"4","last_reported":1778356170,"current_range_meters":7200,"station_id":"ce4bgih2rcd13ifvqba0","pricing_plan_id":"cebpf4jnsgd1na2vs0mg"},{"bike_id":"3c5f0f52-deec-4478-b1b8-43df5890b0b6","system_id":"levelo_inurba_marseille","lat":43.23949,"lon":5.36662,"is_reserved":false,"is_disabled":false,"rental_uris":{"android":"levelo://app?vid=3c5f0f52-deec-4478-b1b8-43df5890b0b6","ios":"levelo://app?vid=3c5f0f52-deec-4478-b1b8-43df5890b0b6"},"vehicle_type_id":"4","last_reported":1778356170,"current_range_meters":7200,"station_id":"ce4bhi12rcd13ifvqfp0","pricing_plan_id":"cebpf4jnsgd1na2vs0mg"},{"bike_id":"4a09775a-a802-431c-9a22-0b7f36fe45c8","system_id":"levelo_inurba_marseille","lat":43.24812,"lon":5.37458,"is_reserved":false,"is_disabled":false,"rental_uris":{"android":"levelo://app?vid=4a09775a-a802-431c-9a22-0b7f36fe45c8","ios":"levelo://app?vid=4a09775a-a802-431c-9a22-0b7f36fe45c8"},"vehicle_type_id":"4","last_reported":1778356170,"current_range_meters":7200,"station_id":"ce4bhgh2rcd13ifvqfb0","pricing_plan_id":"cebpf4jnsgd1na2vs0mg"},{"bike_id":"a0bd567e-1c56-4070-a0d6-197fcb4bf449","system_id":"levelo_inurba_marseille","lat":43.262194,"lon":5.404515,"is_reserved":false,"is_disabled":false,"rental_uris":{"android":"levelo://app?vid=a0bd567e-1c56-4070-a0d6-197fcb4bf449","ios":"levelo://app?vid=a0bd567e-1c56-4070-a0d6-197fcb4bf449"},"vehicle_type_id":"4","last_reported":1778356170,"current_range_meters":7200,"station_id":"ce4bhmh2rcd13ifvqgmg","pricing_plan_id":"cebpf4jnsgd1na2vs0mg"},{"bike_id":"cdd278be-6985-4e01-a1e8-4899861427d9","system_id":"levelo_inurba_marseille","lat":43.25816,"lon":5.39447,"is_reserved":false,"is_disabled":false,"rental_uris":{"android":"levelo://app?vid=cdd278be-6985-4e01-a1e8-4899861427d9","ios":"levelo://app?vid=cdd278be-6985-4e01-a1e8-4899861427d9"},"vehicle_type_id":"4","last_reported":1778356170,"current_range_meters":7200,"station_id":"ce4bhip2rcd13ifvqft0","pricing_plan_id":"cebpf4jnsgd1na2vs0mg"},{"bike_id":"f43779d5-16c9-4f97-95b2-2f1f51b6ba6b","system_id":"levelo_inurba_marseille","lat":43.30892,"lon":5.37215,"is_reserved":false,"is_disabled":false,"rental_uris":{"android":"levelo://app?vid=f43779d5-16c9-4f97-95b2-2f1f51b6ba6b","ios":"levelo://app?vid=f43779d5-16c9-4f97-95b2-2f1f51b6ba6b"},"vehicle_type_id":"4","last_reported":1778356170,"current_range_meters":7200,"station_id":"ce4bguh2rcd13ifvqckg","pricing_plan_id":"cebpf4jnsgd1na2vs0mg"},{"bike_id":"264dd0a7-16d8-48c6-b8bf-1ef756773377","system_id":"levelo_inurba_marseille","lat":43.31868,"lon":5.36814,"is_reserved":false,"is_disabled":false,"rental_uris":{"android":"levelo://app?vid=264dd0a7-16d8-48c6-b8bf-1ef756773377","ios":"levelo://app?vid=264dd0a7-16d8-48c6-b8bf-1ef756773377"},"vehicle_type_id":"4","last_reported":1778356170,"current_range_meters":7200,"station_id":"st_d6o2h0d0559c73evc1b0","pricing_plan_id":"cebpf4jnsgd1na2vs0mg"},{"bike_id":"51d5b294-35d0-46bc-bba3-28f79376e313","system_id":"levelo_inurba_marseille","lat":43.28403,"lon":5.37522,"is_reserved":false,"is_disabled":false,"rental_uris":{"android":"levelo://app?vid=51d5b294-35d0-46bc-bba3-28f79376e313","ios":"levelo://app?vid=51d5b294-35d0-46bc-bba3-28f79376e313"},"vehicle_type_id":"4","last_reported":1778356170,"current_range_meters":7200,"station_id":"ce4bh412rcd13ifvqds0","pricing_plan_id":"cebpf4jnsgd1na2vs0mg"},{"bike_id":"9ad0ed79-58f9-4fdb-a428-5fe7fae086e3","system_id":"levelo_inurba_marseille","lat":43.27884,"lon":5.39592,"is_reserved":false,"is_disabled":false,"rental_uris":{"android":"levelo://app?vid=9ad0ed79-58f9-4fdb-a428-5fe7fae086e3","ios":"levelo://app?vid=9ad0ed79-58f9-4fdb-a428-5fe7fae086e3"},"vehicle_type_id":"4","last_reported":1778356170,"current_range_meters":7200,"station_id":"ce4bhf92rcd13ifvqf40","pricing_plan_id":"cebpf4jnsgd1na2vs0mg"},{"bike_id":"4bc6302e-723c-444e-9c1c-2353d2969136","system_id":"levelo_inurba_marseille","lat":43.29461,"lon":5.39607,"is_reserved":false,"is_disabled":true,"rental_uris":{"android":"levelo://app?vid=4bc6302e-723c-444e-9c1c-2353d2969136","ios":"levelo://app?vid=4bc6302e-723c-444e-9c1c-2353d2969136"},"vehicle_type_id":"4","last_reported":1778356170,"current_range_meters":7200,"station_id":"","pricing_plan_id":"cebpf4jnsgd1na2vs0mg"},{"bike_id":"8e8aab5d-f56d-4268-b84e-65829c53a53f","system_id":"levelo_inurba_marseille","lat":43.26566,"lon":5.37264,"is_reserved":false,"is_disabled":false,"rental_uris":{"android":"levelo://app?vid=8e8aab5d-f56d-4268-b84e-65829c53a53f","ios":"levelo://app?vid=8e8aab5d-f56d-4268-b84e-65829c53a53f"},"vehicle_type_id":"4","last_reported":1778356170,"current_range_meters":7200,"station_id":"ce4bhg12rcd13ifvqf70","pricing_plan_id":"cebpf4jnsgd1na2vs0mg"},{"bike_id":"95933e9c-7ba9-4b40-885b-ee99b4b99507","system_id":"levelo_inurba_marseille","lat":43.272052,"lon":5.39177,"is_reserved":false,"is_disabled":false,"rental_uris":{"android":"levelo://app?vid=95933e9c-7ba9-4b40-885b-ee99b4b99507","ios":"levelo://app?vid=95933e9c-7ba9-4b40-885b-ee99b4b99507"},"vehicle_type_id":"4","last_reported":1778356170,"current_range_meters":7200,"station_id":"ce4bhhp2rcd13ifvqfm0","pricing_plan_id":"cebpf4jnsgd1na2vs0mg"},{"bike_id":"d0c3eba1-29cb-420f-87af-ab83217d8171","system_id":"levelo_inurba_marseille","lat":43.292738,"lon":5.401112,"is_reserved":false,"is_disabled":false,"rental_uris":{"android":"levelo://app?vid=d0c3eba1-29cb-420f-87af-ab83217d8171","ios":"levelo://app?vid=d0c3eba1-29cb-420f-87af-ab83217d8171"},"vehicle_type_id":"4","last_reported":1778356170,"current_range_meters":7200,"station_id":"ce4bh312rcd13ifvqdk0","pricing_plan_id":"cebpf4jnsgd1na2vs0mg"},{"bike_id":"f3758075-160d-44c2-97e0-82223eea1b45","system_id":"levelo_inurba_marseille","lat":43.27208,"lon":5.39192,"is_reserved":false,"is_disabled":false,"rental_uris":{"android":"levelo://app?vid=f3758075-160d-44c2-97e0-82223eea1b45","ios":"levelo://app?vid=f3758075-160d-44c2-97e0-82223eea1b45"},"vehicle_type_id":"4","last_reported":1778356170,"current_range_meters":7200,"station_id":"ce4bhhp2rcd13ifvqfm0","pricing_plan_id":"cebpf4jnsgd1na2vs0mg"},{"bike_id":"887fd6a9-4130-4158-a98a-2d6a96c9d6a7","system_id":"levelo_inurba_marseille","lat":43.27937,"lon":5.41043,"is_reserved":false,"is_disabled":false,"rental_uris":{"android":"levelo://app?vid=887fd6a9-4130-4158-a98a-2d6a96c9d6a7","ios":"levelo://app?vid=887fd6a9-4130-4158-a98a-2d6a96c9d6a7"},"vehicle_type_id":"4","last_reported":1778356170,"current_range_meters":7200,"station_id":"ce4bhnp2rcd13ifvqh0g","pricing_plan_id":"cebpf4jnsgd1na2vs0mg"},{"bike_id":"73919402-a747-4e87-ae7d-f2ce6d335f64","system_id":"levelo_inurba_marseille","lat":43.29974,"lon":5.37192,"is_reserved":false,"is_disabled":false,"rental_uris":{"android":"levelo://app?vid=73919402-a747-4e87-ae7d-f2ce6d335f64","ios":"levelo://app?vid=73919402-a747-4e87-ae7d-f2ce6d335f64"},"vehicle_type_id":"4","last_reported":1778356170,"current_range_meters":7200,"station_id":"ce4bgr92rcd13ifvqc7g","pricing_plan_id":"cebpf4jnsgd1na2vs0mg"},{"bike_id":"bb423f61-aacc-4850-b46f-9e886a2c189d","system_id":"levelo_inurba_marseille","lat":43.2929,"lon":5.38428,"is_reserved":false,"is_disabled":false,"rental_uris":{"android":"levelo://app?vid=bb423f61-aacc-4850-b46f-9e886a2c189d","ios":"levelo://app?vid=bb423f61-aacc-4850-b46f-9e886a2c189d"},"vehicle_type_id":"4","last_reported":1778356170,"current_range_meters":7200,"station_id":"ce4bh692rcd13ifvqea0","pricing_plan_id":"cebpf4jnsgd1na2vs0mg"},{"bike_id":"3e63ca9f-52b9-4901-a1d9-7f430e423bd0","system_id":"levelo_inurba_marseille","lat":43.3143,"lon":5.44183,"is_reserved":false,"is_disabled":false,"rental_uris":{"android":"levelo://app?vid=3e63ca9f-52b9-4901-a1d9-7f430e423bd0","ios":"levelo://app?vid=3e63ca9f-52b9-4901-a1d9-7f430e423bd0"},"vehicle_type_id":"4","last_reported":1778356170,"current_range_meters":7200,"station_id":"","pricing_plan_id":"cebpf4jnsgd1na2vs0mg"},{"bike_id":"8b80413f-a588-4c80-b9ab-248e9205a096","system_id":"levelo_inurba_marseille","lat":43.24384,"lon":5.37055,"is_reserved":false,"is_disabled":false,"rental_uris":{"android":"levelo://app?vid=8b80413f-a588-4c80-b9ab-248e9205a096","ios":"levelo://app?vid=8b80413f-a588-4c80-b9ab-248e9205a096"},"vehicle_type_id":"4","last_reported":1778356170,"current_range_meters":7200,"station_id":"ce4bhhh2rcd13ifvqfk0","pricing_plan_id":"cebpf4jnsgd1na2vs0mg"},{"bike_id":"1e0ff7a5-cf49-44a5-8fcd-1964e4c88462","system_id":"levelo_inurba_marseille","lat":43.28574,"lon":5.39497,"is_reserved":false,"is_disabled":false,"rental_uris":{"android":"levelo://app?vid=1e0ff7a5-cf49-44a5-8fcd-1964e4c88462","ios":"levelo://app?vid=1e0ff7a5-cf49-44a5-8fcd-1964e4c88462"},"vehicle_type_id":"4","last_reported":1778356170,"current_range_meters":7200,"station_id":"ce4bh292rcd13ifvqdg0","pricing_plan_id":"cebpf4jnsgd1na2vs0mg"},{"bike_id":"306ace20-368b-46a2-ab76-1ee8399b7bd8","system_id":"levelo_inurba_marseille","lat":43.298,"lon":5.40404,"is_reserved":false,"is_disabled":false,"rental_uris":{"android":"levelo://app?vid=306ace20-368b-46a2-ab76-1ee8399b7bd8","ios":"levelo://app?vid=306ace20-368b-46a2-ab76-1ee8399b7bd8"},"vehicle_type_id":"4","last_reported":1778356170,"current_range_meters":8000,"station_id":"ce4bh112rcd13ifvqd90","pricing_plan_id":"cebpf4jnsgd1na2vs0mg"},{"bike_id":"97f964d8-1b4e-4439-a5e5-5bf9eca1819d","system_id":"levelo_inurba_marseille","lat":43.26366,"lon":5.41065,"is_reserved":false,"is_disabled":false,"rental_uris":{"android":"levelo://app?vid=97f964d8-1b4e-4439-a5e5-5bf9eca1819d","ios":"levelo://app?vid=97f964d8-1b4e-4439-a5e5-5bf9eca1819d"},"vehicle_type_id":"4","last_reported":1778356170,"current_range_meters":8000,"station_id":"st_d4e5ca6na9uc73bfl5fg","pricing_plan_id":"cebpf4jnsgd1na2vs0mg"},{"bike_id":"798edaef-bd54-4368-9500-a6ad4811f4c9","system_id":"levelo_inurba_marseille","lat":43.272,"lon":5.39192,"is_reserved":false,"is_disabled":false,"rental_uris":{"android":"levelo://app?vid=798edaef-bd54-4368-9500-a6ad4811f4c9","ios":"levelo://app?vid=798edaef-bd54-4368-9500-a6ad4811f4c9"},"vehicle_type_id":"4","last_reported":1778356170,"current_range_meters":8000,"station_id":"ce4bhhp2rcd13ifvqfm0","pricing_plan_id":"cebpf4jnsgd1na2vs0mg"},{"bike_id":"24b614b1-21fe-4a2b-a521-7a850622da21","system_id":"levelo_inurba_marseille","lat":43.2397,"lon":5.36624,"is_reserved":false,"is_disabled":false,"rental_uris":{"android":"levelo://app?vid=24b614b1-21fe-4a2b-a521-7a850622da21","ios":"levelo://app?vid=24b614b1-21fe-4a2b-a521-7a850622da21"},"vehicle_type_id":"4","last_reported":1778356170,"current_range_meters":8000,"station_id":"ce4bhi12rcd13ifvqfp0","pricing_plan_id":"cebpf4jnsgd1na2vs0mg"},{"bike_id":"d6aa3b2f-3029-4676-9089-14b4fb6bf286","system_id":"levelo_inurba_marseille","lat":43.28708,"lon":5.46667,"is_reserved":false,"is_disabled":false,"rental_uris":{"android":"levelo://app?vid=d6aa3b2f-3029-4676-9089-14b4fb6bf286","ios":"levelo://app?vid=d6aa3b2f-3029-4676-9089-14b4fb6bf286"},"vehicle_type_id":"4","last_reported":1778356170,"current_range_meters":8000,"station_id":"st_d6tc3vkotcvc738tfjhg","pricing_plan_id":"cebpf4jnsgd1na2vs0mg"},{"bike_id":"242c0a5b-ef41-4fa8-8523-9af43945809d","system_id":"levelo_inurba_marseille","lat":43.24395,"lon":5.37049,"is_reserved":false,"is_disabled":true,"rental_uris":{"android":"levelo://app?vid=242c0a5b-ef41-4fa8-8523-9af43945809d","ios":"levelo://app?vid=242c0a5b-ef41-4fa8-8523-9af43945809d"},"vehicle_type_id":"4","last_reported":1778356170,"current_range_meters":8000,"station_id":"ce4bhhh2rcd13ifvqfk0","pricing_plan_id":"cebpf4jnsgd1na2vs0mg"},{"bike_id":"c8ab128c-d505-40a6-89d2-6fbad2c876bc","system_id":"levelo_inurba_marseille","lat":43.29605,"lon":5.38088,"is_reserved":false,"is_disabled":false,"rental_uris":{"android":"levelo://app?vid=c8ab128c-d505-40a6-89d2-6fbad2c876bc","ios":"levelo://app?vid=c8ab128c-d505-40a6-89d2-6fbad2c876bc"},"vehicle_type_id":"4","last_reported":1778356170,"current_range_meters":8000,"station_id":"ce4bgl12rcd13ifvqbo0","pricing_plan_id":"cebpf4jnsgd1na2vs0mg"},{"bike_id":"79f2a195-c1d7-4545-8ee1-e2f28860b4d7","system_id":"levelo_inurba_marseille","lat":43.30958,"lon":5.39032,"is_reserved":false,"is_disabled":false,"rental_uris":{"android":"levelo://app?vid=79f2a195-c1d7-4545-8ee1-e2f28860b4d7","ios":"levelo://app?vid=79f2a195-c1d7-4545-8ee1-e2f28860b4d7"},"vehicle_type_id":"4","last_reported":1778356170,"current_range_meters":8000,"station_id":"ce4bgup2rcd13ifvqco0","pricing_plan_id":"cebpf4jnsgd1na2vs0mg"},{"bike_id":"41e821f9-d05f-4ef8-a6d6-c613a1df1d14","system_id":"levelo_inurba_marseille","lat":43.2679,"lon":5.39393,"is_reserved":false,"is_disabled":false,"rental_uris":{"android":"levelo://app?vid=41e821f9-d05f-4ef8-a6d6-c613a1df1d14","ios":"levelo://app?vid=41e821f9-d05f-4ef8-a6d6-c613a1df1d14"},"vehicle_type_id":"4","last_reported":1778356170,"current_range_meters":8000,"station_id":"ce4bhh12rcd13ifvqfg0","pricing_plan_id":"cebpf4jnsgd1na2vs0mg"},{"bike_id":"68234306-3737-4701-9a6f-8b470725aad8","system_id":"levelo_inurba_marseille","lat":43.29815,"lon":5.38092,"is_reserved":false,"is_disabled":false,"rental_uris":{"android":"levelo://app?vid=68234306-3737-4701-9a6f-8b470725aad8","ios":"levelo://app?vid=68234306-3737-4701-9a6f-8b470725aad8"},"vehicle_type_id":"4","last_reported":1778356170,"current_range_meters":8000,"station_id":"ce4bgip2rcd13ifvqbb0","pricing_plan_id":"cebpf4jnsgd1na2vs0mg"},{"bike_id":"808c4ecd-9bba-4ef5-91dc-62b4109dcc93","system_id":"levelo_inurba_marseille","lat":43.29531,"lon":5.38567,"is_reserved":false,"is_disabled":true,"rental_uris":{"android":"levelo://app?vid=808c4ecd-9bba-4ef5-91dc-62b4109dcc93","ios":"levelo://app?vid=808c4ecd-9bba-4ef5-91dc-62b4109dcc93"},"vehicle_type_id":"4","last_reported":1778356170,"current_range_meters":8000,"station_id":"ce4bgih2rcd13ifvqba0","pricing_plan_id":"cebpf4jnsgd1na2vs0mg"},{"bike_id":"9e9ec8bd-39f4-44d5-9150-2fe5a0480717","system_id":"levelo_inurba_marseille","lat":43.29037,"lon":5.38652,"is_reserved":false,"is_disabled":false,"rental_uris":{"android":"levelo://app?vid=9e9ec8bd-39f4-44d5-9150-2fe5a0480717","ios":"levelo://app?vid=9e9ec8bd-39f4-44d5-9150-2fe5a0480717"},"vehicle_type_id":"4","last_reported":1778356170,"current_range_meters":8000,"station_id":"ce4bh4p2rcd13ifvqe0g","pricing_plan_id":"cebpf4jnsgd1na2vs0mg"},{"bike_id":"5e1f5986-ff69-4a2b-bb48-a1076b1b32aa","system_id":"levelo_inurba_marseille","lat":43.293091,"lon":5.374487,"is_reserved":false,"is_disabled":true,"rental_uris":{"android":"levelo://app?vid=5e1f5986-ff69-4a2b-bb48-a1076b1b32aa","ios":"levelo://app?vid=5e1f5986-ff69-4a2b-bb48-a1076b1b32aa"},