{"last_updated":1718208565,"ttl":30,"version":"2.2","data":{"bikes":[{"bike_id":"c6a926bb-b77f-448e-a49c-3bd16aac1220","system_id":"levelo_inurba_marseille","lat":43.309076,"lon":5.368465,"is_reserved":false,"is_disabled":false,"rental_uris":{"android":"levelo://app?vid=c6a926bb-b77f-448e-a49c-3bd16aac1220","ios":"levelo://app?vid=c6a926bb-b77f-448e-a49c-3bd16aac1220"},"vehicle_type_id":"4","last_reported":1718208565,"current_range_meters":31200,"station_id":"ce4bgn92rcd13ifvqbvg","pricing_plan_id":"cebpf4jnsgd1na2vs0mg"},{"bike_id":"de27f82e-81d6-42cc-9854-7ad08b628ee0","system_id":"levelo_inurba_marseille","lat":43.3151,"lon":5.37119,"is_reserved":false,"is_disabled":false,"rental_uris":{"android":"levelo://app?vid=de27f82e-81d6-42cc-9854-7ad08b628ee0","ios":"levelo://app?vid=de27f82e-81d6-42cc-9854-7ad08b628ee0"},"vehicle_type_id":"4","last_reported":1718208565,"current_range_meters":20000,"station_id":"","pricing_plan_id":"cebpf4jnsgd1na2vs0mg"},{"bike_id":"9367d9e2-479c-495b-b290-35f0b06f62fc","system_id":"levelo_inurba_marseille","lat":43.309039,"lon":5.371797,"is_reserved":false,"is_disabled":false,"rental_uris":{"android":"levelo://app?vid=9367d9e2-479c-495b-b290-35f0b06f62fc","ios":"levelo://app?vid=9367d9e2-479c-495b-b290-35f0b06f62fc"},"vehicle_type_id":"4","last_reported":1718208565,"current_range_meters":11200,"station_id":"ce4bguh2rcd13ifvqckg","pricing_plan_id":"cebpf4jnsgd1na2vs0mg"},{"bike_id":"03b45d1d-f071-4954-9ab6-263d3c041903","system_id":"levelo_inurba_marseille","lat":43.291994,"lon":5.357886,"is_reserved":false,"is_disabled":false,"rental_uris":{"android":"levelo://app?vid=03b45d1d-f071-4954-9ab6-263d3c041903","ios":"levelo://app?vid=03b45d1d-f071-4954-9ab6-263d3c041903"},"vehicle_type_id":"4","last_reported":1718208565,"current_range_meters":2400,"station_id":"ce4bhb12rcd13ifvqel0","pricing_plan_id":"cebpf4jnsgd1na2vs0mg"},{"bike_id":"030556c2-bd4c-4c42-b124-f697674f3b78","system_id":"levelo_inurba_marseille","lat":43.30557,"lon":5.36538,"is_reserved":false,"is_disabled":false,"rental_uris":{"android":"levelo://app?vid=030556c2-bd4c-4c42-b124-f697674f3b78","ios":"levelo://app?vid=030556c2-bd4c-4c42-b124-f697674f3b78"},"vehicle_type_id":"4","last_reported":1718208565,"current_range_meters":0,"station_id":"ce4bgs12rcd13ifvqcag","pricing_plan_id":"cebpf4jnsgd1na2vs0mg"},{"bike_id":"26404b06-de9d-494f-a164-208ef7d3536e","system_id":"levelo_inurba_marseille","lat":43.305714,"lon":5.365633,"is_reserved":false,"is_disabled":false,"rental_uris":{"android":"levelo://app?vid=26404b06-de9d-494f-a164-208ef7d3536e","ios":"levelo://app?vid=26404b06-de9d-494f-a164-208ef7d3536e"},"vehicle_type_id":"4","last_reported":1718208565,"current_range_meters":24000,"station_id":"ce4bgs12rcd13ifvqcag","pricing_plan_id":"cebpf4jnsgd1na2vs0mg"},{"bike_id":"56d515a3-295c-40cd-b46c-a42526b390c7","system_id":"levelo_inurba_marseille","lat":43.305989,"lon":5.37225,"is_reserved":false,"is_disabled":false,"rental_uris":{"android":"levelo://app?vid=56d515a3-295c-40cd-b46c-a42526b390c7","ios":"levelo://app?vid=56d515a3-295c-40cd-b46c-a42526b390c7"},"vehicle_type_id":"4","last_reported":1718208565,"current_range_meters":31200,"station_id":"ce4bgqh2rcd13ifvqc4g","pricing_plan_id":"cebpf4jnsgd1na2vs0mg"},{"bike_id":"b41d7a27-79aa-48dd-942d-1f61edd9c029","system_id":"levelo_inurba_marseille","lat":43.306,"lon":5.37228,"is_reserved":false,"is_disabled":false,"rental_uris":{"android":"levelo://app?vid=b41d7a27-79aa-48dd-942d-1f61edd9c029","ios":"levelo://app?vid=b41d7a27-79aa-48dd-942d-1f61edd9c029"},"vehicle_type_id":"4","last_reported":1718208565,"current_range_meters":0,"station_id":"ce4bgqh2rcd13ifvqc4g","pricing_plan_id":"cebpf4jnsgd1na2vs0mg"},{"bike_id":"c1e936fb-a393-43ed-aaa3-a7c48817b8a6","system_id":"levelo_inurba_marseille","lat":43.311131,"lon":5.377651,"is_reserved":false,"is_disabled":false,"rental_uris":{"android":"levelo://app?vid=c1e936fb-a393-43ed-aaa3-a7c48817b8a6","ios":"levelo://app?vid=c1e936fb-a393-43ed-aaa3-a7c48817b8a6"},"vehicle_type_id":"4","last_reported":1718208565,"current_range_meters":18800,"station_id":"ce4bgt92rcd13ifvqcg0","pricing_plan_id":"cebpf4jnsgd1na2vs0mg"},{"bike_id":"e903bfab-3a17-4e0d-8f52-d28a5f5422c1","system_id":"levelo_inurba_marseille","lat":43.31121,"lon":5.37762,"is_reserved":false,"is_disabled":false,"rental_uris":{"android":"levelo://app?vid=e903bfab-3a17-4e0d-8f52-d28a5f5422c1","ios":"levelo://app?vid=e903bfab-3a17-4e0d-8f52-d28a5f5422c1"},"vehicle_type_id":"4","last_reported":1718208565,"current_range_meters":7200,"station_id":"ce4bgt92rcd13ifvqcg0","pricing_plan_id":"cebpf4jnsgd1na2vs0mg"},{"bike_id":"37a1c30e-71e4-4576-98df-ddf9c5c85a50","system_id":"levelo_inurba_marseille","lat":43.311131,"lon":5.377651,"is_reserved":false,"is_disabled":false,"rental_uris":{"android":"levelo://app?vid=37a1c30e-71e4-4576-98df-ddf9c5c85a50","ios":"levelo://app?vid=37a1c30e-71e4-4576-98df-ddf9c5c85a50"},"vehicle_type_id":"4","last_reported":1718208565,"current_range_meters":14400,"station_id":"ce4bgt92rcd13ifvqcg0","pricing_plan_id":"cebpf4jnsgd1na2vs0mg"},{"bike_id":"e60b3e85-5c6f-405d-b3ab-77ef40d003ae","system_id":"levelo_inurba_marseille","lat":43.317075,"lon":5.377367,"is_reserved":false,"is_disabled":false,"rental_uris":{"android":"levelo://app?vid=e60b3e85-5c6f-405d-b3ab-77ef40d003ae","ios":"levelo://app?vid=e60b3e85-5c6f-405d-b3ab-77ef40d003ae"},"vehicle_type_id":"4","last_reported":1718208565,"current_range_meters":31200,"station_id":"ce4bgth2rcd13ifvqch0","pricing_plan_id":"cebpf4jnsgd1na2vs0mg"},{"bike_id":"23dcc354-6d2e-47d9-8435-fde98a98569e","system_id":"levelo_inurba_marseille","lat":43.31715,"lon":5.37748,"is_reserved":false,"is_disabled":false,"rental_uris":{"android":"levelo://app?vid=23dcc354-6d2e-47d9-8435-fde98a98569e","ios":"levelo://app?vid=23dcc354-6d2e-47d9-8435-fde98a98569e"},"vehicle_type_id":"4","last_reported":1718208565,"current_range_meters":6400,"station_id":"ce4bgth2rcd13ifvqch0","pricing_plan_id":"cebpf4jnsgd1na2vs0mg"},{"bike_id":"35789b9d-9910-4d32-bf73-edf50450d829","system_id":"levelo_inurba_marseille","lat":43.31708,"lon":5.37756,"is_reserved":false,"is_disabled":false,"rental_uris":{"android":"levelo://app?vid=35789b9d-9910-4d32-bf73-edf50450d829","ios":"levelo://app?vid=35789b9d-9910-4d32-bf73-edf50450d829"},"vehicle_type_id":"4","last_reported":1718208565,"current_range_meters":1600,"station_id":"ce4bgth2rcd13ifvqch0","pricing_plan_id":"cebpf4jnsgd1na2vs0mg"},{"bike_id":"13599b67-6dfb-4f1d-a2a9-a84945bfd428","system_id":"levelo_inurba_marseille","lat":43.311125,"lon":5.377624,"is_reserved":false,"is_disabled":false,"rental_uris":{"android":"levelo://app?vid=13599b67-6dfb-4f1d-a2a9-a84945bfd428","ios":"levelo://app?vid=13599b67-6dfb-4f1d-a2a9-a84945bfd428"},"vehicle_type_id":"4","last_reported":1718208565,"current_range_meters":17200,"station_id":"ce4bgt92rcd13ifvqcg0","pricing_plan_id":"cebpf4jnsgd1na2vs0mg"},{"bike_id":"0753991c-23c9-48a4-a509-5deb091c9d5c","system_id":"levelo_inurba_marseille","lat":43.315289,"lon":5.380349,"is_reserved":false,"is_disabled":false,"rental_uris":{"android":"levelo://app?vid=0753991c-23c9-48a4-a509-5deb091c9d5c","ios":"levelo://app?vid=0753991c-23c9-48a4-a509-5deb091c9d5c"},"vehicle_type_id":"4","last_reported":1718208565,"current_range_meters":24800,"station_id":"ce4bhsp2rcd13ifvqi50","pricing_plan_id":"cebpf4jnsgd1na2vs0mg"},{"bike_id":"5e03af04-8e3b-4680-a621-235023244159","system_id":"levelo_inurba_marseille","lat":43.301939,"lon":5.366286,"is_reserved":false,"is_disabled":false,"rental_uris":{"android":"levelo://app?vid=5e03af04-8e3b-4680-a621-235023244159","ios":"levelo://app?vid=5e03af04-8e3b-4680-a621-235023244159"},"vehicle_type_id":"4","last_reported":1718208565,"current_range_meters":12400,"station_id":"ce4bgrh2rcd13ifvqc8g","pricing_plan_id":"cebpf4jnsgd1na2vs0mg"},{"bike_id":"bd666d51-5fee-4c1e-86e2-f922d74d56ee","system_id":"levelo_inurba_marseille","lat":43.311131,"lon":5.377651,"is_reserved":false,"is_disabled":false,"rental_uris":{"android":"levelo://app?vid=bd666d51-5fee-4c1e-86e2-f922d74d56ee","ios":"levelo://app?vid=bd666d51-5fee-4c1e-86e2-f922d74d56ee"},"vehicle_type_id":"4","last_reported":1718208565,"current_range_meters":2800,"station_id":"ce4bgt92rcd13ifvqcg0","pricing_plan_id":"cebpf4jnsgd1na2vs0mg"},{"bike_id":"52946cb6-d9f7-47a0-810d-2bdf16755360","system_id":"levelo_inurba_marseille","lat":43.311131,"lon":5.377651,"is_reserved":false,"is_disabled":false,"rental_uris":{"android":"levelo://app?vid=52946cb6-d9f7-47a0-810d-2bdf16755360","ios":"levelo://app?vid=52946cb6-d9f7-47a0-810d-2bdf16755360"},"vehicle_type_id":"4","last_reported":1718208565,"current_range_meters":0,"station_id":"ce4bgt92rcd13ifvqcg0","pricing_plan_id":"cebpf4jnsgd1na2vs0mg"},{"bike_id":"a04b28ea-2f50-4933-8b26-09cc1d607a74","system_id":"levelo_inurba_marseille","lat":43.308012,"lon":5.381511,"is_reserved":false,"is_disabled":false,"rental_uris":{"android":"levelo://app?vid=a04b28ea-2f50-4933-8b26-09cc1d607a74","ios":"levelo://app?vid=a04b28ea-2f50-4933-8b26-09cc1d607a74"},"vehicle_type_id":"4","last_reported":1718208565,"current_range_meters":27600,"station_id":"ce4bgt12rcd13ifvqce0","pricing_plan_id":"cebpf4jnsgd1na2vs0mg"},{"bike_id":"6ac2abf1-a4f3-448a-9fa4-20284ff693f0","system_id":"levelo_inurba_marseille","lat":43.308012,"lon":5.381511,"is_reserved":false,"is_disabled":false,"rental_uris":{"android":"levelo://app?vid=6ac2abf1-a4f3-448a-9fa4-20284ff693f0","ios":"levelo://app?vid=6ac2abf1-a4f3-448a-9fa4-20284ff693f0"},"vehicle_type_id":"4","last_reported":1718208565,"current_range_meters":25200,"station_id":"ce4bgt12rcd13ifvqce0","pricing_plan_id":"cebpf4jnsgd1na2vs0mg"},{"bike_id":"af49a630-7c19-4de5-82c5-d51a48860d66","system_id":"levelo_inurba_marseille","lat":43.308012,"lon":5.381511,"is_reserved":false,"is_disabled":false,"rental_uris":{"android":"levelo://app?vid=af49a630-7c19-4de5-82c5-d51a48860d66","ios":"levelo://app?vid=af49a630-7c19-4de5-82c5-d51a48860d66"},"vehicle_type_id":"4","last_reported":1718208565,"current_range_meters":22800,"station_id":"ce4bgt12rcd13ifvqce0","pricing_plan_id":"cebpf4jnsgd1na2vs0mg"},{"bike_id":"f4a3cebe-fcf4-48fd-aa43-2089ab2bd07a","system_id":"levelo_inurba_marseille","lat":43.308012,"lon":5.381511,"is_reserved":false,"is_disabled":false,"rental_uris":{"android":"levelo://app?vid=f4a3cebe-fcf4-48fd-aa43-2089ab2bd07a","ios":"levelo://app?vid=f4a3cebe-fcf4-48fd-aa43-2089ab2bd07a"},"vehicle_type_id":"4","last_reported":1718208565,"current_range_meters":24400,"station_id":"ce4bgt12rcd13ifvqce0","pricing_plan_id":"cebpf4jnsgd1na2vs0mg"},{"bike_id":"5e3e5cce-95e9-4895-8e79-d005aeb54c74","system_id":"levelo_inurba_marseille","lat":43.30795,"lon":5.38166,"is_reserved":false,"is_disabled":false,"rental_uris":{"android":"levelo://app?vid=5e3e5cce-95e9-4895-8e79-d005aeb54c74","ios":"levelo://app?vid=5e3e5cce-95e9-4895-8e79-d005aeb54c74"},"vehicle_type_id":"4","last_reported":1718208565,"current_range_meters":14000,"station_id":"","pricing_plan_id":"cebpf4jnsgd1na2vs0mg"},{"bike_id":"01ca70b6-4e2c-42cb-9aed-a8b80d5ea29c","system_id":"levelo_inurba_marseille","lat":43.30686,"lon":5.38091,"is_reserved":false,"is_disabled":false,"rental_uris":{"android":"levelo://app?vid=01ca70b6-4e2c-42cb-9aed-a8b80d5ea29c","ios":"levelo://app?vid=01ca70b6-4e2c-42cb-9aed-a8b80d5ea29c"},"vehicle_type_id":"4","last_reported":1718208565,"current_range_meters":7200,"station_id":"","pricing_plan_id":"cebpf4jnsgd1na2vs0mg"},{"bike_id":"51cb6e27-963c-4961-b882-c5fad533269a","system_id":"levelo_inurba_marseille","lat":43.30461,"lon":5.379,"is_reserved":false,"is_disabled":false,"rental_uris":{"android":"levelo://app?vid=51cb6e27-963c-4961-b882-c5fad533269a","ios":"levelo://app?vid=51cb6e27-963c-4961-b882-c5fad533269a"},"vehicle_type_id":"4","last_reported":1718208565,"current_range_meters":3200,"station_id":"ce4bgup2rcd13ifvqcn0","pricing_plan_id":"cebpf4jnsgd1na2vs0mg"},{"bike_id":"b6084133-3748-425b-bdc1-454c4ff11ef9","system_id":"levelo_inurba_marseille","lat":43.304274,"lon":5.388873,"is_reserved":false,"is_disabled":false,"rental_uris":{"android":"levelo://app?vid=b6084133-3748-425b-bdc1-454c4ff11ef9","ios":"levelo://app?vid=b6084133-3748-425b-bdc1-454c4ff11ef9"},"vehicle_type_id":"4","last_reported":1718208565,"current_range_meters":18800,"station_id":"ce4bgk12rcd13ifvqbi0","pricing_plan_id":"cebpf4jnsgd1na2vs0mg"},{"bike_id":"4ea48f3f-ef52-461f-b82a-0f2efa8469a6","system_id":"levelo_inurba_marseille","lat":43.324771,"lon":5.36557,"is_reserved":false,"is_disabled":false,"rental_uris":{"android":"levelo://app?vid=4ea48f3f-ef52-461f-b82a-0f2efa8469a6","ios":"levelo://app?vid=4ea48f3f-ef52-461f-b82a-0f2efa8469a6"},"vehicle_type_id":"4","last_reported":1718208565,"current_range_meters":18000,"station_id":"ce4bhs12rcd13ifvqhvg","pricing_plan_id":"cebpf4jnsgd1na2vs0mg"},{"bike_id":"cc0b5893-5a11-4c1e-821b-cf0243a0eec1","system_id":"levelo_inurba_marseille","lat":43.324771,"lon":5.36557,"is_reserved":false,"is_disabled":false,"rental_uris":{"android":"levelo://app?vid=cc0b5893-5a11-4c1e-821b-cf0243a0eec1","ios":"levelo://app?vid=cc0b5893-5a11-4c1e-821b-cf0243a0eec1"},"vehicle_type_id":"4","last_reported":1718208565,"current_range_meters":1200,"station_id":"ce4bhs12rcd13ifvqhvg","pricing_plan_id":"cebpf4jnsgd1na2vs0mg"},{"bike_id":"c76a9da4-701e-4e13-a6bf-e6677cfe1732","system_id":"levelo_inurba_marseille","lat":43.302784,"lon":5.377158,"is_reserved":false,"is_disabled":false,"rental_uris":{"android":"levelo://app?vid=c76a9da4-701e-4e13-a6bf-e6677cfe1732","ios":"levelo://app?vid=c76a9da4-701e-4e13-a6bf-e6677cfe1732"},"vehicle_type_id":"4","last_reported":1718208565,"current_range_meters":22400,"station_id":"ce4bguh2rcd13ifvqcj0","pricing_plan_id":"cebpf4jnsgd1na2vs0mg"},{"bike_id":"90b48c56-f422-4064-b618-07dd87ed92dc","system_id":"levelo_inurba_marseille","lat":43.301429,"lon":5.37413,"is_reserved":false,"is_disabled":false,"rental_uris":{"android":"levelo://app?vid=90b48c56-f422-4064-b618-07dd87ed92dc","ios":"levelo://app?vid=90b48c56-f422-4064-b618-07dd87ed92dc"},"vehicle_type_id":"4","last_reported":1718208565,"current_range_meters":16000,"station_id":"ce4bgs92rcd13ifvqcc0","pricing_plan_id":"cebpf4jnsgd1na2vs0mg"},{"bike_id":"afcc3a8e-4553-4c09-8d2c-de5ed9a03eab","system_id":"levelo_inurba_marseille","lat":43.319935,"lon":5.381699,"is_reserved":false,"is_disabled":false,"rental_uris":{"android":"levelo://app?vid=afcc3a8e-4553-4c09-8d2c-de5ed9a03eab","ios":"levelo://app?vid=afcc3a8e-4553-4c09-8d2c-de5ed9a03eab"},"vehicle_type_id":"4","last_reported":1718208565,"current_range_meters":16000,"station_id":"ce4bhr12rcd13ifvqhpg","pricing_plan_id":"cebpf4jnsgd1na2vs0mg"},{"bike_id":"bf125ec9-3ac3-4c9b-9013-af8ae75534f2","system_id":"levelo_inurba_marseille","lat":43.319935,"lon":5.381699,"is_reserved":false,"is_disabled":false,"rental_uris":{"android":"levelo://app?vid=bf125ec9-3ac3-4c9b-9013-af8ae75534f2","ios":"levelo://app?vid=bf125ec9-3ac3-4c9b-9013-af8ae75534f2"},"vehicle_type_id":"4","last_reported":1718208565,"current_range_meters":18000,"station_id":"ce4bhr12rcd13ifvqhpg","pricing_plan_id":"cebpf4jnsgd1na2vs0mg"},{"bike_id":"6d3bf9b1-6ca2-45d8-8cc2-52bbb6983cfb","system_id":"levelo_inurba_marseille","lat":43.299222,"lon":5.365554,"is_reserved":false,"is_disabled":false,"rental_uris":{"android":"levelo://app?vid=6d3bf9b1-6ca2-45d8-8cc2-52bbb6983cfb","ios":"levelo://app?vid=6d3bf9b1-6ca2-45d8-8cc2-52bbb6983cfb"},"vehicle_type_id":"4","last_reported":1718208565,"current_range_meters":6000,"station_id":"ce4bgm92rcd13ifvqbr0","pricing_plan_id":"cebpf4jnsgd1na2vs0mg"},{"bike_id":"3e8dfeb9-17de-40c9-9727-ce056062a7ce","system_id":"levelo_inurba_marseille","lat":43.299724,"lon":5.371829,"is_reserved":false,"is_disabled":false,"rental_uris":{"android":"levelo://app?vid=3e8dfeb9-17de-40c9-9727-ce056062a7ce","ios":"levelo://app?vid=3e8dfeb9-17de-40c9-9727-ce056062a7ce"},"vehicle_type_id":"4","last_reported":1718208565,"current_range_meters":3200,"station_id":"ce4bgr92rcd13ifvqc7g","pricing_plan_id":"cebpf4jnsgd1na2vs0mg"},{"bike_id":"bd06d0f2-3190-4923-8c04-df483d7b4271","system_id":"levelo_inurba_marseille","lat":43.299724,"lon":5.371829,"is_reserved":false,"is_disabled":false,"rental_uris":{"android":"levelo://app?vid=bd06d0f2-3190-4923-8c04-df483d7b4271","ios":"levelo://app?vid=bd06d0f2-3190-4923-8c04-df483d7b4271"},"vehicle_type_id":"4","last_reported":1718208565,"current_range_meters":31200,"station_id":"ce4bgr92rcd13ifvqc7g","pricing_plan_id":"cebpf4jnsgd1na2vs0mg"},{"bike_id":"2a98ee9d-ea15-4fd3-9d48-620fb35e6f9a","system_id":"levelo_inurba_marseille","lat":43.298433,"lon":5.362774,"is_reserved":false,"is_disabled":false,"rental_uris":{"android":"levelo://app?vid=2a98ee9d-ea15-4fd3-9d48-620fb35e6f9a","ios":"levelo://app?vid=2a98ee9d-ea15-4fd3-9d48-620fb35e6f9a"},"vehicle_type_id":"4","last_reported":1718208565,"current_range_meters":31200,"station_id":"ce4bgpp2rcd13ifvqc3g","pricing_plan_id":"cebpf4jnsgd1na2vs0mg"},{"bike_id":"6f3b2fc1-9a4d-4305-ad55-fb3c15b58adb","system_id":"levelo_inurba_marseille","lat":43.298433,"lon":5.362774,"is_reserved":false,"is_disabled":false,"rental_uris":{"android":"levelo://app?vid=6f3b2fc1-9a4d-4305-ad55-fb3c15b58adb","ios":"levelo://app?vid=6f3b2fc1-9a4d-4305-ad55-fb3c15b58adb"},"vehicle_type_id":"4","last_reported":1718208565,"current_range_meters":31200,"station_id":"ce4bgpp2rcd13ifvqc3g","pricing_plan_id":"cebpf4jnsgd1na2vs0mg"},{"bike_id":"d7a46297-c606-4aa6-aafc-51eaef2ceb75","system_id":"levelo_inurba_marseille","lat":43.298433,"lon":5.362774,"is_reserved":false,"is_disabled":false,"rental_uris":{"android":"levelo://app?vid=d7a46297-c606-4aa6-aafc-51eaef2ceb75","ios":"levelo://app?vid=d7a46297-c606-4aa6-aafc-51eaef2ceb75"},"vehicle_type_id":"4","last_reported":1718208565,"current_range_meters":6000,"station_id":"ce4bgpp2rcd13ifvqc3g","pricing_plan_id":"cebpf4jnsgd1na2vs0mg"},{"bike_id":"a3e17872-b6e4-406d-a65a-33fdf11132ca","system_id":"levelo_inurba_marseille","lat":43.299243,"lon":5.37481,"is_reserved":false,"is_disabled":false,"rental_uris":{"android":"levelo://app?vid=a3e17872-b6e4-406d-a65a-33fdf11132ca","ios":"levelo://app?vid=a3e17872-b6e4-406d-a65a-33fdf11132ca"},"vehicle_type_id":"4","last_reported":1718208565,"current_range_meters":18400,"station_id":"ce4bgjh2rcd13ifvqbg0","pricing_plan_id":"cebpf4jnsgd1na2vs0mg"},{"bike_id":"61f2114a-c5fa-4f04-9185-d3f6dae495a5","system_id":"levelo_inurba_marseille","lat":43.298433,"lon":5.362774,"is_reserved":false,"is_disabled":false,"rental_uris":{"android":"levelo://app?vid=61f2114a-c5fa-4f04-9185-d3f6dae495a5","ios":"levelo://app?vid=61f2114a-c5fa-4f04-9185-d3f6dae495a5"},"vehicle_type_id":"4","last_reported":1718208565,"current_range_meters":26800,"station_id":"ce4bgpp2rcd13ifvqc3g","pricing_plan_id":"cebpf4jnsgd1na2vs0mg"},{"bike_id":"dcccba4c-0402-4bf6-8810-4f7ee6361432","system_id":"levelo_inurba_marseille","lat":43.299243,"lon":5.37481,"is_reserved":false,"is_disabled":false,"rental_uris":{"android":"levelo://app?vid=dcccba4c-0402-4bf6-8810-4f7ee6361432","ios":"levelo://app?vid=dcccba4c-0402-4bf6-8810-4f7ee6361432"},"vehicle_type_id":"4","last_reported":1718208565,"current_range_meters":0,"station_id":"ce4bgjh2rcd13ifvqbg0","pricing_plan_id":"cebpf4jnsgd1na2vs0mg"},{"bike_id":"532460cf-dd2f-4688-96cb-2a4f31bb032b","system_id":"levelo_inurba_marseille","lat":43.298433,"lon":5.362774,"is_reserved":false,"is_disabled":false,"rental_uris":{"android":"levelo://app?vid=532460cf-dd2f-4688-96cb-2a4f31bb032b","ios":"levelo://app?vid=532460cf-dd2f-4688-96cb-2a4f31bb032b"},"vehicle_type_id":"4","last_reported":1718208565,"current_range_meters":31200,"station_id":"ce4bgpp2rcd13ifvqc3g","pricing_plan_id":"cebpf4jnsgd1na2vs0mg"},{"bike_id":"c15de5dc-ca7b-4479-9acd-4ae4b09bf48f","system_id":"levelo_inurba_marseille","lat":43.305364,"lon":5.384119,"is_reserved":false,"is_disabled":false,"rental_uris":{"android":"levelo://app?vid=c15de5dc-ca7b-4479-9acd-4ae4b09bf48f","ios":"levelo://app?vid=c15de5dc-ca7b-4479-9acd-4ae4b09bf48f"},"vehicle_type_id":"4","last_reported":1718208565,"current_range_meters":9200,"station_id":"ce4bgg92rcd13ifvqb30","pricing_plan_id":"cebpf4jnsgd1na2vs0mg"},{"bike_id":"04521bb0-0f90-4ed6-8c3d-932143e0cdeb","system_id":"levelo_inurba_marseille","lat":43.29915,"lon":5.37471,"is_reserved":false,"is_disabled":false,"rental_uris":{"android":"levelo://app?vid=04521bb0-0f90-4ed6-8c3d-932143e0cdeb","ios":"levelo://app?vid=04521bb0-0f90-4ed6-8c3d-932143e0cdeb"},"vehicle_type_id":"4","last_reported":1718208565,"current_range_meters":2400,"station_id":"ce4bgjh2rcd13ifvqbg0","pricing_plan_id":"cebpf4jnsgd1na2vs0mg"},{"bike_id":"f2dd140d-6555-49db-8200-02868e966f47","system_id":"levelo_inurba_marseille","lat":43.3016,"lon":5.38076,"is_reserved":false,"is_disabled":false,"rental_uris":{"android":"levelo://app?vid=f2dd140d-6555-49db-8200-02868e966f47","ios":"levelo://app?vid=f2dd140d-6555-49db-8200-02868e966f47"},"vehicle_type_id":"4","last_reported":1718208565,"current_range_meters":3200,"station_id":"","pricing_plan_id":"cebpf4jnsgd1na2vs0mg"},{"bike_id":"4335b8ef-4012-40fc-b9b8-5697e373a7e5","system_id":"levelo_inurba_marseille","lat":43.297774,"lon":5.370875,"is_reserved":false,"is_disabled":false,"rental_uris":{"android":"levelo://app?vid=4335b8ef-4012-40fc-b9b8-5697e373a7e5","ios":"levelo://app?vid=4335b8ef-4012-40fc-b9b8-5697e373a7e5"},"vehicle_type_id":"4","last_reported":1718208565,"current_range_meters":31200,"station_id":"ce4bgop2rcd13ifvqc1g","pricing_plan_id":"cebpf4jnsgd1na2vs0mg"},{"bike_id":"554712bc-623c-4d78-8af6-8f08d2ca7e85","system_id":"levelo_inurba_marseille","lat":43.297774,"lon":5.370875,"is_reserved":false,"is_disabled":false,"rental_uris":{"android":"levelo://app?vid=554712bc-623c-4d78-8af6-8f08d2ca7e85","ios":"levelo://app?vid=554712bc-623c-4d78-8af6-8f08d2ca7e85"},"vehicle_type_id":"4","last_reported":1718208565,"current_range_meters":26000,"station_id":"ce4bgop2rcd13ifvqc1g","pricing_plan_id":"cebpf4jnsgd1na2vs0mg"},{"bike_id":"e13de0bb-6129-437b-b10b-14775124479c","system_id":"levelo_inurba_marseille","lat":43.297774,"lon":5.370875,"is_reserved":false,"is_disabled":false,"rental_uris":{"android":"levelo://app?vid=e13de0bb-6129-437b-b10b-14775124479c","ios":"levelo://app?vid=e13de0bb-6129-437b-b10b-14775124479c"},"vehicle_type_id":"4","last_reported":1718208565,"current_range_meters":30400,"station_id":"ce4bgop2rcd13ifvqc1g","pricing_plan_id":"cebpf4jnsgd1na2vs0mg"},{"bike_id":"446fccbc-4c95-4e21-82a4-83a31134d084","system_id":"levelo_inurba_marseille","lat":43.297794,"lon":5.370888,"is_reserved":false,"is_disabled":false,"rental_uris":{"android":"levelo://app?vid=446fccbc-4c95-4e21-82a4-83a31134d084","ios":"levelo://app?vid=446fccbc-4c95-4e21-82a4-83a31134d084"},"vehicle_type_id":"4","last_reported":1718208565,"current_range_meters":20400,"station_id":"ce4bgop2rcd13ifvqc1g","pricing_plan_id":"cebpf4jnsgd1na2vs0mg"},{"bike_id":"c32123cd-eecc-4f9a-a83a-4ec57aa019d5","system_id":"levelo_inurba_marseille","lat":43.322872,"lon":5.382756,"is_reserved":false,"is_disabled":false,"rental_uris":{"android":"levelo://app?vid=c32123cd-eecc-4f9a-a83a-4ec57aa019d5","ios":"levelo://app?vid=c32123cd-eecc-4f9a-a83a-4ec57aa019d5"},"vehicle_type_id":"4","last_reported":1718208565,"current_range_meters":10800,"station_id":"ce4bhr12rcd13ifvqhqg","pricing_plan_id":"cebpf4jnsgd1na2vs0mg"},{"bike_id":"56ae48b9-cb8d-4d94-966b-b3be837fb22c","system_id":"levelo_inurba_marseille","lat":43.322856,"lon":5.382678,"is_reserved":false,"is_disabled":false,"rental_uris":{"android":"levelo://app?vid=56ae48b9-cb8d-4d94-966b-b3be837fb22c","ios":"levelo://app?vid=56ae48b9-cb8d-4d94-966b-b3be837fb22c"},"vehicle_type_id":"4","last_reported":1718208565,"current_range_meters":3200,"station_id":"ce4bhr12rcd13ifvqhqg","pricing_plan_id":"cebpf4jnsgd1na2vs0mg"},{"bike_id":"6793ab27-7874-48a4-ba3a-00d5106a4e8a","system_id":"levelo_inurba_marseille","lat":43.322872,"lon":5.382756,"is_reserved":false,"is_disabled":false,"rental_uris":{"android":"levelo://app?vid=6793ab27-7874-48a4-ba3a-00d5106a4e8a","ios":"levelo://app?vid=6793ab27-7874-48a4-ba3a-00d5106a4e8a"},"vehicle_type_id":"4","last_reported":1718208565,"current_range_meters":16000,"station_id":"ce4bhr12rcd13ifvqhqg","pricing_plan_id":"cebpf4jnsgd1na2vs0mg"},{"bike_id":"4f2afbcf-ffe7-4a2e-8e3e-be152f4cfb04","system_id":"levelo_inurba_marseille","lat":43.322872,"lon":5.382756,"is_reserved":false,"is_disabled":false,"rental_uris":{"android":"levelo://app?vid=4f2afbcf-ffe7-4a2e-8e3e-be152f4cfb04","ios":"levelo://app?vid=4f2afbcf-ffe7-4a2e-8e3e-be152f4cfb04"},"vehicle_type_id":"4","last_reported":1718208565,"current_range_meters":25600,"station_id":"ce4bhr12rcd13ifvqhqg","pricing_plan_id":"cebpf4jnsgd1na2vs0mg"},{"bike_id":"1537139b-2942-4c0a-b514-c305d7884f61","system_id":"levelo_inurba_marseille","lat":43.297163,"lon":5.365866,"is_reserved":false,"is_disabled":false,"rental_uris":{"android":"levelo://app?vid=1537139b-2942-4c0a-b514-c305d7884f61","ios":"levelo://app?vid=1537139b-2942-4c0a-b514-c305d7884f61"},"vehicle_type_id":"4","last_reported":1718208565,"current_range_meters":9600,"station_id":"ce4bgn12rcd13ifvqbt0","pricing_plan_id":"cebpf4jnsgd1na2vs0mg"},{"bike_id":"e3f874c1-66c4-4e67-ba8e-fae925aaae2d","system_id":"levelo_inurba_marseille","lat":43.296131,"lon":5.370791,"is_reserved":false,"is_disabled":false,"rental_uris":{"android":"levelo://app?vid=e3f874c1-66c4-4e67-ba8e-fae925aaae2d","ios":"levelo://app?vid=e3f874c1-66c4-4e67-ba8e-fae925aaae2d"},"vehicle_type_id":"4","last_reported":1718208565,"current_range_meters":20800,"station_id":"ce4bgnh2rcd13ifvqc0g","pricing_plan_id":"cebpf4jnsgd1na2vs0mg"},{"bike_id":"84d006b8-63bd-4ed0-8914-fab1e9c7db3b","system_id":"levelo_inurba_marseille","lat":43.296129,"lon":5.370777,"is_reserved":false,"is_disabled":false,"rental_uris":{"android":"levelo://app?vid=84d006b8-63bd-4ed0-8914-fab1e9c7db3b","ios":"levelo://app?vid=84d006b8-63bd-4ed0-8914-fab1e9c7db3b"},"vehicle_type_id":"4","last_reported":1718208565,"current_range_meters":22000,"station_id":"ce4bgnh2rcd13ifvqc0g","pricing_plan_id":"cebpf4jnsgd1na2vs0mg"},{"bike_id":"003184b5-60d2-464d-9c65-a36aa2473e22","system_id":"levelo_inurba_marseille","lat":43.29573,"lon":5.367355,"is_reserved":false,"is_disabled":false,"rental_uris":{"android":"levelo://app?vid=003184b5-60d2-464d-9c65-a36aa2473e22","ios":"levelo://app?vid=003184b5-60d2-464d-9c65-a36aa2473e22"},"vehicle_type_id":"4","last_reported":1718208565,"current_range_meters":8000,"station_id":"ce4bgph2rcd13ifvqc2g","pricing_plan_id":"cebpf4jnsgd1na2vs0mg"},{"bike_id":"64c7862a-2dd4-4d73-bd3b-0bb32bcdc1a3","system_id":"levelo_inurba_marseille","lat":43.317557,"lon":5.390173,"is_reserved":false,"is_disabled":false,"rental_uris":{"android":"levelo://app?vid=64c7862a-2dd4-4d73-bd3b-0bb32bcdc1a3","ios":"levelo://app?vid=64c7862a-2dd4-4d73-bd3b-0bb32bcdc1a3"},"vehicle_type_id":"4","last_reported":1718208565,"current_range_meters":11200,"station_id":"ce4bhqp2rcd13ifvqhng","pricing_plan_id":"cebpf4jnsgd1na2vs0mg"},{"bike_id":"5b1b66b7-4692-46a0-b574-a99932976d2b","system_id":"levelo_inurba_marseille","lat":43.317557,"lon":5.390173,"is_reserved":false,"is_disabled":false,"rental_uris":{"android":"levelo://app?vid=5b1b66b7-4692-46a0-b574-a99932976d2b","ios":"levelo://app?vid=5b1b66b7-4692-46a0-b574-a99932976d2b"},"vehicle_type_id":"4","last_reported":1718208565,"current_range_meters":24400,"station_id":"ce4bhqp2rcd13ifvqhng","pricing_plan_id":"cebpf4jnsgd1na2vs0mg"},{"bike_id":"756a4e7b-8d50-4730-9770-628418617aac","system_id":"levelo_inurba_marseille","lat":43.29576,"lon":5.37521,"is_reserved":false,"is_disabled":false,"rental_uris":{"android":"levelo://app?vid=756a4e7b-8d50-4730-9770-628418617aac","ios":"levelo://app?vid=756a4e7b-8d50-4730-9770-628418617aac"},"vehicle_type_id":"4","last_reported":1718208565,"current_range_meters":400,"station_id":"ce4bgh92rcd13ifvqb50","pricing_plan_id":"cebpf4jnsgd1na2vs0mg"},{"bike_id":"d51789ea-eb04-4e0b-b0d1-a567aa1af80c","system_id":"levelo_inurba_marseille","lat":43.304606,"lon":5.379026,"is_reserved":false,"is_disabled":false,"rental_uris":{"android":"levelo://app?vid=d51789ea-eb04-4e0b-b0d1-a567aa1af80c","ios":"levelo://app?vid=d51789ea-eb04-4e0b-b0d1-a567aa1af80c"},"vehicle_type_id":"4","last_reported":1718208565,"current_range_meters":10000,"station_id":"ce4bgup2rcd13ifvqcn0","pricing_plan_id":"cebpf4jnsgd1na2vs0mg"},{"bike_id":"3ba3551d-cbd8-4b3f-b37f-57fd87c84f23","system_id":"levelo_inurba_marseille","lat":43.298037,"lon":5.381066,"is_reserved":false,"is_disabled":false,"rental_uris":{"android":"levelo://app?vid=3ba3551d-cbd8-4b3f-b37f-57fd87c84f23","ios":"levelo://app?vid=3ba3551d-cbd8-4b3f-b37f-57fd87c84f23"},"vehicle_type_id":"4","last_reported":1718208565,"current_range_meters":11200,"station_id":"ce4bgip2rcd13ifvqbb0","pricing_plan_id":"cebpf4jnsgd1na2vs0mg"},{"bike_id":"7d62d66b-dac4-4df4-90a5-b4a21ef56a8b","system_id":"levelo_inurba_marseille","lat":43.296263,"lon":5.377094,"is_reserved":false,"is_disabled":false,"rental_uris":{"android":"levelo://app?vid=7d62d66b-dac4-4df4-90a5-b4a21ef56a8b","ios":"levelo://app?vid=7d62d66b-dac4-4df4-90a5-b4a21ef56a8b"},"vehicle_type_id":"4","last_reported":1718208565,"current_range_meters":4000,"station_id":"ce4bgi92rcd13ifvqb90","pricing_plan_id":"cebpf4jnsgd1na2vs0mg"},{"bike_id":"b4257838-beba-4d73-852a-4db282d37a31","system_id":"levelo_inurba_marseille","lat":43.29738,"lon":5.38007,"is_reserved":false,"is_disabled":false,"rental_uris":{"android":"levelo://app?vid=b4257838-beba-4d73-852a-4db282d37a31","ios":"levelo://app?vid=b4257838-beba-4d73-852a-4db282d37a31"},"vehicle_type_id":"4","last_reported":1718208565,"current_range_meters":2800,"station_id":"","pricing_plan_id":"cebpf4jnsgd1na2vs0mg"},{"bike_id":"91598054-ffbd-49e5-bb33-b96f275339d4","system_id":"levelo_inurba_marseille","lat":43.30433,"lon":5.38895,"is_reserved":false,"is_disabled":false,"rental_uris":{"android":"levelo://app?vid=91598054-ffbd-49e5-bb33-b96f275339d4","ios":"levelo://app?vid=91598054-ffbd-49e5-bb33-b96f275339d4"},"vehicle_type_id":"4","last_reported":1718208565,"current_range_meters":26800,"station_id":"ce4bgk12rcd13ifvqbi0","pricing_plan_id":"cebpf4jnsgd1na2vs0mg"},{"bike_id":"51570ab8-d212-48bf-9add-576ef30331fe","system_id":"levelo_inurba_marseille","lat":43.304274,"lon":5.388873,"is_reserved":false,"is_disabled":false,"rental_uris":{"android":"levelo://app?vid=51570ab8-d212-48bf-9add-576ef30331fe","ios":"levelo://app?vid=51570ab8-d212-48bf-9add-576ef30331fe"},"vehicle_type_id":"4","last_reported":1718208565,"current_range_meters":10000,"station_id":"ce4bgk12rcd13ifvqbi0","pricing_plan_id":"cebpf4jnsgd1na2vs0mg"},{"bike_id":"d0014338-fc13-41da-a726-d677982dd7f4","system_id":"levelo_inurba_marseille","lat":43.295279,"lon":5.375048,"is_reserved":false,"is_disabled":false,"rental_uris":{"android":"levelo://app?vid=d0014338-fc13-41da-a726-d677982dd7f4","ios":"levelo://app?vid=d0014338-fc13-41da-a726-d677982dd7f4"},"vehicle_type_id":"4","last_reported":1718208565,"current_range_meters":18000,"station_id":"ce4bgkp2rcd13ifvqbmg","pricing_plan_id":"cebpf4jnsgd1na2vs0mg"},{"bike_id":"8ac69798-0a1f-45bb-b048-45f9c80e4c26","system_id":"levelo_inurba_marseille","lat":43.299717,"lon":5.384845,"is_reserved":false,"is_disabled":false,"rental_uris":{"android":"levelo://app?vid=8ac69798-0a1f-45bb-b048-45f9c80e4c26","ios":"levelo://app?vid=8ac69798-0a1f-45bb-b048-45f9c80e4c26"},"vehicle_type_id":"4","last_reported":1718208565,"current_range_meters":0,"station_id":"ce4bgj92rcd13ifvqbd0","pricing_plan_id":"cebpf4jnsgd1na2vs0mg"},{"bike_id":"c501ec73-1672-4d65-a3d9-85703352e16f","system_id":"levelo_inurba_marseille","lat":43.299724,"lon":5.384848,"is_reserved":false,"is_disabled":false,"rental_uris":{"android":"levelo://app?vid=c501ec73-1672-4d65-a3d9-85703352e16f","ios":"levelo://app?vid=c501ec73-1672-4d65-a3d9-85703352e16f"},"vehicle_type_id":"4","last_reported":1718208565,"current_range_meters":0,"station_id":"ce4bgj92rcd13ifvqbd0","pricing_plan_id":"cebpf4jnsgd1na2vs0mg"},{"bike_id":"e3309c99-8812-44fe-b2e8-a1cbd26917ce","system_id":"levelo_inurba_marseille","lat":43.29962,"lon":5.385043,"is_reserved":false,"is_disabled":false,"rental_uris":{"android":"levelo://app?vid=e3309c99-8812-44fe-b2e8-a1cbd26917ce","ios":"levelo://app?vid=e3309c99-8812-44fe-b2e8-a1cbd26917ce"},"vehicle_type_id":"4","last_reported":1718208565,"current_range_meters":0,"station_id":"ce4bgj92rcd13ifvqbd0","pricing_plan_id":"cebpf4jnsgd1na2vs0mg"},{"bike_id":"f0e66573-3087-464c-845c-bbad563319f4","system_id":"levelo_inurba_marseille","lat":43.312919,"lon":5.393582,"is_reserved":false,"is_disabled":false,"rental_uris":{"android":"levelo://app?vid=f0e66573-3087-464c-845c-bbad563319f4","ios":"levelo://app?vid=f0e66573-3087-464c-845c-bbad563319f4"},"vehicle_type_id":"4","last_reported":1718208565,"current_range_meters":14000,"station_id":"ce4bhm12rcd13ifvqgkg","pricing_plan_id":"cebpf4jnsgd1na2vs0mg"},{"bike_id":"03984b0a-9c27-4475-83dd-ba2903f08afa","system_id":"levelo_inurba_marseille","lat":43.29592,"lon":5.38099,"is_reserved":false,"is_disabled":false,"rental_uris":{"android":"levelo://app?vid=03984b0a-9c27-4475-83dd-ba2903f08afa","ios":"levelo://app?vid=03984b0a-9c27-4475-83dd-ba2903f08afa"},"vehicle_type_id":"4","last_reported":1718208565,"current_range_meters":3200,"station_id":"ce4bgl12rcd13ifvqbo0","pricing_plan_id":"cebpf4jnsgd1na2vs0mg"},{"bike_id":"31463d9c-dfc8-48c6-af5d-7a09d5501aa9","system_id":"levelo_inurba_marseille","lat":43.293259,"lon":5.371586,"is_reserved":false,"is_disabled":false,"rental_uris":{"android":"levelo://app?vid=31463d9c-dfc8-48c6-af5d-7a09d5501aa9","ios":"levelo://app?vid=31463d9c-dfc8-48c6-af5d-7a09d5501aa9"},"vehicle_type_id":"4","last_reported":1718208565,"current_range_meters":17200,"station_id":"ce4bgh92rcd13ifvqb40","pricing_plan_id":"cebpf4jnsgd1na2vs0mg"},{"bike_id":"282353e0-f815-48c0-af55-591e0808df6e","system_id":"levelo_inurba_marseille","lat":43.29278,"lon":5.36841,"is_reserved":false,"is_disabled":false,"rental_uris":{"android":"levelo://app?vid=282353e0-f815-48c0-af55-591e0808df6e","ios":"levelo://app?vid=282353e0-f815-48c0-af55-591e0808df6e"},"vehicle_type_id":"4","last_reported":1718208565,"current_range_meters":0,"station_id":"ce4bhbp2rcd13ifvqesg","pricing_plan_id":"cebpf4jnsgd1na2vs0mg"},{"bike_id":"2547b003-8876-4e5d-9537-60a11fdf8727","system_id":"levelo_inurba_marseille","lat":43.293259,"lon":5.371586,"is_reserved":false,"is_disabled":false,"rental_uris":{"android":"levelo://app?vid=2547b003-8876-4e5d-9537-60a11fdf8727","ios":"levelo://app?vid=2547b003-8876-4e5d-9537-60a11fdf8727"},"vehicle_type_id":"4","last_reported":1718208565,"current_range_meters":31200,"station_id":"ce4bgh92rcd13ifvqb40","pricing_plan_id":"cebpf4jnsgd1na2vs0mg"},{"bike_id":"beecc9cb-1304-4488-bff5-b12bfc557ba1","system_id":"levelo_inurba_marseille","lat":43.305994,"lon":5.393687,"is_reserved":false,"is_disabled":false,"rental_uris":{"android":"levelo://app?vid=beecc9cb-1304-4488-bff5-b12bfc557ba1","ios":"levelo://app?vid=beecc9cb-1304-4488-bff5-b12bfc557ba1"},"vehicle_type_id":"4","last_reported":1718208565,"current_range_meters":17600,"station_id":"ce4bh0p2rcd13ifvqd80","pricing_plan_id":"cebpf4jnsgd1na2vs0mg"},{"bike_id":"2a752627-d824-4aee-b879-2686e3c473f3","system_id":"levelo_inurba_marseille","lat":43.292324,"lon":5.368348,"is_reserved":false,"is_disabled":false,"rental_uris":{"android":"levelo://app?vid=2a752627-d824-4aee-b879-2686e3c473f3","ios":"levelo://app?vid=2a752627-d824-4aee-b879-2686e3c473f3"},"vehicle_type_id":"4","last_reported":1718208565,"current_range_meters":9200,"station_id":"ce4bhbp2rcd13ifvqesg","pricing_plan_id":"cebpf4jnsgd1na2vs0mg"},{"bike_id":"35025a0e-1acd-4fe5-8e14-3fd081b6d8d9","system_id":"levelo_inurba_marseille","lat":43.293015,"lon":5.374598,"is_reserved":false,"is_disabled":false,"rental_uris":{"android":"levelo://app?vid=35025a0e-1acd-4fe5-8e14-3fd081b6d8d9","ios":"levelo://app?vid=35025a0e-1acd-4fe5-8e14-3fd081b6d8d9"},"vehicle_type_id":"4","last_reported":1718208565,"current_range_meters":0,"station_id":"ce4bgi12rcd13ifvqb70","pricing_plan_id":"cebpf4jnsgd1na2vs0mg"},{"bike_id":"972b572f-c66e-4917-bc17-a88620c7303b","system_id":"levelo_inurba_marseille","lat":43.305994,"lon":5.393687,"is_reserved":false,"is_disabled":false,"rental_uris":{"android":"levelo://app?vid=972b572f-c66e-4917-bc17-a88620c7303b","ios":"levelo://app?vid=972b572f-c66e-4917-bc17-a88620c7303b"},"vehicle_type_id":"4","last_reported":1718208565,"current_range_meters":24400,"station_id":"ce4bh0p2rcd13ifvqd80","pricing_plan_id":"cebpf4jnsgd1na2vs0mg"},{"bike_id":"005dfa22-c491-44b2-85a3-d0c082900162","system_id":"levelo_inurba_marseille","lat":43.293009,"lon":5.374584,"is_reserved":false,"is_disabled":false,"rental_uris":{"android":"levelo://app?vid=005dfa22-c491-44b2-85a3-d0c082900162","ios":"levelo://app?vid=005dfa22-c491-44b2-85a3-d0c082900162"},"vehicle_type_id":"4","last_reported":1718208565,"current_range_meters":29600,"station_id":"ce4bgi12rcd13ifvqb70","pricing_plan_id":"cebpf4jnsgd1na2vs0mg"},{"bike_id":"8120a5a4-9b43-44ef-b021-9fca62c044ff","system_id":"levelo_inurba_marseille","lat":43.293009,"lon":5.374584,"is_reserved":false,"is_disabled":false,"rental_uris":{"android":"levelo://app?vid=8120a5a4-9b43-44ef-b021-9fca62c044ff","ios":"levelo://app?vid=8120a5a4-9b43-44ef-b021-9fca62c044ff"},"vehicle_type_id":"4","last_reported":1718208565,"current_range_meters":0,"station_id":"ce4bgi12rcd13ifvqb70","pricing_plan_id":"cebpf4jnsgd1na2vs0mg"},{"bike_id":"665064f2-4c8a-4dd5-b427-f0c5cf4b1c1c","system_id":"levelo_inurba_marseille","lat":43.293009,"lon":5.374584,"is_reserved":false,"is_disabled":false,"rental_uris":{"android":"levelo://app?vid=665064f2-4c8a-4dd5-b427-f0c5cf4b1c1c","ios":"levelo://app?vid=665064f2-4c8a-4dd5-b427-f0c5cf4b1c1c"},"vehicle_type_id":"4","last_reported":1718208565,"current_range_meters":0,"station_id":"ce4bgi12rcd13ifvqb70","pricing_plan_id":"cebpf4jnsgd1na2vs0mg"},{"bike_id":"9122f86c-ec56-4c81-8ae0-f830351e7b31","system_id":"levelo_inurba_marseille","lat":43.293009,"lon":5.374584,"is_reserved":false,"is_disabled":false,"rental_uris":{"android":"levelo://app?vid=9122f86c-ec56-4c81-8ae0-f830351e7b31","ios":"levelo://app?vid=9122f86c-ec56-4c81-8ae0-f830351e7b31"},"vehicle_type_id":"4","last_reported":1718208565,"current_range_meters":28800,"station_id":"ce4bgi12rcd13ifvqb70","pricing_plan_id":"cebpf4jnsgd1na2vs0mg"},{"bike_id":"22ec2e40-916a-4937-a161-ffbe6741e9e2","system_id":"levelo_inurba_marseille","lat":43.293009,"lon":5.374584,"is_reserved":false,"is_disabled":false,"rental_uris":{"android":"levelo://app?vid=22ec2e40-916a-4937-a161-ffbe6741e9e2","ios":"levelo://app?vid=22ec2e40-916a-4937-a161-ffbe6741e9e2"},"vehicle_type_id":"4","last_reported":1718208565,"current_range_meters":1600,"station_id":"ce4bgi12rcd13ifvqb70","pricing_plan_id":"cebpf4jnsgd1na2vs0mg"},{"bike_id":"908485ce-5167-409a-b0f8-959845e77427","system_id":"levelo_inurba_marseille","lat":43.303127,"lon":5.392137,"is_reserved":false,"is_disabled":false,"rental_uris":{"android":"levelo://app?vid=908485ce-5167-409a-b0f8-959845e77427","ios":"levelo://app?vid=908485ce-5167-409a-b0f8-959845e77427"},"vehicle_type_id":"4","last_reported":1718208565,"current_range_meters":19200,"station_id":"ce4bgkh2rcd13ifvqbk0","pricing_plan_id":"cebpf4jnsgd1na2vs0mg"},{"bike_id":"1bdb44e5-ed4f-4174-a868-f672a95f80ff","system_id":"levelo_inurba_marseille","lat":43.2936,"lon":5.37835,"is_reserved":false,"is_disabled":false,"rental_uris":{"android":"levelo://app?vid=1bdb44e5-ed4f-4174-a868-f672a95f80ff","ios":"levelo://app?vid=1bdb44e5-ed4f-4174-a868-f672a95f80ff"},"vehicle_type_id":"4","last_reported":1718208565,"current_range_meters":10800,"station_id":"ce4bgjh2rcd13ifvqbf0","pricing_plan_id":"cebpf4jnsgd1na2vs0mg"},{"bike_id":"f6d4e83b-571b-4020-9a80-21a33c16a474","system_id":"levelo_inurba_marseille","lat":43.303002,"lon":5.392142,"is_reserved":false,"is_disabled":false,"rental_uris":{"android":"levelo://app?vid=f6d4e83b-571b-4020-9a80-21a33c16a474","ios":"levelo://app?vid=f6d4e83b-571b-4020-9a80-21a33c16a474"},"vehicle_type_id":"4","last_reported":1718208565,"current_range_meters":0,"station_id":"ce4bgkh2rcd13ifvqbk0","pricing_plan_id":"cebpf4jnsgd1na2vs0mg"},{"bike_id":"8799cc18-6cf2-472e-8355-6005b1324d71","system_id":"levelo_inurba_marseille","lat":43.2936,"lon":5.37835,"is_reserved":false,"is_disabled":false,"rental_uris":{"android":"levelo://app?vid=8799cc18-6cf2-472e-8355-6005b1324d71","ios":"levelo://app?vid=8799cc18-6cf2-472e-8355-6005b1324d71"},"vehicle_type_id":"4","last_reported":1718208565,"current_range_meters":0,"station_id":"ce4bgjh2rcd13ifvqbf0","pricing_plan_id":"cebpf4jnsgd1na2vs0mg"},{"bike_id":"546848ba-6d3c-438d-929a-5c6a1df218b3","system_id":"levelo_inurba_marseille","lat":43.30085,"lon":5.390856,"is_reserved":false,"is_disabled":false,"rental_uris":{"android":"levelo://app?vid=546848ba-6d3c-438d-929a-5c6a1df218b3","ios":"levelo://app?vid=546848ba-6d3c-438d-929a-5c6a1df218b3"},"vehicle_type_id":"4","last_reported":1718208565,"current_range_meters":14400,"station_id":"ce4bh192rcd13ifvqdb0","pricing_plan_id":"cebpf4jnsgd1na2vs0mg"},{"bike_id":"071a6f33-35b5-4ee5-959e-aac2ffe5ca6e","system_id":"levelo_inurba_marseille","lat":43.300955,"lon":5.39074,"is_reserved":false,"is_disabled":false,"rental_uris":{"android":"levelo://app?vid=071a6f33-35b5-4ee5-959e-aac2ffe5ca6e","ios":"levelo://app?vid=071a6f33-35b5-4ee5-959e-aac2ffe5ca6e"},"vehicle_type_id":"4","last_reported":1718208565,"current_range_meters":0,"station_id":"ce4bh192rcd13ifvqdb0","pricing_plan_id":"cebpf4jnsgd1na2vs0mg"},{"bike_id":"0870fc32-e10d-44e4-9cb7-0e8b5a384293","system_id":"levelo_inurba_marseille","lat":43.30085,"lon":5.390856,"is_reserved":false,"is_disabled":false,"rental_uris":{"android":"levelo://app?vid=0870fc32-e10d-44e4-9cb7-0e8b5a384293","ios":"levelo://app?vid=0870fc32-e10d-44e4-9cb7-0e8b5a384293"},"vehicle_type_id":"4","last_reported":1718208565,"current_range_meters":17600,"station_id":"ce4bh192rcd13ifvqdb0","pricing_plan_id":"cebpf4jnsgd1na2vs0mg"},{"bike_id":"4cb2edd4-6cb5-4175-90c5-f9a3aa8cd1f6","system_id":"levelo_inurba_marseille","lat":43.300852,"lon":5.390859,"is_reserved":false,"is_disabled":false,"rental_uris":{"android":"levelo://app?vid=4cb2edd4-6cb5-4175-90c5-f9a3aa8cd1f6","ios":"levelo://app?vid=4cb2edd4-6cb5-4175-90c5-f9a3aa8cd1f6"},"vehicle_type_id":"4","last_reported":1718208565,"current_range_meters":0,"station_id":"ce4bh192rcd13ifvqdb0","pricing_plan_id":"cebpf4jnsgd1na2vs0mg"},{"bike_id":"bead312e-c3cc-475f-8739-ca5706a42fdb","system_id":"levelo_inurba_marseille","lat":43.29227,"lon":5.36055,"is_reserved":false,"is_disabled":false,"rental_uris":{"android":"levelo://app?vid=bead312e-c3cc-475f-8739-ca5706a42fdb","ios":"levelo://app?vid=bead312e-c3cc-475f-8739-ca5706a42fdb"},"vehicle_type_id":"4","last_reported":1718208565,"current_range_meters":0,"station_id":"ce4bhbh2rcd13ifvqeqg","pricing_plan_id":"cebpf4jnsgd1na2vs0mg"},{"bike_id":"f5913228-db82-4dfc-9e08-e96365453bcf","system_id":"levelo_inurba_marseille","lat":43.292311,"lon":5.360731,"is_reserved":false,"is_disabled":false,"rental_uris":{"android":"levelo://app?vid=f5913228-db82-4dfc-9e08-e96365453bcf","ios":"levelo://app?vid=f5913228-db82-4dfc-9e08-e96365453bcf"},"vehicle_type_id":"4","last_reported":1718208565,"current_range_meters":24000,"station_id":"ce4bhbh2rcd13ifvqeqg","pricing_plan_id":"cebpf4jnsgd1na2vs0mg"},{"bike_id":"c7263bd0-cddc-43e0-b778-805da8baeb45","system_id":"levelo_inurba_marseille","lat":43.29221,"lon":5.36051,"is_reserved":false,"is_disabled":false,"rental_uris":{"android":"levelo://app?vid=c7263bd0-cddc-43e0-b778-805da8baeb45","ios":"levelo://app?vid=c7263bd0-cddc-43e0-b778-805da8baeb45"},"vehicle_type_id":"4","last_reported":1718208565,"current_range_meters":0,"station_id":"ce4bhbh2rcd13ifvqeqg","pricing_plan_id":"cebpf4jnsgd1na2vs0mg"},{"bike_id":"db19ef43-b1ac-4bbe-96ea-4e9c11b3b34d","system_id":"levelo_inurba_marseille","lat":43.29192,"lon":5.37143,"is_reserved":false,"is_disabled":false,"rental_uris":{"android":"levelo://app?vid=db19ef43-b1ac-4bbe-96ea-4e9c11b3b34d","ios":"levelo://app?vid=db19ef43-b1ac-4bbe-96ea-4e9c11b3b34d"},"vehicle_type_id":"4","last_reported":1718208565,"current_range_meters":22800,"station_id":"ce4bha92rcd13ifvqeh0","pricing_plan_id":"cebpf4jnsgd1na2vs0mg"},{"bike_id":"7a00011c-9937-42e8-b376-2d9eeec95047","system_id":"levelo_inurba_marseille","lat":43.298764,"lon":5.388973,"is_reserved":false,"is_disabled":false,"rental_uris":{"android":"levelo://app?vid=7a00011c-9937-42e8-b376-2d9eeec95047","ios":"levelo://app?vid=7a00011c-9937-42e8-b376-2d9eeec95047"},"vehicle_type_id":"4","last_reported":1718208565,"current_range_meters":24000,"station_id":"ce4bh392rcd13ifvqdl0","pricing_plan_id":"cebpf4jnsgd1na2vs0mg"},{"bike_id":"6700ba16-9e93-438c-a102-048a7ade8073","system_id":"levelo_inurba_marseille","lat":43.298764,"lon":5.388973,"is_reserved":false,"is_disabled":false,"rental_uris":{"android":"levelo://app?vid=6700ba16-9e93-438c-a102-048a7ade8073","ios":"levelo://app?vid=6700ba16-9e93-438c-a102-048a7ade8073"},"vehicle_type_id":"4","last_reported":1718208565,"current_range_meters":20800,"station_id":"ce4bh392rcd13ifvqdl0","pricing_plan_id":"cebpf4jnsgd1na2vs0mg"},{"bike_id":"3a86a45d-08a7-48bb-aeed-b8eac469e902","system_id":"levelo_inurba_marseille","lat":43.298764,"lon":5.388973,"is_reserved":false,"is_disabled":false,"rental_uris":{"android":"levelo://app?vid=3a86a45d-08a7-48bb-aeed-b8eac469e902","ios":"levelo://app?vid=3a86a45d-08a7-48bb-aeed-b8eac469e902"},"vehicle_type_id":"4","last_reported":1718208565,"current_range_meters":5200,"station_id":"ce4bh392rcd13ifvqdl0","pricing_plan_id":"cebpf4jnsgd1na2vs0mg"},{"bike_id":"4ff08bb0-2bf5-47f2-83b3-e0826d64f0ca","system_id":"levelo_inurba_marseille","lat":43.291675,"lon":5.371583,"is_reserved":false,"is_disabled":false,"rental_uris":{"android":"levelo://app?vid=4ff08bb0-2bf5-47f2-83b3-e0826d64f0ca","ios":"levelo://app?vid=4ff08bb0-2bf5-47f2-83b3-e0826d64f0ca"},"vehicle_type_id":"4","last_reported":1718208565,"current_range_meters":6400,"station_id":"ce4bha92rcd13ifvqeh0","pricing_plan_id":"cebpf4jnsgd1na2vs0mg"},{"bike_id":"75a23d42-cdce-4d41-98e6-4f64610f577e","system_id":"levelo_inurba_marseille","lat":43.291994,"lon":5.357886,"is_reserved":false,"is_disabled":false,"rental_uris":{"android":"levelo://app?vid=75a23d42-cdce-4d41-98e6-4f64610f577e","ios":"levelo://app?vid=75a23d42-cdce-4d41-98e6-4f64610f577e"},"vehicle_type_id":"4","last_reported":1718208565,"current_range_meters":26000,"station_id":"ce4bhb12rcd13ifvqel0","pricing_plan_id":"cebpf4jnsgd1na2vs0mg"},{"bike_id":"6ebe2026-0f92-4825-9a42-5754c47baa8b","system_id":"levelo_inurba_marseille","lat":43.292005,"lon":5.357875,"is_reserved":false,"is_disabled":false,"rental_uris":{"android":"levelo://app?vid=6ebe2026-0f92-4825-9a42-5754c47baa8b","ios":"levelo://app?vid=6ebe2026-0f92-4825-9a42-5754c47baa8b"},"vehicle_type_id":"4","last_reported":1718208565,"current_range_meters":0,"station_id":"ce4bhb12rcd13ifvqel0","pricing_plan_id":"cebpf4jnsgd1na2vs0mg"},{"bike_id":"5cb00b90-7b7d-44c2-b66f-785119d44195","system_id":"levelo_inurba_marseille","lat":43.291994,"lon":5.357886,"is_reserved":false,"is_disabled":false,"rental_uris":{"android":"levelo://app?vid=5cb00b90-7b7d-44c2-b66f-785119d44195","ios":"levelo://app?vid=5cb00b90-7b7d-44c2-b66f-785119d44195"},"vehicle_type_id":"4","last_reported":1718208565,"current_range_meters":12800,"station_id":"ce4bhb12rcd13ifvqel0","pricing_plan_id":"cebpf4jnsgd1na2vs0mg"},{"bike_id":"3a99ae9c-a92c-44b5-81bd-379dba317a8b","system_id":"levelo_inurba_marseille","lat":43.292005,"lon":5.357875,"is_reserved":false,"is_disabled":false,"rental_uris":{"android":"levelo://app?vid=3a99ae9c-a92c-44b5-81bd-379dba317a8b","ios":"levelo://app?vid=3a99ae9c-a92c-44b5-81bd-379dba317a8b"},"vehicle_type_id":"4","last_reported":1718208565,"current_range_meters":19600,"station_id":"ce4bhb12rcd13ifvqel0","pricing_plan_id":"cebpf4jnsgd1na2vs0mg"},{"bike_id":"cfdd2061-c4b8-4feb-ae97-1ff0cd73c166","system_id":"levelo_inurba_marseille","lat":43.31332,"lon":5.39688,"is_reserved":false,"is_disabled":false,"rental_uris":{"android":"levelo://app?vid=cfdd2061-c4b8-4feb-ae97-1ff0cd73c166","ios":"levelo://app?vid=cfdd2061-c4b8-4feb-ae97-1ff0cd73c166"},"vehicle_type_id":"4","last_reported":1718208565,"current_range_meters":28000,"station_id":"ce4bgvp2rcd13ifvqcu0","pricing_plan_id":"cebpf4jnsgd1na2vs0mg"},{"bike_id":"a1bdffee-004e-49a5-b70f-c0a69885dfa6","system_id":"levelo_inurba_marseille","lat":43.313291,"lon":5.396838,"is_reserved":false,"is_disabled":false,"rental_uris":{"android":"levelo://app?vid=a1bdffee-004e-49a5-b70f-c0a69885dfa6","ios":"levelo://app?vid=a1bdffee-004e-49a5-b70f-c0a69885dfa6"},"vehicle_type_id":"4","last_reported":1718208565,"current_range_meters":15200,"station_id":"ce4bgvp2rcd13ifvqcu0","pricing_plan_id":"cebpf4jnsgd1na2vs0mg"},{"bike_id":"64ee2bb5-baa8-425c-bda1-2b762d3ea106","system_id":"levelo_inurba_marseille","lat":43.3089,"lon":5.39648,"is_reserved":false,"is_disabled":false,"rental_uris":{"android":"levelo://app?vid=64ee2bb5-baa8-425c-bda1-2b762d3ea106","ios":"levelo://app?vid=64ee2bb5-baa8-425c-bda1-2b762d3ea106"},"vehicle_type_id":"4","last_reported":1718208565,"current_range_meters":11600,"station_id":"ce4bh012rcd13ifvqcv0","pricing_plan_id":"cebpf4jnsgd1na2vs0mg"},{"bike_id":"ccaf9c66-b71a-421e-a5a8-2aa063810604","system_id":"levelo_inurba_marseille","lat":43.313291,"lon":5.396838,"is_reserved":false,"is_disabled":false,"rental_uris":{"android":"levelo://app?vid=ccaf9c66-b71a-421e-a5a8-2aa063810604","ios":"levelo://app?vid=ccaf9c66-b71a-421e-a5a8-2aa063810604"},"vehicle_type_id":"4","last_reported":1718208565,"current_range_meters":17200,"station_id":"ce4bgvp2rcd13ifvqcu0","pricing_plan_id":"cebpf4jnsgd1na2vs0mg"},{"bike_id":"1f21676e-3dda-4495-b9ed-e02b0496b241","system_id":"levelo_inurba_marseille","lat":43.31331,"lon":5.39697,"is_reserved":false,"is_disabled":false,"rental_uris":{"android":"levelo://app?vid=1f21676e-3dda-4495-b9ed-e02b0496b241","ios":"levelo://app?vid=1f21676e-3dda-4495-b9ed-e02b0496b241"},"vehicle_type_id":"4","last_reported":1718208565,"current_range_meters":4800,"station_id":"ce4bgvp2rcd13ifvqcu0","pricing_plan_id":"cebpf4jnsgd1na2vs0mg"},{"bike_id":"de996016-e504-454b-83b4-50894f19bcb0","system_id":"levelo_inurba_marseille","lat":43.309038,"lon":5.396546,"is_reserved":false,"is_disabled":false,"rental_uris":{"android":"levelo://app?vid=de996016-e504-454b-83b4-50894f19bcb0","ios":"levelo://app?vid=de996016-e504-454b-83b4-50894f19bcb0"},"vehicle_type_id":"4","last_reported":1718208565,"current_range_meters":20000,"station_id":"ce4bh012rcd13ifvqcv0","pricing_plan_id":"cebpf4jnsgd1na2vs0mg"},{"bike_id":"1ef00076-b4cc-41ef-8485-a9a7ff1b041a","system_id":"levelo_inurba_marseille","lat":43.313291,"lon":5.396838,"is_reserved":false,"is_disabled":false,"rental_uris":{"android":"levelo://app?vid=1ef00076-b4cc-41ef-8485-a9a7ff1b041a","ios":"levelo://app?vid=1ef00076-b4cc-41ef-8485-a9a7ff1b041a"},"vehicle_type_id":"4","last_reported":1718208565,"current_range_meters":6000,"station_id":"ce4bgvp2rcd13ifvqcu0","pricing_plan_id":"cebpf4jnsgd1na2vs0mg"},{"bike_id":"f69fe0f2-77e2-469b-b16e-c245c8ca8d5b","system_id":"levelo_inurba_marseille","lat":43.309038,"lon":5.396546,"is_reserved":false,"is_disabled":false,"rental_uris":{"android":"levelo://app?vid=f69fe0f2-77e2-469b-b16e-c245c8ca8d5b","ios":"levelo://app?vid=f69fe0f2-77e2-469b-b16e-c245c8ca8d5b"},"vehicle_type_id":"4","last_reported":1718208565,"current_range_meters":7600,"station_id":"ce4bh012rcd13ifvqcv0","pricing_plan_id":"cebpf4jnsgd1na2vs0mg"},{"bike_id":"81670a54-23be-4e77-911c-8c8a44c07269","system_id":"levelo_inurba_marseille","lat":43.309038,"lon":5.396546,"is_reserved":false,"is_disabled":false,"rental_uris":{"android":"levelo://app?vid=81670a54-23be-4e77-911c-8c8a44c07269","ios":"levelo://app?vid=81670a54-23be-4e77-911c-8c8a44c07269"},"vehicle_type_id":"4","last_reported":1718208565,"current_range_meters":14800,"station_id":"ce4bh012rcd13ifvqcv0","pricing_plan_id":"cebpf4jnsgd1na2vs0mg"},{"bike_id":"e0521e32-fd17-4067-bda6-03e579e2537c","system_id":"levelo_inurba_marseille","lat":43.295428,"lon":5.385597,"is_reserved":false,"is_disabled":false,"rental_uris":{"android":"levelo://app?vid=e0521e32-fd17-4067-bda6-03e579e2537c","ios":"levelo://app?vid=e0521e32-fd17-4067-bda6-03e579e2537c"},"vehicle_type_id":"4","last_reported":1718208565,"current_range_meters":18800,"station_id":"","pricing_plan_id":"cebpf4jnsgd1na2vs0mg"},{"bike_id":"ba0fde8a-71ae-4129-b28d-9dcfaadc5ec0","system_id":"levelo_inurba_marseille","lat":43.290779,"lon":5.371482,"is_reserved":false,"is_disabled":false,"rental_uris":{"android":"levelo://app?vid=ba0fde8a-71ae-4129-b28d-9dcfaadc5ec0","ios":"levelo://app?vid=ba0fde8a-71ae-4129-b28d-9dcfaadc5ec0"},"vehicle_type_id":"4","last_reported":1718208565,"current_range_meters":1200,"station_id":"ce4bh5p2rcd13ifvqe4g","pricing_plan_id":"cebpf4jnsgd1na2vs0mg"},{"bike_id":"9d1a66d7-6574-430f-9563-0e53bd72f886","system_id":"levelo_inurba_marseille","lat":43.29167,"lon":5.35568,"is_reserved":false,"is_disabled":false,"rental_uris":{"android":"levelo://app?vid=9d1a66d7-6574-430f-9563-0e53bd72f886","ios":"levelo://app?vid=9d1a66d7-6574-430f-9563-0e53bd72f886"},"vehicle_type_id":"4","last_reported":1718208565,"current_range_meters":23600,"station_id":"","pricing_plan_id":"cebpf4jnsgd1na2vs0mg"},{"bike_id":"1c134042-d32c-4020-b20f-87fa77c7f504","system_id":"levelo_inurba_marseille","lat":43.29118,"lon":5.35584,"is_reserved":false,"is_disabled":false,"rental_uris":{"android":"levelo://app?vid=1c134042-d32c-4020-b20f-87fa77c7f504","ios":"levelo://app?vid=1c134042-d32c-4020-b20f-87fa77c7f504"},"vehicle_type_id":"4","last_reported":1718208565,"current_range_meters":10400,"station_id":"","pricing_plan_id":"cebpf4jnsgd1na2vs0mg"},{"bike_id":"a730a860-5ef7-46e6-be78-15a0f38274b6","system_id":"levelo_inurba_marseille","lat":43.294153,"lon":5.386305,"is_reserved":false,"is_disabled":false,"rental_uris":{"android":"levelo://app?vid=a730a860-5ef7-46e6-be78-15a0f38274b6","ios":"levelo://app?vid=a730a860-5ef7-46e6-be78-15a0f38274b6"},"vehicle_type_id":"4","last_reported":1718208565,"current_range_meters":2000,"station_id":"ce4bh2h2rcd13ifvqdh0","pricing_plan_id":"cebpf4jnsgd1na2vs0mg"},{"bike_id":"bf1c8746-bf80-48b5-bb58-7b1511dc0b3a","system_id":"levelo_inurba_marseille","lat":43.294153,"lon":5.386305,"is_reserved":false,"is_disabled":false,"rental_uris":{"android":"levelo://app?vid=bf1c8746-bf80-48b5-bb58-7b1511dc0b3a","ios":"levelo://app?vid=bf1c8746-bf80-48b5-bb58-7b1511dc0b3a"},"vehicle_type_id":"4","last_reported":1718208565,"current_range_meters":0,"station_id":"ce4bh2h2rcd13ifvqdh0","pricing_plan_id":"cebpf4jnsgd1na2vs0mg"},{"bike_id":"e9b85c2d-0a5d-486c-8fb7-c29f019c33fe","system_id":"levelo_inurba_marseille","lat":43.290319,"lon":5.375732,"is_reserved":false,"is_disabled":false,"rental_uris":{"android":"levelo://app?vid=e9b85c2d-0a5d-486c-8fb7-c29f019c33fe","ios":"levelo://app?vid=e9b85c2d-0a5d-486c-8fb7-c29f019c33fe"},"vehicle_type_id":"4","last_reported":1718208565,"current_range_meters":29200,"station_id":"ce4bh692rcd13ifvqe90","pricing_plan_id":"cebpf4jnsgd1na2vs0mg"},{"bike_id":"b05237b9-04f9-4f4b-aaf3-7fb19592d7e4","system_id":"levelo_inurba_marseille","lat":43.294162,"lon":5.386292,"is_reserved":false,"is_disabled":false,"rental_uris":{"android":"levelo://app?vid=b05237b9-04f9-4f4b-aaf3-7fb19592d7e4","ios":"levelo://app?vid=b05237b9-04f9-4f4b-aaf3-7fb19592d7e4"},"vehicle_type_id":"4","last_reported":1718208565,"current_range_meters":16000,"station_id":"ce4bh2h2rcd13ifvqdh0","pricing_plan_id":"cebpf4jnsgd1na2vs0mg"},{"bike_id":"e701c52f-a24e-47fb-ac52-36dcc1516f72","system_id":"levelo_inurba_marseille","lat":43.29421,"lon":5.38622,"is_reserved":false,"is_disabled":false,"rental_uris":{"android":"levelo://app?vid=e701c52f-a24e-47fb-ac52-36dcc1516f72","ios":"levelo://app?vid=e701c52f-a24e-47fb-ac52-36dcc1516f72"},"vehicle_type_id":"4","last_reported":1718208565,"current_range_meters":31600,"station_id":"ce4bh2h2rcd13ifvqdh0","pricing_plan_id":"cebpf4jnsgd1na2vs0mg"},{"bike_id":"33f83c04-8414-48eb-ac27-c53185fe6dc4","system_id":"levelo_inurba_marseille","lat":43.294153,"lon":5.386305,"is_reserved":false,"is_disabled":false,"rental_uris":{"android":"levelo://app?vid=33f83c04-8414-48eb-ac27-c53185fe6dc4","ios":"levelo://app?vid=33f83c04-8414-48eb-ac27-c53185fe6dc4"},"vehicle_type_id":"4","last_reported":1718208565,"current_range_meters":0,"station_id":"ce4bh2h2rcd13ifvqdh0","pricing_plan_id":"cebpf4jnsgd1na2vs0mg"},{"bike_id":"da8619c8-bd6b-468c-b6c1-f671cd80162d","system_id":"levelo_inurba_marseille","lat":43.294162,"lon":5.386292,"is_reserved":false,"is_disabled":false,"rental_uris":{"android":"levelo://app?vid=da8619c8-bd6b-468c-b6c1-f671cd80162d","ios":"levelo://app?vid=da8619c8-bd6b-468c-b6c1-f671cd80162d"},"vehicle_type_id":"4","last_reported":1718208565,"current_range_meters":18000,"station_id":"ce4bh2h2rcd13ifvqdh0","pricing_plan_id":"cebpf4jnsgd1na2vs0mg"},{"bike_id":"a4b03945-a4f5-4c5b-8614-c8eec6873190","system_id":"levelo_inurba_marseille","lat":43.289184,"lon":5.366408,"is_reserved":false,"is_disabled":false,"rental_uris":{"android":"levelo://app?vid=a4b03945-a4f5-4c5b-8614-c8eec6873190","ios":"levelo://app?vid=a4b03945-a4f5-4c5b-8614-c8eec6873190"},"vehicle_type_id":"4","last_reported":1718208565,"current_range_meters":0,"station_id":"ce4bhap2rcd13ifvqek0","pricing_plan_id":"cebpf4jnsgd1na2vs0mg"},{"bike_id":"4a942b1c-b30a-4382-b6de-4006a995fa51","system_id":"levelo_inurba_marseille","lat":43.289184,"lon":5.366408,"is_reserved":false,"is_disabled":false,"rental_uris":{"android":"levelo://app?vid=4a942b1c-b30a-4382-b6de-4006a995fa51","ios":"levelo://app?vid=4a942b1c-b30a-4382-b6de-4006a995fa51"},"vehicle_type_id":"4","last_reported":1718208565,"current_range_meters":21600,"station_id":"ce4bhap2rcd13ifvqek0","pricing_plan_id":"cebpf4jnsgd1na2vs0mg"},{"bike_id":"d02f4395-4ae7-45cf-bb7e-5c5a2c11105f","system_id":"levelo_inurba_marseille","lat":43.289184,"lon":5.366408,"is_reserved":false,"is_disabled":false,"rental_uris":{"android":"levelo://app?vid=d02f4395-4ae7-45cf-bb7e-5c5a2c11105f","ios":"levelo://app?vid=d02f4395-4ae7-45cf-bb7e-5c5a2c11105f"},"vehicle_type_id":"4","last_reported":1718208565,"current_range_meters":12800,"station_id":"ce4bhap2rcd13ifvqek0","pricing_plan_id":"cebpf4jnsgd1na2vs0mg"},{"bike_id":"6096668e-c7de-4193-aeda-63a009c30fcd","system_id":"levelo_inurba_marseille","lat":43.29271,"lon":5.38442,"is_reserved":false,"is_disabled":false,"rental_uris":{"android":"levelo://app?vid=6096668e-c7de-4193-aeda-63a009c30fcd","ios":"levelo://app?vid=6096668e-c7de-4193-aeda-63a009c30fcd"},"vehicle_type_id":"4","last_reported":1718208565,"current_range_meters":15200,"station_id":"ce4bh692rcd13ifvqea0","pricing_plan_id":"cebpf4jnsgd1na2vs0mg"},{"bike_id":"88986250-6245-468b-9e67-f74ca3bb51a6","system_id":"levelo_inurba_marseille","lat":43.29269,"lon":5.3844,"is_reserved":false,"is_disabled":false,"rental_uris":{"android":"levelo://app?vid=88986250-6245-468b-9e67-f74ca3bb51a6","ios":"levelo://app?vid=88986250-6245-468b-9e67-f74ca3bb51a6"},"vehicle_type_id":"4","last_reported":1718208565,"current_range_meters":3200,"station_id":"ce4bh692rcd13ifvqea0","pricing_plan_id":"cebpf4jnsgd1na2vs0mg"},{"bike_id":"45a278f6-dfb0-4a95-9036-d3d3cf95b015","system_id":"levelo_inurba_marseille","lat":43.29263,"lon":5.38431,"is_reserved":false,"is_disabled":false,"rental_uris":{"android":"levelo://app?vid=45a278f6-dfb0-4a95-9036-d3d3cf95b015","ios":"levelo://app?vid=45a278f6-dfb0-4a95-9036-d3d3cf95b015"},"vehicle_type_id":"4","last_reported":1718208565,"current_range_meters":14000,"station_id":"ce4bh692rcd13ifvqea0","pricing_plan_id":"cebpf4jnsgd1na2vs0mg"},{"bike_id":"f57e13a4-8c60-4632-a916-4286bb74fb77","system_id":"levelo_inurba_marseille","lat":43.29262,"lon":5.3843,"is_reserved":false,"is_disabled":false,"rental_uris":{"android":"levelo://app?vid=f57e13a4-8c60-4632-a916-4286bb74fb77","ios":"levelo://app?vid=f57e13a4-8c60-4632-a916-4286bb74fb77"},"vehicle_type_id":"4","last_reported":1718208565,"current_range_meters":9600,"station_id":"ce4bh692rcd13ifvqea0","pricing_plan_id":"cebpf4jnsgd1na2vs0mg"},{"bike_id":"a9901fed-a743-4722-9669-4f607a6bd84a","system_id":"levelo_inurba_marseille","lat":43.29262,"lon":5.38445,"is_reserved":false,"is_disabled":false,"rental_uris":{"android":"levelo://app?vid=a9901fed-a743-4722-9669-4f607a6bd84a","ios":"levelo://app?vid=a9901fed-a743-4722-9669-4f607a6bd84a"},"vehicle_type_id":"4","last_reported":1718208565,"current_range_meters":13600,"station_id":"ce4bh692rcd13ifvqea0","pricing_plan_id":"cebpf4jnsgd1na2vs0mg"},{"bike_id":"031b6934-95fd-4a69-be09-93f510d78aaf","system_id":"levelo_inurba_marseille","lat":43.290104,"lon":5.356111,"is_reserved":false,"is_disabled":false,"rental_uris":{"android":"levelo://app?vid=031b6934-95fd-4a69-be09-93f510d78aaf","ios":"levelo://app?vid=031b6934-95fd-4a69-be09-93f510d78aaf"},"vehicle_type_id":"4","last_reported":1718208565,"current_range_meters":17200,"station_id":"ce4bhb92rcd13ifvqen0","pricing_plan_id":"cebpf4jnsgd1na2vs0mg"},{"bike_id":"aa7c68f7-42b3-4f35-9ebd-96603b43534f","system_id":"levelo_inurba_marseille","lat":43.290104,"lon":5.356111,"is_reserved":false,"is_disabled":false,"rental_uris":{"android":"levelo://app?vid=aa7c68f7-42b3-4f35-9ebd-96603b43534f","ios":"levelo://app?vid=aa7c68f7-42b3-4f35-9ebd-96603b43534f"},"vehicle_type_id":"4","last_reported":1718208565,"current_range_meters":0,"station_id":"ce4bhb92rcd13ifvqen0","pricing_plan_id":"cebpf4jnsgd1na2vs0mg"},{"bike_id":"b143e1e6-f2fe-4ef0-bb65-77d24e62bea5","system_id":"levelo_inurba_marseille","lat":43.29003,"lon":5.35624,"is_reserved":false,"is_disabled":false,"rental_uris":{"android":"levelo://app?vid=b143e1e6-f2fe-4ef0-bb65-77d24e62bea5","ios":"levelo://app?vid=b143e1e6-f2fe-4ef0-bb65-77d24e62bea5"},"vehicle_type_id":"4","last_reported":1718208565,"current_range_meters":31200,"station_id":"ce4bhb92rcd13ifvqen0","pricing_plan_id":"cebpf4jnsgd1na2vs0mg"},{"bike_id":"2691b110-e9f9-40df-856a-4ff0dda6776d","system_id":"levelo_inurba_marseille","lat":43.290995,"lon":5.381361,"is_reserved":false,"is_disabled":false,"rental_uris":{"android":"levelo://app?vid=2691b110-e9f9-40df-856a-4ff0dda6776d","ios":"levelo://app?vid=2691b110-e9f9-40df-856a-4ff0dda6776d"},"vehicle_type_id":"4","last_reported":1718208565,"current_range_meters":28000,"station_id":"ce4bh512rcd13ifvqe2g","pricing_plan_id":"cebpf4jnsgd1na2vs0mg"},{"bike_id":"46b9e686-45fc-4dd6-ac09-a2a7676c04dd","system_id":"levelo_inurba_marseille","lat":43.290995,"lon":5.381361,"is_reserved":false,"is_disabled":false,"rental_uris":{"android":"levelo://app?vid=46b9e686-45fc-4dd6-ac09-a2a7676c04dd","ios":"levelo://app?vid=46b9e686-45fc-4dd6-ac09-a2a7676c04dd"},"vehicle_type_id":"4","last_reported":1718208565,"current_range_meters":1200,"station_id":"ce4bh512rcd13ifvqe2g","pricing_plan_id":"cebpf4jnsgd1na2vs0mg"},{"bike_id":"fde61b44-144d-452e-b75a-6c07fb2c91d6","system_id":"levelo_inurba_marseille","lat":43.295169,"lon":5.390426,"is_reserved":false,"is_disabled":false,"rental_uris":{"android":"levelo://app?vid=fde61b44-144d-452e-b75a-6c07fb2c91d6","ios":"levelo://app?vid=fde61b44-144d-452e-b75a-6c07fb2c91d6"},"vehicle_type_id":"4","last_reported":1718208565,"current_range_meters":0,"station_id":"ce4bh3p2rcd13ifvqdp0","pricing_plan_id":"cebpf4jnsgd1na2vs0mg"},{"bike_id":"32ea7046-d842-469f-9b1b-4389b91240c2","system_id":"levelo_inurba_marseille","lat":43.297815,"lon":5.393548,"is_reserved":false,"is_disabled":false,"rental_uris":{"android":"levelo://app?vid=32ea7046-d842-469f-9b1b-4389b91240c2","ios":"levelo://app?vid=32ea7046-d842-469f-9b1b-4389b91240c2"},"vehicle_type_id":"4","last_reported":1718208565,"current_range_meters":14000,"station_id":"chh1huq6cuj3fo74tm60","pricing_plan_id":"cebpf4jnsgd1na2vs0mg"},{"bike_id":"2c271d0d-e7a9-4f0e-a15b-639ffeb1f8ce","system_id":"levelo_inurba_marseille","lat":43.29521,"lon":5.39014,"is_reserved":false,"is_disabled":false,"rental_uris":{"android":"levelo://app?vid=2c271d0d-e7a9-4f0e-a15b-639ffeb1f8ce","ios":"levelo://app?vid=2c271d0d-e7a9-4f0e-a15b-639ffeb1f8ce"},"vehicle_type_id":"4","last_reported":1718208565,"current_range_meters":8400,"station_id":"ce4bh3p2rcd13ifvqdp0","pricing_plan_id":"cebpf4jnsgd1na2vs0mg"},{"bike_id":"8ce72bd3-f2f5-4837-8d58-1c1426ac27f8","system_id":"levelo_inurba_marseille","lat":43.29528,"lon":5.39031,"is_reserved":false,"is_disabled":false,"rental_uris":{"android":"levelo://app?vid=8ce72bd3-f2f5-4837-8d58-1c1426ac27f8","ios":"levelo://app?vid=8ce72bd3-f2f5-4837-8d58-1c1426ac27f8"},"vehicle_type_id":"4","last_reported":1718208565,"current_range_meters":0,"station_id":"ce4bh3p2rcd13ifvqdp0","pricing_plan_id":"cebpf4jnsgd1na2vs0mg"},{"bike_id":"3ff791e6-35e2-4427-939d-a519818157c6","system_id":"levelo_inurba_marseille","lat":43.330442,"lon":5.389148,"is_reserved":false,"is_disabled":false,"rental_uris":{"android":"levelo://app?vid=3ff791e6-35e2-4427-939d-a519818157c6","ios":"levelo://app?vid=3ff791e6-35e2-4427-939d-a519818157c6"},"vehicle_type_id":"4","last_reported":1718208565,"current_range_meters":11200,"station_id":"ce4bhr92rcd13ifvqhrg","pricing_plan_id":"cebpf4jnsgd1na2vs0mg"},{"bike_id":"1ccaadf5-79d0-4875-907f-ea5366281843","system_id":"levelo_inurba_marseille","lat":43.33027,"lon":5.39042,"is_reserved":false,"is_disabled":false,"rental_uris":{"android":"levelo://app?vid=1ccaadf5-79d0-4875-907f-ea5366281843","ios":"levelo://app?vid=1ccaadf5-79d0-4875-907f-ea5366281843"},"vehicle_type_id":"4","last_reported":1718208565,"current_range_meters":18400,"station_id":"ce4bhr92rcd13ifvqhrg","pricing_plan_id":"cebpf4jnsgd1na2vs0mg"},{"bike_id":"586ae860-31f4-49ec-90c2-e8a467feeb9f","system_id":"levelo_inurba_marseille","lat":43.330442,"lon":5.389148,"is_reserved":false,"is_disabled":false,"rental_uris":{"android":"levelo://app?vid=586ae860-31f4-49ec-90c2-e8a467feeb9f","ios":"levelo://app?vid=586ae860-31f4-49ec-90c2-e8a467feeb9f"},"vehicle_type_id":"4","last_reported":1718208565,"current_range_meters":20000,"station_id":"ce4bhr92rcd13ifvqhrg","pricing_plan_id":"cebpf4jnsgd1na2vs0mg"},{"bike_id":"87607f48-04dd-4463-9b79-a7ba8b9706b3","system_id":"levelo_inurba_marseille","lat":43.330442,"lon":5.389148,"is_reserved":false,"is_disabled":false,"rental_uris":{"android":"levelo://app?vid=87607f48-04dd-4463-9b79-a7ba8b9706b3","ios":"levelo://app?vid=87607f48-04dd-4463-9b79-a7ba8b9706b3"},"vehicle_type_id":"4","last_reported":1718208565,"current_range_meters":13200,"station_id":"ce4bhr92rcd13ifvqhrg","pricing_plan_id":"cebpf4jnsgd1na2vs0mg"},{"bike_id":"c2393794-6303-458c-bb9f-778379649b62","system_id":"levelo_inurba_marseille","lat":43.33028,"lon":5.39045,"is_reserved":false,"is_disabled":false,"rental_uris":{"android":"levelo://app?vid=c2393794-6303-458c-bb9f-778379649b62","ios":"levelo://app?vid=c2393794-6303-458c-bb9f-778379649b62"},"vehicle_type_id":"4","last_reported":1718208565,"current_range_meters":19200,"station_id":"ce4bhr92rcd13ifvqhrg","pricing_plan_id":"cebpf4jnsgd1na2vs0mg"},{"bike_id":"6d5c1ba1-30b7-4293-bdfe-2f5f2a145f52","system_id":"levelo_inurba_marseille","lat":43.33029,"lon":5.39046,"is_reserved":false,"is_disabled":false,"rental_uris":{"android":"levelo://app?vid=6d5c1ba1-30b7-4293-bdfe-2f5f2a145f52","ios":"levelo://app?vid=6d5c1ba1-30b7-4293-bdfe-2f5f2a145f52"},"vehicle_type_id":"4","last_reported":1718208565,"current_range_meters":22000,"station_id":"ce4bhr92rcd13ifvqhrg","pricing_plan_id":"cebpf4jnsgd1na2vs0mg"},{"bike_id":"82385019-b075-4ada-9edd-db95a77ae121","system_id":"levelo_inurba_marseille","lat":43.33029,"lon":5.39047,"is_reserved":false,"is_disabled":false,"rental_uris":{"android":"levelo://app?vid=82385019-b075-4ada-9edd-db95a77ae121","ios":"levelo://app?vid=82385019-b075-4ada-9edd-db95a77ae121"},"vehicle_type_id":"4","last_reported":1718208565,"current_range_meters":8400,"station_id":"ce4bhr92rcd13ifvqhrg","pricing_plan_id":"cebpf4jnsgd1na2vs0mg"},{"bike_id":"bed7b3eb-7f91-44fd-bbcc-e89018fa8bed","system_id":"levelo_inurba_marseille","lat":43.290995,"lon":5.381361,"is_reserved":false,"is_disabled":false,"rental_uris":{"android":"levelo://app?vid=bed7b3eb-7f91-44fd-bbcc-e89018fa8bed","ios":"levelo://app?vid=bed7b3eb-7f91-44fd-bbcc-e89018fa8bed"},"vehicle_type_id":"4","last_reported":1718208565,"current_range_meters":0,"station_id":"ce4bh512rcd13ifvqe2g","pricing_plan_id":"cebpf4jnsgd1na2vs0mg"},{"bike_id":"35990f28-4620-492d-a552-ba4a49806606","system_id":"levelo_inurba_marseille","lat":43.295169,"lon":5.390426,"is_reserved":false,"is_disabled":false,"rental_uris":{"android":"levelo://app?vid=35990f28-4620-492d-a552-ba4a49806606","ios":"levelo://app?vid=35990f28-4620-492d-a552-ba4a49806606"},"vehicle_type_id":"4","last_reported":1718208565,"current_range_meters":9600,"station_id":"ce4bh3p2rcd13ifvqdp0","pricing_plan_id":"cebpf4jnsgd1na2vs0mg"},{"bike_id":"fc17ebd7-ebcb-445a-8de4-43efd6fab76f","system_id":"levelo_inurba_marseille","lat":43.319179,"lon":5.407725,"is_reserved":false,"is_disabled":false,"rental_uris":{"android":"levelo://app?vid=fc17ebd7-ebcb-445a-8de4-43efd6fab76f","ios":"levelo://app?vid=fc17ebd7-ebcb-445a-8de4-43efd6fab76f"},"vehicle_type_id":"4","last_reported":1718208565,"current_range_meters":2000,"station_id":"ce4bhq12rcd13ifvqhig","pricing_plan_id":"cebpf4jnsgd1na2vs0mg"},{"bike_id":"26f14463-bce0-4448-b3c0-f4c257c0f404","system_id":"levelo_inurba_marseille","lat":43.290094,"lon":5.381264,"is_reserved":false,"is_disabled":false,"rental_uris":{"android":"levelo://app?vid=26f14463-bce0-4448-b3c0-f4c257c0f404","ios":"levelo://app?vid=26f14463-bce0-4448-b3c0-f4c257c0f404"},"vehicle_type_id":"4","last_reported":1718208565,"current_range_meters":0,"station_id":"ce4bh4p2rcd13ifvqe1g","pricing_plan_id":"cebpf4jnsgd1na2vs0mg"},{"bike_id":"ce1abf3d-d6e5-413c-84ee-5428512f6ab7","system_id":"levelo_inurba_marseille","lat":43.290094,"lon":5.381264,"is_reserved":false,"is_disabled":false,"rental_uris":{"android":"levelo://app?vid=ce1abf3d-d6e5-413c-84ee-5428512f6ab7","ios":"levelo://app?vid=ce1abf3d-d6e5-413c-84ee-5428512f6ab7"},"vehicle_type_id":"4","last_reported":1718208565,"current_range_meters":0,"station_id":"ce4bh4p2rcd13ifvqe1g","pricing_plan_id":"cebpf4jnsgd1na2vs0mg"},{"bike_id":"609336e9-a573-48a2-ab0b-3e7246f59b3e","system_id":"levelo_inurba_marseille","lat":43.28852,"lon":5.35856,"is_reserved":false,"is_disabled":false,"rental_uris":{"android":"levelo://app?vid=609336e9-a573-48a2-ab0b-3e7246f59b3e","ios":"levelo://app?vid=609336e9-a573-48a2-ab0b-3e7246f59b3e"},"vehicle_type_id":"4","last_reported":1718208565,"current_range_meters":0,"station_id":"ce4bhb12rcd13ifvqem0","pricing_plan_id":"cebpf4jnsgd1na2vs0mg"},{"bike_id":"3d1b303b-e43d-4b4f-a519-326027dcef9f","system_id":"levelo_inurba_marseille","lat":43.28856,"lon":5.358371,"is_reserved":false,"is_disabled":false,"rental_uris":{"android":"levelo://app?vid=3d1b303b-e43d-4b4f-a519-326027dcef9f","ios":"levelo://app?vid=3d1b303b-e43d-4b4f-a519-326027dcef9f"},"vehicle_type_id":"4","last_reported":1718208565,"current_range_meters":29600,"station_id":"ce4bhb12rcd13ifvqem0","pricing_plan_id":"cebpf4jnsgd1na2vs0mg"},{"bike_id":"872c9cd9-c41f-4c5f-a61f-29eba9194f01","system_id":"levelo_inurba_marseille","lat":43.312609,"lon":5.401662,"is_reserved":false,"is_disabled":false,"rental_uris":{"android":"levelo://app?vid=872c9cd9-c41f-4c5f-a61f-29eba9194f01","ios":"levelo://app?vid=872c9cd9-c41f-4c5f-a61f-29eba9194f01"},"vehicle_type_id":"4","last_reported":1718208565,"current_range_meters":23600,"station_id":"ce4bh092rcd13ifvqd30","pricing_plan_id":"cebpf4jnsgd1na2vs0mg"},{"bike_id":"688db2e9-450a-4ebc-81e0-665ec27c1a4c","system_id":"levelo_inurba_marseille","lat":43.337444,"lon":5.374475,"is_reserved":false,"is_disabled":false,"rental_uris":{"android":"levelo://app?vid=688db2e9-450a-4ebc-81e0-665ec27c1a4c","ios":"levelo://app?vid=688db2e9-450a-4ebc-81e0-665ec27c1a4c"},"vehicle_type_id":"4","last_reported":1718208565,"current_range_meters":6000,"station_id":"","pricing_plan_id":"cebpf4jnsgd1na2vs0mg"},{"bike_id":"f6ad5a38-da1c-40a5-8ba5-a219615f39cb","system_id":"levelo_inurba_marseille","lat":43.33746,"lon":5.37467,"is_reserved":false,"is_disabled":false,"rental_uris":{"android":"levelo://app?vid=f6ad5a38-da1c-40a5-8ba5-a219615f39cb","ios":"levelo://app?vid=f6ad5a38-da1c-40a5-8ba5-a219615f39cb"},"vehicle_type_id":"4","last_reported":1718208565,"current_range_meters":18800,"station_id":"","pricing_plan_id":"cebpf4jnsgd1na2vs0mg"},{"bike_id":"674438e2-4add-4a21-bc2e-d64f7b8eacf9","system_id":"levelo_inurba_marseille","lat":43.33752,"lon":5.37449,"is_reserved":false,"is_disabled":false,"rental_uris":{"android":"levelo://app?vid=674438e2-4add-4a21-bc2e-d64f7b8eacf9","ios":"levelo://app?vid=674438e2-4add-4a21-bc2e-d64f7b8eacf9"},"vehicle_type_id":"4","last_reported":1718208565,"current_range_meters":25600,"station_id":"","pricing_plan_id":"cebpf4jnsgd1na2vs0mg"},{"bike_id":"102e168f-d5ec-482b-9e4f-07de15e28594","system_id":"levelo_inurba_marseille","lat":43.337534,"lon":5.37458,"is_reserved":false,"is_disabled":false,"rental_uris":{"android":"levelo://app?vid=102e168f-d5ec-482b-9e4f-07de15e28594","ios":"levelo://app?vid=102e168f-d5ec-482b-9e4f-07de15e28594"},"vehicle_type_id":"4","last_reported":1718208565,"current_range_meters":3200,"station_id":"","pricing_plan_id":"cebpf4jnsgd1na2vs0mg"},{"bike_id":"d1849cda-65d1-466c-89f7-e72de50cdd6f","system_id":"levelo_inurba_marseille","lat":43.33755,"lon":5.37457,"is_reserved":false,"is_disabled":false,"rental_uris":{"android":"levelo://app?vid=d1849cda-65d1-466c-89f7-e72de50cdd6f","ios":"levelo://app?vid=d1849cda-65d1-466c-89f7-e72de50cdd6f"},"vehicle_type_id":"4","last_reported":1718208565,"current_range_meters":25200,"station_id":"","pricing_plan_id":"cebpf4jnsgd1na2vs0mg"},{"bike_id":"51371c5d-6f7a-4125-a96f-27ac0862cdd2","system_id":"levelo_inurba_marseille","lat":43.309371,"lon":5.401449,"is_reserved":false,"is_disabled":false,"rental_uris":{"android":"levelo://app?vid=51371c5d-6f7a-4125-a96f-27ac0862cdd2","ios":"levelo://app?vid=51371c5d-6f7a-4125-a96f-27ac0862cdd2"},"vehicle_type_id":"4","last_reported":1718208565,"current_range_meters":2800,"station_id":"ce4bgvp2rcd13ifvqct0","pricing_plan_id":"cebpf4jnsgd1na2vs0mg"},{"bike_id":"cd6fbaa0-3f8c-4b29-beaf-56075c0662d6","system_id":"levelo_inurba_marseille","lat":43.30931,"lon":5.40159,"is_reserved":false,"is_disabled":false,"rental_uris":{"android":"levelo://app?vid=cd6fbaa0-3f8c-4b29-beaf-56075c0662d6","ios":"levelo://app?vid=cd6fbaa0-3f8c-4b29-beaf-56075c0662d6"},"vehicle_type_id":"4","last_reported":1718208565,"current_range_meters":0,"station_id":"ce4bgvp2rcd13ifvqct0","pricing_plan_id":"cebpf4jnsgd1na2vs0mg"},{"bike_id":"32ccdf7b-051d-4d4e-a00e-ff99cb2afccb","system_id":"levelo_inurba_marseille","lat":43.33757,"lon":5.37472,"is_reserved":false,"is_disabled":false,"rental_uris":{"android":"levelo://app?vid=32ccdf7b-051d-4d4e-a00e-ff99cb2afccb","ios":"levelo://app?vid=32ccdf7b-051d-4d4e-a00e-ff99cb2afccb"},"vehicle_type_id":"4","last_reported":1718208565,"current_range_meters":28000,"station_id":"","pricing_plan_id":"cebpf4jnsgd1na2vs0mg"},{"bike_id":"404c9df7-7854-41bb-a8ee-894a3e656a74","system_id":"levelo_inurba_marseille","lat":43.306586,"lon":5.40092,"is_reserved":false,"is_disabled":false,"rental_uris":{"android":"levelo://app?vid=404c9df7-7854-41bb-a8ee-894a3e656a74","ios":"levelo://app?vid=404c9df7-7854-41bb-a8ee-894a3e656a74"},"vehicle_type_id":"4","last_reported":1718208565,"current_range_meters":0,"station_id":"ce4bh112rcd13ifvqda0","pricing_plan_id":"cebpf4jnsgd1na2vs0mg"},{"bike_id":"ad66a201-6efe-4d73-836a-976caef4a30e","system_id":"levelo_inurba_marseille","lat":43.3376,"lon":5.37486,"is_reserved":false,"is_disabled":false,"rental_uris":{"android":"levelo://app?vid=ad66a201-6efe-4d73-836a-976caef4a30e","ios":"levelo://app?vid=ad66a201-6efe-4d73-836a-976caef4a30e"},"vehicle_type_id":"4","last_reported":1718208565,"current_range_meters":16000,"station_id":"","pricing_plan_id":"cebpf4jnsgd1na2vs0mg"},{"bike_id":"54913f74-428a-4059-964a-a093ef719d82","system_id":"levelo_inurba_marseille","lat":43.30657,"lon":5.40096,"is_reserved":false,"is_disabled":false,"rental_uris":{"android":"levelo://app?vid=54913f74-428a-4059-964a-a093ef719d82","ios":"levelo://app?vid=54913f74-428a-4059-964a-a093ef719d82"},"vehicle_type_id":"4","last_reported":1718208565,"current_range_meters":24400,"station_id":"ce4bh112rcd13ifvqda0","pricing_plan_id":"cebpf4jnsgd1na2vs0mg"},{"bike_id":"e5c1ae88-32ca-4edb-94c6-9c0a6bc1931d","system_id":"levelo_inurba_marseille","lat":43.337673,"lon":5.374566,"is_reserved":false,"is_disabled":false,"rental_uris":{"android":"levelo://app?vid=e5c1ae88-32ca-4edb-94c6-9c0a6bc1931d","ios":"levelo://app?vid=e5c1ae88-32ca-4edb-94c6-9c0a6bc1931d"},"vehicle_type_id":"4","last_reported":1718208565,"current_range_meters":16800,"station_id":"","pricing_plan_id":"cebpf4jnsgd1na2vs0mg"},{"bike_id":"3d31d0ea-9e98-4847-8df4-5732918b9540","system_id":"levelo_inurba_marseille","lat":43.306412,"lon":5.401035,"is_reserved":false,"is_disabled":false,"rental_uris":{"android":"levelo://app?vid=3d31d0ea-9e98-4847-8df4-5732918b9540","ios":"levelo://app?vid=3d31d0ea-9e98-4847-8df4-5732918b9540"},"vehicle_type_id":"4","last_reported":1718208565,"current_range_meters":11200,"station_id":"ce4bh112rcd13ifvqda0","pricing_plan_id":"cebpf4jnsgd1na2vs0mg"},{"bike_id":"5a67a25f-bdc7-4ee9-9dc5-83be6f945206","system_id":"levelo_inurba_marseille","lat":43.28727,"lon":5.36078,"is_reserved":false,"is_disabled":false,"rental_uris":{"android":"levelo://app?vid=5a67a25f-bdc7-4ee9-9dc5-83be6f945206","ios":"levelo://app?vid=5a67a25f-bdc7-4ee9-9dc5-83be6f945206"},"vehicle_type_id":"4","last_reported":1718208565,"current_range_meters":11600,"station_id":"cki0cbj6b192h4jlfktg","pricing_plan_id":"cebpf4jnsgd1na2vs0mg"},{"bike_id":"8864e927-9001-4ef6-9e79-ce1914319389","system_id":"levelo_inurba_marseille","lat":43.28727,"lon":5.36078,"is_reserved":false,"is_disabled":false,"rental_uris":{"android":"levelo://app?vid=8864e927-9001-4ef6-9e79-ce1914319389","ios":"levelo://app?vid=8864e927-9001-4ef6-9e79-ce1914319389"},"vehicle_type_id":"4","last_reported":1718208565,"current_range_meters":16000,"station_id":"cki0cbj6b192h4jlfktg","pricing_plan_id":"cebpf4jnsgd1na2vs0mg"},{"bike_id":"76f5458d-6488-414e-9400-f099c6296112","system_id":"levelo_inurba_marseille","lat":43.301117,"lon":5.398795,"is_reserved":false,"is_disabled":false,"rental_uris":{"android":"levelo://app?vid=76f5458d-6488-414e-9400-f099c6296112","ios":"levelo://app?vid=76f5458d-6488-414e-9400-f099c6296112"},"vehicle_type_id":"4","last_reported":1718208565,"current_range_meters":800,"station_id":"ce4bh0h2rcd13ifvqd40","pricing_plan_id":"cebpf4jnsgd1na2vs0mg"},{"bike_id":"4c3886a5-2134-4957-9cf6-38e9eef9c6d8","system_id":"levelo_inurba_marseille","lat":43.28728,"lon":5.36082,"is_reserved":false,"is_disabled":false,"rental_uris":{"android":"levelo://app?vid=4c3886a5-2134-4957-9cf6-38e9eef9c6d8","ios":"levelo://app?vid=4c3886a5-2134-4957-9cf6-38e9eef9c6d8"},"vehicle_type_id":"4","last_reported":1718208565,"current_range_meters":3600,"station_id":"cki0cbj6b192h4jlfktg","pricing_plan_id":"cebpf4jnsgd1na2vs0mg"},{"bike_id":"c4cacfa1-e8ff-4944-9341-2e3f191f705d","system_id":"levelo_inurba_marseille","lat":43.28725,"lon":5.36084,"is_reserved":false,"is_disabled":false,"rental_uris":{"android":"levelo://app?vid=c4cacfa1-e8ff-4944-9341-2e3f191f705d","ios":"levelo://app?vid=c4cacfa1-e8ff-4944-9341-2e3f191f705d"},"vehicle_type_id":"4","last_reported":1718208565,"current_range_meters":0,"station_id":"cki0cbj6b192h4jlfktg","pricing_plan_id":"cebpf4jnsgd1na2vs0mg"},{"bike_id":"e723d1c6-8a0d-440f-8a8b-97c111336564","system_id":"levelo_inurba_marseille","lat":43.28727,"lon":5.36078,"is_reserved":false,"is_disabled":false,"rental_uris":{"android":"levelo://app?vid=e723d1c6-8a0d-440f-8a8b-97c111336564","ios":"levelo://app?vid=e723d1c6-8a0d-440f-8a8b-97c111336564"},"vehicle_type_id":"4","last_reported":1718208565,"current_range_meters":0,"station_id":"cki0cbj6b192h4jlfktg","pricing_plan_id":"cebpf4jnsgd1na2vs0mg"},{"bike_id":"0148f4b1-bac2-4a29-93e8-2a7d0c0bef3e","system_id":"levelo_inurba_marseille","lat":43.286591,"lon":5.363346,"is_reserved":false,"is_disabled":false,"rental_uris":{"android":"levelo://app?vid=0148f4b1-bac2-4a29-93e8-2a7d0c0bef3e","ios":"levelo://app?vid=0148f4b1-bac2-4a29-93e8-2a7d0c0bef3e"},"vehicle_type_id":"4","last_reported":1718208565,"current_range_meters":4400,"station_id":"ce4bhah2rcd13ifvqej0","pricing_plan_id":"cebpf4jnsgd1na2vs0mg"},{"bike_id":"8c90c2ee-7195-45f9-a921-940448b6436b","system_id":"levelo_inurba_marseille","lat":43.286593,"lon":5.363346,"is_reserved":false,"is_disabled":false,"rental_uris":{"android":"levelo://app?vid=8c90c2ee-7195-45f9-a921-940448b6436b","ios":"levelo://app?vid=8c90c2ee-7195-45f9-a921-940448b6436b"},"vehicle_type_id":"4","last_reported":1718208565,"current_range_meters":28000,"station_id":"ce4bhah2rcd13ifvqej0","pricing_plan_id":"cebpf4jnsgd1na2vs0mg"},{"bike_id":"f045af59-c301-42ef-ad7b-35e6203879ff","system_id":"levelo_inurba_marseille","lat":43.286591,"lon":5.363346,"is_reserved":false,"is_disabled":false,"rental_uris":{"android":"levelo://app?vid=f045af59-c301-42ef-ad7b-35e6203879ff","ios":"levelo://app?vid=f045af59-c301-42ef-ad7b-35e6203879ff"},"vehicle_type_id":"4","last_reported":1718208565,"current_range_meters":400,"station_id":"ce4bhah2rcd13ifvqej0","pricing_plan_id":"cebpf4jnsgd1na2vs0mg"},{"bike_id":"e9da86a1-2977-481c-89ce-181cae9cb472","system_id":"levelo_inurba_marseille","lat":43.295196,"lon":5.39397,"is_reserved":false,"is_disabled":false,"rental_uris":{"android":"levelo://app?vid=e9da86a1-2977-481c-89ce-181cae9cb472","ios":"levelo://app?vid=e9da86a1-2977-481c-89ce-181cae9cb472"},"vehicle_type_id":"4","last_reported":1718208565,"current_range_meters":28800,"station_id":"ce4bh292rcd13ifvqdf0","pricing_plan_id":"cebpf4jnsgd1na2vs0mg"},{"bike_id":"be125f94-ee51-407e-b99b-85ba19d79107","system_id":"levelo_inurba_marseille","lat":43.298681,"lon":5.397225,"is_reserved":false,"is_disabled":false,"rental_uris":{"android":"levelo://app?vid=be125f94-ee51-407e-b99b-85ba19d79107","ios":"levelo://app?vid=be125f94-ee51-407e-b99b-85ba19d79107"},"vehicle_type_id":"4","last_reported":1718208565,"current_range_meters":17600,"station_id":"ce4bh0h2rcd13ifvqd50","pricing_plan_id":"cebpf4jnsgd1na2vs0mg"},{"bike_id":"9f419554-0ef0-42fa-a792-1252fc58279b","system_id":"levelo_inurba_marseille","lat":43.298681,"lon":5.397225,"is_reserved":false,"is_disabled":false,"rental_uris":{"android":"levelo://app?vid=9f419554-0ef0-42fa-a792-1252fc58279b","ios":"levelo://app?vid=9f419554-0ef0-42fa-a792-1252fc58279b"},"vehicle_type_id":"4","last_reported":1718208565,"current_range_meters":22400,"station_id":"ce4bh0h2rcd13ifvqd50","pricing_plan_id":"cebpf4jnsgd1na2vs0mg"},{"bike_id":"2de68f1f-fbb9-4214-a8d1-3fcef3cca83f","system_id":"levelo_inurba_marseille","lat":43.286961,"lon":5.373785,"is_reserved":false,"is_disabled":false,"rental_uris":{"android":"levelo://app?vid=2de68f1f-fbb9-4214-a8d1-3fcef3cca83f","ios":"levelo://app?vid=2de68f1f-fbb9-4214-a8d1-3fcef3cca83f"},"vehicle_type_id":"4","last_reported":1718208565,"current_range_meters":8000,"station_id":"ce4bh3p2rcd13ifvqdq0","pricing_plan_id":"cebpf4jnsgd1na2vs0mg"},{"bike_id":"554ae3af-076d-4726-85fa-11a5fa544075","system_id":"levelo_inurba_marseille","lat":43.286593,"lon":5.363346,"is_reserved":false,"is_disabled":false,"rental_uris":{"android":"levelo://app?vid=554ae3af-076d-4726-85fa-11a5fa544075","ios":"levelo://app?vid=554ae3af-076d-4726-85fa-11a5fa544075"},"vehicle_type_id":"4","last_reported":1718208565,"current_range_meters":0,"station_id":"ce4bhah2rcd13ifvqej0","pricing_plan_id":"cebpf4jnsgd1na2vs0mg"},{"bike_id":"82965ca6-d547-432f-b2f2-d3d59ce96ecf","system_id":"levelo_inurba_marseille","lat":43.286961,"lon":5.373785,"is_reserved":false,"is_disabled":false,"rental_uris":{"android":"levelo://app?vid=82965ca6-d547-432f-b2f2-d3d59ce96ecf","ios":"levelo://app?vid=82965ca6-d547-432f-b2f2-d3d59ce96ecf"},"vehicle_type_id":"4","last_reported":1718208565,"current_range_meters":0,"station_id":"ce4bh3p2rcd13ifvqdq0","pricing_plan_id":"cebpf4jnsgd1na2vs0mg"},{"bike_id":"e2923878-c999-4953-9bad-ac6598e8dbb8","system_id":"levelo_inurba_marseille","lat":43.286593,"lon":5.363346,"is_reserved":false,"is_disabled":false,"rental_uris":{"android":"levelo://app?vid=e2923878-c999-4953-9bad-ac6598e8dbb8","ios":"levelo://app?vid=e2923878-c999-4953-9bad-ac6598e8dbb8"},"vehicle_type_id":"4","last_reported":1718208565,"current_range_meters":0,"station_id":"ce4bhah2rcd13ifvqej0","pricing_plan_id":"cebpf4jnsgd1na2vs0mg"},{"bike_id":"826aa390-8e49-42ab-93c8-550f3939b05e","system_id":"levelo_inurba_marseille","lat":43.295194,"lon":5.39397,"is_reserved":false,"is_disabled":false,"rental_uris":{"android":"levelo://app?vid=826aa390-8e49-42ab-93c8-550f3939b05e","ios":"levelo://app?vid=826aa390-8e49-42ab-93c8-550f3939b05e"},"vehicle_type_id":"4","last_reported":1718208565,"current_range_meters":400,"station_id":"ce4bh292rcd13ifvqdf0","pricing_plan_id":"cebpf4jnsgd1na2vs0mg"},{"bike_id":"b6ca342d-9dec-4957-a246-215cb2b6c449","system_id":"levelo_inurba_marseille","lat":43.295194,"lon":5.39397,"is_reserved":false,"is_disabled":false,"rental_uris":{"android":"levelo://app?vid=b6ca342d-9dec-4957-a246-215cb2b6c449","ios":"levelo://app?vid=b6ca342d-9dec-4957-a246-215cb2b6c449"},"vehicle_type_id":"4","last_reported":1718208565,"current_range_meters":11200,"station_id":"ce4bh292rcd13ifvqdf0","pricing_plan_id":"cebpf4jnsgd1na2vs0mg"},{"bike_id":"c6bb36e4-bc45-4d6d-bbdf-97612d019a70","system_id":"levelo_inurba_marseille","lat":43.295194,"lon":5.39397,"is_reserved":false,"is_disabled":false,"rental_uris":{"android":"levelo://app?vid=c6bb36e4-bc45-4d6d-bbdf-97612d019a70","ios":"levelo://app?vid=c6bb36e4-bc45-4d6d-bbdf-97612d019a70"},"vehicle_type_id":"4","last_reported":1718208565,"current_range_meters":8800,"station_id":"ce4bh292rcd13ifvqdf0","pricing_plan_id":"cebpf4jnsgd1na2vs0mg"},{"bike_id":"02ccd007-7b4a-40f6-8731-77a70421d759","system_id":"levelo_inurba_marseille","lat":43.295194,"lon":5.39397,"is_reserved":false,"is_disabled":false,"rental_uris":{"android":"levelo://app?vid=02ccd007-7b4a-40f6-8731-77a70421d759","ios":"levelo://app?vid=02ccd007-7b4a-40f6-8731-77a70421d759"},"vehicle_type_id":"4","last_reported":1718208565,"current_range_meters":23600,"station_id":"ce4bh292rcd13ifvqdf0","pricing_plan_id":"cebpf4jnsgd1na2vs0mg"},{"bike_id":"6a952e4f-af25-4ca8-9f84-a080208bd4ce","system_id":"levelo_inurba_marseille","lat":43.295194,"lon":5.39397,"is_reserved":false,"is_disabled":false,"rental_uris":{"android":"levelo://app?vid=6a952e4f-af25-4ca8-9f84-a080208bd4ce","ios":"levelo://app?vid=6a952e4f-af25-4ca8-9f84-a080208bd4ce"},"vehicle_type_id":"4","last_reported":1718208565,"current_range_meters":2400,"station_id":"ce4bh292rcd13ifvqdf0","pricing_plan_id":"cebpf4jnsgd1na2vs0mg"},{"bike_id":"26540b88-cfa3-4538-a112-2d4f965f389f","system_id":"levelo_inurba_marseille","lat":43.295196,"lon":5.39397,"is_reserved":false,"is_disabled":false,"rental_uris":{"android":"levelo://app?vid=26540b88-cfa3-4538-a112-2d4f965f389f","ios":"levelo://app?vid=26540b88-cfa3-4538-a112-2d4f965f389f"},"vehicle_type_id":"4","last_reported":1718208565,"current_range_meters":12400,"station_id":"ce4bh292rcd13ifvqdf0","pricing_plan_id":"cebpf4jnsgd1na2vs0mg"},{"bike_id":"e849d80e-51a4-4c96-8ac7-97586f6c1158","system_id":"levelo_inurba_marseille","lat":43.295194,"lon":5.39397,"is_reserved":false,"is_disabled":false,"rental_uris":{"android":"levelo://app?vid=e849d80e-51a4-4c96-8ac7-97586f6c1158","ios":"levelo://app?vid=e849d80e-51a4-4c96-8ac7-97586f6c1158"},"vehicle_type_id":"4","last_reported":1718208565,"current_range_meters":2400,"station_id":"ce4bh292rcd13ifvqdf0","pricing_plan_id":"cebpf4jnsgd1na2vs0mg"},{"bike_id":"c96e04b4-0343-4311-be3a-e903fbbbecfc","system_id":"levelo_inurba_marseille","lat":43.289307,"lon":5.38406,"is_reserved":false,"is_disabled":false,"rental_uris":{"android":"levelo://app?vid=c96e04b4-0343-4311-be3a-e903fbbbecfc","ios":"levelo://app?vid=c96e04b4-0343-4311-be3a-e903fbbbecfc"},"vehicle_type_id":"4","last_reported":1718208565,"current_range_meters":27200,"station_id":"ce4bh612rcd13ifvqe6g","pricing_plan_id":"cebpf4jnsgd1na2vs0mg"},{"bike_id":"f6cd4db1-02e7-4170-b744-d35d6077845f","system_id":"levelo_inurba_marseille","lat":43.295194,"lon":5.39397,"is_reserved":false,"is_disabled":false,"rental_uris":{"android":"levelo://app?vid=f6cd4db1-02e7-4170-b744-d35d6077845f","ios":"levelo://app?vid=f6cd4db1-02e7-4170-b744-d35d6077845f"},"vehicle_type_id":"4","last_reported":1718208565,"current_range_meters":18000,"station_id":"ce4bh292rcd13ifvqdf0","pricing_plan_id":"cebpf4jnsgd1na2vs0mg"},{"bike_id":"7d8d9b7a-44e0-4086-9511-32dc5863a8c4","system_id":"levelo_inurba_marseille","lat":43.289307,"lon":5.38406,"is_reserved":false,"is_disabled":false,"rental_uris":{"android":"levelo://app?vid=7d8d9b7a-44e0-4086-9511-32dc5863a8c4","ios":"levelo://app?vid=7d8d9b7a-44e0-4086-9511-32dc5863a8c4"},"vehicle_type_id":"4","last_reported":1718208565,"current_range_meters":4800,"station_id":"ce4bh612rcd13ifvqe6g","pricing_plan_id":"cebpf4jnsgd1na2vs0mg"},{"bike_id":"29c7971b-a285-4c61-8cb0-7f83e531a6ed","system_id":"levelo_inurba_marseille","lat":43.290345,"lon":5.38646,"is_reserved":false,"is_disabled":false,"rental_uris":{"android":"levelo://app?vid=29c7971b-a285-4c61-8cb0-7f83e531a6ed","ios":"levelo://app?vid=29c7971b-a285-4c61-8cb0-7f83e531a6ed"},"vehicle_type_id":"4","last_reported":1718208565,"current_range_meters":0,"station_id":"ce4bh4p2rcd13ifvqe0g","pricing_plan_id":"cebpf4jnsgd1na2vs0mg"},{"bike_id":"01478514-f9cb-438e-92b6-dd5fed59222c","system_id":"levelo_inurba_marseille","lat":43.290345,"lon":5.38646,"is_reserved":false,"is_disabled":false,"rental_uris":{"android":"levelo://app?vid=01478514-f9cb-438e-92b6-dd5fed59222c","ios":"levelo://app?vid=01478514-f9cb-438e-92b6-dd5fed59222c"},"vehicle_type_id":"4","last_reported":1718208565,"current_range_meters":16000,"station_id":"ce4bh4p2rcd13ifvqe0g","pricing_plan_id":"cebpf4jnsgd1na2vs0mg"},{"bike_id":"6c20fea3-7b4b-4cdf-bf64-71644b199bf9","system_id":"levelo_inurba_marseille","lat":43.290307,"lon":5.386487,"is_reserved":false,"is_disabled":false,"rental_uris":{"android":"levelo://app?vid=6c20fea3-7b4b-4cdf-bf64-71644b199bf9","ios":"levelo://app?vid=6c20fea3-7b4b-4cdf-bf64-71644b199bf9"},"vehicle_type_id":"4","last_reported":1718208565,"current_range_meters":0,"station_id":"ce4bh4p2rcd13ifvqe0g","pricing_plan_id":"cebpf4jnsgd1na2vs0mg"},{"bike_id":"0a091666-788f-4aba-ba99-7724e5aa3c99","system_id":"levelo_inurba_marseille","lat":43.290336,"lon":5.386425,"is_reserved":false,"is_disabled":false,"rental_uris":{"android":"levelo://app?vid=0a091666-788f-4aba-ba99-7724e5aa3c99","ios":"levelo://app?vid=0a091666-788f-4aba-ba99-7724e5aa3c99"},"vehicle_type_id":"4","last_reported":1718208565,"current_range_meters":20000,"station_id":"ce4bh4p2rcd13ifvqe0g","pricing_plan_id":"cebpf4jnsgd1na2vs0mg"},{"bike_id":"dbfafff3-5bf1-4a1d-810b-a2f97fb2d158","system_id":"levelo_inurba_marseille","lat":43.28923,"lon":5.38407,"is_reserved":false,"is_disabled":false,"rental_uris":{"android":"levelo://app?vid=dbfafff3-5bf1-4a1d-810b-a2f97fb2d158","ios":"levelo://app?vid=dbfafff3-5bf1-4a1d-810b-a2f97fb2d158"},"vehicle_type_id":"4","last_reported":1718208565,"current_range_meters":400,"station_id":"ce4bh612rcd13ifvqe6g","pricing_plan_id":"cebpf4jnsgd1na2vs0mg"},{"bike_id":"394c3f8a-279b-421a-a326-2af978d38e19","system_id":"levelo_inurba_marseille","lat":43.289307,"lon":5.38406,"is_reserved":false,"is_disabled":false,"rental_uris":{"android":"levelo://app?vid=394c3f8a-279b-421a-a326-2af978d38e19","ios":"levelo://app?vid=394c3f8a-279b-421a-a326-2af978d38e19"},"vehicle_type_id":"4","last_reported":1718208565,"current_range_meters":2800,"station_id":"ce4bh612rcd13ifvqe6g","pricing_plan_id":"cebpf4jnsgd1na2vs0mg"},{"bike_id":"42bcdb46-9ac3-4498-a3b4-771f9ef10ee8","system_id":"levelo_inurba_marseille","lat":43.302759,"lon":5.400793,"is_reserved":false,"is_disabled":false,"rental_uris":{"android":"levelo://app?vid=42bcdb46-9ac3-4498-a3b4-771f9ef10ee8","ios":"levelo://app?vid=42bcdb46-9ac3-4498-a3b4-771f9ef10ee8"},"vehicle_type_id":"4","last_reported":1718208565,"current_range_meters":800,"station_id":"ce4bgvh2rcd13ifvqcs0","pricing_plan_id":"cebpf4jnsgd1na2vs0mg"},{"bike_id":"bd6314d6-6a46-41b9-9b08-84d3579a95cf","system_id":"levelo_inurba_marseille","lat":43.286039,"lon":5.370679,"is_reserved":false,"is_disabled":false,"rental_uris":{"android":"levelo://app?vid=bd6314d6-6a46-41b9-9b08-84d3579a95cf","ios":"levelo://app?vid=bd6314d6-6a46-41b9-9b08-84d3579a95cf"},"vehicle_type_id":"4","last_reported":1718208565,"current_range_meters":31600,"station_id":"ce4bht12rcd13ifvqi60","pricing_plan_id":"cebpf4jnsgd1na2vs0mg"},{"bike_id":"4e557c29-b685-4179-ab24-c0cf69516f9b","system_id":"levelo_inurba_marseille","lat":43.316828,"lon":5.404723,"is_reserved":false,"is_disabled":false,"rental_uris":{"android":"levelo://app?vid=4e557c29-b685-4179-ab24-c0cf69516f9b","ios":"levelo://app?vid=4e557c29-b685-4179-ab24-c0cf69516f9b"},"vehicle_type_id":"4","last_reported":1718208565,"current_range_meters":0,"station_id":"ce4bh012rcd13ifvqd00","pricing_plan_id":"cebpf4jnsgd1na2vs0mg"},{"bike_id":"15b68ede-a6fd-460f-a3fa-d5f79d7d919b","system_id":"levelo_inurba_marseille","lat":43.316821,"lon":5.404737,"is_reserved":false,"is_disabled":false,"rental_uris":{"android":"levelo://app?vid=15b68ede-a6fd-460f-a3fa-d5f79d7d919b","ios":"levelo://app?vid=15b68ede-a6fd-460f-a3fa-d5f79d7d919b"},"vehicle_type_id":"4","last_reported":1718208565,"current_range_meters":14000,"station_id":"ce4bh012rcd13ifvqd00","pricing_plan_id":"cebpf4jnsgd1na2vs0mg"},{"bike_id":"010ab375-7bde-4c9d-b5fc-4e46a4e4697f","system_id":"levelo_inurba_marseille","lat":43.316821,"lon":5.404737,"is_reserved":false,"is_disabled":false,"rental_uris":{"android":"levelo://app?vid=010ab375-7bde-4c9d-b5fc-4e46a4e4697f","ios":"levelo://app?vid=010ab375-7bde-4c9d-b5fc-4e46a4e4697f"},"vehicle_type_id":"4","last_reported":1718208565,"current_range_meters":9200,"station_id":"ce4bh012rcd13ifvqd00","pricing_plan_id":"cebpf4jnsgd1na2vs0mg"},{"bike_id":"f70ff25b-7bd0-496a-9326-ac3354c6c5a7","system_id":"levelo_inurba_marseille","lat":43.316821,"lon":5.404737,"is_reserved":false,"is_disabled":false,"rental_uris":{"android":"levelo://app?vid=f70ff25b-7bd0-496a-9326-ac3354c6c5a7","ios":"levelo://app?vid=f70ff25b-7bd0-496a-9326-ac3354c6c5a7"},"vehicle_type_id":"4","last_reported":1718208565,"current_range_meters":23600,"station_id":"ce4bh012rcd13ifvqd00","pricing_plan_id":"cebpf4jnsgd1na2vs0mg"},{"bike_id":"20bdd632-a17b-49e8-8477-acc994f48138","system_id":"levelo_inurba_marseille","lat":43.291994,"lon":5.392907,"is_reserved":false,"is_disabled":false,"rental_uris":{"android":"levelo://app?vid=20bdd632-a17b-49e8-8477-acc994f48138","ios":"levelo://app?vid=20bdd632-a17b-49e8-8477-acc994f48138"},"vehicle_type_id":"4","last_reported":1718208565,"current_range_meters":25600,"station_id":"ce4bh192rcd13ifvqdd0","pricing_plan_id":"cebpf4jnsgd1na2vs0mg"},{"bike_id":"b42ab482-823f-41db-988e-175fdab7ff0a","system_id":"levelo_inurba_marseille","lat":43.291994,"lon":5.392907,"is_reserved":false,"is_disabled":false,"rental_uris":{"android":"levelo://app?vid=b42ab482-823f-41db-988e-175fdab7ff0a","ios":"levelo://app?vid=b42ab482-823f-41db-988e-175fdab7ff0a"},"vehicle_type_id":"4","last_reported":1718208565,"current_range_meters":10000,"station_id":"ce4bh192rcd13ifvqdd0","pricing_plan_id":"cebpf4jnsgd1na2vs0mg"},{"bike_id":"b24b8a75-4d35-496b-90b0-72502da5143f","system_id":"levelo_inurba_marseille","lat":43.284534,"lon":5.358662,"is_reserved":false,"is_disabled":false,"rental_uris":{"android":"levelo://app?vid=b24b8a75-4d35-496b-90b0-72502da5143f","ios":"levelo://app?vid=b24b8a75-4d35-496b-90b0-72502da5143f"},"vehicle_type_id":"4","last_reported":1718208565,"current_range_meters":22400,"station_id":"ce4bhah2rcd13ifvqei0","pricing_plan_id":"cebpf4jnsgd1na2vs0mg"},{"bike_id":"3346b55f-71a1-46c5-a345-4afc86af2446","system_id":"levelo_inurba_marseille","lat":43.284534,"lon":5.358662,"is_reserved":false,"is_disabled":false,"rental_uris":{"android":"levelo://app?vid=3346b55f-71a1-46c5-a345-4afc86af2446","ios":"levelo://app?vid=3346b55f-71a1-46c5-a345-4afc86af2446"},"vehicle_type_id":"4","last_reported":1718208565,"current_range_meters":23600,"station_id":"ce4bhah2rcd13ifvqei0","pricing_plan_id":"cebpf4jnsgd1na2vs0mg"},{"bike_id":"baa363d5-6544-4438-b641-dc95ba079918","system_id":"levelo_inurba_marseille","lat":43.294314,"lon":5.397498,"is_reserved":false,"is_disabled":false,"rental_uris":{"android":"levelo://app?vid=baa363d5-6544-4438-b641-dc95ba079918","ios":"levelo://app?vid=baa363d5-6544-4438-b641-dc95ba079918"},"vehicle_type_id":"4","last_reported":1718208565,"current_range_meters":12000,"station_id":"ce4bh3h2rcd13ifvqdo0","pricing_plan_id":"cebpf4jnsgd1na2vs0mg"},{"bike_id":"10775f95-ea76-42e8-9ced-80f091983fc3","system_id":"levelo_inurba_marseille","lat":43.294314,"lon":5.397498,"is_reserved":false,"is_disabled":false,"rental_uris":{"android":"levelo://app?vid=10775f95-ea76-42e8-9ced-80f091983fc3","ios":"levelo://app?vid=10775f95-ea76-42e8-9ced-80f091983fc3"},"vehicle_type_id":"4","last_reported":1718208565,"current_range_meters":2400,"station_id":"ce4bh3h2rcd13ifvqdo0","pricing_plan_id":"cebpf4jnsgd1na2vs0mg"},{"bike_id":"477790df-bac7-4e4a-951a-74728388864b","system_id":"levelo_inurba_marseille","lat":43.28623,"lon":5.35101,"is_reserved":false,"is_disabled":false,"rental_uris":{"android":"levelo://app?vid=477790df-bac7-4e4a-951a-74728388864b","ios":"levelo://app?vid=477790df-bac7-4e4a-951a-74728388864b"},"vehicle_type_id":"4","last_reported":1718208565,"current_range_meters":9600,"station_id":"ce4bhch2rcd13ifvqeug","pricing_plan_id":"cebpf4jnsgd1na2vs0mg"},{"bike_id":"560553c2-2ea3-48d4-a63b-ed24cd437e0e","system_id":"levelo_inurba_marseille","lat":43.2862,"lon":5.35106,"is_reserved":false,"is_disabled":false,"rental_uris":{"android":"levelo://app?vid=560553c2-2ea3-48d4-a63b-ed24cd437e0e","ios":"levelo://app?vid=560553c2-2ea3-48d4-a63b-ed24cd437e0e"},"vehicle_type_id":"4","last_reported":1718208565,"current_range_meters":31200,"station_id":"ce4bhch2rcd13ifvqeug","pricing_plan_id":"cebpf4jnsgd1na2vs0mg"},{"bike_id":"d2a461c5-7930-42f0-91f6-b1da28817194","system_id":"levelo_inurba_marseille","lat":43.285856,"lon":5.350771,"is_reserved":false,"is_disabled":false,"rental_uris":{"android":"levelo://app?vid=d2a461c5-7930-42f0-91f6-b1da28817194","ios":"levelo://app?vid=d2a461c5-7930-42f0-91f6-b1da28817194"},"vehicle_type_id":"4","last_reported":1718208565,"current_range_meters":22800,"station_id":"ce4bhch2rcd13ifvqeug","pricing_plan_id":"cebpf4jnsgd1na2vs0mg"},{"bike_id":"dfe10a98-1770-416d-9d20-88954ab375bb","system_id":"levelo_inurba_marseille","lat":43.285856,"lon":5.350771,"is_reserved":false,"is_disabled":false,"rental_uris":{"android":"levelo://app?vid=dfe10a98-1770-416d-9d20-88954ab375bb","ios":"levelo://app?vid=dfe10a98-1770-416d-9d20-88954ab375bb"},"vehicle_type_id":"4","last_reported":1718208565,"current_range_meters":14400,"station_id":"ce4bhch2rcd13ifvqeug","pricing_plan_id":"cebpf4jnsgd1na2vs0mg"},{"bike_id":"43db8a02-5bbe-4d7f-8884-8de0c11ff821","system_id":"levelo_inurba_marseille","lat":43.285848,"lon":5.350787,"is_reserved":false,"is_disabled":false,"rental_uris":{"android":"levelo://app?vid=43db8a02-5bbe-4d7f-8884-8de0c11ff821","ios":"levelo://app?vid=43db8a02-5bbe-4d7f-8884-8de0c11ff821"},"vehicle_type_id":"4","last_reported":1718208565,"current_range_meters":26000,"station_id":"ce4bhch2rcd13ifvqeug","pricing_plan_id":"cebpf4jnsgd1na2vs0mg"},