{"last_updated":1702473017,"ttl":30,"version":"2.2","data":{"bikes":[{"bike_id":"8dea2f93-7605-478b-b76f-61aec6fd84dd","system_id":"levelo_inurba_marseille","lat":43.312239,"lon":5.368562,"is_reserved":false,"is_disabled":false,"rental_uris":{"android":"levelo://app?vid=8dea2f93-7605-478b-b76f-61aec6fd84dd","ios":"levelo://app?vid=8dea2f93-7605-478b-b76f-61aec6fd84dd"},"vehicle_type_id":"4","last_reported":1702473017,"current_range_meters":7600,"station_id":"ce4bgl92rcd13ifvqbq0","pricing_plan_id":"free"},{"bike_id":"fea052f3-f40e-4101-a247-0c65ed0f8230","system_id":"levelo_inurba_marseille","lat":43.312239,"lon":5.368562,"is_reserved":false,"is_disabled":false,"rental_uris":{"android":"levelo://app?vid=fea052f3-f40e-4101-a247-0c65ed0f8230","ios":"levelo://app?vid=fea052f3-f40e-4101-a247-0c65ed0f8230"},"vehicle_type_id":"4","last_reported":1702473017,"current_range_meters":28800,"station_id":"ce4bgl92rcd13ifvqbq0","pricing_plan_id":"free"},{"bike_id":"967915b7-831b-48e3-9546-280f7d46f607","system_id":"levelo_inurba_marseille","lat":43.312239,"lon":5.368562,"is_reserved":false,"is_disabled":false,"rental_uris":{"android":"levelo://app?vid=967915b7-831b-48e3-9546-280f7d46f607","ios":"levelo://app?vid=967915b7-831b-48e3-9546-280f7d46f607"},"vehicle_type_id":"4","last_reported":1702473017,"current_range_meters":20800,"station_id":"ce4bgl92rcd13ifvqbq0","pricing_plan_id":"free"},{"bike_id":"eaf3ab63-bb31-4b82-9ccd-18b394bac9a7","system_id":"levelo_inurba_marseille","lat":43.314811,"lon":5.373103,"is_reserved":false,"is_disabled":false,"rental_uris":{"android":"levelo://app?vid=eaf3ab63-bb31-4b82-9ccd-18b394bac9a7","ios":"levelo://app?vid=eaf3ab63-bb31-4b82-9ccd-18b394bac9a7"},"vehicle_type_id":"4","last_reported":1702473017,"current_range_meters":17200,"station_id":"ce4bgt12rcd13ifvqcd0","pricing_plan_id":"free"},{"bike_id":"7a741aaa-f0ba-4da9-b019-d1c0655b5b62","system_id":"levelo_inurba_marseille","lat":43.309039,"lon":5.371797,"is_reserved":false,"is_disabled":false,"rental_uris":{"android":"levelo://app?vid=7a741aaa-f0ba-4da9-b019-d1c0655b5b62","ios":"levelo://app?vid=7a741aaa-f0ba-4da9-b019-d1c0655b5b62"},"vehicle_type_id":"4","last_reported":1702473017,"current_range_meters":26400,"station_id":"ce4bguh2rcd13ifvqckg","pricing_plan_id":"free"},{"bike_id":"accfd7db-6d3e-4a9f-86e5-3d4b9b9b912d","system_id":"levelo_inurba_marseille","lat":43.309039,"lon":5.371797,"is_reserved":false,"is_disabled":false,"rental_uris":{"android":"levelo://app?vid=accfd7db-6d3e-4a9f-86e5-3d4b9b9b912d","ios":"levelo://app?vid=accfd7db-6d3e-4a9f-86e5-3d4b9b9b912d"},"vehicle_type_id":"4","last_reported":1702473017,"current_range_meters":4800,"station_id":"ce4bguh2rcd13ifvqckg","pricing_plan_id":"free"},{"bike_id":"d94cfb54-2b64-4f81-b209-589c8d44a0b5","system_id":"levelo_inurba_marseille","lat":43.309039,"lon":5.371797,"is_reserved":false,"is_disabled":false,"rental_uris":{"android":"levelo://app?vid=d94cfb54-2b64-4f81-b209-589c8d44a0b5","ios":"levelo://app?vid=d94cfb54-2b64-4f81-b209-589c8d44a0b5"},"vehicle_type_id":"4","last_reported":1702473017,"current_range_meters":17200,"station_id":"ce4bguh2rcd13ifvqckg","pricing_plan_id":"free"},{"bike_id":"3f8b821f-e430-4a35-bf14-f8b6e777ea11","system_id":"levelo_inurba_marseille","lat":43.313939,"lon":5.375306,"is_reserved":false,"is_disabled":false,"rental_uris":{"android":"levelo://app?vid=3f8b821f-e430-4a35-bf14-f8b6e777ea11","ios":"levelo://app?vid=3f8b821f-e430-4a35-bf14-f8b6e777ea11"},"vehicle_type_id":"4","last_reported":1702473017,"current_range_meters":7600,"station_id":"","pricing_plan_id":"free"},{"bike_id":"3745f300-4063-49f5-b913-a803aa693739","system_id":"levelo_inurba_marseille","lat":43.305368,"lon":5.367343,"is_reserved":false,"is_disabled":false,"rental_uris":{"android":"levelo://app?vid=3745f300-4063-49f5-b913-a803aa693739","ios":"levelo://app?vid=3745f300-4063-49f5-b913-a803aa693739"},"vehicle_type_id":"4","last_reported":1702473017,"current_range_meters":4800,"station_id":"ce4bgrp2rcd13ifvqc9g","pricing_plan_id":"free"},{"bike_id":"70662d5e-f1d5-44af-b30c-8024e135cd85","system_id":"levelo_inurba_marseille","lat":43.305714,"lon":5.365633,"is_reserved":false,"is_disabled":false,"rental_uris":{"android":"levelo://app?vid=70662d5e-f1d5-44af-b30c-8024e135cd85","ios":"levelo://app?vid=70662d5e-f1d5-44af-b30c-8024e135cd85"},"vehicle_type_id":"4","last_reported":1702473017,"current_range_meters":27200,"station_id":"ce4bgs12rcd13ifvqcag","pricing_plan_id":"free"},{"bike_id":"955e4ab2-16e5-44e8-a986-a2f50ff96c06","system_id":"levelo_inurba_marseille","lat":43.305382,"lon":5.365389,"is_reserved":false,"is_disabled":false,"rental_uris":{"android":"levelo://app?vid=955e4ab2-16e5-44e8-a986-a2f50ff96c06","ios":"levelo://app?vid=955e4ab2-16e5-44e8-a986-a2f50ff96c06"},"vehicle_type_id":"4","last_reported":1702473017,"current_range_meters":27200,"station_id":"","pricing_plan_id":"free"},{"bike_id":"b2db1107-f66f-4029-a1a5-7e159f6d83aa","system_id":"levelo_inurba_marseille","lat":43.305989,"lon":5.37225,"is_reserved":false,"is_disabled":false,"rental_uris":{"android":"levelo://app?vid=b2db1107-f66f-4029-a1a5-7e159f6d83aa","ios":"levelo://app?vid=b2db1107-f66f-4029-a1a5-7e159f6d83aa"},"vehicle_type_id":"4","last_reported":1702473017,"current_range_meters":16400,"station_id":"ce4bgqh2rcd13ifvqc4g","pricing_plan_id":"free"},{"bike_id":"2938e59b-048c-46f9-a88e-3507f3dbf368","system_id":"levelo_inurba_marseille","lat":43.307945,"lon":5.376487,"is_reserved":false,"is_disabled":false,"rental_uris":{"android":"levelo://app?vid=2938e59b-048c-46f9-a88e-3507f3dbf368","ios":"levelo://app?vid=2938e59b-048c-46f9-a88e-3507f3dbf368"},"vehicle_type_id":"4","last_reported":1702473017,"current_range_meters":6400,"station_id":"ce4bgv92rcd13ifvqcq0","pricing_plan_id":"free"},{"bike_id":"dc68debd-6203-4696-b9a5-55eea857c5a0","system_id":"levelo_inurba_marseille","lat":43.317195,"lon":5.376825,"is_reserved":false,"is_disabled":false,"rental_uris":{"android":"levelo://app?vid=dc68debd-6203-4696-b9a5-55eea857c5a0","ios":"levelo://app?vid=dc68debd-6203-4696-b9a5-55eea857c5a0"},"vehicle_type_id":"4","last_reported":1702473017,"current_range_meters":23600,"station_id":"ce4bgth2rcd13ifvqch0","pricing_plan_id":"free"},{"bike_id":"5e726433-5c61-4eaa-98eb-a24a45bd132d","system_id":"levelo_inurba_marseille","lat":43.307945,"lon":5.376487,"is_reserved":false,"is_disabled":false,"rental_uris":{"android":"levelo://app?vid=5e726433-5c61-4eaa-98eb-a24a45bd132d","ios":"levelo://app?vid=5e726433-5c61-4eaa-98eb-a24a45bd132d"},"vehicle_type_id":"4","last_reported":1702473017,"current_range_meters":15600,"station_id":"ce4bgv92rcd13ifvqcq0","pricing_plan_id":"free"},{"bike_id":"2895cea6-d908-4d78-94c1-2a9fccb097ff","system_id":"levelo_inurba_marseille","lat":43.317075,"lon":5.377367,"is_reserved":false,"is_disabled":false,"rental_uris":{"android":"levelo://app?vid=2895cea6-d908-4d78-94c1-2a9fccb097ff","ios":"levelo://app?vid=2895cea6-d908-4d78-94c1-2a9fccb097ff"},"vehicle_type_id":"4","last_reported":1702473017,"current_range_meters":20400,"station_id":"ce4bgth2rcd13ifvqch0","pricing_plan_id":"free"},{"bike_id":"9e7d5d49-7422-45e5-9174-457a3d490ef7","system_id":"levelo_inurba_marseille","lat":43.317075,"lon":5.377367,"is_reserved":false,"is_disabled":false,"rental_uris":{"android":"levelo://app?vid=9e7d5d49-7422-45e5-9174-457a3d490ef7","ios":"levelo://app?vid=9e7d5d49-7422-45e5-9174-457a3d490ef7"},"vehicle_type_id":"4","last_reported":1702473017,"current_range_meters":12800,"station_id":"ce4bgth2rcd13ifvqch0","pricing_plan_id":"free"},{"bike_id":"f0547b77-6f20-423d-98ca-ff544c3c1d23","system_id":"levelo_inurba_marseille","lat":43.317,"lon":5.37827,"is_reserved":false,"is_disabled":false,"rental_uris":{"android":"levelo://app?vid=f0547b77-6f20-423d-98ca-ff544c3c1d23","ios":"levelo://app?vid=f0547b77-6f20-423d-98ca-ff544c3c1d23"},"vehicle_type_id":"4","last_reported":1702473017,"current_range_meters":20800,"station_id":"","pricing_plan_id":"free"},{"bike_id":"fc1dd8c5-c75f-4b38-bf33-2ce27b09b80d","system_id":"levelo_inurba_marseille","lat":43.3153,"lon":5.38032,"is_reserved":false,"is_disabled":false,"rental_uris":{"android":"levelo://app?vid=fc1dd8c5-c75f-4b38-bf33-2ce27b09b80d","ios":"levelo://app?vid=fc1dd8c5-c75f-4b38-bf33-2ce27b09b80d"},"vehicle_type_id":"4","last_reported":1702473017,"current_range_meters":22400,"station_id":"ce4bhsp2rcd13ifvqi50","pricing_plan_id":"free"},{"bike_id":"d1ecaccf-f758-4e42-8f63-376aa909b0d0","system_id":"levelo_inurba_marseille","lat":43.301939,"lon":5.366286,"is_reserved":false,"is_disabled":false,"rental_uris":{"android":"levelo://app?vid=d1ecaccf-f758-4e42-8f63-376aa909b0d0","ios":"levelo://app?vid=d1ecaccf-f758-4e42-8f63-376aa909b0d0"},"vehicle_type_id":"4","last_reported":1702473017,"current_range_meters":19200,"station_id":"ce4bgrh2rcd13ifvqc8g","pricing_plan_id":"free"},{"bike_id":"7e2f525a-bd00-4d2f-9821-612691682e4f","system_id":"levelo_inurba_marseille","lat":43.308012,"lon":5.381511,"is_reserved":false,"is_disabled":false,"rental_uris":{"android":"levelo://app?vid=7e2f525a-bd00-4d2f-9821-612691682e4f","ios":"levelo://app?vid=7e2f525a-bd00-4d2f-9821-612691682e4f"},"vehicle_type_id":"4","last_reported":1702473017,"current_range_meters":23600,"station_id":"ce4bgt12rcd13ifvqce0","pricing_plan_id":"free"},{"bike_id":"b795cd07-df6b-4c4c-8507-2dcae79f9bad","system_id":"levelo_inurba_marseille","lat":43.309039,"lon":5.371797,"is_reserved":false,"is_disabled":false,"rental_uris":{"android":"levelo://app?vid=b795cd07-df6b-4c4c-8507-2dcae79f9bad","ios":"levelo://app?vid=b795cd07-df6b-4c4c-8507-2dcae79f9bad"},"vehicle_type_id":"4","last_reported":1702473017,"current_range_meters":4800,"station_id":"ce4bguh2rcd13ifvqckg","pricing_plan_id":"free"},{"bike_id":"3ecccf1f-40d8-41f5-9602-6cc522a72bd5","system_id":"levelo_inurba_marseille","lat":43.30466,"lon":5.37902,"is_reserved":false,"is_disabled":false,"rental_uris":{"android":"levelo://app?vid=3ecccf1f-40d8-41f5-9602-6cc522a72bd5","ios":"levelo://app?vid=3ecccf1f-40d8-41f5-9602-6cc522a72bd5"},"vehicle_type_id":"4","last_reported":1702473017,"current_range_meters":0,"station_id":"ce4bgup2rcd13ifvqcn0","pricing_plan_id":"free"},{"bike_id":"806d1095-eba4-4b4e-a978-6519c4d6aea4","system_id":"levelo_inurba_marseille","lat":43.304606,"lon":5.379026,"is_reserved":false,"is_disabled":false,"rental_uris":{"android":"levelo://app?vid=806d1095-eba4-4b4e-a978-6519c4d6aea4","ios":"levelo://app?vid=806d1095-eba4-4b4e-a978-6519c4d6aea4"},"vehicle_type_id":"4","last_reported":1702473017,"current_range_meters":0,"station_id":"ce4bgup2rcd13ifvqcn0","pricing_plan_id":"free"},{"bike_id":"cbf3ac05-5995-40b9-8104-7a001d7ee0f6","system_id":"levelo_inurba_marseille","lat":43.304606,"lon":5.379026,"is_reserved":false,"is_disabled":false,"rental_uris":{"android":"levelo://app?vid=cbf3ac05-5995-40b9-8104-7a001d7ee0f6","ios":"levelo://app?vid=cbf3ac05-5995-40b9-8104-7a001d7ee0f6"},"vehicle_type_id":"4","last_reported":1702473017,"current_range_meters":10800,"station_id":"ce4bgup2rcd13ifvqcn0","pricing_plan_id":"free"},{"bike_id":"4a24e69f-a623-44f6-9ade-1dea010529fa","system_id":"levelo_inurba_marseille","lat":43.304606,"lon":5.379026,"is_reserved":false,"is_disabled":false,"rental_uris":{"android":"levelo://app?vid=4a24e69f-a623-44f6-9ade-1dea010529fa","ios":"levelo://app?vid=4a24e69f-a623-44f6-9ade-1dea010529fa"},"vehicle_type_id":"4","last_reported":1702473017,"current_range_meters":10000,"station_id":"ce4bgup2rcd13ifvqcn0","pricing_plan_id":"free"},{"bike_id":"443495d3-5c95-4ec2-bf2b-82b8d38de0b4","system_id":"levelo_inurba_marseille","lat":43.324791,"lon":5.3656,"is_reserved":false,"is_disabled":false,"rental_uris":{"android":"levelo://app?vid=443495d3-5c95-4ec2-bf2b-82b8d38de0b4","ios":"levelo://app?vid=443495d3-5c95-4ec2-bf2b-82b8d38de0b4"},"vehicle_type_id":"4","last_reported":1702473017,"current_range_meters":21200,"station_id":"ce4bhs12rcd13ifvqhvg","pricing_plan_id":"free"},{"bike_id":"aa3cdc10-a2b4-4348-a58d-ea513d683fe2","system_id":"levelo_inurba_marseille","lat":43.324771,"lon":5.36557,"is_reserved":false,"is_disabled":false,"rental_uris":{"android":"levelo://app?vid=aa3cdc10-a2b4-4348-a58d-ea513d683fe2","ios":"levelo://app?vid=aa3cdc10-a2b4-4348-a58d-ea513d683fe2"},"vehicle_type_id":"4","last_reported":1702473017,"current_range_meters":22800,"station_id":"ce4bhs12rcd13ifvqhvg","pricing_plan_id":"free"},{"bike_id":"cca78064-1239-42c7-913a-b2f772334815","system_id":"levelo_inurba_marseille","lat":43.30143,"lon":5.37413,"is_reserved":false,"is_disabled":false,"rental_uris":{"android":"levelo://app?vid=cca78064-1239-42c7-913a-b2f772334815","ios":"levelo://app?vid=cca78064-1239-42c7-913a-b2f772334815"},"vehicle_type_id":"4","last_reported":1702473017,"current_range_meters":27200,"station_id":"ce4bgs92rcd13ifvqcc0","pricing_plan_id":"free"},{"bike_id":"4956179e-483b-4c26-bdef-b95af16fab8d","system_id":"levelo_inurba_marseille","lat":43.319935,"lon":5.381699,"is_reserved":false,"is_disabled":false,"rental_uris":{"android":"levelo://app?vid=4956179e-483b-4c26-bdef-b95af16fab8d","ios":"levelo://app?vid=4956179e-483b-4c26-bdef-b95af16fab8d"},"vehicle_type_id":"4","last_reported":1702473017,"current_range_meters":19200,"station_id":"ce4bhr12rcd13ifvqhpg","pricing_plan_id":"free"},{"bike_id":"0aabea5b-d1f8-4783-ba01-04cedff77b37","system_id":"levelo_inurba_marseille","lat":43.31993,"lon":5.3817,"is_reserved":false,"is_disabled":false,"rental_uris":{"android":"levelo://app?vid=0aabea5b-d1f8-4783-ba01-04cedff77b37","ios":"levelo://app?vid=0aabea5b-d1f8-4783-ba01-04cedff77b37"},"vehicle_type_id":"4","last_reported":1702473017,"current_range_meters":800,"station_id":"ce4bhr12rcd13ifvqhpg","pricing_plan_id":"free"},{"bike_id":"3e748d36-6f79-452c-9a9b-04aae6c62789","system_id":"levelo_inurba_marseille","lat":43.29938,"lon":5.36546,"is_reserved":false,"is_disabled":false,"rental_uris":{"android":"levelo://app?vid=3e748d36-6f79-452c-9a9b-04aae6c62789","ios":"levelo://app?vid=3e748d36-6f79-452c-9a9b-04aae6c62789"},"vehicle_type_id":"4","last_reported":1702473017,"current_range_meters":24400,"station_id":"ce4bgm92rcd13ifvqbr0","pricing_plan_id":"free"},{"bike_id":"ab144bc1-cfad-4a79-b79b-5e0f8cc3be9a","system_id":"levelo_inurba_marseille","lat":43.29931,"lon":5.36555,"is_reserved":false,"is_disabled":false,"rental_uris":{"android":"levelo://app?vid=ab144bc1-cfad-4a79-b79b-5e0f8cc3be9a","ios":"levelo://app?vid=ab144bc1-cfad-4a79-b79b-5e0f8cc3be9a"},"vehicle_type_id":"4","last_reported":1702473017,"current_range_meters":17600,"station_id":"ce4bgm92rcd13ifvqbr0","pricing_plan_id":"free"},{"bike_id":"2ed88571-6d64-497c-a00a-61bf5fb5ef3a","system_id":"levelo_inurba_marseille","lat":43.298433,"lon":5.362774,"is_reserved":false,"is_disabled":false,"rental_uris":{"android":"levelo://app?vid=2ed88571-6d64-497c-a00a-61bf5fb5ef3a","ios":"levelo://app?vid=2ed88571-6d64-497c-a00a-61bf5fb5ef3a"},"vehicle_type_id":"4","last_reported":1702473017,"current_range_meters":19600,"station_id":"ce4bgpp2rcd13ifvqc3g","pricing_plan_id":"free"},{"bike_id":"fbe2b060-4405-4801-aeb9-116bca908f3d","system_id":"levelo_inurba_marseille","lat":43.305364,"lon":5.384119,"is_reserved":false,"is_disabled":false,"rental_uris":{"android":"levelo://app?vid=fbe2b060-4405-4801-aeb9-116bca908f3d","ios":"levelo://app?vid=fbe2b060-4405-4801-aeb9-116bca908f3d"},"vehicle_type_id":"4","last_reported":1702473017,"current_range_meters":10000,"station_id":"ce4bgg92rcd13ifvqb30","pricing_plan_id":"free"},{"bike_id":"26a52bc4-51ee-4bab-be57-320b0e8f9f8b","system_id":"levelo_inurba_marseille","lat":43.305364,"lon":5.384119,"is_reserved":false,"is_disabled":false,"rental_uris":{"android":"levelo://app?vid=26a52bc4-51ee-4bab-be57-320b0e8f9f8b","ios":"levelo://app?vid=26a52bc4-51ee-4bab-be57-320b0e8f9f8b"},"vehicle_type_id":"4","last_reported":1702473017,"current_range_meters":28800,"station_id":"ce4bgg92rcd13ifvqb30","pricing_plan_id":"free"},{"bike_id":"ec4f77c4-6220-4c79-9d67-5a1f3c710bf1","system_id":"levelo_inurba_marseille","lat":43.298433,"lon":5.362774,"is_reserved":false,"is_disabled":false,"rental_uris":{"android":"levelo://app?vid=ec4f77c4-6220-4c79-9d67-5a1f3c710bf1","ios":"levelo://app?vid=ec4f77c4-6220-4c79-9d67-5a1f3c710bf1"},"vehicle_type_id":"4","last_reported":1702473017,"current_range_meters":4400,"station_id":"ce4bgpp2rcd13ifvqc3g","pricing_plan_id":"free"},{"bike_id":"77a6c46d-d898-4e4f-8846-efa91689c7f0","system_id":"levelo_inurba_marseille","lat":43.302006,"lon":5.38065,"is_reserved":false,"is_disabled":false,"rental_uris":{"android":"levelo://app?vid=77a6c46d-d898-4e4f-8846-efa91689c7f0","ios":"levelo://app?vid=77a6c46d-d898-4e4f-8846-efa91689c7f0"},"vehicle_type_id":"4","last_reported":1702473017,"current_range_meters":0,"station_id":"","pricing_plan_id":"free"},{"bike_id":"0c3b97fa-e46c-47e6-9754-59ae69ce84c5","system_id":"levelo_inurba_marseille","lat":43.311722,"lon":5.387247,"is_reserved":false,"is_disabled":false,"rental_uris":{"android":"levelo://app?vid=0c3b97fa-e46c-47e6-9754-59ae69ce84c5","ios":"levelo://app?vid=0c3b97fa-e46c-47e6-9754-59ae69ce84c5"},"vehicle_type_id":"4","last_reported":1702473017,"current_range_meters":18800,"station_id":"ce4bgv12rcd13ifvqcp0","pricing_plan_id":"free"},{"bike_id":"cae9b365-1175-47e1-886a-3cd654a70e34","system_id":"levelo_inurba_marseille","lat":43.322872,"lon":5.382756,"is_reserved":false,"is_disabled":false,"rental_uris":{"android":"levelo://app?vid=cae9b365-1175-47e1-886a-3cd654a70e34","ios":"levelo://app?vid=cae9b365-1175-47e1-886a-3cd654a70e34"},"vehicle_type_id":"4","last_reported":1702473017,"current_range_meters":28000,"station_id":"ce4bhr12rcd13ifvqhqg","pricing_plan_id":"free"},{"bike_id":"2de7a2e0-c6cd-423b-87da-985298a56eb5","system_id":"levelo_inurba_marseille","lat":43.32826,"lon":5.3669,"is_reserved":false,"is_disabled":false,"rental_uris":{"android":"levelo://app?vid=2de7a2e0-c6cd-423b-87da-985298a56eb5","ios":"levelo://app?vid=2de7a2e0-c6cd-423b-87da-985298a56eb5"},"vehicle_type_id":"4","last_reported":1702473017,"current_range_meters":23200,"station_id":"ce4bhs92rcd13ifvqi0g","pricing_plan_id":"free"},{"bike_id":"7a878ee5-6910-45dd-b3bd-722059d35da7","system_id":"levelo_inurba_marseille","lat":43.29787,"lon":5.37679,"is_reserved":false,"is_disabled":false,"rental_uris":{"android":"levelo://app?vid=7a878ee5-6910-45dd-b3bd-722059d35da7","ios":"levelo://app?vid=7a878ee5-6910-45dd-b3bd-722059d35da7"},"vehicle_type_id":"4","last_reported":1702473017,"current_range_meters":8400,"station_id":"","pricing_plan_id":"free"},{"bike_id":"352cdf09-a47f-4568-813f-2bdb6980716c","system_id":"levelo_inurba_marseille","lat":43.299028,"lon":5.381509,"is_reserved":false,"is_disabled":false,"rental_uris":{"android":"levelo://app?vid=352cdf09-a47f-4568-813f-2bdb6980716c","ios":"levelo://app?vid=352cdf09-a47f-4568-813f-2bdb6980716c"},"vehicle_type_id":"4","last_reported":1702473017,"current_range_meters":16800,"station_id":"ce4bgj12rcd13ifvqbc0","pricing_plan_id":"free"},{"bike_id":"d71e0e9b-a1f1-483b-b777-d1d16bd7fcda","system_id":"levelo_inurba_marseille","lat":43.309589,"lon":5.390258,"is_reserved":false,"is_disabled":false,"rental_uris":{"android":"levelo://app?vid=d71e0e9b-a1f1-483b-b777-d1d16bd7fcda","ios":"levelo://app?vid=d71e0e9b-a1f1-483b-b777-d1d16bd7fcda"},"vehicle_type_id":"4","last_reported":1702473017,"current_range_meters":4800,"station_id":"ce4bgup2rcd13ifvqco0","pricing_plan_id":"free"},{"bike_id":"e2d5c7b9-7139-4a39-b3d6-23f50ea931d3","system_id":"levelo_inurba_marseille","lat":43.309589,"lon":5.390258,"is_reserved":false,"is_disabled":false,"rental_uris":{"android":"levelo://app?vid=e2d5c7b9-7139-4a39-b3d6-23f50ea931d3","ios":"levelo://app?vid=e2d5c7b9-7139-4a39-b3d6-23f50ea931d3"},"vehicle_type_id":"4","last_reported":1702473017,"current_range_meters":11200,"station_id":"ce4bgup2rcd13ifvqco0","pricing_plan_id":"free"},{"bike_id":"23bbe805-c94b-4a71-b6b3-02557ecd6b8b","system_id":"levelo_inurba_marseille","lat":43.31754,"lon":5.39007,"is_reserved":false,"is_disabled":false,"rental_uris":{"android":"levelo://app?vid=23bbe805-c94b-4a71-b6b3-02557ecd6b8b","ios":"levelo://app?vid=23bbe805-c94b-4a71-b6b3-02557ecd6b8b"},"vehicle_type_id":"4","last_reported":1702473017,"current_range_meters":25200,"station_id":"ce4bhqp2rcd13ifvqhng","pricing_plan_id":"free"},{"bike_id":"7d8afd03-d097-4846-8629-17b96aa6117a","system_id":"levelo_inurba_marseille","lat":43.317557,"lon":5.390173,"is_reserved":false,"is_disabled":false,"rental_uris":{"android":"levelo://app?vid=7d8afd03-d097-4846-8629-17b96aa6117a","ios":"levelo://app?vid=7d8afd03-d097-4846-8629-17b96aa6117a"},"vehicle_type_id":"4","last_reported":1702473017,"current_range_meters":12000,"station_id":"ce4bhqp2rcd13ifvqhng","pricing_plan_id":"free"},{"bike_id":"e9d78157-ab4a-41df-a9e7-085811189ed4","system_id":"levelo_inurba_marseille","lat":43.317557,"lon":5.390173,"is_reserved":false,"is_disabled":false,"rental_uris":{"android":"levelo://app?vid=e9d78157-ab4a-41df-a9e7-085811189ed4","ios":"levelo://app?vid=e9d78157-ab4a-41df-a9e7-085811189ed4"},"vehicle_type_id":"4","last_reported":1702473017,"current_range_meters":6000,"station_id":"ce4bhqp2rcd13ifvqhng","pricing_plan_id":"free"},{"bike_id":"ee983ebf-fe74-4a47-bd58-48e6bf941492","system_id":"levelo_inurba_marseille","lat":43.317557,"lon":5.390173,"is_reserved":false,"is_disabled":false,"rental_uris":{"android":"levelo://app?vid=ee983ebf-fe74-4a47-bd58-48e6bf941492","ios":"levelo://app?vid=ee983ebf-fe74-4a47-bd58-48e6bf941492"},"vehicle_type_id":"4","last_reported":1702473017,"current_range_meters":24800,"station_id":"ce4bhqp2rcd13ifvqhng","pricing_plan_id":"free"},{"bike_id":"8317130f-eb6a-4f18-ae59-9b44f390175b","system_id":"levelo_inurba_marseille","lat":43.298037,"lon":5.381066,"is_reserved":false,"is_disabled":false,"rental_uris":{"android":"levelo://app?vid=8317130f-eb6a-4f18-ae59-9b44f390175b","ios":"levelo://app?vid=8317130f-eb6a-4f18-ae59-9b44f390175b"},"vehicle_type_id":"4","last_reported":1702473017,"current_range_meters":25600,"station_id":"ce4bgip2rcd13ifvqbb0","pricing_plan_id":"free"},{"bike_id":"36f4e728-6931-4a0c-af10-a1c502a7f311","system_id":"levelo_inurba_marseille","lat":43.298037,"lon":5.381066,"is_reserved":false,"is_disabled":false,"rental_uris":{"android":"levelo://app?vid=36f4e728-6931-4a0c-af10-a1c502a7f311","ios":"levelo://app?vid=36f4e728-6931-4a0c-af10-a1c502a7f311"},"vehicle_type_id":"4","last_reported":1702473017,"current_range_meters":27600,"station_id":"ce4bgip2rcd13ifvqbb0","pricing_plan_id":"free"},{"bike_id":"0856b3d8-190c-4f59-8b0b-7e845fb931fc","system_id":"levelo_inurba_marseille","lat":43.304606,"lon":5.379026,"is_reserved":false,"is_disabled":false,"rental_uris":{"android":"levelo://app?vid=0856b3d8-190c-4f59-8b0b-7e845fb931fc","ios":"levelo://app?vid=0856b3d8-190c-4f59-8b0b-7e845fb931fc"},"vehicle_type_id":"4","last_reported":1702473017,"current_range_meters":26800,"station_id":"ce4bgup2rcd13ifvqcn0","pricing_plan_id":"free"},{"bike_id":"f73d658b-5963-4e99-90dc-50fcc5570204","system_id":"levelo_inurba_marseille","lat":43.298037,"lon":5.381066,"is_reserved":false,"is_disabled":false,"rental_uris":{"android":"levelo://app?vid=f73d658b-5963-4e99-90dc-50fcc5570204","ios":"levelo://app?vid=f73d658b-5963-4e99-90dc-50fcc5570204"},"vehicle_type_id":"4","last_reported":1702473017,"current_range_meters":8800,"station_id":"ce4bgip2rcd13ifvqbb0","pricing_plan_id":"free"},{"bike_id":"01db01f7-e715-4ea7-9cf5-fc2c9536a00f","system_id":"levelo_inurba_marseille","lat":43.295377,"lon":5.375108,"is_reserved":false,"is_disabled":false,"rental_uris":{"android":"levelo://app?vid=01db01f7-e715-4ea7-9cf5-fc2c9536a00f","ios":"levelo://app?vid=01db01f7-e715-4ea7-9cf5-fc2c9536a00f"},"vehicle_type_id":"4","last_reported":1702473017,"current_range_meters":20000,"station_id":"ce4bgkp2rcd13ifvqbmg","pricing_plan_id":"free"},{"bike_id":"267c9a77-bd61-454d-a0d4-4d7404220493","system_id":"levelo_inurba_marseille","lat":43.32361,"lon":5.38877,"is_reserved":false,"is_disabled":false,"rental_uris":{"android":"levelo://app?vid=267c9a77-bd61-454d-a0d4-4d7404220493","ios":"levelo://app?vid=267c9a77-bd61-454d-a0d4-4d7404220493"},"vehicle_type_id":"4","last_reported":1702473017,"current_range_meters":26000,"station_id":"ce4bhqp2rcd13ifvqhog","pricing_plan_id":"free"},{"bike_id":"7aa43ffc-78db-484a-8d60-858527897509","system_id":"levelo_inurba_marseille","lat":43.32367,"lon":5.388836,"is_reserved":false,"is_disabled":false,"rental_uris":{"android":"levelo://app?vid=7aa43ffc-78db-484a-8d60-858527897509","ios":"levelo://app?vid=7aa43ffc-78db-484a-8d60-858527897509"},"vehicle_type_id":"4","last_reported":1702473017,"current_range_meters":15600,"station_id":"ce4bhqp2rcd13ifvqhog","pricing_plan_id":"free"},{"bike_id":"406bb2a1-23ad-4b60-9d04-47886d892319","system_id":"levelo_inurba_marseille","lat":43.292749,"lon":5.368402,"is_reserved":false,"is_disabled":false,"rental_uris":{"android":"levelo://app?vid=406bb2a1-23ad-4b60-9d04-47886d892319","ios":"levelo://app?vid=406bb2a1-23ad-4b60-9d04-47886d892319"},"vehicle_type_id":"4","last_reported":1702473017,"current_range_meters":22800,"station_id":"ce4bhbp2rcd13ifvqesg","pricing_plan_id":"free"},{"bike_id":"9120dd39-6935-45ad-bad8-5779cced050c","system_id":"levelo_inurba_marseille","lat":43.292749,"lon":5.368402,"is_reserved":false,"is_disabled":false,"rental_uris":{"android":"levelo://app?vid=9120dd39-6935-45ad-bad8-5779cced050c","ios":"levelo://app?vid=9120dd39-6935-45ad-bad8-5779cced050c"},"vehicle_type_id":"4","last_reported":1702473017,"current_range_meters":29600,"station_id":"ce4bhbp2rcd13ifvqesg","pricing_plan_id":"free"},{"bike_id":"59f67b80-54db-4fd3-9199-0eb15fd376f5","system_id":"levelo_inurba_marseille","lat":43.293259,"lon":5.371586,"is_reserved":false,"is_disabled":false,"rental_uris":{"android":"levelo://app?vid=59f67b80-54db-4fd3-9199-0eb15fd376f5","ios":"levelo://app?vid=59f67b80-54db-4fd3-9199-0eb15fd376f5"},"vehicle_type_id":"4","last_reported":1702473017,"current_range_meters":21600,"station_id":"ce4bgh92rcd13ifvqb40","pricing_plan_id":"free"},{"bike_id":"a690ec94-6152-49c0-a3a3-04378e0db592","system_id":"levelo_inurba_marseille","lat":43.293259,"lon":5.371586,"is_reserved":false,"is_disabled":false,"rental_uris":{"android":"levelo://app?vid=a690ec94-6152-49c0-a3a3-04378e0db592","ios":"levelo://app?vid=a690ec94-6152-49c0-a3a3-04378e0db592"},"vehicle_type_id":"4","last_reported":1702473017,"current_range_meters":17600,"station_id":"ce4bgh92rcd13ifvqb40","pricing_plan_id":"free"},{"bike_id":"c1f2c408-16a7-4349-a80b-2ffcf370394d","system_id":"levelo_inurba_marseille","lat":43.303002,"lon":5.392142,"is_reserved":false,"is_disabled":false,"rental_uris":{"android":"levelo://app?vid=c1f2c408-16a7-4349-a80b-2ffcf370394d","ios":"levelo://app?vid=c1f2c408-16a7-4349-a80b-2ffcf370394d"},"vehicle_type_id":"4","last_reported":1702473017,"current_range_meters":17600,"station_id":"ce4bgkh2rcd13ifvqbk0","pricing_plan_id":"free"},{"bike_id":"1c566e14-9813-4bac-8de9-19187090316c","system_id":"levelo_inurba_marseille","lat":43.2936,"lon":5.37835,"is_reserved":false,"is_disabled":false,"rental_uris":{"android":"levelo://app?vid=1c566e14-9813-4bac-8de9-19187090316c","ios":"levelo://app?vid=1c566e14-9813-4bac-8de9-19187090316c"},"vehicle_type_id":"4","last_reported":1702473017,"current_range_meters":9600,"station_id":"ce4bgjh2rcd13ifvqbf0","pricing_plan_id":"free"},{"bike_id":"147b60b6-e331-4ed2-b446-6b0ecc66b632","system_id":"levelo_inurba_marseille","lat":43.29529,"lon":5.385581,"is_reserved":false,"is_disabled":false,"rental_uris":{"android":"levelo://app?vid=147b60b6-e331-4ed2-b446-6b0ecc66b632","ios":"levelo://app?vid=147b60b6-e331-4ed2-b446-6b0ecc66b632"},"vehicle_type_id":"4","last_reported":1702473017,"current_range_meters":13200,"station_id":"ce4bgih2rcd13ifvqba0","pricing_plan_id":"free"},{"bike_id":"54ee4789-faab-4e14-a2e0-f0c06f7b7404","system_id":"levelo_inurba_marseille","lat":43.290624,"lon":5.359245,"is_reserved":false,"is_disabled":false,"rental_uris":{"android":"levelo://app?vid=54ee4789-faab-4e14-a2e0-f0c06f7b7404","ios":"levelo://app?vid=54ee4789-faab-4e14-a2e0-f0c06f7b7404"},"vehicle_type_id":"4","last_reported":1702473017,"current_range_meters":23200,"station_id":"ce4bha92rcd13ifvqeg0","pricing_plan_id":"free"},{"bike_id":"01635d60-18b4-4543-b378-2975037db384","system_id":"levelo_inurba_marseille","lat":43.292642,"lon":5.384254,"is_reserved":false,"is_disabled":false,"rental_uris":{"android":"levelo://app?vid=01635d60-18b4-4543-b378-2975037db384","ios":"levelo://app?vid=01635d60-18b4-4543-b378-2975037db384"},"vehicle_type_id":"4","last_reported":1702473017,"current_range_meters":18000,"station_id":"ce4bh692rcd13ifvqea0","pricing_plan_id":"free"},{"bike_id":"06ca8534-65b4-4774-a7c8-03b5af893c6a","system_id":"levelo_inurba_marseille","lat":43.33038,"lon":5.38923,"is_reserved":false,"is_disabled":false,"rental_uris":{"android":"levelo://app?vid=06ca8534-65b4-4774-a7c8-03b5af893c6a","ios":"levelo://app?vid=06ca8534-65b4-4774-a7c8-03b5af893c6a"},"vehicle_type_id":"4","last_reported":1702473017,"current_range_meters":9200,"station_id":"ce4bhr92rcd13ifvqhrg","pricing_plan_id":"free"},{"bike_id":"36885644-6238-463d-a131-bf0ef3590e28","system_id":"levelo_inurba_marseille","lat":43.290103,"lon":5.356114,"is_reserved":false,"is_disabled":false,"rental_uris":{"android":"levelo://app?vid=36885644-6238-463d-a131-bf0ef3590e28","ios":"levelo://app?vid=36885644-6238-463d-a131-bf0ef3590e28"},"vehicle_type_id":"4","last_reported":1702473017,"current_range_meters":17600,"station_id":"ce4bhb92rcd13ifvqen0","pricing_plan_id":"free"},{"bike_id":"0c5fd716-49f6-400b-a233-2722397e7494","system_id":"levelo_inurba_marseille","lat":43.290104,"lon":5.356111,"is_reserved":false,"is_disabled":false,"rental_uris":{"android":"levelo://app?vid=0c5fd716-49f6-400b-a233-2722397e7494","ios":"levelo://app?vid=0c5fd716-49f6-400b-a233-2722397e7494"},"vehicle_type_id":"4","last_reported":1702473017,"current_range_meters":26800,"station_id":"ce4bhb92rcd13ifvqen0","pricing_plan_id":"free"},{"bike_id":"d818a04b-b51c-4194-ae03-94ed2bd2ce6a","system_id":"levelo_inurba_marseille","lat":43.29779,"lon":5.39327,"is_reserved":false,"is_disabled":false,"rental_uris":{"android":"levelo://app?vid=d818a04b-b51c-4194-ae03-94ed2bd2ce6a","ios":"levelo://app?vid=d818a04b-b51c-4194-ae03-94ed2bd2ce6a"},"vehicle_type_id":"4","last_reported":1702473017,"current_range_meters":24400,"station_id":"chh1huq6cuj3fo74tm60","pricing_plan_id":"free"},{"bike_id":"de7f85c3-6164-48f7-b1ea-08118f4a692d","system_id":"levelo_inurba_marseille","lat":43.28856,"lon":5.358371,"is_reserved":false,"is_disabled":false,"rental_uris":{"android":"levelo://app?vid=de7f85c3-6164-48f7-b1ea-08118f4a692d","ios":"levelo://app?vid=de7f85c3-6164-48f7-b1ea-08118f4a692d"},"vehicle_type_id":"4","last_reported":1702473017,"current_range_meters":6400,"station_id":"ce4bhb12rcd13ifvqem0","pricing_plan_id":"free"},{"bike_id":"2b44ce9b-47e1-433a-b099-cb5253abfb12","system_id":"levelo_inurba_marseille","lat":43.28857,"lon":5.35865,"is_reserved":false,"is_disabled":false,"rental_uris":{"android":"levelo://app?vid=2b44ce9b-47e1-433a-b099-cb5253abfb12","ios":"levelo://app?vid=2b44ce9b-47e1-433a-b099-cb5253abfb12"},"vehicle_type_id":"4","last_reported":1702473017,"current_range_meters":13600,"station_id":"ce4bhb12rcd13ifvqem0","pricing_plan_id":"free"},{"bike_id":"f47e7759-1aec-4b5c-9dd3-ffcf3108c5c7","system_id":"levelo_inurba_marseille","lat":43.28856,"lon":5.358371,"is_reserved":false,"is_disabled":false,"rental_uris":{"android":"levelo://app?vid=f47e7759-1aec-4b5c-9dd3-ffcf3108c5c7","ios":"levelo://app?vid=f47e7759-1aec-4b5c-9dd3-ffcf3108c5c7"},"vehicle_type_id":"4","last_reported":1702473017,"current_range_meters":11200,"station_id":"ce4bhb12rcd13ifvqem0","pricing_plan_id":"free"},{"bike_id":"67a71298-f781-4402-8d03-cdb5dd11acae","system_id":"levelo_inurba_marseille","lat":43.337451,"lon":5.37463,"is_reserved":false,"is_disabled":false,"rental_uris":{"android":"levelo://app?vid=67a71298-f781-4402-8d03-cdb5dd11acae","ios":"levelo://app?vid=67a71298-f781-4402-8d03-cdb5dd11acae"},"vehicle_type_id":"4","last_reported":1702473017,"current_range_meters":27600,"station_id":"","pricing_plan_id":"free"},{"bike_id":"42af3cc7-466c-462b-a00c-8cbe067d896c","system_id":"levelo_inurba_marseille","lat":43.33762,"lon":5.37429,"is_reserved":false,"is_disabled":false,"rental_uris":{"android":"levelo://app?vid=42af3cc7-466c-462b-a00c-8cbe067d896c","ios":"levelo://app?vid=42af3cc7-466c-462b-a00c-8cbe067d896c"},"vehicle_type_id":"4","last_reported":1702473017,"current_range_meters":26800,"station_id":"","pricing_plan_id":"free"},{"bike_id":"3cbcbb37-a92d-4f78-b689-2f73f286e701","system_id":"levelo_inurba_marseille","lat":43.3376,"lon":5.37462,"is_reserved":false,"is_disabled":false,"rental_uris":{"android":"levelo://app?vid=3cbcbb37-a92d-4f78-b689-2f73f286e701","ios":"levelo://app?vid=3cbcbb37-a92d-4f78-b689-2f73f286e701"},"vehicle_type_id":"4","last_reported":1702473017,"current_range_meters":27600,"station_id":"","pricing_plan_id":"free"},{"bike_id":"709bebcd-7a96-4a30-894a-152bbb656aa7","system_id":"levelo_inurba_marseille","lat":43.33761,"lon":5.37472,"is_reserved":false,"is_disabled":false,"rental_uris":{"android":"levelo://app?vid=709bebcd-7a96-4a30-894a-152bbb656aa7","ios":"levelo://app?vid=709bebcd-7a96-4a30-894a-152bbb656aa7"},"vehicle_type_id":"4","last_reported":1702473017,"current_range_meters":15600,"station_id":"","pricing_plan_id":"free"},{"bike_id":"6d0c592f-9564-4532-a262-d8d9a0b38ec4","system_id":"levelo_inurba_marseille","lat":43.3377,"lon":5.37465,"is_reserved":false,"is_disabled":false,"rental_uris":{"android":"levelo://app?vid=6d0c592f-9564-4532-a262-d8d9a0b38ec4","ios":"levelo://app?vid=6d0c592f-9564-4532-a262-d8d9a0b38ec4"},"vehicle_type_id":"4","last_reported":1702473017,"current_range_meters":28000,"station_id":"","pricing_plan_id":"free"},{"bike_id":"247e10d8-25bb-4af2-a6c9-f65f0fb6436a","system_id":"levelo_inurba_marseille","lat":43.28727,"lon":5.36078,"is_reserved":false,"is_disabled":false,"rental_uris":{"android":"levelo://app?vid=247e10d8-25bb-4af2-a6c9-f65f0fb6436a","ios":"levelo://app?vid=247e10d8-25bb-4af2-a6c9-f65f0fb6436a"},"vehicle_type_id":"4","last_reported":1702473017,"current_range_meters":28000,"station_id":"cki0cbj6b192h4jlfktg","pricing_plan_id":"free"},{"bike_id":"57a6f333-840a-4cb9-ba36-fcdc6ab95d8d","system_id":"levelo_inurba_marseille","lat":43.298681,"lon":5.397225,"is_reserved":false,"is_disabled":false,"rental_uris":{"android":"levelo://app?vid=57a6f333-840a-4cb9-ba36-fcdc6ab95d8d","ios":"levelo://app?vid=57a6f333-840a-4cb9-ba36-fcdc6ab95d8d"},"vehicle_type_id":"4","last_reported":1702473017,"current_range_meters":16400,"station_id":"ce4bh0h2rcd13ifvqd50","pricing_plan_id":"free"},{"bike_id":"732b6961-f7f4-4792-90ff-383fb481ccfa","system_id":"levelo_inurba_marseille","lat":43.28701,"lon":5.37393,"is_reserved":false,"is_disabled":false,"rental_uris":{"android":"levelo://app?vid=732b6961-f7f4-4792-90ff-383fb481ccfa","ios":"levelo://app?vid=732b6961-f7f4-4792-90ff-383fb481ccfa"},"vehicle_type_id":"4","last_reported":1702473017,"current_range_meters":0,"station_id":"ce4bh3p2rcd13ifvqdq0","pricing_plan_id":"free"},{"bike_id":"60401f50-2d2b-484e-9339-92276760a610","system_id":"levelo_inurba_marseille","lat":43.286961,"lon":5.373785,"is_reserved":false,"is_disabled":false,"rental_uris":{"android":"levelo://app?vid=60401f50-2d2b-484e-9339-92276760a610","ios":"levelo://app?vid=60401f50-2d2b-484e-9339-92276760a610"},"vehicle_type_id":"4","last_reported":1702473017,"current_range_meters":18400,"station_id":"ce4bh3p2rcd13ifvqdq0","pricing_plan_id":"free"},{"bike_id":"f63d8bcd-9785-4cd0-82cc-904418546b3c","system_id":"levelo_inurba_marseille","lat":43.295194,"lon":5.39397,"is_reserved":false,"is_disabled":false,"rental_uris":{"android":"levelo://app?vid=f63d8bcd-9785-4cd0-82cc-904418546b3c","ios":"levelo://app?vid=f63d8bcd-9785-4cd0-82cc-904418546b3c"},"vehicle_type_id":"4","last_reported":1702473017,"current_range_meters":27200,"station_id":"ce4bh292rcd13ifvqdf0","pricing_plan_id":"free"},{"bike_id":"2dbab0b8-13f7-4573-a604-c78d8a6e1f40","system_id":"levelo_inurba_marseille","lat":43.295196,"lon":5.39397,"is_reserved":false,"is_disabled":false,"rental_uris":{"android":"levelo://app?vid=2dbab0b8-13f7-4573-a604-c78d8a6e1f40","ios":"levelo://app?vid=2dbab0b8-13f7-4573-a604-c78d8a6e1f40"},"vehicle_type_id":"4","last_reported":1702473017,"current_range_meters":0,"station_id":"ce4bh292rcd13ifvqdf0","pricing_plan_id":"free"},{"bike_id":"c0642fc6-89b9-4fb8-ab28-e4fb2ee4a55f","system_id":"levelo_inurba_marseille","lat":43.289307,"lon":5.38406,"is_reserved":false,"is_disabled":false,"rental_uris":{"android":"levelo://app?vid=c0642fc6-89b9-4fb8-ab28-e4fb2ee4a55f","ios":"levelo://app?vid=c0642fc6-89b9-4fb8-ab28-e4fb2ee4a55f"},"vehicle_type_id":"4","last_reported":1702473017,"current_range_meters":23200,"station_id":"ce4bh612rcd13ifvqe6g","pricing_plan_id":"free"},{"bike_id":"d59c3250-d03c-4156-9453-366f31b35009","system_id":"levelo_inurba_marseille","lat":43.287184,"lon":5.37937,"is_reserved":false,"is_disabled":false,"rental_uris":{"android":"levelo://app?vid=d59c3250-d03c-4156-9453-366f31b35009","ios":"levelo://app?vid=d59c3250-d03c-4156-9453-366f31b35009"},"vehicle_type_id":"4","last_reported":1702473017,"current_range_meters":17600,"station_id":"ce4bh9p2rcd13ifvqec0","pricing_plan_id":"free"},{"bike_id":"693eae8c-307b-4b45-9bee-60421f31c7ed","system_id":"levelo_inurba_marseille","lat":43.3169,"lon":5.40477,"is_reserved":false,"is_disabled":false,"rental_uris":{"android":"levelo://app?vid=693eae8c-307b-4b45-9bee-60421f31c7ed","ios":"levelo://app?vid=693eae8c-307b-4b45-9bee-60421f31c7ed"},"vehicle_type_id":"4","last_reported":1702473017,"current_range_meters":9600,"station_id":"ce4bh012rcd13ifvqd00","pricing_plan_id":"free"},{"bike_id":"0278f962-721c-453b-b1fc-b27be789856f","system_id":"levelo_inurba_marseille","lat":43.28618,"lon":5.35106,"is_reserved":false,"is_disabled":false,"rental_uris":{"android":"levelo://app?vid=0278f962-721c-453b-b1fc-b27be789856f","ios":"levelo://app?vid=0278f962-721c-453b-b1fc-b27be789856f"},"vehicle_type_id":"4","last_reported":1702473017,"current_range_meters":22400,"station_id":"ce4bhch2rcd13ifvqeug","pricing_plan_id":"free"},{"bike_id":"95b9793a-83d7-4b80-99bc-d6181b68f44f","system_id":"levelo_inurba_marseille","lat":43.285856,"lon":5.350771,"is_reserved":false,"is_disabled":false,"rental_uris":{"android":"levelo://app?vid=95b9793a-83d7-4b80-99bc-d6181b68f44f","ios":"levelo://app?vid=95b9793a-83d7-4b80-99bc-d6181b68f44f"},"vehicle_type_id":"4","last_reported":1702473017,"current_range_meters":22800,"station_id":"ce4bhch2rcd13ifvqeug","pricing_plan_id":"free"},{"bike_id":"b19d7971-fbba-4917-93d2-9768d12dfd7a","system_id":"levelo_inurba_marseille","lat":43.295713,"lon":5.399639,"is_reserved":false,"is_disabled":false,"rental_uris":{"android":"levelo://app?vid=b19d7971-fbba-4917-93d2-9768d12dfd7a","ios":"levelo://app?vid=b19d7971-fbba-4917-93d2-9768d12dfd7a"},"vehicle_type_id":"4","last_reported":1702473017,"current_range_meters":6800,"station_id":"ce4bh312rcd13ifvqdj0","pricing_plan_id":"free"},{"bike_id":"5d1dd98c-c542-4361-a863-cc5033b25014","system_id":"levelo_inurba_marseille","lat":43.295713,"lon":5.399639,"is_reserved":false,"is_disabled":false,"rental_uris":{"android":"levelo://app?vid=5d1dd98c-c542-4361-a863-cc5033b25014","ios":"levelo://app?vid=5d1dd98c-c542-4361-a863-cc5033b25014"},"vehicle_type_id":"4","last_reported":1702473017,"current_range_meters":6400,"station_id":"ce4bh312rcd13ifvqdj0","pricing_plan_id":"free"},{"bike_id":"18a46efc-a65a-4ad6-8f38-84d58883c29f","system_id":"levelo_inurba_marseille","lat":43.295713,"lon":5.399639,"is_reserved":false,"is_disabled":false,"rental_uris":{"android":"levelo://app?vid=18a46efc-a65a-4ad6-8f38-84d58883c29f","ios":"levelo://app?vid=18a46efc-a65a-4ad6-8f38-84d58883c29f"},"vehicle_type_id":"4","last_reported":1702473017,"current_range_meters":31200,"station_id":"ce4bh312rcd13ifvqdj0","pricing_plan_id":"free"},{"bike_id":"66a5366b-5935-40e5-bb85-bf6d85ac0659","system_id":"levelo_inurba_marseille","lat":43.286595,"lon":5.386795,"is_reserved":false,"is_disabled":false,"rental_uris":{"android":"levelo://app?vid=66a5366b-5935-40e5-bb85-bf6d85ac0659","ios":"levelo://app?vid=66a5366b-5935-40e5-bb85-bf6d85ac0659"},"vehicle_type_id":"4","last_reported":1702473017,"current_range_meters":5600,"station_id":"ce4bh492rcd13ifvqdug","pricing_plan_id":"free"},{"bike_id":"94c23c23-8047-4a27-a389-86315de582bb","system_id":"levelo_inurba_marseille","lat":43.319179,"lon":5.407725,"is_reserved":false,"is_disabled":false,"rental_uris":{"android":"levelo://app?vid=94c23c23-8047-4a27-a389-86315de582bb","ios":"levelo://app?vid=94c23c23-8047-4a27-a389-86315de582bb"},"vehicle_type_id":"4","last_reported":1702473017,"current_range_meters":30800,"station_id":"ce4bhq12rcd13ifvqhig","pricing_plan_id":"free"},{"bike_id":"bbd84a02-1069-4d4b-aaf1-82d0e91562ce","system_id":"levelo_inurba_marseille","lat":43.337168,"lon":5.391825,"is_reserved":false,"is_disabled":false,"rental_uris":{"android":"levelo://app?vid=bbd84a02-1069-4d4b-aaf1-82d0e91562ce","ios":"levelo://app?vid=bbd84a02-1069-4d4b-aaf1-82d0e91562ce"},"vehicle_type_id":"4","last_reported":1702473017,"current_range_meters":26800,"station_id":"ce4bhr92rcd13ifvqhsg","pricing_plan_id":"free"},{"bike_id":"17ad54fa-30dd-43a6-8536-35935c3c0b86","system_id":"levelo_inurba_marseille","lat":43.286039,"lon":5.370681,"is_reserved":false,"is_disabled":false,"rental_uris":{"android":"levelo://app?vid=17ad54fa-30dd-43a6-8536-35935c3c0b86","ios":"levelo://app?vid=17ad54fa-30dd-43a6-8536-35935c3c0b86"},"vehicle_type_id":"4","last_reported":1702473017,"current_range_meters":6000,"station_id":"ce4bht12rcd13ifvqi60","pricing_plan_id":"free"},{"bike_id":"df2d9969-a3e1-462a-9b5e-229cd01c08e1","system_id":"levelo_inurba_marseille","lat":43.28573,"lon":5.394992,"is_reserved":false,"is_disabled":false,"rental_uris":{"android":"levelo://app?vid=df2d9969-a3e1-462a-9b5e-229cd01c08e1","ios":"levelo://app?vid=df2d9969-a3e1-462a-9b5e-229cd01c08e1"},"vehicle_type_id":"4","last_reported":1702473017,"current_range_meters":21600,"station_id":"ce4bh292rcd13ifvqdg0","pricing_plan_id":"free"},{"bike_id":"3a4d2c9d-3dd0-44b2-bd24-6f65c04f3652","system_id":"levelo_inurba_marseille","lat":43.32646,"lon":5.40998,"is_reserved":false,"is_disabled":false,"rental_uris":{"android":"levelo://app?vid=3a4d2c9d-3dd0-44b2-bd24-6f65c04f3652","ios":"levelo://app?vid=3a4d2c9d-3dd0-44b2-bd24-6f65c04f3652"},"vehicle_type_id":"4","last_reported":1702473017,"current_range_meters":27600,"station_id":"ce4bhpp2rcd13ifvqhgg","pricing_plan_id":"free"},{"bike_id":"34a2c4b4-a020-46a4-ae85-e5b60413f992","system_id":"levelo_inurba_marseille","lat":43.304188,"lon":5.412904,"is_reserved":false,"is_disabled":false,"rental_uris":{"android":"levelo://app?vid=34a2c4b4-a020-46a4-ae85-e5b60413f992","ios":"levelo://app?vid=34a2c4b4-a020-46a4-ae85-e5b60413f992"},"vehicle_type_id":"4","last_reported":1702473017,"current_range_meters":21200,"station_id":"ce4bhop2rcd13ifvqh8g","pricing_plan_id":"free"},{"bike_id":"3d9a860e-1236-499f-99e8-6993b6542151","system_id":"levelo_inurba_marseille","lat":43.304188,"lon":5.412904,"is_reserved":false,"is_disabled":false,"rental_uris":{"android":"levelo://app?vid=3d9a860e-1236-499f-99e8-6993b6542151","ios":"levelo://app?vid=3d9a860e-1236-499f-99e8-6993b6542151"},"vehicle_type_id":"4","last_reported":1702473017,"current_range_meters":9600,"station_id":"ce4bhop2rcd13ifvqh8g","pricing_plan_id":"free"},{"bike_id":"161be74c-c10c-4e62-acca-4faff962d812","system_id":"levelo_inurba_marseille","lat":43.304188,"lon":5.412904,"is_reserved":false,"is_disabled":false,"rental_uris":{"android":"levelo://app?vid=161be74c-c10c-4e62-acca-4faff962d812","ios":"levelo://app?vid=161be74c-c10c-4e62-acca-4faff962d812"},"vehicle_type_id":"4","last_reported":1702473017,"current_range_meters":14000,"station_id":"ce4bhop2rcd13ifvqh8g","pricing_plan_id":"free"},{"bike_id":"467502f9-98ca-4ab0-997e-5e522b122d09","system_id":"levelo_inurba_marseille","lat":43.279087,"lon":5.380114,"is_reserved":false,"is_disabled":false,"rental_uris":{"android":"levelo://app?vid=467502f9-98ca-4ab0-997e-5e522b122d09","ios":"levelo://app?vid=467502f9-98ca-4ab0-997e-5e522b122d09"},"vehicle_type_id":"4","last_reported":1702473017,"current_range_meters":25600,"station_id":"ce4bhf92rcd13ifvqf50","pricing_plan_id":"free"},{"bike_id":"f51b67bd-a87b-4176-aa50-9f39d2c7793b","system_id":"levelo_inurba_marseille","lat":43.287154,"lon":5.399979,"is_reserved":false,"is_disabled":false,"rental_uris":{"android":"levelo://app?vid=f51b67bd-a87b-4176-aa50-9f39d2c7793b","ios":"levelo://app?vid=f51b67bd-a87b-4176-aa50-9f39d2c7793b"},"vehicle_type_id":"4","last_reported":1702473017,"current_range_meters":17200,"station_id":"ce4bho92rcd13ifvqh3g","pricing_plan_id":"free"},{"bike_id":"3e064d86-13e6-41a1-82e1-675d884ace08","system_id":"levelo_inurba_marseille","lat":43.325243,"lon":5.414326,"is_reserved":false,"is_disabled":false,"rental_uris":{"android":"levelo://app?vid=3e064d86-13e6-41a1-82e1-675d884ace08","ios":"levelo://app?vid=3e064d86-13e6-41a1-82e1-675d884ace08"},"vehicle_type_id":"4","last_reported":1702473017,"current_range_meters":3600,"station_id":"ce4bhq12rcd13ifvqhhg","pricing_plan_id":"free"},{"bike_id":"13ed7864-5e28-4879-bef0-43ec97cea419","system_id":"levelo_inurba_marseille","lat":43.32538,"lon":5.41436,"is_reserved":false,"is_disabled":false,"rental_uris":{"android":"levelo://app?vid=13ed7864-5e28-4879-bef0-43ec97cea419","ios":"levelo://app?vid=13ed7864-5e28-4879-bef0-43ec97cea419"},"vehicle_type_id":"4","last_reported":1702473017,"current_range_meters":19600,"station_id":"ce4bhq12rcd13ifvqhhg","pricing_plan_id":"free"},{"bike_id":"6241fbe5-86c5-4f60-8a8d-660be0652143","system_id":"levelo_inurba_marseille","lat":43.29255,"lon":5.40915,"is_reserved":false,"is_disabled":false,"rental_uris":{"android":"levelo://app?vid=6241fbe5-86c5-4f60-8a8d-660be0652143","ios":"levelo://app?vid=6241fbe5-86c5-4f60-8a8d-660be0652143"},"vehicle_type_id":"4","last_reported":1702473017,"current_range_meters":22400,"station_id":"ce4bh192rcd13ifvqdc0","pricing_plan_id":"free"},{"bike_id":"8e814ecb-5dbf-4da1-91b3-8823fe935348","system_id":"levelo_inurba_marseille","lat":43.325233,"lon":5.414318,"is_reserved":false,"is_disabled":false,"rental_uris":{"android":"levelo://app?vid=8e814ecb-5dbf-4da1-91b3-8823fe935348","ios":"levelo://app?vid=8e814ecb-5dbf-4da1-91b3-8823fe935348"},"vehicle_type_id":"4","last_reported":1702473017,"current_range_meters":29200,"station_id":"ce4bhq12rcd13ifvqhhg","pricing_plan_id":"free"},{"bike_id":"bca5a27f-c25f-433b-ad08-f15021e37e7e","system_id":"levelo_inurba_marseille","lat":43.325243,"lon":5.414326,"is_reserved":false,"is_disabled":false,"rental_uris":{"android":"levelo://app?vid=bca5a27f-c25f-433b-ad08-f15021e37e7e","ios":"levelo://app?vid=bca5a27f-c25f-433b-ad08-f15021e37e7e"},"vehicle_type_id":"4","last_reported":1702473017,"current_range_meters":31600,"station_id":"ce4bhq12rcd13ifvqhhg","pricing_plan_id":"free"},{"bike_id":"a68e8c30-ad27-4f0c-9ef4-71c9d6e74ca7","system_id":"levelo_inurba_marseille","lat":43.276179,"lon":5.361009,"is_reserved":false,"is_disabled":false,"rental_uris":{"android":"levelo://app?vid=a68e8c30-ad27-4f0c-9ef4-71c9d6e74ca7","ios":"levelo://app?vid=a68e8c30-ad27-4f0c-9ef4-71c9d6e74ca7"},"vehicle_type_id":"4","last_reported":1702473017,"current_range_meters":12000,"station_id":"ce4bgj92rcd13ifvqbe0","pricing_plan_id":"free"},{"bike_id":"5a319608-2a65-44d6-96d2-2486de31f026","system_id":"levelo_inurba_marseille","lat":43.2808,"lon":5.39654,"is_reserved":false,"is_disabled":false,"rental_uris":{"android":"levelo://app?vid=5a319608-2a65-44d6-96d2-2486de31f026","ios":"levelo://app?vid=5a319608-2a65-44d6-96d2-2486de31f026"},"vehicle_type_id":"4","last_reported":1702473017,"current_range_meters":0,"station_id":"ce4bho12rcd13ifvqh2g","pricing_plan_id":"free"},{"bike_id":"aa2d3fce-e67f-4466-9373-ec319e541d1e","system_id":"levelo_inurba_marseille","lat":43.280784,"lon":5.396622,"is_reserved":false,"is_disabled":false,"rental_uris":{"android":"levelo://app?vid=aa2d3fce-e67f-4466-9373-ec319e541d1e","ios":"levelo://app?vid=aa2d3fce-e67f-4466-9373-ec319e541d1e"},"vehicle_type_id":"4","last_reported":1702473017,"current_range_meters":20400,"station_id":"ce4bho12rcd13ifvqh2g","pricing_plan_id":"free"},{"bike_id":"25280a81-5792-4963-baca-a235ffb94c82","system_id":"levelo_inurba_marseille","lat":43.280784,"lon":5.396622,"is_reserved":false,"is_disabled":false,"rental_uris":{"android":"levelo://app?vid=25280a81-5792-4963-baca-a235ffb94c82","ios":"levelo://app?vid=25280a81-5792-4963-baca-a235ffb94c82"},"vehicle_type_id":"4","last_reported":1702473017,"current_range_meters":30400,"station_id":"ce4bho12rcd13ifvqh2g","pricing_plan_id":"free"},{"bike_id":"92163f5b-8fd3-4b04-ae8e-86ef0b2064c8","system_id":"levelo_inurba_marseille","lat":43.275625,"lon":5.384392,"is_reserved":false,"is_disabled":false,"rental_uris":{"android":"levelo://app?vid=92163f5b-8fd3-4b04-ae8e-86ef0b2064c8","ios":"levelo://app?vid=92163f5b-8fd3-4b04-ae8e-86ef0b2064c8"},"vehicle_type_id":"4","last_reported":1702473017,"current_range_meters":16800,"station_id":"ce4bhh92rcd13ifvqfi0","pricing_plan_id":"free"},{"bike_id":"7f1e5201-708c-47ae-930f-fa1da7fe12d6","system_id":"levelo_inurba_marseille","lat":43.275625,"lon":5.384392,"is_reserved":false,"is_disabled":false,"rental_uris":{"android":"levelo://app?vid=7f1e5201-708c-47ae-930f-fa1da7fe12d6","ios":"levelo://app?vid=7f1e5201-708c-47ae-930f-fa1da7fe12d6"},"vehicle_type_id":"4","last_reported":1702473017,"current_range_meters":16000,"station_id":"ce4bhh92rcd13ifvqfi0","pricing_plan_id":"free"},{"bike_id":"20ccd548-0d1d-49c8-ad85-a625193f64f7","system_id":"levelo_inurba_marseille","lat":43.275625,"lon":5.384392,"is_reserved":false,"is_disabled":false,"rental_uris":{"android":"levelo://app?vid=20ccd548-0d1d-49c8-ad85-a625193f64f7","ios":"levelo://app?vid=20ccd548-0d1d-49c8-ad85-a625193f64f7"},"vehicle_type_id":"4","last_reported":1702473017,"current_range_meters":2000,"station_id":"ce4bhh92rcd13ifvqfi0","pricing_plan_id":"free"},{"bike_id":"92b8d9d3-543a-471a-a14a-9a557262b875","system_id":"levelo_inurba_marseille","lat":43.275625,"lon":5.384392,"is_reserved":false,"is_disabled":false,"rental_uris":{"android":"levelo://app?vid=92b8d9d3-543a-471a-a14a-9a557262b875","ios":"levelo://app?vid=92b8d9d3-543a-471a-a14a-9a557262b875"},"vehicle_type_id":"4","last_reported":1702473017,"current_range_meters":13200,"station_id":"ce4bhh92rcd13ifvqfi0","pricing_plan_id":"free"},{"bike_id":"0fd8a65d-d756-4aef-ab7b-3439e3353d18","system_id":"levelo_inurba_marseille","lat":43.276769,"lon":5.388787,"is_reserved":false,"is_disabled":false,"rental_uris":{"android":"levelo://app?vid=0fd8a65d-d756-4aef-ab7b-3439e3353d18","ios":"levelo://app?vid=0fd8a65d-d756-4aef-ab7b-3439e3353d18"},"vehicle_type_id":"4","last_reported":1702473017,"current_range_meters":10800,"station_id":"ce4bhi12rcd13ifvqfo0","pricing_plan_id":"free"},{"bike_id":"6d0496bd-7845-4f30-b621-61907f9d50de","system_id":"levelo_inurba_marseille","lat":43.279952,"lon":5.400085,"is_reserved":false,"is_disabled":false,"rental_uris":{"android":"levelo://app?vid=6d0496bd-7845-4f30-b621-61907f9d50de","ios":"levelo://app?vid=6d0496bd-7845-4f30-b621-61907f9d50de"},"vehicle_type_id":"4","last_reported":1702473017,"current_range_meters":16400,"station_id":"ce4bho92rcd13ifvqh4g","pricing_plan_id":"free"},{"bike_id":"c4d56341-cd55-4040-9e29-98a1cb7ecf12","system_id":"levelo_inurba_marseille","lat":43.279952,"lon":5.400085,"is_reserved":false,"is_disabled":false,"rental_uris":{"android":"levelo://app?vid=c4d56341-cd55-4040-9e29-98a1cb7ecf12","ios":"levelo://app?vid=c4d56341-cd55-4040-9e29-98a1cb7ecf12"},"vehicle_type_id":"4","last_reported":1702473017,"current_range_meters":6400,"station_id":"ce4bho92rcd13ifvqh4g","pricing_plan_id":"free"},{"bike_id":"db3311fc-c0e7-4cd0-9e13-38b4a40a90dd","system_id":"levelo_inurba_marseille","lat":43.279975,"lon":5.40009,"is_reserved":false,"is_disabled":false,"rental_uris":{"android":"levelo://app?vid=db3311fc-c0e7-4cd0-9e13-38b4a40a90dd","ios":"levelo://app?vid=db3311fc-c0e7-4cd0-9e13-38b4a40a90dd"},"vehicle_type_id":"4","last_reported":1702473017,"current_range_meters":22000,"station_id":"ce4bho92rcd13ifvqh4g","pricing_plan_id":"free"},{"bike_id":"fe0a789f-e57a-472a-b8c8-b3b0f92ab63e","system_id":"levelo_inurba_marseille","lat":43.317121,"lon":5.423936,"is_reserved":false,"is_disabled":false,"rental_uris":{"android":"levelo://app?vid=fe0a789f-e57a-472a-b8c8-b3b0f92ab63e","ios":"levelo://app?vid=fe0a789f-e57a-472a-b8c8-b3b0f92ab63e"},"vehicle_type_id":"4","last_reported":1702473017,"current_range_meters":30000,"station_id":"ce4bhp92rcd13ifvqhbg","pricing_plan_id":"free"},{"bike_id":"e15fcb76-150b-4e94-ba14-1765fbabad44","system_id":"levelo_inurba_marseille","lat":43.310785,"lon":5.424305,"is_reserved":false,"is_disabled":false,"rental_uris":{"android":"levelo://app?vid=e15fcb76-150b-4e94-ba14-1765fbabad44","ios":"levelo://app?vid=e15fcb76-150b-4e94-ba14-1765fbabad44"},"vehicle_type_id":"4","last_reported":1702473017,"current_range_meters":31600,"station_id":"ce4bhp92rcd13ifvqhag","pricing_plan_id":"free"},{"bike_id":"b1c028eb-0fe1-4afa-b35c-b9783a0e9537","system_id":"levelo_inurba_marseille","lat":43.31723,"lon":5.42405,"is_reserved":false,"is_disabled":false,"rental_uris":{"android":"levelo://app?vid=b1c028eb-0fe1-4afa-b35c-b9783a0e9537","ios":"levelo://app?vid=b1c028eb-0fe1-4afa-b35c-b9783a0e9537"},"vehicle_type_id":"4","last_reported":1702473017,"current_range_meters":2000,"station_id":"ce4bhp92rcd13ifvqhbg","pricing_plan_id":"free"},{"bike_id":"7234064f-ccf0-4ae6-a760-318d087f2159","system_id":"levelo_inurba_marseille","lat":43.341414,"lon":5.409002,"is_reserved":false,"is_disabled":false,"rental_uris":{"android":"levelo://app?vid=7234064f-ccf0-4ae6-a760-318d087f2159","ios":"levelo://app?vid=7234064f-ccf0-4ae6-a760-318d087f2159"},"vehicle_type_id":"4","last_reported":1702473017,"current_range_meters":17200,"station_id":"ce4bhqh2rcd13ifvqhlg","pricing_plan_id":"free"},{"bike_id":"741c4bfe-2495-418c-abac-0afb4a563619","system_id":"levelo_inurba_marseille","lat":43.34141,"lon":5.40905,"is_reserved":false,"is_disabled":false,"rental_uris":{"android":"levelo://app?vid=741c4bfe-2495-418c-abac-0afb4a563619","ios":"levelo://app?vid=741c4bfe-2495-418c-abac-0afb4a563619"},"vehicle_type_id":"4","last_reported":1702473017,"current_range_meters":24400,"station_id":"ce4bhqh2rcd13ifvqhlg","pricing_plan_id":"free"},{"bike_id":"3ca2c2d2-99b0-4aa6-a05d-e30f02e6a7fb","system_id":"levelo_inurba_marseille","lat":43.27588,"lon":5.39495,"is_reserved":false,"is_disabled":false,"rental_uris":{"android":"levelo://app?vid=3ca2c2d2-99b0-4aa6-a05d-e30f02e6a7fb","ios":"levelo://app?vid=3ca2c2d2-99b0-4aa6-a05d-e30f02e6a7fb"},"vehicle_type_id":"4","last_reported":1702473017,"current_range_meters":16400,"station_id":"","pricing_plan_id":"free"},{"bike_id":"ca516546-a0d9-4d1b-b198-501264a2ea73","system_id":"levelo_inurba_marseille","lat":43.272116,"lon":5.391747,"is_reserved":false,"is_disabled":false,"rental_uris":{"android":"levelo://app?vid=ca516546-a0d9-4d1b-b198-501264a2ea73","ios":"levelo://app?vid=ca516546-a0d9-4d1b-b198-501264a2ea73"},"vehicle_type_id":"4","last_reported":1702473017,"current_range_meters":11600,"station_id":"ce4bhhp2rcd13ifvqfm0","pricing_plan_id":"free"},{"bike_id":"459cbaa3-c80d-42b0-8c15-db04d5798791","system_id":"levelo_inurba_marseille","lat":43.272124,"lon":5.391768,"is_reserved":false,"is_disabled":false,"rental_uris":{"android":"levelo://app?vid=459cbaa3-c80d-42b0-8c15-db04d5798791","ios":"levelo://app?vid=459cbaa3-c80d-42b0-8c15-db04d5798791"},"vehicle_type_id":"4","last_reported":1702473017,"current_range_meters":0,"station_id":"ce4bhhp2rcd13ifvqfm0","pricing_plan_id":"free"},{"bike_id":"98546c15-fd93-42f7-ac8b-77317e7574b8","system_id":"levelo_inurba_marseille","lat":43.272116,"lon":5.391763,"is_reserved":false,"is_disabled":false,"rental_uris":{"android":"levelo://app?vid=98546c15-fd93-42f7-ac8b-77317e7574b8","ios":"levelo://app?vid=98546c15-fd93-42f7-ac8b-77317e7574b8"},"vehicle_type_id":"4","last_reported":1702473017,"current_range_meters":19200,"station_id":"ce4bhhp2rcd13ifvqfm0","pricing_plan_id":"free"},{"bike_id":"d7a6c85d-a811-4fa8-800a-8c7d7fbad1e5","system_id":"levelo_inurba_marseille","lat":43.286314,"lon":5.416773,"is_reserved":false,"is_disabled":false,"rental_uris":{"android":"levelo://app?vid=d7a6c85d-a811-4fa8-800a-8c7d7fbad1e5","ios":"levelo://app?vid=d7a6c85d-a811-4fa8-800a-8c7d7fbad1e5"},"vehicle_type_id":"4","last_reported":1702473017,"current_range_meters":0,"station_id":"","pricing_plan_id":"free"},{"bike_id":"9917382d-d253-4524-834b-5171fe0b9392","system_id":"levelo_inurba_marseille","lat":43.278128,"lon":5.407195,"is_reserved":false,"is_disabled":false,"rental_uris":{"android":"levelo://app?vid=9917382d-d253-4524-834b-5171fe0b9392","ios":"levelo://app?vid=9917382d-d253-4524-834b-5171fe0b9392"},"vehicle_type_id":"4","last_reported":1702473017,"current_range_meters":26400,"station_id":"ce4bhnh2rcd13ifvqgtg","pricing_plan_id":"free"},{"bike_id":"5518c176-091c-45b7-b660-8b56cdc3919a","system_id":"levelo_inurba_marseille","lat":43.269467,"lon":5.386439,"is_reserved":false,"is_disabled":false,"rental_uris":{"android":"levelo://app?vid=5518c176-091c-45b7-b660-8b56cdc3919a","ios":"levelo://app?vid=5518c176-091c-45b7-b660-8b56cdc3919a"},"vehicle_type_id":"4","last_reported":1702473017,"current_range_meters":9600,"station_id":"ce4bhh92rcd13ifvqfh0","pricing_plan_id":"free"},{"bike_id":"7c6d7f1c-0ccd-4e53-a440-4b83356f3083","system_id":"levelo_inurba_marseille","lat":43.279465,"lon":5.410561,"is_reserved":false,"is_disabled":false,"rental_uris":{"android":"levelo://app?vid=7c6d7f1c-0ccd-4e53-a440-4b83356f3083","ios":"levelo://app?vid=7c6d7f1c-0ccd-4e53-a440-4b83356f3083"},"vehicle_type_id":"4","last_reported":1702473017,"current_range_meters":0,"station_id":"ce4bhnp2rcd13ifvqh0g","pricing_plan_id":"free"},{"bike_id":"15e89509-11c0-4425-ba57-8b14fe8afebb","system_id":"levelo_inurba_marseille","lat":43.27943,"lon":5.41054,"is_reserved":false,"is_disabled":false,"rental_uris":{"android":"levelo://app?vid=15e89509-11c0-4425-ba57-8b14fe8afebb","ios":"levelo://app?vid=15e89509-11c0-4425-ba57-8b14fe8afebb"},"vehicle_type_id":"4","last_reported":1702473017,"current_range_meters":9600,"station_id":"ce4bhnp2rcd13ifvqh0g","pricing_plan_id":"free"},{"bike_id":"5f9ff04e-3474-4f93-bf8e-d7d9ee565e72","system_id":"levelo_inurba_marseille","lat":43.279853,"lon":5.41632,"is_reserved":false,"is_disabled":false,"rental_uris":{"android":"levelo://app?vid=5f9ff04e-3474-4f93-bf8e-d7d9ee565e72","ios":"levelo://app?vid=5f9ff04e-3474-4f93-bf8e-d7d9ee565e72"},"vehicle_type_id":"4","last_reported":1702473017,"current_range_meters":18400,"station_id":"ce4bho12rcd13ifvqh1g","pricing_plan_id":"free"},{"bike_id":"74d1a641-f2a9-4f4f-9da2-1260a9c3f1d8","system_id":"levelo_inurba_marseille","lat":43.267966,"lon":5.393976,"is_reserved":false,"is_disabled":false,"rental_uris":{"android":"levelo://app?vid=74d1a641-f2a9-4f4f-9da2-1260a9c3f1d8","ios":"levelo://app?vid=74d1a641-f2a9-4f4f-9da2-1260a9c3f1d8"},"vehicle_type_id":"4","last_reported":1702473017,"current_range_meters":24800,"station_id":"ce4bhh12rcd13ifvqfg0","pricing_plan_id":"free"},{"bike_id":"155cd730-bc33-4496-a9e7-d92f3aeaec93","system_id":"levelo_inurba_marseille","lat":43.267966,"lon":5.393976,"is_reserved":false,"is_disabled":false,"rental_uris":{"android":"levelo://app?vid=155cd730-bc33-4496-a9e7-d92f3aeaec93","ios":"levelo://app?vid=155cd730-bc33-4496-a9e7-d92f3aeaec93"},"vehicle_type_id":"4","last_reported":1702473017,"current_range_meters":22800,"station_id":"ce4bhh12rcd13ifvqfg0","pricing_plan_id":"free"},{"bike_id":"4d17be57-eb78-477b-aa34-bf3f9bb57f9b","system_id":"levelo_inurba_marseille","lat":43.26571,"lon":5.39006,"is_reserved":false,"is_disabled":false,"rental_uris":{"android":"levelo://app?vid=4d17be57-eb78-477b-aa34-bf3f9bb57f9b","ios":"levelo://app?vid=4d17be57-eb78-477b-aa34-bf3f9bb57f9b"},"vehicle_type_id":"4","last_reported":1702473017,"current_range_meters":20000,"station_id":"ce4bhe12rcd13ifvqf30","pricing_plan_id":"free"},{"bike_id":"fa99febe-ac9a-4b6d-bdf7-4ccab3562ae1","system_id":"levelo_inurba_marseille","lat":43.26571,"lon":5.39013,"is_reserved":false,"is_disabled":false,"rental_uris":{"android":"levelo://app?vid=fa99febe-ac9a-4b6d-bdf7-4ccab3562ae1","ios":"levelo://app?vid=fa99febe-ac9a-4b6d-bdf7-4ccab3562ae1"},"vehicle_type_id":"4","last_reported":1702473017,"current_range_meters":10800,"station_id":"ce4bhe12rcd13ifvqf30","pricing_plan_id":"free"},{"bike_id":"39eefe27-03d9-47f3-9de8-d68c3a12f1c4","system_id":"levelo_inurba_marseille","lat":43.265569,"lon":5.390047,"is_reserved":false,"is_disabled":false,"rental_uris":{"android":"levelo://app?vid=39eefe27-03d9-47f3-9de8-d68c3a12f1c4","ios":"levelo://app?vid=39eefe27-03d9-47f3-9de8-d68c3a12f1c4"},"vehicle_type_id":"4","last_reported":1702473017,"current_range_meters":0,"station_id":"ce4bhe12rcd13ifvqf30","pricing_plan_id":"free"},{"bike_id":"3442fd48-ea8d-4f5d-a0c3-7b3dc9208ef1","system_id":"levelo_inurba_marseille","lat":43.269394,"lon":5.402576,"is_reserved":false,"is_disabled":false,"rental_uris":{"android":"levelo://app?vid=3442fd48-ea8d-4f5d-a0c3-7b3dc9208ef1","ios":"levelo://app?vid=3442fd48-ea8d-4f5d-a0c3-7b3dc9208ef1"},"vehicle_type_id":"4","last_reported":1702473017,"current_range_meters":16800,"station_id":"cjm6bp8fraef2m0cb0m0","pricing_plan_id":"free"},{"bike_id":"3aee01e6-74a0-4336-b102-29f7ddf731f3","system_id":"levelo_inurba_marseille","lat":43.269106,"lon":5.402599,"is_reserved":false,"is_disabled":false,"rental_uris":{"android":"levelo://app?vid=3aee01e6-74a0-4336-b102-29f7ddf731f3","ios":"levelo://app?vid=3aee01e6-74a0-4336-b102-29f7ddf731f3"},"vehicle_type_id":"4","last_reported":1702473017,"current_range_meters":9600,"station_id":"","pricing_plan_id":"free"},{"bike_id":"275c692c-4e8c-4cea-872d-9023693f571c","system_id":"levelo_inurba_marseille","lat":43.26202,"lon":5.379299,"is_reserved":false,"is_disabled":false,"rental_uris":{"android":"levelo://app?vid=275c692c-4e8c-4cea-872d-9023693f571c","ios":"levelo://app?vid=275c692c-4e8c-4cea-872d-9023693f571c"},"vehicle_type_id":"4","last_reported":1702473017,"current_range_meters":29600,"station_id":"ce4bhjp2rcd13ifvqg90","pricing_plan_id":"free"},{"bike_id":"38a4a3ac-b01c-43e0-abb4-5a012521fc8c","system_id":"levelo_inurba_marseille","lat":43.298768,"lon":5.43643,"is_reserved":false,"is_disabled":false,"rental_uris":{"android":"levelo://app?vid=38a4a3ac-b01c-43e0-abb4-5a012521fc8c","ios":"levelo://app?vid=38a4a3ac-b01c-43e0-abb4-5a012521fc8c"},"vehicle_type_id":"4","last_reported":1702473017,"current_range_meters":12000,"station_id":"ce4bhpp2rcd13ifvqhfg","pricing_plan_id":"free"},{"bike_id":"db2e86d5-7627-4498-b21b-7963da9c4aac","system_id":"levelo_inurba_marseille","lat":43.270721,"lon":5.422764,"is_reserved":false,"is_disabled":false,"rental_uris":{"android":"levelo://app?vid=db2e86d5-7627-4498-b21b-7963da9c4aac","ios":"levelo://app?vid=db2e86d5-7627-4498-b21b-7963da9c4aac"},"vehicle_type_id":"4","last_reported":1702473017,"current_range_meters":26400,"station_id":"ce4bhk92rcd13ifvqgb0","pricing_plan_id":"free"},{"bike_id":"e2d34ddb-6981-4ad7-b715-e6af5c31a493","system_id":"levelo_inurba_marseille","lat":43.2593,"lon":5.40916,"is_reserved":false,"is_disabled":false,"rental_uris":{"android":"levelo://app?vid=e2d34ddb-6981-4ad7-b715-e6af5c31a493","ios":"levelo://app?vid=e2d34ddb-6981-4ad7-b715-e6af5c31a493"},"vehicle_type_id":"4","last_reported":1702473017,"current_range_meters":21200,"station_id":"ce4bhm92rcd13ifvqglg","pricing_plan_id":"free"},{"bike_id":"f0148e17-e5e1-449a-be50-1802f64dc09d","system_id":"levelo_inurba_marseille","lat":43.257079,"lon":5.411051,"is_reserved":false,"is_disabled":false,"rental_uris":{"android":"levelo://app?vid=f0148e17-e5e1-449a-be50-1802f64dc09d","ios":"levelo://app?vid=f0148e17-e5e1-449a-be50-1802f64dc09d"},"vehicle_type_id":"4","last_reported":1702473017,"current_range_meters":2800,"station_id":"ce4bhkp2rcd13ifvqgd0","pricing_plan_id":"free"},{"bike_id":"db87ea8e-aea5-456e-95ed-cfff1a4ea1a2","system_id":"levelo_inurba_marseille","lat":43.250023,"lon":5.38919,"is_reserved":false,"is_disabled":false,"rental_uris":{"android":"levelo://app?vid=db87ea8e-aea5-456e-95ed-cfff1a4ea1a2","ios":"levelo://app?vid=db87ea8e-aea5-456e-95ed-cfff1a4ea1a2"},"vehicle_type_id":"4","last_reported":1702473017,"current_range_meters":28800,"station_id":"ce4bhgp2rcd13ifvqfd0","pricing_plan_id":"free"},{"bike_id":"75621bbd-8bf8-47a9-9336-64cc4e976cf1","system_id":"levelo_inurba_marseille","lat":43.2479,"lon":5.374457,"is_reserved":false,"is_disabled":false,"rental_uris":{"android":"levelo://app?vid=75621bbd-8bf8-47a9-9336-64cc4e976cf1","ios":"levelo://app?vid=75621bbd-8bf8-47a9-9336-64cc4e976cf1"},"vehicle_type_id":"4","last_reported":1702473017,"current_range_meters":15600,"station_id":"ce4bhgh2rcd13ifvqfb0","pricing_plan_id":"free"},{"bike_id":"f3ebdc89-9323-4d86-b618-6d4861018d79","system_id":"levelo_inurba_marseille","lat":43.250966,"lon":5.395186,"is_reserved":false,"is_disabled":false,"rental_uris":{"android":"levelo://app?vid=f3ebdc89-9323-4d86-b618-6d4861018d79","ios":"levelo://app?vid=f3ebdc89-9323-4d86-b618-6d4861018d79"},"vehicle_type_id":"4","last_reported":1702473017,"current_range_meters":26000,"station_id":"ce4bhm12rcd13ifvqgkg","pricing_plan_id":"free"},{"bike_id":"b846a0e1-d839-4f69-a933-c27da5e3c296","system_id":"levelo_inurba_marseille","lat":43.250966,"lon":5.395186,"is_reserved":false,"is_disabled":false,"rental_uris":{"android":"levelo://app?vid=b846a0e1-d839-4f69-a933-c27da5e3c296","ios":"levelo://app?vid=b846a0e1-d839-4f69-a933-c27da5e3c296"},"vehicle_type_id":"4","last_reported":1702473017,"current_range_meters":26800,"station_id":"ce4bhm12rcd13ifvqgkg","pricing_plan_id":"free"},{"bike_id":"8be53568-9987-48c3-ac3f-f594da125c3a","system_id":"levelo_inurba_marseille","lat":43.25102,"lon":5.403214,"is_reserved":false,"is_disabled":false,"rental_uris":{"android":"levelo://app?vid=8be53568-9987-48c3-ac3f-f594da125c3a","ios":"levelo://app?vid=8be53568-9987-48c3-ac3f-f594da125c3a"},"vehicle_type_id":"4","last_reported":1702473017,"current_range_meters":30000,"station_id":"ce4bhlh2rcd13ifvqgig","pricing_plan_id":"free"},{"bike_id":"fbaa55d9-f378-4b6e-b8f8-cdacabf13355","system_id":"levelo_inurba_marseille","lat":43.246461,"lon":5.389014,"is_reserved":false,"is_disabled":false,"rental_uris":{"android":"levelo://app?vid=fbaa55d9-f378-4b6e-b8f8-cdacabf13355","ios":"levelo://app?vid=fbaa55d9-f378-4b6e-b8f8-cdacabf13355"},"vehicle_type_id":"4","last_reported":1702473017,"current_range_meters":30800,"station_id":"ce4bhg12rcd13ifvqf60","pricing_plan_id":"free"},{"bike_id":"878b1243-ef6a-439c-beed-87055f1a63ef","system_id":"levelo_inurba_marseille","lat":43.246461,"lon":5.389014,"is_reserved":false,"is_disabled":false,"rental_uris":{"android":"levelo://app?vid=878b1243-ef6a-439c-beed-87055f1a63ef","ios":"levelo://app?vid=878b1243-ef6a-439c-beed-87055f1a63ef"},"vehicle_type_id":"4","last_reported":1702473017,"current_range_meters":23200,"station_id":"ce4bhg12rcd13ifvqf60","pricing_plan_id":"free"},{"bike_id":"4635703b-2901-42d4-a280-bdb18e4e1cb5","system_id":"levelo_inurba_marseille","lat":43.246461,"lon":5.389014,"is_reserved":false,"is_disabled":false,"rental_uris":{"android":"levelo://app?vid=4635703b-2901-42d4-a280-bdb18e4e1cb5","ios":"levelo://app?vid=4635703b-2901-42d4-a280-bdb18e4e1cb5"},"vehicle_type_id":"4","last_reported":1702473017,"current_range_meters":16400,"station_id":"ce4bhg12rcd13ifvqf60","pricing_plan_id":"free"},{"bike_id":"26b6305b-3325-4309-aa3e-1d458d7a672e","system_id":"levelo_inurba_marseille","lat":43.246461,"lon":5.389014,"is_reserved":false,"is_disabled":false,"rental_uris":{"android":"levelo://app?vid=26b6305b-3325-4309-aa3e-1d458d7a672e","ios":"levelo://app?vid=26b6305b-3325-4309-aa3e-1d458d7a672e"},"vehicle_type_id":"4","last_reported":1702473017,"current_range_meters":15600,"station_id":"ce4bhg12rcd13ifvqf60","pricing_plan_id":"free"},{"bike_id":"1da87602-9cbd-422d-a96e-387b9232edc2","system_id":"levelo_inurba_marseille","lat":43.246461,"lon":5.389014,"is_reserved":false,"is_disabled":false,"rental_uris":{"android":"levelo://app?vid=1da87602-9cbd-422d-a96e-387b9232edc2","ios":"levelo://app?vid=1da87602-9cbd-422d-a96e-387b9232edc2"},"vehicle_type_id":"4","last_reported":1702473017,"current_range_meters":1200,"station_id":"ce4bhg12rcd13ifvqf60","pricing_plan_id":"free"},{"bike_id":"79ff15de-4d4c-4e0e-8061-666c8b0d69a6","system_id":"levelo_inurba_marseille","lat":43.243884,"lon":5.370737,"is_reserved":false,"is_disabled":false,"rental_uris":{"android":"levelo://app?vid=79ff15de-4d4c-4e0e-8061-666c8b0d69a6","ios":"levelo://app?vid=79ff15de-4d4c-4e0e-8061-666c8b0d69a6"},"vehicle_type_id":"4","last_reported":1702473017,"current_range_meters":3200,"station_id":"ce4bhhh2rcd13ifvqfk0","pricing_plan_id":"free"},{"bike_id":"e83c2cbd-80a3-449a-9f55-b8240824daed","system_id":"levelo_inurba_marseille","lat":43.243884,"lon":5.370736,"is_reserved":false,"is_disabled":false,"rental_uris":{"android":"levelo://app?vid=e83c2cbd-80a3-449a-9f55-b8240824daed","ios":"levelo://app?vid=e83c2cbd-80a3-449a-9f55-b8240824daed"},"vehicle_type_id":"4","last_reported":1702473017,"current_range_meters":22000,"station_id":"ce4bhhh2rcd13ifvqfk0","pricing_plan_id":"free"},{"bike_id":"d523bcaf-1800-4c20-ab8f-1483ecf30886","system_id":"levelo_inurba_marseille","lat":43.241782,"lon":5.397261,"is_reserved":false,"is_disabled":false,"rental_uris":{"android":"levelo://app?vid=d523bcaf-1800-4c20-ab8f-1483ecf30886","ios":"levelo://app?vid=d523bcaf-1800-4c20-ab8f-1483ecf30886"},"vehicle_type_id":"4","last_reported":1702473017,"current_range_meters":23200,"station_id":"ce4bhn12rcd13ifvqgpg","pricing_plan_id":"free"},{"bike_id":"5be5a0a3-3e0d-4c7b-bf08-de33b00a76d2","system_id":"levelo_inurba_marseille","lat":43.231942,"lon":5.355487,"is_reserved":false,"is_disabled":false,"rental_uris":{"android":"levelo://app?vid=5be5a0a3-3e0d-4c7b-bf08-de33b00a76d2","ios":"levelo://app?vid=5be5a0a3-3e0d-4c7b-bf08-de33b00a76d2"},"vehicle_type_id":"4","last_reported":1702473017,"current_range_meters":18000,"station_id":"ce4bhu92rcd13ifvqi70","pricing_plan_id":"free"},{"bike_id":"a24e9a7d-aca6-4a9e-803e-e0faeb33511b","system_id":"levelo_inurba_marseille","lat":43.23192,"lon":5.35551,"is_reserved":false,"is_disabled":false,"rental_uris":{"android":"levelo://app?vid=a24e9a7d-aca6-4a9e-803e-e0faeb33511b","ios":"levelo://app?vid=a24e9a7d-aca6-4a9e-803e-e0faeb33511b"},"vehicle_type_id":"4","last_reported":1702473017,"current_range_meters":0,"station_id":"ce4bhu92rcd13ifvqi70","pricing_plan_id":"free"},{"bike_id":"069f864e-a523-4c26-a2df-4683a7e5d579","system_id":"levelo_inurba_marseille","lat":43.231919,"lon":5.355532,"is_reserved":false,"is_disabled":false,"rental_uris":{"android":"levelo://app?vid=069f864e-a523-4c26-a2df-4683a7e5d579","ios":"levelo://app?vid=069f864e-a523-4c26-a2df-4683a7e5d579"},"vehicle_type_id":"4","last_reported":1702473017,"current_range_meters":25200,"station_id":"ce4bhu92rcd13ifvqi70","pricing_plan_id":"free"},{"bike_id":"a70842cf-3cdd-4227-8996-9e4cdf55219b","system_id":"levelo_inurba_marseille","lat":43.231793,"lon":5.400044,"is_reserved":false,"is_disabled":false,"rental_uris":{"android":"levelo://app?vid=a70842cf-3cdd-4227-8996-9e4cdf55219b","ios":"levelo://app?vid=a70842cf-3cdd-4227-8996-9e4cdf55219b"},"vehicle_type_id":"4","last_reported":1702473017,"current_range_meters":1600,"station_id":"ce4bhn12rcd13ifvqgqg","pricing_plan_id":"free"},{"bike_id":"46e85755-7f44-4770-9e69-88e3e5d2d0d4","system_id":"levelo_inurba_marseille","lat":43.231794,"lon":5.400052,"is_reserved":false,"is_disabled":false,"rental_uris":{"android":"levelo://app?vid=46e85755-7f44-4770-9e69-88e3e5d2d0d4","ios":"levelo://app?vid=46e85755-7f44-4770-9e69-88e3e5d2d0d4"},"vehicle_type_id":"4","last_reported":1702473017,"current_range_meters":22000,"station_id":"ce4bhn12rcd13ifvqgqg","pricing_plan_id":"free"},{"bike_id":"28cf0186-3129-4448-9e8f-8fa9860365e7","system_id":"levelo_inurba_marseille","lat":43.231794,"lon":5.400052,"is_reserved":false,"is_disabled":false,"rental_uris":{"android":"levelo://app?vid=28cf0186-3129-4448-9e8f-8fa9860365e7","ios":"levelo://app?vid=28cf0186-3129-4448-9e8f-8fa9860365e7"},"vehicle_type_id":"4","last_reported":1702473017,"current_range_meters":19600,"station_id":"ce4bhn12rcd13ifvqgqg","pricing_plan_id":"free"},{"bike_id":"976b51c7-50e5-4a1e-9623-472378627f57","system_id":"levelo_inurba_marseille","lat":43.23184,"lon":5.39977,"is_reserved":false,"is_disabled":false,"rental_uris":{"android":"levelo://app?vid=976b51c7-50e5-4a1e-9623-472378627f57","ios":"levelo://app?vid=976b51c7-50e5-4a1e-9623-472378627f57"},"vehicle_type_id":"4","last_reported":1702473017,"current_range_meters":12400,"station_id":"ce4bhn12rcd13ifvqgqg","pricing_plan_id":"free"},{"bike_id":"5d66a1e1-407e-43b7-8a1f-b43437a90341","system_id":"levelo_inurba_marseille","lat":43.231794,"lon":5.400052,"is_reserved":false,"is_disabled":false,"rental_uris":{"android":"levelo://app?vid=5d66a1e1-407e-43b7-8a1f-b43437a90341","ios":"levelo://app?vid=5d66a1e1-407e-43b7-8a1f-b43437a90341"},"vehicle_type_id":"4","last_reported":1702473017,"current_range_meters":13200,"station_id":"ce4bhn12rcd13ifvqgqg","pricing_plan_id":"free"},{"bike_id":"4af5ffe5-0506-460c-ad5f-2fbf6f458ad9","system_id":"levelo_inurba_marseille","lat":43.23152,"lon":5.43719,"is_reserved":false,"is_disabled":false,"rental_uris":{"android":"levelo://app?vid=4af5ffe5-0506-460c-ad5f-2fbf6f458ad9","ios":"levelo://app?vid=4af5ffe5-0506-460c-ad5f-2fbf6f458ad9"},"vehicle_type_id":"4","last_reported":1702473017,"current_range_meters":12800,"station_id":"ce4bhmp2rcd13ifvqgog","pricing_plan_id":"free"},{"bike_id":"4e113b7d-10fa-42e1-8182-bfa06cee01f1","system_id":"levelo_inurba_marseille","lat":43.231562,"lon":5.436933,"is_reserved":false,"is_disabled":false,"rental_uris":{"android":"levelo://app?vid=4e113b7d-10fa-42e1-8182-bfa06cee01f1","ios":"levelo://app?vid=4e113b7d-10fa-42e1-8182-bfa06cee01f1"},"vehicle_type_id":"4","last_reported":1702473017,"current_range_meters":9200,"station_id":"ce4bhmp2rcd13ifvqgog","pricing_plan_id":"free"}]}}