{"last_updated":1778936220,"ttl":60,"version":"2.2","data":{"bikes":[{"bike_id":"c4ee361f-040e-4ad9-8fc8-7b730e9f0c39","system_id":"levelo_inurba_marseille","lat":43.337444,"lon":5.374475,"is_reserved":false,"is_disabled":true,"rental_uris":{"android":"levelo://app?vid=c4ee361f-040e-4ad9-8fc8-7b730e9f0c39","ios":"levelo://app?vid=c4ee361f-040e-4ad9-8fc8-7b730e9f0c39"},"vehicle_type_id":"4","last_reported":1778936221,"current_range_meters":2800,"station_id":"","pricing_plan_id":"cebpf4jnsgd1na2vs0mg"},{"bike_id":"b1b1c9ad-0e11-41a8-95b1-ee1803460284","system_id":"levelo_inurba_marseille","lat":43.3355,"lon":5.37462,"is_reserved":false,"is_disabled":false,"rental_uris":{"android":"levelo://app?vid=b1b1c9ad-0e11-41a8-95b1-ee1803460284","ios":"levelo://app?vid=b1b1c9ad-0e11-41a8-95b1-ee1803460284"},"vehicle_type_id":"4","last_reported":1778936221,"current_range_meters":2800,"station_id":"st_d46tts09ee8s73dlu43g","pricing_plan_id":"cebpf4jnsgd1na2vs0mg"},{"bike_id":"f0fc646e-a28b-4785-b7f1-bd1945e3715f","system_id":"levelo_inurba_marseille","lat":43.28704,"lon":5.3742,"is_reserved":false,"is_disabled":false,"rental_uris":{"android":"levelo://app?vid=f0fc646e-a28b-4785-b7f1-bd1945e3715f","ios":"levelo://app?vid=f0fc646e-a28b-4785-b7f1-bd1945e3715f"},"vehicle_type_id":"4","last_reported":1778936221,"current_range_meters":2800,"station_id":"ce4bh3p2rcd13ifvqdq0","pricing_plan_id":"cebpf4jnsgd1na2vs0mg"},{"bike_id":"0d5dd8d5-22ce-4cf4-96c4-a16487c95253","system_id":"levelo_inurba_marseille","lat":43.29967,"lon":5.3869,"is_reserved":false,"is_disabled":false,"rental_uris":{"android":"levelo://app?vid=0d5dd8d5-22ce-4cf4-96c4-a16487c95253","ios":"levelo://app?vid=0d5dd8d5-22ce-4cf4-96c4-a16487c95253"},"vehicle_type_id":"4","last_reported":1778936221,"current_range_meters":2800,"station_id":"","pricing_plan_id":"cebpf4jnsgd1na2vs0mg"},{"bike_id":"dcd40384-1471-4925-8f3b-6ea3cbdd8204","system_id":"levelo_inurba_marseille","lat":43.29366,"lon":5.37865,"is_reserved":false,"is_disabled":false,"rental_uris":{"android":"levelo://app?vid=dcd40384-1471-4925-8f3b-6ea3cbdd8204","ios":"levelo://app?vid=dcd40384-1471-4925-8f3b-6ea3cbdd8204"},"vehicle_type_id":"4","last_reported":1778936221,"current_range_meters":2800,"station_id":"ce4bgjh2rcd13ifvqbf0","pricing_plan_id":"cebpf4jnsgd1na2vs0mg"},{"bike_id":"1bdee6b8-2356-4670-a47f-975c541a2a7a","system_id":"levelo_inurba_marseille","lat":43.25577,"lon":5.38229,"is_reserved":false,"is_disabled":false,"rental_uris":{"android":"levelo://app?vid=1bdee6b8-2356-4670-a47f-975c541a2a7a","ios":"levelo://app?vid=1bdee6b8-2356-4670-a47f-975c541a2a7a"},"vehicle_type_id":"4","last_reported":1778936221,"current_range_meters":2800,"station_id":"ce4bhih2rcd13ifvqfs0","pricing_plan_id":"cebpf4jnsgd1na2vs0mg"},{"bike_id":"6661dcda-2c61-4ee5-8306-6a982459bb60","system_id":"levelo_inurba_marseille","lat":43.25715,"lon":5.41105,"is_reserved":false,"is_disabled":false,"rental_uris":{"android":"levelo://app?vid=6661dcda-2c61-4ee5-8306-6a982459bb60","ios":"levelo://app?vid=6661dcda-2c61-4ee5-8306-6a982459bb60"},"vehicle_type_id":"4","last_reported":1778936221,"current_range_meters":3200,"station_id":"ce4bhkp2rcd13ifvqgd0","pricing_plan_id":"cebpf4jnsgd1na2vs0mg"},{"bike_id":"9b0d300e-df14-4113-9c71-af15c744e30b","system_id":"levelo_inurba_marseille","lat":43.31738,"lon":5.4243,"is_reserved":false,"is_disabled":false,"rental_uris":{"android":"levelo://app?vid=9b0d300e-df14-4113-9c71-af15c744e30b","ios":"levelo://app?vid=9b0d300e-df14-4113-9c71-af15c744e30b"},"vehicle_type_id":"4","last_reported":1778936221,"current_range_meters":3200,"station_id":"ce4bhp92rcd13ifvqhbg","pricing_plan_id":"cebpf4jnsgd1na2vs0mg"},{"bike_id":"1f7ffc79-e4b4-4c0e-ba33-c99f4e1f4d60","system_id":"levelo_inurba_marseille","lat":43.28106,"lon":5.37836,"is_reserved":false,"is_disabled":false,"rental_uris":{"android":"levelo://app?vid=1f7ffc79-e4b4-4c0e-ba33-c99f4e1f4d60","ios":"levelo://app?vid=1f7ffc79-e4b4-4c0e-ba33-c99f4e1f4d60"},"vehicle_type_id":"4","last_reported":1778936221,"current_range_meters":3200,"station_id":"ce4bha12rcd13ifvqee0","pricing_plan_id":"cebpf4jnsgd1na2vs0mg"},{"bike_id":"ffc4644f-045a-49fd-b941-866134ff8d56","system_id":"levelo_inurba_marseille","lat":43.3014,"lon":5.38777,"is_reserved":false,"is_disabled":false,"rental_uris":{"android":"levelo://app?vid=ffc4644f-045a-49fd-b941-866134ff8d56","ios":"levelo://app?vid=ffc4644f-045a-49fd-b941-866134ff8d56"},"vehicle_type_id":"4","last_reported":1778936221,"current_range_meters":3200,"station_id":"ce4bghh2rcd13ifvqb60","pricing_plan_id":"cebpf4jnsgd1na2vs0mg"},{"bike_id":"ab6bcec4-d462-4432-b942-93f173340dd1","system_id":"levelo_inurba_marseille","lat":43.31371,"lon":5.38499,"is_reserved":false,"is_disabled":false,"rental_uris":{"android":"levelo://app?vid=ab6bcec4-d462-4432-b942-93f173340dd1","ios":"levelo://app?vid=ab6bcec4-d462-4432-b942-93f173340dd1"},"vehicle_type_id":"4","last_reported":1778936221,"current_range_meters":3200,"station_id":"ce4bgt92rcd13ifvqcf0","pricing_plan_id":"cebpf4jnsgd1na2vs0mg"},{"bike_id":"2214caf3-9aea-4a83-affe-5bf61833eb11","system_id":"levelo_inurba_marseille","lat":43.293426,"lon":5.403392,"is_reserved":false,"is_disabled":true,"rental_uris":{"android":"levelo://app?vid=2214caf3-9aea-4a83-affe-5bf61833eb11","ios":"levelo://app?vid=2214caf3-9aea-4a83-affe-5bf61833eb11"},"vehicle_type_id":"4","last_reported":1778936221,"current_range_meters":3200,"station_id":"","pricing_plan_id":"cebpf4jnsgd1na2vs0mg"},{"bike_id":"f3198137-cbc8-4311-8899-b4ab689fee46","system_id":"levelo_inurba_marseille","lat":43.26034,"lon":5.37546,"is_reserved":false,"is_disabled":true,"rental_uris":{"android":"levelo://app?vid=f3198137-cbc8-4311-8899-b4ab689fee46","ios":"levelo://app?vid=f3198137-cbc8-4311-8899-b4ab689fee46"},"vehicle_type_id":"4","last_reported":1778936221,"current_range_meters":3200,"station_id":"ce4bhgh2rcd13ifvqfa0","pricing_plan_id":"cebpf4jnsgd1na2vs0mg"},{"bike_id":"d79322c9-4adb-47b3-b3b0-ca716a2bbfbb","system_id":"levelo_inurba_marseille","lat":43.24815,"lon":5.37459,"is_reserved":false,"is_disabled":false,"rental_uris":{"android":"levelo://app?vid=d79322c9-4adb-47b3-b3b0-ca716a2bbfbb","ios":"levelo://app?vid=d79322c9-4adb-47b3-b3b0-ca716a2bbfbb"},"vehicle_type_id":"4","last_reported":1778936221,"current_range_meters":3200,"station_id":"ce4bhgh2rcd13ifvqfb0","pricing_plan_id":"cebpf4jnsgd1na2vs0mg"},{"bike_id":"18eb90ac-eec2-4913-9241-dd8d26049a6e","system_id":"levelo_inurba_marseille","lat":43.28686,"lon":5.46683,"is_reserved":false,"is_disabled":false,"rental_uris":{"android":"levelo://app?vid=18eb90ac-eec2-4913-9241-dd8d26049a6e","ios":"levelo://app?vid=18eb90ac-eec2-4913-9241-dd8d26049a6e"},"vehicle_type_id":"4","last_reported":1778936221,"current_range_meters":3200,"station_id":"st_d6tc3vkotcvc738tfjhg","pricing_plan_id":"cebpf4jnsgd1na2vs0mg"},{"bike_id":"0851ef02-abf8-47b5-8d41-445bb5757760","system_id":"levelo_inurba_marseille","lat":43.26949,"lon":5.40259,"is_reserved":false,"is_disabled":false,"rental_uris":{"android":"levelo://app?vid=0851ef02-abf8-47b5-8d41-445bb5757760","ios":"levelo://app?vid=0851ef02-abf8-47b5-8d41-445bb5757760"},"vehicle_type_id":"4","last_reported":1778936221,"current_range_meters":3200,"station_id":"cjm6bp8fraef2m0cb0m0","pricing_plan_id":"cebpf4jnsgd1na2vs0mg"},{"bike_id":"eb69ded8-3844-4366-a6c0-c2401c6cc839","system_id":"levelo_inurba_marseille","lat":43.28709,"lon":5.46693,"is_reserved":false,"is_disabled":false,"rental_uris":{"android":"levelo://app?vid=eb69ded8-3844-4366-a6c0-c2401c6cc839","ios":"levelo://app?vid=eb69ded8-3844-4366-a6c0-c2401c6cc839"},"vehicle_type_id":"4","last_reported":1778936221,"current_range_meters":3200,"station_id":"st_d6tc3vkotcvc738tfjhg","pricing_plan_id":"cebpf4jnsgd1na2vs0mg"},{"bike_id":"baf45286-843c-4c51-928e-1725e75faafb","system_id":"levelo_inurba_marseille","lat":43.296223,"lon":5.37717,"is_reserved":false,"is_disabled":false,"rental_uris":{"android":"levelo://app?vid=baf45286-843c-4c51-928e-1725e75faafb","ios":"levelo://app?vid=baf45286-843c-4c51-928e-1725e75faafb"},"vehicle_type_id":"4","last_reported":1778936221,"current_range_meters":3600,"station_id":"ce4bgi92rcd13ifvqb90","pricing_plan_id":"cebpf4jnsgd1na2vs0mg"},{"bike_id":"197f8590-4140-4e11-8b87-67ad98bb4bca","system_id":"levelo_inurba_marseille","lat":43.2861,"lon":5.37076,"is_reserved":false,"is_disabled":true,"rental_uris":{"android":"levelo://app?vid=197f8590-4140-4e11-8b87-67ad98bb4bca","ios":"levelo://app?vid=197f8590-4140-4e11-8b87-67ad98bb4bca"},"vehicle_type_id":"4","last_reported":1778936221,"current_range_meters":3600,"station_id":"ce4bht12rcd13ifvqi60","pricing_plan_id":"cebpf4jnsgd1na2vs0mg"},{"bike_id":"417bd26b-1701-485b-b896-bb7adc98bac9","system_id":"levelo_inurba_marseille","lat":43.23965,"lon":5.36621,"is_reserved":false,"is_disabled":true,"rental_uris":{"android":"levelo://app?vid=417bd26b-1701-485b-b896-bb7adc98bac9","ios":"levelo://app?vid=417bd26b-1701-485b-b896-bb7adc98bac9"},"vehicle_type_id":"4","last_reported":1778936221,"current_range_meters":3600,"station_id":"ce4bhi12rcd13ifvqfp0","pricing_plan_id":"cebpf4jnsgd1na2vs0mg"},{"bike_id":"d3ea9369-ad84-4e61-bbb2-cd82b8d4d236","system_id":"levelo_inurba_marseille","lat":43.31126,"lon":5.37768,"is_reserved":false,"is_disabled":false,"rental_uris":{"android":"levelo://app?vid=d3ea9369-ad84-4e61-bbb2-cd82b8d4d236","ios":"levelo://app?vid=d3ea9369-ad84-4e61-bbb2-cd82b8d4d236"},"vehicle_type_id":"4","last_reported":1778936221,"current_range_meters":3600,"station_id":"ce4bgt92rcd13ifvqcg0","pricing_plan_id":"cebpf4jnsgd1na2vs0mg"},{"bike_id":"664a66cf-32f5-4d4e-b164-e0c7e3c4db03","system_id":"levelo_inurba_marseille","lat":43.250845,"lon":5.395246,"is_reserved":false,"is_disabled":false,"rental_uris":{"android":"levelo://app?vid=664a66cf-32f5-4d4e-b164-e0c7e3c4db03","ios":"levelo://app?vid=664a66cf-32f5-4d4e-b164-e0c7e3c4db03"},"vehicle_type_id":"4","last_reported":1778936221,"current_range_meters":3600,"station_id":"ce4bhm12rcd13ifvqgkg","pricing_plan_id":"cebpf4jnsgd1na2vs0mg"},{"bike_id":"b973cd03-18fc-45e3-aa21-becc10a2d6b7","system_id":"levelo_inurba_marseille","lat":43.25826,"lon":5.39437,"is_reserved":false,"is_disabled":false,"rental_uris":{"android":"levelo://app?vid=b973cd03-18fc-45e3-aa21-becc10a2d6b7","ios":"levelo://app?vid=b973cd03-18fc-45e3-aa21-becc10a2d6b7"},"vehicle_type_id":"4","last_reported":1778936221,"current_range_meters":3600,"station_id":"ce4bhip2rcd13ifvqft0","pricing_plan_id":"cebpf4jnsgd1na2vs0mg"},{"bike_id":"2a01f0d7-8080-47d7-9ca5-40364fc7ed22","system_id":"levelo_inurba_marseille","lat":43.27603,"lon":5.36121,"is_reserved":false,"is_disabled":false,"rental_uris":{"android":"levelo://app?vid=2a01f0d7-8080-47d7-9ca5-40364fc7ed22","ios":"levelo://app?vid=2a01f0d7-8080-47d7-9ca5-40364fc7ed22"},"vehicle_type_id":"4","last_reported":1778936221,"current_range_meters":3600,"station_id":"ce4bgj92rcd13ifvqbe0","pricing_plan_id":"cebpf4jnsgd1na2vs0mg"},{"bike_id":"a47210f8-ae85-48d0-963a-6b250afbdadb","system_id":"levelo_inurba_marseille","lat":43.28009,"lon":5.40009,"is_reserved":false,"is_disabled":false,"rental_uris":{"android":"levelo://app?vid=a47210f8-ae85-48d0-963a-6b250afbdadb","ios":"levelo://app?vid=a47210f8-ae85-48d0-963a-6b250afbdadb"},"vehicle_type_id":"4","last_reported":1778936221,"current_range_meters":3600,"station_id":"ce4bho92rcd13ifvqh4g","pricing_plan_id":"cebpf4jnsgd1na2vs0mg"},{"bike_id":"df06f853-df8b-44c5-8abd-63dd254e997c","system_id":"levelo_inurba_marseille","lat":43.29832,"lon":5.38649,"is_reserved":false,"is_disabled":false,"rental_uris":{"android":"levelo://app?vid=df06f853-df8b-44c5-8abd-63dd254e997c","ios":"levelo://app?vid=df06f853-df8b-44c5-8abd-63dd254e997c"},"vehicle_type_id":"4","last_reported":1778936221,"current_range_meters":4000,"station_id":"","pricing_plan_id":"cebpf4jnsgd1na2vs0mg"},{"bike_id":"6d719681-556e-401a-b44a-d8e8d38e7b46","system_id":"levelo_inurba_marseille","lat":43.26212,"lon":5.37443,"is_reserved":false,"is_disabled":false,"rental_uris":{"android":"levelo://app?vid=6d719681-556e-401a-b44a-d8e8d38e7b46","ios":"levelo://app?vid=6d719681-556e-401a-b44a-d8e8d38e7b46"},"vehicle_type_id":"4","last_reported":1778936221,"current_range_meters":4000,"station_id":"ce4bhgp2rcd13ifvqfc0","pricing_plan_id":"cebpf4jnsgd1na2vs0mg"},{"bike_id":"e0da8364-460d-4f6a-afe8-09ef339ab7cf","system_id":"levelo_inurba_marseille","lat":43.29249,"lon":5.37622,"is_reserved":false,"is_disabled":false,"rental_uris":{"android":"levelo://app?vid=e0da8364-460d-4f6a-afe8-09ef339ab7cf","ios":"levelo://app?vid=e0da8364-460d-4f6a-afe8-09ef339ab7cf"},"vehicle_type_id":"4","last_reported":1778936221,"current_range_meters":4000,"station_id":"ce4bgi12rcd13ifvqb80","pricing_plan_id":"cebpf4jnsgd1na2vs0mg"},{"bike_id":"67ccb857-92da-48d4-97af-9df5ebe29c07","system_id":"levelo_inurba_marseille","lat":43.32496,"lon":5.38304,"is_reserved":false,"is_disabled":false,"rental_uris":{"android":"levelo://app?vid=67ccb857-92da-48d4-97af-9df5ebe29c07","ios":"levelo://app?vid=67ccb857-92da-48d4-97af-9df5ebe29c07"},"vehicle_type_id":"4","last_reported":1778936221,"current_range_meters":4000,"station_id":"st_d4asgbiv49dc73anf9m0","pricing_plan_id":"cebpf4jnsgd1na2vs0mg"},{"bike_id":"69a4de94-ae1f-4385-aa61-58a2336f8cb8","system_id":"levelo_inurba_marseille","lat":43.29997,"lon":5.43075,"is_reserved":false,"is_disabled":false,"rental_uris":{"android":"levelo://app?vid=69a4de94-ae1f-4385-aa61-58a2336f8cb8","ios":"levelo://app?vid=69a4de94-ae1f-4385-aa61-58a2336f8cb8"},"vehicle_type_id":"4","last_reported":1778936221,"current_range_meters":4000,"station_id":"","pricing_plan_id":"cebpf4jnsgd1na2vs0mg"},{"bike_id":"44d71ae5-a5e6-42a3-99db-4175ddd046fa","system_id":"levelo_inurba_marseille","lat":43.31054,"lon":5.37172,"is_reserved":false,"is_disabled":false,"rental_uris":{"android":"levelo://app?vid=44d71ae5-a5e6-42a3-99db-4175ddd046fa","ios":"levelo://app?vid=44d71ae5-a5e6-42a3-99db-4175ddd046fa"},"vehicle_type_id":"4","last_reported":1778936221,"current_range_meters":4000,"station_id":"st_d4kl2rp97mjs73e7tdfg","pricing_plan_id":"cebpf4jnsgd1na2vs0mg"},{"bike_id":"4c1456b4-c5f4-49ed-bd33-6f63525d7c4f","system_id":"levelo_inurba_marseille","lat":43.27996,"lon":5.38744,"is_reserved":false,"is_disabled":true,"rental_uris":{"android":"levelo://app?vid=4c1456b4-c5f4-49ed-bd33-6f63525d7c4f","ios":"levelo://app?vid=4c1456b4-c5f4-49ed-bd33-6f63525d7c4f"},"vehicle_type_id":"4","last_reported":1778936221,"current_range_meters":4000,"station_id":"ce4bhg12rcd13ifvqf80","pricing_plan_id":"cebpf4jnsgd1na2vs0mg"},{"bike_id":"f35538c5-f923-479b-ac74-73e10ca6c589","system_id":"levelo_inurba_marseille","lat":43.256,"lon":5.38267,"is_reserved":false,"is_disabled":false,"rental_uris":{"android":"levelo://app?vid=f35538c5-f923-479b-ac74-73e10ca6c589","ios":"levelo://app?vid=f35538c5-f923-479b-ac74-73e10ca6c589"},"vehicle_type_id":"4","last_reported":1778936221,"current_range_meters":4000,"station_id":"ce4bhih2rcd13ifvqfs0","pricing_plan_id":"cebpf4jnsgd1na2vs0mg"},{"bike_id":"d65011ce-f934-4529-93b0-a9ddaab7065b","system_id":"levelo_inurba_marseille","lat":43.284024,"lon":5.375166,"is_reserved":false,"is_disabled":false,"rental_uris":{"android":"levelo://app?vid=d65011ce-f934-4529-93b0-a9ddaab7065b","ios":"levelo://app?vid=d65011ce-f934-4529-93b0-a9ddaab7065b"},"vehicle_type_id":"4","last_reported":1778936221,"current_range_meters":4000,"station_id":"ce4bh412rcd13ifvqds0","pricing_plan_id":"cebpf4jnsgd1na2vs0mg"},{"bike_id":"c15b7d9d-4d2e-4558-9fe7-1ee3f2efc7ae","system_id":"levelo_inurba_marseille","lat":43.29495,"lon":5.43309,"is_reserved":false,"is_disabled":false,"rental_uris":{"android":"levelo://app?vid=c15b7d9d-4d2e-4558-9fe7-1ee3f2efc7ae","ios":"levelo://app?vid=c15b7d9d-4d2e-4558-9fe7-1ee3f2efc7ae"},"vehicle_type_id":"4","last_reported":1778936221,"current_range_meters":4000,"station_id":"st_d3j5ugp08ojc73fj9d10","pricing_plan_id":"cebpf4jnsgd1na2vs0mg"},{"bike_id":"35279359-d558-4a3e-bdff-b5f54c871b8c","system_id":"levelo_inurba_marseille","lat":43.28414,"lon":5.37509,"is_reserved":false,"is_disabled":false,"rental_uris":{"android":"levelo://app?vid=35279359-d558-4a3e-bdff-b5f54c871b8c","ios":"levelo://app?vid=35279359-d558-4a3e-bdff-b5f54c871b8c"},"vehicle_type_id":"4","last_reported":1778936221,"current_range_meters":4000,"station_id":"ce4bh412rcd13ifvqds0","pricing_plan_id":"cebpf4jnsgd1na2vs0mg"},{"bike_id":"a09d8b90-19f7-4828-b96f-1821752ec7a6","system_id":"levelo_inurba_marseille","lat":43.30657,"lon":5.40099,"is_reserved":false,"is_disabled":false,"rental_uris":{"android":"levelo://app?vid=a09d8b90-19f7-4828-b96f-1821752ec7a6","ios":"levelo://app?vid=a09d8b90-19f7-4828-b96f-1821752ec7a6"},"vehicle_type_id":"4","last_reported":1778936221,"current_range_meters":4000,"station_id":"ce4bh112rcd13ifvqda0","pricing_plan_id":"cebpf4jnsgd1na2vs0mg"},{"bike_id":"b20b0371-18e5-4aeb-b9fc-739fedb123f7","system_id":"levelo_inurba_marseille","lat":43.29844,"lon":5.36271,"is_reserved":false,"is_disabled":false,"rental_uris":{"android":"levelo://app?vid=b20b0371-18e5-4aeb-b9fc-739fedb123f7","ios":"levelo://app?vid=b20b0371-18e5-4aeb-b9fc-739fedb123f7"},"vehicle_type_id":"4","last_reported":1778936221,"current_range_meters":4400,"station_id":"ce4bgpp2rcd13ifvqc3g","pricing_plan_id":"cebpf4jnsgd1na2vs0mg"},{"bike_id":"305f8012-853c-4e5c-b4a3-badea1215a44","system_id":"levelo_inurba_marseille","lat":43.33754,"lon":5.37506,"is_reserved":false,"is_disabled":false,"rental_uris":{"android":"levelo://app?vid=305f8012-853c-4e5c-b4a3-badea1215a44","ios":"levelo://app?vid=305f8012-853c-4e5c-b4a3-badea1215a44"},"vehicle_type_id":"4","last_reported":1778936221,"current_range_meters":4400,"station_id":"","pricing_plan_id":"cebpf4jnsgd1na2vs0mg"},{"bike_id":"d0a7aa3b-245c-4f99-a3f3-d160f3b406ac","system_id":"levelo_inurba_marseille","lat":43.297668,"lon":5.371149,"is_reserved":false,"is_disabled":false,"rental_uris":{"android":"levelo://app?vid=d0a7aa3b-245c-4f99-a3f3-d160f3b406ac","ios":"levelo://app?vid=d0a7aa3b-245c-4f99-a3f3-d160f3b406ac"},"vehicle_type_id":"4","last_reported":1778936221,"current_range_meters":4400,"station_id":"ce4bgop2rcd13ifvqc1g","pricing_plan_id":"cebpf4jnsgd1na2vs0mg"},{"bike_id":"4a8828bf-5352-4721-8c19-0a06947545c0","system_id":"levelo_inurba_marseille","lat":43.27992,"lon":5.41656,"is_reserved":false,"is_disabled":false,"rental_uris":{"android":"levelo://app?vid=4a8828bf-5352-4721-8c19-0a06947545c0","ios":"levelo://app?vid=4a8828bf-5352-4721-8c19-0a06947545c0"},"vehicle_type_id":"4","last_reported":1778936221,"current_range_meters":4400,"station_id":"ce4bho12rcd13ifvqh1g","pricing_plan_id":"cebpf4jnsgd1na2vs0mg"},{"bike_id":"49801a4c-4c9c-44de-b4a8-62d82788e994","system_id":"levelo_inurba_marseille","lat":43.21747,"lon":5.34602,"is_reserved":false,"is_disabled":false,"rental_uris":{"android":"levelo://app?vid=49801a4c-4c9c-44de-b4a8-62d82788e994","ios":"levelo://app?vid=49801a4c-4c9c-44de-b4a8-62d82788e994"},"vehicle_type_id":"4","last_reported":1778936221,"current_range_meters":4400,"station_id":"st_cvj6r9ubvosntc0bgbag","pricing_plan_id":"cebpf4jnsgd1na2vs0mg"},{"bike_id":"ceeae13a-87c9-4495-9238-e5a5cc9c4c69","system_id":"levelo_inurba_marseille","lat":43.29621,"lon":5.37153,"is_reserved":false,"is_disabled":false,"rental_uris":{"android":"levelo://app?vid=ceeae13a-87c9-4495-9238-e5a5cc9c4c69","ios":"levelo://app?vid=ceeae13a-87c9-4495-9238-e5a5cc9c4c69"},"vehicle_type_id":"4","last_reported":1778936221,"current_range_meters":4800,"station_id":"ce4bgnh2rcd13ifvqc0g","pricing_plan_id":"cebpf4jnsgd1na2vs0mg"},{"bike_id":"9eb50ef0-d222-4848-9f4f-b79a03731b4c","system_id":"levelo_inurba_marseille","lat":43.21187,"lon":5.35081,"is_reserved":false,"is_disabled":false,"rental_uris":{"android":"levelo://app?vid=9eb50ef0-d222-4848-9f4f-b79a03731b4c","ios":"levelo://app?vid=9eb50ef0-d222-4848-9f4f-b79a03731b4c"},"vehicle_type_id":"4","last_reported":1778936221,"current_range_meters":4800,"station_id":"st_cvj6sg6p6f1abm77japg","pricing_plan_id":"cebpf4jnsgd1na2vs0mg"},{"bike_id":"1f27b9c7-f593-4ee3-b394-7ce199ed2756","system_id":"levelo_inurba_marseille","lat":43.309018,"lon":5.37188,"is_reserved":false,"is_disabled":false,"rental_uris":{"android":"levelo://app?vid=1f27b9c7-f593-4ee3-b394-7ce199ed2756","ios":"levelo://app?vid=1f27b9c7-f593-4ee3-b394-7ce199ed2756"},"vehicle_type_id":"4","last_reported":1778936221,"current_range_meters":4800,"station_id":"","pricing_plan_id":"cebpf4jnsgd1na2vs0mg"},{"bike_id":"76e33348-6a4a-4160-8477-e9650ddfdc10","system_id":"levelo_inurba_marseille","lat":43.29557,"lon":5.42295,"is_reserved":false,"is_disabled":false,"rental_uris":{"android":"levelo://app?vid=76e33348-6a4a-4160-8477-e9650ddfdc10","ios":"levelo://app?vid=76e33348-6a4a-4160-8477-e9650ddfdc10"},"vehicle_type_id":"4","last_reported":1778936221,"current_range_meters":4800,"station_id":"ce4bhph2rcd13ifvqhdg","pricing_plan_id":"cebpf4jnsgd1na2vs0mg"},{"bike_id":"333431c5-f8f5-4bce-8e5d-c4a52b90e3b8","system_id":"levelo_inurba_marseille","lat":43.27576,"lon":5.38417,"is_reserved":false,"is_disabled":false,"rental_uris":{"android":"levelo://app?vid=333431c5-f8f5-4bce-8e5d-c4a52b90e3b8","ios":"levelo://app?vid=333431c5-f8f5-4bce-8e5d-c4a52b90e3b8"},"vehicle_type_id":"4","last_reported":1778936221,"current_range_meters":4800,"station_id":"ce4bhh92rcd13ifvqfi0","pricing_plan_id":"cebpf4jnsgd1na2vs0mg"},{"bike_id":"6ee0a0ab-8c4f-4c0e-88fd-73126f581925","system_id":"levelo_inurba_marseille","lat":43.29275,"lon":5.36847,"is_reserved":false,"is_disabled":false,"rental_uris":{"android":"levelo://app?vid=6ee0a0ab-8c4f-4c0e-88fd-73126f581925","ios":"levelo://app?vid=6ee0a0ab-8c4f-4c0e-88fd-73126f581925"},"vehicle_type_id":"4","last_reported":1778936221,"current_range_meters":4800,"station_id":"ce4bhbp2rcd13ifvqesg","pricing_plan_id":"cebpf4jnsgd1na2vs0mg"},{"bike_id":"ca01c33c-99c8-4ff8-a274-d065c7262a1a","system_id":"levelo_inurba_marseille","lat":43.26408,"lon":5.38823,"is_reserved":false,"is_disabled":false,"rental_uris":{"android":"levelo://app?vid=ca01c33c-99c8-4ff8-a274-d065c7262a1a","ios":"levelo://app?vid=ca01c33c-99c8-4ff8-a274-d065c7262a1a"},"vehicle_type_id":"4","last_reported":1778936221,"current_range_meters":4800,"station_id":"","pricing_plan_id":"cebpf4jnsgd1na2vs0mg"},{"bike_id":"08109efb-0339-44b4-a781-24664651804e","system_id":"levelo_inurba_marseille","lat":43.28407,"lon":5.375176,"is_reserved":false,"is_disabled":false,"rental_uris":{"android":"levelo://app?vid=08109efb-0339-44b4-a781-24664651804e","ios":"levelo://app?vid=08109efb-0339-44b4-a781-24664651804e"},"vehicle_type_id":"4","last_reported":1778936221,"current_range_meters":4800,"station_id":"ce4bh412rcd13ifvqds0","pricing_plan_id":"cebpf4jnsgd1na2vs0mg"},{"bike_id":"b7656a22-ad04-4919-8446-46bb9d6a3f20","system_id":"levelo_inurba_marseille","lat":43.305298,"lon":5.384234,"is_reserved":false,"is_disabled":false,"rental_uris":{"android":"levelo://app?vid=b7656a22-ad04-4919-8446-46bb9d6a3f20","ios":"levelo://app?vid=b7656a22-ad04-4919-8446-46bb9d6a3f20"},"vehicle_type_id":"4","last_reported":1778936221,"current_range_meters":4800,"station_id":"ce4bgg92rcd13ifvqb30","pricing_plan_id":"cebpf4jnsgd1na2vs0mg"},{"bike_id":"33833229-ef28-4f91-b3a0-0a9a37bc4c8f","system_id":"levelo_inurba_marseille","lat":43.27497,"lon":5.42449,"is_reserved":false,"is_disabled":false,"rental_uris":{"android":"levelo://app?vid=33833229-ef28-4f91-b3a0-0a9a37bc4c8f","ios":"levelo://app?vid=33833229-ef28-4f91-b3a0-0a9a37bc4c8f"},"vehicle_type_id":"4","last_reported":1778936221,"current_range_meters":4800,"station_id":"ce4bhn92rcd13ifvqgrg","pricing_plan_id":"cebpf4jnsgd1na2vs0mg"},{"bike_id":"59c8b2a9-d5b8-4b0d-8fb0-f7b1bccda6e2","system_id":"levelo_inurba_marseille","lat":43.21193,"lon":5.35069,"is_reserved":false,"is_disabled":false,"rental_uris":{"android":"levelo://app?vid=59c8b2a9-d5b8-4b0d-8fb0-f7b1bccda6e2","ios":"levelo://app?vid=59c8b2a9-d5b8-4b0d-8fb0-f7b1bccda6e2"},"vehicle_type_id":"4","last_reported":1778936221,"current_range_meters":4800,"station_id":"st_cvj6sg6p6f1abm77japg","pricing_plan_id":"cebpf4jnsgd1na2vs0mg"},{"bike_id":"d90e1575-ec76-461f-9701-a245bb59404f","system_id":"levelo_inurba_marseille","lat":43.24396,"lon":5.37029,"is_reserved":false,"is_disabled":false,"rental_uris":{"android":"levelo://app?vid=d90e1575-ec76-461f-9701-a245bb59404f","ios":"levelo://app?vid=d90e1575-ec76-461f-9701-a245bb59404f"},"vehicle_type_id":"4","last_reported":1778936221,"current_range_meters":4800,"station_id":"ce4bhhh2rcd13ifvqfk0","pricing_plan_id":"cebpf4jnsgd1na2vs0mg"},{"bike_id":"fc3434ec-3f12-4fe2-a883-c7406c4652f9","system_id":"levelo_inurba_marseille","lat":43.29488,"lon":5.4331,"is_reserved":false,"is_disabled":false,"rental_uris":{"android":"levelo://app?vid=fc3434ec-3f12-4fe2-a883-c7406c4652f9","ios":"levelo://app?vid=fc3434ec-3f12-4fe2-a883-c7406c4652f9"},"vehicle_type_id":"4","last_reported":1778936221,"current_range_meters":5600,"station_id":"st_d3j5ugp08ojc73fj9d10","pricing_plan_id":"cebpf4jnsgd1na2vs0mg"},{"bike_id":"30fb27cd-b1a8-44a1-9c49-ef13f549a083","system_id":"levelo_inurba_marseille","lat":43.2784,"lon":5.39203,"is_reserved":false,"is_disabled":false,"rental_uris":{"android":"levelo://app?vid=30fb27cd-b1a8-44a1-9c49-ef13f549a083","ios":"levelo://app?vid=30fb27cd-b1a8-44a1-9c49-ef13f549a083"},"vehicle_type_id":"4","last_reported":1778936221,"current_range_meters":5600,"station_id":"ce4bhjp2rcd13ifvqga0","pricing_plan_id":"cebpf4jnsgd1na2vs0mg"},{"bike_id":"6f55cfab-f3f4-4c25-93c0-fece12f544ce","system_id":"levelo_inurba_marseille","lat":43.2465,"lon":5.38896,"is_reserved":false,"is_disabled":false,"rental_uris":{"android":"levelo://app?vid=6f55cfab-f3f4-4c25-93c0-fece12f544ce","ios":"levelo://app?vid=6f55cfab-f3f4-4c25-93c0-fece12f544ce"},"vehicle_type_id":"4","last_reported":1778936221,"current_range_meters":5600,"station_id":"ce4bhg12rcd13ifvqf60","pricing_plan_id":"cebpf4jnsgd1na2vs0mg"},{"bike_id":"310313f9-4c8b-458d-834b-81e71f22dc3f","system_id":"levelo_inurba_marseille","lat":43.27926,"lon":5.396,"is_reserved":false,"is_disabled":true,"rental_uris":{"android":"levelo://app?vid=310313f9-4c8b-458d-834b-81e71f22dc3f","ios":"levelo://app?vid=310313f9-4c8b-458d-834b-81e71f22dc3f"},"vehicle_type_id":"4","last_reported":1778936221,"current_range_meters":5600,"station_id":"ce4bhf92rcd13ifvqf40","pricing_plan_id":"cebpf4jnsgd1na2vs0mg"},{"bike_id":"92aa287c-1ffd-4e0d-a777-d680461d889a","system_id":"levelo_inurba_marseille","lat":43.22562,"lon":5.41631,"is_reserved":false,"is_disabled":false,"rental_uris":{"android":"levelo://app?vid=92aa287c-1ffd-4e0d-a777-d680461d889a","ios":"levelo://app?vid=92aa287c-1ffd-4e0d-a777-d680461d889a"},"vehicle_type_id":"4","last_reported":1778936221,"current_range_meters":5600,"station_id":"st_d2o4gvlbi1j2169b742g","pricing_plan_id":"cebpf4jnsgd1na2vs0mg"},{"bike_id":"c522deca-789e-49b3-982f-1f0402a24572","system_id":"levelo_inurba_marseille","lat":43.24633,"lon":5.38902,"is_reserved":false,"is_disabled":false,"rental_uris":{"android":"levelo://app?vid=c522deca-789e-49b3-982f-1f0402a24572","ios":"levelo://app?vid=c522deca-789e-49b3-982f-1f0402a24572"},"vehicle_type_id":"4","last_reported":1778936221,"current_range_meters":5600,"station_id":"ce4bhg12rcd13ifvqf60","pricing_plan_id":"cebpf4jnsgd1na2vs0mg"},{"bike_id":"4fdc151c-3682-443f-ac83-7f42ceccc835","system_id":"levelo_inurba_marseille","lat":43.28942,"lon":5.3663,"is_reserved":false,"is_disabled":false,"rental_uris":{"android":"levelo://app?vid=4fdc151c-3682-443f-ac83-7f42ceccc835","ios":"levelo://app?vid=4fdc151c-3682-443f-ac83-7f42ceccc835"},"vehicle_type_id":"4","last_reported":1778936221,"current_range_meters":5600,"station_id":"","pricing_plan_id":"cebpf4jnsgd1na2vs0mg"},{"bike_id":"b05fe96d-3e17-4313-a888-4638630dcec9","system_id":"levelo_inurba_marseille","lat":43.28981,"lon":5.37826,"is_reserved":false,"is_disabled":false,"rental_uris":{"android":"levelo://app?vid=b05fe96d-3e17-4313-a888-4638630dcec9","ios":"levelo://app?vid=b05fe96d-3e17-4313-a888-4638630dcec9"},"vehicle_type_id":"4","last_reported":1778936221,"current_range_meters":5600,"station_id":"ce4bh9p2rcd13ifvqed0","pricing_plan_id":"cebpf4jnsgd1na2vs0mg"},{"bike_id":"c0c29511-8416-448c-89d4-cd7673d31c70","system_id":"levelo_inurba_marseille","lat":43.21193,"lon":5.35069,"is_reserved":false,"is_disabled":false,"rental_uris":{"android":"levelo://app?vid=c0c29511-8416-448c-89d4-cd7673d31c70","ios":"levelo://app?vid=c0c29511-8416-448c-89d4-cd7673d31c70"},"vehicle_type_id":"4","last_reported":1778936221,"current_range_meters":5600,"station_id":"st_cvj6sg6p6f1abm77japg","pricing_plan_id":"cebpf4jnsgd1na2vs0mg"},{"bike_id":"d6d19617-7dd8-4d1b-a542-39bf98efdc73","system_id":"levelo_inurba_marseille","lat":43.29571,"lon":5.37512,"is_reserved":false,"is_disabled":false,"rental_uris":{"android":"levelo://app?vid=d6d19617-7dd8-4d1b-a542-39bf98efdc73","ios":"levelo://app?vid=d6d19617-7dd8-4d1b-a542-39bf98efdc73"},"vehicle_type_id":"4","last_reported":1778936221,"current_range_meters":5600,"station_id":"ce4bgh92rcd13ifvqb50","pricing_plan_id":"cebpf4jnsgd1na2vs0mg"},{"bike_id":"e2d1edb8-8a09-4560-bc73-e986bcb7b38e","system_id":"levelo_inurba_marseille","lat":43.24156,"lon":5.363807,"is_reserved":false,"is_disabled":false,"rental_uris":{"android":"levelo://app?vid=e2d1edb8-8a09-4560-bc73-e986bcb7b38e","ios":"levelo://app?vid=e2d1edb8-8a09-4560-bc73-e986bcb7b38e"},"vehicle_type_id":"4","last_reported":1778936221,"current_range_meters":5600,"station_id":"cpo36qri1sfpv3e86is0","pricing_plan_id":"cebpf4jnsgd1na2vs0mg"},{"bike_id":"bf4140c2-b60d-49c9-a4a2-8e589e154982","system_id":"levelo_inurba_marseille","lat":43.33538,"lon":5.375,"is_reserved":false,"is_disabled":false,"rental_uris":{"android":"levelo://app?vid=bf4140c2-b60d-49c9-a4a2-8e589e154982","ios":"levelo://app?vid=bf4140c2-b60d-49c9-a4a2-8e589e154982"},"vehicle_type_id":"4","last_reported":1778936221,"current_range_meters":5600,"station_id":"st_d46tts09ee8s73dlu43g","pricing_plan_id":"cebpf4jnsgd1na2vs0mg"},{"bike_id":"f0f45e84-9575-4571-af0c-75f576610012","system_id":"levelo_inurba_marseille","lat":43.290779,"lon":5.371541,"is_reserved":false,"is_disabled":false,"rental_uris":{"android":"levelo://app?vid=f0f45e84-9575-4571-af0c-75f576610012","ios":"levelo://app?vid=f0f45e84-9575-4571-af0c-75f576610012"},"vehicle_type_id":"4","last_reported":1778936221,"current_range_meters":5600,"station_id":"ce4bh5p2rcd13ifvqe4g","pricing_plan_id":"cebpf4jnsgd1na2vs0mg"},{"bike_id":"59dc179a-f593-455e-b9b4-7f65f7660186","system_id":"levelo_inurba_marseille","lat":43.32486,"lon":5.383131,"is_reserved":false,"is_disabled":false,"rental_uris":{"android":"levelo://app?vid=59dc179a-f593-455e-b9b4-7f65f7660186","ios":"levelo://app?vid=59dc179a-f593-455e-b9b4-7f65f7660186"},"vehicle_type_id":"4","last_reported":1778936221,"current_range_meters":5600,"station_id":"st_d4asgbiv49dc73anf9m0","pricing_plan_id":"cebpf4jnsgd1na2vs0mg"},{"bike_id":"96ac44c7-837c-47fd-9d61-3c07df27a74e","system_id":"levelo_inurba_marseille","lat":43.28929,"lon":5.36635,"is_reserved":false,"is_disabled":false,"rental_uris":{"android":"levelo://app?vid=96ac44c7-837c-47fd-9d61-3c07df27a74e","ios":"levelo://app?vid=96ac44c7-837c-47fd-9d61-3c07df27a74e"},"vehicle_type_id":"4","last_reported":1778936221,"current_range_meters":5600,"station_id":"ce4bhap2rcd13ifvqek0","pricing_plan_id":"cebpf4jnsgd1na2vs0mg"},{"bike_id":"b279d425-b605-4dce-aa38-d74dc6161e68","system_id":"levelo_inurba_marseille","lat":43.22574,"lon":5.41632,"is_reserved":false,"is_disabled":false,"rental_uris":{"android":"levelo://app?vid=b279d425-b605-4dce-aa38-d74dc6161e68","ios":"levelo://app?vid=b279d425-b605-4dce-aa38-d74dc6161e68"},"vehicle_type_id":"4","last_reported":1778936221,"current_range_meters":5600,"station_id":"st_d2o4gvlbi1j2169b742g","pricing_plan_id":"cebpf4jnsgd1na2vs0mg"},{"bike_id":"b6acbf8c-bacd-487d-8128-5244dbbd5a1c","system_id":"levelo_inurba_marseille","lat":43.30524,"lon":5.36531,"is_reserved":false,"is_disabled":false,"rental_uris":{"android":"levelo://app?vid=b6acbf8c-bacd-487d-8128-5244dbbd5a1c","ios":"levelo://app?vid=b6acbf8c-bacd-487d-8128-5244dbbd5a1c"},"vehicle_type_id":"4","last_reported":1778936221,"current_range_meters":6000,"station_id":"ce4bgs12rcd13ifvqcag","pricing_plan_id":"cebpf4jnsgd1na2vs0mg"},{"bike_id":"38c3e040-0273-4714-be80-90d18b8d98dc","system_id":"levelo_inurba_marseille","lat":43.26029,"lon":5.37551,"is_reserved":false,"is_disabled":false,"rental_uris":{"android":"levelo://app?vid=38c3e040-0273-4714-be80-90d18b8d98dc","ios":"levelo://app?vid=38c3e040-0273-4714-be80-90d18b8d98dc"},"vehicle_type_id":"4","last_reported":1778936221,"current_range_meters":6000,"station_id":"ce4bhgh2rcd13ifvqfa0","pricing_plan_id":"cebpf4jnsgd1na2vs0mg"},{"bike_id":"b10a929e-ce71-4736-87ff-523270cf6d56","system_id":"levelo_inurba_marseille","lat":43.21747,"lon":5.34605,"is_reserved":false,"is_disabled":false,"rental_uris":{"android":"levelo://app?vid=b10a929e-ce71-4736-87ff-523270cf6d56","ios":"levelo://app?vid=b10a929e-ce71-4736-87ff-523270cf6d56"},"vehicle_type_id":"4","last_reported":1778936221,"current_range_meters":6000,"station_id":"st_cvj6r9ubvosntc0bgbag","pricing_plan_id":"cebpf4jnsgd1na2vs0mg"},{"bike_id":"da25d015-d7dd-4fbf-997f-9acf97aa246b","system_id":"levelo_inurba_marseille","lat":43.28616,"lon":5.35099,"is_reserved":false,"is_disabled":false,"rental_uris":{"android":"levelo://app?vid=da25d015-d7dd-4fbf-997f-9acf97aa246b","ios":"levelo://app?vid=da25d015-d7dd-4fbf-997f-9acf97aa246b"},"vehicle_type_id":"4","last_reported":1778936221,"current_range_meters":6000,"station_id":"ce4bhch2rcd13ifvqeug","pricing_plan_id":"cebpf4jnsgd1na2vs0mg"},{"bike_id":"ab883a8a-7183-49e5-b0ca-478bfd40dbb5","system_id":"levelo_inurba_marseille","lat":43.27571,"lon":5.38392,"is_reserved":false,"is_disabled":false,"rental_uris":{"android":"levelo://app?vid=ab883a8a-7183-49e5-b0ca-478bfd40dbb5","ios":"levelo://app?vid=ab883a8a-7183-49e5-b0ca-478bfd40dbb5"},"vehicle_type_id":"4","last_reported":1778936221,"current_range_meters":6000,"station_id":"ce4bhh92rcd13ifvqfi0","pricing_plan_id":"cebpf4jnsgd1na2vs0mg"},{"bike_id":"a925d029-af9d-439e-b7ff-1c5bb1c3c5db","system_id":"levelo_inurba_marseille","lat":43.26544,"lon":5.39552,"is_reserved":false,"is_disabled":false,"rental_uris":{"android":"levelo://app?vid=a925d029-af9d-439e-b7ff-1c5bb1c3c5db","ios":"levelo://app?vid=a925d029-af9d-439e-b7ff-1c5bb1c3c5db"},"vehicle_type_id":"4","last_reported":1778936221,"current_range_meters":6000,"station_id":"","pricing_plan_id":"cebpf4jnsgd1na2vs0mg"},{"bike_id":"236c5423-3de2-4984-a104-160edb8897a0","system_id":"levelo_inurba_marseille","lat":43.307291,"lon":5.40954,"is_reserved":false,"is_disabled":false,"rental_uris":{"android":"levelo://app?vid=236c5423-3de2-4984-a104-160edb8897a0","ios":"levelo://app?vid=236c5423-3de2-4984-a104-160edb8897a0"},"vehicle_type_id":"4","last_reported":1778936221,"current_range_meters":6000,"station_id":"","pricing_plan_id":"cebpf4jnsgd1na2vs0mg"},{"bike_id":"8111d433-baf3-42b1-a430-e6ad1857a1a0","system_id":"levelo_inurba_marseille","lat":43.29303,"lon":5.37464,"is_reserved":false,"is_disabled":false,"rental_uris":{"android":"levelo://app?vid=8111d433-baf3-42b1-a430-e6ad1857a1a0","ios":"levelo://app?vid=8111d433-baf3-42b1-a430-e6ad1857a1a0"},"vehicle_type_id":"4","last_reported":1778936221,"current_range_meters":6000,"station_id":"ce4bgi12rcd13ifvqb70","pricing_plan_id":"cebpf4jnsgd1na2vs0mg"},{"bike_id":"1c155cb8-50aa-4ad8-95d4-a32cca5f7a07","system_id":"levelo_inurba_marseille","lat":43.24475,"lon":5.42534,"is_reserved":false,"is_disabled":false,"rental_uris":{"android":"levelo://app?vid=1c155cb8-50aa-4ad8-95d4-a32cca5f7a07","ios":"levelo://app?vid=1c155cb8-50aa-4ad8-95d4-a32cca5f7a07"},"vehicle_type_id":"4","last_reported":1778936221,"current_range_meters":6000,"station_id":"st_d4a3vfp97mjs738cd8kg","pricing_plan_id":"cebpf4jnsgd1na2vs0mg"},{"bike_id":"6130da42-5392-4fa5-a1a1-a095acd57040","system_id":"levelo_inurba_marseille","lat":43.31487,"lon":5.37312,"is_reserved":false,"is_disabled":false,"rental_uris":{"android":"levelo://app?vid=6130da42-5392-4fa5-a1a1-a095acd57040","ios":"levelo://app?vid=6130da42-5392-4fa5-a1a1-a095acd57040"},"vehicle_type_id":"4","last_reported":1778936221,"current_range_meters":6000,"station_id":"ce4bgt12rcd13ifvqcd0","pricing_plan_id":"cebpf4jnsgd1na2vs0mg"},{"bike_id":"bc1ceef2-7ab6-4b29-97cf-e699caf1898f","system_id":"levelo_inurba_marseille","lat":43.24652,"lon":5.38897,"is_reserved":false,"is_disabled":false,"rental_uris":{"android":"levelo://app?vid=bc1ceef2-7ab6-4b29-97cf-e699caf1898f","ios":"levelo://app?vid=bc1ceef2-7ab6-4b29-97cf-e699caf1898f"},"vehicle_type_id":"4","last_reported":1778936221,"current_range_meters":6000,"station_id":"ce4bhg12rcd13ifvqf60","pricing_plan_id":"cebpf4jnsgd1na2vs0mg"},{"bike_id":"ecb43cf3-4571-441f-b7de-470cf95dfc38","system_id":"levelo_inurba_marseille","lat":43.21752,"lon":5.34615,"is_reserved":false,"is_disabled":false,"rental_uris":{"android":"levelo://app?vid=ecb43cf3-4571-441f-b7de-470cf95dfc38","ios":"levelo://app?vid=ecb43cf3-4571-441f-b7de-470cf95dfc38"},"vehicle_type_id":"4","last_reported":1778936221,"current_range_meters":6000,"station_id":"st_cvj6r9ubvosntc0bgbag","pricing_plan_id":"cebpf4jnsgd1na2vs0mg"},{"bike_id":"381f618b-1154-486d-b846-8d597099ccb8","system_id":"levelo_inurba_marseille","lat":43.23784,"lon":5.41462,"is_reserved":false,"is_disabled":false,"rental_uris":{"android":"levelo://app?vid=381f618b-1154-486d-b846-8d597099ccb8","ios":"levelo://app?vid=381f618b-1154-486d-b846-8d597099ccb8"},"vehicle_type_id":"4","last_reported":1778936221,"current_range_meters":6000,"station_id":"","pricing_plan_id":"cebpf4jnsgd1na2vs0mg"},{"bike_id":"c0afe38e-1b1f-4737-9474-5d6681e1c046","system_id":"levelo_inurba_marseille","lat":43.29905,"lon":5.42119,"is_reserved":false,"is_disabled":false,"rental_uris":{"android":"levelo://app?vid=c0afe38e-1b1f-4737-9474-5d6681e1c046","ios":"levelo://app?vid=c0afe38e-1b1f-4737-9474-5d6681e1c046"},"vehicle_type_id":"4","last_reported":1778936221,"current_range_meters":6400,"station_id":"st_d6tc004otcvc738tfe70","pricing_plan_id":"cebpf4jnsgd1na2vs0mg"},{"bike_id":"2c4e2c80-7a7f-49e7-8a11-230c3e37ee87","system_id":"levelo_inurba_marseille","lat":43.22559,"lon":5.41614,"is_reserved":false,"is_disabled":false,"rental_uris":{"android":"levelo://app?vid=2c4e2c80-7a7f-49e7-8a11-230c3e37ee87","ios":"levelo://app?vid=2c4e2c80-7a7f-49e7-8a11-230c3e37ee87"},"vehicle_type_id":"4","last_reported":1778936221,"current_range_meters":6400,"station_id":"st_d2o4gvlbi1j2169b742g","pricing_plan_id":"cebpf4jnsgd1na2vs0mg"},{"bike_id":"a56a8a0c-3ab9-465a-bdae-f5897ec1f98a","system_id":"levelo_inurba_marseille","lat":43.2417,"lon":5.36394,"is_reserved":false,"is_disabled":false,"rental_uris":{"android":"levelo://app?vid=a56a8a0c-3ab9-465a-bdae-f5897ec1f98a","ios":"levelo://app?vid=a56a8a0c-3ab9-465a-bdae-f5897ec1f98a"},"vehicle_type_id":"4","last_reported":1778936221,"current_range_meters":6400,"station_id":"cpo36qri1sfpv3e86is0","pricing_plan_id":"cebpf4jnsgd1na2vs0mg"},{"bike_id":"db37e50b-ae19-40ed-92da-88e288d29832","system_id":"levelo_inurba_marseille","lat":43.21744,"lon":5.34607,"is_reserved":false,"is_disabled":false,"rental_uris":{"android":"levelo://app?vid=db37e50b-ae19-40ed-92da-88e288d29832","ios":"levelo://app?vid=db37e50b-ae19-40ed-92da-88e288d29832"},"vehicle_type_id":"4","last_reported":1778936221,"current_range_meters":6400,"station_id":"st_cvj6r9ubvosntc0bgbag","pricing_plan_id":"cebpf4jnsgd1na2vs0mg"},{"bike_id":"6ed28fa0-f20b-450d-a789-f0b565e64f1b","system_id":"levelo_inurba_marseille","lat":43.29816,"lon":5.38302,"is_reserved":false,"is_disabled":false,"rental_uris":{"android":"levelo://app?vid=6ed28fa0-f20b-450d-a789-f0b565e64f1b","ios":"levelo://app?vid=6ed28fa0-f20b-450d-a789-f0b565e64f1b"},"vehicle_type_id":"4","last_reported":1778936221,"current_range_meters":6400,"station_id":"","pricing_plan_id":"cebpf4jnsgd1na2vs0mg"},{"bike_id":"2d2c7674-d2ca-402f-b8b0-47c4cc0178f0","system_id":"levelo_inurba_marseille","lat":43.23147,"lon":5.43704,"is_reserved":false,"is_disabled":false,"rental_uris":{"android":"levelo://app?vid=2d2c7674-d2ca-402f-b8b0-47c4cc0178f0","ios":"levelo://app?vid=2d2c7674-d2ca-402f-b8b0-47c4cc0178f0"},"vehicle_type_id":"4","last_reported":1778936221,"current_range_meters":6400,"station_id":"ce4bhmp2rcd13ifvqgog","pricing_plan_id":"cebpf4jnsgd1na2vs0mg"},{"bike_id":"a2647aa1-f01d-4da6-93ee-57a490b72134","system_id":"levelo_inurba_marseille","lat":43.29589,"lon":5.37518,"is_reserved":false,"is_disabled":false,"rental_uris":{"android":"levelo://app?vid=a2647aa1-f01d-4da6-93ee-57a490b72134","ios":"levelo://app?vid=a2647aa1-f01d-4da6-93ee-57a490b72134"},"vehicle_type_id":"4","last_reported":1778936221,"current_range_meters":6400,"station_id":"ce4bgh92rcd13ifvqb50","pricing_plan_id":"cebpf4jnsgd1na2vs0mg"},{"bike_id":"a36168d9-0b2a-4981-8b8e-6a59ec3108e0","system_id":"levelo_inurba_marseille","lat":43.29594,"lon":5.37719,"is_reserved":false,"is_disabled":true,"rental_uris":{"android":"levelo://app?vid=a36168d9-0b2a-4981-8b8e-6a59ec3108e0","ios":"levelo://app?vid=a36168d9-0b2a-4981-8b8e-6a59ec3108e0"},"vehicle_type_id":"4","last_reported":1778936221,"current_range_meters":6400,"station_id":"ce4bgi92rcd13ifvqb90","pricing_plan_id":"cebpf4jnsgd1na2vs0mg"},{"bike_id":"18ea40a6-da35-4127-8a51-ca0cb6e593ae","system_id":"levelo_inurba_marseille","lat":43.2738,"lon":5.36258,"is_reserved":false,"is_disabled":false,"rental_uris":{"android":"levelo://app?vid=18ea40a6-da35-4127-8a51-ca0cb6e593ae","ios":"levelo://app?vid=18ea40a6-da35-4127-8a51-ca0cb6e593ae"},"vehicle_type_id":"4","last_reported":1778936221,"current_range_meters":6400,"station_id":"ce4bhbh2rcd13ifvqeo0","pricing_plan_id":"cebpf4jnsgd1na2vs0mg"},{"bike_id":"bc8c2695-d41e-43a5-a503-073f39b3a18d","system_id":"levelo_inurba_marseille","lat":43.27635,"lon":5.36122,"is_reserved":false,"is_disabled":false,"rental_uris":{"android":"levelo://app?vid=bc8c2695-d41e-43a5-a503-073f39b3a18d","ios":"levelo://app?vid=bc8c2695-d41e-43a5-a503-073f39b3a18d"},"vehicle_type_id":"4","last_reported":1778936221,"current_range_meters":6400,"station_id":"ce4bgj92rcd13ifvqbe0","pricing_plan_id":"cebpf4jnsgd1na2vs0mg"},{"bike_id":"255a8db9-6ac5-445d-8da2-584280160595","system_id":"levelo_inurba_marseille","lat":43.29973,"lon":5.36758,"is_reserved":false,"is_disabled":false,"rental_uris":{"android":"levelo://app?vid=255a8db9-6ac5-445d-8da2-584280160595","ios":"levelo://app?vid=255a8db9-6ac5-445d-8da2-584280160595"},"vehicle_type_id":"4","last_reported":1778936221,"current_range_meters":6400,"station_id":"","pricing_plan_id":"cebpf4jnsgd1na2vs0mg"},{"bike_id":"3e44fca3-02a2-4749-97d7-65b07cc773b7","system_id":"levelo_inurba_marseille","lat":43.26028,"lon":5.37549,"is_reserved":false,"is_disabled":false,"rental_uris":{"android":"levelo://app?vid=3e44fca3-02a2-4749-97d7-65b07cc773b7","ios":"levelo://app?vid=3e44fca3-02a2-4749-97d7-65b07cc773b7"},"vehicle_type_id":"4","last_reported":1778936221,"current_range_meters":6400,"station_id":"ce4bhgh2rcd13ifvqfa0","pricing_plan_id":"cebpf4jnsgd1na2vs0mg"},{"bike_id":"2611ce10-158d-4ff4-8f73-24fe2afa1ea8","system_id":"levelo_inurba_marseille","lat":43.250901,"lon":5.395255,"is_reserved":false,"is_disabled":false,"rental_uris":{"android":"levelo://app?vid=2611ce10-158d-4ff4-8f73-24fe2afa1ea8","ios":"levelo://app?vid=2611ce10-158d-4ff4-8f73-24fe2afa1ea8"},"vehicle_type_id":"4","last_reported":1778936221,"current_range_meters":6400,"station_id":"ce4bhm12rcd13ifvqgkg","pricing_plan_id":"cebpf4jnsgd1na2vs0mg"},{"bike_id":"d2b9001b-3bd6-4e11-a455-c06b5cf0ca28","system_id":"levelo_inurba_marseille","lat":43.29623,"lon":5.38154,"is_reserved":false,"is_disabled":false,"rental_uris":{"android":"levelo://app?vid=d2b9001b-3bd6-4e11-a455-c06b5cf0ca28","ios":"levelo://app?vid=d2b9001b-3bd6-4e11-a455-c06b5cf0ca28"},"vehicle_type_id":"4","last_reported":1778936221,"current_range_meters":6400,"station_id":"ce4bgl12rcd13ifvqbo0","pricing_plan_id":"cebpf4jnsgd1na2vs0mg"},{"bike_id":"015aad6e-f7c0-4598-9ad7-38c4d3fee62c","system_id":"levelo_inurba_marseille","lat":43.28617,"lon":5.35091,"is_reserved":false,"is_disabled":false,"rental_uris":{"android":"levelo://app?vid=015aad6e-f7c0-4598-9ad7-38c4d3fee62c","ios":"levelo://app?vid=015aad6e-f7c0-4598-9ad7-38c4d3fee62c"},"vehicle_type_id":"4","last_reported":1778936221,"current_range_meters":6800,"station_id":"ce4bhch2rcd13ifvqeug","pricing_plan_id":"cebpf4jnsgd1na2vs0mg"},{"bike_id":"ee072640-47e0-4560-b5e8-96a11aa7de33","system_id":"levelo_inurba_marseille","lat":43.29535,"lon":5.37509,"is_reserved":false,"is_disabled":false,"rental_uris":{"android":"levelo://app?vid=ee072640-47e0-4560-b5e8-96a11aa7de33","ios":"levelo://app?vid=ee072640-47e0-4560-b5e8-96a11aa7de33"},"vehicle_type_id":"4","last_reported":1778936221,"current_range_meters":6800,"station_id":"ce4bgkp2rcd13ifvqbmg","pricing_plan_id":"cebpf4jnsgd1na2vs0mg"},{"bike_id":"b307ebcf-a623-4ce8-bd6b-ce1a3ee616ac","system_id":"levelo_inurba_marseille","lat":43.25091,"lon":5.39536,"is_reserved":false,"is_disabled":false,"rental_uris":{"android":"levelo://app?vid=b307ebcf-a623-4ce8-bd6b-ce1a3ee616ac","ios":"levelo://app?vid=b307ebcf-a623-4ce8-bd6b-ce1a3ee616ac"},"vehicle_type_id":"4","last_reported":1778936221,"current_range_meters":6800,"station_id":"ce4bhm12rcd13ifvqgkg","pricing_plan_id":"cebpf4jnsgd1na2vs0mg"},{"bike_id":"40fba273-30a0-4610-9faa-17aeee18cf47","system_id":"levelo_inurba_marseille","lat":43.29597,"lon":5.38104,"is_reserved":false,"is_disabled":false,"rental_uris":{"android":"levelo://app?vid=40fba273-30a0-4610-9faa-17aeee18cf47","ios":"levelo://app?vid=40fba273-30a0-4610-9faa-17aeee18cf47"},"vehicle_type_id":"4","last_reported":1778936221,"current_range_meters":6800,"station_id":"ce4bgl12rcd13ifvqbo0","pricing_plan_id":"cebpf4jnsgd1na2vs0mg"},{"bike_id":"c6c3ffa5-2514-4dce-9955-6dea3b87213e","system_id":"levelo_inurba_marseille","lat":43.33546,"lon":5.37461,"is_reserved":false,"is_disabled":false,"rental_uris":{"android":"levelo://app?vid=c6c3ffa5-2514-4dce-9955-6dea3b87213e","ios":"levelo://app?vid=c6c3ffa5-2514-4dce-9955-6dea3b87213e"},"vehicle_type_id":"4","last_reported":1778936221,"current_range_meters":6800,"station_id":"st_d46tts09ee8s73dlu43g","pricing_plan_id":"cebpf4jnsgd1na2vs0mg"},{"bike_id":"61e5287a-43e9-4282-a973-bcefe063a8e6","system_id":"levelo_inurba_marseille","lat":43.21734,"lon":5.34638,"is_reserved":false,"is_disabled":false,"rental_uris":{"android":"levelo://app?vid=61e5287a-43e9-4282-a973-bcefe063a8e6","ios":"levelo://app?vid=61e5287a-43e9-4282-a973-bcefe063a8e6"},"vehicle_type_id":"4","last_reported":1778936221,"current_range_meters":6800,"station_id":"st_cvj6r9ubvosntc0bgbag","pricing_plan_id":"cebpf4jnsgd1na2vs0mg"},{"bike_id":"e36e9ae6-760f-4d6b-b27b-2683e1da6b8e","system_id":"levelo_inurba_marseille","lat":43.31753,"lon":5.39027,"is_reserved":false,"is_disabled":false,"rental_uris":{"android":"levelo://app?vid=e36e9ae6-760f-4d6b-b27b-2683e1da6b8e","ios":"levelo://app?vid=e36e9ae6-760f-4d6b-b27b-2683e1da6b8e"},"vehicle_type_id":"4","last_reported":1778936221,"current_range_meters":6800,"station_id":"ce4bhqp2rcd13ifvqhng","pricing_plan_id":"cebpf4jnsgd1na2vs0mg"},{"bike_id":"dc437964-578c-4f7a-be1e-9a5b7abec9f5","system_id":"levelo_inurba_marseille","lat":43.24509,"lon":5.37565,"is_reserved":false,"is_disabled":false,"rental_uris":{"android":"levelo://app?vid=dc437964-578c-4f7a-be1e-9a5b7abec9f5","ios":"levelo://app?vid=dc437964-578c-4f7a-be1e-9a5b7abec9f5"},"vehicle_type_id":"4","last_reported":1778936221,"current_range_meters":6800,"station_id":"","pricing_plan_id":"cebpf4jnsgd1na2vs0mg"},{"bike_id":"62d156b1-3ed6-496f-9d27-264502b676a3","system_id":"levelo_inurba_marseille","lat":43.33567,"lon":5.37453,"is_reserved":false,"is_disabled":false,"rental_uris":{"android":"levelo://app?vid=62d156b1-3ed6-496f-9d27-264502b676a3","ios":"levelo://app?vid=62d156b1-3ed6-496f-9d27-264502b676a3"},"vehicle_type_id":"4","last_reported":1778936221,"current_range_meters":6800,"station_id":"st_d46tts09ee8s73dlu43g","pricing_plan_id":"cebpf4jnsgd1na2vs0mg"},{"bike_id":"b53cabc7-7bf7-4d74-9124-055c85d03942","system_id":"levelo_inurba_marseille","lat":43.292317,"lon":5.360553,"is_reserved":false,"is_disabled":false,"rental_uris":{"android":"levelo://app?vid=b53cabc7-7bf7-4d74-9124-055c85d03942","ios":"levelo://app?vid=b53cabc7-7bf7-4d74-9124-055c85d03942"},"vehicle_type_id":"4","last_reported":1778936221,"current_range_meters":6800,"station_id":"ce4bhbh2rcd13ifvqeqg","pricing_plan_id":"cebpf4jnsgd1na2vs0mg"},{"bike_id":"559d1e2a-3378-464a-bb49-bac80a61d607","system_id":"levelo_inurba_marseille","lat":43.24471,"lon":5.42536,"is_reserved":false,"is_disabled":false,"rental_uris":{"android":"levelo://app?vid=559d1e2a-3378-464a-bb49-bac80a61d607","ios":"levelo://app?vid=559d1e2a-3378-464a-bb49-bac80a61d607"},"vehicle_type_id":"4","last_reported":1778936221,"current_range_meters":6800,"station_id":"st_d4a3vfp97mjs738cd8kg","pricing_plan_id":"cebpf4jnsgd1na2vs0mg"},{"bike_id":"489a1706-c3ea-4b0e-8e98-c2ee70717ba8","system_id":"levelo_inurba_marseille","lat":43.22558,"lon":5.41626,"is_reserved":false,"is_disabled":false,"rental_uris":{"android":"levelo://app?vid=489a1706-c3ea-4b0e-8e98-c2ee70717ba8","ios":"levelo://app?vid=489a1706-c3ea-4b0e-8e98-c2ee70717ba8"},"vehicle_type_id":"4","last_reported":1778936221,"current_range_meters":6800,"station_id":"st_d2o4gvlbi1j2169b742g","pricing_plan_id":"cebpf4jnsgd1na2vs0mg"},{"bike_id":"470ea25e-7fd9-4141-8ab7-89f5e202b013","system_id":"levelo_inurba_marseille","lat":43.2798,"lon":5.40069,"is_reserved":false,"is_disabled":false,"rental_uris":{"android":"levelo://app?vid=470ea25e-7fd9-4141-8ab7-89f5e202b013","ios":"levelo://app?vid=470ea25e-7fd9-4141-8ab7-89f5e202b013"},"vehicle_type_id":"4","last_reported":1778936221,"current_range_meters":6800,"station_id":"","pricing_plan_id":"cebpf4jnsgd1na2vs0mg"},{"bike_id":"b6f3cf60-f34d-4b8c-904e-641c3ed8726a","system_id":"levelo_inurba_marseille","lat":43.29713,"lon":5.36591,"is_reserved":false,"is_disabled":false,"rental_uris":{"android":"levelo://app?vid=b6f3cf60-f34d-4b8c-904e-641c3ed8726a","ios":"levelo://app?vid=b6f3cf60-f34d-4b8c-904e-641c3ed8726a"},"vehicle_type_id":"4","last_reported":1778936221,"current_range_meters":6800,"station_id":"ce4bgn12rcd13ifvqbt0","pricing_plan_id":"cebpf4jnsgd1na2vs0mg"},{"bike_id":"efcd717d-80fb-432a-9ab0-ee838faf2206","system_id":"levelo_inurba_marseille","lat":43.292749,"lon":5.368496,"is_reserved":false,"is_disabled":false,"rental_uris":{"android":"levelo://app?vid=efcd717d-80fb-432a-9ab0-ee838faf2206","ios":"levelo://app?vid=efcd717d-80fb-432a-9ab0-ee838faf2206"},"vehicle_type_id":"4","last_reported":1778936221,"current_range_meters":6800,"station_id":"ce4bhbp2rcd13ifvqesg","pricing_plan_id":"cebpf4jnsgd1na2vs0mg"},{"bike_id":"11cfcfb7-7cef-4ca3-94fd-d649299b0219","system_id":"levelo_inurba_marseille","lat":43.31714,"lon":5.42416,"is_reserved":false,"is_disabled":false,"rental_uris":{"android":"levelo://app?vid=11cfcfb7-7cef-4ca3-94fd-d649299b0219","ios":"levelo://app?vid=11cfcfb7-7cef-4ca3-94fd-d649299b0219"},"vehicle_type_id":"4","last_reported":1778936221,"current_range_meters":6800,"station_id":"ce4bhp92rcd13ifvqhbg","pricing_plan_id":"cebpf4jnsgd1na2vs0mg"},{"bike_id":"e0ce2f37-052e-484f-8e3c-c297b98b6f87","system_id":"levelo_inurba_marseille","lat":43.3012,"lon":5.38095,"is_reserved":false,"is_disabled":false,"rental_uris":{"android":"levelo://app?vid=e0ce2f37-052e-484f-8e3c-c297b98b6f87","ios":"levelo://app?vid=e0ce2f37-052e-484f-8e3c-c297b98b6f87"},"vehicle_type_id":"4","last_reported":1778936221,"current_range_meters":6800,"station_id":"ce4bgjp2rcd13ifvqbh0","pricing_plan_id":"cebpf4jnsgd1na2vs0mg"},{"bike_id":"8127193b-061d-4151-9b21-a5da8a7dddab","system_id":"levelo_inurba_marseille","lat":43.23407,"lon":5.41253,"is_reserved":false,"is_disabled":false,"rental_uris":{"android":"levelo://app?vid=8127193b-061d-4151-9b21-a5da8a7dddab","ios":"levelo://app?vid=8127193b-061d-4151-9b21-a5da8a7dddab"},"vehicle_type_id":"4","last_reported":1778936221,"current_range_meters":6800,"station_id":"st_d75pvndhf9lc73cqq3eg","pricing_plan_id":"cebpf4jnsgd1na2vs0mg"},{"bike_id":"b467cf52-e84d-42b9-ad71-bed97235ec79","system_id":"levelo_inurba_marseille","lat":43.29702,"lon":5.37727,"is_reserved":false,"is_disabled":false,"rental_uris":{"android":"levelo://app?vid=b467cf52-e84d-42b9-ad71-bed97235ec79","ios":"levelo://app?vid=b467cf52-e84d-42b9-ad71-bed97235ec79"},"vehicle_type_id":"4","last_reported":1778936221,"current_range_meters":7200,"station_id":"ce4bgkh2rcd13ifvqbl0","pricing_plan_id":"cebpf4jnsgd1na2vs0mg"},{"bike_id":"dbf94776-63a1-426f-85ae-41abd5903310","system_id":"levelo_inurba_marseille","lat":43.30955,"lon":5.37641,"is_reserved":false,"is_disabled":false,"rental_uris":{"android":"levelo://app?vid=dbf94776-63a1-426f-85ae-41abd5903310","ios":"levelo://app?vid=dbf94776-63a1-426f-85ae-41abd5903310"},"vehicle_type_id":"4","last_reported":1778936221,"current_range_meters":7200,"station_id":"","pricing_plan_id":"cebpf4jnsgd1na2vs0mg"},{"bike_id":"74f12a6d-7a94-4ce3-8725-e3fbbe23ae70","system_id":"levelo_inurba_marseille","lat":43.33545,"lon":5.37456,"is_reserved":false,"is_disabled":false,"rental_uris":{"android":"levelo://app?vid=74f12a6d-7a94-4ce3-8725-e3fbbe23ae70","ios":"levelo://app?vid=74f12a6d-7a94-4ce3-8725-e3fbbe23ae70"},"vehicle_type_id":"4","last_reported":1778936221,"current_range_meters":7200,"station_id":"st_d46tts09ee8s73dlu43g","pricing_plan_id":"cebpf4jnsgd1na2vs0mg"},{"bike_id":"b3d3f46d-8b61-4048-a49d-46db42a99359","system_id":"levelo_inurba_marseille","lat":43.24806,"lon":5.37462,"is_reserved":false,"is_disabled":false,"rental_uris":{"android":"levelo://app?vid=b3d3f46d-8b61-4048-a49d-46db42a99359","ios":"levelo://app?vid=b3d3f46d-8b61-4048-a49d-46db42a99359"},"vehicle_type_id":"4","last_reported":1778936221,"current_range_meters":7200,"station_id":"ce4bhgh2rcd13ifvqfb0","pricing_plan_id":"cebpf4jnsgd1na2vs0mg"},{"bike_id":"9d9da9b1-62c5-4232-8888-7d36c96bb153","system_id":"levelo_inurba_marseille","lat":43.27505,"lon":5.4158,"is_reserved":false,"is_disabled":false,"rental_uris":{"android":"levelo://app?vid=9d9da9b1-62c5-4232-8888-7d36c96bb153","ios":"levelo://app?vid=9d9da9b1-62c5-4232-8888-7d36c96bb153"},"vehicle_type_id":"4","last_reported":1778936221,"current_range_meters":7200,"station_id":"st_d6im8g6chgec73a5pndg","pricing_plan_id":"cebpf4jnsgd1na2vs0mg"},{"bike_id":"9328df09-7c77-4ef9-a326-cd1cda9dd29d","system_id":"levelo_inurba_marseille","lat":43.30796,"lon":5.3854,"is_reserved":false,"is_disabled":false,"rental_uris":{"android":"levelo://app?vid=9328df09-7c77-4ef9-a326-cd1cda9dd29d","ios":"levelo://app?vid=9328df09-7c77-4ef9-a326-cd1cda9dd29d"},"vehicle_type_id":"4","last_reported":1778936221,"current_range_meters":7200,"station_id":"","pricing_plan_id":"cebpf4jnsgd1na2vs0mg"},{"bike_id":"fd959105-0404-434b-9e6f-8cdc000d6a99","system_id":"levelo_inurba_marseille","lat":43.30184,"lon":5.36626,"is_reserved":false,"is_disabled":false,"rental_uris":{"android":"levelo://app?vid=fd959105-0404-434b-9e6f-8cdc000d6a99","ios":"levelo://app?vid=fd959105-0404-434b-9e6f-8cdc000d6a99"},"vehicle_type_id":"4","last_reported":1778936221,"current_range_meters":7200,"station_id":"ce4bgrh2rcd13ifvqc8g","pricing_plan_id":"cebpf4jnsgd1na2vs0mg"},{"bike_id":"2c41d442-fdf6-469c-86b1-a7c33314878f","system_id":"levelo_inurba_marseille","lat":43.30398,"lon":5.41021,"is_reserved":false,"is_disabled":false,"rental_uris":{"android":"levelo://app?vid=2c41d442-fdf6-469c-86b1-a7c33314878f","ios":"levelo://app?vid=2c41d442-fdf6-469c-86b1-a7c33314878f"},"vehicle_type_id":"4","last_reported":1778936221,"current_range_meters":7200,"station_id":"","pricing_plan_id":"cebpf4jnsgd1na2vs0mg"},{"bike_id":"4d31ed6e-13e0-4959-aa6c-cce6ffc3f7ff","system_id":"levelo_inurba_marseille","lat":43.27494,"lon":5.41613,"is_reserved":false,"is_disabled":false,"rental_uris":{"android":"levelo://app?vid=4d31ed6e-13e0-4959-aa6c-cce6ffc3f7ff","ios":"levelo://app?vid=4d31ed6e-13e0-4959-aa6c-cce6ffc3f7ff"},"vehicle_type_id":"4","last_reported":1778936221,"current_range_meters":7200,"station_id":"st_d6im8g6chgec73a5pndg","pricing_plan_id":"cebpf4jnsgd1na2vs0mg"},{"bike_id":"95d4bd31-b89c-4cb2-afa3-9e6e4ba15e30","system_id":"levelo_inurba_marseille","lat":43.25498,"lon":5.37652,"is_reserved":false,"is_disabled":false,"rental_uris":{"android":"levelo://app?vid=95d4bd31-b89c-4cb2-afa3-9e6e4ba15e30","ios":"levelo://app?vid=95d4bd31-b89c-4cb2-afa3-9e6e4ba15e30"},"vehicle_type_id":"4","last_reported":1778936221,"current_range_meters":7200,"station_id":"ce4bhh12rcd13ifvqff0","pricing_plan_id":"cebpf4jnsgd1na2vs0mg"},{"bike_id":"b9fc383d-7675-4ac1-96a8-b14863e064c9","system_id":"levelo_inurba_marseille","lat":43.31312,"lon":5.37279,"is_reserved":false,"is_disabled":false,"rental_uris":{"android":"levelo://app?vid=b9fc383d-7675-4ac1-96a8-b14863e064c9","ios":"levelo://app?vid=b9fc383d-7675-4ac1-96a8-b14863e064c9"},"vehicle_type_id":"4","last_reported":1778936221,"current_range_meters":7200,"station_id":"","pricing_plan_id":"cebpf4jnsgd1na2vs0mg"},{"bike_id":"e191454c-916c-4e6d-bb9a-b71fe6d913bf","system_id":"levelo_inurba_marseille","lat":43.23195,"lon":5.35545,"is_reserved":false,"is_disabled":false,"rental_uris":{"android":"levelo://app?vid=e191454c-916c-4e6d-bb9a-b71fe6d913bf","ios":"levelo://app?vid=e191454c-916c-4e6d-bb9a-b71fe6d913bf"},"vehicle_type_id":"4","last_reported":1778936221,"current_range_meters":7200,"station_id":"ce4bhu92rcd13ifvqi70","pricing_plan_id":"cebpf4jnsgd1na2vs0mg"},{"bike_id":"7ba59683-4f7b-48ff-a0de-32dc28734753","system_id":"levelo_inurba_marseille","lat":43.27962,"lon":5.38661,"is_reserved":false,"is_disabled":false,"rental_uris":{"android":"levelo://app?vid=7ba59683-4f7b-48ff-a0de-32dc28734753","ios":"levelo://app?vid=7ba59683-4f7b-48ff-a0de-32dc28734753"},"vehicle_type_id":"4","last_reported":1778936221,"current_range_meters":7200,"station_id":"","pricing_plan_id":"cebpf4jnsgd1na2vs0mg"},{"bike_id":"34678a1c-60f3-45d1-98d5-4a975c55a3b5","system_id":"levelo_inurba_marseille","lat":43.29233,"lon":5.36063,"is_reserved":false,"is_disabled":false,"rental_uris":{"android":"levelo://app?vid=34678a1c-60f3-45d1-98d5-4a975c55a3b5","ios":"levelo://app?vid=34678a1c-60f3-45d1-98d5-4a975c55a3b5"},"vehicle_type_id":"4","last_reported":1778936221,"current_range_meters":7200,"station_id":"ce4bhbh2rcd13ifvqeqg","pricing_plan_id":"cebpf4jnsgd1na2vs0mg"},{"bike_id":"b0cc1778-4216-446a-9f07-b950465dc5c6","system_id":"levelo_inurba_marseille","lat":43.292218,"lon":5.360471,"is_reserved":false,"is_disabled":false,"rental_uris":{"android":"levelo://app?vid=b0cc1778-4216-446a-9f07-b950465dc5c6","ios":"levelo://app?vid=b0cc1778-4216-446a-9f07-b950465dc5c6"},"vehicle_type_id":"4","last_reported":1778936221,"current_range_meters":7200,"station_id":"ce4bhbh2rcd13ifvqeqg","pricing_plan_id":"cebpf4jnsgd1na2vs0mg"},{"bike_id":"23c7a8d6-3cfa-456d-b438-60a0b1f1d263","system_id":"levelo_inurba_marseille","lat":43.25114,"lon":5.40338,"is_reserved":false,"is_disabled":false,"rental_uris":{"android":"levelo://app?vid=23c7a8d6-3cfa-456d-b438-60a0b1f1d263","ios":"levelo://app?vid=23c7a8d6-3cfa-456d-b438-60a0b1f1d263"},"vehicle_type_id":"4","last_reported":1778936221,"current_range_meters":7200,"station_id":"ce4bhlh2rcd13ifvqgig","pricing_plan_id":"cebpf4jnsgd1na2vs0mg"},{"bike_id":"810ef53a-5aff-49f3-99db-34213da1b1cf","system_id":"levelo_inurba_marseille","lat":43.28709,"lon":5.46677,"is_reserved":false,"is_disabled":false,"rental_uris":{"android":"levelo://app?vid=810ef53a-5aff-49f3-99db-34213da1b1cf","ios":"levelo://app?vid=810ef53a-5aff-49f3-99db-34213da1b1cf"},"vehicle_type_id":"4","last_reported":1778936221,"current_range_meters":7200,"station_id":"st_d6tc3vkotcvc738tfjhg","pricing_plan_id":"cebpf4jnsgd1na2vs0mg"},{"bike_id":"4cf8e064-21a7-4e57-ac70-a7acee42c98c","system_id":"levelo_inurba_marseille","lat":43.27633,"lon":5.3613,"is_reserved":false,"is_disabled":false,"rental_uris":{"android":"levelo://app?vid=4cf8e064-21a7-4e57-ac70-a7acee42c98c","ios":"levelo://app?vid=4cf8e064-21a7-4e57-ac70-a7acee42c98c"},"vehicle_type_id":"4","last_reported":1778936221,"current_range_meters":7200,"station_id":"ce4bgj92rcd13ifvqbe0","pricing_plan_id":"cebpf4jnsgd1na2vs0mg"},{"bike_id":"5b61ad3d-c4b3-4bf0-9170-da55ed29dbbb","system_id":"levelo_inurba_marseille","lat":43.30776,"lon":5.3933,"is_reserved":false,"is_disabled":false,"rental_uris":{"android":"levelo://app?vid=5b61ad3d-c4b3-4bf0-9170-da55ed29dbbb","ios":"levelo://app?vid=5b61ad3d-c4b3-4bf0-9170-da55ed29dbbb"},"vehicle_type_id":"4","last_reported":1778936221,"current_range_meters":7200,"station_id":"","pricing_plan_id":"cebpf4jnsgd1na2vs0mg"},{"bike_id":"fc79e144-2ecb-431a-a1c0-6e1028cd8728","system_id":"levelo_inurba_marseille","lat":43.290713,"lon":5.371594,"is_reserved":false,"is_disabled":false,"rental_uris":{"android":"levelo://app?vid=fc79e144-2ecb-431a-a1c0-6e1028cd8728","ios":"levelo://app?vid=fc79e144-2ecb-431a-a1c0-6e1028cd8728"},"vehicle_type_id":"4","last_reported":1778936221,"current_range_meters":7200,"station_id":"ce4bh5p2rcd13ifvqe4g","pricing_plan_id":"cebpf4jnsgd1na2vs0mg"},{"bike_id":"b645593d-f67c-4f1b-b9f9-f8e1b08f24ee","system_id":"levelo_inurba_marseille","lat":43.25091,"lon":5.41363,"is_reserved":false,"is_disabled":false,"rental_uris":{"android":"levelo://app?vid=b645593d-f67c-4f1b-b9f9-f8e1b08f24ee","ios":"levelo://app?vid=b645593d-f67c-4f1b-b9f9-f8e1b08f24ee"},"vehicle_type_id":"4","last_reported":1778936221,"current_range_meters":7200,"station_id":"","pricing_plan_id":"cebpf4jnsgd1na2vs0mg"},{"bike_id":"56c116d8-1e32-4dc0-b6f5-ec30ce68c04c","system_id":"levelo_inurba_marseille","lat":43.295718,"lon":5.399789,"is_reserved":false,"is_disabled":false,"rental_uris":{"android":"levelo://app?vid=56c116d8-1e32-4dc0-b6f5-ec30ce68c04c","ios":"levelo://app?vid=56c116d8-1e32-4dc0-b6f5-ec30ce68c04c"},"vehicle_type_id":"4","last_reported":1778936221,"current_range_meters":7200,"station_id":"ce4bh312rcd13ifvqdj0","pricing_plan_id":"cebpf4jnsgd1na2vs0mg"},{"bike_id":"275452fa-49c7-4ee3-b3e6-44621052e7fd","system_id":"levelo_inurba_marseille","lat":43.28424,"lon":5.35007,"is_reserved":false,"is_disabled":false,"rental_uris":{"android":"levelo://app?vid=275452fa-49c7-4ee3-b3e6-44621052e7fd","ios":"levelo://app?vid=275452fa-49c7-4ee3-b3e6-44621052e7fd"},"vehicle_type_id":"4","last_reported":1778936221,"current_range_meters":7200,"station_id":"ce4bhbh2rcd13ifvqepg","pricing_plan_id":"cebpf4jnsgd1na2vs0mg"},{"bike_id":"510a4645-4c73-4963-8b63-b9764bb18899","system_id":"levelo_inurba_marseille","lat":43.27567,"lon":5.38418,"is_reserved":false,"is_disabled":false,"rental_uris":{"android":"levelo://app?vid=510a4645-4c73-4963-8b63-b9764bb18899","ios":"levelo://app?vid=510a4645-4c73-4963-8b63-b9764bb18899"},"vehicle_type_id":"4","last_reported":1778936221,"current_range_meters":7200,"station_id":"ce4bhh92rcd13ifvqfi0","pricing_plan_id":"cebpf4jnsgd1na2vs0mg"},{"bike_id":"b5700011-a486-4e56-b8fb-207aaf85d4db","system_id":"levelo_inurba_marseille","lat":43.31897,"lon":5.36814,"is_reserved":false,"is_disabled":false,"rental_uris":{"android":"levelo://app?vid=b5700011-a486-4e56-b8fb-207aaf85d4db","ios":"levelo://app?vid=b5700011-a486-4e56-b8fb-207aaf85d4db"},"vehicle_type_id":"4","last_reported":1778936221,"current_range_meters":7200,"station_id":"st_d6o2h0d0559c73evc1b0","pricing_plan_id":"cebpf4jnsgd1na2vs0mg"},{"bike_id":"d1f3b13b-a61c-41fc-b986-79acc9b16fe8","system_id":"levelo_inurba_marseille","lat":43.28533,"lon":5.441,"is_reserved":false,"is_disabled":false,"rental_uris":{"android":"levelo://app?vid=d1f3b13b-a61c-41fc-b986-79acc9b16fe8","ios":"levelo://app?vid=d1f3b13b-a61c-41fc-b986-79acc9b16fe8"},"vehicle_type_id":"4","last_reported":1778936221,"current_range_meters":7200,"station_id":"st_d3j3df2ikq2c7380ej80","pricing_plan_id":"cebpf4jnsgd1na2vs0mg"},{"bike_id":"4ec959dd-1de1-448f-b442-aa2685dcb0b4","system_id":"levelo_inurba_marseille","lat":43.31213,"lon":5.36932,"is_reserved":false,"is_disabled":false,"rental_uris":{"android":"levelo://app?vid=4ec959dd-1de1-448f-b442-aa2685dcb0b4","ios":"levelo://app?vid=4ec959dd-1de1-448f-b442-aa2685dcb0b4"},"vehicle_type_id":"4","last_reported":1778936221,"current_range_meters":7200,"station_id":"ce4bgl92rcd13ifvqbq0","pricing_plan_id":"cebpf4jnsgd1na2vs0mg"},{"bike_id":"6b791691-fed6-4d51-ac63-7e452c035ada","system_id":"levelo_inurba_marseille","lat":43.24168,"lon":5.36393,"is_reserved":false,"is_disabled":false,"rental_uris":{"android":"levelo://app?vid=6b791691-fed6-4d51-ac63-7e452c035ada","ios":"levelo://app?vid=6b791691-fed6-4d51-ac63-7e452c035ada"},"vehicle_type_id":"4","last_reported":1778936221,"current_range_meters":7200,"station_id":"cpo36qri1sfpv3e86is0","pricing_plan_id":"cebpf4jnsgd1na2vs0mg"},{"bike_id":"6eb70678-e4de-48b2-9bcf-c2743dfd747c","system_id":"levelo_inurba_marseille","lat":43.23154,"lon":5.43713,"is_reserved":false,"is_disabled":false,"rental_uris":{"android":"levelo://app?vid=6eb70678-e4de-48b2-9bcf-c2743dfd747c","ios":"levelo://app?vid=6eb70678-e4de-48b2-9bcf-c2743dfd747c"},"vehicle_type_id":"4","last_reported":1778936221,"current_range_meters":7200,"station_id":"ce4bhmp2rcd13ifvqgog","pricing_plan_id":"cebpf4jnsgd1na2vs0mg"},{"bike_id":"52fb7434-896e-4c97-817e-ac9657918ab4","system_id":"levelo_inurba_marseille","lat":43.32717,"lon":5.37495,"is_reserved":false,"is_disabled":false,"rental_uris":{"android":"levelo://app?vid=52fb7434-896e-4c97-817e-ac9657918ab4","ios":"levelo://app?vid=52fb7434-896e-4c97-817e-ac9657918ab4"},"vehicle_type_id":"4","last_reported":1778936221,"current_range_meters":7200,"station_id":"","pricing_plan_id":"cebpf4jnsgd1na2vs0mg"},{"bike_id":"659fb7a5-acda-4bf0-b4d5-df0d7201ad7c","system_id":"levelo_inurba_marseille","lat":43.287,"lon":5.46685,"is_reserved":false,"is_disabled":false,"rental_uris":{"android":"levelo://app?vid=659fb7a5-acda-4bf0-b4d5-df0d7201ad7c","ios":"levelo://app?vid=659fb7a5-acda-4bf0-b4d5-df0d7201ad7c"},"vehicle_type_id":"4","last_reported":1778936221,"current_range_meters":7200,"station_id":"st_d6tc3vkotcvc738tfjhg","pricing_plan_id":"cebpf4jnsgd1na2vs0mg"},{"bike_id":"3a4f4877-6366-4cf4-82d1-f835cd4c4b50","system_id":"levelo_inurba_marseille","lat":43.23158,"lon":5.43729,"is_reserved":false,"is_disabled":false,"rental_uris":{"android":"levelo://app?vid=3a4f4877-6366-4cf4-82d1-f835cd4c4b50","ios":"levelo://app?vid=3a4f4877-6366-4cf4-82d1-f835cd4c4b50"},"vehicle_type_id":"4","last_reported":1778936221,"current_range_meters":7200,"station_id":"ce4bhmp2rcd13ifvqgog","pricing_plan_id":"cebpf4jnsgd1na2vs0mg"},{"bike_id":"b44d6dae-8dbb-4aa0-bf47-198bfa0eba3b","system_id":"levelo_inurba_marseille","lat":43.29059,"lon":5.35908,"is_reserved":false,"is_disabled":false,"rental_uris":{"android":"levelo://app?vid=b44d6dae-8dbb-4aa0-bf47-198bfa0eba3b","ios":"levelo://app?vid=b44d6dae-8dbb-4aa0-bf47-198bfa0eba3b"},"vehicle_type_id":"4","last_reported":1778936221,"current_range_meters":7200,"station_id":"ce4bha92rcd13ifvqeg0","pricing_plan_id":"cebpf4jnsgd1na2vs0mg"},{"bike_id":"acfc96b6-b31d-4513-885d-4c2c21f2c38e","system_id":"levelo_inurba_marseille","lat":43.281012,"lon":5.378306,"is_reserved":false,"is_disabled":false,"rental_uris":{"android":"levelo://app?vid=acfc96b6-b31d-4513-885d-4c2c21f2c38e","ios":"levelo://app?vid=acfc96b6-b31d-4513-885d-4c2c21f2c38e"},"vehicle_type_id":"4","last_reported":1778936221,"current_range_meters":7200,"station_id":"ce4bha12rcd13ifvqee0","pricing_plan_id":"cebpf4jnsgd1na2vs0mg"},{"bike_id":"25d874e2-4fb0-465d-875a-02b69a82441a","system_id":"levelo_inurba_marseille","lat":43.24817,"lon":5.37508,"is_reserved":false,"is_disabled":false,"rental_uris":{"android":"levelo://app?vid=25d874e2-4fb0-465d-875a-02b69a82441a","ios":"levelo://app?vid=25d874e2-4fb0-465d-875a-02b69a82441a"},"vehicle_type_id":"4","last_reported":1778936221,"current_range_meters":7200,"station_id":"","pricing_plan_id":"cebpf4jnsgd1na2vs0mg"},{"bike_id":"7adb61f1-94d1-417c-bc4b-134075ae5ae6","system_id":"levelo_inurba_marseille","lat":43.32512,"lon":5.36611,"is_reserved":false,"is_disabled":false,"rental_uris":{"android":"levelo://app?vid=7adb61f1-94d1-417c-bc4b-134075ae5ae6","ios":"levelo://app?vid=7adb61f1-94d1-417c-bc4b-134075ae5ae6"},"vehicle_type_id":"4","last_reported":1778936221,"current_range_meters":8000,"station_id":"","pricing_plan_id":"cebpf4jnsgd1na2vs0mg"},{"bike_id":"2afb1c43-c4ae-4dbf-a94b-bbd6e75c31b0","system_id":"levelo_inurba_marseille","lat":43.29727,"lon":5.37664,"is_reserved":false,"is_disabled":false,"rental_uris":{"android":"levelo://app?vid=2afb1c43-c4ae-4dbf-a94b-bbd6e75c31b0","ios":"levelo://app?vid=2afb1c43-c4ae-4dbf-a94b-bbd6e75c31b0"},"vehicle_type_id":"4","last_reported":1778936221,"current_range_meters":8000,"station_id":"ce4bgkh2rcd13ifvqbl0","pricing_plan_id":"cebpf4jnsgd1na2vs0mg"},{"bike_id":"9bd7592d-d34d-48b9-961a-b7d604deb399","system_id":"levelo_inurba_marseille","lat":43.29716,"lon":5.37687,"is_reserved":false,"is_disabled":false,"rental_uris":{"android":"levelo://app?vid=9bd7592d-d34d-48b9-961a-b7d604deb399","ios":"levelo://app?vid=9bd7592d-d34d-48b9-961a-b7d604deb399"},"vehicle_type_id":"4","last_reported":1778936221,"current_range_meters":8000,"station_id":"ce4bgkh2rcd13ifvqbl0","pricing_plan_id":"cebpf4jnsgd1na2vs0mg"},{"bike_id":"f124ff43-3d50-4879-8a2c-022facbc1841","system_id":"levelo_inurba_marseille","lat":43.29941,"lon":5.36549,"is_reserved":false,"is_disabled":false,"rental_uris":{"android":"levelo://app?vid=f124ff43-3d50-4879-8a2c-022facbc1841","ios":"levelo://app?vid=f124ff43-3d50-4879-8a2c-022facbc1841"},"vehicle_type_id":"4","last_reported":1778936221,"current_range_meters":8000,"station_id":"ce4bgm92rcd13ifvqbr0","pricing_plan_id":"cebpf4jnsgd1na2vs0mg"},{"bike_id":"616353f1-4754-4f57-9465-e46d49d24354","system_id":"levelo_inurba_marseille","lat":43.33639,"lon":5.3631,"is_reserved":false,"is_disabled":false,"rental_uris":{"android":"levelo://app?vid=616353f1-4754-4f57-9465-e46d49d24354","ios":"levelo://app?vid=616353f1-4754-4f57-9465-e46d49d24354"},"vehicle_type_id":"4","last_reported":1778936221,"current_range_meters":8000,"station_id":"","pricing_plan_id":"cebpf4jnsgd1na2vs0mg"},{"bike_id":"fd40b65e-4533-406f-9f7a-1eb7ebc9e5a5","system_id":"levelo_inurba_marseille","lat":43.30176,"lon":5.3661,"is_reserved":false,"is_disabled":false,"rental_uris":{"android":"levelo://app?vid=fd40b65e-4533-406f-9f7a-1eb7ebc9e5a5","ios":"levelo://app?vid=fd40b65e-4533-406f-9f7a-1eb7ebc9e5a5"},"vehicle_type_id":"4","last_reported":1778936221,"current_range_meters":8000,"station_id":"ce4bgrh2rcd13ifvqc8g","pricing_plan_id":"cebpf4jnsgd1na2vs0mg"},{"bike_id":"6841a907-dbfe-4d9f-b213-a387662fade8","system_id":"levelo_inurba_marseille","lat":43.29937,"lon":5.36555,"is_reserved":false,"is_disabled":false,"rental_uris":{"android":"levelo://app?vid=6841a907-dbfe-4d9f-b213-a387662fade8","ios":"levelo://app?vid=6841a907-dbfe-4d9f-b213-a387662fade8"},"vehicle_type_id":"4","last_reported":1778936221,"current_range_meters":8000,"station_id":"ce4bgm92rcd13ifvqbr0","pricing_plan_id":"cebpf4jnsgd1na2vs0mg"},{"bike_id":"1124e8ed-181a-445d-9220-36e963831e6c","system_id":"levelo_inurba_marseille","lat":43.23898,"lon":5.37469,"is_reserved":false,"is_disabled":true,"rental_uris":{"android":"levelo://app?vid=1124e8ed-181a-445d-9220-36e963831e6c","ios":"levelo://app?vid=1124e8ed-181a-445d-9220-36e963831e6c"},"vehicle_type_id":"4","last_reported":1778936221,"current_range_meters":8000,"station_id":"st_d6sm7csbq4hs73f8fpjg","pricing_plan_id":"cebpf4jnsgd1na2vs0mg"},{"bike_id":"abe259cd-da5a-4a80-a4b0-3b06abbda90f","system_id":"levelo_inurba_marseille","lat":43.25508,"lon":5.37661,"is_reserved":false,"is_disabled":false,"rental_uris":{"android":"levelo://app?vid=abe259cd-da5a-4a80-a4b0-3b06abbda90f","ios":"levelo://app?vid=abe259cd-da5a-4a80-a4b0-3b06abbda90f"},"vehicle_type_id":"4","last_reported":1778936221,"current_range_meters":8000,"station_id":"ce4bhh12rcd13ifvqff0","pricing_plan_id":"cebpf4jnsgd1na2vs0mg"},{"bike_id":"37ca5b86-b3d0-4bc0-80e9-3ce47d4dd8d3","system_id":"levelo_inurba_marseille","lat":43.23897,"lon":5.37458,"is_reserved":false,"is_disabled":false,"rental_uris":{"android":"levelo://app?vid=37ca5b86-b3d0-4bc0-80e9-3ce47d4dd8d3","ios":"levelo://app?vid=37ca5b86-b3d0-4bc0-80e9-3ce47d4dd8d3"},"vehicle_type_id":"4","last_reported":1778936221,"current_range_meters":8000,"station_id":"st_d6sm7csbq4hs73f8fpjg","pricing_plan_id":"cebpf4jnsgd1na2vs0mg"},{"bike_id":"57716f1b-e850-455e-8535-b5db4b2543ce","system_id":"levelo_inurba_marseille","lat":43.27942,"lon":5.38709,"is_reserved":false,"is_disabled":false,"rental_uris":{"android":"levelo://app?vid=57716f1b-e850-455e-8535-b5db4b2543ce","ios":"levelo://app?vid=57716f1b-e850-455e-8535-b5db4b2543ce"},"vehicle_type_id":"4","last_reported":1778936221,"current_range_meters":8000,"station_id":"ce4bhg12rcd13ifvqf80","pricing_plan_id":"cebpf4jnsgd1na2vs0mg"},{"bike_id":"4ee69d41-30d6-469e-829a-74d2ce79aff4","system_id":"levelo_inurba_marseille","lat":43.33548,"lon":5.37479,"is_reserved":false,"is_disabled":false,"rental_uris":{"android":"levelo://app?vid=4ee69d41-30d6-469e-829a-74d2ce79aff4","ios":"levelo://app?vid=4ee69d41-30d6-469e-829a-74d2ce79aff4"},"vehicle_type_id":"4","last_reported":1778936221,"current_range_meters":8000,"station_id":"st_d46tts09ee8s73dlu43g","pricing_plan_id":"cebpf4jnsgd1na2vs0mg"},{"bike_id":"934f1e1a-454b-4248-a848-802a9ff33fb2","system_id":"levelo_inurba_marseille","lat":43.21204,"lon":5.35093,"is_reserved":false,"is_disabled":false,"rental_uris":{"android":"levelo://app?vid=934f1e1a-454b-4248-a848-802a9ff33fb2","ios":"levelo://app?vid=934f1e1a-454b-4248-a848-802a9ff33fb2"},"vehicle_type_id":"4","last_reported":1778936221,"current_range_meters":8000,"station_id":"st_cvj6sg6p6f1abm77japg","pricing_plan_id":"cebpf4jnsgd1na2vs0mg"},{"bike_id":"dbcb99d7-b21a-4ba8-9326-06fe4ababdac","system_id":"levelo_inurba_marseille","lat":43.23206,"lon":5.3552,"is_reserved":false,"is_disabled":false,"rental_uris":{"android":"levelo://app?vid=dbcb99d7-b21a-4ba8-9326-06fe4ababdac","ios":"levelo://app?vid=dbcb99d7-b21a-4ba8-9326-06fe4ababdac"},"vehicle_type_id":"4","last_reported":1778936221,"current_range_meters":8000,"station_id":"ce4bhu92rcd13ifvqi70","pricing_plan_id":"cebpf4jnsgd1na2vs0mg"},{"bike_id":"edd5c786-8d24-46bc-bdcd-f0f00a11c1c1","system_id":"levelo_inurba_marseille","lat":43.25516,"lon":5.37655,"is_reserved":false,"is_disabled":true,"rental_uris":{"android":"levelo://app?vid=edd5c786-8d24-46bc-bdcd-f0f00a11c1c1","ios":"levelo://app?vid=edd5c786-8d24-46bc-bdcd-f0f00a11c1c1"},"vehicle_type_id":"4","last_reported":1778936221,"current_range_meters":8000,"station_id":"ce4bhh12rcd13ifvqff0","pricing_plan_id":"cebpf4jnsgd1na2vs0mg"},{"bike_id":"80b26f32-3b64-4de6-a97b-918c008994df","system_id":"levelo_inurba_marseille","lat":43.28419,"lon":5.34984,"is_reserved":false,"is_disabled":false,"rental_uris":{"android":"levelo://app?vid=80b26f32-3b64-4de6-a97b-918c008994df","ios":"levelo://app?vid=80b26f32-3b64-4de6-a97b-918c008994df"},"vehicle_type_id":"4","last_reported":1778936221,"current_range_meters":8000,"station_id":"ce4bhbh2rcd13ifvqepg","pricing_plan_id":"cebpf4jnsgd1na2vs0mg"},{"bike_id":"426deb5c-edb5-45e0-9420-7803b3916a70","system_id":"levelo_inurba_marseille","lat":43.22565,"lon":5.41629,"is_reserved":false,"is_disabled":false,"rental_uris":{"android":"levelo://app?vid=426deb5c-edb5-45e0-9420-7803b3916a70","ios":"levelo://app?vid=426deb5c-edb5-45e0-9420-7803b3916a70"},"vehicle_type_id":"4","last_reported":1778936221,"current_range_meters":8000,"station_id":"st_d2o4gvlbi1j2169b742g","pricing_plan_id":"cebpf4jnsgd1na2vs0mg"},{"bike_id":"380b5b02-7761-49fd-a03f-39d0fb476707","system_id":"levelo_inurba_marseille","lat":43.24468,"lon":5.4255,"is_reserved":false,"is_disabled":false,"rental_uris":{"android":"levelo://app?vid=380b5b02-7761-49fd-a03f-39d0fb476707","ios":"levelo://app?vid=380b5b02-7761-49fd-a03f-39d0fb476707"},"vehicle_type_id":"4","last_reported":1778936221,"current_range_meters":8000,"station_id":"st_d4a3vfp97mjs738cd8kg","pricing_plan_id":"cebpf4jnsgd1na2vs0mg"},{"bike_id":"2f701455-9a88-4bab-99f0-da0dade42e53","system_id":"levelo_inurba_marseille","lat":43.29473,"lon":5.43341,"is_reserved":false,"is_disabled":false,"rental_uris":{"android":"levelo://app?vid=2f701455-9a88-4bab-99f0-da0dade42e53","ios":"levelo://app?vid=2f701455-9a88-4bab-99f0-da0dade42e53"},"vehicle_type_id":"4","last_reported":1778936221,"current_range_meters":8000,"station_id":"st_d3j5ugp08ojc73fj9d10","pricing_plan_id":"cebpf4jnsgd1na2vs0mg"},{"bike_id":"ee15264c-c5fd-4c69-a06f-329fd6fb9d0d","system_id":"levelo_inurba_marseille","lat":43.30125,"lon":5.43115,"is_reserved":false,"is_disabled":false,"rental_uris":{"android":"levelo://app?vid=ee15264c-c5fd-4c69-a06f-329fd6fb9d0d","ios":"levelo://app?vid=ee15264c-c5fd-4c69-a06f-329fd6fb9d0d"},"vehicle_type_id":"4","last_reported":1778936221,"current_range_meters":8000,"station_id":"st_d3js3co5814s73ftftug","pricing_plan_id":"cebpf4jnsgd1na2vs0mg"},{"bike_id":"fea54104-bb98-4d6d-b765-f71a537f5666","system_id":"levelo_inurba_marseille","lat":43.23553,"lon":5.40756,"is_reserved":false,"is_disabled":false,"rental_uris":{"android":"levelo://app?vid=fea54104-bb98-4d6d-b765-f71a537f5666","ios":"levelo://app?vid=fea54104-bb98-4d6d-b765-f71a537f5666"},"vehicle_type_id":"4","last_reported":1778936221,"current_range_meters":8000,"station_id":"","pricing_plan_id":"cebpf4jnsgd1na2vs0mg"},{"bike_id":"a9c4cf58-eff3-46f4-8aa3-83491b171b4a","system_id":"levelo_inurba_marseille","lat":43.273699,"lon":5.362614,"is_reserved":false,"is_disabled":false,"rental_uris":{"android":"levelo://app?vid=a9c4cf58-eff3-46f4-8aa3-83491b171b4a","ios":"levelo://app?vid=a9c4cf58-eff3-46f4-8aa3-83491b171b4a"},"vehicle_type_id":"4","last_reported":1778936221,"current_range_meters":8000,"station_id":"ce4bhbh2rcd13ifvqeo0","pricing_plan_id":"cebpf4jnsgd1na2vs0mg"},{"bike_id":"b975bfae-82a6-4e3c-bafd-b70c8cec8005","system_id":"levelo_inurba_marseille","lat":43.24171,"lon":5.36392,"is_reserved":false,"is_disabled":false,"rental_uris":{"android":"levelo://app?vid=b975bfae-82a6-4e3c-bafd-b70c8cec8005","ios":"levelo://app?vid=b975bfae-82a6-4e3c-bafd-b70c8cec8005"},"vehicle_type_id":"4","last_reported":1778936221,"current_range_meters":8000,"station_id":"cpo36qri1sfpv3e86is0","pricing_plan_id":"cebpf4jnsgd1na2vs0mg"},{"bike_id":"bd449a65-f91b-4789-b5a0-d2ce33345e3e","system_id":"levelo_inurba_marseille","lat":43.29206,"lon":5.39323,"is_reserved":false,"is_disabled":false,"rental_uris":{"android":"levelo://app?vid=bd449a65-f91b-4789-b5a0-d2ce33345e3e","ios":"levelo://app?vid=bd449a65-f91b-4789-b5a0-d2ce33345e3e"},"vehicle_type_id":"4","last_reported":1778936221,"current_range_meters":8000,"station_id":"ce4bh192rcd13ifvqdd0","pricing_plan_id":"cebpf4jnsgd1na2vs0mg"},{"bike_id":"698b85c5-bf11-437e-913f-7d2243a0f74a","system_id":"levelo_inurba_marseille","lat":43.26229,"lon":5.37573,"is_reserved":false,"is_disabled":false,"rental_uris":{"android":"levelo://app?vid=698b85c5-bf11-437e-913f-7d2243a0f74a","ios":"levelo://app?vid=698b85c5-bf11-437e-913f-7d2243a0f74a"},"vehicle_type_id":"4","last_reported":1778936221,"current_range_meters":8000,"station_id":"","pricing_plan_id":"cebpf4jnsgd1na2vs0mg"},{"bike_id":"b609bd99-0408-43a0-9a9d-8206ba067457","system_id":"levelo_inurba_marseille","lat":43.29876,"lon":5.36419,"is_reserved":false,"is_disabled":false,"rental_uris":{"android":"levelo://app?vid=b609bd99-0408-43a0-9a9d-8206ba067457","ios":"levelo://app?vid=b609bd99-0408-43a0-9a9d-8206ba067457"},"vehicle_type_id":"4","last_reported":1778936221,"current_range_meters":8400,"station_id":"","pricing_plan_id":"cebpf4jnsgd1na2vs0mg"},{"bike_id":"bbbb6b19-454c-495b-8e37-dd7ff3c8ca78","system_id":"levelo_inurba_marseille","lat":43.28489,"lon":5.38545,"is_reserved":false,"is_disabled":false,"rental_uris":{"android":"levelo://app?vid=bbbb6b19-454c-495b-8e37-dd7ff3c8ca78","ios":"levelo://app?vid=bbbb6b19-454c-495b-8e37-dd7ff3c8ca78"},"vehicle_type_id":"4","last_reported":1778936221,"current_range_meters":8400,"station_id":"ce4bh8p2rcd13ifvqeb0","pricing_plan_id":"cebpf4jnsgd1na2vs0mg"},{"bike_id":"c091a819-21d8-46ac-8161-23f60b78cf02","system_id":"levelo_inurba_marseille","lat":43.27614,"lon":5.36113,"is_reserved":false,"is_disabled":true,"rental_uris":{"android":"levelo://app?vid=c091a819-21d8-46ac-8161-23f60b78cf02","ios":"levelo://app?vid=c091a819-21d8-46ac-8161-23f60b78cf02"},"vehicle_type_id":"4","last_reported":1778936221,"current_range_meters":8400,"station_id":"ce4bgj92rcd13ifvqbe0","pricing_plan_id":"cebpf4jnsgd1na2vs0mg"},{"bike_id":"df3b4c65-b594-43d2-9619-bf34b1560986","system_id":"levelo_inurba_marseille","lat":43.33552,"lon":5.37463,"is_reserved":false,"is_disabled":false,"rental_uris":{"android":"levelo://app?vid=df3b4c65-b594-43d2-9619-bf34b1560986","ios":"levelo://app?vid=df3b4c65-b594-43d2-9619-bf34b1560986"},"vehicle_type_id":"4","last_reported":1778936221,"current_range_meters":8400,"station_id":"st_d46tts09ee8s73dlu43g","pricing_plan_id":"cebpf4jnsgd1na2vs0mg"},{"bike_id":"86507b1b-bc31-4a81-bf67-bec0a597c983","system_id":"levelo_inurba_marseille","lat":43.26381,"lon":5.41061,"is_reserved":false,"is_disabled":false,"rental_uris":{"android":"levelo://app?vid=86507b1b-bc31-4a81-bf67-bec0a597c983","ios":"levelo://app?vid=86507b1b-bc31-4a81-bf67-bec0a597c983"},"vehicle_type_id":"4","last_reported":1778936221,"current_range_meters":8400,"station_id":"st_d4e5ca6na9uc73bfl5fg","pricing_plan_id":"cebpf4jnsgd1na2vs0mg"},{"bike_id":"ef20a65f-19f4-4491-8360-61efaea0f2fe","system_id":"levelo_inurba_marseille","lat":43.2768,"lon":5.41374,"is_reserved":false,"is_disabled":false,"rental_uris":{"android":"levelo://app?vid=ef20a65f-19f4-4491-8360-61efaea0f2fe","ios":"levelo://app?vid=ef20a65f-19f4-4491-8360-61efaea0f2fe"},"vehicle_type_id":"4","last_reported":1778936221,"current_range_meters":8400,"station_id":"","pricing_plan_id":"cebpf4jnsgd1na2vs0mg"},{"bike_id":"92ea69ba-fb03-445d-99c9-b9ff44504fc3","system_id":"levelo_inurba_marseille","lat":43.2316,"lon":5.43697,"is_reserved":false,"is_disabled":false,"rental_uris":{"android":"levelo://app?vid=92ea69ba-fb03-445d-99c9-b9ff44504fc3","ios":"levelo://app?vid=92ea69ba-fb03-445d-99c9-b9ff44504fc3"},"vehicle_type_id":"4","last_reported":1778936221,"current_range_meters":8400,"station_id":"ce4bhmp2rcd13ifvqgog","pricing_plan_id":"cebpf4jnsgd1na2vs0mg"},{"bike_id":"7b1dec29-4a90-4c62-a15c-7321693f7cdf","system_id":"levelo_inurba_marseille","lat":43.2175,"lon":5.3463,"is_reserved":false,"is_disabled":false,"rental_uris":{"android":"levelo://app?vid=7b1dec29-4a90-4c62-a15c-7321693f7cdf","ios":"levelo://app?vid=7b1dec29-4a90-4c62-a15c-7321693f7cdf"},"vehicle_type_id":"4","last_reported":1778936221,"current_range_meters":8400,"station_id":"st_cvj6r9ubvosntc0bgbag","pricing_plan_id":"cebpf4jnsgd1na2vs0mg"},{"bike_id":"7c9517e3-38cb-4a87-948b-926583eebece","system_id":"levelo_inurba_marseille","lat":43.21195,"lon":5.35068,"is_reserved":false,"is_disabled":false,"rental_uris":{"android":"levelo://app?vid=7c9517e3-38cb-4a87-948b-926583eebece","ios":"levelo://app?vid=7c9517e3-38cb-4a87-948b-926583eebece"},"vehicle_type_id":"4","last_reported":1778936221,"current_range_meters":8400,"station_id":"st_cvj6sg6p6f1abm77japg","pricing_plan_id":"cebpf4jnsgd1na2vs0mg"},{"bike_id":"0aabf782-ccac-4c6e-b424-2952407b7d7c","system_id":"levelo_inurba_marseille","lat":43.23156,"lon":5.43716,"is_reserved":false,"is_disabled":false,"rental_uris":{"android":"levelo://app?vid=0aabf782-ccac-4c6e-b424-2952407b7d7c","ios":"levelo://app?vid=0aabf782-ccac-4c6e-b424-2952407b7d7c"},"vehicle_type_id":"4","last_reported":1778936221,"current_range_meters":8400,"station_id":"ce4bhmp2rcd13ifvqgog","pricing_plan_id":"cebpf4jnsgd1na2vs0mg"},{"bike_id":"b9785728-d604-45a3-8811-1929b23ae6f4","system_id":"levelo_inurba_marseille","lat":43.24398,"lon":5.37063,"is_reserved":false,"is_disabled":false,"rental_uris":{"android":"levelo://app?vid=b9785728-d604-45a3-8811-1929b23ae6f4","ios":"levelo://app?vid=b9785728-d604-45a3-8811-1929b23ae6f4"},"vehicle_type_id":"4","last_reported":1778936221,"current_range_meters":8400,"station_id":"ce4bhhh2rcd13ifvqfk0","pricing_plan_id":"cebpf4jnsgd1na2vs0mg"},{"bike_id":"6318188d-a7e6-43b4-b011-3b8ec9dda8d9","system_id":"levelo_inurba_marseille","lat":43.2175,"lon":5.34607,"is_reserved":false,"is_disabled":false,"rental_uris":{"android":"levelo://app?vid=6318188d-a7e6-43b4-b011-3b8ec9dda8d9","ios":"levelo://app?vid=6318188d-a7e6-43b4-b011-3b8ec9dda8d9"},"vehicle_type_id":"4","last_reported":1778936221,"current_range_meters":8400,"station_id":"st_cvj6r9ubvosntc0bgbag","pricing_plan_id":"cebpf4jnsgd1na2vs0mg"},{"bike_id":"5ce80697-225a-4775-9620-63268fa34f78","system_id":"levelo_inurba_marseille","lat":43.30151,"lon":5.38085,"is_reserved":false,"is_disabled":false,"rental_uris":{"android":"levelo://app?vid=5ce80697-225a-4775-9620-63268fa34f78","ios":"levelo://app?vid=5ce80697-225a-4775-9620-63268fa34f78"},"vehicle_type_id":"4","last_reported":1778936221,"current_range_meters":8400,"station_id":"ce4bgjp2rcd13ifvqbh0","pricing_plan_id":"cebpf4jnsgd1na2vs0mg"},{"bike_id":"b99f3fcb-1bd8-490c-9327-4f96d9f8fa4c","system_id":"levelo_inurba_marseille","lat":43.27967,"lon":5.38688,"is_reserved":false,"is_disabled":false,"rental_uris":{"android":"levelo://app?vid=b99f3fcb-1bd8-490c-9327-4f96d9f8fa4c","ios":"levelo://app?vid=b99f3fcb-1bd8-490c-9327-4f96d9f8fa4c"},"vehicle_type_id":"4","last_reported":1778936221,"current_range_meters":8400,"station_id":"ce4bhg12rcd13ifvqf80","pricing_plan_id":"cebpf4jnsgd1na2vs0mg"},{"bike_id":"ae292c7b-0f60-4dc1-9e06-163aacb9f71d","system_id":"levelo_inurba_marseille","lat":43.21195,"lon":5.35069,"is_reserved":false,"is_disabled":false,"rental_uris":{"android":"levelo://app?vid=ae292c7b-0f60-4dc1-9e06-163aacb9f71d","ios":"levelo://app?vid=ae292c7b-0f60-4dc1-9e06-163aacb9f71d"},"vehicle_type_id":"4","last_reported":1778936221,"current_range_meters":8400,"station_id":"st_cvj6sg6p6f1abm77japg","pricing_plan_id":"cebpf4jnsgd1na2vs0mg"},{"bike_id":"d74e6cb2-9b2e-4676-ab53-3e763325f771","system_id":"levelo_inurba_marseille","lat":43.24426,"lon":5.37072,"is_reserved":false,"is_disabled":false,"rental_uris":{"android":"levelo://app?vid=d74e6cb2-9b2e-4676-ab53-3e763325f771","ios":"levelo://app?vid=d74e6cb2-9b2e-4676-ab53-3e763325f771"},"vehicle_type_id":"4","last_reported":1778936221,"current_range_meters":8400,"station_id":"ce4bhhh2rcd13ifvqfk0","pricing_plan_id":"cebpf4jnsgd1na2vs0mg"},{"bike_id":"698f5301-c908-4108-8b12-6c8d352f162c","system_id":"levelo_inurba_marseille","lat":43.29535,"lon":5.37505,"is_reserved":false,"is_disabled":false,"rental_uris":{"android":"levelo://app?vid=698f5301-c908-4108-8b12-6c8d352f162c","ios":"levelo://app?vid=698f5301-c908-4108-8b12-6c8d352f162c"},"vehicle_type_id":"4","last_reported":1778936221,"current_range_meters":8400,"station_id":"ce4bgkp2rcd13ifvqbmg","pricing_plan_id":"cebpf4jnsgd1na2vs0mg"},{"bike_id":"88676436-b644-4b39-91d3-cc5d29c9ef88","system_id":"levelo_inurba_marseille","lat":43.29898,"lon":5.38334,"is_reserved":false,"is_disabled":false,"rental_uris":{"android":"levelo://app?vid=88676436-b644-4b39-91d3-cc5d29c9ef88","ios":"levelo://app?vid=88676436-b644-4b39-91d3-cc5d29c9ef88"},"vehicle_type_id":"4","last_reported":1778936221,"current_range_meters":8400,"station_id":"","pricing_plan_id":"cebpf4jnsgd1na2vs0mg"},{"bike_id":"c5f8b7fe-e0d3-407a-a460-9c15d812c20f","system_id":"levelo_inurba_marseille","lat":43.325012,"lon":5.383031,"is_reserved":false,"is_disabled":false,"rental_uris":{"android":"levelo://app?vid=c5f8b7fe-e0d3-407a-a460-9c15d812c20f","ios":"levelo://app?vid=c5f8b7fe-e0d3-407a-a460-9c15d812c20f"},"vehicle_type_id":"4","last_reported":1778936221,"current_range_meters":8400,"station_id":"st_d4asgbiv49dc73anf9m0","pricing_plan_id":"cebpf4jnsgd1na2vs0mg"},{"bike_id":"00f62678-e203-48be-8ff5-41f45160d5f6","system_id":"levelo_inurba_marseille","lat":43.29621,"lon":5.37728,"is_reserved":false,"is_disabled":false,"rental_uris":{"android":"levelo://app?vid=00f62678-e203-48be-8ff5-41f45160d5f6","ios":"levelo://app?vid=00f62678-e203-48be-8ff5-41f45160d5f6"},"vehicle_type_id":"4","last_reported":1778936221,"current_range_meters":8400,"station_id":"ce4bgi92rcd13ifvqb90","pricing_plan_id":"cebpf4jnsgd1na2vs0mg"},{"bike_id":"183ecbf2-1487-4e31-a0b0-97fce68bdb3c","system_id":"levelo_inurba_marseille","lat":43.313558,"lon":5.384885,"is_reserved":false,"is_disabled":false,"rental_uris":{"android":"levelo://app?vid=183ecbf2-1487-4e31-a0b0-97fce68bdb3c","ios":"levelo://app?vid=183ecbf2-1487-4e31-a0b0-97fce68bdb3c"},"vehicle_type_id":"4","last_reported":1778936221,"current_range_meters":8400,"station_id":"ce4bgt92rcd13ifvqcf0","pricing_plan_id":"cebpf4jnsgd1na2vs0mg"},{"bike_id":"dace259d-e3eb-491e-95dc-863daa176674","system_id":"levelo_inurba_marseille","lat":43.24172,"lon":5.36394,"is_reserved":false,"is_disabled":false,"rental_uris":{"android":"levelo://app?vid=dace259d-e3eb-491e-95dc-863daa176674","ios":"levelo://app?vid=dace259d-e3eb-491e-95dc-863daa176674"},"vehicle_type_id":"4","last_reported":1778936221,"current_range_meters":8400,"station_id":"cpo36qri1sfpv3e86is0","pricing_plan_id":"cebpf4jnsgd1na2vs0mg"},{"bike_id":"fedccf78-7208-491e-ad79-9052f3365971","system_id":"levelo_inurba_marseille","lat":43.27617,"lon":5.36143,"is_reserved":false,"is_disabled":false,"rental_uris":{"android":"levelo://app?vid=fedccf78-7208-491e-ad79-9052f3365971","ios":"levelo://app?vid=fedccf78-7208-491e-ad79-9052f3365971"},"vehicle_type_id":"4","last_reported":1778936221,"current_range_meters":8400,"station_id":"ce4bgj92rcd13ifvqbe0","pricing_plan_id":"cebpf4jnsgd1na2vs0mg"},{"bike_id":"29923a85-e750-4827-aacf-b41c11e48bd1","system_id":"levelo_inurba_marseille","lat":43.2622,"lon":5.37443,"is_reserved":false,"is_disabled":false,"rental_uris":{"android":"levelo://app?vid=29923a85-e750-4827-aacf-b41c11e48bd1","ios":"levelo://app?vid=29923a85-e750-4827-aacf-b41c11e48bd1"},"vehicle_type_id":"4","last_reported":1778936221,"current_range_meters":8400,"station_id":"ce4bhgp2rcd13ifvqfc0","pricing_plan_id":"cebpf4jnsgd1na2vs0mg"},{"bike_id":"a631b4d6-9c94-4ced-89ed-f9b00f473821","system_id":"levelo_inurba_marseille","lat":43.28625,"lon":5.35099,"is_reserved":false,"is_disabled":false,"rental_uris":{"android":"levelo://app?vid=a631b4d6-9c94-4ced-89ed-f9b00f473821","ios":"levelo://app?vid=a631b4d6-9c94-4ced-89ed-f9b00f473821"},"vehicle_type_id":"4","last_reported":1778936221,"current_range_meters":8800,"station_id":"ce4bhch2rcd13ifvqeug","pricing_plan_id":"cebpf4jnsgd1na2vs0mg"},{"bike_id":"1d09d5c2-5ba0-4be8-95ea-17b26211d876","system_id":"levelo_inurba_marseille","lat":43.29095,"lon":5.381357,"is_reserved":false,"is_disabled":false,"rental_uris":{"android":"levelo://app?vid=1d09d5c2-5ba0-4be8-95ea-17b26211d876","ios":"levelo://app?vid=1d09d5c2-5ba0-4be8-95ea-17b26211d876"},"vehicle_type_id":"4","last_reported":1778936221,"current_range_meters":8800,"station_id":"ce4bh512rcd13ifvqe2g","pricing_plan_id":"cebpf4jnsgd1na2vs0mg"},{"bike_id":"0d51e5ef-ab9b-491a-8c9e-45cfe2cd3256","system_id":"levelo_inurba_marseille","lat":43.29575,"lon":5.36746,"is_reserved":false,"is_disabled":false,"rental_uris":{"android":"levelo://app?vid=0d51e5ef-ab9b-491a-8c9e-45cfe2cd3256","ios":"levelo://app?vid=0d51e5ef-ab9b-491a-8c9e-45cfe2cd3256"},"vehicle_type_id":"4","last_reported":1778936221,"current_range_meters":8800,"station_id":"ce4bgph2rcd13ifvqc2g","pricing_plan_id":"cebpf4jnsgd1na2vs0mg"},{"bike_id":"03708e57-f82c-472f-9ce8-535a83c715b0","system_id":"levelo_inurba_marseille","lat":43.22937,"lon":5.35394,"is_reserved":false,"is_disabled":false,"rental_uris":{"android":"levelo://app?vid=03708e57-f82c-472f-9ce8-535a83c715b0","ios":"levelo://app?vid=03708e57-f82c-472f-9ce8-535a83c715b0"},"vehicle_type_id":"4","last_reported":1778936221,"current_range_meters":8800,"station_id":"cpo3532slgdg3j2ikp40","pricing_plan_id":"cebpf4jnsgd1na2vs0mg"},{"bike_id":"ed8b9caf-da29-4c6c-b8b8-2bb3a2494930","system_id":"levelo_inurba_marseille","lat":43.22523,"lon":5.41658,"is_reserved":false,"is_disabled":false,"rental_uris":{"android":"levelo://app?vid=ed8b9caf-da29-4c6c-b8b8-2bb3a2494930","ios":"levelo://app?vid=ed8b9caf-da29-4c6c-b8b8-2bb3a2494930"},"vehicle_type_id":"4","last_reported":1778936221,"current_range_meters":8800,"station_id":"st_d2o4gvlbi1j2169b742g","pricing_plan_id":"cebpf4jnsgd1na2vs0mg"},{"bike_id":"a1475d99-48d4-492a-9346-7b6c84ba6610","system_id":"levelo_inurba_marseille","lat":43.25101,"lon":5.3953,"is_reserved":false,"is_disabled":false,"rental_uris":{"android":"levelo://app?vid=a1475d99-48d4-492a-9346-7b6c84ba6610","ios":"levelo://app?vid=a1475d99-48d4-492a-9346-7b6c84ba6610"},"vehicle_type_id":"4","last_reported":1778936221,"current_range_meters":8800,"station_id":"ce4bhm12rcd13ifvqgkg","pricing_plan_id":"cebpf4jnsgd1na2vs0mg"},{"bike_id":"ac7fb6af-df53-4daf-971f-82496e99f4ea","system_id":"levelo_inurba_marseille","lat":43.291942,"lon":5.357929,"is_reserved":false,"is_disabled":false,"rental_uris":{"android":"levelo://app?vid=ac7fb6af-df53-4daf-971f-82496e99f4ea","ios":"levelo://app?vid=ac7fb6af-df53-4daf-971f-82496e99f4ea"},"vehicle_type_id":"4","last_reported":1778936221,"current_range_meters":8800,"station_id":"ce4bhb12rcd13ifvqel0","pricing_plan_id":"cebpf4jnsgd1na2vs0mg"},{"bike_id":"813d27aa-24d7-4600-b8e2-7ee95192926c","system_id":"levelo_inurba_marseille","lat":43.29555,"lon":5.37503,"is_reserved":false,"is_disabled":false,"rental_uris":{"android":"levelo://app?vid=813d27aa-24d7-4600-b8e2-7ee95192926c","ios":"levelo://app?vid=813d27aa-24d7-4600-b8e2-7ee95192926c"},"vehicle_type_id":"4","last_reported":1778936221,"current_range_meters":8800,"station_id":"ce4bgh92rcd13ifvqb50","pricing_plan_id":"cebpf4jnsgd1na2vs0mg"},{"bike_id":"59063f1e-10d8-4690-9ce0-08923f74ec53","system_id":"levelo_inurba_marseille","lat":43.29003,"lon":5.35629,"is_reserved":false,"is_disabled":false,"rental_uris":{"android":"levelo://app?vid=59063f1e-10d8-4690-9ce0-08923f74ec53","ios":"levelo://app?vid=59063f1e-10d8-4690-9ce0-08923f74ec53"},"vehicle_type_id":"4","last_reported":1778936221,"current_range_meters":8800,"station_id":"ce4bhb92rcd13ifvqen0","pricing_plan_id":"cebpf4jnsgd1na2vs0mg"},{"bike_id":"838dedee-4cbd-4997-9d32-b652b1084416","system_id":"levelo_inurba_marseille","lat":43.2862,"lon":5.35107,"is_reserved":false,"is_disabled":false,"rental_uris":{"android":"levelo://app?vid=838dedee-4cbd-4997-9d32-b652b1084416","ios":"levelo://app?vid=838dedee-4cbd-4997-9d32-b652b1084416"},"vehicle_type_id":"4","last_reported":1778936221,"current_range_meters":8800,"station_id":"","pricing_plan_id":"cebpf4jnsgd1na2vs0mg"},{"bike_id":"6ea257e9-ce11-4d49-a2f8-fd99dac0cf24","system_id":"levelo_inurba_marseille","lat":43.24668,"lon":5.38155,"is_reserved":false,"is_disabled":false,"rental_uris":{"android":"levelo://app?vid=6ea257e9-ce11-4d49-a2f8-fd99dac0cf24","ios":"levelo://app?vid=6ea257e9-ce11-4d49-a2f8-fd99dac0cf24"},"vehicle_type_id":"4","last_reported":1778936221,"current_range_meters":8800,"station_id":"ce4bhih2rcd13ifvqfr0","pricing_plan_id":"cebpf4jnsgd1na2vs0mg"},{"bike_id":"39f5e5e3-bdaa-431e-ab82-46a06c8cb2ae","system_id":"levelo_inurba_marseille","lat":43.24481,"lon":5.4255,"is_reserved":false,"is_disabled":false,"rental_uris":{"android":"levelo://app?vid=39f5e5e3-bdaa-431e-ab82-46a06c8cb2ae","ios":"levelo://app?vid=39f5e5e3-bdaa-431e-ab82-46a06c8cb2ae"},"vehicle_type_id":"4","last_reported":1778936221,"current_range_meters":8800,"station_id":"st_d4a3vfp97mjs738cd8kg","pricing_plan_id":"cebpf4jnsgd1na2vs0mg"},{"bike_id":"f10ee7f9-1adc-4586-bbe6-20fee322639a","system_id":"levelo_inurba_marseille","lat":43.29698,"lon":5.36601,"is_reserved":false,"is_disabled":false,"rental_uris":{"android":"levelo://app?vid=f10ee7f9-1adc-4586-bbe6-20fee322639a","ios":"levelo://app?vid=f10ee7f9-1adc-4586-bbe6-20fee322639a"},"vehicle_type_id":"4","last_reported":1778936221,"current_range_meters":8800,"station_id":"ce4bgn12rcd13ifvqbt0","pricing_plan_id":"cebpf4jnsgd1na2vs0mg"},{"bike_id":"6e07fdcc-5bd1-475f-bd15-3140883aeeee","system_id":"levelo_inurba_marseille","lat":43.29001,"lon":5.35618,"is_reserved":false,"is_disabled":false,"rental_uris":{"android":"levelo://app?vid=6e07fdcc-5bd1-475f-bd15-3140883aeeee","ios":"levelo://app?vid=6e07fdcc-5bd1-475f-bd15-3140883aeeee"},"vehicle_type_id":"4","last_reported":1778936221,"current_range_meters":8800,"station_id":"ce4bhb92rcd13ifvqen0","pricing_plan_id":"cebpf4jnsgd1na2vs0mg"},{"bike_id":"febca14a-e3db-4146-b9df-655d52d29454","system_id":"levelo_inurba_marseille","lat":43.28839,"lon":5.35892,"is_reserved":false,"is_disabled":false,"rental_uris":{"android":"levelo://app?vid=febca14a-e3db-4146-b9df-655d52d29454","ios":"levelo://app?vid=febca14a-e3db-4146-b9df-655d52d29454"},"vehicle_type_id":"4","last_reported":1778936221,"current_range_meters":8800,"station_id":"ce4bhb12rcd13ifvqem0","pricing_plan_id":"cebpf4jnsgd1na2vs0mg"},{"bike_id":"b658e2e6-7f0d-4ad9-a856-e181b6fea62a","system_id":"levelo_inurba_marseille","lat":43.2467,"lon":5.3815,"is_reserved":false,"is_disabled":false,"rental_uris":{"android":"levelo://app?vid=b658e2e6-7f0d-4ad9-a856-e181b6fea62a","ios":"levelo://app?vid=b658e2e6-7f0d-4ad9-a856-e181b6fea62a"},"vehicle_type_id":"4","last_reported":1778936221,"current_range_meters":8800,"station_id":"ce4bhih2rcd13ifvqfr0","pricing_plan_id":"cebpf4jnsgd1na2vs0mg"},{"bike_id":"41ed03a9-ce21-4903-a810-ca307a88c332","system_id":"levelo_inurba_marseille","lat":43.26221,"lon":5.40433,"is_reserved":false,"is_disabled":false,"rental_uris":{"android":"levelo://app?vid=41ed03a9-ce21-4903-a810-ca307a88c332","ios":"levelo://app?vid=41ed03a9-ce21-4903-a810-ca307a88c332"},"vehicle_type_id":"4","last_reported":1778936221,"current_range_meters":8800,"station_id":"ce4bhmh2rcd13ifvqgmg","pricing_plan_id":"cebpf4jnsgd1na2vs0mg"},{"bike_id":"0d099cf4-0879-4dae-b82d-37f9d9ab73c0","system_id":"levelo_inurba_marseille","lat":43.3055,"lon":5.36517,"is_reserved":false,"is_disabled":false,"rental_uris":{"android":"levelo://app?vid=0d099cf4-0879-4dae-b82d-37f9d9ab73c0","ios":"levelo://app?vid=0d099cf4-0879-4dae-b82d-37f9d9ab73c0"},"vehicle_type_id":"4","last_reported":1778936221,"current_range_meters":8800,"station_id":"ce4bgs12rcd13ifvqcag","pricing_plan_id":"cebpf4jnsgd1na2vs0mg"},{"bike_id":"ea931ebd-1bf3-4e19-9335-f087cbfbab1c","system_id":"levelo_inurba_marseille","lat":43.24451,"lon":5.42544,"is_reserved":false,"is_disabled":false,"rental_uris":{"android":"levelo://app?vid=ea931ebd-1bf3-4e19-9335-f087cbfbab1c","ios":"levelo://app?vid=ea931ebd-1bf3-4e19-9335-f087cbfbab1c"},"vehicle_type_id":"4","last_reported":1778936221,"current_range_meters":8800,"station_id":"st_d4a3vfp97mjs738cd8kg","pricing_plan_id":"cebpf4jnsgd1na2vs0mg"},{"bike_id":"cc421a39-fb72-4a11-ba11-b6c7fd9e1c12","system_id":"levelo_inurba_marseille","lat":43.30154,"lon":5.38086,"is_reserved":false,"is_disabled":false,"rental_uris":{"android":"levelo://app?vid=cc421a39-fb72-4a11-ba11-b6c7fd9e1c12","ios":"levelo://app?vid=cc421a39-fb72-4a11-ba11-b6c7fd9e1c12"},"vehicle_type_id":"4","last_reported":1778936221,"current_range_meters":8800,"station_id":"ce4bgjp2rcd13ifvqbh0","pricing_plan_id":"cebpf4jnsgd1na2vs0mg"},{"bike_id":"577f4409-ee6b-43c3-9307-e01c3b155c8c","system_id":"levelo_inurba_marseille","lat":43.30158,"lon":5.38057,"is_reserved":false,"is_disabled":false,"rental_uris":{"android":"levelo://app?vid=577f4409-ee6b-43c3-9307-e01c3b155c8c","ios":"levelo://app?vid=577f4409-ee6b-43c3-9307-e01c3b155c8c"},"vehicle_type_id":"4","last_reported":1778936221,"current_range_meters":8800,"station_id":"ce4bgjp2rcd13ifvqbh0","pricing_plan_id":"cebpf4jnsgd1na2vs0mg"},