{"last_updated":1706479601,"ttl":30,"version":"2.2","data":{"bikes":[{"bike_id":"26eb7c4c-d820-4609-a57f-4739d1caec33","system_id":"levelo_inurba_marseille","lat":43.31341,"lon":5.367098,"is_reserved":false,"is_disabled":false,"rental_uris":{"android":"levelo://app?vid=26eb7c4c-d820-4609-a57f-4739d1caec33","ios":"levelo://app?vid=26eb7c4c-d820-4609-a57f-4739d1caec33"},"vehicle_type_id":"4","last_reported":1706479601,"current_range_meters":28800,"station_id":"ce4bgr92rcd13ifvqc6g","pricing_plan_id":"free"},{"bike_id":"daa01044-f165-43b4-8906-2b74c00bbad2","system_id":"levelo_inurba_marseille","lat":43.312239,"lon":5.368562,"is_reserved":false,"is_disabled":false,"rental_uris":{"android":"levelo://app?vid=daa01044-f165-43b4-8906-2b74c00bbad2","ios":"levelo://app?vid=daa01044-f165-43b4-8906-2b74c00bbad2"},"vehicle_type_id":"4","last_reported":1706479601,"current_range_meters":9600,"station_id":"ce4bgl92rcd13ifvqbq0","pricing_plan_id":"free"},{"bike_id":"7dd3ff27-4e87-4cff-859a-d94a428d0541","system_id":"levelo_inurba_marseille","lat":43.312233,"lon":5.368519,"is_reserved":false,"is_disabled":false,"rental_uris":{"android":"levelo://app?vid=7dd3ff27-4e87-4cff-859a-d94a428d0541","ios":"levelo://app?vid=7dd3ff27-4e87-4cff-859a-d94a428d0541"},"vehicle_type_id":"4","last_reported":1706479601,"current_range_meters":18400,"station_id":"ce4bgl92rcd13ifvqbq0","pricing_plan_id":"free"},{"bike_id":"1c96df42-530b-42db-aca0-49b72ed889fd","system_id":"levelo_inurba_marseille","lat":43.312239,"lon":5.368562,"is_reserved":false,"is_disabled":false,"rental_uris":{"android":"levelo://app?vid=1c96df42-530b-42db-aca0-49b72ed889fd","ios":"levelo://app?vid=1c96df42-530b-42db-aca0-49b72ed889fd"},"vehicle_type_id":"4","last_reported":1706479601,"current_range_meters":14800,"station_id":"ce4bgl92rcd13ifvqbq0","pricing_plan_id":"free"},{"bike_id":"b5c87cb0-8b67-483c-b86a-6297eb440102","system_id":"levelo_inurba_marseille","lat":43.312239,"lon":5.368562,"is_reserved":false,"is_disabled":false,"rental_uris":{"android":"levelo://app?vid=b5c87cb0-8b67-483c-b86a-6297eb440102","ios":"levelo://app?vid=b5c87cb0-8b67-483c-b86a-6297eb440102"},"vehicle_type_id":"4","last_reported":1706479601,"current_range_meters":20800,"station_id":"ce4bgl92rcd13ifvqbq0","pricing_plan_id":"free"},{"bike_id":"b11e82af-1d64-487c-b045-d20421ae8f74","system_id":"levelo_inurba_marseille","lat":43.312239,"lon":5.368562,"is_reserved":false,"is_disabled":false,"rental_uris":{"android":"levelo://app?vid=b11e82af-1d64-487c-b045-d20421ae8f74","ios":"levelo://app?vid=b11e82af-1d64-487c-b045-d20421ae8f74"},"vehicle_type_id":"4","last_reported":1706479601,"current_range_meters":26400,"station_id":"ce4bgl92rcd13ifvqbq0","pricing_plan_id":"free"},{"bike_id":"081c2fb5-5e92-46c4-87a6-7cc61c39d9df","system_id":"levelo_inurba_marseille","lat":43.314811,"lon":5.373103,"is_reserved":false,"is_disabled":false,"rental_uris":{"android":"levelo://app?vid=081c2fb5-5e92-46c4-87a6-7cc61c39d9df","ios":"levelo://app?vid=081c2fb5-5e92-46c4-87a6-7cc61c39d9df"},"vehicle_type_id":"4","last_reported":1706479601,"current_range_meters":6400,"station_id":"ce4bgt12rcd13ifvqcd0","pricing_plan_id":"free"},{"bike_id":"47fbf43a-9834-4bf1-a2c6-6a33775fe7f6","system_id":"levelo_inurba_marseille","lat":43.314811,"lon":5.373103,"is_reserved":false,"is_disabled":false,"rental_uris":{"android":"levelo://app?vid=47fbf43a-9834-4bf1-a2c6-6a33775fe7f6","ios":"levelo://app?vid=47fbf43a-9834-4bf1-a2c6-6a33775fe7f6"},"vehicle_type_id":"4","last_reported":1706479601,"current_range_meters":18800,"station_id":"ce4bgt12rcd13ifvqcd0","pricing_plan_id":"free"},{"bike_id":"5b20eaef-9fcf-4fbe-a728-5aa0b1295400","system_id":"levelo_inurba_marseille","lat":43.314811,"lon":5.373103,"is_reserved":false,"is_disabled":false,"rental_uris":{"android":"levelo://app?vid=5b20eaef-9fcf-4fbe-a728-5aa0b1295400","ios":"levelo://app?vid=5b20eaef-9fcf-4fbe-a728-5aa0b1295400"},"vehicle_type_id":"4","last_reported":1706479601,"current_range_meters":23600,"station_id":"ce4bgt12rcd13ifvqcd0","pricing_plan_id":"free"},{"bike_id":"ac42197e-48fe-475e-82a5-998808537a0b","system_id":"levelo_inurba_marseille","lat":43.305368,"lon":5.367343,"is_reserved":false,"is_disabled":false,"rental_uris":{"android":"levelo://app?vid=ac42197e-48fe-475e-82a5-998808537a0b","ios":"levelo://app?vid=ac42197e-48fe-475e-82a5-998808537a0b"},"vehicle_type_id":"4","last_reported":1706479601,"current_range_meters":18800,"station_id":"ce4bgrp2rcd13ifvqc9g","pricing_plan_id":"free"},{"bike_id":"1f2fd27f-f0fe-486c-9c82-4d84389ae04c","system_id":"levelo_inurba_marseille","lat":43.311131,"lon":5.377651,"is_reserved":false,"is_disabled":false,"rental_uris":{"android":"levelo://app?vid=1f2fd27f-f0fe-486c-9c82-4d84389ae04c","ios":"levelo://app?vid=1f2fd27f-f0fe-486c-9c82-4d84389ae04c"},"vehicle_type_id":"4","last_reported":1706479601,"current_range_meters":8000,"station_id":"ce4bgt92rcd13ifvqcg0","pricing_plan_id":"free"},{"bike_id":"e8208df0-c0e8-4503-adcd-c9c9e482ef90","system_id":"levelo_inurba_marseille","lat":43.311131,"lon":5.377651,"is_reserved":false,"is_disabled":false,"rental_uris":{"android":"levelo://app?vid=e8208df0-c0e8-4503-adcd-c9c9e482ef90","ios":"levelo://app?vid=e8208df0-c0e8-4503-adcd-c9c9e482ef90"},"vehicle_type_id":"4","last_reported":1706479601,"current_range_meters":0,"station_id":"ce4bgt92rcd13ifvqcg0","pricing_plan_id":"free"},{"bike_id":"009493b7-2cd7-41b3-863f-154e2f5a6c25","system_id":"levelo_inurba_marseille","lat":43.311125,"lon":5.377624,"is_reserved":false,"is_disabled":false,"rental_uris":{"android":"levelo://app?vid=009493b7-2cd7-41b3-863f-154e2f5a6c25","ios":"levelo://app?vid=009493b7-2cd7-41b3-863f-154e2f5a6c25"},"vehicle_type_id":"4","last_reported":1706479601,"current_range_meters":16400,"station_id":"ce4bgt92rcd13ifvqcg0","pricing_plan_id":"free"},{"bike_id":"6617cf7a-ab76-4fb4-ba60-7a1c6edbfca3","system_id":"levelo_inurba_marseille","lat":43.303046,"lon":5.368981,"is_reserved":false,"is_disabled":false,"rental_uris":{"android":"levelo://app?vid=6617cf7a-ab76-4fb4-ba60-7a1c6edbfca3","ios":"levelo://app?vid=6617cf7a-ab76-4fb4-ba60-7a1c6edbfca3"},"vehicle_type_id":"4","last_reported":1706479601,"current_range_meters":19600,"station_id":"ce4bgqh2rcd13ifvqc5g","pricing_plan_id":"free"},{"bike_id":"b83daeb9-a39c-4884-86e2-16a37c651f7f","system_id":"levelo_inurba_marseille","lat":43.31999,"lon":5.37626,"is_reserved":false,"is_disabled":false,"rental_uris":{"android":"levelo://app?vid=b83daeb9-a39c-4884-86e2-16a37c651f7f","ios":"levelo://app?vid=b83daeb9-a39c-4884-86e2-16a37c651f7f"},"vehicle_type_id":"4","last_reported":1706479601,"current_range_meters":4400,"station_id":"","pricing_plan_id":"free"},{"bike_id":"8d33dfa5-b21c-4793-abd9-67d093c9b10e","system_id":"levelo_inurba_marseille","lat":43.31535,"lon":5.38027,"is_reserved":false,"is_disabled":false,"rental_uris":{"android":"levelo://app?vid=8d33dfa5-b21c-4793-abd9-67d093c9b10e","ios":"levelo://app?vid=8d33dfa5-b21c-4793-abd9-67d093c9b10e"},"vehicle_type_id":"4","last_reported":1706479601,"current_range_meters":12000,"station_id":"ce4bhsp2rcd13ifvqi50","pricing_plan_id":"free"},{"bike_id":"dbbe92d2-890e-477b-b56f-772147ba4556","system_id":"levelo_inurba_marseille","lat":43.315321,"lon":5.380307,"is_reserved":false,"is_disabled":false,"rental_uris":{"android":"levelo://app?vid=dbbe92d2-890e-477b-b56f-772147ba4556","ios":"levelo://app?vid=dbbe92d2-890e-477b-b56f-772147ba4556"},"vehicle_type_id":"4","last_reported":1706479601,"current_range_meters":12000,"station_id":"ce4bhsp2rcd13ifvqi50","pricing_plan_id":"free"},{"bike_id":"756cff0e-6121-4b00-a2dd-c5e2ac9055a8","system_id":"levelo_inurba_marseille","lat":43.31532,"lon":5.38041,"is_reserved":false,"is_disabled":false,"rental_uris":{"android":"levelo://app?vid=756cff0e-6121-4b00-a2dd-c5e2ac9055a8","ios":"levelo://app?vid=756cff0e-6121-4b00-a2dd-c5e2ac9055a8"},"vehicle_type_id":"4","last_reported":1706479601,"current_range_meters":800,"station_id":"ce4bhsp2rcd13ifvqi50","pricing_plan_id":"free"},{"bike_id":"d96f68ac-f035-4ca8-b824-73eac2008f09","system_id":"levelo_inurba_marseille","lat":43.308012,"lon":5.381511,"is_reserved":false,"is_disabled":false,"rental_uris":{"android":"levelo://app?vid=d96f68ac-f035-4ca8-b824-73eac2008f09","ios":"levelo://app?vid=d96f68ac-f035-4ca8-b824-73eac2008f09"},"vehicle_type_id":"4","last_reported":1706479601,"current_range_meters":23200,"station_id":"ce4bgt12rcd13ifvqce0","pricing_plan_id":"free"},{"bike_id":"4c4b8ab9-5ef1-420c-9390-c3e236e87d90","system_id":"levelo_inurba_marseille","lat":43.324771,"lon":5.36557,"is_reserved":false,"is_disabled":false,"rental_uris":{"android":"levelo://app?vid=4c4b8ab9-5ef1-420c-9390-c3e236e87d90","ios":"levelo://app?vid=4c4b8ab9-5ef1-420c-9390-c3e236e87d90"},"vehicle_type_id":"4","last_reported":1706479601,"current_range_meters":4400,"station_id":"ce4bhs12rcd13ifvqhvg","pricing_plan_id":"free"},{"bike_id":"1dd95eb2-cc52-4a61-bd2b-a11ff28fec96","system_id":"levelo_inurba_marseille","lat":43.324771,"lon":5.36557,"is_reserved":false,"is_disabled":false,"rental_uris":{"android":"levelo://app?vid=1dd95eb2-cc52-4a61-bd2b-a11ff28fec96","ios":"levelo://app?vid=1dd95eb2-cc52-4a61-bd2b-a11ff28fec96"},"vehicle_type_id":"4","last_reported":1706479601,"current_range_meters":0,"station_id":"ce4bhs12rcd13ifvqhvg","pricing_plan_id":"free"},{"bike_id":"86ecd19a-d2fe-4c9f-8918-32b062eb150e","system_id":"levelo_inurba_marseille","lat":43.32481,"lon":5.365672,"is_reserved":false,"is_disabled":false,"rental_uris":{"android":"levelo://app?vid=86ecd19a-d2fe-4c9f-8918-32b062eb150e","ios":"levelo://app?vid=86ecd19a-d2fe-4c9f-8918-32b062eb150e"},"vehicle_type_id":"4","last_reported":1706479601,"current_range_meters":0,"station_id":"ce4bhs12rcd13ifvqhvg","pricing_plan_id":"free"},{"bike_id":"6d0ba78e-71d0-4664-bf2b-846fb74a6476","system_id":"levelo_inurba_marseille","lat":43.324771,"lon":5.36557,"is_reserved":false,"is_disabled":false,"rental_uris":{"android":"levelo://app?vid=6d0ba78e-71d0-4664-bf2b-846fb74a6476","ios":"levelo://app?vid=6d0ba78e-71d0-4664-bf2b-846fb74a6476"},"vehicle_type_id":"4","last_reported":1706479601,"current_range_meters":6000,"station_id":"ce4bhs12rcd13ifvqhvg","pricing_plan_id":"free"},{"bike_id":"dc00bdf8-dc57-4b02-8d44-8ea4906debe3","system_id":"levelo_inurba_marseille","lat":43.324771,"lon":5.36557,"is_reserved":false,"is_disabled":false,"rental_uris":{"android":"levelo://app?vid=dc00bdf8-dc57-4b02-8d44-8ea4906debe3","ios":"levelo://app?vid=dc00bdf8-dc57-4b02-8d44-8ea4906debe3"},"vehicle_type_id":"4","last_reported":1706479601,"current_range_meters":16000,"station_id":"ce4bhs12rcd13ifvqhvg","pricing_plan_id":"free"},{"bike_id":"4e8e7e9f-0e12-415e-9f8a-232c8717aa9d","system_id":"levelo_inurba_marseille","lat":43.319935,"lon":5.381699,"is_reserved":false,"is_disabled":false,"rental_uris":{"android":"levelo://app?vid=4e8e7e9f-0e12-415e-9f8a-232c8717aa9d","ios":"levelo://app?vid=4e8e7e9f-0e12-415e-9f8a-232c8717aa9d"},"vehicle_type_id":"4","last_reported":1706479601,"current_range_meters":20800,"station_id":"ce4bhr12rcd13ifvqhpg","pricing_plan_id":"free"},{"bike_id":"337a80ca-365b-479b-8391-8579ffbf3daf","system_id":"levelo_inurba_marseille","lat":43.313571,"lon":5.384829,"is_reserved":false,"is_disabled":false,"rental_uris":{"android":"levelo://app?vid=337a80ca-365b-479b-8391-8579ffbf3daf","ios":"levelo://app?vid=337a80ca-365b-479b-8391-8579ffbf3daf"},"vehicle_type_id":"4","last_reported":1706479601,"current_range_meters":12400,"station_id":"ce4bgt92rcd13ifvqcf0","pricing_plan_id":"free"},{"bike_id":"11471d48-14f9-4828-a86e-9895d354d186","system_id":"levelo_inurba_marseille","lat":43.313571,"lon":5.384829,"is_reserved":false,"is_disabled":false,"rental_uris":{"android":"levelo://app?vid=11471d48-14f9-4828-a86e-9895d354d186","ios":"levelo://app?vid=11471d48-14f9-4828-a86e-9895d354d186"},"vehicle_type_id":"4","last_reported":1706479601,"current_range_meters":28800,"station_id":"ce4bgt92rcd13ifvqcf0","pricing_plan_id":"free"},{"bike_id":"edacaf3a-f1ae-4617-b5dc-8b29d0e77485","system_id":"levelo_inurba_marseille","lat":43.313571,"lon":5.384829,"is_reserved":false,"is_disabled":false,"rental_uris":{"android":"levelo://app?vid=edacaf3a-f1ae-4617-b5dc-8b29d0e77485","ios":"levelo://app?vid=edacaf3a-f1ae-4617-b5dc-8b29d0e77485"},"vehicle_type_id":"4","last_reported":1706479601,"current_range_meters":6000,"station_id":"ce4bgt92rcd13ifvqcf0","pricing_plan_id":"free"},{"bike_id":"aeb569eb-9003-46ad-b80d-259362cf5d33","system_id":"levelo_inurba_marseille","lat":43.313571,"lon":5.384829,"is_reserved":false,"is_disabled":false,"rental_uris":{"android":"levelo://app?vid=aeb569eb-9003-46ad-b80d-259362cf5d33","ios":"levelo://app?vid=aeb569eb-9003-46ad-b80d-259362cf5d33"},"vehicle_type_id":"4","last_reported":1706479601,"current_range_meters":800,"station_id":"ce4bgt92rcd13ifvqcf0","pricing_plan_id":"free"},{"bike_id":"5fbcfd35-47c8-4b8a-8a5a-fcb38d1e3a21","system_id":"levelo_inurba_marseille","lat":43.313571,"lon":5.384829,"is_reserved":false,"is_disabled":false,"rental_uris":{"android":"levelo://app?vid=5fbcfd35-47c8-4b8a-8a5a-fcb38d1e3a21","ios":"levelo://app?vid=5fbcfd35-47c8-4b8a-8a5a-fcb38d1e3a21"},"vehicle_type_id":"4","last_reported":1706479601,"current_range_meters":27600,"station_id":"ce4bgt92rcd13ifvqcf0","pricing_plan_id":"free"},{"bike_id":"a281e1a5-5d82-4073-b40a-c01a79b602d0","system_id":"levelo_inurba_marseille","lat":43.313571,"lon":5.384829,"is_reserved":false,"is_disabled":false,"rental_uris":{"android":"levelo://app?vid=a281e1a5-5d82-4073-b40a-c01a79b602d0","ios":"levelo://app?vid=a281e1a5-5d82-4073-b40a-c01a79b602d0"},"vehicle_type_id":"4","last_reported":1706479601,"current_range_meters":23600,"station_id":"ce4bgt92rcd13ifvqcf0","pricing_plan_id":"free"},{"bike_id":"e46c86b0-b70c-484d-88de-240f46ed7a26","system_id":"levelo_inurba_marseille","lat":43.313571,"lon":5.384829,"is_reserved":false,"is_disabled":false,"rental_uris":{"android":"levelo://app?vid=e46c86b0-b70c-484d-88de-240f46ed7a26","ios":"levelo://app?vid=e46c86b0-b70c-484d-88de-240f46ed7a26"},"vehicle_type_id":"4","last_reported":1706479601,"current_range_meters":14000,"station_id":"ce4bgt92rcd13ifvqcf0","pricing_plan_id":"free"},{"bike_id":"ba1723d7-4acf-4f6c-9da3-91b2335146d3","system_id":"levelo_inurba_marseille","lat":43.299222,"lon":5.365554,"is_reserved":false,"is_disabled":false,"rental_uris":{"android":"levelo://app?vid=ba1723d7-4acf-4f6c-9da3-91b2335146d3","ios":"levelo://app?vid=ba1723d7-4acf-4f6c-9da3-91b2335146d3"},"vehicle_type_id":"4","last_reported":1706479601,"current_range_meters":0,"station_id":"ce4bgm92rcd13ifvqbr0","pricing_plan_id":"free"},{"bike_id":"a9439343-6c28-4766-87b0-79b2783e220a","system_id":"levelo_inurba_marseille","lat":43.299222,"lon":5.365554,"is_reserved":false,"is_disabled":false,"rental_uris":{"android":"levelo://app?vid=a9439343-6c28-4766-87b0-79b2783e220a","ios":"levelo://app?vid=a9439343-6c28-4766-87b0-79b2783e220a"},"vehicle_type_id":"4","last_reported":1706479601,"current_range_meters":18000,"station_id":"ce4bgm92rcd13ifvqbr0","pricing_plan_id":"free"},{"bike_id":"cd7ee776-46f5-4019-8f5c-fd7fd56a4660","system_id":"levelo_inurba_marseille","lat":43.305364,"lon":5.384119,"is_reserved":false,"is_disabled":false,"rental_uris":{"android":"levelo://app?vid=cd7ee776-46f5-4019-8f5c-fd7fd56a4660","ios":"levelo://app?vid=cd7ee776-46f5-4019-8f5c-fd7fd56a4660"},"vehicle_type_id":"4","last_reported":1706479601,"current_range_meters":12400,"station_id":"ce4bgg92rcd13ifvqb30","pricing_plan_id":"free"},{"bike_id":"803d8740-ec9e-44e0-bdbb-1c28b3cf5ed8","system_id":"levelo_inurba_marseille","lat":43.305364,"lon":5.384119,"is_reserved":false,"is_disabled":false,"rental_uris":{"android":"levelo://app?vid=803d8740-ec9e-44e0-bdbb-1c28b3cf5ed8","ios":"levelo://app?vid=803d8740-ec9e-44e0-bdbb-1c28b3cf5ed8"},"vehicle_type_id":"4","last_reported":1706479601,"current_range_meters":4000,"station_id":"ce4bgg92rcd13ifvqb30","pricing_plan_id":"free"},{"bike_id":"d24e151a-5142-4f41-83c9-4071fa49bb55","system_id":"levelo_inurba_marseille","lat":43.298433,"lon":5.362774,"is_reserved":false,"is_disabled":false,"rental_uris":{"android":"levelo://app?vid=d24e151a-5142-4f41-83c9-4071fa49bb55","ios":"levelo://app?vid=d24e151a-5142-4f41-83c9-4071fa49bb55"},"vehicle_type_id":"4","last_reported":1706479601,"current_range_meters":23600,"station_id":"ce4bgpp2rcd13ifvqc3g","pricing_plan_id":"free"},{"bike_id":"aaee45e4-19c3-4660-9cb1-0e24fdfb73c5","system_id":"levelo_inurba_marseille","lat":43.311722,"lon":5.387247,"is_reserved":false,"is_disabled":false,"rental_uris":{"android":"levelo://app?vid=aaee45e4-19c3-4660-9cb1-0e24fdfb73c5","ios":"levelo://app?vid=aaee45e4-19c3-4660-9cb1-0e24fdfb73c5"},"vehicle_type_id":"4","last_reported":1706479601,"current_range_meters":26000,"station_id":"ce4bgv12rcd13ifvqcp0","pricing_plan_id":"free"},{"bike_id":"579639e1-85bb-470a-9d5f-c64a2ef896af","system_id":"levelo_inurba_marseille","lat":43.299091,"lon":5.374754,"is_reserved":false,"is_disabled":false,"rental_uris":{"android":"levelo://app?vid=579639e1-85bb-470a-9d5f-c64a2ef896af","ios":"levelo://app?vid=579639e1-85bb-470a-9d5f-c64a2ef896af"},"vehicle_type_id":"4","last_reported":1706479601,"current_range_meters":0,"station_id":"ce4bgjh2rcd13ifvqbg0","pricing_plan_id":"free"},{"bike_id":"dc76f9e1-0d5b-4adf-bd2e-4b6f55189ece","system_id":"levelo_inurba_marseille","lat":43.299243,"lon":5.374807,"is_reserved":false,"is_disabled":false,"rental_uris":{"android":"levelo://app?vid=dc76f9e1-0d5b-4adf-bd2e-4b6f55189ece","ios":"levelo://app?vid=dc76f9e1-0d5b-4adf-bd2e-4b6f55189ece"},"vehicle_type_id":"4","last_reported":1706479601,"current_range_meters":6800,"station_id":"ce4bgjh2rcd13ifvqbg0","pricing_plan_id":"free"},{"bike_id":"3ee4bb9b-4098-4879-be69-e0d141d4917d","system_id":"levelo_inurba_marseille","lat":43.311722,"lon":5.387247,"is_reserved":false,"is_disabled":false,"rental_uris":{"android":"levelo://app?vid=3ee4bb9b-4098-4879-be69-e0d141d4917d","ios":"levelo://app?vid=3ee4bb9b-4098-4879-be69-e0d141d4917d"},"vehicle_type_id":"4","last_reported":1706479601,"current_range_meters":26000,"station_id":"ce4bgv12rcd13ifvqcp0","pricing_plan_id":"free"},{"bike_id":"ef052ffe-e968-4eb8-b923-680910b4c6c0","system_id":"levelo_inurba_marseille","lat":43.322872,"lon":5.382756,"is_reserved":false,"is_disabled":false,"rental_uris":{"android":"levelo://app?vid=ef052ffe-e968-4eb8-b923-680910b4c6c0","ios":"levelo://app?vid=ef052ffe-e968-4eb8-b923-680910b4c6c0"},"vehicle_type_id":"4","last_reported":1706479601,"current_range_meters":24000,"station_id":"ce4bhr12rcd13ifvqhqg","pricing_plan_id":"free"},{"bike_id":"e1539f0d-02e3-46ca-8fd2-b115fd55a782","system_id":"levelo_inurba_marseille","lat":43.322872,"lon":5.382756,"is_reserved":false,"is_disabled":false,"rental_uris":{"android":"levelo://app?vid=e1539f0d-02e3-46ca-8fd2-b115fd55a782","ios":"levelo://app?vid=e1539f0d-02e3-46ca-8fd2-b115fd55a782"},"vehicle_type_id":"4","last_reported":1706479601,"current_range_meters":23200,"station_id":"ce4bhr12rcd13ifvqhqg","pricing_plan_id":"free"},{"bike_id":"61470963-2612-4ace-b4e6-9867758c7df1","system_id":"levelo_inurba_marseille","lat":43.32818,"lon":5.36681,"is_reserved":false,"is_disabled":false,"rental_uris":{"android":"levelo://app?vid=61470963-2612-4ace-b4e6-9867758c7df1","ios":"levelo://app?vid=61470963-2612-4ace-b4e6-9867758c7df1"},"vehicle_type_id":"4","last_reported":1706479601,"current_range_meters":400,"station_id":"ce4bhs92rcd13ifvqi0g","pricing_plan_id":"free"},{"bike_id":"bc53ba99-b807-415f-909d-56f38a2b6d95","system_id":"levelo_inurba_marseille","lat":43.328206,"lon":5.366815,"is_reserved":false,"is_disabled":false,"rental_uris":{"android":"levelo://app?vid=bc53ba99-b807-415f-909d-56f38a2b6d95","ios":"levelo://app?vid=bc53ba99-b807-415f-909d-56f38a2b6d95"},"vehicle_type_id":"4","last_reported":1706479601,"current_range_meters":400,"station_id":"ce4bhs92rcd13ifvqi0g","pricing_plan_id":"free"},{"bike_id":"af1c8fc0-8183-4d68-848c-9159b1d2bf45","system_id":"levelo_inurba_marseille","lat":43.328371,"lon":5.366909,"is_reserved":false,"is_disabled":false,"rental_uris":{"android":"levelo://app?vid=af1c8fc0-8183-4d68-848c-9159b1d2bf45","ios":"levelo://app?vid=af1c8fc0-8183-4d68-848c-9159b1d2bf45"},"vehicle_type_id":"4","last_reported":1706479601,"current_range_meters":8000,"station_id":"ce4bhs92rcd13ifvqi0g","pricing_plan_id":"free"},{"bike_id":"12edd8fe-ac42-424b-86a0-ddbc64b4f114","system_id":"levelo_inurba_marseille","lat":43.328371,"lon":5.366909,"is_reserved":false,"is_disabled":false,"rental_uris":{"android":"levelo://app?vid=12edd8fe-ac42-424b-86a0-ddbc64b4f114","ios":"levelo://app?vid=12edd8fe-ac42-424b-86a0-ddbc64b4f114"},"vehicle_type_id":"4","last_reported":1706479601,"current_range_meters":12000,"station_id":"ce4bhs92rcd13ifvqi0g","pricing_plan_id":"free"},{"bike_id":"0f0cabd5-50b9-4f06-9113-29e33c59f6b5","system_id":"levelo_inurba_marseille","lat":43.296131,"lon":5.370791,"is_reserved":false,"is_disabled":false,"rental_uris":{"android":"levelo://app?vid=0f0cabd5-50b9-4f06-9113-29e33c59f6b5","ios":"levelo://app?vid=0f0cabd5-50b9-4f06-9113-29e33c59f6b5"},"vehicle_type_id":"4","last_reported":1706479601,"current_range_meters":18800,"station_id":"ce4bgnh2rcd13ifvqc0g","pricing_plan_id":"free"},{"bike_id":"0812c5f6-4aa4-4588-b0a3-11d2102c6753","system_id":"levelo_inurba_marseille","lat":43.296935,"lon":5.376544,"is_reserved":false,"is_disabled":false,"rental_uris":{"android":"levelo://app?vid=0812c5f6-4aa4-4588-b0a3-11d2102c6753","ios":"levelo://app?vid=0812c5f6-4aa4-4588-b0a3-11d2102c6753"},"vehicle_type_id":"4","last_reported":1706479601,"current_range_meters":18000,"station_id":"ce4bgkh2rcd13ifvqbl0","pricing_plan_id":"free"},{"bike_id":"fec6285e-728b-490f-a9de-092306543875","system_id":"levelo_inurba_marseille","lat":43.309589,"lon":5.390258,"is_reserved":false,"is_disabled":false,"rental_uris":{"android":"levelo://app?vid=fec6285e-728b-490f-a9de-092306543875","ios":"levelo://app?vid=fec6285e-728b-490f-a9de-092306543875"},"vehicle_type_id":"4","last_reported":1706479601,"current_range_meters":26000,"station_id":"ce4bgup2rcd13ifvqco0","pricing_plan_id":"free"},{"bike_id":"cdec058d-f548-49b4-85cd-d147ee073dde","system_id":"levelo_inurba_marseille","lat":43.317557,"lon":5.390173,"is_reserved":false,"is_disabled":false,"rental_uris":{"android":"levelo://app?vid=cdec058d-f548-49b4-85cd-d147ee073dde","ios":"levelo://app?vid=cdec058d-f548-49b4-85cd-d147ee073dde"},"vehicle_type_id":"4","last_reported":1706479601,"current_range_meters":25200,"station_id":"ce4bhqp2rcd13ifvqhng","pricing_plan_id":"free"},{"bike_id":"4c769f91-d736-4afb-a114-2b51212dca70","system_id":"levelo_inurba_marseille","lat":43.298037,"lon":5.381066,"is_reserved":false,"is_disabled":false,"rental_uris":{"android":"levelo://app?vid=4c769f91-d736-4afb-a114-2b51212dca70","ios":"levelo://app?vid=4c769f91-d736-4afb-a114-2b51212dca70"},"vehicle_type_id":"4","last_reported":1706479601,"current_range_meters":14400,"station_id":"ce4bgip2rcd13ifvqbb0","pricing_plan_id":"free"},{"bike_id":"40680356-59ea-4593-8fda-6e239c7e3001","system_id":"levelo_inurba_marseille","lat":43.29581,"lon":5.37507,"is_reserved":false,"is_disabled":false,"rental_uris":{"android":"levelo://app?vid=40680356-59ea-4593-8fda-6e239c7e3001","ios":"levelo://app?vid=40680356-59ea-4593-8fda-6e239c7e3001"},"vehicle_type_id":"4","last_reported":1706479601,"current_range_meters":4000,"station_id":"ce4bgh92rcd13ifvqb50","pricing_plan_id":"free"},{"bike_id":"3327c0a9-31b2-428a-9917-c7eac8ec328c","system_id":"levelo_inurba_marseille","lat":43.304274,"lon":5.388873,"is_reserved":false,"is_disabled":false,"rental_uris":{"android":"levelo://app?vid=3327c0a9-31b2-428a-9917-c7eac8ec328c","ios":"levelo://app?vid=3327c0a9-31b2-428a-9917-c7eac8ec328c"},"vehicle_type_id":"4","last_reported":1706479601,"current_range_meters":17200,"station_id":"ce4bgk12rcd13ifvqbi0","pricing_plan_id":"free"},{"bike_id":"e76fb37d-0edb-4391-9bc7-f6013b5b4122","system_id":"levelo_inurba_marseille","lat":43.29574,"lon":5.37498,"is_reserved":false,"is_disabled":false,"rental_uris":{"android":"levelo://app?vid=e76fb37d-0edb-4391-9bc7-f6013b5b4122","ios":"levelo://app?vid=e76fb37d-0edb-4391-9bc7-f6013b5b4122"},"vehicle_type_id":"4","last_reported":1706479601,"current_range_meters":0,"station_id":"ce4bgh92rcd13ifvqb50","pricing_plan_id":"free"},{"bike_id":"40c96e83-9f2f-423c-abdd-26777d4f3acd","system_id":"levelo_inurba_marseille","lat":43.304274,"lon":5.388873,"is_reserved":false,"is_disabled":false,"rental_uris":{"android":"levelo://app?vid=40c96e83-9f2f-423c-abdd-26777d4f3acd","ios":"levelo://app?vid=40c96e83-9f2f-423c-abdd-26777d4f3acd"},"vehicle_type_id":"4","last_reported":1706479601,"current_range_meters":16000,"station_id":"ce4bgk12rcd13ifvqbi0","pricing_plan_id":"free"},{"bike_id":"2508cd57-aefe-4170-b2ea-af2f40d52923","system_id":"levelo_inurba_marseille","lat":43.304274,"lon":5.388873,"is_reserved":false,"is_disabled":false,"rental_uris":{"android":"levelo://app?vid=2508cd57-aefe-4170-b2ea-af2f40d52923","ios":"levelo://app?vid=2508cd57-aefe-4170-b2ea-af2f40d52923"},"vehicle_type_id":"4","last_reported":1706479601,"current_range_meters":18000,"station_id":"ce4bgk12rcd13ifvqbi0","pricing_plan_id":"free"},{"bike_id":"face3483-03de-4ec2-9a56-8589309c7993","system_id":"levelo_inurba_marseille","lat":43.295748,"lon":5.37522,"is_reserved":false,"is_disabled":false,"rental_uris":{"android":"levelo://app?vid=face3483-03de-4ec2-9a56-8589309c7993","ios":"levelo://app?vid=face3483-03de-4ec2-9a56-8589309c7993"},"vehicle_type_id":"4","last_reported":1706479601,"current_range_meters":8000,"station_id":"ce4bgh92rcd13ifvqb50","pricing_plan_id":"free"},{"bike_id":"a103be07-ec1c-4c0d-9c9e-d61ef9c7de95","system_id":"levelo_inurba_marseille","lat":43.304278,"lon":5.388868,"is_reserved":false,"is_disabled":false,"rental_uris":{"android":"levelo://app?vid=a103be07-ec1c-4c0d-9c9e-d61ef9c7de95","ios":"levelo://app?vid=a103be07-ec1c-4c0d-9c9e-d61ef9c7de95"},"vehicle_type_id":"4","last_reported":1706479601,"current_range_meters":7200,"station_id":"ce4bgk12rcd13ifvqbi0","pricing_plan_id":"free"},{"bike_id":"251a7df5-22f6-42eb-8ef0-e2ff351fa2a6","system_id":"levelo_inurba_marseille","lat":43.296277,"lon":5.377108,"is_reserved":false,"is_disabled":false,"rental_uris":{"android":"levelo://app?vid=251a7df5-22f6-42eb-8ef0-e2ff351fa2a6","ios":"levelo://app?vid=251a7df5-22f6-42eb-8ef0-e2ff351fa2a6"},"vehicle_type_id":"4","last_reported":1706479601,"current_range_meters":0,"station_id":"ce4bgi92rcd13ifvqb90","pricing_plan_id":"free"},{"bike_id":"69fe2e2a-e660-4263-926f-417f2acb6735","system_id":"levelo_inurba_marseille","lat":43.295279,"lon":5.375048,"is_reserved":false,"is_disabled":false,"rental_uris":{"android":"levelo://app?vid=69fe2e2a-e660-4263-926f-417f2acb6735","ios":"levelo://app?vid=69fe2e2a-e660-4263-926f-417f2acb6735"},"vehicle_type_id":"4","last_reported":1706479601,"current_range_meters":21200,"station_id":"ce4bgkp2rcd13ifvqbmg","pricing_plan_id":"free"},{"bike_id":"c4065c97-4b6d-4c49-b019-f705c6107f79","system_id":"levelo_inurba_marseille","lat":43.299707,"lon":5.384859,"is_reserved":false,"is_disabled":false,"rental_uris":{"android":"levelo://app?vid=c4065c97-4b6d-4c49-b019-f705c6107f79","ios":"levelo://app?vid=c4065c97-4b6d-4c49-b019-f705c6107f79"},"vehicle_type_id":"4","last_reported":1706479601,"current_range_meters":11200,"station_id":"ce4bgj92rcd13ifvqbd0","pricing_plan_id":"free"},{"bike_id":"4b6fc262-78c3-4bc2-a745-848c761a4d32","system_id":"levelo_inurba_marseille","lat":43.299707,"lon":5.384859,"is_reserved":false,"is_disabled":false,"rental_uris":{"android":"levelo://app?vid=4b6fc262-78c3-4bc2-a745-848c761a4d32","ios":"levelo://app?vid=4b6fc262-78c3-4bc2-a745-848c761a4d32"},"vehicle_type_id":"4","last_reported":1706479601,"current_range_meters":20800,"station_id":"ce4bgj92rcd13ifvqbd0","pricing_plan_id":"free"},{"bike_id":"53fdaced-d27b-47a2-9a62-a2884219f8f9","system_id":"levelo_inurba_marseille","lat":43.299707,"lon":5.384859,"is_reserved":false,"is_disabled":false,"rental_uris":{"android":"levelo://app?vid=53fdaced-d27b-47a2-9a62-a2884219f8f9","ios":"levelo://app?vid=53fdaced-d27b-47a2-9a62-a2884219f8f9"},"vehicle_type_id":"4","last_reported":1706479601,"current_range_meters":4000,"station_id":"ce4bgj92rcd13ifvqbd0","pricing_plan_id":"free"},{"bike_id":"564215b5-7541-4586-886d-a26bb2049d57","system_id":"levelo_inurba_marseille","lat":43.299707,"lon":5.384859,"is_reserved":false,"is_disabled":false,"rental_uris":{"android":"levelo://app?vid=564215b5-7541-4586-886d-a26bb2049d57","ios":"levelo://app?vid=564215b5-7541-4586-886d-a26bb2049d57"},"vehicle_type_id":"4","last_reported":1706479601,"current_range_meters":5200,"station_id":"ce4bgj92rcd13ifvqbd0","pricing_plan_id":"free"},{"bike_id":"d68e21e0-f101-4fe4-adad-3edc99116a12","system_id":"levelo_inurba_marseille","lat":43.32367,"lon":5.388836,"is_reserved":false,"is_disabled":false,"rental_uris":{"android":"levelo://app?vid=d68e21e0-f101-4fe4-adad-3edc99116a12","ios":"levelo://app?vid=d68e21e0-f101-4fe4-adad-3edc99116a12"},"vehicle_type_id":"4","last_reported":1706479601,"current_range_meters":17600,"station_id":"ce4bhqp2rcd13ifvqhog","pricing_plan_id":"free"},{"bike_id":"521513b5-ce9a-48ab-8990-ed8ed7a741d0","system_id":"levelo_inurba_marseille","lat":43.32367,"lon":5.388836,"is_reserved":false,"is_disabled":false,"rental_uris":{"android":"levelo://app?vid=521513b5-ce9a-48ab-8990-ed8ed7a741d0","ios":"levelo://app?vid=521513b5-ce9a-48ab-8990-ed8ed7a741d0"},"vehicle_type_id":"4","last_reported":1706479601,"current_range_meters":23200,"station_id":"ce4bhqp2rcd13ifvqhog","pricing_plan_id":"free"},{"bike_id":"96c97a9f-74fa-495f-87d2-a34b29706f6b","system_id":"levelo_inurba_marseille","lat":43.293019,"lon":5.371825,"is_reserved":false,"is_disabled":false,"rental_uris":{"android":"levelo://app?vid=96c97a9f-74fa-495f-87d2-a34b29706f6b","ios":"levelo://app?vid=96c97a9f-74fa-495f-87d2-a34b29706f6b"},"vehicle_type_id":"4","last_reported":1706479601,"current_range_meters":0,"station_id":"ce4bgh92rcd13ifvqb40","pricing_plan_id":"free"},{"bike_id":"7aae2e2f-24b5-4c87-8103-406298300e18","system_id":"levelo_inurba_marseille","lat":43.305994,"lon":5.393687,"is_reserved":false,"is_disabled":false,"rental_uris":{"android":"levelo://app?vid=7aae2e2f-24b5-4c87-8103-406298300e18","ios":"levelo://app?vid=7aae2e2f-24b5-4c87-8103-406298300e18"},"vehicle_type_id":"4","last_reported":1706479601,"current_range_meters":20400,"station_id":"ce4bh0p2rcd13ifvqd80","pricing_plan_id":"free"},{"bike_id":"64310429-5ccb-4003-b3e4-08adbdbb29de","system_id":"levelo_inurba_marseille","lat":43.305994,"lon":5.393687,"is_reserved":false,"is_disabled":false,"rental_uris":{"android":"levelo://app?vid=64310429-5ccb-4003-b3e4-08adbdbb29de","ios":"levelo://app?vid=64310429-5ccb-4003-b3e4-08adbdbb29de"},"vehicle_type_id":"4","last_reported":1706479601,"current_range_meters":7200,"station_id":"ce4bh0p2rcd13ifvqd80","pricing_plan_id":"free"},{"bike_id":"07b8f92b-9a25-493a-9ebe-bbf41a2e2d43","system_id":"levelo_inurba_marseille","lat":43.302992,"lon":5.392136,"is_reserved":false,"is_disabled":false,"rental_uris":{"android":"levelo://app?vid=07b8f92b-9a25-493a-9ebe-bbf41a2e2d43","ios":"levelo://app?vid=07b8f92b-9a25-493a-9ebe-bbf41a2e2d43"},"vehicle_type_id":"4","last_reported":1706479601,"current_range_meters":10800,"station_id":"ce4bgkh2rcd13ifvqbk0","pricing_plan_id":"free"},{"bike_id":"5c7f154c-98d8-4869-b50d-b74a485c7105","system_id":"levelo_inurba_marseille","lat":43.303002,"lon":5.392142,"is_reserved":false,"is_disabled":false,"rental_uris":{"android":"levelo://app?vid=5c7f154c-98d8-4869-b50d-b74a485c7105","ios":"levelo://app?vid=5c7f154c-98d8-4869-b50d-b74a485c7105"},"vehicle_type_id":"4","last_reported":1706479601,"current_range_meters":22400,"station_id":"ce4bgkh2rcd13ifvqbk0","pricing_plan_id":"free"},{"bike_id":"a6f4f2f7-027d-4f8f-a117-705c1f3a55a1","system_id":"levelo_inurba_marseille","lat":43.303002,"lon":5.392142,"is_reserved":false,"is_disabled":false,"rental_uris":{"android":"levelo://app?vid=a6f4f2f7-027d-4f8f-a117-705c1f3a55a1","ios":"levelo://app?vid=a6f4f2f7-027d-4f8f-a117-705c1f3a55a1"},"vehicle_type_id":"4","last_reported":1706479601,"current_range_meters":6000,"station_id":"ce4bgkh2rcd13ifvqbk0","pricing_plan_id":"free"},{"bike_id":"b42c37f3-1faa-4e66-a798-9953853eeb1d","system_id":"levelo_inurba_marseille","lat":43.303002,"lon":5.392142,"is_reserved":false,"is_disabled":false,"rental_uris":{"android":"levelo://app?vid=b42c37f3-1faa-4e66-a798-9953853eeb1d","ios":"levelo://app?vid=b42c37f3-1faa-4e66-a798-9953853eeb1d"},"vehicle_type_id":"4","last_reported":1706479601,"current_range_meters":0,"station_id":"ce4bgkh2rcd13ifvqbk0","pricing_plan_id":"free"},{"bike_id":"a8a23b16-6123-48f0-b642-94a5b13ff8f2","system_id":"levelo_inurba_marseille","lat":43.302992,"lon":5.392136,"is_reserved":false,"is_disabled":false,"rental_uris":{"android":"levelo://app?vid=a8a23b16-6123-48f0-b642-94a5b13ff8f2","ios":"levelo://app?vid=a8a23b16-6123-48f0-b642-94a5b13ff8f2"},"vehicle_type_id":"4","last_reported":1706479601,"current_range_meters":21600,"station_id":"ce4bgkh2rcd13ifvqbk0","pricing_plan_id":"free"},{"bike_id":"5e889d2f-e1d3-4118-96f2-ccf0e39137a2","system_id":"levelo_inurba_marseille","lat":43.302992,"lon":5.392136,"is_reserved":false,"is_disabled":false,"rental_uris":{"android":"levelo://app?vid=5e889d2f-e1d3-4118-96f2-ccf0e39137a2","ios":"levelo://app?vid=5e889d2f-e1d3-4118-96f2-ccf0e39137a2"},"vehicle_type_id":"4","last_reported":1706479601,"current_range_meters":25200,"station_id":"ce4bgkh2rcd13ifvqbk0","pricing_plan_id":"free"},{"bike_id":"a764beb5-7f1e-498b-985f-83c49cce25d7","system_id":"levelo_inurba_marseille","lat":43.300852,"lon":5.390859,"is_reserved":false,"is_disabled":false,"rental_uris":{"android":"levelo://app?vid=a764beb5-7f1e-498b-985f-83c49cce25d7","ios":"levelo://app?vid=a764beb5-7f1e-498b-985f-83c49cce25d7"},"vehicle_type_id":"4","last_reported":1706479601,"current_range_meters":22800,"station_id":"ce4bh192rcd13ifvqdb0","pricing_plan_id":"free"},{"bike_id":"132b0cb1-c2fa-4b68-afa2-941219582eda","system_id":"levelo_inurba_marseille","lat":43.30085,"lon":5.390856,"is_reserved":false,"is_disabled":false,"rental_uris":{"android":"levelo://app?vid=132b0cb1-c2fa-4b68-afa2-941219582eda","ios":"levelo://app?vid=132b0cb1-c2fa-4b68-afa2-941219582eda"},"vehicle_type_id":"4","last_reported":1706479601,"current_range_meters":23600,"station_id":"ce4bh192rcd13ifvqdb0","pricing_plan_id":"free"},{"bike_id":"e0e086dc-6a1a-4908-8175-199ec081b2d8","system_id":"levelo_inurba_marseille","lat":43.313291,"lon":5.396838,"is_reserved":false,"is_disabled":false,"rental_uris":{"android":"levelo://app?vid=e0e086dc-6a1a-4908-8175-199ec081b2d8","ios":"levelo://app?vid=e0e086dc-6a1a-4908-8175-199ec081b2d8"},"vehicle_type_id":"4","last_reported":1706479601,"current_range_meters":28400,"station_id":"ce4bgvp2rcd13ifvqcu0","pricing_plan_id":"free"},{"bike_id":"c3ba4d23-65de-4c70-8b36-0f031909a9c7","system_id":"levelo_inurba_marseille","lat":43.298764,"lon":5.388973,"is_reserved":false,"is_disabled":false,"rental_uris":{"android":"levelo://app?vid=c3ba4d23-65de-4c70-8b36-0f031909a9c7","ios":"levelo://app?vid=c3ba4d23-65de-4c70-8b36-0f031909a9c7"},"vehicle_type_id":"4","last_reported":1706479601,"current_range_meters":16400,"station_id":"ce4bh392rcd13ifvqdl0","pricing_plan_id":"free"},{"bike_id":"525ed666-d955-4063-a4bc-07c0ef53adaa","system_id":"levelo_inurba_marseille","lat":43.298764,"lon":5.388973,"is_reserved":false,"is_disabled":false,"rental_uris":{"android":"levelo://app?vid=525ed666-d955-4063-a4bc-07c0ef53adaa","ios":"levelo://app?vid=525ed666-d955-4063-a4bc-07c0ef53adaa"},"vehicle_type_id":"4","last_reported":1706479601,"current_range_meters":0,"station_id":"ce4bh392rcd13ifvqdl0","pricing_plan_id":"free"},{"bike_id":"19a98a3e-6f28-4940-921f-3bd049ca887f","system_id":"levelo_inurba_marseille","lat":43.298764,"lon":5.388973,"is_reserved":false,"is_disabled":false,"rental_uris":{"android":"levelo://app?vid=19a98a3e-6f28-4940-921f-3bd049ca887f","ios":"levelo://app?vid=19a98a3e-6f28-4940-921f-3bd049ca887f"},"vehicle_type_id":"4","last_reported":1706479601,"current_range_meters":0,"station_id":"ce4bh392rcd13ifvqdl0","pricing_plan_id":"free"},{"bike_id":"005f49fb-661f-4b2c-9e0f-b235e4015f72","system_id":"levelo_inurba_marseille","lat":43.291994,"lon":5.357886,"is_reserved":false,"is_disabled":false,"rental_uris":{"android":"levelo://app?vid=005f49fb-661f-4b2c-9e0f-b235e4015f72","ios":"levelo://app?vid=005f49fb-661f-4b2c-9e0f-b235e4015f72"},"vehicle_type_id":"4","last_reported":1706479601,"current_range_meters":20800,"station_id":"ce4bhb12rcd13ifvqel0","pricing_plan_id":"free"},{"bike_id":"a7cbbdfe-9e93-4dc3-9267-0aff76a4a8c6","system_id":"levelo_inurba_marseille","lat":43.309038,"lon":5.396546,"is_reserved":false,"is_disabled":false,"rental_uris":{"android":"levelo://app?vid=a7cbbdfe-9e93-4dc3-9267-0aff76a4a8c6","ios":"levelo://app?vid=a7cbbdfe-9e93-4dc3-9267-0aff76a4a8c6"},"vehicle_type_id":"4","last_reported":1706479601,"current_range_meters":18800,"station_id":"ce4bh012rcd13ifvqcv0","pricing_plan_id":"free"},{"bike_id":"360ae2f7-8bcb-471b-929d-3d8eedbf87b7","system_id":"levelo_inurba_marseille","lat":43.313291,"lon":5.396838,"is_reserved":false,"is_disabled":false,"rental_uris":{"android":"levelo://app?vid=360ae2f7-8bcb-471b-929d-3d8eedbf87b7","ios":"levelo://app?vid=360ae2f7-8bcb-471b-929d-3d8eedbf87b7"},"vehicle_type_id":"4","last_reported":1706479601,"current_range_meters":10800,"station_id":"ce4bgvp2rcd13ifvqcu0","pricing_plan_id":"free"},{"bike_id":"effcec09-5083-4665-885e-3d6d2c478cce","system_id":"levelo_inurba_marseille","lat":43.29529,"lon":5.385581,"is_reserved":false,"is_disabled":false,"rental_uris":{"android":"levelo://app?vid=effcec09-5083-4665-885e-3d6d2c478cce","ios":"levelo://app?vid=effcec09-5083-4665-885e-3d6d2c478cce"},"vehicle_type_id":"4","last_reported":1706479601,"current_range_meters":14800,"station_id":"ce4bgih2rcd13ifvqba0","pricing_plan_id":"free"},{"bike_id":"f5a11894-09df-4051-8621-bb6275a2fdeb","system_id":"levelo_inurba_marseille","lat":43.29529,"lon":5.385581,"is_reserved":false,"is_disabled":false,"rental_uris":{"android":"levelo://app?vid=f5a11894-09df-4051-8621-bb6275a2fdeb","ios":"levelo://app?vid=f5a11894-09df-4051-8621-bb6275a2fdeb"},"vehicle_type_id":"4","last_reported":1706479601,"current_range_meters":4800,"station_id":"ce4bgih2rcd13ifvqba0","pricing_plan_id":"free"},{"bike_id":"923496d8-a092-43e6-9fca-d2003681fcb1","system_id":"levelo_inurba_marseille","lat":43.290779,"lon":5.371482,"is_reserved":false,"is_disabled":false,"rental_uris":{"android":"levelo://app?vid=923496d8-a092-43e6-9fca-d2003681fcb1","ios":"levelo://app?vid=923496d8-a092-43e6-9fca-d2003681fcb1"},"vehicle_type_id":"4","last_reported":1706479601,"current_range_meters":23600,"station_id":"ce4bh5p2rcd13ifvqe4g","pricing_plan_id":"free"},{"bike_id":"8cd28602-12a3-4baf-970f-6aceec501a48","system_id":"levelo_inurba_marseille","lat":43.302008,"lon":5.394694,"is_reserved":false,"is_disabled":false,"rental_uris":{"android":"levelo://app?vid=8cd28602-12a3-4baf-970f-6aceec501a48","ios":"levelo://app?vid=8cd28602-12a3-4baf-970f-6aceec501a48"},"vehicle_type_id":"4","last_reported":1706479601,"current_range_meters":24800,"station_id":"ce4bh0p2rcd13ifvqd70","pricing_plan_id":"free"},{"bike_id":"f11fb805-017d-4a11-a051-6eaf4f93cf52","system_id":"levelo_inurba_marseille","lat":43.290624,"lon":5.359245,"is_reserved":false,"is_disabled":false,"rental_uris":{"android":"levelo://app?vid=f11fb805-017d-4a11-a051-6eaf4f93cf52","ios":"levelo://app?vid=f11fb805-017d-4a11-a051-6eaf4f93cf52"},"vehicle_type_id":"4","last_reported":1706479601,"current_range_meters":24000,"station_id":"ce4bha92rcd13ifvqeg0","pricing_plan_id":"free"},{"bike_id":"ec66efd6-d632-45fa-9344-bd23239e1195","system_id":"levelo_inurba_marseille","lat":43.294153,"lon":5.386305,"is_reserved":false,"is_disabled":false,"rental_uris":{"android":"levelo://app?vid=ec66efd6-d632-45fa-9344-bd23239e1195","ios":"levelo://app?vid=ec66efd6-d632-45fa-9344-bd23239e1195"},"vehicle_type_id":"4","last_reported":1706479601,"current_range_meters":0,"station_id":"ce4bh2h2rcd13ifvqdh0","pricing_plan_id":"free"},{"bike_id":"5d4ff776-356c-45bd-b11f-f98ab5a0b580","system_id":"levelo_inurba_marseille","lat":43.294153,"lon":5.386305,"is_reserved":false,"is_disabled":false,"rental_uris":{"android":"levelo://app?vid=5d4ff776-356c-45bd-b11f-f98ab5a0b580","ios":"levelo://app?vid=5d4ff776-356c-45bd-b11f-f98ab5a0b580"},"vehicle_type_id":"4","last_reported":1706479601,"current_range_meters":0,"station_id":"ce4bh2h2rcd13ifvqdh0","pricing_plan_id":"free"},{"bike_id":"99652a86-1a6b-4f4a-b8f0-34efd26065e0","system_id":"levelo_inurba_marseille","lat":43.289468,"lon":5.363719,"is_reserved":false,"is_disabled":false,"rental_uris":{"android":"levelo://app?vid=99652a86-1a6b-4f4a-b8f0-34efd26065e0","ios":"levelo://app?vid=99652a86-1a6b-4f4a-b8f0-34efd26065e0"},"vehicle_type_id":"4","last_reported":1706479601,"current_range_meters":24800,"station_id":"ce4bhc92rcd13ifvqetg","pricing_plan_id":"free"},{"bike_id":"127569a6-4958-40e4-8857-88c7bd849270","system_id":"levelo_inurba_marseille","lat":43.289468,"lon":5.363719,"is_reserved":false,"is_disabled":false,"rental_uris":{"android":"levelo://app?vid=127569a6-4958-40e4-8857-88c7bd849270","ios":"levelo://app?vid=127569a6-4958-40e4-8857-88c7bd849270"},"vehicle_type_id":"4","last_reported":1706479601,"current_range_meters":18400,"station_id":"ce4bhc92rcd13ifvqetg","pricing_plan_id":"free"},{"bike_id":"b7706dd7-3786-4087-8965-0886b169ac4e","system_id":"levelo_inurba_marseille","lat":43.297815,"lon":5.393548,"is_reserved":false,"is_disabled":false,"rental_uris":{"android":"levelo://app?vid=b7706dd7-3786-4087-8965-0886b169ac4e","ios":"levelo://app?vid=b7706dd7-3786-4087-8965-0886b169ac4e"},"vehicle_type_id":"4","last_reported":1706479601,"current_range_meters":17600,"station_id":"chh1huq6cuj3fo74tm60","pricing_plan_id":"free"},{"bike_id":"81d5bf30-f488-4ae5-8f54-29b205fc1d75","system_id":"levelo_inurba_marseille","lat":43.289743,"lon":5.378304,"is_reserved":false,"is_disabled":false,"rental_uris":{"android":"levelo://app?vid=81d5bf30-f488-4ae5-8f54-29b205fc1d75","ios":"levelo://app?vid=81d5bf30-f488-4ae5-8f54-29b205fc1d75"},"vehicle_type_id":"4","last_reported":1706479601,"current_range_meters":7200,"station_id":"ce4bh9p2rcd13ifvqed0","pricing_plan_id":"free"},{"bike_id":"c3bf1cbd-fa56-4133-ad88-853fc6f0eea3","system_id":"levelo_inurba_marseille","lat":43.330442,"lon":5.389148,"is_reserved":false,"is_disabled":false,"rental_uris":{"android":"levelo://app?vid=c3bf1cbd-fa56-4133-ad88-853fc6f0eea3","ios":"levelo://app?vid=c3bf1cbd-fa56-4133-ad88-853fc6f0eea3"},"vehicle_type_id":"4","last_reported":1706479601,"current_range_meters":0,"station_id":"ce4bhr92rcd13ifvqhrg","pricing_plan_id":"free"},{"bike_id":"8c01f223-829f-4d41-a107-8db41a76a15f","system_id":"levelo_inurba_marseille","lat":43.295169,"lon":5.390426,"is_reserved":false,"is_disabled":false,"rental_uris":{"android":"levelo://app?vid=8c01f223-829f-4d41-a107-8db41a76a15f","ios":"levelo://app?vid=8c01f223-829f-4d41-a107-8db41a76a15f"},"vehicle_type_id":"4","last_reported":1706479601,"current_range_meters":23200,"station_id":"ce4bh3p2rcd13ifvqdp0","pricing_plan_id":"free"},{"bike_id":"b7397a09-ad1e-4f4b-bd87-9cd57aa4c0e9","system_id":"levelo_inurba_marseille","lat":43.330442,"lon":5.389148,"is_reserved":false,"is_disabled":false,"rental_uris":{"android":"levelo://app?vid=b7397a09-ad1e-4f4b-bd87-9cd57aa4c0e9","ios":"levelo://app?vid=b7397a09-ad1e-4f4b-bd87-9cd57aa4c0e9"},"vehicle_type_id":"4","last_reported":1706479601,"current_range_meters":10800,"station_id":"ce4bhr92rcd13ifvqhrg","pricing_plan_id":"free"},{"bike_id":"2cfab821-4471-4549-a223-09dd3c60e34f","system_id":"levelo_inurba_marseille","lat":43.28856,"lon":5.358371,"is_reserved":false,"is_disabled":false,"rental_uris":{"android":"levelo://app?vid=2cfab821-4471-4549-a223-09dd3c60e34f","ios":"levelo://app?vid=2cfab821-4471-4549-a223-09dd3c60e34f"},"vehicle_type_id":"4","last_reported":1706479601,"current_range_meters":24400,"station_id":"ce4bhb12rcd13ifvqem0","pricing_plan_id":"free"},{"bike_id":"c2837a28-f9ff-4f57-848a-d9292b73d93d","system_id":"levelo_inurba_marseille","lat":43.28856,"lon":5.358371,"is_reserved":false,"is_disabled":false,"rental_uris":{"android":"levelo://app?vid=c2837a28-f9ff-4f57-848a-d9292b73d93d","ios":"levelo://app?vid=c2837a28-f9ff-4f57-848a-d9292b73d93d"},"vehicle_type_id":"4","last_reported":1706479601,"current_range_meters":0,"station_id":"ce4bhb12rcd13ifvqem0","pricing_plan_id":"free"},{"bike_id":"68c035f9-41db-4e88-a135-5477a81376b4","system_id":"levelo_inurba_marseille","lat":43.312609,"lon":5.401662,"is_reserved":false,"is_disabled":false,"rental_uris":{"android":"levelo://app?vid=68c035f9-41db-4e88-a135-5477a81376b4","ios":"levelo://app?vid=68c035f9-41db-4e88-a135-5477a81376b4"},"vehicle_type_id":"4","last_reported":1706479601,"current_range_meters":12800,"station_id":"ce4bh092rcd13ifvqd30","pricing_plan_id":"free"},{"bike_id":"df97485f-1606-4d96-b1b7-6ce9de85ba64","system_id":"levelo_inurba_marseille","lat":43.312609,"lon":5.401662,"is_reserved":false,"is_disabled":false,"rental_uris":{"android":"levelo://app?vid=df97485f-1606-4d96-b1b7-6ce9de85ba64","ios":"levelo://app?vid=df97485f-1606-4d96-b1b7-6ce9de85ba64"},"vehicle_type_id":"4","last_reported":1706479601,"current_range_meters":7600,"station_id":"ce4bh092rcd13ifvqd30","pricing_plan_id":"free"},{"bike_id":"0f2c1b5b-2255-427d-8e1c-a2e4920df7dd","system_id":"levelo_inurba_marseille","lat":43.337406,"lon":5.374518,"is_reserved":false,"is_disabled":false,"rental_uris":{"android":"levelo://app?vid=0f2c1b5b-2255-427d-8e1c-a2e4920df7dd","ios":"levelo://app?vid=0f2c1b5b-2255-427d-8e1c-a2e4920df7dd"},"vehicle_type_id":"4","last_reported":1706479601,"current_range_meters":25200,"station_id":"","pricing_plan_id":"free"},{"bike_id":"89a8815a-667b-4a7e-ad67-76d2795951b6","system_id":"levelo_inurba_marseille","lat":43.309371,"lon":5.401449,"is_reserved":false,"is_disabled":false,"rental_uris":{"android":"levelo://app?vid=89a8815a-667b-4a7e-ad67-76d2795951b6","ios":"levelo://app?vid=89a8815a-667b-4a7e-ad67-76d2795951b6"},"vehicle_type_id":"4","last_reported":1706479601,"current_range_meters":2000,"station_id":"ce4bgvp2rcd13ifvqct0","pricing_plan_id":"free"},{"bike_id":"fcfa15fe-6695-474b-8f30-dc941c73b131","system_id":"levelo_inurba_marseille","lat":43.30936,"lon":5.40145,"is_reserved":false,"is_disabled":false,"rental_uris":{"android":"levelo://app?vid=fcfa15fe-6695-474b-8f30-dc941c73b131","ios":"levelo://app?vid=fcfa15fe-6695-474b-8f30-dc941c73b131"},"vehicle_type_id":"4","last_reported":1706479601,"current_range_meters":3600,"station_id":"ce4bgvp2rcd13ifvqct0","pricing_plan_id":"free"},{"bike_id":"cf5f845d-29c6-4edb-b231-80f45feea0a3","system_id":"levelo_inurba_marseille","lat":43.309371,"lon":5.401449,"is_reserved":false,"is_disabled":false,"rental_uris":{"android":"levelo://app?vid=cf5f845d-29c6-4edb-b231-80f45feea0a3","ios":"levelo://app?vid=cf5f845d-29c6-4edb-b231-80f45feea0a3"},"vehicle_type_id":"4","last_reported":1706479601,"current_range_meters":19200,"station_id":"ce4bgvp2rcd13ifvqct0","pricing_plan_id":"free"},{"bike_id":"2178f92b-8a8c-49f3-9594-f0b2241dd5aa","system_id":"levelo_inurba_marseille","lat":43.312609,"lon":5.401662,"is_reserved":false,"is_disabled":false,"rental_uris":{"android":"levelo://app?vid=2178f92b-8a8c-49f3-9594-f0b2241dd5aa","ios":"levelo://app?vid=2178f92b-8a8c-49f3-9594-f0b2241dd5aa"},"vehicle_type_id":"4","last_reported":1706479601,"current_range_meters":20800,"station_id":"ce4bh092rcd13ifvqd30","pricing_plan_id":"free"},{"bike_id":"a563cdbf-78b8-441c-8dce-8da1c3325b92","system_id":"levelo_inurba_marseille","lat":43.337511,"lon":5.374543,"is_reserved":false,"is_disabled":false,"rental_uris":{"android":"levelo://app?vid=a563cdbf-78b8-441c-8dce-8da1c3325b92","ios":"levelo://app?vid=a563cdbf-78b8-441c-8dce-8da1c3325b92"},"vehicle_type_id":"4","last_reported":1706479601,"current_range_meters":18400,"station_id":"","pricing_plan_id":"free"},{"bike_id":"b7f12eab-e0a6-499e-87ec-2b4381c4602a","system_id":"levelo_inurba_marseille","lat":43.337543,"lon":5.374554,"is_reserved":false,"is_disabled":false,"rental_uris":{"android":"levelo://app?vid=b7f12eab-e0a6-499e-87ec-2b4381c4602a","ios":"levelo://app?vid=b7f12eab-e0a6-499e-87ec-2b4381c4602a"},"vehicle_type_id":"4","last_reported":1706479601,"current_range_meters":23200,"station_id":"","pricing_plan_id":"free"},{"bike_id":"1facbbf3-baac-42f8-85eb-cb1e36f3e4b9","system_id":"levelo_inurba_marseille","lat":43.337548,"lon":5.374952,"is_reserved":false,"is_disabled":false,"rental_uris":{"android":"levelo://app?vid=1facbbf3-baac-42f8-85eb-cb1e36f3e4b9","ios":"levelo://app?vid=1facbbf3-baac-42f8-85eb-cb1e36f3e4b9"},"vehicle_type_id":"4","last_reported":1706479601,"current_range_meters":12400,"station_id":"","pricing_plan_id":"free"},{"bike_id":"713283fe-e82c-441a-8a6e-1c67b3985fbf","system_id":"levelo_inurba_marseille","lat":43.326605,"lon":5.409903,"is_reserved":false,"is_disabled":false,"rental_uris":{"android":"levelo://app?vid=713283fe-e82c-441a-8a6e-1c67b3985fbf","ios":"levelo://app?vid=713283fe-e82c-441a-8a6e-1c67b3985fbf"},"vehicle_type_id":"4","last_reported":1706479601,"current_range_meters":25600,"station_id":"ce4bhpp2rcd13ifvqhgg","pricing_plan_id":"free"},{"bike_id":"2fe24097-b1c2-4583-ba1f-cf8501171a4c","system_id":"levelo_inurba_marseille","lat":43.337578,"lon":5.374885,"is_reserved":false,"is_disabled":false,"rental_uris":{"android":"levelo://app?vid=2fe24097-b1c2-4583-ba1f-cf8501171a4c","ios":"levelo://app?vid=2fe24097-b1c2-4583-ba1f-cf8501171a4c"},"vehicle_type_id":"4","last_reported":1706479601,"current_range_meters":10000,"station_id":"","pricing_plan_id":"free"},{"bike_id":"b7d3b81d-d85a-44b5-a0c7-8f9c9f74639e","system_id":"levelo_inurba_marseille","lat":43.33765,"lon":5.374672,"is_reserved":false,"is_disabled":false,"rental_uris":{"android":"levelo://app?vid=b7d3b81d-d85a-44b5-a0c7-8f9c9f74639e","ios":"levelo://app?vid=b7d3b81d-d85a-44b5-a0c7-8f9c9f74639e"},"vehicle_type_id":"4","last_reported":1706479601,"current_range_meters":25600,"station_id":"","pricing_plan_id":"free"},{"bike_id":"eba6ef58-29d1-4196-9a1a-4f81035ff91b","system_id":"levelo_inurba_marseille","lat":43.30602,"lon":5.40099,"is_reserved":false,"is_disabled":false,"rental_uris":{"android":"levelo://app?vid=eba6ef58-29d1-4196-9a1a-4f81035ff91b","ios":"levelo://app?vid=eba6ef58-29d1-4196-9a1a-4f81035ff91b"},"vehicle_type_id":"4","last_reported":1706479601,"current_range_meters":23600,"station_id":"ce4bh112rcd13ifvqda0","pricing_plan_id":"free"},{"bike_id":"6da6c5d4-d38a-4a1b-8b8a-235532307442","system_id":"levelo_inurba_marseille","lat":43.301117,"lon":5.398795,"is_reserved":false,"is_disabled":false,"rental_uris":{"android":"levelo://app?vid=6da6c5d4-d38a-4a1b-8b8a-235532307442","ios":"levelo://app?vid=6da6c5d4-d38a-4a1b-8b8a-235532307442"},"vehicle_type_id":"4","last_reported":1706479601,"current_range_meters":20000,"station_id":"ce4bh0h2rcd13ifvqd40","pricing_plan_id":"free"},{"bike_id":"7a5e519d-41a6-414b-b6ed-0a86694e3771","system_id":"levelo_inurba_marseille","lat":43.28727,"lon":5.36078,"is_reserved":false,"is_disabled":false,"rental_uris":{"android":"levelo://app?vid=7a5e519d-41a6-414b-b6ed-0a86694e3771","ios":"levelo://app?vid=7a5e519d-41a6-414b-b6ed-0a86694e3771"},"vehicle_type_id":"4","last_reported":1706479601,"current_range_meters":31200,"station_id":"cki0cbj6b192h4jlfktg","pricing_plan_id":"free"},{"bike_id":"522d42eb-9b29-48d8-bd56-5615cefbb5c8","system_id":"levelo_inurba_marseille","lat":43.304643,"lon":5.40063,"is_reserved":false,"is_disabled":false,"rental_uris":{"android":"levelo://app?vid=522d42eb-9b29-48d8-bd56-5615cefbb5c8","ios":"levelo://app?vid=522d42eb-9b29-48d8-bd56-5615cefbb5c8"},"vehicle_type_id":"4","last_reported":1706479601,"current_range_meters":16800,"station_id":"","pricing_plan_id":"free"},{"bike_id":"4526c5a3-58e3-4b33-bef7-119d0c9b1850","system_id":"levelo_inurba_marseille","lat":43.28727,"lon":5.36078,"is_reserved":false,"is_disabled":false,"rental_uris":{"android":"levelo://app?vid=4526c5a3-58e3-4b33-bef7-119d0c9b1850","ios":"levelo://app?vid=4526c5a3-58e3-4b33-bef7-119d0c9b1850"},"vehicle_type_id":"4","last_reported":1706479601,"current_range_meters":24000,"station_id":"cki0cbj6b192h4jlfktg","pricing_plan_id":"free"},{"bike_id":"58fb4389-db25-47ef-b931-36558fc28c1d","system_id":"levelo_inurba_marseille","lat":43.28727,"lon":5.36078,"is_reserved":false,"is_disabled":false,"rental_uris":{"android":"levelo://app?vid=58fb4389-db25-47ef-b931-36558fc28c1d","ios":"levelo://app?vid=58fb4389-db25-47ef-b931-36558fc28c1d"},"vehicle_type_id":"4","last_reported":1706479601,"current_range_meters":6800,"station_id":"cki0cbj6b192h4jlfktg","pricing_plan_id":"free"},{"bike_id":"40fa4522-1e63-4109-b1ab-9778342875a3","system_id":"levelo_inurba_marseille","lat":43.298681,"lon":5.397225,"is_reserved":false,"is_disabled":false,"rental_uris":{"android":"levelo://app?vid=40fa4522-1e63-4109-b1ab-9778342875a3","ios":"levelo://app?vid=40fa4522-1e63-4109-b1ab-9778342875a3"},"vehicle_type_id":"4","last_reported":1706479601,"current_range_meters":30400,"station_id":"ce4bh0h2rcd13ifvqd50","pricing_plan_id":"free"},{"bike_id":"111e9c3b-9d64-40ba-a838-427b7e448896","system_id":"levelo_inurba_marseille","lat":43.298681,"lon":5.397225,"is_reserved":false,"is_disabled":false,"rental_uris":{"android":"levelo://app?vid=111e9c3b-9d64-40ba-a838-427b7e448896","ios":"levelo://app?vid=111e9c3b-9d64-40ba-a838-427b7e448896"},"vehicle_type_id":"4","last_reported":1706479601,"current_range_meters":800,"station_id":"ce4bh0h2rcd13ifvqd50","pricing_plan_id":"free"},{"bike_id":"f7d0a52c-5f99-4a0a-966d-b6ecb2f9473f","system_id":"levelo_inurba_marseille","lat":43.286591,"lon":5.363346,"is_reserved":false,"is_disabled":false,"rental_uris":{"android":"levelo://app?vid=f7d0a52c-5f99-4a0a-966d-b6ecb2f9473f","ios":"levelo://app?vid=f7d0a52c-5f99-4a0a-966d-b6ecb2f9473f"},"vehicle_type_id":"4","last_reported":1706479601,"current_range_meters":21200,"station_id":"ce4bhah2rcd13ifvqej0","pricing_plan_id":"free"},{"bike_id":"377ef3f8-d218-4c95-b8ac-ee69a75c2f73","system_id":"levelo_inurba_marseille","lat":43.286961,"lon":5.373785,"is_reserved":false,"is_disabled":false,"rental_uris":{"android":"levelo://app?vid=377ef3f8-d218-4c95-b8ac-ee69a75c2f73","ios":"levelo://app?vid=377ef3f8-d218-4c95-b8ac-ee69a75c2f73"},"vehicle_type_id":"4","last_reported":1706479601,"current_range_meters":7200,"station_id":"ce4bh3p2rcd13ifvqdq0","pricing_plan_id":"free"},{"bike_id":"037051ab-425e-412f-b404-f5773260f298","system_id":"levelo_inurba_marseille","lat":43.286591,"lon":5.363346,"is_reserved":false,"is_disabled":false,"rental_uris":{"android":"levelo://app?vid=037051ab-425e-412f-b404-f5773260f298","ios":"levelo://app?vid=037051ab-425e-412f-b404-f5773260f298"},"vehicle_type_id":"4","last_reported":1706479601,"current_range_meters":25200,"station_id":"ce4bhah2rcd13ifvqej0","pricing_plan_id":"free"},{"bike_id":"b16167e3-1052-43da-9c08-d441a37aa492","system_id":"levelo_inurba_marseille","lat":43.298681,"lon":5.397225,"is_reserved":false,"is_disabled":false,"rental_uris":{"android":"levelo://app?vid=b16167e3-1052-43da-9c08-d441a37aa492","ios":"levelo://app?vid=b16167e3-1052-43da-9c08-d441a37aa492"},"vehicle_type_id":"4","last_reported":1706479601,"current_range_meters":25200,"station_id":"ce4bh0h2rcd13ifvqd50","pricing_plan_id":"free"},{"bike_id":"94e643cb-8463-4417-a2ec-d66404e804cc","system_id":"levelo_inurba_marseille","lat":43.286593,"lon":5.363346,"is_reserved":false,"is_disabled":false,"rental_uris":{"android":"levelo://app?vid=94e643cb-8463-4417-a2ec-d66404e804cc","ios":"levelo://app?vid=94e643cb-8463-4417-a2ec-d66404e804cc"},"vehicle_type_id":"4","last_reported":1706479601,"current_range_meters":23200,"station_id":"ce4bhah2rcd13ifvqej0","pricing_plan_id":"free"},{"bike_id":"94c712f0-2471-4cbf-b779-4b1642f80194","system_id":"levelo_inurba_marseille","lat":43.286961,"lon":5.373785,"is_reserved":false,"is_disabled":false,"rental_uris":{"android":"levelo://app?vid=94c712f0-2471-4cbf-b779-4b1642f80194","ios":"levelo://app?vid=94c712f0-2471-4cbf-b779-4b1642f80194"},"vehicle_type_id":"4","last_reported":1706479601,"current_range_meters":18800,"station_id":"ce4bh3p2rcd13ifvqdq0","pricing_plan_id":"free"},{"bike_id":"44383bee-c4d1-4698-b237-49da6c63e49e","system_id":"levelo_inurba_marseille","lat":43.286593,"lon":5.363346,"is_reserved":false,"is_disabled":false,"rental_uris":{"android":"levelo://app?vid=44383bee-c4d1-4698-b237-49da6c63e49e","ios":"levelo://app?vid=44383bee-c4d1-4698-b237-49da6c63e49e"},"vehicle_type_id":"4","last_reported":1706479601,"current_range_meters":27600,"station_id":"ce4bhah2rcd13ifvqej0","pricing_plan_id":"free"},{"bike_id":"2fd6249d-582f-4c1a-80e9-eed91193e373","system_id":"levelo_inurba_marseille","lat":43.298681,"lon":5.397225,"is_reserved":false,"is_disabled":false,"rental_uris":{"android":"levelo://app?vid=2fd6249d-582f-4c1a-80e9-eed91193e373","ios":"levelo://app?vid=2fd6249d-582f-4c1a-80e9-eed91193e373"},"vehicle_type_id":"4","last_reported":1706479601,"current_range_meters":31200,"station_id":"ce4bh0h2rcd13ifvqd50","pricing_plan_id":"free"},{"bike_id":"cc644acb-1160-442c-b5b0-55a4344a662a","system_id":"levelo_inurba_marseille","lat":43.295196,"lon":5.39397,"is_reserved":false,"is_disabled":false,"rental_uris":{"android":"levelo://app?vid=cc644acb-1160-442c-b5b0-55a4344a662a","ios":"levelo://app?vid=cc644acb-1160-442c-b5b0-55a4344a662a"},"vehicle_type_id":"4","last_reported":1706479601,"current_range_meters":7200,"station_id":"ce4bh292rcd13ifvqdf0","pricing_plan_id":"free"},{"bike_id":"33d01265-197a-4614-9ada-40dd09b96df8","system_id":"levelo_inurba_marseille","lat":43.290336,"lon":5.386425,"is_reserved":false,"is_disabled":false,"rental_uris":{"android":"levelo://app?vid=33d01265-197a-4614-9ada-40dd09b96df8","ios":"levelo://app?vid=33d01265-197a-4614-9ada-40dd09b96df8"},"vehicle_type_id":"4","last_reported":1706479601,"current_range_meters":22400,"station_id":"ce4bh4p2rcd13ifvqe0g","pricing_plan_id":"free"},{"bike_id":"bff769b0-ed80-4d7c-9b01-5d1cf6bcdbf1","system_id":"levelo_inurba_marseille","lat":43.30263,"lon":5.40064,"is_reserved":false,"is_disabled":false,"rental_uris":{"android":"levelo://app?vid=bff769b0-ed80-4d7c-9b01-5d1cf6bcdbf1","ios":"levelo://app?vid=bff769b0-ed80-4d7c-9b01-5d1cf6bcdbf1"},"vehicle_type_id":"4","last_reported":1706479601,"current_range_meters":28800,"station_id":"ce4bgvh2rcd13ifvqcs0","pricing_plan_id":"free"},{"bike_id":"457bd1ac-beda-4701-814c-d8c9d0549b31","system_id":"levelo_inurba_marseille","lat":43.30239,"lon":5.40051,"is_reserved":false,"is_disabled":false,"rental_uris":{"android":"levelo://app?vid=457bd1ac-beda-4701-814c-d8c9d0549b31","ios":"levelo://app?vid=457bd1ac-beda-4701-814c-d8c9d0549b31"},"vehicle_type_id":"4","last_reported":1706479601,"current_range_meters":12000,"station_id":"ce4bgvh2rcd13ifvqcs0","pricing_plan_id":"free"},{"bike_id":"44d8e80c-2d07-42ee-86db-a4e0a9f454c2","system_id":"levelo_inurba_marseille","lat":43.290336,"lon":5.386425,"is_reserved":false,"is_disabled":false,"rental_uris":{"android":"levelo://app?vid=44d8e80c-2d07-42ee-86db-a4e0a9f454c2","ios":"levelo://app?vid=44d8e80c-2d07-42ee-86db-a4e0a9f454c2"},"vehicle_type_id":"4","last_reported":1706479601,"current_range_meters":22000,"station_id":"ce4bh4p2rcd13ifvqe0g","pricing_plan_id":"free"},{"bike_id":"2f67a247-adad-40aa-8815-0d67d3e221c8","system_id":"levelo_inurba_marseille","lat":43.30237,"lon":5.40055,"is_reserved":false,"is_disabled":false,"rental_uris":{"android":"levelo://app?vid=2f67a247-adad-40aa-8815-0d67d3e221c8","ios":"levelo://app?vid=2f67a247-adad-40aa-8815-0d67d3e221c8"},"vehicle_type_id":"4","last_reported":1706479601,"current_range_meters":9200,"station_id":"ce4bgvh2rcd13ifvqcs0","pricing_plan_id":"free"},{"bike_id":"183bb1c1-398f-466c-b05d-327ac4efc436","system_id":"levelo_inurba_marseille","lat":43.302511,"lon":5.400653,"is_reserved":false,"is_disabled":false,"rental_uris":{"android":"levelo://app?vid=183bb1c1-398f-466c-b05d-327ac4efc436","ios":"levelo://app?vid=183bb1c1-398f-466c-b05d-327ac4efc436"},"vehicle_type_id":"4","last_reported":1706479601,"current_range_meters":9600,"station_id":"ce4bgth2rcd13ifvqch0","pricing_plan_id":"free"},{"bike_id":"8ce4cd94-d241-416b-98b5-1fad40afc22f","system_id":"levelo_inurba_marseille","lat":43.302497,"lon":5.400685,"is_reserved":false,"is_disabled":false,"rental_uris":{"android":"levelo://app?vid=8ce4cd94-d241-416b-98b5-1fad40afc22f","ios":"levelo://app?vid=8ce4cd94-d241-416b-98b5-1fad40afc22f"},"vehicle_type_id":"4","last_reported":1706479601,"current_range_meters":23600,"station_id":"ce4bgvh2rcd13ifvqcs0","pricing_plan_id":"free"},{"bike_id":"515e1fe5-b974-4195-b1ec-87c9da63720f","system_id":"levelo_inurba_marseille","lat":43.30276,"lon":5.40089,"is_reserved":false,"is_disabled":false,"rental_uris":{"android":"levelo://app?vid=515e1fe5-b974-4195-b1ec-87c9da63720f","ios":"levelo://app?vid=515e1fe5-b974-4195-b1ec-87c9da63720f"},"vehicle_type_id":"4","last_reported":1706479601,"current_range_meters":13200,"station_id":"ce4bgvh2rcd13ifvqcs0","pricing_plan_id":"free"},{"bike_id":"16c44f57-a586-411e-b85b-4c7755c62483","system_id":"levelo_inurba_marseille","lat":43.302564,"lon":5.40081,"is_reserved":false,"is_disabled":false,"rental_uris":{"android":"levelo://app?vid=16c44f57-a586-411e-b85b-4c7755c62483","ios":"levelo://app?vid=16c44f57-a586-411e-b85b-4c7755c62483"},"vehicle_type_id":"4","last_reported":1706479601,"current_range_meters":22800,"station_id":"ce4bgvh2rcd13ifvqcs0","pricing_plan_id":"free"},{"bike_id":"c186c9c7-dfbe-4eda-9b9d-956d82fe1b01","system_id":"levelo_inurba_marseille","lat":43.302513,"lon":5.40081,"is_reserved":false,"is_disabled":false,"rental_uris":{"android":"levelo://app?vid=c186c9c7-dfbe-4eda-9b9d-956d82fe1b01","ios":"levelo://app?vid=c186c9c7-dfbe-4eda-9b9d-956d82fe1b01"},"vehicle_type_id":"4","last_reported":1706479601,"current_range_meters":6800,"station_id":"ce4bgvh2rcd13ifvqcs0","pricing_plan_id":"free"},{"bike_id":"ab8c78d8-9395-4afe-b308-2e591173c381","system_id":"levelo_inurba_marseille","lat":43.286039,"lon":5.370679,"is_reserved":false,"is_disabled":false,"rental_uris":{"android":"levelo://app?vid=ab8c78d8-9395-4afe-b308-2e591173c381","ios":"levelo://app?vid=ab8c78d8-9395-4afe-b308-2e591173c381"},"vehicle_type_id":"4","last_reported":1706479601,"current_range_meters":26000,"station_id":"ce4bht12rcd13ifvqi60","pricing_plan_id":"free"},{"bike_id":"68d146a5-db17-4603-83b9-70b26e40a7b6","system_id":"levelo_inurba_marseille","lat":43.287184,"lon":5.37937,"is_reserved":false,"is_disabled":false,"rental_uris":{"android":"levelo://app?vid=68d146a5-db17-4603-83b9-70b26e40a7b6","ios":"levelo://app?vid=68d146a5-db17-4603-83b9-70b26e40a7b6"},"vehicle_type_id":"4","last_reported":1706479601,"current_range_meters":27200,"station_id":"ce4bh9p2rcd13ifvqec0","pricing_plan_id":"free"},{"bike_id":"1cf8a160-5233-4b11-b3e1-27fda568a5e9","system_id":"levelo_inurba_marseille","lat":43.287185,"lon":5.379373,"is_reserved":false,"is_disabled":false,"rental_uris":{"android":"levelo://app?vid=1cf8a160-5233-4b11-b3e1-27fda568a5e9","ios":"levelo://app?vid=1cf8a160-5233-4b11-b3e1-27fda568a5e9"},"vehicle_type_id":"4","last_reported":1706479601,"current_range_meters":24800,"station_id":"ce4bh9p2rcd13ifvqec0","pricing_plan_id":"free"},{"bike_id":"ccced9e6-e02b-4e52-a605-cce10608f6c8","system_id":"levelo_inurba_marseille","lat":43.287184,"lon":5.37937,"is_reserved":false,"is_disabled":false,"rental_uris":{"android":"levelo://app?vid=ccced9e6-e02b-4e52-a605-cce10608f6c8","ios":"levelo://app?vid=ccced9e6-e02b-4e52-a605-cce10608f6c8"},"vehicle_type_id":"4","last_reported":1706479601,"current_range_meters":26000,"station_id":"ce4bh9p2rcd13ifvqec0","pricing_plan_id":"free"},{"bike_id":"d9129c8a-6b9d-4e3e-93a7-efcfb7a5a90a","system_id":"levelo_inurba_marseille","lat":43.287184,"lon":5.37937,"is_reserved":false,"is_disabled":false,"rental_uris":{"android":"levelo://app?vid=d9129c8a-6b9d-4e3e-93a7-efcfb7a5a90a","ios":"levelo://app?vid=d9129c8a-6b9d-4e3e-93a7-efcfb7a5a90a"},"vehicle_type_id":"4","last_reported":1706479601,"current_range_meters":20800,"station_id":"ce4bh9p2rcd13ifvqec0","pricing_plan_id":"free"},{"bike_id":"a57b6e86-c39a-492f-9de0-2450e11239f2","system_id":"levelo_inurba_marseille","lat":43.291994,"lon":5.392907,"is_reserved":false,"is_disabled":false,"rental_uris":{"android":"levelo://app?vid=a57b6e86-c39a-492f-9de0-2450e11239f2","ios":"levelo://app?vid=a57b6e86-c39a-492f-9de0-2450e11239f2"},"vehicle_type_id":"4","last_reported":1706479601,"current_range_meters":26000,"station_id":"ce4bh192rcd13ifvqdd0","pricing_plan_id":"free"},{"bike_id":"33226beb-0913-4a8d-92d7-dbf952bd2dac","system_id":"levelo_inurba_marseille","lat":43.284538,"lon":5.358657,"is_reserved":false,"is_disabled":false,"rental_uris":{"android":"levelo://app?vid=33226beb-0913-4a8d-92d7-dbf952bd2dac","ios":"levelo://app?vid=33226beb-0913-4a8d-92d7-dbf952bd2dac"},"vehicle_type_id":"4","last_reported":1706479601,"current_range_meters":16000,"station_id":"ce4bhah2rcd13ifvqei0","pricing_plan_id":"free"},{"bike_id":"c4f853f8-612e-4d8c-a862-ee54ae74bfd2","system_id":"levelo_inurba_marseille","lat":43.284538,"lon":5.358657,"is_reserved":false,"is_disabled":false,"rental_uris":{"android":"levelo://app?vid=c4f853f8-612e-4d8c-a862-ee54ae74bfd2","ios":"levelo://app?vid=c4f853f8-612e-4d8c-a862-ee54ae74bfd2"},"vehicle_type_id":"4","last_reported":1706479601,"current_range_meters":19600,"station_id":"ce4bhah2rcd13ifvqei0","pricing_plan_id":"free"},{"bike_id":"f29266fc-0acf-4248-a99e-69e2ac19b4ca","system_id":"levelo_inurba_marseille","lat":43.284534,"lon":5.358662,"is_reserved":false,"is_disabled":false,"rental_uris":{"android":"levelo://app?vid=f29266fc-0acf-4248-a99e-69e2ac19b4ca","ios":"levelo://app?vid=f29266fc-0acf-4248-a99e-69e2ac19b4ca"},"vehicle_type_id":"4","last_reported":1706479601,"current_range_meters":25200,"station_id":"ce4bhah2rcd13ifvqei0","pricing_plan_id":"free"},{"bike_id":"29dea693-6583-4cf6-b7fd-120e8590f8f7","system_id":"levelo_inurba_marseille","lat":43.294314,"lon":5.397498,"is_reserved":false,"is_disabled":false,"rental_uris":{"android":"levelo://app?vid=29dea693-6583-4cf6-b7fd-120e8590f8f7","ios":"levelo://app?vid=29dea693-6583-4cf6-b7fd-120e8590f8f7"},"vehicle_type_id":"4","last_reported":1706479601,"current_range_meters":5600,"station_id":"ce4bh3h2rcd13ifvqdo0","pricing_plan_id":"free"},{"bike_id":"f0d68e98-b7d9-4436-a817-67a72da8d1b6","system_id":"levelo_inurba_marseille","lat":43.285856,"lon":5.350771,"is_reserved":false,"is_disabled":false,"rental_uris":{"android":"levelo://app?vid=f0d68e98-b7d9-4436-a817-67a72da8d1b6","ios":"levelo://app?vid=f0d68e98-b7d9-4436-a817-67a72da8d1b6"},"vehicle_type_id":"4","last_reported":1706479601,"current_range_meters":5600,"station_id":"ce4bhch2rcd13ifvqeug","pricing_plan_id":"free"},{"bike_id":"13c2de7b-78cc-467c-ac0b-7bc779d9cb45","system_id":"levelo_inurba_marseille","lat":43.285856,"lon":5.350771,"is_reserved":false,"is_disabled":false,"rental_uris":{"android":"levelo://app?vid=13c2de7b-78cc-467c-ac0b-7bc779d9cb45","ios":"levelo://app?vid=13c2de7b-78cc-467c-ac0b-7bc779d9cb45"},"vehicle_type_id":"4","last_reported":1706479601,"current_range_meters":17600,"station_id":"ce4bhch2rcd13ifvqeug","pricing_plan_id":"free"},{"bike_id":"75e659cb-e8d8-45fb-a3c7-34a9bfeb1d40","system_id":"levelo_inurba_marseille","lat":43.283998,"lon":5.375062,"is_reserved":false,"is_disabled":false,"rental_uris":{"android":"levelo://app?vid=75e659cb-e8d8-45fb-a3c7-34a9bfeb1d40","ios":"levelo://app?vid=75e659cb-e8d8-45fb-a3c7-34a9bfeb1d40"},"vehicle_type_id":"4","last_reported":1706479601,"current_range_meters":18800,"station_id":"ce4bh412rcd13ifvqds0","pricing_plan_id":"free"},{"bike_id":"e9570744-b9a9-4e2d-9be7-4e2bbca86e4e","system_id":"levelo_inurba_marseille","lat":43.283998,"lon":5.375062,"is_reserved":false,"is_disabled":false,"rental_uris":{"android":"levelo://app?vid=e9570744-b9a9-4e2d-9be7-4e2bbca86e4e","ios":"levelo://app?vid=e9570744-b9a9-4e2d-9be7-4e2bbca86e4e"},"vehicle_type_id":"4","last_reported":1706479601,"current_range_meters":2000,"station_id":"ce4bh412rcd13ifvqds0","pricing_plan_id":"free"},{"bike_id":"9f4709db-5de1-40f0-b586-69efe05d7225","system_id":"levelo_inurba_marseille","lat":43.295713,"lon":5.399639,"is_reserved":false,"is_disabled":false,"rental_uris":{"android":"levelo://app?vid=9f4709db-5de1-40f0-b586-69efe05d7225","ios":"levelo://app?vid=9f4709db-5de1-40f0-b586-69efe05d7225"},"vehicle_type_id":"4","last_reported":1706479601,"current_range_meters":22400,"station_id":"ce4bh312rcd13ifvqdj0","pricing_plan_id":"free"},{"bike_id":"e175d93a-d1a8-43be-8ad7-0c9de711e552","system_id":"levelo_inurba_marseille","lat":43.295713,"lon":5.399639,"is_reserved":false,"is_disabled":false,"rental_uris":{"android":"levelo://app?vid=e175d93a-d1a8-43be-8ad7-0c9de711e552","ios":"levelo://app?vid=e175d93a-d1a8-43be-8ad7-0c9de711e552"},"vehicle_type_id":"4","last_reported":1706479601,"current_range_meters":7200,"station_id":"ce4bh312rcd13ifvqdj0","pricing_plan_id":"free"},{"bike_id":"f17024b9-d4d3-4663-9f7c-d87f35531402","system_id":"levelo_inurba_marseille","lat":43.295713,"lon":5.399639,"is_reserved":false,"is_disabled":false,"rental_uris":{"android":"levelo://app?vid=f17024b9-d4d3-4663-9f7c-d87f35531402","ios":"levelo://app?vid=f17024b9-d4d3-4663-9f7c-d87f35531402"},"vehicle_type_id":"4","last_reported":1706479601,"current_range_meters":31200,"station_id":"ce4bh312rcd13ifvqdj0","pricing_plan_id":"free"},{"bike_id":"aa685f7d-224a-426e-9d15-27133e02e39e","system_id":"levelo_inurba_marseille","lat":43.295713,"lon":5.399639,"is_reserved":false,"is_disabled":false,"rental_uris":{"android":"levelo://app?vid=aa685f7d-224a-426e-9d15-27133e02e39e","ios":"levelo://app?vid=aa685f7d-224a-426e-9d15-27133e02e39e"},"vehicle_type_id":"4","last_reported":1706479601,"current_range_meters":28400,"station_id":"ce4bh312rcd13ifvqdj0","pricing_plan_id":"free"},{"bike_id":"8ae8b3d8-f5c8-4afd-8579-8d0eda7a8a78","system_id":"levelo_inurba_marseille","lat":43.28682,"lon":5.38678,"is_reserved":false,"is_disabled":false,"rental_uris":{"android":"levelo://app?vid=8ae8b3d8-f5c8-4afd-8579-8d0eda7a8a78","ios":"levelo://app?vid=8ae8b3d8-f5c8-4afd-8579-8d0eda7a8a78"},"vehicle_type_id":"4","last_reported":1706479601,"current_range_meters":4400,"station_id":"ce4bh492rcd13ifvqdug","pricing_plan_id":"free"},{"bike_id":"fa41fefc-ca37-48ce-9af2-0c9f5f131c38","system_id":"levelo_inurba_marseille","lat":43.291994,"lon":5.392907,"is_reserved":false,"is_disabled":false,"rental_uris":{"android":"levelo://app?vid=fa41fefc-ca37-48ce-9af2-0c9f5f131c38","ios":"levelo://app?vid=fa41fefc-ca37-48ce-9af2-0c9f5f131c38"},"vehicle_type_id":"4","last_reported":1706479601,"current_range_meters":8800,"station_id":"ce4bh192rcd13ifvqdd0","pricing_plan_id":"free"},{"bike_id":"50b1af7f-697c-456a-b2c0-aaf507c51a13","system_id":"levelo_inurba_marseille","lat":43.33717,"lon":5.391857,"is_reserved":false,"is_disabled":false,"rental_uris":{"android":"levelo://app?vid=50b1af7f-697c-456a-b2c0-aaf507c51a13","ios":"levelo://app?vid=50b1af7f-697c-456a-b2c0-aaf507c51a13"},"vehicle_type_id":"4","last_reported":1706479601,"current_range_meters":27200,"station_id":"ce4bhr92rcd13ifvqhsg","pricing_plan_id":"free"},{"bike_id":"966dc777-e017-4bae-b924-de46490d2c46","system_id":"levelo_inurba_marseille","lat":43.337168,"lon":5.391825,"is_reserved":false,"is_disabled":false,"rental_uris":{"android":"levelo://app?vid=966dc777-e017-4bae-b924-de46490d2c46","ios":"levelo://app?vid=966dc777-e017-4bae-b924-de46490d2c46"},"vehicle_type_id":"4","last_reported":1706479601,"current_range_meters":27600,"station_id":"ce4bhr92rcd13ifvqhsg","pricing_plan_id":"free"},{"bike_id":"8fc53198-51a9-40b0-8b16-139828f2e09a","system_id":"levelo_inurba_marseille","lat":43.284793,"lon":5.384113,"is_reserved":false,"is_disabled":false,"rental_uris":{"android":"levelo://app?vid=8fc53198-51a9-40b0-8b16-139828f2e09a","ios":"levelo://app?vid=8fc53198-51a9-40b0-8b16-139828f2e09a"},"vehicle_type_id":"4","last_reported":1706479601,"current_range_meters":23600,"station_id":"ce4bh512rcd13ifvqe3g","pricing_plan_id":"free"},{"bike_id":"7524291a-e968-4206-a6dd-bce9b000716a","system_id":"levelo_inurba_marseille","lat":43.288497,"lon":5.393089,"is_reserved":false,"is_disabled":false,"rental_uris":{"android":"levelo://app?vid=7524291a-e968-4206-a6dd-bce9b000716a","ios":"levelo://app?vid=7524291a-e968-4206-a6dd-bce9b000716a"},"vehicle_type_id":"4","last_reported":1706479601,"current_range_meters":9200,"station_id":"ce4bh2p2rcd13ifvqdi0","pricing_plan_id":"free"},{"bike_id":"e55b9a05-46d9-46c3-8c81-5de0ae3ad1d6","system_id":"levelo_inurba_marseille","lat":43.297946,"lon":5.404063,"is_reserved":false,"is_disabled":false,"rental_uris":{"android":"levelo://app?vid=e55b9a05-46d9-46c3-8c81-5de0ae3ad1d6","ios":"levelo://app?vid=e55b9a05-46d9-46c3-8c81-5de0ae3ad1d6"},"vehicle_type_id":"4","last_reported":1706479601,"current_range_meters":18800,"station_id":"ce4bh112rcd13ifvqd90","pricing_plan_id":"free"},{"bike_id":"105c5cb9-9b27-498c-b745-9d0bea142788","system_id":"levelo_inurba_marseille","lat":43.297946,"lon":5.404063,"is_reserved":false,"is_disabled":false,"rental_uris":{"android":"levelo://app?vid=105c5cb9-9b27-498c-b745-9d0bea142788","ios":"levelo://app?vid=105c5cb9-9b27-498c-b745-9d0bea142788"},"vehicle_type_id":"4","last_reported":1706479601,"current_range_meters":28800,"station_id":"ce4bh112rcd13ifvqd90","pricing_plan_id":"free"},{"bike_id":"bfb48fa8-e6f6-4cfd-b26c-85ffc56c4c7b","system_id":"levelo_inurba_marseille","lat":43.288497,"lon":5.393089,"is_reserved":false,"is_disabled":false,"rental_uris":{"android":"levelo://app?vid=bfb48fa8-e6f6-4cfd-b26c-85ffc56c4c7b","ios":"levelo://app?vid=bfb48fa8-e6f6-4cfd-b26c-85ffc56c4c7b"},"vehicle_type_id":"4","last_reported":1706479601,"current_range_meters":8000,"station_id":"ce4bh2p2rcd13ifvqdi0","pricing_plan_id":"free"},{"bike_id":"21c5a5da-f12f-4e86-ad8a-e9abdab4cc93","system_id":"levelo_inurba_marseille","lat":43.288497,"lon":5.393089,"is_reserved":false,"is_disabled":false,"rental_uris":{"android":"levelo://app?vid=21c5a5da-f12f-4e86-ad8a-e9abdab4cc93","ios":"levelo://app?vid=21c5a5da-f12f-4e86-ad8a-e9abdab4cc93"},"vehicle_type_id":"4","last_reported":1706479601,"current_range_meters":400,"station_id":"ce4bh2p2rcd13ifvqdi0","pricing_plan_id":"free"},{"bike_id":"d020c4c0-5a74-48cf-8002-4648c21e4b40","system_id":"levelo_inurba_marseille","lat":43.28348,"lon":5.38104,"is_reserved":false,"is_disabled":false,"rental_uris":{"android":"levelo://app?vid=d020c4c0-5a74-48cf-8002-4648c21e4b40","ios":"levelo://app?vid=d020c4c0-5a74-48cf-8002-4648c21e4b40"},"vehicle_type_id":"4","last_reported":1706479601,"current_range_meters":0,"station_id":"ce4bh412rcd13ifvqdr0","pricing_plan_id":"free"},{"bike_id":"d4f5b869-08af-45f4-9ad6-25daf312d4eb","system_id":"levelo_inurba_marseille","lat":43.288497,"lon":5.393089,"is_reserved":false,"is_disabled":false,"rental_uris":{"android":"levelo://app?vid=d4f5b869-08af-45f4-9ad6-25daf312d4eb","ios":"levelo://app?vid=d4f5b869-08af-45f4-9ad6-25daf312d4eb"},"vehicle_type_id":"4","last_reported":1706479601,"current_range_meters":15200,"station_id":"ce4bh2p2rcd13ifvqdi0","pricing_plan_id":"free"},{"bike_id":"7e5f4e6b-6242-43bf-ad05-a8c1ee5b086d","system_id":"levelo_inurba_marseille","lat":43.28944,"lon":5.39624,"is_reserved":false,"is_disabled":false,"rental_uris":{"android":"levelo://app?vid=7e5f4e6b-6242-43bf-ad05-a8c1ee5b086d","ios":"levelo://app?vid=7e5f4e6b-6242-43bf-ad05-a8c1ee5b086d"},"vehicle_type_id":"4","last_reported":1706479601,"current_range_meters":19200,"station_id":"ce4bh3h2rcd13ifvqdn0","pricing_plan_id":"free"},{"bike_id":"b41bcd76-cb12-4b33-95cd-9444d1e23578","system_id":"levelo_inurba_marseille","lat":43.293556,"lon":5.401561,"is_reserved":false,"is_disabled":false,"rental_uris":{"android":"levelo://app?vid=b41bcd76-cb12-4b33-95cd-9444d1e23578","ios":"levelo://app?vid=b41bcd76-cb12-4b33-95cd-9444d1e23578"},"vehicle_type_id":"4","last_reported":1706479601,"current_range_meters":4800,"station_id":"","pricing_plan_id":"free"},{"bike_id":"73cd8cf0-bed9-43b6-a70f-c3f2d03c695c","system_id":"levelo_inurba_marseille","lat":43.289363,"lon":5.396322,"is_reserved":false,"is_disabled":false,"rental_uris":{"android":"levelo://app?vid=73cd8cf0-bed9-43b6-a70f-c3f2d03c695c","ios":"levelo://app?vid=73cd8cf0-bed9-43b6-a70f-c3f2d03c695c"},"vehicle_type_id":"4","last_reported":1706479601,"current_range_meters":30000,"station_id":"ce4bh3h2rcd13ifvqdn0","pricing_plan_id":"free"},{"bike_id":"6d191f29-0d73-4ff1-8c43-c6f61b09ce5e","system_id":"levelo_inurba_marseille","lat":43.33717,"lon":5.391857,"is_reserved":false,"is_disabled":false,"rental_uris":{"android":"levelo://app?vid=6d191f29-0d73-4ff1-8c43-c6f61b09ce5e","ios":"levelo://app?vid=6d191f29-0d73-4ff1-8c43-c6f61b09ce5e"},"vehicle_type_id":"4","last_reported":1706479601,"current_range_meters":24400,"station_id":"ce4bhr92rcd13ifvqhsg","pricing_plan_id":"free"},{"bike_id":"0b22fdba-3ffe-4570-84d3-15081e84779e","system_id":"levelo_inurba_marseille","lat":43.292724,"lon":5.401131,"is_reserved":false,"is_disabled":false,"rental_uris":{"android":"levelo://app?vid=0b22fdba-3ffe-4570-84d3-15081e84779e","ios":"levelo://app?vid=0b22fdba-3ffe-4570-84d3-15081e84779e"},"vehicle_type_id":"4","last_reported":1706479601,"current_range_meters":24400,"station_id":"ce4bh312rcd13ifvqdk0","pricing_plan_id":"free"},{"bike_id":"5293dfea-e2fb-44a8-bc35-6dd8ed6d6e89","system_id":"levelo_inurba_marseille","lat":43.292724,"lon":5.401131,"is_reserved":false,"is_disabled":false,"rental_uris":{"android":"levelo://app?vid=5293dfea-e2fb-44a8-bc35-6dd8ed6d6e89","ios":"levelo://app?vid=5293dfea-e2fb-44a8-bc35-6dd8ed6d6e89"},"vehicle_type_id":"4","last_reported":1706479601,"current_range_meters":21200,"station_id":"ce4bh312rcd13ifvqdk0","pricing_plan_id":"free"},{"bike_id":"315dcb88-0004-4e8d-b9e8-5551bbc506cd","system_id":"levelo_inurba_marseille","lat":43.292724,"lon":5.401131,"is_reserved":false,"is_disabled":false,"rental_uris":{"android":"levelo://app?vid=315dcb88-0004-4e8d-b9e8-5551bbc506cd","ios":"levelo://app?vid=315dcb88-0004-4e8d-b9e8-5551bbc506cd"},"vehicle_type_id":"4","last_reported":1706479601,"current_range_meters":18800,"station_id":"ce4bh312rcd13ifvqdk0","pricing_plan_id":"free"},{"bike_id":"78495cb0-0f15-49dc-9fd3-d8685a3a16e3","system_id":"levelo_inurba_marseille","lat":43.28278,"lon":5.35079,"is_reserved":false,"is_disabled":false,"rental_uris":{"android":"levelo://app?vid=78495cb0-0f15-49dc-9fd3-d8685a3a16e3","ios":"levelo://app?vid=78495cb0-0f15-49dc-9fd3-d8685a3a16e3"},"vehicle_type_id":"4","last_reported":1706479601,"current_range_meters":0,"station_id":"ce4bhbp2rcd13ifvqerg","pricing_plan_id":"free"},{"bike_id":"ebc081b3-d9eb-43e8-9994-accb1a1dd961","system_id":"levelo_inurba_marseille","lat":43.282804,"lon":5.350465,"is_reserved":false,"is_disabled":false,"rental_uris":{"android":"levelo://app?vid=ebc081b3-d9eb-43e8-9994-accb1a1dd961","ios":"levelo://app?vid=ebc081b3-d9eb-43e8-9994-accb1a1dd961"},"vehicle_type_id":"4","last_reported":1706479601,"current_range_meters":16400,"station_id":"ce4bhbp2rcd13ifvqerg","pricing_plan_id":"free"},{"bike_id":"691c7b8a-189c-4630-9d44-c5bbbb1e84e9","system_id":"levelo_inurba_marseille","lat":43.28039,"lon":5.369297,"is_reserved":false,"is_disabled":false,"rental_uris":{"android":"levelo://app?vid=691c7b8a-189c-4630-9d44-c5bbbb1e84e9","ios":"levelo://app?vid=691c7b8a-189c-4630-9d44-c5bbbb1e84e9"},"vehicle_type_id":"4","last_reported":1706479601,"current_range_meters":5200,"station_id":"ce4bha12rcd13ifvqef0","pricing_plan_id":"free"},{"bike_id":"4daef16f-a81e-4042-ac05-8ea3d1dc7d72","system_id":"levelo_inurba_marseille","lat":43.28039,"lon":5.369297,"is_reserved":false,"is_disabled":false,"rental_uris":{"android":"levelo://app?vid=4daef16f-a81e-4042-ac05-8ea3d1dc7d72","ios":"levelo://app?vid=4daef16f-a81e-4042-ac05-8ea3d1dc7d72"},"vehicle_type_id":"4","last_reported":1706479601,"current_range_meters":19600,"station_id":"ce4bha12rcd13ifvqef0","pricing_plan_id":"free"},{"bike_id":"bf9ed574-e30d-4a10-8da6-63d6e69cd454","system_id":"levelo_inurba_marseille","lat":43.28039,"lon":5.369297,"is_reserved":false,"is_disabled":false,"rental_uris":{"android":"levelo://app?vid=bf9ed574-e30d-4a10-8da6-63d6e69cd454","ios":"levelo://app?vid=bf9ed574-e30d-4a10-8da6-63d6e69cd454"},"vehicle_type_id":"4","last_reported":1706479601,"current_range_meters":29600,"station_id":"ce4bha12rcd13ifvqef0","pricing_plan_id":"free"},{"bike_id":"b7e40e60-ab73-43ee-adce-7a3e6a92e6b4","system_id":"levelo_inurba_marseille","lat":43.290412,"lon":5.399633,"is_reserved":false,"is_disabled":false,"rental_uris":{"android":"levelo://app?vid=b7e40e60-ab73-43ee-adce-7a3e6a92e6b4","ios":"levelo://app?vid=b7e40e60-ab73-43ee-adce-7a3e6a92e6b4"},"vehicle_type_id":"4","last_reported":1706479601,"current_range_meters":12000,"station_id":"ce4bh392rcd13ifvqdm0","pricing_plan_id":"free"},{"bike_id":"3deb0238-d67a-4e2a-9fc0-e02c13638bb3","system_id":"levelo_inurba_marseille","lat":43.281044,"lon":5.378308,"is_reserved":false,"is_disabled":false,"rental_uris":{"android":"levelo://app?vid=3deb0238-d67a-4e2a-9fc0-e02c13638bb3","ios":"levelo://app?vid=3deb0238-d67a-4e2a-9fc0-e02c13638bb3"},"vehicle_type_id":"4","last_reported":1706479601,"current_range_meters":25200,"station_id":"ce4bha12rcd13ifvqee0","pricing_plan_id":"free"},{"bike_id":"15e1bd66-ab98-423e-9c25-75b4378a8677","system_id":"levelo_inurba_marseille","lat":43.281044,"lon":5.378308,"is_reserved":false,"is_disabled":false,"rental_uris":{"android":"levelo://app?vid=15e1bd66-ab98-423e-9c25-75b4378a8677","ios":"levelo://app?vid=15e1bd66-ab98-423e-9c25-75b4378a8677"},"vehicle_type_id":"4","last_reported":1706479601,"current_range_meters":20800,"station_id":"ce4bha12rcd13ifvqee0","pricing_plan_id":"free"},{"bike_id":"163c4c8d-eed8-49ab-bef2-abac36eeb54a","system_id":"levelo_inurba_marseille","lat":43.281044,"lon":5.378308,"is_reserved":false,"is_disabled":false,"rental_uris":{"android":"levelo://app?vid=163c4c8d-eed8-49ab-bef2-abac36eeb54a","ios":"levelo://app?vid=163c4c8d-eed8-49ab-bef2-abac36eeb54a"},"vehicle_type_id":"4","last_reported":1706479601,"current_range_meters":18000,"station_id":"ce4bha12rcd13ifvqee0","pricing_plan_id":"free"},{"bike_id":"8c0c3c8a-e026-4418-804f-bf7404a65bce","system_id":"levelo_inurba_marseille","lat":43.284462,"lon":5.392121,"is_reserved":false,"is_disabled":false,"rental_uris":{"android":"levelo://app?vid=8c0c3c8a-e026-4418-804f-bf7404a65bce","ios":"levelo://app?vid=8c0c3c8a-e026-4418-804f-bf7404a65bce"},"vehicle_type_id":"4","last_reported":1706479601,"current_range_meters":28800,"station_id":"ce4bhoh2rcd13ifvqh5g","pricing_plan_id":"free"},{"bike_id":"6d182c3f-374d-4d4b-b350-564478db917d","system_id":"levelo_inurba_marseille","lat":43.284462,"lon":5.392121,"is_reserved":false,"is_disabled":false,"rental_uris":{"android":"levelo://app?vid=6d182c3f-374d-4d4b-b350-564478db917d","ios":"levelo://app?vid=6d182c3f-374d-4d4b-b350-564478db917d"},"vehicle_type_id":"4","last_reported":1706479601,"current_range_meters":10400,"station_id":"ce4bhoh2rcd13ifvqh5g","pricing_plan_id":"free"},{"bike_id":"13e8d3dc-27c8-4c6a-b6e9-ce88c6250eac","system_id":"levelo_inurba_marseille","lat":43.284462,"lon":5.392121,"is_reserved":false,"is_disabled":false,"rental_uris":{"android":"levelo://app?vid=13e8d3dc-27c8-4c6a-b6e9-ce88c6250eac","ios":"levelo://app?vid=13e8d3dc-27c8-4c6a-b6e9-ce88c6250eac"},"vehicle_type_id":"4","last_reported":1706479601,"current_range_meters":29200,"station_id":"ce4bhoh2rcd13ifvqh5g","pricing_plan_id":"free"},{"bike_id":"ab3db00c-e8f9-47b9-a334-9ae608f7ecb5","system_id":"levelo_inurba_marseille","lat":43.284462,"lon":5.392121,"is_reserved":false,"is_disabled":false,"rental_uris":{"android":"levelo://app?vid=ab3db00c-e8f9-47b9-a334-9ae608f7ecb5","ios":"levelo://app?vid=ab3db00c-e8f9-47b9-a334-9ae608f7ecb5"},"vehicle_type_id":"4","last_reported":1706479601,"current_range_meters":31200,"station_id":"ce4bhoh2rcd13ifvqh5g","pricing_plan_id":"free"},{"bike_id":"e7746dc2-aa23-4e9f-a773-c6b300fb73a4","system_id":"levelo_inurba_marseille","lat":43.284462,"lon":5.392121,"is_reserved":false,"is_disabled":false,"rental_uris":{"android":"levelo://app?vid=e7746dc2-aa23-4e9f-a773-c6b300fb73a4","ios":"levelo://app?vid=e7746dc2-aa23-4e9f-a773-c6b300fb73a4"},"vehicle_type_id":"4","last_reported":1706479601,"current_range_meters":0,"station_id":"ce4bhoh2rcd13ifvqh5g","pricing_plan_id":"free"},{"bike_id":"58795cb8-9f55-4c41-8cbf-c945205fb07f","system_id":"levelo_inurba_marseille","lat":43.285742,"lon":5.395004,"is_reserved":false,"is_disabled":false,"rental_uris":{"android":"levelo://app?vid=58795cb8-9f55-4c41-8cbf-c945205fb07f","ios":"levelo://app?vid=58795cb8-9f55-4c41-8cbf-c945205fb07f"},"vehicle_type_id":"4","last_reported":1706479601,"current_range_meters":28800,"station_id":"ce4bh292rcd13ifvqdg0","pricing_plan_id":"free"},{"bike_id":"80966bfb-0318-4e4b-899c-2c9acb98d16b","system_id":"levelo_inurba_marseille","lat":43.28573,"lon":5.394992,"is_reserved":false,"is_disabled":false,"rental_uris":{"android":"levelo://app?vid=80966bfb-0318-4e4b-899c-2c9acb98d16b","ios":"levelo://app?vid=80966bfb-0318-4e4b-899c-2c9acb98d16b"},"vehicle_type_id":"4","last_reported":1706479601,"current_range_meters":30400,"station_id":"ce4bh292rcd13ifvqdg0","pricing_plan_id":"free"},{"bike_id":"ce359fb6-e3d5-45fc-9e26-757bf9375f27","system_id":"levelo_inurba_marseille","lat":43.326605,"lon":5.409903,"is_reserved":false,"is_disabled":false,"rental_uris":{"android":"levelo://app?vid=ce359fb6-e3d5-45fc-9e26-757bf9375f27","ios":"levelo://app?vid=ce359fb6-e3d5-45fc-9e26-757bf9375f27"},"vehicle_type_id":"4","last_reported":1706479601,"current_range_meters":19200,"station_id":"ce4bhpp2rcd13ifvqhgg","pricing_plan_id":"free"},{"bike_id":"490774a6-4917-468e-ac2f-aabcb381f604","system_id":"levelo_inurba_marseille","lat":43.326605,"lon":5.409903,"is_reserved":false,"is_disabled":false,"rental_uris":{"android":"levelo://app?vid=490774a6-4917-468e-ac2f-aabcb381f604","ios":"levelo://app?vid=490774a6-4917-468e-ac2f-aabcb381f604"},"vehicle_type_id":"4","last_reported":1706479601,"current_range_meters":27600,"station_id":"ce4bhpp2rcd13ifvqhgg","pricing_plan_id":"free"},{"bike_id":"1ef7e5cd-4a9d-40ba-94a2-53d89c749181","system_id":"levelo_inurba_marseille","lat":43.326605,"lon":5.409903,"is_reserved":false,"is_disabled":false,"rental_uris":{"android":"levelo://app?vid=1ef7e5cd-4a9d-40ba-94a2-53d89c749181","ios":"levelo://app?vid=1ef7e5cd-4a9d-40ba-94a2-53d89c749181"},"vehicle_type_id":"4","last_reported":1706479601,"current_range_meters":24000,"station_id":"ce4bhpp2rcd13ifvqhgg","pricing_plan_id":"free"},{"bike_id":"84edcbc8-c947-4ac5-b2a3-fea22b50369d","system_id":"levelo_inurba_marseille","lat":43.304188,"lon":5.412904,"is_reserved":false,"is_disabled":false,"rental_uris":{"android":"levelo://app?vid=84edcbc8-c947-4ac5-b2a3-fea22b50369d","ios":"levelo://app?vid=84edcbc8-c947-4ac5-b2a3-fea22b50369d"},"vehicle_type_id":"4","last_reported":1706479601,"current_range_meters":4800,"station_id":"ce4bhop2rcd13ifvqh8g","pricing_plan_id":"free"},{"bike_id":"239b9a30-29a8-4c5a-8a84-bab33037e6d7","system_id":"levelo_inurba_marseille","lat":43.287154,"lon":5.399979,"is_reserved":false,"is_disabled":false,"rental_uris":{"android":"levelo://app?vid=239b9a30-29a8-4c5a-8a84-bab33037e6d7","ios":"levelo://app?vid=239b9a30-29a8-4c5a-8a84-bab33037e6d7"},"vehicle_type_id":"4","last_reported":1706479601,"current_range_meters":400,"station_id":"ce4bho92rcd13ifvqh3g","pricing_plan_id":"free"},{"bike_id":"79601a51-4f7f-483e-a5f6-fd56cd700e18","system_id":"levelo_inurba_marseille","lat":43.287154,"lon":5.399979,"is_reserved":false,"is_disabled":false,"rental_uris":{"android":"levelo://app?vid=79601a51-4f7f-483e-a5f6-fd56cd700e18","ios":"levelo://app?vid=79601a51-4f7f-483e-a5f6-fd56cd700e18"},"vehicle_type_id":"4","last_reported":1706479601,"current_range_meters":5200,"station_id":"ce4bho92rcd13ifvqh3g","pricing_plan_id":"free"},{"bike_id":"95bc093d-037b-418c-8ca9-49bf21875fc5","system_id":"levelo_inurba_marseille","lat":43.287154,"lon":5.399979,"is_reserved":false,"is_disabled":false,"rental_uris":{"android":"levelo://app?vid=95bc093d-037b-418c-8ca9-49bf21875fc5","ios":"levelo://app?vid=95bc093d-037b-418c-8ca9-49bf21875fc5"},"vehicle_type_id":"4","last_reported":1706479601,"current_range_meters":7600,"station_id":"ce4bho92rcd13ifvqh3g","pricing_plan_id":"free"},{"bike_id":"b450793f-e567-4985-ae5c-a58731d7250b","system_id":"levelo_inurba_marseille","lat":43.287154,"lon":5.399979,"is_reserved":false,"is_disabled":false,"rental_uris":{"android":"levelo://app?vid=b450793f-e567-4985-ae5c-a58731d7250b","ios":"levelo://app?vid=b450793f-e567-4985-ae5c-a58731d7250b"},"vehicle_type_id":"4","last_reported":1706479601,"current_range_meters":0,"station_id":"ce4bho92rcd13ifvqh3g","pricing_plan_id":"free"},{"bike_id":"4be11a1e-ea7f-4c6a-b856-d8819dafb363","system_id":"levelo_inurba_marseille","lat":43.287154,"lon":5.399979,"is_reserved":false,"is_disabled":false,"rental_uris":{"android":"levelo://app?vid=4be11a1e-ea7f-4c6a-b856-d8819dafb363","ios":"levelo://app?vid=4be11a1e-ea7f-4c6a-b856-d8819dafb363"},"vehicle_type_id":"4","last_reported":1706479601,"current_range_meters":10800,"station_id":"ce4bho92rcd13ifvqh3g","pricing_plan_id":"free"},{"bike_id":"a539d426-9e55-4e9c-b7bf-13cd28eecf36","system_id":"levelo_inurba_marseille","lat":43.27819,"lon":5.35483,"is_reserved":false,"is_disabled":false,"rental_uris":{"android":"levelo://app?vid=a539d426-9e55-4e9c-b7bf-13cd28eecf36","ios":"levelo://app?vid=a539d426-9e55-4e9c-b7bf-13cd28eecf36"},"vehicle_type_id":"4","last_reported":1706479601,"current_range_meters":7200,"station_id":"","pricing_plan_id":"free"},{"bike_id":"0abc37af-af73-40f3-b304-9fc02323df0a","system_id":"levelo_inurba_marseille","lat":43.27972,"lon":5.38693,"is_reserved":false,"is_disabled":false,"rental_uris":{"android":"levelo://app?vid=0abc37af-af73-40f3-b304-9fc02323df0a","ios":"levelo://app?vid=0abc37af-af73-40f3-b304-9fc02323df0a"},"vehicle_type_id":"4","last_reported":1706479601,"current_range_meters":2400,"station_id":"ce4bhg12rcd13ifvqf80","pricing_plan_id":"free"},{"bike_id":"80fcbb00-f8e9-4fbe-9014-8413c7de3626","system_id":"levelo_inurba_marseille","lat":43.27967,"lon":5.38695,"is_reserved":false,"is_disabled":false,"rental_uris":{"android":"levelo://app?vid=80fcbb00-f8e9-4fbe-9014-8413c7de3626","ios":"levelo://app?vid=80fcbb00-f8e9-4fbe-9014-8413c7de3626"},"vehicle_type_id":"4","last_reported":1706479601,"current_range_meters":1600,"station_id":"ce4bhg12rcd13ifvqf80","pricing_plan_id":"free"},{"bike_id":"ceeeca69-91c9-4a0b-a5e2-b2ad06427d0c","system_id":"levelo_inurba_marseille","lat":43.279742,"lon":5.38744,"is_reserved":false,"is_disabled":false,"rental_uris":{"android":"levelo://app?vid=ceeeca69-91c9-4a0b-a5e2-b2ad06427d0c","ios":"levelo://app?vid=ceeeca69-91c9-4a0b-a5e2-b2ad06427d0c"},"vehicle_type_id":"4","last_reported":1706479601,"current_range_meters":23200,"station_id":"ce4bhg12rcd13ifvqf80","pricing_plan_id":"free"},{"bike_id":"2d65d888-1718-45bd-acd9-e594471f8e29","system_id":"levelo_inurba_marseille","lat":43.279742,"lon":5.38744,"is_reserved":false,"is_disabled":false,"rental_uris":{"android":"levelo://app?vid=2d65d888-1718-45bd-acd9-e594471f8e29","ios":"levelo://app?vid=2d65d888-1718-45bd-acd9-e594471f8e29"},"vehicle_type_id":"4","last_reported":1706479601,"current_range_meters":20000,"station_id":"ce4bhg12rcd13ifvqf80","pricing_plan_id":"free"},{"bike_id":"70e23eb7-b854-44a8-b1fd-e894422b1cba","system_id":"levelo_inurba_marseille","lat":43.292571,"lon":5.409107,"is_reserved":false,"is_disabled":false,"rental_uris":{"android":"levelo://app?vid=70e23eb7-b854-44a8-b1fd-e894422b1cba","ios":"levelo://app?vid=70e23eb7-b854-44a8-b1fd-e894422b1cba"},"vehicle_type_id":"4","last_reported":1706479601,"current_range_meters":30400,"station_id":"ce4bh192rcd13ifvqdc0","pricing_plan_id":"free"},{"bike_id":"c7ff393f-b210-44aa-b6a8-8df578cda838","system_id":"levelo_inurba_marseille","lat":43.325233,"lon":5.414318,"is_reserved":false,"is_disabled":false,"rental_uris":{"android":"levelo://app?vid=c7ff393f-b210-44aa-b6a8-8df578cda838","ios":"levelo://app?vid=c7ff393f-b210-44aa-b6a8-8df578cda838"},"vehicle_type_id":"4","last_reported":1706479601,"current_range_meters":18000,"station_id":"ce4bhq12rcd13ifvqhhg","pricing_plan_id":"free"},{"bike_id":"a41ae808-4eee-4985-bc8a-d09a9154c012","system_id":"levelo_inurba_marseille","lat":43.325233,"lon":5.414318,"is_reserved":false,"is_disabled":false,"rental_uris":{"android":"levelo://app?vid=a41ae808-4eee-4985-bc8a-d09a9154c012","ios":"levelo://app?vid=a41ae808-4eee-4985-bc8a-d09a9154c012"},"vehicle_type_id":"4","last_reported":1706479601,"current_range_meters":22000,"station_id":"ce4bhq12rcd13ifvqhhg","pricing_plan_id":"free"},{"bike_id":"e7218d62-7ac0-49da-8e89-131756f5795c","system_id":"levelo_inurba_marseille","lat":43.303837,"lon":5.418724,"is_reserved":false,"is_disabled":false,"rental_uris":{"android":"levelo://app?vid=e7218d62-7ac0-49da-8e89-131756f5795c","ios":"levelo://app?vid=e7218d62-7ac0-49da-8e89-131756f5795c"},"vehicle_type_id":"4","last_reported":1706479601,"current_range_meters":26800,"station_id":"ce4bhop2rcd13ifvqh7g","pricing_plan_id":"free"},{"bike_id":"7dd58b13-e97f-49f5-b40f-29d7542e0ff8","system_id":"levelo_inurba_marseille","lat":43.303837,"lon":5.418724,"is_reserved":false,"is_disabled":false,"rental_uris":{"android":"levelo://app?vid=7dd58b13-e97f-49f5-b40f-29d7542e0ff8","ios":"levelo://app?vid=7dd58b13-e97f-49f5-b40f-29d7542e0ff8"},"vehicle_type_id":"4","last_reported":1706479601,"current_range_meters":26800,"station_id":"ce4bhop2rcd13ifvqh7g","pricing_plan_id":"free"},{"bike_id":"a89f83d3-c110-405c-9112-d0bb3f460d18","system_id":"levelo_inurba_marseille","lat":43.278401,"lon":5.392152,"is_reserved":false,"is_disabled":false,"rental_uris":{"android":"levelo://app?vid=a89f83d3-c110-405c-9112-d0bb3f460d18","ios":"levelo://app?vid=a89f83d3-c110-405c-9112-d0bb3f460d18"},"vehicle_type_id":"4","last_reported":1706479601,"current_range_meters":31200,"station_id":"ce4bhjp2rcd13ifvqga0","pricing_plan_id":"free"},{"bike_id":"79f8c5da-85bb-4676-a3dd-562af7ae639c","system_id":"levelo_inurba_marseille","lat":43.278401,"lon":5.392152,"is_reserved":false,"is_disabled":false,"rental_uris":{"android":"levelo://app?vid=79f8c5da-85bb-4676-a3dd-562af7ae639c","ios":"levelo://app?vid=79f8c5da-85bb-4676-a3dd-562af7ae639c"},"vehicle_type_id":"4","last_reported":1706479601,"current_range_meters":22000,"station_id":"ce4bhjp2rcd13ifvqga0","pricing_plan_id":"free"},{"bike_id":"143aac9d-d5e8-4d21-bc2a-0a3a63c765c0","system_id":"levelo_inurba_marseille","lat":43.27826,"lon":5.39215,"is_reserved":false,"is_disabled":false,"rental_uris":{"android":"levelo://app?vid=143aac9d-d5e8-4d21-bc2a-0a3a63c765c0","ios":"levelo://app?vid=143aac9d-d5e8-4d21-bc2a-0a3a63c765c0"},"vehicle_type_id":"4","last_reported":1706479601,"current_range_meters":3200,"station_id":"ce4bhjp2rcd13ifvqga0","pricing_plan_id":"free"},{"bike_id":"e18ffe0e-2b9b-43f8-8865-cc49ffbed68c","system_id":"levelo_inurba_marseille","lat":43.275705,"lon":5.384172,"is_reserved":false,"is_disabled":false,"rental_uris":{"android":"levelo://app?vid=e18ffe0e-2b9b-43f8-8865-cc49ffbed68c","ios":"levelo://app?vid=e18ffe0e-2b9b-43f8-8865-cc49ffbed68c"},"vehicle_type_id":"4","last_reported":1706479601,"current_range_meters":6800,"station_id":"ce4bhh92rcd13ifvqfi0","pricing_plan_id":"free"},{"bike_id":"e0f37a4b-61ed-48ae-8e76-1df84d402b25","system_id":"levelo_inurba_marseille","lat":43.273613,"lon":5.362705,"is_reserved":false,"is_disabled":false,"rental_uris":{"android":"levelo://app?vid=e0f37a4b-61ed-48ae-8e76-1df84d402b25","ios":"levelo://app?vid=e0f37a4b-61ed-48ae-8e76-1df84d402b25"},"vehicle_type_id":"4","last_reported":1706479601,"current_range_meters":27600,"station_id":"ce4bhbh2rcd13ifvqeo0","pricing_plan_id":"free"},{"bike_id":"683f5e07-8574-43b4-b819-f0fdbd7dba25","system_id":"levelo_inurba_marseille","lat":43.275625,"lon":5.384392,"is_reserved":false,"is_disabled":false,"rental_uris":{"android":"levelo://app?vid=683f5e07-8574-43b4-b819-f0fdbd7dba25","ios":"levelo://app?vid=683f5e07-8574-43b4-b819-f0fdbd7dba25"},"vehicle_type_id":"4","last_reported":1706479601,"current_range_meters":13200,"station_id":"ce4bhh92rcd13ifvqfi0","pricing_plan_id":"free"},{"bike_id":"a21ba42d-6d86-4b50-a826-fe88e9fd009d","system_id":"levelo_inurba_marseille","lat":43.273609,"lon":5.362708,"is_reserved":false,"is_disabled":false,"rental_uris":{"android":"levelo://app?vid=a21ba42d-6d86-4b50-a826-fe88e9fd009d","ios":"levelo://app?vid=a21ba42d-6d86-4b50-a826-fe88e9fd009d"},"vehicle_type_id":"4","last_reported":1706479601,"current_range_meters":20800,"station_id":"ce4bhbh2rcd13ifvqeo0","pricing_plan_id":"free"},{"bike_id":"447b3785-12b0-46da-a297-728b04251308","system_id":"levelo_inurba_marseille","lat":43.273609,"lon":5.362708,"is_reserved":false,"is_disabled":false,"rental_uris":{"android":"levelo://app?vid=447b3785-12b0-46da-a297-728b04251308","ios":"levelo://app?vid=447b3785-12b0-46da-a297-728b04251308"},"vehicle_type_id":"4","last_reported":1706479601,"current_range_meters":30000,"station_id":"ce4bhbh2rcd13ifvqeo0","pricing_plan_id":"free"},{"bike_id":"44141814-ee4e-484f-8bee-ea81f48f0550","system_id":"levelo_inurba_marseille","lat":43.275625,"lon":5.384392,"is_reserved":false,"is_disabled":false,"rental_uris":{"android":"levelo://app?vid=44141814-ee4e-484f-8bee-ea81f48f0550","ios":"levelo://app?vid=44141814-ee4e-484f-8bee-ea81f48f0550"},"vehicle_type_id":"4","last_reported":1706479601,"current_range_meters":30400,"station_id":"ce4bhh92rcd13ifvqfi0","pricing_plan_id":"free"},{"bike_id":"f6b23bc3-1a76-4992-a0ca-da24604791b9","system_id":"levelo_inurba_marseille","lat":43.336134,"lon":5.410341,"is_reserved":false,"is_disabled":false,"rental_uris":{"android":"levelo://app?vid=f6b23bc3-1a76-4992-a0ca-da24604791b9","ios":"levelo://app?vid=f6b23bc3-1a76-4992-a0ca-da24604791b9"},"vehicle_type_id":"4","last_reported":1706479601,"current_range_meters":9600,"station_id":"ce4bhqh2rcd13ifvqhmg","pricing_plan_id":"free"},{"bike_id":"e480aa76-c554-4dd6-adc1-b12e7fb759f7","system_id":"levelo_inurba_marseille","lat":43.336148,"lon":5.410349,"is_reserved":false,"is_disabled":false,"rental_uris":{"android":"levelo://app?vid=e480aa76-c554-4dd6-adc1-b12e7fb759f7","ios":"levelo://app?vid=e480aa76-c554-4dd6-adc1-b12e7fb759f7"},"vehicle_type_id":"4","last_reported":1706479601,"current_range_meters":16400,"station_id":"ce4bhqh2rcd13ifvqhmg","pricing_plan_id":"free"},{"bike_id":"3e9aa8c8-15ed-4f6a-90f1-b2b525f51d5b","system_id":"levelo_inurba_marseille","lat":43.279952,"lon":5.400085,"is_reserved":false,"is_disabled":false,"rental_uris":{"android":"levelo://app?vid=3e9aa8c8-15ed-4f6a-90f1-b2b525f51d5b","ios":"levelo://app?vid=3e9aa8c8-15ed-4f6a-90f1-b2b525f51d5b"},"vehicle_type_id":"4","last_reported":1706479601,"current_range_meters":28400,"station_id":"ce4bho92rcd13ifvqh4g","pricing_plan_id":"free"},{"bike_id":"6f46a34b-d5d1-4592-8607-98eec5146735","system_id":"levelo_inurba_marseille","lat":43.283745,"lon":5.407129,"is_reserved":false,"is_disabled":false,"rental_uris":{"android":"levelo://app?vid=6f46a34b-d5d1-4592-8607-98eec5146735","ios":"levelo://app?vid=6f46a34b-d5d1-4592-8607-98eec5146735"},"vehicle_type_id":"4","last_reported":1706479601,"current_range_meters":1200,"station_id":"","pricing_plan_id":"free"},