{"last_updated":1683864468,"ttl":30,"version":"2.2","data":{"bikes":[{"bike_id":"0ae934da-8e6e-4e8c-b64d-8647b24ab0d9","system_id":"levelo_inurba_marseille","lat":43.312239,"lon":5.368562,"is_reserved":false,"is_disabled":false,"rental_uris":{"android":"levelo://app?vid=0ae934da-8e6e-4e8c-b64d-8647b24ab0d9","ios":"levelo://app?vid=0ae934da-8e6e-4e8c-b64d-8647b24ab0d9"},"vehicle_type_id":"4","last_reported":1683864468,"current_range_meters":28000,"station_id":"ce4bgl92rcd13ifvqbq0","pricing_plan_id":"free"},{"bike_id":"2f20d674-e7e2-4726-a967-43c0ac2af978","system_id":"levelo_inurba_marseille","lat":43.312239,"lon":5.368562,"is_reserved":false,"is_disabled":false,"rental_uris":{"android":"levelo://app?vid=2f20d674-e7e2-4726-a967-43c0ac2af978","ios":"levelo://app?vid=2f20d674-e7e2-4726-a967-43c0ac2af978"},"vehicle_type_id":"4","last_reported":1683864468,"current_range_meters":13200,"station_id":"ce4bgl92rcd13ifvqbq0","pricing_plan_id":"free"},{"bike_id":"9e73ac15-2ec6-438a-8b2a-1c76cf0698bb","system_id":"levelo_inurba_marseille","lat":43.312239,"lon":5.368562,"is_reserved":false,"is_disabled":false,"rental_uris":{"android":"levelo://app?vid=9e73ac15-2ec6-438a-8b2a-1c76cf0698bb","ios":"levelo://app?vid=9e73ac15-2ec6-438a-8b2a-1c76cf0698bb"},"vehicle_type_id":"4","last_reported":1683864468,"current_range_meters":31200,"station_id":"ce4bgl92rcd13ifvqbq0","pricing_plan_id":"free"},{"bike_id":"7b877790-cfac-4d39-a912-5047a88d26cc","system_id":"levelo_inurba_marseille","lat":43.309076,"lon":5.368465,"is_reserved":false,"is_disabled":false,"rental_uris":{"android":"levelo://app?vid=7b877790-cfac-4d39-a912-5047a88d26cc","ios":"levelo://app?vid=7b877790-cfac-4d39-a912-5047a88d26cc"},"vehicle_type_id":"4","last_reported":1683864468,"current_range_meters":26800,"station_id":"ce4bgn92rcd13ifvqbvg","pricing_plan_id":"free"},{"bike_id":"311deb71-5b40-4653-9384-440dee91bb60","system_id":"levelo_inurba_marseille","lat":43.314811,"lon":5.373103,"is_reserved":false,"is_disabled":false,"rental_uris":{"android":"levelo://app?vid=311deb71-5b40-4653-9384-440dee91bb60","ios":"levelo://app?vid=311deb71-5b40-4653-9384-440dee91bb60"},"vehicle_type_id":"4","last_reported":1683864468,"current_range_meters":28000,"station_id":"ce4bgt12rcd13ifvqcd0","pricing_plan_id":"free"},{"bike_id":"a825f0a2-97b5-435e-a668-d4dbad498700","system_id":"levelo_inurba_marseille","lat":43.314811,"lon":5.373103,"is_reserved":false,"is_disabled":false,"rental_uris":{"android":"levelo://app?vid=a825f0a2-97b5-435e-a668-d4dbad498700","ios":"levelo://app?vid=a825f0a2-97b5-435e-a668-d4dbad498700"},"vehicle_type_id":"4","last_reported":1683864468,"current_range_meters":26000,"station_id":"ce4bgt12rcd13ifvqcd0","pricing_plan_id":"free"},{"bike_id":"9f6d2cc6-a5d6-4ab7-805f-6f6527a5f2b8","system_id":"levelo_inurba_marseille","lat":43.314811,"lon":5.373103,"is_reserved":false,"is_disabled":false,"rental_uris":{"android":"levelo://app?vid=9f6d2cc6-a5d6-4ab7-805f-6f6527a5f2b8","ios":"levelo://app?vid=9f6d2cc6-a5d6-4ab7-805f-6f6527a5f2b8"},"vehicle_type_id":"4","last_reported":1683864468,"current_range_meters":27600,"station_id":"ce4bgt12rcd13ifvqcd0","pricing_plan_id":"free"},{"bike_id":"63898fd6-e168-40af-b647-f250636dda3d","system_id":"levelo_inurba_marseille","lat":43.314811,"lon":5.373103,"is_reserved":false,"is_disabled":false,"rental_uris":{"android":"levelo://app?vid=63898fd6-e168-40af-b647-f250636dda3d","ios":"levelo://app?vid=63898fd6-e168-40af-b647-f250636dda3d"},"vehicle_type_id":"4","last_reported":1683864468,"current_range_meters":29600,"station_id":"ce4bgt12rcd13ifvqcd0","pricing_plan_id":"free"},{"bike_id":"28c9961e-7d39-4a4a-8933-92eb0213da24","system_id":"levelo_inurba_marseille","lat":43.314811,"lon":5.373103,"is_reserved":false,"is_disabled":false,"rental_uris":{"android":"levelo://app?vid=28c9961e-7d39-4a4a-8933-92eb0213da24","ios":"levelo://app?vid=28c9961e-7d39-4a4a-8933-92eb0213da24"},"vehicle_type_id":"4","last_reported":1683864468,"current_range_meters":31200,"station_id":"ce4bgt12rcd13ifvqcd0","pricing_plan_id":"free"},{"bike_id":"cd2416c2-1185-458c-9b4f-20205e4f694a","system_id":"levelo_inurba_marseille","lat":43.314811,"lon":5.373103,"is_reserved":false,"is_disabled":false,"rental_uris":{"android":"levelo://app?vid=cd2416c2-1185-458c-9b4f-20205e4f694a","ios":"levelo://app?vid=cd2416c2-1185-458c-9b4f-20205e4f694a"},"vehicle_type_id":"4","last_reported":1683864468,"current_range_meters":31200,"station_id":"ce4bgt12rcd13ifvqcd0","pricing_plan_id":"free"},{"bike_id":"b69695d7-1f27-436f-9042-37149339c135","system_id":"levelo_inurba_marseille","lat":43.314811,"lon":5.373103,"is_reserved":false,"is_disabled":false,"rental_uris":{"android":"levelo://app?vid=b69695d7-1f27-436f-9042-37149339c135","ios":"levelo://app?vid=b69695d7-1f27-436f-9042-37149339c135"},"vehicle_type_id":"4","last_reported":1683864468,"current_range_meters":27200,"station_id":"ce4bgt12rcd13ifvqcd0","pricing_plan_id":"free"},{"bike_id":"8857a7bd-9846-40f7-8ed0-18cb1c2e0b6e","system_id":"levelo_inurba_marseille","lat":43.314811,"lon":5.373103,"is_reserved":false,"is_disabled":false,"rental_uris":{"android":"levelo://app?vid=8857a7bd-9846-40f7-8ed0-18cb1c2e0b6e","ios":"levelo://app?vid=8857a7bd-9846-40f7-8ed0-18cb1c2e0b6e"},"vehicle_type_id":"4","last_reported":1683864468,"current_range_meters":27600,"station_id":"ce4bgt12rcd13ifvqcd0","pricing_plan_id":"free"},{"bike_id":"c89bdc92-624d-45f5-9b79-66c9c4a03677","system_id":"levelo_inurba_marseille","lat":43.308614,"lon":5.372098,"is_reserved":false,"is_disabled":false,"rental_uris":{"android":"levelo://app?vid=c89bdc92-624d-45f5-9b79-66c9c4a03677","ios":"levelo://app?vid=c89bdc92-624d-45f5-9b79-66c9c4a03677"},"vehicle_type_id":"4","last_reported":1683864468,"current_range_meters":19200,"station_id":"ce4bguh2rcd13ifvqckg","pricing_plan_id":"free"},{"bike_id":"0295535f-713c-421e-bf9d-4ebff31b2775","system_id":"levelo_inurba_marseille","lat":43.30553,"lon":5.36708,"is_reserved":false,"is_disabled":false,"rental_uris":{"android":"levelo://app?vid=0295535f-713c-421e-bf9d-4ebff31b2775","ios":"levelo://app?vid=0295535f-713c-421e-bf9d-4ebff31b2775"},"vehicle_type_id":"4","last_reported":1683864468,"current_range_meters":0,"station_id":"ce4bgrp2rcd13ifvqc9g","pricing_plan_id":"free"},{"bike_id":"4310443c-2b13-46d5-af39-d59f8b4be0e3","system_id":"levelo_inurba_marseille","lat":43.305368,"lon":5.367343,"is_reserved":false,"is_disabled":false,"rental_uris":{"android":"levelo://app?vid=4310443c-2b13-46d5-af39-d59f8b4be0e3","ios":"levelo://app?vid=4310443c-2b13-46d5-af39-d59f8b4be0e3"},"vehicle_type_id":"4","last_reported":1683864468,"current_range_meters":0,"station_id":"ce4bgrp2rcd13ifvqc9g","pricing_plan_id":"free"},{"bike_id":"800f6c00-f6d3-4ba9-b261-533355f63afc","system_id":"levelo_inurba_marseille","lat":43.305368,"lon":5.367343,"is_reserved":false,"is_disabled":false,"rental_uris":{"android":"levelo://app?vid=800f6c00-f6d3-4ba9-b261-533355f63afc","ios":"levelo://app?vid=800f6c00-f6d3-4ba9-b261-533355f63afc"},"vehicle_type_id":"4","last_reported":1683864468,"current_range_meters":16000,"station_id":"ce4bgrp2rcd13ifvqc9g","pricing_plan_id":"free"},{"bike_id":"7ef141d5-b5f9-4483-b785-16c9ea734a5b","system_id":"levelo_inurba_marseille","lat":43.30536,"lon":5.36542,"is_reserved":false,"is_disabled":false,"rental_uris":{"android":"levelo://app?vid=7ef141d5-b5f9-4483-b785-16c9ea734a5b","ios":"levelo://app?vid=7ef141d5-b5f9-4483-b785-16c9ea734a5b"},"vehicle_type_id":"4","last_reported":1683864468,"current_range_meters":23200,"station_id":"","pricing_plan_id":"free"},{"bike_id":"2fc152af-7e88-4ec1-aa12-1ed53406930b","system_id":"levelo_inurba_marseille","lat":43.305706,"lon":5.365654,"is_reserved":false,"is_disabled":false,"rental_uris":{"android":"levelo://app?vid=2fc152af-7e88-4ec1-aa12-1ed53406930b","ios":"levelo://app?vid=2fc152af-7e88-4ec1-aa12-1ed53406930b"},"vehicle_type_id":"4","last_reported":1683864468,"current_range_meters":24400,"station_id":"ce4bgs12rcd13ifvqcag","pricing_plan_id":"free"},{"bike_id":"c50702a8-1d3e-4acb-bd1b-f2f0d44f6bc3","system_id":"levelo_inurba_marseille","lat":43.305989,"lon":5.37225,"is_reserved":false,"is_disabled":false,"rental_uris":{"android":"levelo://app?vid=c50702a8-1d3e-4acb-bd1b-f2f0d44f6bc3","ios":"levelo://app?vid=c50702a8-1d3e-4acb-bd1b-f2f0d44f6bc3"},"vehicle_type_id":"4","last_reported":1683864468,"current_range_meters":31200,"station_id":"ce4bgqh2rcd13ifvqc4g","pricing_plan_id":"free"},{"bike_id":"84c36f07-68bb-4c8a-8448-111070fe8b6a","system_id":"levelo_inurba_marseille","lat":43.305989,"lon":5.37225,"is_reserved":false,"is_disabled":false,"rental_uris":{"android":"levelo://app?vid=84c36f07-68bb-4c8a-8448-111070fe8b6a","ios":"levelo://app?vid=84c36f07-68bb-4c8a-8448-111070fe8b6a"},"vehicle_type_id":"4","last_reported":1683864468,"current_range_meters":31200,"station_id":"ce4bgqh2rcd13ifvqc4g","pricing_plan_id":"free"},{"bike_id":"b1778549-7840-4602-ad53-d5b83221b3bc","system_id":"levelo_inurba_marseille","lat":43.317075,"lon":5.377367,"is_reserved":false,"is_disabled":false,"rental_uris":{"android":"levelo://app?vid=b1778549-7840-4602-ad53-d5b83221b3bc","ios":"levelo://app?vid=b1778549-7840-4602-ad53-d5b83221b3bc"},"vehicle_type_id":"4","last_reported":1683864468,"current_range_meters":18000,"station_id":"ce4bgth2rcd13ifvqch0","pricing_plan_id":"free"},{"bike_id":"4f4916ec-e9e1-4df5-808e-fbe788c8c10d","system_id":"levelo_inurba_marseille","lat":43.315289,"lon":5.380349,"is_reserved":false,"is_disabled":false,"rental_uris":{"android":"levelo://app?vid=4f4916ec-e9e1-4df5-808e-fbe788c8c10d","ios":"levelo://app?vid=4f4916ec-e9e1-4df5-808e-fbe788c8c10d"},"vehicle_type_id":"4","last_reported":1683864468,"current_range_meters":31200,"station_id":"ce4bhsp2rcd13ifvqi50","pricing_plan_id":"free"},{"bike_id":"7aed2eff-a9b8-4455-933b-5fbc3a8d5e2c","system_id":"levelo_inurba_marseille","lat":43.315289,"lon":5.380349,"is_reserved":false,"is_disabled":false,"rental_uris":{"android":"levelo://app?vid=7aed2eff-a9b8-4455-933b-5fbc3a8d5e2c","ios":"levelo://app?vid=7aed2eff-a9b8-4455-933b-5fbc3a8d5e2c"},"vehicle_type_id":"4","last_reported":1683864468,"current_range_meters":31200,"station_id":"ce4bhsp2rcd13ifvqi50","pricing_plan_id":"free"},{"bike_id":"09800373-eca1-447f-8e43-dc5d1834a922","system_id":"levelo_inurba_marseille","lat":43.315293,"lon":5.380349,"is_reserved":false,"is_disabled":false,"rental_uris":{"android":"levelo://app?vid=09800373-eca1-447f-8e43-dc5d1834a922","ios":"levelo://app?vid=09800373-eca1-447f-8e43-dc5d1834a922"},"vehicle_type_id":"4","last_reported":1683864468,"current_range_meters":31200,"station_id":"ce4bhsp2rcd13ifvqi50","pricing_plan_id":"free"},{"bike_id":"2daf3e52-3c33-4591-80c6-11afb47fbdcb","system_id":"levelo_inurba_marseille","lat":43.315293,"lon":5.380349,"is_reserved":false,"is_disabled":false,"rental_uris":{"android":"levelo://app?vid=2daf3e52-3c33-4591-80c6-11afb47fbdcb","ios":"levelo://app?vid=2daf3e52-3c33-4591-80c6-11afb47fbdcb"},"vehicle_type_id":"4","last_reported":1683864468,"current_range_meters":30400,"station_id":"ce4bhsp2rcd13ifvqi50","pricing_plan_id":"free"},{"bike_id":"e08a91fd-1903-4aeb-9e28-dbb5bf9e47f9","system_id":"levelo_inurba_marseille","lat":43.30804,"lon":5.38146,"is_reserved":false,"is_disabled":false,"rental_uris":{"android":"levelo://app?vid=e08a91fd-1903-4aeb-9e28-dbb5bf9e47f9","ios":"levelo://app?vid=e08a91fd-1903-4aeb-9e28-dbb5bf9e47f9"},"vehicle_type_id":"4","last_reported":1683864468,"current_range_meters":22800,"station_id":"ce4bgt12rcd13ifvqce0","pricing_plan_id":"free"},{"bike_id":"2fb5f716-d63e-4440-9e61-3c2ed03b7523","system_id":"levelo_inurba_marseille","lat":43.30801,"lon":5.38147,"is_reserved":false,"is_disabled":false,"rental_uris":{"android":"levelo://app?vid=2fb5f716-d63e-4440-9e61-3c2ed03b7523","ios":"levelo://app?vid=2fb5f716-d63e-4440-9e61-3c2ed03b7523"},"vehicle_type_id":"4","last_reported":1683864468,"current_range_meters":12800,"station_id":"ce4bgt12rcd13ifvqce0","pricing_plan_id":"free"},{"bike_id":"3c190bd5-7cb8-4d9c-aeae-84698f7d824b","system_id":"levelo_inurba_marseille","lat":43.30807,"lon":5.38151,"is_reserved":false,"is_disabled":false,"rental_uris":{"android":"levelo://app?vid=3c190bd5-7cb8-4d9c-aeae-84698f7d824b","ios":"levelo://app?vid=3c190bd5-7cb8-4d9c-aeae-84698f7d824b"},"vehicle_type_id":"4","last_reported":1683864468,"current_range_meters":31200,"station_id":"ce4bgt12rcd13ifvqce0","pricing_plan_id":"free"},{"bike_id":"c2ba9b29-8335-4765-8b1a-bcdaaf6c66e9","system_id":"levelo_inurba_marseille","lat":43.30806,"lon":5.38152,"is_reserved":false,"is_disabled":false,"rental_uris":{"android":"levelo://app?vid=c2ba9b29-8335-4765-8b1a-bcdaaf6c66e9","ios":"levelo://app?vid=c2ba9b29-8335-4765-8b1a-bcdaaf6c66e9"},"vehicle_type_id":"4","last_reported":1683864468,"current_range_meters":31200,"station_id":"ce4bgt12rcd13ifvqce0","pricing_plan_id":"free"},{"bike_id":"fbdd87e6-0cee-4860-9188-74fc2c93f1cd","system_id":"levelo_inurba_marseille","lat":43.30806,"lon":5.38154,"is_reserved":false,"is_disabled":false,"rental_uris":{"android":"levelo://app?vid=fbdd87e6-0cee-4860-9188-74fc2c93f1cd","ios":"levelo://app?vid=fbdd87e6-0cee-4860-9188-74fc2c93f1cd"},"vehicle_type_id":"4","last_reported":1683864468,"current_range_meters":31200,"station_id":"ce4bgt12rcd13ifvqce0","pricing_plan_id":"free"},{"bike_id":"8a4e5eeb-ef3d-416d-851a-d250550c6e0d","system_id":"levelo_inurba_marseille","lat":43.308012,"lon":5.381511,"is_reserved":false,"is_disabled":false,"rental_uris":{"android":"levelo://app?vid=8a4e5eeb-ef3d-416d-851a-d250550c6e0d","ios":"levelo://app?vid=8a4e5eeb-ef3d-416d-851a-d250550c6e0d"},"vehicle_type_id":"4","last_reported":1683864468,"current_range_meters":24400,"station_id":"ce4bgt12rcd13ifvqce0","pricing_plan_id":"free"},{"bike_id":"e8b94755-193a-4017-a3f3-88ff5b477941","system_id":"levelo_inurba_marseille","lat":43.30815,"lon":5.3816,"is_reserved":false,"is_disabled":false,"rental_uris":{"android":"levelo://app?vid=e8b94755-193a-4017-a3f3-88ff5b477941","ios":"levelo://app?vid=e8b94755-193a-4017-a3f3-88ff5b477941"},"vehicle_type_id":"4","last_reported":1683864468,"current_range_meters":17200,"station_id":"ce4bgt12rcd13ifvqce0","pricing_plan_id":"free"},{"bike_id":"26b557d2-829e-4d0b-8cbb-4432b5989879","system_id":"levelo_inurba_marseille","lat":43.308012,"lon":5.381511,"is_reserved":false,"is_disabled":false,"rental_uris":{"android":"levelo://app?vid=26b557d2-829e-4d0b-8cbb-4432b5989879","ios":"levelo://app?vid=26b557d2-829e-4d0b-8cbb-4432b5989879"},"vehicle_type_id":"4","last_reported":1683864468,"current_range_meters":31200,"station_id":"ce4bgt12rcd13ifvqce0","pricing_plan_id":"free"},{"bike_id":"aff37824-3291-4800-b41b-a713b7e819b7","system_id":"levelo_inurba_marseille","lat":43.30807,"lon":5.38157,"is_reserved":false,"is_disabled":false,"rental_uris":{"android":"levelo://app?vid=aff37824-3291-4800-b41b-a713b7e819b7","ios":"levelo://app?vid=aff37824-3291-4800-b41b-a713b7e819b7"},"vehicle_type_id":"4","last_reported":1683864468,"current_range_meters":21200,"station_id":"ce4bgt12rcd13ifvqce0","pricing_plan_id":"free"},{"bike_id":"622b6533-06b0-44ac-917b-82b0ae48f9bb","system_id":"levelo_inurba_marseille","lat":43.30807,"lon":5.38158,"is_reserved":false,"is_disabled":false,"rental_uris":{"android":"levelo://app?vid=622b6533-06b0-44ac-917b-82b0ae48f9bb","ios":"levelo://app?vid=622b6533-06b0-44ac-917b-82b0ae48f9bb"},"vehicle_type_id":"4","last_reported":1683864468,"current_range_meters":22800,"station_id":"ce4bgt12rcd13ifvqce0","pricing_plan_id":"free"},{"bike_id":"29e3710e-1914-4bd8-9852-1ff6a28c037a","system_id":"levelo_inurba_marseille","lat":43.30808,"lon":5.38162,"is_reserved":false,"is_disabled":false,"rental_uris":{"android":"levelo://app?vid=29e3710e-1914-4bd8-9852-1ff6a28c037a","ios":"levelo://app?vid=29e3710e-1914-4bd8-9852-1ff6a28c037a"},"vehicle_type_id":"4","last_reported":1683864468,"current_range_meters":13600,"station_id":"ce4bgt12rcd13ifvqce0","pricing_plan_id":"free"},{"bike_id":"1b6e1c6a-3ea9-4a48-95c1-fb29c850bc1d","system_id":"levelo_inurba_marseille","lat":43.308012,"lon":5.381511,"is_reserved":false,"is_disabled":false,"rental_uris":{"android":"levelo://app?vid=1b6e1c6a-3ea9-4a48-95c1-fb29c850bc1d","ios":"levelo://app?vid=1b6e1c6a-3ea9-4a48-95c1-fb29c850bc1d"},"vehicle_type_id":"4","last_reported":1683864468,"current_range_meters":21600,"station_id":"ce4bgt12rcd13ifvqce0","pricing_plan_id":"free"},{"bike_id":"73b79b40-e907-4ec7-856a-094c9e21e2a0","system_id":"levelo_inurba_marseille","lat":43.308012,"lon":5.381511,"is_reserved":false,"is_disabled":false,"rental_uris":{"android":"levelo://app?vid=73b79b40-e907-4ec7-856a-094c9e21e2a0","ios":"levelo://app?vid=73b79b40-e907-4ec7-856a-094c9e21e2a0"},"vehicle_type_id":"4","last_reported":1683864468,"current_range_meters":18800,"station_id":"ce4bgt12rcd13ifvqce0","pricing_plan_id":"free"},{"bike_id":"f081b992-a475-4852-94c5-65142eea978f","system_id":"levelo_inurba_marseille","lat":43.304606,"lon":5.379026,"is_reserved":false,"is_disabled":false,"rental_uris":{"android":"levelo://app?vid=f081b992-a475-4852-94c5-65142eea978f","ios":"levelo://app?vid=f081b992-a475-4852-94c5-65142eea978f"},"vehicle_type_id":"4","last_reported":1683864468,"current_range_meters":26400,"station_id":"ce4bgup2rcd13ifvqcn0","pricing_plan_id":"free"},{"bike_id":"b22c6ef5-5f69-4eb8-908f-6565c154672f","system_id":"levelo_inurba_marseille","lat":43.30463,"lon":5.37896,"is_reserved":false,"is_disabled":false,"rental_uris":{"android":"levelo://app?vid=b22c6ef5-5f69-4eb8-908f-6565c154672f","ios":"levelo://app?vid=b22c6ef5-5f69-4eb8-908f-6565c154672f"},"vehicle_type_id":"4","last_reported":1683864468,"current_range_meters":26000,"station_id":"ce4bgup2rcd13ifvqcn0","pricing_plan_id":"free"},{"bike_id":"6a0fa6b8-9768-4a8e-8a66-7350161e4434","system_id":"levelo_inurba_marseille","lat":43.304606,"lon":5.379026,"is_reserved":false,"is_disabled":false,"rental_uris":{"android":"levelo://app?vid=6a0fa6b8-9768-4a8e-8a66-7350161e4434","ios":"levelo://app?vid=6a0fa6b8-9768-4a8e-8a66-7350161e4434"},"vehicle_type_id":"4","last_reported":1683864468,"current_range_meters":3200,"station_id":"ce4bgup2rcd13ifvqcn0","pricing_plan_id":"free"},{"bike_id":"299f851b-eba3-4c23-9dfc-965e007c1cae","system_id":"levelo_inurba_marseille","lat":43.304606,"lon":5.379026,"is_reserved":false,"is_disabled":false,"rental_uris":{"android":"levelo://app?vid=299f851b-eba3-4c23-9dfc-965e007c1cae","ios":"levelo://app?vid=299f851b-eba3-4c23-9dfc-965e007c1cae"},"vehicle_type_id":"4","last_reported":1683864468,"current_range_meters":32000,"station_id":"ce4bgup2rcd13ifvqcn0","pricing_plan_id":"free"},{"bike_id":"4cec8b6a-aad3-4104-a8c7-91514b3bb2c8","system_id":"levelo_inurba_marseille","lat":43.304606,"lon":5.379026,"is_reserved":false,"is_disabled":false,"rental_uris":{"android":"levelo://app?vid=4cec8b6a-aad3-4104-a8c7-91514b3bb2c8","ios":"levelo://app?vid=4cec8b6a-aad3-4104-a8c7-91514b3bb2c8"},"vehicle_type_id":"4","last_reported":1683864468,"current_range_meters":28000,"station_id":"ce4bgup2rcd13ifvqcn0","pricing_plan_id":"free"},{"bike_id":"54976a46-a61d-4865-a81f-95502594e1a2","system_id":"levelo_inurba_marseille","lat":43.3046,"lon":5.379,"is_reserved":false,"is_disabled":false,"rental_uris":{"android":"levelo://app?vid=54976a46-a61d-4865-a81f-95502594e1a2","ios":"levelo://app?vid=54976a46-a61d-4865-a81f-95502594e1a2"},"vehicle_type_id":"4","last_reported":1683864468,"current_range_meters":21600,"station_id":"ce4bgup2rcd13ifvqcn0","pricing_plan_id":"free"},{"bike_id":"2e6ad5df-538a-4aff-8f86-9794bbeda9f9","system_id":"levelo_inurba_marseille","lat":43.304606,"lon":5.379026,"is_reserved":false,"is_disabled":false,"rental_uris":{"android":"levelo://app?vid=2e6ad5df-538a-4aff-8f86-9794bbeda9f9","ios":"levelo://app?vid=2e6ad5df-538a-4aff-8f86-9794bbeda9f9"},"vehicle_type_id":"4","last_reported":1683864468,"current_range_meters":15600,"station_id":"ce4bgup2rcd13ifvqcn0","pricing_plan_id":"free"},{"bike_id":"1aab55ac-6b70-4119-a71b-2eebc9c5ea18","system_id":"levelo_inurba_marseille","lat":43.304606,"lon":5.379026,"is_reserved":false,"is_disabled":false,"rental_uris":{"android":"levelo://app?vid=1aab55ac-6b70-4119-a71b-2eebc9c5ea18","ios":"levelo://app?vid=1aab55ac-6b70-4119-a71b-2eebc9c5ea18"},"vehicle_type_id":"4","last_reported":1683864468,"current_range_meters":18400,"station_id":"ce4bgup2rcd13ifvqcn0","pricing_plan_id":"free"},{"bike_id":"7645638e-83d7-48fb-9a2a-162da236d0a1","system_id":"levelo_inurba_marseille","lat":43.304606,"lon":5.379026,"is_reserved":false,"is_disabled":false,"rental_uris":{"android":"levelo://app?vid=7645638e-83d7-48fb-9a2a-162da236d0a1","ios":"levelo://app?vid=7645638e-83d7-48fb-9a2a-162da236d0a1"},"vehicle_type_id":"4","last_reported":1683864468,"current_range_meters":32000,"station_id":"ce4bgup2rcd13ifvqcn0","pricing_plan_id":"free"},{"bike_id":"cafc1ec5-027d-4ed3-9cd4-b646615fc548","system_id":"levelo_inurba_marseille","lat":43.304606,"lon":5.379026,"is_reserved":false,"is_disabled":false,"rental_uris":{"android":"levelo://app?vid=cafc1ec5-027d-4ed3-9cd4-b646615fc548","ios":"levelo://app?vid=cafc1ec5-027d-4ed3-9cd4-b646615fc548"},"vehicle_type_id":"4","last_reported":1683864468,"current_range_meters":4800,"station_id":"ce4bgup2rcd13ifvqcn0","pricing_plan_id":"free"},{"bike_id":"807a9625-7f7d-4978-aa5a-318ab5ba3fa3","system_id":"levelo_inurba_marseille","lat":43.304606,"lon":5.379026,"is_reserved":false,"is_disabled":false,"rental_uris":{"android":"levelo://app?vid=807a9625-7f7d-4978-aa5a-318ab5ba3fa3","ios":"levelo://app?vid=807a9625-7f7d-4978-aa5a-318ab5ba3fa3"},"vehicle_type_id":"4","last_reported":1683864468,"current_range_meters":22800,"station_id":"ce4bgup2rcd13ifvqcn0","pricing_plan_id":"free"},{"bike_id":"1e886504-aaa0-4932-b577-e61e4aa4c178","system_id":"levelo_inurba_marseille","lat":43.304606,"lon":5.379026,"is_reserved":false,"is_disabled":false,"rental_uris":{"android":"levelo://app?vid=1e886504-aaa0-4932-b577-e61e4aa4c178","ios":"levelo://app?vid=1e886504-aaa0-4932-b577-e61e4aa4c178"},"vehicle_type_id":"4","last_reported":1683864468,"current_range_meters":26800,"station_id":"ce4bgup2rcd13ifvqcn0","pricing_plan_id":"free"},{"bike_id":"36016e24-c284-4484-9a1b-dc1db935585a","system_id":"levelo_inurba_marseille","lat":43.304606,"lon":5.379026,"is_reserved":false,"is_disabled":false,"rental_uris":{"android":"levelo://app?vid=36016e24-c284-4484-9a1b-dc1db935585a","ios":"levelo://app?vid=36016e24-c284-4484-9a1b-dc1db935585a"},"vehicle_type_id":"4","last_reported":1683864468,"current_range_meters":26800,"station_id":"ce4bgup2rcd13ifvqcn0","pricing_plan_id":"free"},{"bike_id":"73474423-0666-4116-a6a9-e8507f5d322e","system_id":"levelo_inurba_marseille","lat":43.304606,"lon":5.379026,"is_reserved":false,"is_disabled":false,"rental_uris":{"android":"levelo://app?vid=73474423-0666-4116-a6a9-e8507f5d322e","ios":"levelo://app?vid=73474423-0666-4116-a6a9-e8507f5d322e"},"vehicle_type_id":"4","last_reported":1683864468,"current_range_meters":24000,"station_id":"ce4bgup2rcd13ifvqcn0","pricing_plan_id":"free"},{"bike_id":"89e3cde6-5563-4ff7-ae74-87dba6afd1a7","system_id":"levelo_inurba_marseille","lat":43.30144,"lon":5.37409,"is_reserved":false,"is_disabled":false,"rental_uris":{"android":"levelo://app?vid=89e3cde6-5563-4ff7-ae74-87dba6afd1a7","ios":"levelo://app?vid=89e3cde6-5563-4ff7-ae74-87dba6afd1a7"},"vehicle_type_id":"4","last_reported":1683864468,"current_range_meters":0,"station_id":"ce4bgs92rcd13ifvqcc0","pricing_plan_id":"free"},{"bike_id":"39bbc7d0-5f9a-46cf-9dac-0bd0bff5d9af","system_id":"levelo_inurba_marseille","lat":43.3014,"lon":5.37404,"is_reserved":false,"is_disabled":false,"rental_uris":{"android":"levelo://app?vid=39bbc7d0-5f9a-46cf-9dac-0bd0bff5d9af","ios":"levelo://app?vid=39bbc7d0-5f9a-46cf-9dac-0bd0bff5d9af"},"vehicle_type_id":"4","last_reported":1683864468,"current_range_meters":17600,"station_id":"","pricing_plan_id":"free"},{"bike_id":"a01ff6e5-1b34-40d1-a208-aa5bdcc0a718","system_id":"levelo_inurba_marseille","lat":43.30144,"lon":5.37416,"is_reserved":false,"is_disabled":false,"rental_uris":{"android":"levelo://app?vid=a01ff6e5-1b34-40d1-a208-aa5bdcc0a718","ios":"levelo://app?vid=a01ff6e5-1b34-40d1-a208-aa5bdcc0a718"},"vehicle_type_id":"4","last_reported":1683864468,"current_range_meters":6800,"station_id":"ce4bgs92rcd13ifvqcc0","pricing_plan_id":"free"},{"bike_id":"815ab3c0-8833-45e6-b891-75bed23f8af3","system_id":"levelo_inurba_marseille","lat":43.313571,"lon":5.384829,"is_reserved":false,"is_disabled":false,"rental_uris":{"android":"levelo://app?vid=815ab3c0-8833-45e6-b891-75bed23f8af3","ios":"levelo://app?vid=815ab3c0-8833-45e6-b891-75bed23f8af3"},"vehicle_type_id":"4","last_reported":1683864468,"current_range_meters":11600,"station_id":"ce4bgt92rcd13ifvqcf0","pricing_plan_id":"free"},{"bike_id":"31607a47-c348-4122-8b4e-f77a759d0157","system_id":"levelo_inurba_marseille","lat":43.313571,"lon":5.384829,"is_reserved":false,"is_disabled":false,"rental_uris":{"android":"levelo://app?vid=31607a47-c348-4122-8b4e-f77a759d0157","ios":"levelo://app?vid=31607a47-c348-4122-8b4e-f77a759d0157"},"vehicle_type_id":"4","last_reported":1683864468,"current_range_meters":26000,"station_id":"ce4bgt92rcd13ifvqcf0","pricing_plan_id":"free"},{"bike_id":"89d979b4-a190-4dcd-a37c-c63cce8e2278","system_id":"levelo_inurba_marseille","lat":43.313571,"lon":5.384829,"is_reserved":false,"is_disabled":false,"rental_uris":{"android":"levelo://app?vid=89d979b4-a190-4dcd-a37c-c63cce8e2278","ios":"levelo://app?vid=89d979b4-a190-4dcd-a37c-c63cce8e2278"},"vehicle_type_id":"4","last_reported":1683864468,"current_range_meters":28000,"station_id":"ce4bgt92rcd13ifvqcf0","pricing_plan_id":"free"},{"bike_id":"11355a26-ce04-4637-b186-e63c722271b4","system_id":"levelo_inurba_marseille","lat":43.31369,"lon":5.3852,"is_reserved":false,"is_disabled":false,"rental_uris":{"android":"levelo://app?vid=11355a26-ce04-4637-b186-e63c722271b4","ios":"levelo://app?vid=11355a26-ce04-4637-b186-e63c722271b4"},"vehicle_type_id":"4","last_reported":1683864468,"current_range_meters":12400,"station_id":"","pricing_plan_id":"free"},{"bike_id":"021c0fad-d5f3-4cd8-b5b1-df6d28bc8193","system_id":"levelo_inurba_marseille","lat":43.299222,"lon":5.365554,"is_reserved":false,"is_disabled":false,"rental_uris":{"android":"levelo://app?vid=021c0fad-d5f3-4cd8-b5b1-df6d28bc8193","ios":"levelo://app?vid=021c0fad-d5f3-4cd8-b5b1-df6d28bc8193"},"vehicle_type_id":"4","last_reported":1683864468,"current_range_meters":24000,"station_id":"ce4bgm92rcd13ifvqbr0","pricing_plan_id":"free"},{"bike_id":"07429c05-d479-4749-8507-e2ed8425ad08","system_id":"levelo_inurba_marseille","lat":43.31812,"lon":5.38488,"is_reserved":false,"is_disabled":false,"rental_uris":{"android":"levelo://app?vid=07429c05-d479-4749-8507-e2ed8425ad08","ios":"levelo://app?vid=07429c05-d479-4749-8507-e2ed8425ad08"},"vehicle_type_id":"4","last_reported":1683864468,"current_range_meters":2800,"station_id":"","pricing_plan_id":"free"},{"bike_id":"364d3312-ddd8-42fe-8933-cf7be9553c11","system_id":"levelo_inurba_marseille","lat":43.29858,"lon":5.36287,"is_reserved":false,"is_disabled":false,"rental_uris":{"android":"levelo://app?vid=364d3312-ddd8-42fe-8933-cf7be9553c11","ios":"levelo://app?vid=364d3312-ddd8-42fe-8933-cf7be9553c11"},"vehicle_type_id":"4","last_reported":1683864468,"current_range_meters":8000,"station_id":"ce4bgpp2rcd13ifvqc3g","pricing_plan_id":"free"},{"bike_id":"768fe84a-8ee9-4f02-a8c7-ca1f20b274cb","system_id":"levelo_inurba_marseille","lat":43.305364,"lon":5.384119,"is_reserved":false,"is_disabled":false,"rental_uris":{"android":"levelo://app?vid=768fe84a-8ee9-4f02-a8c7-ca1f20b274cb","ios":"levelo://app?vid=768fe84a-8ee9-4f02-a8c7-ca1f20b274cb"},"vehicle_type_id":"4","last_reported":1683864468,"current_range_meters":12000,"station_id":"ce4bgg92rcd13ifvqb30","pricing_plan_id":"free"},{"bike_id":"ff09d781-ef6d-4001-8384-7b3d68b47b6b","system_id":"levelo_inurba_marseille","lat":43.305364,"lon":5.384119,"is_reserved":false,"is_disabled":false,"rental_uris":{"android":"levelo://app?vid=ff09d781-ef6d-4001-8384-7b3d68b47b6b","ios":"levelo://app?vid=ff09d781-ef6d-4001-8384-7b3d68b47b6b"},"vehicle_type_id":"4","last_reported":1683864468,"current_range_meters":8800,"station_id":"ce4bgg92rcd13ifvqb30","pricing_plan_id":"free"},{"bike_id":"ef79fdd8-da51-4d9a-9bc2-026691a545a7","system_id":"levelo_inurba_marseille","lat":43.305364,"lon":5.384119,"is_reserved":false,"is_disabled":false,"rental_uris":{"android":"levelo://app?vid=ef79fdd8-da51-4d9a-9bc2-026691a545a7","ios":"levelo://app?vid=ef79fdd8-da51-4d9a-9bc2-026691a545a7"},"vehicle_type_id":"4","last_reported":1683864468,"current_range_meters":24000,"station_id":"ce4bgg92rcd13ifvqb30","pricing_plan_id":"free"},{"bike_id":"357ec0a0-c228-4e01-9067-25c5c408eb9f","system_id":"levelo_inurba_marseille","lat":43.311722,"lon":5.387247,"is_reserved":false,"is_disabled":false,"rental_uris":{"android":"levelo://app?vid=357ec0a0-c228-4e01-9067-25c5c408eb9f","ios":"levelo://app?vid=357ec0a0-c228-4e01-9067-25c5c408eb9f"},"vehicle_type_id":"4","last_reported":1683864468,"current_range_meters":24000,"station_id":"ce4bgv12rcd13ifvqcp0","pricing_plan_id":"free"},{"bike_id":"f9e4d1c5-0241-4965-a5bf-5134c15e2231","system_id":"levelo_inurba_marseille","lat":43.305364,"lon":5.384119,"is_reserved":false,"is_disabled":false,"rental_uris":{"android":"levelo://app?vid=f9e4d1c5-0241-4965-a5bf-5134c15e2231","ios":"levelo://app?vid=f9e4d1c5-0241-4965-a5bf-5134c15e2231"},"vehicle_type_id":"4","last_reported":1683864468,"current_range_meters":17600,"station_id":"ce4bgg92rcd13ifvqb30","pricing_plan_id":"free"},{"bike_id":"d5db51f7-4ef1-4e16-abf8-cc1322b083c7","system_id":"levelo_inurba_marseille","lat":43.305364,"lon":5.384119,"is_reserved":false,"is_disabled":false,"rental_uris":{"android":"levelo://app?vid=d5db51f7-4ef1-4e16-abf8-cc1322b083c7","ios":"levelo://app?vid=d5db51f7-4ef1-4e16-abf8-cc1322b083c7"},"vehicle_type_id":"4","last_reported":1683864468,"current_range_meters":31200,"station_id":"ce4bgg92rcd13ifvqb30","pricing_plan_id":"free"},{"bike_id":"be299f8b-688b-41e9-a7d7-403efe786ed9","system_id":"levelo_inurba_marseille","lat":43.311722,"lon":5.387247,"is_reserved":false,"is_disabled":false,"rental_uris":{"android":"levelo://app?vid=be299f8b-688b-41e9-a7d7-403efe786ed9","ios":"levelo://app?vid=be299f8b-688b-41e9-a7d7-403efe786ed9"},"vehicle_type_id":"4","last_reported":1683864468,"current_range_meters":6400,"station_id":"ce4bgv12rcd13ifvqcp0","pricing_plan_id":"free"},{"bike_id":"c0b2ba08-a350-4580-9181-33f23c3fbb45","system_id":"levelo_inurba_marseille","lat":43.305364,"lon":5.384119,"is_reserved":false,"is_disabled":false,"rental_uris":{"android":"levelo://app?vid=c0b2ba08-a350-4580-9181-33f23c3fbb45","ios":"levelo://app?vid=c0b2ba08-a350-4580-9181-33f23c3fbb45"},"vehicle_type_id":"4","last_reported":1683864468,"current_range_meters":27600,"station_id":"ce4bgg92rcd13ifvqb30","pricing_plan_id":"free"},{"bike_id":"04620021-3bbb-43d0-8891-9af55328d45f","system_id":"levelo_inurba_marseille","lat":43.305364,"lon":5.384119,"is_reserved":false,"is_disabled":false,"rental_uris":{"android":"levelo://app?vid=04620021-3bbb-43d0-8891-9af55328d45f","ios":"levelo://app?vid=04620021-3bbb-43d0-8891-9af55328d45f"},"vehicle_type_id":"4","last_reported":1683864468,"current_range_meters":27200,"station_id":"ce4bgg92rcd13ifvqb30","pricing_plan_id":"free"},{"bike_id":"91a75584-aecd-425e-bf96-0a347a73dc3d","system_id":"levelo_inurba_marseille","lat":43.305364,"lon":5.384119,"is_reserved":false,"is_disabled":false,"rental_uris":{"android":"levelo://app?vid=91a75584-aecd-425e-bf96-0a347a73dc3d","ios":"levelo://app?vid=91a75584-aecd-425e-bf96-0a347a73dc3d"},"vehicle_type_id":"4","last_reported":1683864468,"current_range_meters":0,"station_id":"ce4bgg92rcd13ifvqb30","pricing_plan_id":"free"},{"bike_id":"2fc45cff-25c4-4b52-8d7b-2ed9e490fc30","system_id":"levelo_inurba_marseille","lat":43.305364,"lon":5.384119,"is_reserved":false,"is_disabled":false,"rental_uris":{"android":"levelo://app?vid=2fc45cff-25c4-4b52-8d7b-2ed9e490fc30","ios":"levelo://app?vid=2fc45cff-25c4-4b52-8d7b-2ed9e490fc30"},"vehicle_type_id":"4","last_reported":1683864468,"current_range_meters":21200,"station_id":"ce4bgg92rcd13ifvqb30","pricing_plan_id":"free"},{"bike_id":"7f471efd-2d0e-483e-bc7e-54aae73195bb","system_id":"levelo_inurba_marseille","lat":43.305364,"lon":5.384119,"is_reserved":false,"is_disabled":false,"rental_uris":{"android":"levelo://app?vid=7f471efd-2d0e-483e-bc7e-54aae73195bb","ios":"levelo://app?vid=7f471efd-2d0e-483e-bc7e-54aae73195bb"},"vehicle_type_id":"4","last_reported":1683864468,"current_range_meters":19200,"station_id":"ce4bgg92rcd13ifvqb30","pricing_plan_id":"free"},{"bike_id":"4764fbe4-5995-47c4-9f07-0bb229f55351","system_id":"levelo_inurba_marseille","lat":43.311722,"lon":5.387247,"is_reserved":false,"is_disabled":false,"rental_uris":{"android":"levelo://app?vid=4764fbe4-5995-47c4-9f07-0bb229f55351","ios":"levelo://app?vid=4764fbe4-5995-47c4-9f07-0bb229f55351"},"vehicle_type_id":"4","last_reported":1683864468,"current_range_meters":32000,"station_id":"ce4bgv12rcd13ifvqcp0","pricing_plan_id":"free"},{"bike_id":"30b8c90d-c0cf-4dd2-bd06-d636fe6e2453","system_id":"levelo_inurba_marseille","lat":43.311722,"lon":5.387247,"is_reserved":false,"is_disabled":false,"rental_uris":{"android":"levelo://app?vid=30b8c90d-c0cf-4dd2-bd06-d636fe6e2453","ios":"levelo://app?vid=30b8c90d-c0cf-4dd2-bd06-d636fe6e2453"},"vehicle_type_id":"4","last_reported":1683864468,"current_range_meters":28400,"station_id":"ce4bgv12rcd13ifvqcp0","pricing_plan_id":"free"},{"bike_id":"69d1baac-6aab-4694-8183-765eeaf69ea5","system_id":"levelo_inurba_marseille","lat":43.311722,"lon":5.387247,"is_reserved":false,"is_disabled":false,"rental_uris":{"android":"levelo://app?vid=69d1baac-6aab-4694-8183-765eeaf69ea5","ios":"levelo://app?vid=69d1baac-6aab-4694-8183-765eeaf69ea5"},"vehicle_type_id":"4","last_reported":1683864468,"current_range_meters":28800,"station_id":"ce4bgv12rcd13ifvqcp0","pricing_plan_id":"free"},{"bike_id":"13a2a118-f666-4295-99b6-271a49ef0cae","system_id":"levelo_inurba_marseille","lat":43.311722,"lon":5.387247,"is_reserved":false,"is_disabled":false,"rental_uris":{"android":"levelo://app?vid=13a2a118-f666-4295-99b6-271a49ef0cae","ios":"levelo://app?vid=13a2a118-f666-4295-99b6-271a49ef0cae"},"vehicle_type_id":"4","last_reported":1683864468,"current_range_meters":28000,"station_id":"ce4bgv12rcd13ifvqcp0","pricing_plan_id":"free"},{"bike_id":"8b7f46f8-ed27-4b88-83f6-74e9ee342b61","system_id":"levelo_inurba_marseille","lat":43.311722,"lon":5.387247,"is_reserved":false,"is_disabled":false,"rental_uris":{"android":"levelo://app?vid=8b7f46f8-ed27-4b88-83f6-74e9ee342b61","ios":"levelo://app?vid=8b7f46f8-ed27-4b88-83f6-74e9ee342b61"},"vehicle_type_id":"4","last_reported":1683864468,"current_range_meters":800,"station_id":"ce4bgv12rcd13ifvqcp0","pricing_plan_id":"free"},{"bike_id":"d6cf0a65-fda7-4df5-8018-f0cbbd4b36d8","system_id":"levelo_inurba_marseille","lat":43.311722,"lon":5.387247,"is_reserved":false,"is_disabled":false,"rental_uris":{"android":"levelo://app?vid=d6cf0a65-fda7-4df5-8018-f0cbbd4b36d8","ios":"levelo://app?vid=d6cf0a65-fda7-4df5-8018-f0cbbd4b36d8"},"vehicle_type_id":"4","last_reported":1683864468,"current_range_meters":31600,"station_id":"ce4bgv12rcd13ifvqcp0","pricing_plan_id":"free"},{"bike_id":"2f96f4b7-d3f1-4b87-b98f-caf50ba6d13d","system_id":"levelo_inurba_marseille","lat":43.32768,"lon":5.36703,"is_reserved":false,"is_disabled":false,"rental_uris":{"android":"levelo://app?vid=2f96f4b7-d3f1-4b87-b98f-caf50ba6d13d","ios":"levelo://app?vid=2f96f4b7-d3f1-4b87-b98f-caf50ba6d13d"},"vehicle_type_id":"4","last_reported":1683864468,"current_range_meters":18000,"station_id":"","pricing_plan_id":"free"},{"bike_id":"86719306-0ddc-4576-a656-570a4d550f46","system_id":"levelo_inurba_marseille","lat":43.328371,"lon":5.366912,"is_reserved":false,"is_disabled":false,"rental_uris":{"android":"levelo://app?vid=86719306-0ddc-4576-a656-570a4d550f46","ios":"levelo://app?vid=86719306-0ddc-4576-a656-570a4d550f46"},"vehicle_type_id":"4","last_reported":1683864468,"current_range_meters":400,"station_id":"ce4bhs92rcd13ifvqi0g","pricing_plan_id":"free"},{"bike_id":"afcb6986-356b-4859-8c29-ac34da7debef","system_id":"levelo_inurba_marseille","lat":43.32826,"lon":5.36693,"is_reserved":false,"is_disabled":false,"rental_uris":{"android":"levelo://app?vid=afcb6986-356b-4859-8c29-ac34da7debef","ios":"levelo://app?vid=afcb6986-356b-4859-8c29-ac34da7debef"},"vehicle_type_id":"4","last_reported":1683864468,"current_range_meters":21200,"station_id":"ce4bhs92rcd13ifvqi0g","pricing_plan_id":"free"},{"bike_id":"9466398a-ab63-492b-a983-e43b41d0acd9","system_id":"levelo_inurba_marseille","lat":43.32827,"lon":5.36691,"is_reserved":false,"is_disabled":false,"rental_uris":{"android":"levelo://app?vid=9466398a-ab63-492b-a983-e43b41d0acd9","ios":"levelo://app?vid=9466398a-ab63-492b-a983-e43b41d0acd9"},"vehicle_type_id":"4","last_reported":1683864468,"current_range_meters":6800,"station_id":"ce4bhs92rcd13ifvqi0g","pricing_plan_id":"free"},{"bike_id":"2be82f79-e3a2-4567-8fca-bd9d15afdecb","system_id":"levelo_inurba_marseille","lat":43.32835,"lon":5.36683,"is_reserved":false,"is_disabled":false,"rental_uris":{"android":"levelo://app?vid=2be82f79-e3a2-4567-8fca-bd9d15afdecb","ios":"levelo://app?vid=2be82f79-e3a2-4567-8fca-bd9d15afdecb"},"vehicle_type_id":"4","last_reported":1683864468,"current_range_meters":22800,"station_id":"ce4bhs92rcd13ifvqi0g","pricing_plan_id":"free"},{"bike_id":"1039fa9a-8cf0-41a5-8c88-81c77d7a8655","system_id":"levelo_inurba_marseille","lat":43.29674,"lon":5.37287,"is_reserved":false,"is_disabled":false,"rental_uris":{"android":"levelo://app?vid=1039fa9a-8cf0-41a5-8c88-81c77d7a8655","ios":"levelo://app?vid=1039fa9a-8cf0-41a5-8c88-81c77d7a8655"},"vehicle_type_id":"4","last_reported":1683864468,"current_range_meters":3600,"station_id":"ce4bgk12rcd13ifvqbj0","pricing_plan_id":"free"},{"bike_id":"fd3ddef2-2ef8-4d8c-bea1-d07179f82018","system_id":"levelo_inurba_marseille","lat":43.29596,"lon":5.36956,"is_reserved":false,"is_disabled":false,"rental_uris":{"android":"levelo://app?vid=fd3ddef2-2ef8-4d8c-bea1-d07179f82018","ios":"levelo://app?vid=fd3ddef2-2ef8-4d8c-bea1-d07179f82018"},"vehicle_type_id":"4","last_reported":1683864468,"current_range_meters":11200,"station_id":"","pricing_plan_id":"free"},{"bike_id":"9db086e2-c5f4-4246-bfe3-5cd54baed79f","system_id":"levelo_inurba_marseille","lat":43.31754,"lon":5.39005,"is_reserved":false,"is_disabled":false,"rental_uris":{"android":"levelo://app?vid=9db086e2-c5f4-4246-bfe3-5cd54baed79f","ios":"levelo://app?vid=9db086e2-c5f4-4246-bfe3-5cd54baed79f"},"vehicle_type_id":"4","last_reported":1683864468,"current_range_meters":23600,"station_id":"ce4bhqp2rcd13ifvqhng","pricing_plan_id":"free"},{"bike_id":"1947f8f3-4469-4118-bbf1-4f1d9c715805","system_id":"levelo_inurba_marseille","lat":43.317557,"lon":5.390173,"is_reserved":false,"is_disabled":false,"rental_uris":{"android":"levelo://app?vid=1947f8f3-4469-4118-bbf1-4f1d9c715805","ios":"levelo://app?vid=1947f8f3-4469-4118-bbf1-4f1d9c715805"},"vehicle_type_id":"4","last_reported":1683864468,"current_range_meters":18800,"station_id":"ce4bhqp2rcd13ifvqhng","pricing_plan_id":"free"},{"bike_id":"2d7ddae0-75c5-4f27-bb77-758cf5ca3c9f","system_id":"levelo_inurba_marseille","lat":43.317557,"lon":5.390173,"is_reserved":false,"is_disabled":false,"rental_uris":{"android":"levelo://app?vid=2d7ddae0-75c5-4f27-bb77-758cf5ca3c9f","ios":"levelo://app?vid=2d7ddae0-75c5-4f27-bb77-758cf5ca3c9f"},"vehicle_type_id":"4","last_reported":1683864468,"current_range_meters":13200,"station_id":"ce4bhqp2rcd13ifvqhng","pricing_plan_id":"free"},{"bike_id":"c52157db-38b9-4052-8281-b7f835d73599","system_id":"levelo_inurba_marseille","lat":43.31759,"lon":5.39021,"is_reserved":false,"is_disabled":false,"rental_uris":{"android":"levelo://app?vid=c52157db-38b9-4052-8281-b7f835d73599","ios":"levelo://app?vid=c52157db-38b9-4052-8281-b7f835d73599"},"vehicle_type_id":"4","last_reported":1683864468,"current_range_meters":0,"station_id":"ce4bhqp2rcd13ifvqhng","pricing_plan_id":"free"},{"bike_id":"2ad16f74-a407-4a70-9272-747ec9978f8e","system_id":"levelo_inurba_marseille","lat":43.317557,"lon":5.390173,"is_reserved":false,"is_disabled":false,"rental_uris":{"android":"levelo://app?vid=2ad16f74-a407-4a70-9272-747ec9978f8e","ios":"levelo://app?vid=2ad16f74-a407-4a70-9272-747ec9978f8e"},"vehicle_type_id":"4","last_reported":1683864468,"current_range_meters":28400,"station_id":"ce4bhqp2rcd13ifvqhng","pricing_plan_id":"free"},{"bike_id":"8128bf0a-e817-4f56-a609-37c577f5d054","system_id":"levelo_inurba_marseille","lat":43.317557,"lon":5.390173,"is_reserved":false,"is_disabled":false,"rental_uris":{"android":"levelo://app?vid=8128bf0a-e817-4f56-a609-37c577f5d054","ios":"levelo://app?vid=8128bf0a-e817-4f56-a609-37c577f5d054"},"vehicle_type_id":"4","last_reported":1683864468,"current_range_meters":6000,"station_id":"ce4bhqp2rcd13ifvqhng","pricing_plan_id":"free"},{"bike_id":"bca77fc8-62c5-444b-b385-8cffda8f98e0","system_id":"levelo_inurba_marseille","lat":43.31755,"lon":5.39027,"is_reserved":false,"is_disabled":false,"rental_uris":{"android":"levelo://app?vid=bca77fc8-62c5-444b-b385-8cffda8f98e0","ios":"levelo://app?vid=bca77fc8-62c5-444b-b385-8cffda8f98e0"},"vehicle_type_id":"4","last_reported":1683864468,"current_range_meters":15200,"station_id":"ce4bhqp2rcd13ifvqhng","pricing_plan_id":"free"},{"bike_id":"9c9b4f86-328b-4fef-94f2-ef1f33238aa5","system_id":"levelo_inurba_marseille","lat":43.29585,"lon":5.37508,"is_reserved":false,"is_disabled":false,"rental_uris":{"android":"levelo://app?vid=9c9b4f86-328b-4fef-94f2-ef1f33238aa5","ios":"levelo://app?vid=9c9b4f86-328b-4fef-94f2-ef1f33238aa5"},"vehicle_type_id":"4","last_reported":1683864468,"current_range_meters":0,"station_id":"ce4bgh92rcd13ifvqb50","pricing_plan_id":"free"},{"bike_id":"eec57fff-5a41-4b48-baf2-7342dc9ac627","system_id":"levelo_inurba_marseille","lat":43.29584,"lon":5.37511,"is_reserved":false,"is_disabled":false,"rental_uris":{"android":"levelo://app?vid=eec57fff-5a41-4b48-baf2-7342dc9ac627","ios":"levelo://app?vid=eec57fff-5a41-4b48-baf2-7342dc9ac627"},"vehicle_type_id":"4","last_reported":1683864468,"current_range_meters":0,"station_id":"ce4bgh92rcd13ifvqb50","pricing_plan_id":"free"},{"bike_id":"6ec915fa-dfd1-429e-89b8-6e19bd49f991","system_id":"levelo_inurba_marseille","lat":43.295748,"lon":5.37522,"is_reserved":false,"is_disabled":false,"rental_uris":{"android":"levelo://app?vid=6ec915fa-dfd1-429e-89b8-6e19bd49f991","ios":"levelo://app?vid=6ec915fa-dfd1-429e-89b8-6e19bd49f991"},"vehicle_type_id":"4","last_reported":1683864468,"current_range_meters":23200,"station_id":"ce4bgh92rcd13ifvqb50","pricing_plan_id":"free"},{"bike_id":"0014ebca-b6cf-47a6-bc6d-457f72984e4b","system_id":"levelo_inurba_marseille","lat":43.304278,"lon":5.388868,"is_reserved":false,"is_disabled":false,"rental_uris":{"android":"levelo://app?vid=0014ebca-b6cf-47a6-bc6d-457f72984e4b","ios":"levelo://app?vid=0014ebca-b6cf-47a6-bc6d-457f72984e4b"},"vehicle_type_id":"4","last_reported":1683864468,"current_range_meters":24400,"station_id":"ce4bgk12rcd13ifvqbi0","pricing_plan_id":"free"},{"bike_id":"a0a8773b-e7aa-4784-8728-96819b0bd3bf","system_id":"levelo_inurba_marseille","lat":43.304278,"lon":5.388868,"is_reserved":false,"is_disabled":false,"rental_uris":{"android":"levelo://app?vid=a0a8773b-e7aa-4784-8728-96819b0bd3bf","ios":"levelo://app?vid=a0a8773b-e7aa-4784-8728-96819b0bd3bf"},"vehicle_type_id":"4","last_reported":1683864468,"current_range_meters":26000,"station_id":"ce4bgk12rcd13ifvqbi0","pricing_plan_id":"free"},{"bike_id":"a62f1568-8d13-4916-a438-2cd006c75a1f","system_id":"levelo_inurba_marseille","lat":43.30444,"lon":5.38895,"is_reserved":false,"is_disabled":false,"rental_uris":{"android":"levelo://app?vid=a62f1568-8d13-4916-a438-2cd006c75a1f","ios":"levelo://app?vid=a62f1568-8d13-4916-a438-2cd006c75a1f"},"vehicle_type_id":"4","last_reported":1683864468,"current_range_meters":24800,"station_id":"ce4bgk12rcd13ifvqbi0","pricing_plan_id":"free"},{"bike_id":"db1be2a1-3e28-4064-aa2d-09ada2c67f91","system_id":"levelo_inurba_marseille","lat":43.304278,"lon":5.388868,"is_reserved":false,"is_disabled":false,"rental_uris":{"android":"levelo://app?vid=db1be2a1-3e28-4064-aa2d-09ada2c67f91","ios":"levelo://app?vid=db1be2a1-3e28-4064-aa2d-09ada2c67f91"},"vehicle_type_id":"4","last_reported":1683864468,"current_range_meters":20800,"station_id":"ce4bgk12rcd13ifvqbi0","pricing_plan_id":"free"},{"bike_id":"c37314a5-7f8d-4e42-99f7-2fdd7e4ea2da","system_id":"levelo_inurba_marseille","lat":43.304278,"lon":5.388868,"is_reserved":false,"is_disabled":false,"rental_uris":{"android":"levelo://app?vid=c37314a5-7f8d-4e42-99f7-2fdd7e4ea2da","ios":"levelo://app?vid=c37314a5-7f8d-4e42-99f7-2fdd7e4ea2da"},"vehicle_type_id":"4","last_reported":1683864468,"current_range_meters":31200,"station_id":"ce4bgk12rcd13ifvqbi0","pricing_plan_id":"free"},{"bike_id":"89f542f1-53e0-4e10-970b-5d8bdfaabea7","system_id":"levelo_inurba_marseille","lat":43.304278,"lon":5.388868,"is_reserved":false,"is_disabled":false,"rental_uris":{"android":"levelo://app?vid=89f542f1-53e0-4e10-970b-5d8bdfaabea7","ios":"levelo://app?vid=89f542f1-53e0-4e10-970b-5d8bdfaabea7"},"vehicle_type_id":"4","last_reported":1683864468,"current_range_meters":27600,"station_id":"ce4bgk12rcd13ifvqbi0","pricing_plan_id":"free"},{"bike_id":"2412ce88-e0d8-4032-ba50-864e31c1bebc","system_id":"levelo_inurba_marseille","lat":43.304278,"lon":5.388868,"is_reserved":false,"is_disabled":false,"rental_uris":{"android":"levelo://app?vid=2412ce88-e0d8-4032-ba50-864e31c1bebc","ios":"levelo://app?vid=2412ce88-e0d8-4032-ba50-864e31c1bebc"},"vehicle_type_id":"4","last_reported":1683864468,"current_range_meters":6400,"station_id":"ce4bgk12rcd13ifvqbi0","pricing_plan_id":"free"},{"bike_id":"85691b05-80cc-4f57-a59b-ad72872f545f","system_id":"levelo_inurba_marseille","lat":43.3237,"lon":5.38879,"is_reserved":false,"is_disabled":false,"rental_uris":{"android":"levelo://app?vid=85691b05-80cc-4f57-a59b-ad72872f545f","ios":"levelo://app?vid=85691b05-80cc-4f57-a59b-ad72872f545f"},"vehicle_type_id":"4","last_reported":1683864468,"current_range_meters":4000,"station_id":"ce4bhqp2rcd13ifvqhog","pricing_plan_id":"free"},{"bike_id":"83de09e5-5ceb-42a7-abd0-00cb055c9138","system_id":"levelo_inurba_marseille","lat":43.32368,"lon":5.38891,"is_reserved":false,"is_disabled":false,"rental_uris":{"android":"levelo://app?vid=83de09e5-5ceb-42a7-abd0-00cb055c9138","ios":"levelo://app?vid=83de09e5-5ceb-42a7-abd0-00cb055c9138"},"vehicle_type_id":"4","last_reported":1683864468,"current_range_meters":800,"station_id":"ce4bhqp2rcd13ifvqhog","pricing_plan_id":"free"},{"bike_id":"3ae2bce8-8159-4477-bcf7-9a6944ec1406","system_id":"levelo_inurba_marseille","lat":43.29602,"lon":5.381084,"is_reserved":false,"is_disabled":false,"rental_uris":{"android":"levelo://app?vid=3ae2bce8-8159-4477-bcf7-9a6944ec1406","ios":"levelo://app?vid=3ae2bce8-8159-4477-bcf7-9a6944ec1406"},"vehicle_type_id":"4","last_reported":1683864468,"current_range_meters":28800,"station_id":"ce4bgl12rcd13ifvqbo0","pricing_plan_id":"free"},{"bike_id":"3a2bdd6c-f460-4488-a99e-2238fcd112fa","system_id":"levelo_inurba_marseille","lat":43.29311,"lon":5.37178,"is_reserved":false,"is_disabled":false,"rental_uris":{"android":"levelo://app?vid=3a2bdd6c-f460-4488-a99e-2238fcd112fa","ios":"levelo://app?vid=3a2bdd6c-f460-4488-a99e-2238fcd112fa"},"vehicle_type_id":"4","last_reported":1683864468,"current_range_meters":0,"station_id":"ce4bgh92rcd13ifvqb40","pricing_plan_id":"free"},{"bike_id":"220188c7-170f-402e-bc52-7ba5d69401e2","system_id":"levelo_inurba_marseille","lat":43.292749,"lon":5.368398,"is_reserved":false,"is_disabled":false,"rental_uris":{"android":"levelo://app?vid=220188c7-170f-402e-bc52-7ba5d69401e2","ios":"levelo://app?vid=220188c7-170f-402e-bc52-7ba5d69401e2"},"vehicle_type_id":"4","last_reported":1683864468,"current_range_meters":20000,"station_id":"ce4bhbp2rcd13ifvqesg","pricing_plan_id":"free"},{"bike_id":"fdcf556c-caf2-432c-866f-5216a9cec74f","system_id":"levelo_inurba_marseille","lat":43.292749,"lon":5.368402,"is_reserved":false,"is_disabled":false,"rental_uris":{"android":"levelo://app?vid=fdcf556c-caf2-432c-866f-5216a9cec74f","ios":"levelo://app?vid=fdcf556c-caf2-432c-866f-5216a9cec74f"},"vehicle_type_id":"4","last_reported":1683864468,"current_range_meters":27200,"station_id":"ce4bhbp2rcd13ifvqesg","pricing_plan_id":"free"},{"bike_id":"e87220ac-37bf-43dc-a608-3f45d033ceb8","system_id":"levelo_inurba_marseille","lat":43.30315,"lon":5.39206,"is_reserved":false,"is_disabled":false,"rental_uris":{"android":"levelo://app?vid=e87220ac-37bf-43dc-a608-3f45d033ceb8","ios":"levelo://app?vid=e87220ac-37bf-43dc-a608-3f45d033ceb8"},"vehicle_type_id":"4","last_reported":1683864468,"current_range_meters":31200,"station_id":"ce4bgkh2rcd13ifvqbk0","pricing_plan_id":"free"},{"bike_id":"4fbe5eeb-7fd4-4dda-b96b-7a3e290c0701","system_id":"levelo_inurba_marseille","lat":43.303,"lon":5.39214,"is_reserved":false,"is_disabled":false,"rental_uris":{"android":"levelo://app?vid=4fbe5eeb-7fd4-4dda-b96b-7a3e290c0701","ios":"levelo://app?vid=4fbe5eeb-7fd4-4dda-b96b-7a3e290c0701"},"vehicle_type_id":"4","last_reported":1683864468,"current_range_meters":20000,"station_id":"ce4bgkh2rcd13ifvqbk0","pricing_plan_id":"free"},{"bike_id":"55ba3828-106f-4b66-b28a-e2c0622e4f49","system_id":"levelo_inurba_marseille","lat":43.30085,"lon":5.390856,"is_reserved":false,"is_disabled":false,"rental_uris":{"android":"levelo://app?vid=55ba3828-106f-4b66-b28a-e2c0622e4f49","ios":"levelo://app?vid=55ba3828-106f-4b66-b28a-e2c0622e4f49"},"vehicle_type_id":"4","last_reported":1683864468,"current_range_meters":12000,"station_id":"ce4bh192rcd13ifvqdb0","pricing_plan_id":"free"},{"bike_id":"c5502675-ab47-4e62-a028-46959985eff1","system_id":"levelo_inurba_marseille","lat":43.292,"lon":5.35811,"is_reserved":false,"is_disabled":false,"rental_uris":{"android":"levelo://app?vid=c5502675-ab47-4e62-a028-46959985eff1","ios":"levelo://app?vid=c5502675-ab47-4e62-a028-46959985eff1"},"vehicle_type_id":"4","last_reported":1683864468,"current_range_meters":0,"station_id":"","pricing_plan_id":"free"},{"bike_id":"a8dfed8a-56df-4e30-9215-2620076dd475","system_id":"levelo_inurba_marseille","lat":43.31323,"lon":5.39685,"is_reserved":false,"is_disabled":false,"rental_uris":{"android":"levelo://app?vid=a8dfed8a-56df-4e30-9215-2620076dd475","ios":"levelo://app?vid=a8dfed8a-56df-4e30-9215-2620076dd475"},"vehicle_type_id":"4","last_reported":1683864468,"current_range_meters":20800,"station_id":"ce4bgvp2rcd13ifvqcu0","pricing_plan_id":"free"},{"bike_id":"388da447-f25e-47b7-b591-7f7385e97113","system_id":"levelo_inurba_marseille","lat":43.309038,"lon":5.396546,"is_reserved":false,"is_disabled":false,"rental_uris":{"android":"levelo://app?vid=388da447-f25e-47b7-b591-7f7385e97113","ios":"levelo://app?vid=388da447-f25e-47b7-b591-7f7385e97113"},"vehicle_type_id":"4","last_reported":1683864468,"current_range_meters":23600,"station_id":"ce4bh012rcd13ifvqcv0","pricing_plan_id":"free"},{"bike_id":"6448c133-4cd4-412c-ab72-14f60d954e8f","system_id":"levelo_inurba_marseille","lat":43.31321,"lon":5.39688,"is_reserved":false,"is_disabled":false,"rental_uris":{"android":"levelo://app?vid=6448c133-4cd4-412c-ab72-14f60d954e8f","ios":"levelo://app?vid=6448c133-4cd4-412c-ab72-14f60d954e8f"},"vehicle_type_id":"4","last_reported":1683864468,"current_range_meters":31200,"station_id":"ce4bgvp2rcd13ifvqcu0","pricing_plan_id":"free"},{"bike_id":"b126e2a7-b553-466f-8a1c-72be379b30c0","system_id":"levelo_inurba_marseille","lat":43.313291,"lon":5.396838,"is_reserved":false,"is_disabled":false,"rental_uris":{"android":"levelo://app?vid=b126e2a7-b553-466f-8a1c-72be379b30c0","ios":"levelo://app?vid=b126e2a7-b553-466f-8a1c-72be379b30c0"},"vehicle_type_id":"4","last_reported":1683864468,"current_range_meters":22400,"station_id":"ce4bgvp2rcd13ifvqcu0","pricing_plan_id":"free"},{"bike_id":"b46cd140-66d1-41d1-ac37-ced7fe69b54b","system_id":"levelo_inurba_marseille","lat":43.31329,"lon":5.39691,"is_reserved":false,"is_disabled":false,"rental_uris":{"android":"levelo://app?vid=b46cd140-66d1-41d1-ac37-ced7fe69b54b","ios":"levelo://app?vid=b46cd140-66d1-41d1-ac37-ced7fe69b54b"},"vehicle_type_id":"4","last_reported":1683864468,"current_range_meters":14000,"station_id":"ce4bgvp2rcd13ifvqcu0","pricing_plan_id":"free"},{"bike_id":"b1688492-1a62-4d1e-a0f8-928de1a5ce80","system_id":"levelo_inurba_marseille","lat":43.309038,"lon":5.396546,"is_reserved":false,"is_disabled":false,"rental_uris":{"android":"levelo://app?vid=b1688492-1a62-4d1e-a0f8-928de1a5ce80","ios":"levelo://app?vid=b1688492-1a62-4d1e-a0f8-928de1a5ce80"},"vehicle_type_id":"4","last_reported":1683864468,"current_range_meters":25200,"station_id":"ce4bh012rcd13ifvqcv0","pricing_plan_id":"free"},{"bike_id":"33c3dea9-4c1f-452f-89ed-554afd0b40fc","system_id":"levelo_inurba_marseille","lat":43.309038,"lon":5.396546,"is_reserved":false,"is_disabled":false,"rental_uris":{"android":"levelo://app?vid=33c3dea9-4c1f-452f-89ed-554afd0b40fc","ios":"levelo://app?vid=33c3dea9-4c1f-452f-89ed-554afd0b40fc"},"vehicle_type_id":"4","last_reported":1683864468,"current_range_meters":16000,"station_id":"ce4bh012rcd13ifvqcv0","pricing_plan_id":"free"},{"bike_id":"89194808-5c37-4adc-8194-0c75e8d3c734","system_id":"levelo_inurba_marseille","lat":43.313291,"lon":5.396838,"is_reserved":false,"is_disabled":false,"rental_uris":{"android":"levelo://app?vid=89194808-5c37-4adc-8194-0c75e8d3c734","ios":"levelo://app?vid=89194808-5c37-4adc-8194-0c75e8d3c734"},"vehicle_type_id":"4","last_reported":1683864468,"current_range_meters":31200,"station_id":"ce4bgvp2rcd13ifvqcu0","pricing_plan_id":"free"},{"bike_id":"4c783eda-cd43-448d-bf43-e0f1fd45404f","system_id":"levelo_inurba_marseille","lat":43.309038,"lon":5.396546,"is_reserved":false,"is_disabled":false,"rental_uris":{"android":"levelo://app?vid=4c783eda-cd43-448d-bf43-e0f1fd45404f","ios":"levelo://app?vid=4c783eda-cd43-448d-bf43-e0f1fd45404f"},"vehicle_type_id":"4","last_reported":1683864468,"current_range_meters":22400,"station_id":"ce4bh012rcd13ifvqcv0","pricing_plan_id":"free"},{"bike_id":"f0bacf1e-5ca7-4e49-99b4-d044c3fbdea0","system_id":"levelo_inurba_marseille","lat":43.31321,"lon":5.39694,"is_reserved":false,"is_disabled":false,"rental_uris":{"android":"levelo://app?vid=f0bacf1e-5ca7-4e49-99b4-d044c3fbdea0","ios":"levelo://app?vid=f0bacf1e-5ca7-4e49-99b4-d044c3fbdea0"},"vehicle_type_id":"4","last_reported":1683864468,"current_range_meters":28800,"station_id":"ce4bgvp2rcd13ifvqcu0","pricing_plan_id":"free"},{"bike_id":"867a0806-578c-4311-aec3-987ab4749fe5","system_id":"levelo_inurba_marseille","lat":43.313291,"lon":5.396838,"is_reserved":false,"is_disabled":false,"rental_uris":{"android":"levelo://app?vid=867a0806-578c-4311-aec3-987ab4749fe5","ios":"levelo://app?vid=867a0806-578c-4311-aec3-987ab4749fe5"},"vehicle_type_id":"4","last_reported":1683864468,"current_range_meters":26000,"station_id":"ce4bgvp2rcd13ifvqcu0","pricing_plan_id":"free"},{"bike_id":"b95c60c6-66e5-426e-8cdb-2728632759a7","system_id":"levelo_inurba_marseille","lat":43.313291,"lon":5.396838,"is_reserved":false,"is_disabled":false,"rental_uris":{"android":"levelo://app?vid=b95c60c6-66e5-426e-8cdb-2728632759a7","ios":"levelo://app?vid=b95c60c6-66e5-426e-8cdb-2728632759a7"},"vehicle_type_id":"4","last_reported":1683864468,"current_range_meters":22800,"station_id":"ce4bgvp2rcd13ifvqcu0","pricing_plan_id":"free"},{"bike_id":"9c781ae8-341e-4c24-9287-7dca908894b0","system_id":"levelo_inurba_marseille","lat":43.31321,"lon":5.39695,"is_reserved":false,"is_disabled":false,"rental_uris":{"android":"levelo://app?vid=9c781ae8-341e-4c24-9287-7dca908894b0","ios":"levelo://app?vid=9c781ae8-341e-4c24-9287-7dca908894b0"},"vehicle_type_id":"4","last_reported":1683864468,"current_range_meters":9200,"station_id":"ce4bgvp2rcd13ifvqcu0","pricing_plan_id":"free"},{"bike_id":"8cff9d44-c78f-4cd2-b6f4-f78b5b90e1b4","system_id":"levelo_inurba_marseille","lat":43.309038,"lon":5.396546,"is_reserved":false,"is_disabled":false,"rental_uris":{"android":"levelo://app?vid=8cff9d44-c78f-4cd2-b6f4-f78b5b90e1b4","ios":"levelo://app?vid=8cff9d44-c78f-4cd2-b6f4-f78b5b90e1b4"},"vehicle_type_id":"4","last_reported":1683864468,"current_range_meters":29200,"station_id":"ce4bh012rcd13ifvqcv0","pricing_plan_id":"free"},{"bike_id":"4f9350fc-4b13-4992-84b3-2a3efeccacae","system_id":"levelo_inurba_marseille","lat":43.309038,"lon":5.396546,"is_reserved":false,"is_disabled":false,"rental_uris":{"android":"levelo://app?vid=4f9350fc-4b13-4992-84b3-2a3efeccacae","ios":"levelo://app?vid=4f9350fc-4b13-4992-84b3-2a3efeccacae"},"vehicle_type_id":"4","last_reported":1683864468,"current_range_meters":20000,"station_id":"ce4bh012rcd13ifvqcv0","pricing_plan_id":"free"},{"bike_id":"b5fe510c-6df3-47c7-b1a4-b887a08664e9","system_id":"levelo_inurba_marseille","lat":43.309038,"lon":5.396546,"is_reserved":false,"is_disabled":false,"rental_uris":{"android":"levelo://app?vid=b5fe510c-6df3-47c7-b1a4-b887a08664e9","ios":"levelo://app?vid=b5fe510c-6df3-47c7-b1a4-b887a08664e9"},"vehicle_type_id":"4","last_reported":1683864468,"current_range_meters":24000,"station_id":"ce4bh012rcd13ifvqcv0","pricing_plan_id":"free"},{"bike_id":"0c4f7cc1-f3a5-4523-998b-6fff3bec46ac","system_id":"levelo_inurba_marseille","lat":43.309038,"lon":5.396546,"is_reserved":false,"is_disabled":false,"rental_uris":{"android":"levelo://app?vid=0c4f7cc1-f3a5-4523-998b-6fff3bec46ac","ios":"levelo://app?vid=0c4f7cc1-f3a5-4523-998b-6fff3bec46ac"},"vehicle_type_id":"4","last_reported":1683864468,"current_range_meters":0,"station_id":"ce4bh012rcd13ifvqcv0","pricing_plan_id":"free"},{"bike_id":"e7ad5a11-1b60-4efd-8b62-c7334e901ee5","system_id":"levelo_inurba_marseille","lat":43.309038,"lon":5.396546,"is_reserved":false,"is_disabled":false,"rental_uris":{"android":"levelo://app?vid=e7ad5a11-1b60-4efd-8b62-c7334e901ee5","ios":"levelo://app?vid=e7ad5a11-1b60-4efd-8b62-c7334e901ee5"},"vehicle_type_id":"4","last_reported":1683864468,"current_range_meters":11200,"station_id":"ce4bh012rcd13ifvqcv0","pricing_plan_id":"free"},{"bike_id":"bbdb49f9-a9d2-4746-8164-05438f82bf6c","system_id":"levelo_inurba_marseille","lat":43.309038,"lon":5.396546,"is_reserved":false,"is_disabled":false,"rental_uris":{"android":"levelo://app?vid=bbdb49f9-a9d2-4746-8164-05438f82bf6c","ios":"levelo://app?vid=bbdb49f9-a9d2-4746-8164-05438f82bf6c"},"vehicle_type_id":"4","last_reported":1683864468,"current_range_meters":28400,"station_id":"ce4bh012rcd13ifvqcv0","pricing_plan_id":"free"},{"bike_id":"70834b7e-d29e-4ae5-84c0-99ad15d6bf77","system_id":"levelo_inurba_marseille","lat":43.309038,"lon":5.396546,"is_reserved":false,"is_disabled":false,"rental_uris":{"android":"levelo://app?vid=70834b7e-d29e-4ae5-84c0-99ad15d6bf77","ios":"levelo://app?vid=70834b7e-d29e-4ae5-84c0-99ad15d6bf77"},"vehicle_type_id":"4","last_reported":1683864468,"current_range_meters":22000,"station_id":"ce4bh012rcd13ifvqcv0","pricing_plan_id":"free"},{"bike_id":"078958e5-fe21-452d-95f2-8a464d5f0959","system_id":"levelo_inurba_marseille","lat":43.31328,"lon":5.39699,"is_reserved":false,"is_disabled":false,"rental_uris":{"android":"levelo://app?vid=078958e5-fe21-452d-95f2-8a464d5f0959","ios":"levelo://app?vid=078958e5-fe21-452d-95f2-8a464d5f0959"},"vehicle_type_id":"4","last_reported":1683864468,"current_range_meters":24800,"station_id":"ce4bgvp2rcd13ifvqcu0","pricing_plan_id":"free"},{"bike_id":"ed5f4c17-22cf-4a6e-a2bb-bf52d0c09ecd","system_id":"levelo_inurba_marseille","lat":43.309038,"lon":5.396546,"is_reserved":false,"is_disabled":false,"rental_uris":{"android":"levelo://app?vid=ed5f4c17-22cf-4a6e-a2bb-bf52d0c09ecd","ios":"levelo://app?vid=ed5f4c17-22cf-4a6e-a2bb-bf52d0c09ecd"},"vehicle_type_id":"4","last_reported":1683864468,"current_range_meters":13200,"station_id":"ce4bh012rcd13ifvqcv0","pricing_plan_id":"free"},{"bike_id":"ceb35c05-c725-4c2e-a231-25513c92ed1c","system_id":"levelo_inurba_marseille","lat":43.30881,"lon":5.39653,"is_reserved":false,"is_disabled":false,"rental_uris":{"android":"levelo://app?vid=ceb35c05-c725-4c2e-a231-25513c92ed1c","ios":"levelo://app?vid=ceb35c05-c725-4c2e-a231-25513c92ed1c"},"vehicle_type_id":"4","last_reported":1683864468,"current_range_meters":9200,"station_id":"ce4bh012rcd13ifvqcv0","pricing_plan_id":"free"},{"bike_id":"75e7be73-c2d6-4f07-befc-ea864acbf624","system_id":"levelo_inurba_marseille","lat":43.309038,"lon":5.396546,"is_reserved":false,"is_disabled":false,"rental_uris":{"android":"levelo://app?vid=75e7be73-c2d6-4f07-befc-ea864acbf624","ios":"levelo://app?vid=75e7be73-c2d6-4f07-befc-ea864acbf624"},"vehicle_type_id":"4","last_reported":1683864468,"current_range_meters":9200,"station_id":"ce4bh012rcd13ifvqcv0","pricing_plan_id":"free"},{"bike_id":"8bd1e410-fc16-4c16-b76d-0b2273c63a12","system_id":"levelo_inurba_marseille","lat":43.309038,"lon":5.396546,"is_reserved":false,"is_disabled":false,"rental_uris":{"android":"levelo://app?vid=8bd1e410-fc16-4c16-b76d-0b2273c63a12","ios":"levelo://app?vid=8bd1e410-fc16-4c16-b76d-0b2273c63a12"},"vehicle_type_id":"4","last_reported":1683864468,"current_range_meters":16000,"station_id":"ce4bh012rcd13ifvqcv0","pricing_plan_id":"free"},{"bike_id":"b150d4b9-fd2f-4d93-8ca1-698328ee7cf3","system_id":"levelo_inurba_marseille","lat":43.302008,"lon":5.394694,"is_reserved":false,"is_disabled":false,"rental_uris":{"android":"levelo://app?vid=b150d4b9-fd2f-4d93-8ca1-698328ee7cf3","ios":"levelo://app?vid=b150d4b9-fd2f-4d93-8ca1-698328ee7cf3"},"vehicle_type_id":"4","last_reported":1683864468,"current_range_meters":27600,"station_id":"ce4bh0p2rcd13ifvqd70","pricing_plan_id":"free"},{"bike_id":"097a50be-925c-45cd-8f6a-2b6e4b65832e","system_id":"levelo_inurba_marseille","lat":43.302008,"lon":5.394694,"is_reserved":false,"is_disabled":false,"rental_uris":{"android":"levelo://app?vid=097a50be-925c-45cd-8f6a-2b6e4b65832e","ios":"levelo://app?vid=097a50be-925c-45cd-8f6a-2b6e4b65832e"},"vehicle_type_id":"4","last_reported":1683864468,"current_range_meters":23200,"station_id":"ce4bh0p2rcd13ifvqd70","pricing_plan_id":"free"},{"bike_id":"e2c4ebd5-50d1-474e-bece-4a2d24cb868a","system_id":"levelo_inurba_marseille","lat":43.302008,"lon":5.394694,"is_reserved":false,"is_disabled":false,"rental_uris":{"android":"levelo://app?vid=e2c4ebd5-50d1-474e-bece-4a2d24cb868a","ios":"levelo://app?vid=e2c4ebd5-50d1-474e-bece-4a2d24cb868a"},"vehicle_type_id":"4","last_reported":1683864468,"current_range_meters":27600,"station_id":"ce4bh0p2rcd13ifvqd70","pricing_plan_id":"free"},{"bike_id":"801c18de-162f-497f-98a1-b2434cbe067b","system_id":"levelo_inurba_marseille","lat":43.30564,"lon":5.39798,"is_reserved":false,"is_disabled":false,"rental_uris":{"android":"levelo://app?vid=801c18de-162f-497f-98a1-b2434cbe067b","ios":"levelo://app?vid=801c18de-162f-497f-98a1-b2434cbe067b"},"vehicle_type_id":"4","last_reported":1683864468,"current_range_meters":0,"station_id":"","pricing_plan_id":"free"},{"bike_id":"e3a25908-09ef-43a6-aa40-0cf9544aec7f","system_id":"levelo_inurba_marseille","lat":43.29271,"lon":5.38443,"is_reserved":false,"is_disabled":false,"rental_uris":{"android":"levelo://app?vid=e3a25908-09ef-43a6-aa40-0cf9544aec7f","ios":"levelo://app?vid=e3a25908-09ef-43a6-aa40-0cf9544aec7f"},"vehicle_type_id":"4","last_reported":1683864468,"current_range_meters":0,"station_id":"ce4bh692rcd13ifvqea0","pricing_plan_id":"free"},{"bike_id":"203b2f11-a3b5-475b-8f41-939e1d33a596","system_id":"levelo_inurba_marseille","lat":43.33039,"lon":5.38915,"is_reserved":false,"is_disabled":false,"rental_uris":{"android":"levelo://app?vid=203b2f11-a3b5-475b-8f41-939e1d33a596","ios":"levelo://app?vid=203b2f11-a3b5-475b-8f41-939e1d33a596"},"vehicle_type_id":"4","last_reported":1683864468,"current_range_meters":25600,"station_id":"ce4bhr92rcd13ifvqhrg","pricing_plan_id":"free"},{"bike_id":"211b7316-10de-4bc7-a044-db2211126bbf","system_id":"levelo_inurba_marseille","lat":43.33037,"lon":5.38918,"is_reserved":false,"is_disabled":false,"rental_uris":{"android":"levelo://app?vid=211b7316-10de-4bc7-a044-db2211126bbf","ios":"levelo://app?vid=211b7316-10de-4bc7-a044-db2211126bbf"},"vehicle_type_id":"4","last_reported":1683864468,"current_range_meters":16400,"station_id":"ce4bhr92rcd13ifvqhrg","pricing_plan_id":"free"},{"bike_id":"96efe07e-8e96-4cf8-802c-f6d1fa050eb0","system_id":"levelo_inurba_marseille","lat":43.33041,"lon":5.38916,"is_reserved":false,"is_disabled":false,"rental_uris":{"android":"levelo://app?vid=96efe07e-8e96-4cf8-802c-f6d1fa050eb0","ios":"levelo://app?vid=96efe07e-8e96-4cf8-802c-f6d1fa050eb0"},"vehicle_type_id":"4","last_reported":1683864468,"current_range_meters":8000,"station_id":"ce4bhr92rcd13ifvqhrg","pricing_plan_id":"free"},{"bike_id":"0d5975c0-4e17-448c-aab7-0c4f12a4fc13","system_id":"levelo_inurba_marseille","lat":43.33044,"lon":5.38912,"is_reserved":false,"is_disabled":false,"rental_uris":{"android":"levelo://app?vid=0d5975c0-4e17-448c-aab7-0c4f12a4fc13","ios":"levelo://app?vid=0d5975c0-4e17-448c-aab7-0c4f12a4fc13"},"vehicle_type_id":"4","last_reported":1683864468,"current_range_meters":0,"station_id":"ce4bhr92rcd13ifvqhrg","pricing_plan_id":"free"},{"bike_id":"eb9c1069-6fcc-4052-90a5-6b75bbaeaa66","system_id":"levelo_inurba_marseille","lat":43.33043,"lon":5.38915,"is_reserved":false,"is_disabled":false,"rental_uris":{"android":"levelo://app?vid=eb9c1069-6fcc-4052-90a5-6b75bbaeaa66","ios":"levelo://app?vid=eb9c1069-6fcc-4052-90a5-6b75bbaeaa66"},"vehicle_type_id":"4","last_reported":1683864468,"current_range_meters":5600,"station_id":"ce4bhr92rcd13ifvqhrg","pricing_plan_id":"free"},{"bike_id":"f55f9613-885a-4d9f-b9d0-876dd874452b","system_id":"levelo_inurba_marseille","lat":43.33042,"lon":5.38917,"is_reserved":false,"is_disabled":false,"rental_uris":{"android":"levelo://app?vid=f55f9613-885a-4d9f-b9d0-876dd874452b","ios":"levelo://app?vid=f55f9613-885a-4d9f-b9d0-876dd874452b"},"vehicle_type_id":"4","last_reported":1683864468,"current_range_meters":21200,"station_id":"ce4bhr92rcd13ifvqhrg","pricing_plan_id":"free"},{"bike_id":"5c7ae945-7687-4b1e-ad1d-e0842d0ded22","system_id":"levelo_inurba_marseille","lat":43.33041,"lon":5.38919,"is_reserved":false,"is_disabled":false,"rental_uris":{"android":"levelo://app?vid=5c7ae945-7687-4b1e-ad1d-e0842d0ded22","ios":"levelo://app?vid=5c7ae945-7687-4b1e-ad1d-e0842d0ded22"},"vehicle_type_id":"4","last_reported":1683864468,"current_range_meters":17600,"station_id":"ce4bhr92rcd13ifvqhrg","pricing_plan_id":"free"},{"bike_id":"0942e249-8769-4e37-86ec-dec57500c4df","system_id":"levelo_inurba_marseille","lat":43.33043,"lon":5.38916,"is_reserved":false,"is_disabled":false,"rental_uris":{"android":"levelo://app?vid=0942e249-8769-4e37-86ec-dec57500c4df","ios":"levelo://app?vid=0942e249-8769-4e37-86ec-dec57500c4df"},"vehicle_type_id":"4","last_reported":1683864468,"current_range_meters":9200,"station_id":"ce4bhr92rcd13ifvqhrg","pricing_plan_id":"free"},{"bike_id":"f6227f8a-ad7f-4e58-9ebb-41713ba8dff5","system_id":"levelo_inurba_marseille","lat":43.33046,"lon":5.38913,"is_reserved":false,"is_disabled":false,"rental_uris":{"android":"levelo://app?vid=f6227f8a-ad7f-4e58-9ebb-41713ba8dff5","ios":"levelo://app?vid=f6227f8a-ad7f-4e58-9ebb-41713ba8dff5"},"vehicle_type_id":"4","last_reported":1683864468,"current_range_meters":26800,"station_id":"ce4bhr92rcd13ifvqhrg","pricing_plan_id":"free"},{"bike_id":"dcc144aa-a9bd-4c08-8a4a-dd77e94ea628","system_id":"levelo_inurba_marseille","lat":43.33045,"lon":5.38915,"is_reserved":false,"is_disabled":false,"rental_uris":{"android":"levelo://app?vid=dcc144aa-a9bd-4c08-8a4a-dd77e94ea628","ios":"levelo://app?vid=dcc144aa-a9bd-4c08-8a4a-dd77e94ea628"},"vehicle_type_id":"4","last_reported":1683864468,"current_range_meters":0,"station_id":"ce4bhr92rcd13ifvqhrg","pricing_plan_id":"free"},{"bike_id":"140e1a3f-a828-4524-8ed7-1fc0cdd5323a","system_id":"levelo_inurba_marseille","lat":43.33044,"lon":5.38917,"is_reserved":false,"is_disabled":false,"rental_uris":{"android":"levelo://app?vid=140e1a3f-a828-4524-8ed7-1fc0cdd5323a","ios":"levelo://app?vid=140e1a3f-a828-4524-8ed7-1fc0cdd5323a"},"vehicle_type_id":"4","last_reported":1683864468,"current_range_meters":21200,"station_id":"ce4bhr92rcd13ifvqhrg","pricing_plan_id":"free"},{"bike_id":"ea053720-efd1-4c74-9419-f2e59cbbf203","system_id":"levelo_inurba_marseille","lat":43.33044,"lon":5.38917,"is_reserved":false,"is_disabled":false,"rental_uris":{"android":"levelo://app?vid=ea053720-efd1-4c74-9419-f2e59cbbf203","ios":"levelo://app?vid=ea053720-efd1-4c74-9419-f2e59cbbf203"},"vehicle_type_id":"4","last_reported":1683864468,"current_range_meters":8400,"station_id":"ce4bhr92rcd13ifvqhrg","pricing_plan_id":"free"},{"bike_id":"291e92dd-c2ab-4c58-b1dd-0973f1c413d5","system_id":"levelo_inurba_marseille","lat":43.33041,"lon":5.38922,"is_reserved":false,"is_disabled":false,"rental_uris":{"android":"levelo://app?vid=291e92dd-c2ab-4c58-b1dd-0973f1c413d5","ios":"levelo://app?vid=291e92dd-c2ab-4c58-b1dd-0973f1c413d5"},"vehicle_type_id":"4","last_reported":1683864468,"current_range_meters":23200,"station_id":"ce4bhr92rcd13ifvqhrg","pricing_plan_id":"free"},{"bike_id":"154bd7a0-b17c-47e4-a248-4f695cb75ec6","system_id":"levelo_inurba_marseille","lat":43.33047,"lon":5.38917,"is_reserved":false,"is_disabled":false,"rental_uris":{"android":"levelo://app?vid=154bd7a0-b17c-47e4-a248-4f695cb75ec6","ios":"levelo://app?vid=154bd7a0-b17c-47e4-a248-4f695cb75ec6"},"vehicle_type_id":"4","last_reported":1683864468,"current_range_meters":21600,"station_id":"ce4bhr92rcd13ifvqhrg","pricing_plan_id":"free"},{"bike_id":"7fc05405-7f4a-4c95-90fa-3a4f57686196","system_id":"levelo_inurba_marseille","lat":43.28996,"lon":5.35608,"is_reserved":false,"is_disabled":false,"rental_uris":{"android":"levelo://app?vid=7fc05405-7f4a-4c95-90fa-3a4f57686196","ios":"levelo://app?vid=7fc05405-7f4a-4c95-90fa-3a4f57686196"},"vehicle_type_id":"4","last_reported":1683864468,"current_range_meters":14800,"station_id":"","pricing_plan_id":"free"},{"bike_id":"5092c268-7bfe-4872-8dbb-ea7a979d6715","system_id":"levelo_inurba_marseille","lat":43.28873,"lon":5.35863,"is_reserved":false,"is_disabled":false,"rental_uris":{"android":"levelo://app?vid=5092c268-7bfe-4872-8dbb-ea7a979d6715","ios":"levelo://app?vid=5092c268-7bfe-4872-8dbb-ea7a979d6715"},"vehicle_type_id":"4","last_reported":1683864468,"current_range_meters":31200,"station_id":"","pricing_plan_id":"free"},{"bike_id":"bd8a5d8f-fcf9-4c0b-beea-fbf07004b732","system_id":"levelo_inurba_marseille","lat":43.28856,"lon":5.358371,"is_reserved":false,"is_disabled":false,"rental_uris":{"android":"levelo://app?vid=bd8a5d8f-fcf9-4c0b-beea-fbf07004b732","ios":"levelo://app?vid=bd8a5d8f-fcf9-4c0b-beea-fbf07004b732"},"vehicle_type_id":"4","last_reported":1683864468,"current_range_meters":12000,"station_id":"ce4bhb12rcd13ifvqem0","pricing_plan_id":"free"},{"bike_id":"1ae28bd7-c220-4767-bb54-a194de2d1ca9","system_id":"levelo_inurba_marseille","lat":43.28856,"lon":5.358371,"is_reserved":false,"is_disabled":false,"rental_uris":{"android":"levelo://app?vid=1ae28bd7-c220-4767-bb54-a194de2d1ca9","ios":"levelo://app?vid=1ae28bd7-c220-4767-bb54-a194de2d1ca9"},"vehicle_type_id":"4","last_reported":1683864468,"current_range_meters":31600,"station_id":"ce4bhb12rcd13ifvqem0","pricing_plan_id":"free"},{"bike_id":"c4021901-a9c3-4d42-b783-ce6991355322","system_id":"levelo_inurba_marseille","lat":43.33076,"lon":5.3905,"is_reserved":false,"is_disabled":false,"rental_uris":{"android":"levelo://app?vid=c4021901-a9c3-4d42-b783-ce6991355322","ios":"levelo://app?vid=c4021901-a9c3-4d42-b783-ce6991355322"},"vehicle_type_id":"4","last_reported":1683864468,"current_range_meters":0,"station_id":"","pricing_plan_id":"free"},{"bike_id":"542f67ff-b962-4f43-ad16-62426bb802af","system_id":"levelo_inurba_marseille","lat":43.28856,"lon":5.358371,"is_reserved":false,"is_disabled":false,"rental_uris":{"android":"levelo://app?vid=542f67ff-b962-4f43-ad16-62426bb802af","ios":"levelo://app?vid=542f67ff-b962-4f43-ad16-62426bb802af"},"vehicle_type_id":"4","last_reported":1683864468,"current_range_meters":2400,"station_id":"ce4bhb12rcd13ifvqem0","pricing_plan_id":"free"},{"bike_id":"4f252e65-e480-4a8f-9278-ab1dfd67121e","system_id":"levelo_inurba_marseille","lat":43.28856,"lon":5.358371,"is_reserved":false,"is_disabled":false,"rental_uris":{"android":"levelo://app?vid=4f252e65-e480-4a8f-9278-ab1dfd67121e","ios":"levelo://app?vid=4f252e65-e480-4a8f-9278-ab1dfd67121e"},"vehicle_type_id":"4","last_reported":1683864468,"current_range_meters":31200,"station_id":"ce4bhb12rcd13ifvqem0","pricing_plan_id":"free"},{"bike_id":"0edd5bc9-7355-4146-a55e-889236c924df","system_id":"levelo_inurba_marseille","lat":43.28855,"lon":5.35854,"is_reserved":false,"is_disabled":false,"rental_uris":{"android":"levelo://app?vid=0edd5bc9-7355-4146-a55e-889236c924df","ios":"levelo://app?vid=0edd5bc9-7355-4146-a55e-889236c924df"},"vehicle_type_id":"4","last_reported":1683864468,"current_range_meters":31200,"station_id":"ce4bhb12rcd13ifvqem0","pricing_plan_id":"free"},{"bike_id":"b812c44a-a09b-4c74-b7fb-55422a491016","system_id":"levelo_inurba_marseille","lat":43.28856,"lon":5.358371,"is_reserved":false,"is_disabled":false,"rental_uris":{"android":"levelo://app?vid=b812c44a-a09b-4c74-b7fb-55422a491016","ios":"levelo://app?vid=b812c44a-a09b-4c74-b7fb-55422a491016"},"vehicle_type_id":"4","last_reported":1683864468,"current_range_meters":13600,"station_id":"ce4bhb12rcd13ifvqem0","pricing_plan_id":"free"},{"bike_id":"233a53cc-73a8-4a3f-aac3-07c5231870a1","system_id":"levelo_inurba_marseille","lat":43.28856,"lon":5.358371,"is_reserved":false,"is_disabled":false,"rental_uris":{"android":"levelo://app?vid=233a53cc-73a8-4a3f-aac3-07c5231870a1","ios":"levelo://app?vid=233a53cc-73a8-4a3f-aac3-07c5231870a1"},"vehicle_type_id":"4","last_reported":1683864468,"current_range_meters":24400,"station_id":"ce4bhb12rcd13ifvqem0","pricing_plan_id":"free"},{"bike_id":"0693a76e-00d0-4673-ad0e-13d8a14367c2","system_id":"levelo_inurba_marseille","lat":43.28856,"lon":5.358371,"is_reserved":false,"is_disabled":false,"rental_uris":{"android":"levelo://app?vid=0693a76e-00d0-4673-ad0e-13d8a14367c2","ios":"levelo://app?vid=0693a76e-00d0-4673-ad0e-13d8a14367c2"},"vehicle_type_id":"4","last_reported":1683864468,"current_range_meters":31200,"station_id":"ce4bhb12rcd13ifvqem0","pricing_plan_id":"free"},{"bike_id":"b915105b-500b-46f3-b101-50a018fbc645","system_id":"levelo_inurba_marseille","lat":43.28856,"lon":5.358371,"is_reserved":false,"is_disabled":false,"rental_uris":{"android":"levelo://app?vid=b915105b-500b-46f3-b101-50a018fbc645","ios":"levelo://app?vid=b915105b-500b-46f3-b101-50a018fbc645"},"vehicle_type_id":"4","last_reported":1683864468,"current_range_meters":31200,"station_id":"ce4bhb12rcd13ifvqem0","pricing_plan_id":"free"},{"bike_id":"07c09652-a375-4e07-b544-478aed47fcbb","system_id":"levelo_inurba_marseille","lat":43.28856,"lon":5.358371,"is_reserved":false,"is_disabled":false,"rental_uris":{"android":"levelo://app?vid=07c09652-a375-4e07-b544-478aed47fcbb","ios":"levelo://app?vid=07c09652-a375-4e07-b544-478aed47fcbb"},"vehicle_type_id":"4","last_reported":1683864468,"current_range_meters":31600,"station_id":"ce4bhb12rcd13ifvqem0","pricing_plan_id":"free"},{"bike_id":"b4b39268-3abf-4f4a-a0e4-52244da9a53a","system_id":"levelo_inurba_marseille","lat":43.28842,"lon":5.35857,"is_reserved":false,"is_disabled":false,"rental_uris":{"android":"levelo://app?vid=b4b39268-3abf-4f4a-a0e4-52244da9a53a","ios":"levelo://app?vid=b4b39268-3abf-4f4a-a0e4-52244da9a53a"},"vehicle_type_id":"4","last_reported":1683864468,"current_range_meters":23200,"station_id":"ce4bhb12rcd13ifvqem0","pricing_plan_id":"free"},{"bike_id":"59063888-64d0-4490-b755-7afd1afcd308","system_id":"levelo_inurba_marseille","lat":43.306402,"lon":5.400676,"is_reserved":false,"is_disabled":false,"rental_uris":{"android":"levelo://app?vid=59063888-64d0-4490-b755-7afd1afcd308","ios":"levelo://app?vid=59063888-64d0-4490-b755-7afd1afcd308"},"vehicle_type_id":"4","last_reported":1683864468,"current_range_meters":25600,"station_id":"ce4bh112rcd13ifvqda0","pricing_plan_id":"free"},{"bike_id":"3437dc83-798a-4e60-a597-53d33f74be3b","system_id":"levelo_inurba_marseille","lat":43.306402,"lon":5.400676,"is_reserved":false,"is_disabled":false,"rental_uris":{"android":"levelo://app?vid=3437dc83-798a-4e60-a597-53d33f74be3b","ios":"levelo://app?vid=3437dc83-798a-4e60-a597-53d33f74be3b"},"vehicle_type_id":"4","last_reported":1683864468,"current_range_meters":14800,"station_id":"ce4bh112rcd13ifvqda0","pricing_plan_id":"free"},{"bike_id":"84b20eb2-196f-45d8-a651-43a28c5f9049","system_id":"levelo_inurba_marseille","lat":43.306402,"lon":5.400676,"is_reserved":false,"is_disabled":false,"rental_uris":{"android":"levelo://app?vid=84b20eb2-196f-45d8-a651-43a28c5f9049","ios":"levelo://app?vid=84b20eb2-196f-45d8-a651-43a28c5f9049"},"vehicle_type_id":"4","last_reported":1683864468,"current_range_meters":30800,"station_id":"ce4bh112rcd13ifvqda0","pricing_plan_id":"free"},{"bike_id":"1809e6cf-7891-4fac-9895-47792bccb12b","system_id":"levelo_inurba_marseille","lat":43.306407,"lon":5.400697,"is_reserved":false,"is_disabled":false,"rental_uris":{"android":"levelo://app?vid=1809e6cf-7891-4fac-9895-47792bccb12b","ios":"levelo://app?vid=1809e6cf-7891-4fac-9895-47792bccb12b"},"vehicle_type_id":"4","last_reported":1683864468,"current_range_meters":31200,"station_id":"ce4bh112rcd13ifvqda0","pricing_plan_id":"free"},{"bike_id":"7c56c76c-733e-4eb1-9830-931e734057aa","system_id":"levelo_inurba_marseille","lat":43.3375,"lon":5.37468,"is_reserved":false,"is_disabled":false,"rental_uris":{"android":"levelo://app?vid=7c56c76c-733e-4eb1-9830-931e734057aa","ios":"levelo://app?vid=7c56c76c-733e-4eb1-9830-931e734057aa"},"vehicle_type_id":"4","last_reported":1683864468,"current_range_meters":26400,"station_id":"","pricing_plan_id":"free"},{"bike_id":"9126ff24-82e9-41aa-bf3f-a6bbf3245282","system_id":"levelo_inurba_marseille","lat":43.306364,"lon":5.400712,"is_reserved":false,"is_disabled":false,"rental_uris":{"android":"levelo://app?vid=9126ff24-82e9-41aa-bf3f-a6bbf3245282","ios":"levelo://app?vid=9126ff24-82e9-41aa-bf3f-a6bbf3245282"},"vehicle_type_id":"4","last_reported":1683864468,"current_range_meters":27200,"station_id":"ce4bh112rcd13ifvqda0","pricing_plan_id":"free"},{"bike_id":"ef38c5ae-8310-421c-8175-6fc4e9e20913","system_id":"levelo_inurba_marseille","lat":43.30637,"lon":5.40076,"is_reserved":false,"is_disabled":false,"rental_uris":{"android":"levelo://app?vid=ef38c5ae-8310-421c-8175-6fc4e9e20913","ios":"levelo://app?vid=ef38c5ae-8310-421c-8175-6fc4e9e20913"},"vehicle_type_id":"4","last_reported":1683864468,"current_range_meters":17200,"station_id":"ce4bh112rcd13ifvqda0","pricing_plan_id":"free"},{"bike_id":"6cbea0a2-4f67-4933-b132-597776ec8271","system_id":"levelo_inurba_marseille","lat":43.30642,"lon":5.401031,"is_reserved":false,"is_disabled":false,"rental_uris":{"android":"levelo://app?vid=6cbea0a2-4f67-4933-b132-597776ec8271","ios":"levelo://app?vid=6cbea0a2-4f67-4933-b132-597776ec8271"},"vehicle_type_id":"4","last_reported":1683864468,"current_range_meters":16400,"station_id":"ce4bh112rcd13ifvqda0","pricing_plan_id":"free"},{"bike_id":"6f22d1b2-31db-4fa3-8551-0087fa579795","system_id":"levelo_inurba_marseille","lat":43.30645,"lon":5.40083,"is_reserved":false,"is_disabled":false,"rental_uris":{"android":"levelo://app?vid=6f22d1b2-31db-4fa3-8551-0087fa579795","ios":"levelo://app?vid=6f22d1b2-31db-4fa3-8551-0087fa579795"},"vehicle_type_id":"4","last_reported":1683864468,"current_range_meters":11600,"station_id":"ce4bh112rcd13ifvqda0","pricing_plan_id":"free"},{"bike_id":"b580e0e2-2f8d-4df7-94bc-e067ad6ab0cb","system_id":"levelo_inurba_marseille","lat":43.32677,"lon":5.39614,"is_reserved":false,"is_disabled":false,"rental_uris":{"android":"levelo://app?vid=b580e0e2-2f8d-4df7-94bc-e067ad6ab0cb","ios":"levelo://app?vid=b580e0e2-2f8d-4df7-94bc-e067ad6ab0cb"},"vehicle_type_id":"4","last_reported":1683864468,"current_range_meters":12800,"station_id":"","pricing_plan_id":"free"},{"bike_id":"4e96cab5-8946-4e29-bc6e-fbe240a0e7fc","system_id":"levelo_inurba_marseille","lat":43.30642,"lon":5.401031,"is_reserved":false,"is_disabled":false,"rental_uris":{"android":"levelo://app?vid=4e96cab5-8946-4e29-bc6e-fbe240a0e7fc","ios":"levelo://app?vid=4e96cab5-8946-4e29-bc6e-fbe240a0e7fc"},"vehicle_type_id":"4","last_reported":1683864468,"current_range_meters":31200,"station_id":"ce4bh112rcd13ifvqda0","pricing_plan_id":"free"},{"bike_id":"cbb0021f-c4d0-4435-9a41-c22932864d90","system_id":"levelo_inurba_marseille","lat":43.30642,"lon":5.401031,"is_reserved":false,"is_disabled":false,"rental_uris":{"android":"levelo://app?vid=cbb0021f-c4d0-4435-9a41-c22932864d90","ios":"levelo://app?vid=cbb0021f-c4d0-4435-9a41-c22932864d90"},"vehicle_type_id":"4","last_reported":1683864468,"current_range_meters":31200,"station_id":"ce4bh112rcd13ifvqda0","pricing_plan_id":"free"},{"bike_id":"96f55cdc-9bad-4365-832c-856c474c51e3","system_id":"levelo_inurba_marseille","lat":43.30642,"lon":5.401031,"is_reserved":false,"is_disabled":false,"rental_uris":{"android":"levelo://app?vid=96f55cdc-9bad-4365-832c-856c474c51e3","ios":"levelo://app?vid=96f55cdc-9bad-4365-832c-856c474c51e3"},"vehicle_type_id":"4","last_reported":1683864468,"current_range_meters":0,"station_id":"ce4bh112rcd13ifvqda0","pricing_plan_id":"free"},{"bike_id":"80b5d26d-9f34-44b8-a0ca-d698b1997862","system_id":"levelo_inurba_marseille","lat":43.30642,"lon":5.401031,"is_reserved":false,"is_disabled":false,"rental_uris":{"android":"levelo://app?vid=80b5d26d-9f34-44b8-a0ca-d698b1997862","ios":"levelo://app?vid=80b5d26d-9f34-44b8-a0ca-d698b1997862"},"vehicle_type_id":"4","last_reported":1683864468,"current_range_meters":15200,"station_id":"ce4bh112rcd13ifvqda0","pricing_plan_id":"free"},{"bike_id":"7579c875-e52a-4bd1-b37b-8767c41d3fe8","system_id":"levelo_inurba_marseille","lat":43.30642,"lon":5.401031,"is_reserved":false,"is_disabled":false,"rental_uris":{"android":"levelo://app?vid=7579c875-e52a-4bd1-b37b-8767c41d3fe8","ios":"levelo://app?vid=7579c875-e52a-4bd1-b37b-8767c41d3fe8"},"vehicle_type_id":"4","last_reported":1683864468,"current_range_meters":20800,"station_id":"ce4bh112rcd13ifvqda0","pricing_plan_id":"free"},{"bike_id":"986ea138-6806-4047-be93-3db3b572d0db","system_id":"levelo_inurba_marseille","lat":43.30642,"lon":5.401031,"is_reserved":false,"is_disabled":false,"rental_uris":{"android":"levelo://app?vid=986ea138-6806-4047-be93-3db3b572d0db","ios":"levelo://app?vid=986ea138-6806-4047-be93-3db3b572d0db"},"vehicle_type_id":"4","last_reported":1683864468,"current_range_meters":16400,"station_id":"ce4bh112rcd13ifvqda0","pricing_plan_id":"free"},{"bike_id":"4fc71a92-9b93-4180-b13a-e8e09676fc18","system_id":"levelo_inurba_marseille","lat":43.30642,"lon":5.401031,"is_reserved":false,"is_disabled":false,"rental_uris":{"android":"levelo://app?vid=4fc71a92-9b93-4180-b13a-e8e09676fc18","ios":"levelo://app?vid=4fc71a92-9b93-4180-b13a-e8e09676fc18"},"vehicle_type_id":"4","last_reported":1683864468,"current_range_meters":30800,"station_id":"ce4bh112rcd13ifvqda0","pricing_plan_id":"free"},{"bike_id":"9b298a8e-333a-4bc3-91ff-4e772f8c75f4","system_id":"levelo_inurba_marseille","lat":43.30647,"lon":5.40114,"is_reserved":false,"is_disabled":false,"rental_uris":{"android":"levelo://app?vid=9b298a8e-333a-4bc3-91ff-4e772f8c75f4","ios":"levelo://app?vid=9b298a8e-333a-4bc3-91ff-4e772f8c75f4"},"vehicle_type_id":"4","last_reported":1683864468,"current_range_meters":31200,"station_id":"ce4bh112rcd13ifvqda0","pricing_plan_id":"free"},{"bike_id":"4ba922c5-2f98-4693-8f92-a43d05cde276","system_id":"levelo_inurba_marseille","lat":43.301117,"lon":5.398795,"is_reserved":false,"is_disabled":false,"rental_uris":{"android":"levelo://app?vid=4ba922c5-2f98-4693-8f92-a43d05cde276","ios":"levelo://app?vid=4ba922c5-2f98-4693-8f92-a43d05cde276"},"vehicle_type_id":"4","last_reported":1683864468,"current_range_meters":15200,"station_id":"ce4bh0h2rcd13ifvqd40","pricing_plan_id":"free"},{"bike_id":"1a05fdc2-b924-4e0a-bac4-82bc17482333","system_id":"levelo_inurba_marseille","lat":43.301117,"lon":5.398795,"is_reserved":false,"is_disabled":false,"rental_uris":{"android":"levelo://app?vid=1a05fdc2-b924-4e0a-bac4-82bc17482333","ios":"levelo://app?vid=1a05fdc2-b924-4e0a-bac4-82bc17482333"},"vehicle_type_id":"4","last_reported":1683864468,"current_range_meters":12800,"station_id":"ce4bh0h2rcd13ifvqd40","pricing_plan_id":"free"},{"bike_id":"0d0cc81a-f53d-4353-9adf-148fd90d91c6","system_id":"levelo_inurba_marseille","lat":43.301117,"lon":5.398795,"is_reserved":false,"is_disabled":false,"rental_uris":{"android":"levelo://app?vid=0d0cc81a-f53d-4353-9adf-148fd90d91c6","ios":"levelo://app?vid=0d0cc81a-f53d-4353-9adf-148fd90d91c6"},"vehicle_type_id":"4","last_reported":1683864468,"current_range_meters":24000,"station_id":"ce4bh0h2rcd13ifvqd40","pricing_plan_id":"free"},{"bike_id":"324e4b57-87a3-4462-a869-aa19bca96f1d","system_id":"levelo_inurba_marseille","lat":43.301117,"lon":5.398795,"is_reserved":false,"is_disabled":false,"rental_uris":{"android":"levelo://app?vid=324e4b57-87a3-4462-a869-aa19bca96f1d","ios":"levelo://app?vid=324e4b57-87a3-4462-a869-aa19bca96f1d"},"vehicle_type_id":"4","last_reported":1683864468,"current_range_meters":26000,"station_id":"ce4bh0h2rcd13ifvqd40","pricing_plan_id":"free"},{"bike_id":"69a86a17-eeb7-4eca-b104-fa8f6b389c1e","system_id":"levelo_inurba_marseille","lat":43.301117,"lon":5.398795,"is_reserved":false,"is_disabled":false,"rental_uris":{"android":"levelo://app?vid=69a86a17-eeb7-4eca-b104-fa8f6b389c1e","ios":"levelo://app?vid=69a86a17-eeb7-4eca-b104-fa8f6b389c1e"},"vehicle_type_id":"4","last_reported":1683864468,"current_range_meters":28400,"station_id":"ce4bh0h2rcd13ifvqd40","pricing_plan_id":"free"},{"bike_id":"21be45b9-6b80-42cd-97a1-1746d075faa3","system_id":"levelo_inurba_marseille","lat":43.298681,"lon":5.397225,"is_reserved":false,"is_disabled":false,"rental_uris":{"android":"levelo://app?vid=21be45b9-6b80-42cd-97a1-1746d075faa3","ios":"levelo://app?vid=21be45b9-6b80-42cd-97a1-1746d075faa3"},"vehicle_type_id":"4","last_reported":1683864468,"current_range_meters":14800,"station_id":"ce4bh0h2rcd13ifvqd50","pricing_plan_id":"free"},{"bike_id":"e3dec264-588d-4d35-95ca-6c879ecd9e85","system_id":"levelo_inurba_marseille","lat":43.298681,"lon":5.397225,"is_reserved":false,"is_disabled":false,"rental_uris":{"android":"levelo://app?vid=e3dec264-588d-4d35-95ca-6c879ecd9e85","ios":"levelo://app?vid=e3dec264-588d-4d35-95ca-6c879ecd9e85"},"vehicle_type_id":"4","last_reported":1683864468,"current_range_meters":31200,"station_id":"ce4bh0h2rcd13ifvqd50","pricing_plan_id":"free"},{"bike_id":"55d7f355-01ea-420b-baba-6b64695bb301","system_id":"levelo_inurba_marseille","lat":43.298681,"lon":5.397225,"is_reserved":false,"is_disabled":false,"rental_uris":{"android":"levelo://app?vid=55d7f355-01ea-420b-baba-6b64695bb301","ios":"levelo://app?vid=55d7f355-01ea-420b-baba-6b64695bb301"},"vehicle_type_id":"4","last_reported":1683864468,"current_range_meters":31200,"station_id":"ce4bh0h2rcd13ifvqd50","pricing_plan_id":"free"},{"bike_id":"6c2e3b69-9159-417b-8bfa-d230992ca7a4","system_id":"levelo_inurba_marseille","lat":43.28662,"lon":5.36358,"is_reserved":false,"is_disabled":false,"rental_uris":{"android":"levelo://app?vid=6c2e3b69-9159-417b-8bfa-d230992ca7a4","ios":"levelo://app?vid=6c2e3b69-9159-417b-8bfa-d230992ca7a4"},"vehicle_type_id":"4","last_reported":1683864468,"current_range_meters":17600,"station_id":"ce4bhah2rcd13ifvqej0","pricing_plan_id":"free"},{"bike_id":"9e3cc95c-d365-4d30-95a7-0e048152d637","system_id":"levelo_inurba_marseille","lat":43.28662,"lon":5.36356,"is_reserved":false,"is_disabled":false,"rental_uris":{"android":"levelo://app?vid=9e3cc95c-d365-4d30-95a7-0e048152d637","ios":"levelo://app?vid=9e3cc95c-d365-4d30-95a7-0e048152d637"},"vehicle_type_id":"4","last_reported":1683864468,"current_range_meters":20400,"station_id":"ce4bhah2rcd13ifvqej0","pricing_plan_id":"free"},{"bike_id":"872f930c-9330-4cdf-8767-6967c8211f19","system_id":"levelo_inurba_marseille","lat":43.298681,"lon":5.397225,"is_reserved":false,"is_disabled":false,"rental_uris":{"android":"levelo://app?vid=872f930c-9330-4cdf-8767-6967c8211f19","ios":"levelo://app?vid=872f930c-9330-4cdf-8767-6967c8211f19"},"vehicle_type_id":"4","last_reported":1683864468,"current_range_meters":31200,"station_id":"ce4bh0h2rcd13ifvqd50","pricing_plan_id":"free"},{"bike_id":"dde08a80-06cc-47ec-95c2-d5f0d88341ff","system_id":"levelo_inurba_marseille","lat":43.286593,"lon":5.363346,"is_reserved":false,"is_disabled":false,"rental_uris":{"android":"levelo://app?vid=dde08a80-06cc-47ec-95c2-d5f0d88341ff","ios":"levelo://app?vid=dde08a80-06cc-47ec-95c2-d5f0d88341ff"},"vehicle_type_id":"4","last_reported":1683864468,"current_range_meters":31200,"station_id":"ce4bhah2rcd13ifvqej0","pricing_plan_id":"free"},{"bike_id":"ca4b949b-00ff-4833-8963-64eb2d4342b4","system_id":"levelo_inurba_marseille","lat":43.286593,"lon":5.363346,"is_reserved":false,"is_disabled":false,"rental_uris":{"android":"levelo://app?vid=ca4b949b-00ff-4833-8963-64eb2d4342b4","ios":"levelo://app?vid=ca4b949b-00ff-4833-8963-64eb2d4342b4"},"vehicle_type_id":"4","last_reported":1683864468,"current_range_meters":30400,"station_id":"ce4bhah2rcd13ifvqej0","pricing_plan_id":"free"},{"bike_id":"5c385709-9ede-4e1e-a81c-dcf4c56b5b6c","system_id":"levelo_inurba_marseille","lat":43.298681,"lon":5.397225,"is_reserved":false,"is_disabled":false,"rental_uris":{"android":"levelo://app?vid=5c385709-9ede-4e1e-a81c-dcf4c56b5b6c","ios":"levelo://app?vid=5c385709-9ede-4e1e-a81c-dcf4c56b5b6c"},"vehicle_type_id":"4","last_reported":1683864468,"current_range_meters":26800,"station_id":"ce4bh0h2rcd13ifvqd50","pricing_plan_id":"free"},{"bike_id":"a602e2da-32b4-4b2f-a90f-23ff28ce36d5","system_id":"levelo_inurba_marseille","lat":43.295194,"lon":5.39397,"is_reserved":false,"is_disabled":false,"rental_uris":{"android":"levelo://app?vid=a602e2da-32b4-4b2f-a90f-23ff28ce36d5","ios":"levelo://app?vid=a602e2da-32b4-4b2f-a90f-23ff28ce36d5"},"vehicle_type_id":"4","last_reported":1683864468,"current_range_meters":24400,"station_id":"ce4bh292rcd13ifvqdf0","pricing_plan_id":"free"},{"bike_id":"3f31ff08-0ed6-4108-9184-d7231d2394e4","system_id":"levelo_inurba_marseille","lat":43.295194,"lon":5.39397,"is_reserved":false,"is_disabled":false,"rental_uris":{"android":"levelo://app?vid=3f31ff08-0ed6-4108-9184-d7231d2394e4","ios":"levelo://app?vid=3f31ff08-0ed6-4108-9184-d7231d2394e4"},"vehicle_type_id":"4","last_reported":1683864468,"current_range_meters":6800,"station_id":"ce4bh292rcd13ifvqdf0","pricing_plan_id":"free"},{"bike_id":"47cbb5c8-4490-44d5-850f-82139616c211","system_id":"levelo_inurba_marseille","lat":43.2952,"lon":5.39401,"is_reserved":false,"is_disabled":false,"rental_uris":{"android":"levelo://app?vid=47cbb5c8-4490-44d5-850f-82139616c211","ios":"levelo://app?vid=47cbb5c8-4490-44d5-850f-82139616c211"},"vehicle_type_id":"4","last_reported":1683864468,"current_range_meters":16000,"station_id":"ce4bh292rcd13ifvqdf0","pricing_plan_id":"free"},{"bike_id":"efed46e1-2509-49df-9717-a0eafdbd6452","system_id":"levelo_inurba_marseille","lat":43.295196,"lon":5.39397,"is_reserved":false,"is_disabled":false,"rental_uris":{"android":"levelo://app?vid=efed46e1-2509-49df-9717-a0eafdbd6452","ios":"levelo://app?vid=efed46e1-2509-49df-9717-a0eafdbd6452"},"vehicle_type_id":"4","last_reported":1683864468,"current_range_meters":29600,"station_id":"ce4bh292rcd13ifvqdf0","pricing_plan_id":"free"},{"bike_id":"6d884877-8fe7-49ef-b1e4-bae796311dd0","system_id":"levelo_inurba_marseille","lat":43.29517,"lon":5.39405,"is_reserved":false,"is_disabled":false,"rental_uris":{"android":"levelo://app?vid=6d884877-8fe7-49ef-b1e4-bae796311dd0","ios":"levelo://app?vid=6d884877-8fe7-49ef-b1e4-bae796311dd0"},"vehicle_type_id":"4","last_reported":1683864468,"current_range_meters":17200,"station_id":"ce4bh292rcd13ifvqdf0","pricing_plan_id":"free"},{"bike_id":"934968fe-dc42-4507-8d4e-67e3a39bc87b","system_id":"levelo_inurba_marseille","lat":43.302759,"lon":5.400793,"is_reserved":false,"is_disabled":false,"rental_uris":{"android":"levelo://app?vid=934968fe-dc42-4507-8d4e-67e3a39bc87b","ios":"levelo://app?vid=934968fe-dc42-4507-8d4e-67e3a39bc87b"},"vehicle_type_id":"4","last_reported":1683864468,"current_range_meters":25200,"station_id":"ce4bgvh2rcd13ifvqcs0","pricing_plan_id":"free"},{"bike_id":"d5857664-8919-4a36-95c4-705863ad0ffc","system_id":"levelo_inurba_marseille","lat":43.302759,"lon":5.400793,"is_reserved":false,"is_disabled":false,"rental_uris":{"android":"levelo://app?vid=d5857664-8919-4a36-95c4-705863ad0ffc","ios":"levelo://app?vid=d5857664-8919-4a36-95c4-705863ad0ffc"},"vehicle_type_id":"4","last_reported":1683864468,"current_range_meters":30000,"station_id":"ce4bgvh2rcd13ifvqcs0","pricing_plan_id":"free"},{"bike_id":"3d66eff7-2911-4776-9050-3c091612bf78","system_id":"levelo_inurba_marseille","lat":43.302759,"lon":5.400793,"is_reserved":false,"is_disabled":false,"rental_uris":{"android":"levelo://app?vid=3d66eff7-2911-4776-9050-3c091612bf78","ios":"levelo://app?vid=3d66eff7-2911-4776-9050-3c091612bf78"},"vehicle_type_id":"4","last_reported":1683864468,"current_range_meters":31200,"station_id":"ce4bgvh2rcd13ifvqcs0","pricing_plan_id":"free"},{"bike_id":"9b7a55bb-237a-4a5f-aff8-91d15b4aa367","system_id":"levelo_inurba_marseille","lat":43.302759,"lon":5.400793,"is_reserved":false,"is_disabled":false,"rental_uris":{"android":"levelo://app?vid=9b7a55bb-237a-4a5f-aff8-91d15b4aa367","ios":"levelo://app?vid=9b7a55bb-237a-4a5f-aff8-91d15b4aa367"},"vehicle_type_id":"4","last_reported":1683864468,"current_range_meters":19600,"station_id":"ce4bgvh2rcd13ifvqcs0","pricing_plan_id":"free"},{"bike_id":"8c8202d9-ea3b-4182-a2ff-912af7ac5e2f","system_id":"levelo_inurba_marseille","lat":43.302759,"lon":5.400793,"is_reserved":false,"is_disabled":false,"rental_uris":{"android":"levelo://app?vid=8c8202d9-ea3b-4182-a2ff-912af7ac5e2f","ios":"levelo://app?vid=8c8202d9-ea3b-4182-a2ff-912af7ac5e2f"},"vehicle_type_id":"4","last_reported":1683864468,"current_range_meters":31600,"station_id":"ce4bgvh2rcd13ifvqcs0","pricing_plan_id":"free"},{"bike_id":"43fa76d1-2b45-44c4-8d8b-9817283ef84a","system_id":"levelo_inurba_marseille","lat":43.302759,"lon":5.400793,"is_reserved":false,"is_disabled":false,"rental_uris":{"android":"levelo://app?vid=43fa76d1-2b45-44c4-8d8b-9817283ef84a","ios":"levelo://app?vid=43fa76d1-2b45-44c4-8d8b-9817283ef84a"},"vehicle_type_id":"4","last_reported":1683864468,"current_range_meters":31200,"station_id":"ce4bgvh2rcd13ifvqcs0","pricing_plan_id":"free"},{"bike_id":"742fc298-88d3-40c0-8b42-a3eae1a7061e","system_id":"levelo_inurba_marseille","lat":43.28611,"lon":5.37071,"is_reserved":false,"is_disabled":false,"rental_uris":{"android":"levelo://app?vid=742fc298-88d3-40c0-8b42-a3eae1a7061e","ios":"levelo://app?vid=742fc298-88d3-40c0-8b42-a3eae1a7061e"},"vehicle_type_id":"4","last_reported":1683864468,"current_range_meters":29200,"station_id":"ce4bht12rcd13ifvqi60","pricing_plan_id":"free"},{"bike_id":"b9e5bc60-7a17-4e6b-8450-94055db69bb2","system_id":"levelo_inurba_marseille","lat":43.286039,"lon":5.370679,"is_reserved":false,"is_disabled":false,"rental_uris":{"android":"levelo://app?vid=b9e5bc60-7a17-4e6b-8450-94055db69bb2","ios":"levelo://app?vid=b9e5bc60-7a17-4e6b-8450-94055db69bb2"},"vehicle_type_id":"4","last_reported":1683864468,"current_range_meters":28400,"station_id":"ce4bht12rcd13ifvqi60","pricing_plan_id":"free"},{"bike_id":"a3343360-46bf-4e13-b86f-2a1d87fda6fc","system_id":"levelo_inurba_marseille","lat":43.2861,"lon":5.37069,"is_reserved":false,"is_disabled":false,"rental_uris":{"android":"levelo://app?vid=a3343360-46bf-4e13-b86f-2a1d87fda6fc","ios":"levelo://app?vid=a3343360-46bf-4e13-b86f-2a1d87fda6fc"},"vehicle_type_id":"4","last_reported":1683864468,"current_range_meters":0,"station_id":"ce4bht12rcd13ifvqi60","pricing_plan_id":"free"},{"bike_id":"b3345545-3256-4e30-9a35-4c79ece76446","system_id":"levelo_inurba_marseille","lat":43.28608,"lon":5.37052,"is_reserved":false,"is_disabled":false,"rental_uris":{"android":"levelo://app?vid=b3345545-3256-4e30-9a35-4c79ece76446","ios":"levelo://app?vid=b3345545-3256-4e30-9a35-4c79ece76446"},"vehicle_type_id":"4","last_reported":1683864468,"current_range_meters":20400,"station_id":"ce4bht12rcd13ifvqi60","pricing_plan_id":"free"},{"bike_id":"5aff4a71-e2f0-424f-83e9-365e2ca6788c","system_id":"levelo_inurba_marseille","lat":43.287184,"lon":5.37937,"is_reserved":false,"is_disabled":false,"rental_uris":{"android":"levelo://app?vid=5aff4a71-e2f0-424f-83e9-365e2ca6788c","ios":"levelo://app?vid=5aff4a71-e2f0-424f-83e9-365e2ca6788c"},"vehicle_type_id":"4","last_reported":1683864468,"current_range_meters":29600,"station_id":"ce4bh9p2rcd13ifvqec0","pricing_plan_id":"free"},{"bike_id":"e515d082-b630-45a5-8415-1a214d2a93f9","system_id":"levelo_inurba_marseille","lat":43.33878,"lon":5.35497,"is_reserved":false,"is_disabled":false,"rental_uris":{"android":"levelo://app?vid=e515d082-b630-45a5-8415-1a214d2a93f9","ios":"levelo://app?vid=e515d082-b630-45a5-8415-1a214d2a93f9"},"vehicle_type_id":"4","last_reported":1683864468,"current_range_meters":0,"station_id":"","pricing_plan_id":"free"},{"bike_id":"4c083c05-1a7c-4799-b927-d0ad3549861f","system_id":"levelo_inurba_marseille","lat":43.316517,"lon":5.404375,"is_reserved":false,"is_disabled":false,"rental_uris":{"android":"levelo://app?vid=4c083c05-1a7c-4799-b927-d0ad3549861f","ios":"levelo://app?vid=4c083c05-1a7c-4799-b927-d0ad3549861f"},"vehicle_type_id":"4","last_reported":1683864468,"current_range_meters":4800,"station_id":"ce4bh012rcd13ifvqd00","pricing_plan_id":"free"},{"bike_id":"7e896694-ae81-43b9-93cf-58527cbfa352","system_id":"levelo_inurba_marseille","lat":43.316517,"lon":5.404375,"is_reserved":false,"is_disabled":false,"rental_uris":{"android":"levelo://app?vid=7e896694-ae81-43b9-93cf-58527cbfa352","ios":"levelo://app?vid=7e896694-ae81-43b9-93cf-58527cbfa352"},"vehicle_type_id":"4","last_reported":1683864468,"current_range_meters":2400,"station_id":"ce4bh012rcd13ifvqd00","pricing_plan_id":"free"},{"bike_id":"8ff63c74-154f-4b98-a89c-ac80fdef26c4","system_id":"levelo_inurba_marseille","lat":43.316517,"lon":5.404375,"is_reserved":false,"is_disabled":false,"rental_uris":{"android":"levelo://app?vid=8ff63c74-154f-4b98-a89c-ac80fdef26c4","ios":"levelo://app?vid=8ff63c74-154f-4b98-a89c-ac80fdef26c4"},"vehicle_type_id":"4","last_reported":1683864468,"current_range_meters":17200,"station_id":"ce4bh012rcd13ifvqd00","pricing_plan_id":"free"},{"bike_id":"4174f332-8e96-4b54-858d-1450ff73436e","system_id":"levelo_inurba_marseille","lat":43.291994,"lon":5.392907,"is_reserved":false,"is_disabled":false,"rental_uris":{"android":"levelo://app?vid=4174f332-8e96-4b54-858d-1450ff73436e","ios":"levelo://app?vid=4174f332-8e96-4b54-858d-1450ff73436e"},"vehicle_type_id":"4","last_reported":1683864468,"current_range_meters":27600,"station_id":"ce4bh192rcd13ifvqdd0","pricing_plan_id":"free"},{"bike_id":"e58c9261-527b-4dd1-b5c3-191cacdc6f95","system_id":"levelo_inurba_marseille","lat":43.291994,"lon":5.392907,"is_reserved":false,"is_disabled":false,"rental_uris":{"android":"levelo://app?vid=e58c9261-527b-4dd1-b5c3-191cacdc6f95","ios":"levelo://app?vid=e58c9261-527b-4dd1-b5c3-191cacdc6f95"},"vehicle_type_id":"4","last_reported":1683864468,"current_range_meters":29200,"station_id":"ce4bh192rcd13ifvqdd0","pricing_plan_id":"free"},{"bike_id":"b46308d4-7426-4de3-a11a-0fe17dbe26a9","system_id":"levelo_inurba_marseille","lat":43.291994,"lon":5.392907,"is_reserved":false,"is_disabled":false,"rental_uris":{"android":"levelo://app?vid=b46308d4-7426-4de3-a11a-0fe17dbe26a9","ios":"levelo://app?vid=b46308d4-7426-4de3-a11a-0fe17dbe26a9"},