{"last_updated":1750003876,"ttl":60,"version":"2.2","data":{"bikes":[{"bike_id":"b31f0139-170f-4194-984f-4386218a1e9d","system_id":"levelo_inurba_marseille","lat":43.33771,"lon":5.37424,"is_reserved":false,"is_disabled":true,"rental_uris":{"android":"levelo://app?vid=b31f0139-170f-4194-984f-4386218a1e9d","ios":"levelo://app?vid=b31f0139-170f-4194-984f-4386218a1e9d"},"vehicle_type_id":"4","last_reported":1750003876,"current_range_meters":0,"station_id":"","pricing_plan_id":"cebpf4jnsgd1na2vs0mg"},{"bike_id":"1acfb620-cad7-48c0-8901-d7a5b74a5b65","system_id":"levelo_inurba_marseille","lat":43.33751,"lon":5.37456,"is_reserved":false,"is_disabled":true,"rental_uris":{"android":"levelo://app?vid=1acfb620-cad7-48c0-8901-d7a5b74a5b65","ios":"levelo://app?vid=1acfb620-cad7-48c0-8901-d7a5b74a5b65"},"vehicle_type_id":"4","last_reported":1750003876,"current_range_meters":0,"station_id":"","pricing_plan_id":"cebpf4jnsgd1na2vs0mg"},{"bike_id":"bf89d78c-eb96-40d5-beb0-f402ef102cc1","system_id":"levelo_inurba_marseille","lat":43.337444,"lon":5.374475,"is_reserved":false,"is_disabled":true,"rental_uris":{"android":"levelo://app?vid=bf89d78c-eb96-40d5-beb0-f402ef102cc1","ios":"levelo://app?vid=bf89d78c-eb96-40d5-beb0-f402ef102cc1"},"vehicle_type_id":"4","last_reported":1750003876,"current_range_meters":0,"station_id":"","pricing_plan_id":"cebpf4jnsgd1na2vs0mg"},{"bike_id":"3d6ef34c-1ec6-4ed3-88e4-07359f729c42","system_id":"levelo_inurba_marseille","lat":43.27572,"lon":5.43392,"is_reserved":false,"is_disabled":true,"rental_uris":{"android":"levelo://app?vid=3d6ef34c-1ec6-4ed3-88e4-07359f729c42","ios":"levelo://app?vid=3d6ef34c-1ec6-4ed3-88e4-07359f729c42"},"vehicle_type_id":"4","last_reported":1750003876,"current_range_meters":0,"station_id":"","pricing_plan_id":"cebpf4jnsgd1na2vs0mg"},{"bike_id":"5077581b-cebb-46fc-ba69-4fa8272d4810","system_id":"levelo_inurba_marseille","lat":43.2137,"lon":5.35508,"is_reserved":false,"is_disabled":true,"rental_uris":{"android":"levelo://app?vid=5077581b-cebb-46fc-ba69-4fa8272d4810","ios":"levelo://app?vid=5077581b-cebb-46fc-ba69-4fa8272d4810"},"vehicle_type_id":"4","last_reported":1750003876,"current_range_meters":0,"station_id":"","pricing_plan_id":"cebpf4jnsgd1na2vs0mg"},{"bike_id":"b700b739-d84e-40eb-a0b6-5cbfa9485ee2","system_id":"levelo_inurba_marseille","lat":43.27825,"lon":5.42167,"is_reserved":false,"is_disabled":true,"rental_uris":{"android":"levelo://app?vid=b700b739-d84e-40eb-a0b6-5cbfa9485ee2","ios":"levelo://app?vid=b700b739-d84e-40eb-a0b6-5cbfa9485ee2"},"vehicle_type_id":"4","last_reported":1750003876,"current_range_meters":0,"station_id":"","pricing_plan_id":"cebpf4jnsgd1na2vs0mg"},{"bike_id":"97421c04-2630-4fc1-9da9-b17d88602c5f","system_id":"levelo_inurba_marseille","lat":43.337682,"lon":5.374519,"is_reserved":false,"is_disabled":true,"rental_uris":{"android":"levelo://app?vid=97421c04-2630-4fc1-9da9-b17d88602c5f","ios":"levelo://app?vid=97421c04-2630-4fc1-9da9-b17d88602c5f"},"vehicle_type_id":"4","last_reported":1750003876,"current_range_meters":0,"station_id":"","pricing_plan_id":"cebpf4jnsgd1na2vs0mg"},{"bike_id":"ac061617-9a3c-4de6-bd1d-cee5ca15e0fc","system_id":"levelo_inurba_marseille","lat":43.28292,"lon":5.38734,"is_reserved":false,"is_disabled":true,"rental_uris":{"android":"levelo://app?vid=ac061617-9a3c-4de6-bd1d-cee5ca15e0fc","ios":"levelo://app?vid=ac061617-9a3c-4de6-bd1d-cee5ca15e0fc"},"vehicle_type_id":"4","last_reported":1750003876,"current_range_meters":0,"station_id":"","pricing_plan_id":"cebpf4jnsgd1na2vs0mg"},{"bike_id":"ebf89cec-3e1a-4275-9cd0-a3d19d69b5cf","system_id":"levelo_inurba_marseille","lat":43.27988,"lon":5.38458,"is_reserved":false,"is_disabled":true,"rental_uris":{"android":"levelo://app?vid=ebf89cec-3e1a-4275-9cd0-a3d19d69b5cf","ios":"levelo://app?vid=ebf89cec-3e1a-4275-9cd0-a3d19d69b5cf"},"vehicle_type_id":"4","last_reported":1750003876,"current_range_meters":0,"station_id":"","pricing_plan_id":"cebpf4jnsgd1na2vs0mg"},{"bike_id":"8d60347d-541c-40fb-90ca-203bf6bd520a","system_id":"levelo_inurba_marseille","lat":43.271231,"lon":5.364028,"is_reserved":false,"is_disabled":true,"rental_uris":{"android":"levelo://app?vid=8d60347d-541c-40fb-90ca-203bf6bd520a","ios":"levelo://app?vid=8d60347d-541c-40fb-90ca-203bf6bd520a"},"vehicle_type_id":"4","last_reported":1750003876,"current_range_meters":0,"station_id":"","pricing_plan_id":"cebpf4jnsgd1na2vs0mg"},{"bike_id":"98afa141-26c5-45c8-a0a6-15fd54ac73ab","system_id":"levelo_inurba_marseille","lat":43.21527,"lon":5.34741,"is_reserved":false,"is_disabled":true,"rental_uris":{"android":"levelo://app?vid=98afa141-26c5-45c8-a0a6-15fd54ac73ab","ios":"levelo://app?vid=98afa141-26c5-45c8-a0a6-15fd54ac73ab"},"vehicle_type_id":"4","last_reported":1750003876,"current_range_meters":0,"station_id":"","pricing_plan_id":"cebpf4jnsgd1na2vs0mg"},{"bike_id":"492f4bbd-1190-4ef2-b66a-479ffe91b09b","system_id":"levelo_inurba_marseille","lat":43.337444,"lon":5.374475,"is_reserved":false,"is_disabled":true,"rental_uris":{"android":"levelo://app?vid=492f4bbd-1190-4ef2-b66a-479ffe91b09b","ios":"levelo://app?vid=492f4bbd-1190-4ef2-b66a-479ffe91b09b"},"vehicle_type_id":"4","last_reported":1750003876,"current_range_meters":0,"station_id":"","pricing_plan_id":"cebpf4jnsgd1na2vs0mg"},{"bike_id":"a9b6bf99-4070-4437-bb20-72962ae30b90","system_id":"levelo_inurba_marseille","lat":43.27456,"lon":5.36394,"is_reserved":false,"is_disabled":true,"rental_uris":{"android":"levelo://app?vid=a9b6bf99-4070-4437-bb20-72962ae30b90","ios":"levelo://app?vid=a9b6bf99-4070-4437-bb20-72962ae30b90"},"vehicle_type_id":"4","last_reported":1750003876,"current_range_meters":0,"station_id":"","pricing_plan_id":"cebpf4jnsgd1na2vs0mg"},{"bike_id":"252f592b-d7be-48f7-a7d8-853e03aaa830","system_id":"levelo_inurba_marseille","lat":43.29972,"lon":5.38497,"is_reserved":false,"is_disabled":true,"rental_uris":{"android":"levelo://app?vid=252f592b-d7be-48f7-a7d8-853e03aaa830","ios":"levelo://app?vid=252f592b-d7be-48f7-a7d8-853e03aaa830"},"vehicle_type_id":"4","last_reported":1750003876,"current_range_meters":0,"station_id":"ce4bgj92rcd13ifvqbd0","pricing_plan_id":"cebpf4jnsgd1na2vs0mg"},{"bike_id":"db44adc3-05fc-4613-a668-5d6bbeee6e27","system_id":"levelo_inurba_marseille","lat":43.31071,"lon":5.38358,"is_reserved":false,"is_disabled":true,"rental_uris":{"android":"levelo://app?vid=db44adc3-05fc-4613-a668-5d6bbeee6e27","ios":"levelo://app?vid=db44adc3-05fc-4613-a668-5d6bbeee6e27"},"vehicle_type_id":"4","last_reported":1750003876,"current_range_meters":0,"station_id":"ce4bgv92rcd13ifvqcr0","pricing_plan_id":"cebpf4jnsgd1na2vs0mg"},{"bike_id":"d7d93872-802d-4c38-a179-7a91a2f1b9a6","system_id":"levelo_inurba_marseille","lat":43.29025,"lon":5.38639,"is_reserved":false,"is_disabled":true,"rental_uris":{"android":"levelo://app?vid=d7d93872-802d-4c38-a179-7a91a2f1b9a6","ios":"levelo://app?vid=d7d93872-802d-4c38-a179-7a91a2f1b9a6"},"vehicle_type_id":"4","last_reported":1750003876,"current_range_meters":0,"station_id":"ce4bh4p2rcd13ifvqe0g","pricing_plan_id":"cebpf4jnsgd1na2vs0mg"},{"bike_id":"58b4396a-93f4-4647-8558-80f35b29793e","system_id":"levelo_inurba_marseille","lat":43.26561,"lon":5.39002,"is_reserved":false,"is_disabled":true,"rental_uris":{"android":"levelo://app?vid=58b4396a-93f4-4647-8558-80f35b29793e","ios":"levelo://app?vid=58b4396a-93f4-4647-8558-80f35b29793e"},"vehicle_type_id":"4","last_reported":1750003876,"current_range_meters":0,"station_id":"ce4bhe12rcd13ifvqf30","pricing_plan_id":"cebpf4jnsgd1na2vs0mg"},{"bike_id":"dcb87325-b549-4ba8-97ae-5c7d25518f6d","system_id":"levelo_inurba_marseille","lat":43.24806,"lon":5.37448,"is_reserved":false,"is_disabled":true,"rental_uris":{"android":"levelo://app?vid=dcb87325-b549-4ba8-97ae-5c7d25518f6d","ios":"levelo://app?vid=dcb87325-b549-4ba8-97ae-5c7d25518f6d"},"vehicle_type_id":"4","last_reported":1750003876,"current_range_meters":0,"station_id":"ce4bhgh2rcd13ifvqfb0","pricing_plan_id":"cebpf4jnsgd1na2vs0mg"},{"bike_id":"5240e37a-126a-42e3-a349-f06380c40076","system_id":"levelo_inurba_marseille","lat":43.26212,"lon":5.37434,"is_reserved":false,"is_disabled":true,"rental_uris":{"android":"levelo://app?vid=5240e37a-126a-42e3-a349-f06380c40076","ios":"levelo://app?vid=5240e37a-126a-42e3-a349-f06380c40076"},"vehicle_type_id":"4","last_reported":1750003876,"current_range_meters":0,"station_id":"ce4bhgp2rcd13ifvqfc0","pricing_plan_id":"cebpf4jnsgd1na2vs0mg"},{"bike_id":"63d9dcab-7606-4399-89f2-23f163e1df44","system_id":"levelo_inurba_marseille","lat":43.261907,"lon":5.374487,"is_reserved":false,"is_disabled":true,"rental_uris":{"android":"levelo://app?vid=63d9dcab-7606-4399-89f2-23f163e1df44","ios":"levelo://app?vid=63d9dcab-7606-4399-89f2-23f163e1df44"},"vehicle_type_id":"4","last_reported":1750003876,"current_range_meters":0,"station_id":"ce4bhgp2rcd13ifvqfc0","pricing_plan_id":"cebpf4jnsgd1na2vs0mg"},{"bike_id":"f82f9986-acf6-4229-a35d-6e29c4d5d0d5","system_id":"levelo_inurba_marseille","lat":43.25085,"lon":5.39524,"is_reserved":false,"is_disabled":true,"rental_uris":{"android":"levelo://app?vid=f82f9986-acf6-4229-a35d-6e29c4d5d0d5","ios":"levelo://app?vid=f82f9986-acf6-4229-a35d-6e29c4d5d0d5"},"vehicle_type_id":"4","last_reported":1750003876,"current_range_meters":0,"station_id":"ce4bhm12rcd13ifvqgkg","pricing_plan_id":"cebpf4jnsgd1na2vs0mg"},{"bike_id":"454719dc-501a-4f50-bd2e-259a9bcbfe8e","system_id":"levelo_inurba_marseille","lat":43.28141,"lon":5.42644,"is_reserved":false,"is_disabled":true,"rental_uris":{"android":"levelo://app?vid=454719dc-501a-4f50-bd2e-259a9bcbfe8e","ios":"levelo://app?vid=454719dc-501a-4f50-bd2e-259a9bcbfe8e"},"vehicle_type_id":"4","last_reported":1750003876,"current_range_meters":0,"station_id":"ce4bhnh2rcd13ifvqgug","pricing_plan_id":"cebpf4jnsgd1na2vs0mg"},{"bike_id":"fc52eaa2-9a1c-41fa-a66e-aa2423d359bc","system_id":"levelo_inurba_marseille","lat":43.23061,"lon":5.3549,"is_reserved":false,"is_disabled":true,"rental_uris":{"android":"levelo://app?vid=fc52eaa2-9a1c-41fa-a66e-aa2423d359bc","ios":"levelo://app?vid=fc52eaa2-9a1c-41fa-a66e-aa2423d359bc"},"vehicle_type_id":"4","last_reported":1750003876,"current_range_meters":0,"station_id":"cpo3342slgdg3j2ifvpg","pricing_plan_id":"cebpf4jnsgd1na2vs0mg"},{"bike_id":"a84e6087-806a-470b-a3ce-22118dac393c","system_id":"levelo_inurba_marseille","lat":43.22922,"lon":5.35382,"is_reserved":false,"is_disabled":true,"rental_uris":{"android":"levelo://app?vid=a84e6087-806a-470b-a3ce-22118dac393c","ios":"levelo://app?vid=a84e6087-806a-470b-a3ce-22118dac393c"},"vehicle_type_id":"4","last_reported":1750003876,"current_range_meters":0,"station_id":"cpo3532slgdg3j2ikp40","pricing_plan_id":"cebpf4jnsgd1na2vs0mg"},{"bike_id":"9aea8b8c-7d2c-47e6-9e92-fd12236b644f","system_id":"levelo_inurba_marseille","lat":43.2176,"lon":5.34603,"is_reserved":false,"is_disabled":true,"rental_uris":{"android":"levelo://app?vid=9aea8b8c-7d2c-47e6-9e92-fd12236b644f","ios":"levelo://app?vid=9aea8b8c-7d2c-47e6-9e92-fd12236b644f"},"vehicle_type_id":"4","last_reported":1750003876,"current_range_meters":0,"station_id":"st_cvj6r9ubvosntc0bgbag","pricing_plan_id":"cebpf4jnsgd1na2vs0mg"},{"bike_id":"375cf6e2-9084-4098-ab27-8d4a8a4f6660","system_id":"levelo_inurba_marseille","lat":43.22502,"lon":5.34786,"is_reserved":false,"is_disabled":true,"rental_uris":{"android":"levelo://app?vid=375cf6e2-9084-4098-ab27-8d4a8a4f6660","ios":"levelo://app?vid=375cf6e2-9084-4098-ab27-8d4a8a4f6660"},"vehicle_type_id":"4","last_reported":1750003876,"current_range_meters":400,"station_id":"","pricing_plan_id":"cebpf4jnsgd1na2vs0mg"},{"bike_id":"1a053efc-6835-4fe3-8b2d-e42486c2efbb","system_id":"levelo_inurba_marseille","lat":43.2315,"lon":5.437,"is_reserved":false,"is_disabled":true,"rental_uris":{"android":"levelo://app?vid=1a053efc-6835-4fe3-8b2d-e42486c2efbb","ios":"levelo://app?vid=1a053efc-6835-4fe3-8b2d-e42486c2efbb"},"vehicle_type_id":"4","last_reported":1750003876,"current_range_meters":400,"station_id":"ce4bhmp2rcd13ifvqgog","pricing_plan_id":"cebpf4jnsgd1na2vs0mg"},{"bike_id":"1a540248-a6cf-4e5e-a4ae-884e51c78236","system_id":"levelo_inurba_marseille","lat":43.23196,"lon":5.35543,"is_reserved":false,"is_disabled":true,"rental_uris":{"android":"levelo://app?vid=1a540248-a6cf-4e5e-a4ae-884e51c78236","ios":"levelo://app?vid=1a540248-a6cf-4e5e-a4ae-884e51c78236"},"vehicle_type_id":"4","last_reported":1750003876,"current_range_meters":400,"station_id":"ce4bhu92rcd13ifvqi70","pricing_plan_id":"cebpf4jnsgd1na2vs0mg"},{"bike_id":"c3d1a720-bcb4-4b14-8a1a-c73d9af1f6dd","system_id":"levelo_inurba_marseille","lat":43.29903,"lon":5.381546,"is_reserved":false,"is_disabled":true,"rental_uris":{"android":"levelo://app?vid=c3d1a720-bcb4-4b14-8a1a-c73d9af1f6dd","ios":"levelo://app?vid=c3d1a720-bcb4-4b14-8a1a-c73d9af1f6dd"},"vehicle_type_id":"4","last_reported":1750003876,"current_range_meters":800,"station_id":"ce4bgj12rcd13ifvqbc0","pricing_plan_id":"cebpf4jnsgd1na2vs0mg"},{"bike_id":"ad64d93b-bc63-42f4-a289-aa020c14501e","system_id":"levelo_inurba_marseille","lat":43.28535,"lon":5.38463,"is_reserved":false,"is_disabled":true,"rental_uris":{"android":"levelo://app?vid=ad64d93b-bc63-42f4-a289-aa020c14501e","ios":"levelo://app?vid=ad64d93b-bc63-42f4-a289-aa020c14501e"},"vehicle_type_id":"4","last_reported":1750003876,"current_range_meters":800,"station_id":"ce4bh512rcd13ifvqe3g","pricing_plan_id":"cebpf4jnsgd1na2vs0mg"},{"bike_id":"812cb448-b2a7-4bc6-8262-5e4fdbf1ec97","system_id":"levelo_inurba_marseille","lat":43.25871,"lon":5.39893,"is_reserved":false,"is_disabled":true,"rental_uris":{"android":"levelo://app?vid=812cb448-b2a7-4bc6-8262-5e4fdbf1ec97","ios":"levelo://app?vid=812cb448-b2a7-4bc6-8262-5e4fdbf1ec97"},"vehicle_type_id":"4","last_reported":1750003876,"current_range_meters":800,"station_id":"ce4bhl92rcd13ifvqghg","pricing_plan_id":"cebpf4jnsgd1na2vs0mg"},{"bike_id":"f970e5f8-b7c7-46c3-af34-3ad34c37bea7","system_id":"levelo_inurba_marseille","lat":43.27496,"lon":5.42445,"is_reserved":false,"is_disabled":true,"rental_uris":{"android":"levelo://app?vid=f970e5f8-b7c7-46c3-af34-3ad34c37bea7","ios":"levelo://app?vid=f970e5f8-b7c7-46c3-af34-3ad34c37bea7"},"vehicle_type_id":"4","last_reported":1750003876,"current_range_meters":800,"station_id":"ce4bhn92rcd13ifvqgrg","pricing_plan_id":"cebpf4jnsgd1na2vs0mg"},{"bike_id":"2a83ae2f-a99a-4a3e-9402-1e60d522e115","system_id":"levelo_inurba_marseille","lat":43.211838,"lon":5.350738,"is_reserved":false,"is_disabled":true,"rental_uris":{"android":"levelo://app?vid=2a83ae2f-a99a-4a3e-9402-1e60d522e115","ios":"levelo://app?vid=2a83ae2f-a99a-4a3e-9402-1e60d522e115"},"vehicle_type_id":"4","last_reported":1750003876,"current_range_meters":800,"station_id":"st_cvj6sg6p6f1abm77japg","pricing_plan_id":"cebpf4jnsgd1na2vs0mg"},{"bike_id":"fc6eeb15-c047-41e6-af14-edc0dcd87508","system_id":"levelo_inurba_marseille","lat":43.25726,"lon":5.41103,"is_reserved":false,"is_disabled":true,"rental_uris":{"android":"levelo://app?vid=fc6eeb15-c047-41e6-af14-edc0dcd87508","ios":"levelo://app?vid=fc6eeb15-c047-41e6-af14-edc0dcd87508"},"vehicle_type_id":"4","last_reported":1750003876,"current_range_meters":1600,"station_id":"ce4bhkp2rcd13ifvqgd0","pricing_plan_id":"cebpf4jnsgd1na2vs0mg"},{"bike_id":"660bd814-4e99-4480-be7b-f94e4c99dc9d","system_id":"levelo_inurba_marseille","lat":43.29587,"lon":5.39985,"is_reserved":false,"is_disabled":true,"rental_uris":{"android":"levelo://app?vid=660bd814-4e99-4480-be7b-f94e4c99dc9d","ios":"levelo://app?vid=660bd814-4e99-4480-be7b-f94e4c99dc9d"},"vehicle_type_id":"4","last_reported":1750003876,"current_range_meters":2000,"station_id":"ce4bh312rcd13ifvqdj0","pricing_plan_id":"cebpf4jnsgd1na2vs0mg"},{"bike_id":"85fc414c-30c5-4bd7-9374-8dd25147cff1","system_id":"levelo_inurba_marseille","lat":43.2919,"lon":5.35806,"is_reserved":false,"is_disabled":false,"rental_uris":{"android":"levelo://app?vid=85fc414c-30c5-4bd7-9374-8dd25147cff1","ios":"levelo://app?vid=85fc414c-30c5-4bd7-9374-8dd25147cff1"},"vehicle_type_id":"4","last_reported":1750003876,"current_range_meters":2800,"station_id":"ce4bhb12rcd13ifvqel0","pricing_plan_id":"cebpf4jnsgd1na2vs0mg"},{"bike_id":"f9456b2b-ba30-4651-a159-c043769e430d","system_id":"levelo_inurba_marseille","lat":43.27964,"lon":5.38758,"is_reserved":false,"is_disabled":false,"rental_uris":{"android":"levelo://app?vid=f9456b2b-ba30-4651-a159-c043769e430d","ios":"levelo://app?vid=f9456b2b-ba30-4651-a159-c043769e430d"},"vehicle_type_id":"4","last_reported":1750003876,"current_range_meters":2800,"station_id":"ce4bhg12rcd13ifvqf80","pricing_plan_id":"cebpf4jnsgd1na2vs0mg"},{"bike_id":"1f2d6e3a-b8b1-4bf9-b20a-97e65f33b1d2","system_id":"levelo_inurba_marseille","lat":43.30422,"lon":5.39741,"is_reserved":false,"is_disabled":false,"rental_uris":{"android":"levelo://app?vid=1f2d6e3a-b8b1-4bf9-b20a-97e65f33b1d2","ios":"levelo://app?vid=1f2d6e3a-b8b1-4bf9-b20a-97e65f33b1d2"},"vehicle_type_id":"4","last_reported":1750003876,"current_range_meters":3200,"station_id":"ce4bh092rcd13ifvqd20","pricing_plan_id":"cebpf4jnsgd1na2vs0mg"},{"bike_id":"7586b4af-22b0-440a-b174-fed578e6cbd4","system_id":"levelo_inurba_marseille","lat":43.28401,"lon":5.34969,"is_reserved":false,"is_disabled":false,"rental_uris":{"android":"levelo://app?vid=7586b4af-22b0-440a-b174-fed578e6cbd4","ios":"levelo://app?vid=7586b4af-22b0-440a-b174-fed578e6cbd4"},"vehicle_type_id":"4","last_reported":1750003876,"current_range_meters":3200,"station_id":"ce4bhbh2rcd13ifvqepg","pricing_plan_id":"cebpf4jnsgd1na2vs0mg"},{"bike_id":"b983705a-4837-46a3-b7cb-51e07ad735c8","system_id":"levelo_inurba_marseille","lat":43.24071,"lon":5.37762,"is_reserved":false,"is_disabled":false,"rental_uris":{"android":"levelo://app?vid=b983705a-4837-46a3-b7cb-51e07ad735c8","ios":"levelo://app?vid=b983705a-4837-46a3-b7cb-51e07ad735c8"},"vehicle_type_id":"4","last_reported":1750003876,"current_range_meters":3200,"station_id":"ce4bhnp2rcd13ifvqgvg","pricing_plan_id":"cebpf4jnsgd1na2vs0mg"},{"bike_id":"e6779825-41d6-461a-9280-2d65508860d1","system_id":"levelo_inurba_marseille","lat":43.26574,"lon":5.38987,"is_reserved":false,"is_disabled":false,"rental_uris":{"android":"levelo://app?vid=e6779825-41d6-461a-9280-2d65508860d1","ios":"levelo://app?vid=e6779825-41d6-461a-9280-2d65508860d1"},"vehicle_type_id":"4","last_reported":1750003876,"current_range_meters":4400,"station_id":"ce4bhe12rcd13ifvqf30","pricing_plan_id":"cebpf4jnsgd1na2vs0mg"},{"bike_id":"6f6b150a-5043-48d3-9eaa-bb930e1dc35e","system_id":"levelo_inurba_marseille","lat":43.245482,"lon":5.395234,"is_reserved":false,"is_disabled":false,"rental_uris":{"android":"levelo://app?vid=6f6b150a-5043-48d3-9eaa-bb930e1dc35e","ios":"levelo://app?vid=6f6b150a-5043-48d3-9eaa-bb930e1dc35e"},"vehicle_type_id":"4","last_reported":1750003876,"current_range_meters":4400,"station_id":"ce4bhlp2rcd13ifvqgjg","pricing_plan_id":"cebpf4jnsgd1na2vs0mg"},{"bike_id":"76af4853-5466-405a-8a8f-b89b218581cc","system_id":"levelo_inurba_marseille","lat":43.2407,"lon":5.37765,"is_reserved":false,"is_disabled":false,"rental_uris":{"android":"levelo://app?vid=76af4853-5466-405a-8a8f-b89b218581cc","ios":"levelo://app?vid=76af4853-5466-405a-8a8f-b89b218581cc"},"vehicle_type_id":"4","last_reported":1750003876,"current_range_meters":4400,"station_id":"ce4bhnp2rcd13ifvqgvg","pricing_plan_id":"cebpf4jnsgd1na2vs0mg"},{"bike_id":"bcc7c199-5d30-4a2a-8825-28a5daac61f6","system_id":"levelo_inurba_marseille","lat":43.29779,"lon":5.39361,"is_reserved":false,"is_disabled":false,"rental_uris":{"android":"levelo://app?vid=bcc7c199-5d30-4a2a-8825-28a5daac61f6","ios":"levelo://app?vid=bcc7c199-5d30-4a2a-8825-28a5daac61f6"},"vehicle_type_id":"4","last_reported":1750003876,"current_range_meters":4400,"station_id":"chh1huq6cuj3fo74tm60","pricing_plan_id":"cebpf4jnsgd1na2vs0mg"},{"bike_id":"2ab31527-f915-4286-b3a0-0beafd2cdd50","system_id":"levelo_inurba_marseille","lat":43.30025,"lon":5.37005,"is_reserved":false,"is_disabled":false,"rental_uris":{"android":"levelo://app?vid=2ab31527-f915-4286-b3a0-0beafd2cdd50","ios":"levelo://app?vid=2ab31527-f915-4286-b3a0-0beafd2cdd50"},"vehicle_type_id":"4","last_reported":1750003876,"current_range_meters":4800,"station_id":"","pricing_plan_id":"cebpf4jnsgd1na2vs0mg"},{"bike_id":"19f36125-5356-4c09-86ba-b894f9e8107a","system_id":"levelo_inurba_marseille","lat":43.29192,"lon":5.3751,"is_reserved":false,"is_disabled":false,"rental_uris":{"android":"levelo://app?vid=19f36125-5356-4c09-86ba-b894f9e8107a","ios":"levelo://app?vid=19f36125-5356-4c09-86ba-b894f9e8107a"},"vehicle_type_id":"4","last_reported":1750003876,"current_range_meters":4800,"station_id":"","pricing_plan_id":"cebpf4jnsgd1na2vs0mg"},{"bike_id":"7dbf2396-cf0b-49b4-8f9b-5432a98810af","system_id":"levelo_inurba_marseille","lat":43.29184,"lon":5.35802,"is_reserved":false,"is_disabled":false,"rental_uris":{"android":"levelo://app?vid=7dbf2396-cf0b-49b4-8f9b-5432a98810af","ios":"levelo://app?vid=7dbf2396-cf0b-49b4-8f9b-5432a98810af"},"vehicle_type_id":"4","last_reported":1750003876,"current_range_meters":4800,"station_id":"ce4bhb12rcd13ifvqel0","pricing_plan_id":"cebpf4jnsgd1na2vs0mg"},{"bike_id":"35333b0a-5cdd-4878-9ce1-61993842bd1f","system_id":"levelo_inurba_marseille","lat":43.27304,"lon":5.39066,"is_reserved":false,"is_disabled":false,"rental_uris":{"android":"levelo://app?vid=35333b0a-5cdd-4878-9ce1-61993842bd1f","ios":"levelo://app?vid=35333b0a-5cdd-4878-9ce1-61993842bd1f"},"vehicle_type_id":"4","last_reported":1750003876,"current_range_meters":4800,"station_id":"ce4bhgp2rcd13ifvqfe0","pricing_plan_id":"cebpf4jnsgd1na2vs0mg"},{"bike_id":"ca376a7b-9b68-4bbf-8cf9-42c7cf6a377d","system_id":"levelo_inurba_marseille","lat":43.29693,"lon":5.37301,"is_reserved":false,"is_disabled":false,"rental_uris":{"android":"levelo://app?vid=ca376a7b-9b68-4bbf-8cf9-42c7cf6a377d","ios":"levelo://app?vid=ca376a7b-9b68-4bbf-8cf9-42c7cf6a377d"},"vehicle_type_id":"4","last_reported":1750003876,"current_range_meters":6000,"station_id":"ce4bgk12rcd13ifvqbj0","pricing_plan_id":"cebpf4jnsgd1na2vs0mg"},{"bike_id":"4099c944-4506-4e12-a05a-35d1061f4bfc","system_id":"levelo_inurba_marseille","lat":43.24681,"lon":5.38149,"is_reserved":false,"is_disabled":false,"rental_uris":{"android":"levelo://app?vid=4099c944-4506-4e12-a05a-35d1061f4bfc","ios":"levelo://app?vid=4099c944-4506-4e12-a05a-35d1061f4bfc"},"vehicle_type_id":"4","last_reported":1750003876,"current_range_meters":6000,"station_id":"ce4bhih2rcd13ifvqfr0","pricing_plan_id":"cebpf4jnsgd1na2vs0mg"},{"bike_id":"71a6581b-5f24-47ac-a6d8-7a1a4e05cefb","system_id":"levelo_inurba_marseille","lat":43.21752,"lon":5.34589,"is_reserved":false,"is_disabled":false,"rental_uris":{"android":"levelo://app?vid=71a6581b-5f24-47ac-a6d8-7a1a4e05cefb","ios":"levelo://app?vid=71a6581b-5f24-47ac-a6d8-7a1a4e05cefb"},"vehicle_type_id":"4","last_reported":1750003876,"current_range_meters":6000,"station_id":"st_cvj6r9ubvosntc0bgbag","pricing_plan_id":"cebpf4jnsgd1na2vs0mg"},{"bike_id":"9dc123a2-e695-48f1-908f-4ab2f14b4d5c","system_id":"levelo_inurba_marseille","lat":43.24169,"lon":5.36398,"is_reserved":false,"is_disabled":false,"rental_uris":{"android":"levelo://app?vid=9dc123a2-e695-48f1-908f-4ab2f14b4d5c","ios":"levelo://app?vid=9dc123a2-e695-48f1-908f-4ab2f14b4d5c"},"vehicle_type_id":"4","last_reported":1750003876,"current_range_meters":6400,"station_id":"cpo36qri1sfpv3e86is0","pricing_plan_id":"cebpf4jnsgd1na2vs0mg"},{"bike_id":"357558f0-8b10-41dc-8e13-5c366ecd37b5","system_id":"levelo_inurba_marseille","lat":43.21159,"lon":5.35083,"is_reserved":false,"is_disabled":false,"rental_uris":{"android":"levelo://app?vid=357558f0-8b10-41dc-8e13-5c366ecd37b5","ios":"levelo://app?vid=357558f0-8b10-41dc-8e13-5c366ecd37b5"},"vehicle_type_id":"4","last_reported":1750003876,"current_range_meters":6400,"station_id":"st_cvj6sg6p6f1abm77japg","pricing_plan_id":"cebpf4jnsgd1na2vs0mg"},{"bike_id":"8e29ddd3-1418-4180-a11f-6e5d41c09ef3","system_id":"levelo_inurba_marseille","lat":43.28158,"lon":5.35146,"is_reserved":false,"is_disabled":false,"rental_uris":{"android":"levelo://app?vid=8e29ddd3-1418-4180-a11f-6e5d41c09ef3","ios":"levelo://app?vid=8e29ddd3-1418-4180-a11f-6e5d41c09ef3"},"vehicle_type_id":"4","last_reported":1750003876,"current_range_meters":6800,"station_id":"","pricing_plan_id":"cebpf4jnsgd1na2vs0mg"},{"bike_id":"f3bdc559-23c2-4a56-baa1-6262a3ddf2db","system_id":"levelo_inurba_marseille","lat":43.30333,"lon":5.4043,"is_reserved":false,"is_disabled":false,"rental_uris":{"android":"levelo://app?vid=f3bdc559-23c2-4a56-baa1-6262a3ddf2db","ios":"levelo://app?vid=f3bdc559-23c2-4a56-baa1-6262a3ddf2db"},"vehicle_type_id":"4","last_reported":1750003876,"current_range_meters":6800,"station_id":"ce4bh012rcd13ifvqd10","pricing_plan_id":"cebpf4jnsgd1na2vs0mg"},{"bike_id":"67478221-a08b-4631-a602-bf351d4106ed","system_id":"levelo_inurba_marseille","lat":43.29258,"lon":5.40907,"is_reserved":false,"is_disabled":false,"rental_uris":{"android":"levelo://app?vid=67478221-a08b-4631-a602-bf351d4106ed","ios":"levelo://app?vid=67478221-a08b-4631-a602-bf351d4106ed"},"vehicle_type_id":"4","last_reported":1750003876,"current_range_meters":6800,"station_id":"ce4bh192rcd13ifvqdc0","pricing_plan_id":"cebpf4jnsgd1na2vs0mg"},{"bike_id":"575c1fe7-81f1-4f65-8804-f68142cd9af6","system_id":"levelo_inurba_marseille","lat":43.28414,"lon":5.34982,"is_reserved":false,"is_disabled":false,"rental_uris":{"android":"levelo://app?vid=575c1fe7-81f1-4f65-8804-f68142cd9af6","ios":"levelo://app?vid=575c1fe7-81f1-4f65-8804-f68142cd9af6"},"vehicle_type_id":"4","last_reported":1750003876,"current_range_meters":6800,"station_id":"ce4bhbh2rcd13ifvqepg","pricing_plan_id":"cebpf4jnsgd1na2vs0mg"},{"bike_id":"dd910e40-df43-4c11-979e-c01803455ebc","system_id":"levelo_inurba_marseille","lat":43.26193,"lon":5.37446,"is_reserved":false,"is_disabled":false,"rental_uris":{"android":"levelo://app?vid=dd910e40-df43-4c11-979e-c01803455ebc","ios":"levelo://app?vid=dd910e40-df43-4c11-979e-c01803455ebc"},"vehicle_type_id":"4","last_reported":1750003876,"current_range_meters":8000,"station_id":"ce4bhgp2rcd13ifvqfc0","pricing_plan_id":"cebpf4jnsgd1na2vs0mg"},{"bike_id":"fd7fff10-ad16-469a-ad7f-c6bd36d29fdb","system_id":"levelo_inurba_marseille","lat":43.27172,"lon":5.40991,"is_reserved":false,"is_disabled":false,"rental_uris":{"android":"levelo://app?vid=fd7fff10-ad16-469a-ad7f-c6bd36d29fdb","ios":"levelo://app?vid=fd7fff10-ad16-469a-ad7f-c6bd36d29fdb"},"vehicle_type_id":"4","last_reported":1750003876,"current_range_meters":8000,"station_id":"ce4bhl12rcd13ifvqgf0","pricing_plan_id":"cebpf4jnsgd1na2vs0mg"},{"bike_id":"384d648e-0f4a-4afd-abd2-c7649eed04a0","system_id":"levelo_inurba_marseille","lat":43.29019,"lon":5.381355,"is_reserved":false,"is_disabled":false,"rental_uris":{"android":"levelo://app?vid=384d648e-0f4a-4afd-abd2-c7649eed04a0","ios":"levelo://app?vid=384d648e-0f4a-4afd-abd2-c7649eed04a0"},"vehicle_type_id":"4","last_reported":1750003876,"current_range_meters":8400,"station_id":"ce4bh4p2rcd13ifvqe1g","pricing_plan_id":"cebpf4jnsgd1na2vs0mg"},{"bike_id":"26a967da-84b3-496b-8823-a7ab3024a0de","system_id":"levelo_inurba_marseille","lat":43.24384,"lon":5.37058,"is_reserved":false,"is_disabled":false,"rental_uris":{"android":"levelo://app?vid=26a967da-84b3-496b-8823-a7ab3024a0de","ios":"levelo://app?vid=26a967da-84b3-496b-8823-a7ab3024a0de"},"vehicle_type_id":"4","last_reported":1750003876,"current_range_meters":8400,"station_id":"ce4bhhh2rcd13ifvqfk0","pricing_plan_id":"cebpf4jnsgd1na2vs0mg"},{"bike_id":"75cdadbb-3869-4f5b-b0b4-54c623b4b15c","system_id":"levelo_inurba_marseille","lat":43.23181,"lon":5.39993,"is_reserved":false,"is_disabled":false,"rental_uris":{"android":"levelo://app?vid=75cdadbb-3869-4f5b-b0b4-54c623b4b15c","ios":"levelo://app?vid=75cdadbb-3869-4f5b-b0b4-54c623b4b15c"},"vehicle_type_id":"4","last_reported":1750003876,"current_range_meters":8400,"station_id":"ce4bhn12rcd13ifvqgqg","pricing_plan_id":"cebpf4jnsgd1na2vs0mg"},{"bike_id":"2eb2516b-5f9f-4f58-8493-07049b393727","system_id":"levelo_inurba_marseille","lat":43.33707,"lon":5.39238,"is_reserved":false,"is_disabled":false,"rental_uris":{"android":"levelo://app?vid=2eb2516b-5f9f-4f58-8493-07049b393727","ios":"levelo://app?vid=2eb2516b-5f9f-4f58-8493-07049b393727"},"vehicle_type_id":"4","last_reported":1750003876,"current_range_meters":8400,"station_id":"ce4bhr92rcd13ifvqhsg","pricing_plan_id":"cebpf4jnsgd1na2vs0mg"},{"bike_id":"407c676c-d757-4720-a5d1-62f567e97613","system_id":"levelo_inurba_marseille","lat":43.22933,"lon":5.35371,"is_reserved":false,"is_disabled":false,"rental_uris":{"android":"levelo://app?vid=407c676c-d757-4720-a5d1-62f567e97613","ios":"levelo://app?vid=407c676c-d757-4720-a5d1-62f567e97613"},"vehicle_type_id":"4","last_reported":1750003876,"current_range_meters":8400,"station_id":"cpo3532slgdg3j2ikp40","pricing_plan_id":"cebpf4jnsgd1na2vs0mg"},{"bike_id":"de65c707-560b-42a6-9800-0e53f96f9f9e","system_id":"levelo_inurba_marseille","lat":43.2942,"lon":5.38618,"is_reserved":false,"is_disabled":false,"rental_uris":{"android":"levelo://app?vid=de65c707-560b-42a6-9800-0e53f96f9f9e","ios":"levelo://app?vid=de65c707-560b-42a6-9800-0e53f96f9f9e"},"vehicle_type_id":"4","last_reported":1750003876,"current_range_meters":8800,"station_id":"ce4bh2h2rcd13ifvqdh0","pricing_plan_id":"cebpf4jnsgd1na2vs0mg"},{"bike_id":"c7bfa6a1-36ee-43b3-af32-4713cb2f8d4f","system_id":"levelo_inurba_marseille","lat":43.29025,"lon":5.38118,"is_reserved":false,"is_disabled":false,"rental_uris":{"android":"levelo://app?vid=c7bfa6a1-36ee-43b3-af32-4713cb2f8d4f","ios":"levelo://app?vid=c7bfa6a1-36ee-43b3-af32-4713cb2f8d4f"},"vehicle_type_id":"4","last_reported":1750003876,"current_range_meters":8800,"station_id":"ce4bh4p2rcd13ifvqe1g","pricing_plan_id":"cebpf4jnsgd1na2vs0mg"},{"bike_id":"bf28a68d-d72a-4d77-8c37-92b7dd9d14d6","system_id":"levelo_inurba_marseille","lat":43.28405,"lon":5.34998,"is_reserved":false,"is_disabled":false,"rental_uris":{"android":"levelo://app?vid=bf28a68d-d72a-4d77-8c37-92b7dd9d14d6","ios":"levelo://app?vid=bf28a68d-d72a-4d77-8c37-92b7dd9d14d6"},"vehicle_type_id":"4","last_reported":1750003876,"current_range_meters":8800,"station_id":"ce4bhbh2rcd13ifvqepg","pricing_plan_id":"cebpf4jnsgd1na2vs0mg"},{"bike_id":"d88db87f-08f2-422b-aab3-eb4a5f6bd4d4","system_id":"levelo_inurba_marseille","lat":43.28416,"lon":5.34998,"is_reserved":false,"is_disabled":false,"rental_uris":{"android":"levelo://app?vid=d88db87f-08f2-422b-aab3-eb4a5f6bd4d4","ios":"levelo://app?vid=d88db87f-08f2-422b-aab3-eb4a5f6bd4d4"},"vehicle_type_id":"4","last_reported":1750003876,"current_range_meters":8800,"station_id":"ce4bhbh2rcd13ifvqepg","pricing_plan_id":"cebpf4jnsgd1na2vs0mg"},{"bike_id":"3174d5c2-6690-4361-ba6e-172b710cc3bc","system_id":"levelo_inurba_marseille","lat":43.31682,"lon":5.40477,"is_reserved":false,"is_disabled":false,"rental_uris":{"android":"levelo://app?vid=3174d5c2-6690-4361-ba6e-172b710cc3bc","ios":"levelo://app?vid=3174d5c2-6690-4361-ba6e-172b710cc3bc"},"vehicle_type_id":"4","last_reported":1750003876,"current_range_meters":9200,"station_id":"ce4bh012rcd13ifvqd00","pricing_plan_id":"cebpf4jnsgd1na2vs0mg"},{"bike_id":"ac466850-9a61-464b-b6df-c6eef6e07763","system_id":"levelo_inurba_marseille","lat":43.21749,"lon":5.34592,"is_reserved":false,"is_disabled":true,"rental_uris":{"android":"levelo://app?vid=ac466850-9a61-464b-b6df-c6eef6e07763","ios":"levelo://app?vid=ac466850-9a61-464b-b6df-c6eef6e07763"},"vehicle_type_id":"4","last_reported":1750003876,"current_range_meters":9200,"station_id":"st_cvj6r9ubvosntc0bgbag","pricing_plan_id":"cebpf4jnsgd1na2vs0mg"},{"bike_id":"39860614-a0e4-464e-ae0f-4a29d2b609f6","system_id":"levelo_inurba_marseille","lat":43.2119,"lon":5.35067,"is_reserved":false,"is_disabled":false,"rental_uris":{"android":"levelo://app?vid=39860614-a0e4-464e-ae0f-4a29d2b609f6","ios":"levelo://app?vid=39860614-a0e4-464e-ae0f-4a29d2b609f6"},"vehicle_type_id":"4","last_reported":1750003876,"current_range_meters":9200,"station_id":"st_cvj6sg6p6f1abm77japg","pricing_plan_id":"cebpf4jnsgd1na2vs0mg"},{"bike_id":"15c100a0-470a-479a-bd0a-5bd13482f46e","system_id":"levelo_inurba_marseille","lat":43.28125,"lon":5.42729,"is_reserved":false,"is_disabled":false,"rental_uris":{"android":"levelo://app?vid=15c100a0-470a-479a-bd0a-5bd13482f46e","ios":"levelo://app?vid=15c100a0-470a-479a-bd0a-5bd13482f46e"},"vehicle_type_id":"4","last_reported":1750003876,"current_range_meters":9600,"station_id":"ce4bhnh2rcd13ifvqgug","pricing_plan_id":"cebpf4jnsgd1na2vs0mg"},{"bike_id":"5791f119-b347-4399-9097-85bcb40ec66f","system_id":"levelo_inurba_marseille","lat":43.23058,"lon":5.35478,"is_reserved":false,"is_disabled":false,"rental_uris":{"android":"levelo://app?vid=5791f119-b347-4399-9097-85bcb40ec66f","ios":"levelo://app?vid=5791f119-b347-4399-9097-85bcb40ec66f"},"vehicle_type_id":"4","last_reported":1750003876,"current_range_meters":9600,"station_id":"cpo3342slgdg3j2ifvpg","pricing_plan_id":"cebpf4jnsgd1na2vs0mg"},{"bike_id":"387d1fed-118c-437b-bd55-020621253e35","system_id":"levelo_inurba_marseille","lat":43.241,"lon":5.36832,"is_reserved":false,"is_disabled":false,"rental_uris":{"android":"levelo://app?vid=387d1fed-118c-437b-bd55-020621253e35","ios":"levelo://app?vid=387d1fed-118c-437b-bd55-020621253e35"},"vehicle_type_id":"4","last_reported":1750003876,"current_range_meters":10000,"station_id":"","pricing_plan_id":"cebpf4jnsgd1na2vs0mg"},{"bike_id":"ecb77889-a018-4c8c-a3af-0db43cb7d7f5","system_id":"levelo_inurba_marseille","lat":43.282676,"lon":5.350584,"is_reserved":false,"is_disabled":false,"rental_uris":{"android":"levelo://app?vid=ecb77889-a018-4c8c-a3af-0db43cb7d7f5","ios":"levelo://app?vid=ecb77889-a018-4c8c-a3af-0db43cb7d7f5"},"vehicle_type_id":"4","last_reported":1750003876,"current_range_meters":10000,"station_id":"ce4bhbp2rcd13ifvqerg","pricing_plan_id":"cebpf4jnsgd1na2vs0mg"},{"bike_id":"ee223872-c037-4f76-83f6-bc2cd5d9e8de","system_id":"levelo_inurba_marseille","lat":43.2118,"lon":5.35083,"is_reserved":false,"is_disabled":false,"rental_uris":{"android":"levelo://app?vid=ee223872-c037-4f76-83f6-bc2cd5d9e8de","ios":"levelo://app?vid=ee223872-c037-4f76-83f6-bc2cd5d9e8de"},"vehicle_type_id":"4","last_reported":1750003876,"current_range_meters":10000,"station_id":"st_cvj6sg6p6f1abm77japg","pricing_plan_id":"cebpf4jnsgd1na2vs0mg"},{"bike_id":"d97dc030-8405-4eb1-abbf-845730c8e3dc","system_id":"levelo_inurba_marseille","lat":43.21162,"lon":5.35072,"is_reserved":false,"is_disabled":false,"rental_uris":{"android":"levelo://app?vid=d97dc030-8405-4eb1-abbf-845730c8e3dc","ios":"levelo://app?vid=d97dc030-8405-4eb1-abbf-845730c8e3dc"},"vehicle_type_id":"4","last_reported":1750003876,"current_range_meters":10000,"station_id":"st_cvj6sg6p6f1abm77japg","pricing_plan_id":"cebpf4jnsgd1na2vs0mg"},{"bike_id":"f8e5f3dd-1fad-4300-86f3-d706424360a1","system_id":"levelo_inurba_marseille","lat":43.28423,"lon":5.34994,"is_reserved":false,"is_disabled":false,"rental_uris":{"android":"levelo://app?vid=f8e5f3dd-1fad-4300-86f3-d706424360a1","ios":"levelo://app?vid=f8e5f3dd-1fad-4300-86f3-d706424360a1"},"vehicle_type_id":"4","last_reported":1750003876,"current_range_meters":10800,"station_id":"ce4bhbh2rcd13ifvqepg","pricing_plan_id":"cebpf4jnsgd1na2vs0mg"},{"bike_id":"13164296-ea08-4f56-9741-6302bdb733c8","system_id":"levelo_inurba_marseille","lat":43.28432,"lon":5.34978,"is_reserved":false,"is_disabled":false,"rental_uris":{"android":"levelo://app?vid=13164296-ea08-4f56-9741-6302bdb733c8","ios":"levelo://app?vid=13164296-ea08-4f56-9741-6302bdb733c8"},"vehicle_type_id":"4","last_reported":1750003876,"current_range_meters":10800,"station_id":"ce4bhbh2rcd13ifvqepg","pricing_plan_id":"cebpf4jnsgd1na2vs0mg"},{"bike_id":"5323de64-19a6-4c58-ab74-28a3cf7115d0","system_id":"levelo_inurba_marseille","lat":43.28421,"lon":5.34988,"is_reserved":false,"is_disabled":false,"rental_uris":{"android":"levelo://app?vid=5323de64-19a6-4c58-ab74-28a3cf7115d0","ios":"levelo://app?vid=5323de64-19a6-4c58-ab74-28a3cf7115d0"},"vehicle_type_id":"4","last_reported":1750003876,"current_range_meters":10800,"station_id":"ce4bhbh2rcd13ifvqepg","pricing_plan_id":"cebpf4jnsgd1na2vs0mg"},{"bike_id":"d8a4f7b4-052d-4bce-ae83-b9167311e0ea","system_id":"levelo_inurba_marseille","lat":43.21201,"lon":5.35069,"is_reserved":false,"is_disabled":false,"rental_uris":{"android":"levelo://app?vid=d8a4f7b4-052d-4bce-ae83-b9167311e0ea","ios":"levelo://app?vid=d8a4f7b4-052d-4bce-ae83-b9167311e0ea"},"vehicle_type_id":"4","last_reported":1750003876,"current_range_meters":10800,"station_id":"st_cvj6sg6p6f1abm77japg","pricing_plan_id":"cebpf4jnsgd1na2vs0mg"},{"bike_id":"4d888f10-97c2-48bc-98ff-598712936b88","system_id":"levelo_inurba_marseille","lat":43.31573,"lon":5.38903,"is_reserved":false,"is_disabled":false,"rental_uris":{"android":"levelo://app?vid=4d888f10-97c2-48bc-98ff-598712936b88","ios":"levelo://app?vid=4d888f10-97c2-48bc-98ff-598712936b88"},"vehicle_type_id":"4","last_reported":1750003876,"current_range_meters":11200,"station_id":"","pricing_plan_id":"cebpf4jnsgd1na2vs0mg"},{"bike_id":"deb8b9de-9356-4e1a-be59-fccaa0ec9a38","system_id":"levelo_inurba_marseille","lat":43.23146,"lon":5.43706,"is_reserved":false,"is_disabled":false,"rental_uris":{"android":"levelo://app?vid=deb8b9de-9356-4e1a-be59-fccaa0ec9a38","ios":"levelo://app?vid=deb8b9de-9356-4e1a-be59-fccaa0ec9a38"},"vehicle_type_id":"4","last_reported":1750003876,"current_range_meters":11200,"station_id":"ce4bhmp2rcd13ifvqgog","pricing_plan_id":"cebpf4jnsgd1na2vs0mg"},{"bike_id":"6b20fe20-6041-4fc2-862a-9191d06aab50","system_id":"levelo_inurba_marseille","lat":43.21203,"lon":5.35062,"is_reserved":false,"is_disabled":false,"rental_uris":{"android":"levelo://app?vid=6b20fe20-6041-4fc2-862a-9191d06aab50","ios":"levelo://app?vid=6b20fe20-6041-4fc2-862a-9191d06aab50"},"vehicle_type_id":"4","last_reported":1750003876,"current_range_meters":11200,"station_id":"st_cvj6sg6p6f1abm77japg","pricing_plan_id":"cebpf4jnsgd1na2vs0mg"},{"bike_id":"bf61062e-31f1-4a6f-8966-c2c74d688473","system_id":"levelo_inurba_marseille","lat":43.2694,"lon":5.39123,"is_reserved":false,"is_disabled":false,"rental_uris":{"android":"levelo://app?vid=bf61062e-31f1-4a6f-8966-c2c74d688473","ios":"levelo://app?vid=bf61062e-31f1-4a6f-8966-c2c74d688473"},"vehicle_type_id":"4","last_reported":1750003876,"current_range_meters":11600,"station_id":"","pricing_plan_id":"cebpf4jnsgd1na2vs0mg"},{"bike_id":"589b70b1-7816-4bdd-9ac8-d3ceb41c6dd3","system_id":"levelo_inurba_marseille","lat":43.23058,"lon":5.355,"is_reserved":false,"is_disabled":false,"rental_uris":{"android":"levelo://app?vid=589b70b1-7816-4bdd-9ac8-d3ceb41c6dd3","ios":"levelo://app?vid=589b70b1-7816-4bdd-9ac8-d3ceb41c6dd3"},"vehicle_type_id":"4","last_reported":1750003876,"current_range_meters":11600,"station_id":"cpo3342slgdg3j2ifvpg","pricing_plan_id":"cebpf4jnsgd1na2vs0mg"},{"bike_id":"3c4d4cd2-050e-46ac-85d6-64baa38305d9","system_id":"levelo_inurba_marseille","lat":43.23198,"lon":5.35535,"is_reserved":false,"is_disabled":false,"rental_uris":{"android":"levelo://app?vid=3c4d4cd2-050e-46ac-85d6-64baa38305d9","ios":"levelo://app?vid=3c4d4cd2-050e-46ac-85d6-64baa38305d9"},"vehicle_type_id":"4","last_reported":1750003876,"current_range_meters":12000,"station_id":"ce4bhu92rcd13ifvqi70","pricing_plan_id":"cebpf4jnsgd1na2vs0mg"},{"bike_id":"59e7d905-44b5-4350-8d0d-3d0d5c325050","system_id":"levelo_inurba_marseille","lat":43.23054,"lon":5.35486,"is_reserved":false,"is_disabled":false,"rental_uris":{"android":"levelo://app?vid=59e7d905-44b5-4350-8d0d-3d0d5c325050","ios":"levelo://app?vid=59e7d905-44b5-4350-8d0d-3d0d5c325050"},"vehicle_type_id":"4","last_reported":1750003876,"current_range_meters":12000,"station_id":"cpo3342slgdg3j2ifvpg","pricing_plan_id":"cebpf4jnsgd1na2vs0mg"},{"bike_id":"83f31999-1294-433c-ad6a-2105d7db3fcf","system_id":"levelo_inurba_marseille","lat":43.29254,"lon":5.37616,"is_reserved":false,"is_disabled":false,"rental_uris":{"android":"levelo://app?vid=83f31999-1294-433c-ad6a-2105d7db3fcf","ios":"levelo://app?vid=83f31999-1294-433c-ad6a-2105d7db3fcf"},"vehicle_type_id":"4","last_reported":1750003876,"current_range_meters":12400,"station_id":"ce4bgi12rcd13ifvqb80","pricing_plan_id":"cebpf4jnsgd1na2vs0mg"},{"bike_id":"7c98e3b9-4b0a-45de-8146-4674c91980b9","system_id":"levelo_inurba_marseille","lat":43.28409,"lon":5.34979,"is_reserved":false,"is_disabled":false,"rental_uris":{"android":"levelo://app?vid=7c98e3b9-4b0a-45de-8146-4674c91980b9","ios":"levelo://app?vid=7c98e3b9-4b0a-45de-8146-4674c91980b9"},"vehicle_type_id":"4","last_reported":1750003876,"current_range_meters":12400,"station_id":"ce4bhbh2rcd13ifvqepg","pricing_plan_id":"cebpf4jnsgd1na2vs0mg"},{"bike_id":"a1822137-90c5-4752-acca-0e2c28506262","system_id":"levelo_inurba_marseille","lat":43.27438,"lon":5.39445,"is_reserved":false,"is_disabled":false,"rental_uris":{"android":"levelo://app?vid=a1822137-90c5-4752-acca-0e2c28506262","ios":"levelo://app?vid=a1822137-90c5-4752-acca-0e2c28506262"},"vehicle_type_id":"4","last_reported":1750003876,"current_range_meters":12400,"station_id":"ce4bhdp2rcd13ifvqf20","pricing_plan_id":"cebpf4jnsgd1na2vs0mg"},{"bike_id":"0c78a890-2e36-46ee-9c21-94fa11ef191d","system_id":"levelo_inurba_marseille","lat":43.26941,"lon":5.40282,"is_reserved":false,"is_disabled":false,"rental_uris":{"android":"levelo://app?vid=0c78a890-2e36-46ee-9c21-94fa11ef191d","ios":"levelo://app?vid=0c78a890-2e36-46ee-9c21-94fa11ef191d"},"vehicle_type_id":"4","last_reported":1750003876,"current_range_meters":12400,"station_id":"cjm6bp8fraef2m0cb0m0","pricing_plan_id":"cebpf4jnsgd1na2vs0mg"},{"bike_id":"73d2bea6-f99d-4671-8954-580edff743bc","system_id":"levelo_inurba_marseille","lat":43.21199,"lon":5.35071,"is_reserved":false,"is_disabled":false,"rental_uris":{"android":"levelo://app?vid=73d2bea6-f99d-4671-8954-580edff743bc","ios":"levelo://app?vid=73d2bea6-f99d-4671-8954-580edff743bc"},"vehicle_type_id":"4","last_reported":1750003876,"current_range_meters":12400,"station_id":"st_cvj6sg6p6f1abm77japg","pricing_plan_id":"cebpf4jnsgd1na2vs0mg"},{"bike_id":"1796ef0e-b55d-430a-98e5-00e800191852","system_id":"levelo_inurba_marseille","lat":43.24802,"lon":5.37453,"is_reserved":false,"is_disabled":false,"rental_uris":{"android":"levelo://app?vid=1796ef0e-b55d-430a-98e5-00e800191852","ios":"levelo://app?vid=1796ef0e-b55d-430a-98e5-00e800191852"},"vehicle_type_id":"4","last_reported":1750003876,"current_range_meters":13600,"station_id":"ce4bhgh2rcd13ifvqfb0","pricing_plan_id":"cebpf4jnsgd1na2vs0mg"},{"bike_id":"5bf19c18-d0ad-489b-bd15-9440a1d65b2d","system_id":"levelo_inurba_marseille","lat":43.21189,"lon":5.35052,"is_reserved":false,"is_disabled":false,"rental_uris":{"android":"levelo://app?vid=5bf19c18-d0ad-489b-bd15-9440a1d65b2d","ios":"levelo://app?vid=5bf19c18-d0ad-489b-bd15-9440a1d65b2d"},"vehicle_type_id":"4","last_reported":1750003876,"current_range_meters":13600,"station_id":"st_cvj6sg6p6f1abm77japg","pricing_plan_id":"cebpf4jnsgd1na2vs0mg"},{"bike_id":"2e646b46-a7dc-4548-9147-858a85b004a3","system_id":"levelo_inurba_marseille","lat":43.21192,"lon":5.35069,"is_reserved":false,"is_disabled":false,"rental_uris":{"android":"levelo://app?vid=2e646b46-a7dc-4548-9147-858a85b004a3","ios":"levelo://app?vid=2e646b46-a7dc-4548-9147-858a85b004a3"},"vehicle_type_id":"4","last_reported":1750003876,"current_range_meters":13600,"station_id":"st_cvj6sg6p6f1abm77japg","pricing_plan_id":"cebpf4jnsgd1na2vs0mg"},{"bike_id":"2319ce10-a51c-42ad-ad50-827b68e4f300","system_id":"levelo_inurba_marseille","lat":43.29738,"lon":5.37988,"is_reserved":false,"is_disabled":false,"rental_uris":{"android":"levelo://app?vid=2319ce10-a51c-42ad-ad50-827b68e4f300","ios":"levelo://app?vid=2319ce10-a51c-42ad-ad50-827b68e4f300"},"vehicle_type_id":"4","last_reported":1750003876,"current_range_meters":14000,"station_id":"","pricing_plan_id":"cebpf4jnsgd1na2vs0mg"},{"bike_id":"1453a0aa-9095-4c5f-b53c-34733c6bea5e","system_id":"levelo_inurba_marseille","lat":43.25719,"lon":5.41111,"is_reserved":false,"is_disabled":false,"rental_uris":{"android":"levelo://app?vid=1453a0aa-9095-4c5f-b53c-34733c6bea5e","ios":"levelo://app?vid=1453a0aa-9095-4c5f-b53c-34733c6bea5e"},"vehicle_type_id":"4","last_reported":1750003876,"current_range_meters":14000,"station_id":"ce4bhkp2rcd13ifvqgd0","pricing_plan_id":"cebpf4jnsgd1na2vs0mg"},{"bike_id":"1c45a484-db4a-4d4c-bdb0-fcdb9463abd7","system_id":"levelo_inurba_marseille","lat":43.28392,"lon":5.34999,"is_reserved":false,"is_disabled":false,"rental_uris":{"android":"levelo://app?vid=1c45a484-db4a-4d4c-bdb0-fcdb9463abd7","ios":"levelo://app?vid=1c45a484-db4a-4d4c-bdb0-fcdb9463abd7"},"vehicle_type_id":"4","last_reported":1750003876,"current_range_meters":14400,"station_id":"ce4bhbh2rcd13ifvqepg","pricing_plan_id":"cebpf4jnsgd1na2vs0mg"},{"bike_id":"8d05a31a-b27b-46ed-87f5-b4621a005fa9","system_id":"levelo_inurba_marseille","lat":43.23205,"lon":5.35548,"is_reserved":false,"is_disabled":false,"rental_uris":{"android":"levelo://app?vid=8d05a31a-b27b-46ed-87f5-b4621a005fa9","ios":"levelo://app?vid=8d05a31a-b27b-46ed-87f5-b4621a005fa9"},"vehicle_type_id":"4","last_reported":1750003876,"current_range_meters":14400,"station_id":"ce4bhu92rcd13ifvqi70","pricing_plan_id":"cebpf4jnsgd1na2vs0mg"},{"bike_id":"516d9f5c-a9ce-43ab-ac30-5393e9b521d3","system_id":"levelo_inurba_marseille","lat":43.2307,"lon":5.3549,"is_reserved":false,"is_disabled":false,"rental_uris":{"android":"levelo://app?vid=516d9f5c-a9ce-43ab-ac30-5393e9b521d3","ios":"levelo://app?vid=516d9f5c-a9ce-43ab-ac30-5393e9b521d3"},"vehicle_type_id":"4","last_reported":1750003876,"current_range_meters":14400,"station_id":"cpo3342slgdg3j2ifvpg","pricing_plan_id":"cebpf4jnsgd1na2vs0mg"},{"bike_id":"ef98ff69-f8f8-41f3-b80f-9e82427db8ab","system_id":"levelo_inurba_marseille","lat":43.30533,"lon":5.36724,"is_reserved":false,"is_disabled":false,"rental_uris":{"android":"levelo://app?vid=ef98ff69-f8f8-41f3-b80f-9e82427db8ab","ios":"levelo://app?vid=ef98ff69-f8f8-41f3-b80f-9e82427db8ab"},"vehicle_type_id":"4","last_reported":1750003876,"current_range_meters":14800,"station_id":"ce4bgrp2rcd13ifvqc9g","pricing_plan_id":"cebpf4jnsgd1na2vs0mg"},{"bike_id":"ff2b01be-1be2-4771-9c39-884f8428d67d","system_id":"levelo_inurba_marseille","lat":43.28433,"lon":5.3497,"is_reserved":false,"is_disabled":false,"rental_uris":{"android":"levelo://app?vid=ff2b01be-1be2-4771-9c39-884f8428d67d","ios":"levelo://app?vid=ff2b01be-1be2-4771-9c39-884f8428d67d"},"vehicle_type_id":"4","last_reported":1750003876,"current_range_meters":14800,"station_id":"ce4bhbh2rcd13ifvqepg","pricing_plan_id":"cebpf4jnsgd1na2vs0mg"},{"bike_id":"3d2c21f9-0691-4a36-a322-d4f4deb3b947","system_id":"levelo_inurba_marseille","lat":43.27322,"lon":5.36235,"is_reserved":false,"is_disabled":false,"rental_uris":{"android":"levelo://app?vid=3d2c21f9-0691-4a36-a322-d4f4deb3b947","ios":"levelo://app?vid=3d2c21f9-0691-4a36-a322-d4f4deb3b947"},"vehicle_type_id":"4","last_reported":1750003876,"current_range_meters":15200,"station_id":"","pricing_plan_id":"cebpf4jnsgd1na2vs0mg"},{"bike_id":"73088dc7-f2a2-49fb-af6f-84f8a103b229","system_id":"levelo_inurba_marseille","lat":43.28435,"lon":5.3499,"is_reserved":false,"is_disabled":false,"rental_uris":{"android":"levelo://app?vid=73088dc7-f2a2-49fb-af6f-84f8a103b229","ios":"levelo://app?vid=73088dc7-f2a2-49fb-af6f-84f8a103b229"},"vehicle_type_id":"4","last_reported":1750003876,"current_range_meters":15200,"station_id":"ce4bhbh2rcd13ifvqepg","pricing_plan_id":"cebpf4jnsgd1na2vs0mg"},{"bike_id":"33454d5f-6da2-4c92-8afd-175c37556500","system_id":"levelo_inurba_marseille","lat":43.26207,"lon":5.37442,"is_reserved":false,"is_disabled":false,"rental_uris":{"android":"levelo://app?vid=33454d5f-6da2-4c92-8afd-175c37556500","ios":"levelo://app?vid=33454d5f-6da2-4c92-8afd-175c37556500"},"vehicle_type_id":"4","last_reported":1750003876,"current_range_meters":15200,"station_id":"ce4bhgp2rcd13ifvqfc0","pricing_plan_id":"cebpf4jnsgd1na2vs0mg"},{"bike_id":"9a0c3f99-8244-4ee9-a116-a84f3fe33d04","system_id":"levelo_inurba_marseille","lat":43.23192,"lon":5.35541,"is_reserved":false,"is_disabled":false,"rental_uris":{"android":"levelo://app?vid=9a0c3f99-8244-4ee9-a116-a84f3fe33d04","ios":"levelo://app?vid=9a0c3f99-8244-4ee9-a116-a84f3fe33d04"},"vehicle_type_id":"4","last_reported":1750003876,"current_range_meters":15200,"station_id":"ce4bhu92rcd13ifvqi70","pricing_plan_id":"cebpf4jnsgd1na2vs0mg"},{"bike_id":"46949dad-738a-49db-9012-adeec2d6fc9a","system_id":"levelo_inurba_marseille","lat":43.23083,"lon":5.35479,"is_reserved":false,"is_disabled":false,"rental_uris":{"android":"levelo://app?vid=46949dad-738a-49db-9012-adeec2d6fc9a","ios":"levelo://app?vid=46949dad-738a-49db-9012-adeec2d6fc9a"},"vehicle_type_id":"4","last_reported":1750003876,"current_range_meters":15200,"station_id":"cpo3342slgdg3j2ifvpg","pricing_plan_id":"cebpf4jnsgd1na2vs0mg"},{"bike_id":"f11c60f8-3239-4c9b-bbca-c189fc2e4072","system_id":"levelo_inurba_marseille","lat":43.225037,"lon":5.347904,"is_reserved":false,"is_disabled":false,"rental_uris":{"android":"levelo://app?vid=f11c60f8-3239-4c9b-bbca-c189fc2e4072","ios":"levelo://app?vid=f11c60f8-3239-4c9b-bbca-c189fc2e4072"},"vehicle_type_id":"4","last_reported":1750003876,"current_range_meters":15200,"station_id":"st_cvj5dfep6f1abm77gieg","pricing_plan_id":"cebpf4jnsgd1na2vs0mg"},{"bike_id":"cae08f8a-9511-476d-9ad2-fc5efb61a8eb","system_id":"levelo_inurba_marseille","lat":43.2151,"lon":5.34713,"is_reserved":false,"is_disabled":false,"rental_uris":{"android":"levelo://app?vid=cae08f8a-9511-476d-9ad2-fc5efb61a8eb","ios":"levelo://app?vid=cae08f8a-9511-476d-9ad2-fc5efb61a8eb"},"vehicle_type_id":"4","last_reported":1750003876,"current_range_meters":16000,"station_id":"","pricing_plan_id":"cebpf4jnsgd1na2vs0mg"},{"bike_id":"91753df6-b383-4702-8414-24237e81fab8","system_id":"levelo_inurba_marseille","lat":43.24432,"lon":5.37152,"is_reserved":false,"is_disabled":false,"rental_uris":{"android":"levelo://app?vid=91753df6-b383-4702-8414-24237e81fab8","ios":"levelo://app?vid=91753df6-b383-4702-8414-24237e81fab8"},"vehicle_type_id":"4","last_reported":1750003876,"current_range_meters":16000,"station_id":"","pricing_plan_id":"cebpf4jnsgd1na2vs0mg"},{"bike_id":"97f8851e-21a3-4c6a-8d82-1c239c500fcb","system_id":"levelo_inurba_marseille","lat":43.273777,"lon":5.362576,"is_reserved":false,"is_disabled":false,"rental_uris":{"android":"levelo://app?vid=97f8851e-21a3-4c6a-8d82-1c239c500fcb","ios":"levelo://app?vid=97f8851e-21a3-4c6a-8d82-1c239c500fcb"},"vehicle_type_id":"4","last_reported":1750003876,"current_range_meters":16000,"station_id":"","pricing_plan_id":"cebpf4jnsgd1na2vs0mg"},{"bike_id":"0ef26079-5e9f-4b47-8ba7-4457290c10ea","system_id":"levelo_inurba_marseille","lat":43.28402,"lon":5.34961,"is_reserved":false,"is_disabled":false,"rental_uris":{"android":"levelo://app?vid=0ef26079-5e9f-4b47-8ba7-4457290c10ea","ios":"levelo://app?vid=0ef26079-5e9f-4b47-8ba7-4457290c10ea"},"vehicle_type_id":"4","last_reported":1750003876,"current_range_meters":16000,"station_id":"ce4bhbh2rcd13ifvqepg","pricing_plan_id":"cebpf4jnsgd1na2vs0mg"},{"bike_id":"955036b4-5bb6-4586-b8e0-ea3cadd18411","system_id":"levelo_inurba_marseille","lat":43.31997,"lon":5.38162,"is_reserved":false,"is_disabled":false,"rental_uris":{"android":"levelo://app?vid=955036b4-5bb6-4586-b8e0-ea3cadd18411","ios":"levelo://app?vid=955036b4-5bb6-4586-b8e0-ea3cadd18411"},"vehicle_type_id":"4","last_reported":1750003876,"current_range_meters":16000,"station_id":"ce4bhr12rcd13ifvqhpg","pricing_plan_id":"cebpf4jnsgd1na2vs0mg"},{"bike_id":"0fe8d47d-0db3-437d-9239-f712b4736eb4","system_id":"levelo_inurba_marseille","lat":43.32133,"lon":5.36752,"is_reserved":false,"is_disabled":false,"rental_uris":{"android":"levelo://app?vid=0fe8d47d-0db3-437d-9239-f712b4736eb4","ios":"levelo://app?vid=0fe8d47d-0db3-437d-9239-f712b4736eb4"},"vehicle_type_id":"4","last_reported":1750003876,"current_range_meters":16000,"station_id":"ce4bhrh2rcd13ifvqhug","pricing_plan_id":"cebpf4jnsgd1na2vs0mg"},{"bike_id":"4b7aa7fd-08b3-4aae-80b7-d96b8da1b91a","system_id":"levelo_inurba_marseille","lat":43.21181,"lon":5.35084,"is_reserved":false,"is_disabled":false,"rental_uris":{"android":"levelo://app?vid=4b7aa7fd-08b3-4aae-80b7-d96b8da1b91a","ios":"levelo://app?vid=4b7aa7fd-08b3-4aae-80b7-d96b8da1b91a"},"vehicle_type_id":"4","last_reported":1750003876,"current_range_meters":16000,"station_id":"st_cvj6sg6p6f1abm77japg","pricing_plan_id":"cebpf4jnsgd1na2vs0mg"},{"bike_id":"38e08ec6-738b-4a04-a092-dec10c6891d3","system_id":"levelo_inurba_marseille","lat":43.26886,"lon":5.40678,"is_reserved":false,"is_disabled":false,"rental_uris":{"android":"levelo://app?vid=38e08ec6-738b-4a04-a092-dec10c6891d3","ios":"levelo://app?vid=38e08ec6-738b-4a04-a092-dec10c6891d3"},"vehicle_type_id":"4","last_reported":1750003876,"current_range_meters":16400,"station_id":"","pricing_plan_id":"cebpf4jnsgd1na2vs0mg"},{"bike_id":"12be0a4b-d0c8-410b-99e5-bed025efc972","system_id":"levelo_inurba_marseille","lat":43.24999,"lon":5.38923,"is_reserved":false,"is_disabled":false,"rental_uris":{"android":"levelo://app?vid=12be0a4b-d0c8-410b-99e5-bed025efc972","ios":"levelo://app?vid=12be0a4b-d0c8-410b-99e5-bed025efc972"},"vehicle_type_id":"4","last_reported":1750003876,"current_range_meters":16400,"station_id":"ce4bhgp2rcd13ifvqfd0","pricing_plan_id":"cebpf4jnsgd1na2vs0mg"},{"bike_id":"8f629325-c87a-429a-8e42-b9c74214a999","system_id":"levelo_inurba_marseille","lat":43.254926,"lon":5.376475,"is_reserved":false,"is_disabled":false,"rental_uris":{"android":"levelo://app?vid=8f629325-c87a-429a-8e42-b9c74214a999","ios":"levelo://app?vid=8f629325-c87a-429a-8e42-b9c74214a999"},"vehicle_type_id":"4","last_reported":1750003876,"current_range_meters":16400,"station_id":"ce4bhh12rcd13ifvqff0","pricing_plan_id":"cebpf4jnsgd1na2vs0mg"},{"bike_id":"193d6c22-8bc4-40ae-8ed6-71161a4695e9","system_id":"levelo_inurba_marseille","lat":43.21738,"lon":5.34609,"is_reserved":false,"is_disabled":false,"rental_uris":{"android":"levelo://app?vid=193d6c22-8bc4-40ae-8ed6-71161a4695e9","ios":"levelo://app?vid=193d6c22-8bc4-40ae-8ed6-71161a4695e9"},"vehicle_type_id":"4","last_reported":1750003876,"current_range_meters":16400,"station_id":"st_cvj6r9ubvosntc0bgbag","pricing_plan_id":"cebpf4jnsgd1na2vs0mg"},{"bike_id":"b3216bbf-ea7e-49f9-b09d-05ab44a14973","system_id":"levelo_inurba_marseille","lat":43.21177,"lon":5.35053,"is_reserved":false,"is_disabled":false,"rental_uris":{"android":"levelo://app?vid=b3216bbf-ea7e-49f9-b09d-05ab44a14973","ios":"levelo://app?vid=b3216bbf-ea7e-49f9-b09d-05ab44a14973"},"vehicle_type_id":"4","last_reported":1750003876,"current_range_meters":16400,"station_id":"st_cvj6sg6p6f1abm77japg","pricing_plan_id":"cebpf4jnsgd1na2vs0mg"},{"bike_id":"a27eb359-528f-472b-bce7-de1c20e3d87d","system_id":"levelo_inurba_marseille","lat":43.309345,"lon":5.390275,"is_reserved":false,"is_disabled":false,"rental_uris":{"android":"levelo://app?vid=a27eb359-528f-472b-bce7-de1c20e3d87d","ios":"levelo://app?vid=a27eb359-528f-472b-bce7-de1c20e3d87d"},"vehicle_type_id":"4","last_reported":1750003876,"current_range_meters":16800,"station_id":"ce4bgup2rcd13ifvqco0","pricing_plan_id":"cebpf4jnsgd1na2vs0mg"},{"bike_id":"de45f471-f357-49e4-9986-80dadfa0424e","system_id":"levelo_inurba_marseille","lat":43.28422,"lon":5.34979,"is_reserved":false,"is_disabled":false,"rental_uris":{"android":"levelo://app?vid=de45f471-f357-49e4-9986-80dadfa0424e","ios":"levelo://app?vid=de45f471-f357-49e4-9986-80dadfa0424e"},"vehicle_type_id":"4","last_reported":1750003876,"current_range_meters":16800,"station_id":"ce4bhbh2rcd13ifvqepg","pricing_plan_id":"cebpf4jnsgd1na2vs0mg"},{"bike_id":"1d9df16e-4abf-44d7-b6e8-a27dd4aa3ffb","system_id":"levelo_inurba_marseille","lat":43.23213,"lon":5.35587,"is_reserved":false,"is_disabled":false,"rental_uris":{"android":"levelo://app?vid=1d9df16e-4abf-44d7-b6e8-a27dd4aa3ffb","ios":"levelo://app?vid=1d9df16e-4abf-44d7-b6e8-a27dd4aa3ffb"},"vehicle_type_id":"4","last_reported":1750003876,"current_range_meters":16800,"station_id":"ce4bhu92rcd13ifvqi70","pricing_plan_id":"cebpf4jnsgd1na2vs0mg"},{"bike_id":"74a35f72-fd5c-4106-8b92-1c225073dea6","system_id":"levelo_inurba_marseille","lat":43.21743,"lon":5.34599,"is_reserved":false,"is_disabled":false,"rental_uris":{"android":"levelo://app?vid=74a35f72-fd5c-4106-8b92-1c225073dea6","ios":"levelo://app?vid=74a35f72-fd5c-4106-8b92-1c225073dea6"},"vehicle_type_id":"4","last_reported":1750003876,"current_range_meters":16800,"station_id":"st_cvj6r9ubvosntc0bgbag","pricing_plan_id":"cebpf4jnsgd1na2vs0mg"},{"bike_id":"c7b7db49-d833-4cd8-958d-fc6fcd28572c","system_id":"levelo_inurba_marseille","lat":43.2121,"lon":5.35052,"is_reserved":false,"is_disabled":false,"rental_uris":{"android":"levelo://app?vid=c7b7db49-d833-4cd8-958d-fc6fcd28572c","ios":"levelo://app?vid=c7b7db49-d833-4cd8-958d-fc6fcd28572c"},"vehicle_type_id":"4","last_reported":1750003876,"current_range_meters":16800,"station_id":"st_cvj6sg6p6f1abm77japg","pricing_plan_id":"cebpf4jnsgd1na2vs0mg"},{"bike_id":"2d16d2b6-c684-45ab-831f-9a77e91e8afb","system_id":"levelo_inurba_marseille","lat":43.211906,"lon":5.350745,"is_reserved":false,"is_disabled":false,"rental_uris":{"android":"levelo://app?vid=2d16d2b6-c684-45ab-831f-9a77e91e8afb","ios":"levelo://app?vid=2d16d2b6-c684-45ab-831f-9a77e91e8afb"},"vehicle_type_id":"4","last_reported":1750003876,"current_range_meters":16800,"station_id":"st_cvj6sg6p6f1abm77japg","pricing_plan_id":"cebpf4jnsgd1na2vs0mg"},{"bike_id":"44ded28a-80f1-4b31-ba8c-72302ba186cc","system_id":"levelo_inurba_marseille","lat":43.28567,"lon":5.35073,"is_reserved":false,"is_disabled":false,"rental_uris":{"android":"levelo://app?vid=44ded28a-80f1-4b31-ba8c-72302ba186cc","ios":"levelo://app?vid=44ded28a-80f1-4b31-ba8c-72302ba186cc"},"vehicle_type_id":"4","last_reported":1750003876,"current_range_meters":17200,"station_id":"","pricing_plan_id":"cebpf4jnsgd1na2vs0mg"},{"bike_id":"43d78837-f68f-4b31-b266-be19c8685006","system_id":"levelo_inurba_marseille","lat":43.26228,"lon":5.37432,"is_reserved":false,"is_disabled":false,"rental_uris":{"android":"levelo://app?vid=43d78837-f68f-4b31-b266-be19c8685006","ios":"levelo://app?vid=43d78837-f68f-4b31-b266-be19c8685006"},"vehicle_type_id":"4","last_reported":1750003876,"current_range_meters":17200,"station_id":"ce4bhgp2rcd13ifvqfc0","pricing_plan_id":"cebpf4jnsgd1na2vs0mg"},{"bike_id":"1d1fcabf-1838-4112-b1d5-c568381f15d3","system_id":"levelo_inurba_marseille","lat":43.25496,"lon":5.37648,"is_reserved":false,"is_disabled":false,"rental_uris":{"android":"levelo://app?vid=1d1fcabf-1838-4112-b1d5-c568381f15d3","ios":"levelo://app?vid=1d1fcabf-1838-4112-b1d5-c568381f15d3"},"vehicle_type_id":"4","last_reported":1750003876,"current_range_meters":17200,"station_id":"ce4bhh12rcd13ifvqff0","pricing_plan_id":"cebpf4jnsgd1na2vs0mg"},{"bike_id":"bb64479a-55e2-41f8-896f-add250ae6b09","system_id":"levelo_inurba_marseille","lat":43.28407,"lon":5.35006,"is_reserved":false,"is_disabled":false,"rental_uris":{"android":"levelo://app?vid=bb64479a-55e2-41f8-896f-add250ae6b09","ios":"levelo://app?vid=bb64479a-55e2-41f8-896f-add250ae6b09"},"vehicle_type_id":"4","last_reported":1750003876,"current_range_meters":17600,"station_id":"ce4bhbh2rcd13ifvqepg","pricing_plan_id":"cebpf4jnsgd1na2vs0mg"},{"bike_id":"8b259071-7062-4c15-8ee4-70da36f90300","system_id":"levelo_inurba_marseille","lat":43.28421,"lon":5.34982,"is_reserved":false,"is_disabled":false,"rental_uris":{"android":"levelo://app?vid=8b259071-7062-4c15-8ee4-70da36f90300","ios":"levelo://app?vid=8b259071-7062-4c15-8ee4-70da36f90300"},"vehicle_type_id":"4","last_reported":1750003876,"current_range_meters":17600,"station_id":"ce4bhbh2rcd13ifvqepg","pricing_plan_id":"cebpf4jnsgd1na2vs0mg"},{"bike_id":"f97ab53a-7692-40c7-8eb6-9dc89459aef5","system_id":"levelo_inurba_marseille","lat":43.28416,"lon":5.3498,"is_reserved":false,"is_disabled":false,"rental_uris":{"android":"levelo://app?vid=f97ab53a-7692-40c7-8eb6-9dc89459aef5","ios":"levelo://app?vid=f97ab53a-7692-40c7-8eb6-9dc89459aef5"},"vehicle_type_id":"4","last_reported":1750003876,"current_range_meters":17600,"station_id":"ce4bhbh2rcd13ifvqepg","pricing_plan_id":"cebpf4jnsgd1na2vs0mg"},{"bike_id":"7808e9af-fd64-4de5-bffe-85e03a8d17f3","system_id":"levelo_inurba_marseille","lat":43.27558,"lon":5.38431,"is_reserved":false,"is_disabled":false,"rental_uris":{"android":"levelo://app?vid=7808e9af-fd64-4de5-bffe-85e03a8d17f3","ios":"levelo://app?vid=7808e9af-fd64-4de5-bffe-85e03a8d17f3"},"vehicle_type_id":"4","last_reported":1750003876,"current_range_meters":17600,"station_id":"ce4bhh92rcd13ifvqfi0","pricing_plan_id":"cebpf4jnsgd1na2vs0mg"},{"bike_id":"0d51830a-756f-4f39-bdf4-2fe9707991c7","system_id":"levelo_inurba_marseille","lat":43.2119,"lon":5.35056,"is_reserved":false,"is_disabled":false,"rental_uris":{"android":"levelo://app?vid=0d51830a-756f-4f39-bdf4-2fe9707991c7","ios":"levelo://app?vid=0d51830a-756f-4f39-bdf4-2fe9707991c7"},"vehicle_type_id":"4","last_reported":1750003876,"current_range_meters":17600,"station_id":"st_cvj6sg6p6f1abm77japg","pricing_plan_id":"cebpf4jnsgd1na2vs0mg"},{"bike_id":"dbd4c48d-7f19-4d98-8789-5bae10c6ba72","system_id":"levelo_inurba_marseille","lat":43.28386,"lon":5.35023,"is_reserved":false,"is_disabled":false,"rental_uris":{"android":"levelo://app?vid=dbd4c48d-7f19-4d98-8789-5bae10c6ba72","ios":"levelo://app?vid=dbd4c48d-7f19-4d98-8789-5bae10c6ba72"},"vehicle_type_id":"4","last_reported":1750003876,"current_range_meters":18000,"station_id":"","pricing_plan_id":"cebpf4jnsgd1na2vs0mg"},{"bike_id":"978a26a0-7aa1-45d9-ad87-fad9ff4de22a","system_id":"levelo_inurba_marseille","lat":43.21193,"lon":5.35066,"is_reserved":false,"is_disabled":false,"rental_uris":{"android":"levelo://app?vid=978a26a0-7aa1-45d9-ad87-fad9ff4de22a","ios":"levelo://app?vid=978a26a0-7aa1-45d9-ad87-fad9ff4de22a"},"vehicle_type_id":"4","last_reported":1750003876,"current_range_meters":18000,"station_id":"","pricing_plan_id":"cebpf4jnsgd1na2vs0mg"},{"bike_id":"f4a4f4d7-49c3-4e2e-a41d-40c5a28e3bdc","system_id":"levelo_inurba_marseille","lat":43.29939,"lon":5.3656,"is_reserved":false,"is_disabled":false,"rental_uris":{"android":"levelo://app?vid=f4a4f4d7-49c3-4e2e-a41d-40c5a28e3bdc","ios":"levelo://app?vid=f4a4f4d7-49c3-4e2e-a41d-40c5a28e3bdc"},"vehicle_type_id":"4","last_reported":1750003876,"current_range_meters":18000,"station_id":"ce4bgm92rcd13ifvqbr0","pricing_plan_id":"cebpf4jnsgd1na2vs0mg"},{"bike_id":"2de47a8e-2845-4277-bb18-5984af432d46","system_id":"levelo_inurba_marseille","lat":43.21196,"lon":5.35072,"is_reserved":false,"is_disabled":false,"rental_uris":{"android":"levelo://app?vid=2de47a8e-2845-4277-bb18-5984af432d46","ios":"levelo://app?vid=2de47a8e-2845-4277-bb18-5984af432d46"},"vehicle_type_id":"4","last_reported":1750003876,"current_range_meters":18000,"station_id":"st_cvj6sg6p6f1abm77japg","pricing_plan_id":"cebpf4jnsgd1na2vs0mg"},{"bike_id":"c3602ed4-b263-48ff-a4f0-42502bde0106","system_id":"levelo_inurba_marseille","lat":43.293969,"lon":5.373776,"is_reserved":false,"is_disabled":false,"rental_uris":{"android":"levelo://app?vid=c3602ed4-b263-48ff-a4f0-42502bde0106","ios":"levelo://app?vid=c3602ed4-b263-48ff-a4f0-42502bde0106"},"vehicle_type_id":"4","last_reported":1750003876,"current_range_meters":18800,"station_id":"ce4bh692rcd13ifvqe90","pricing_plan_id":"cebpf4jnsgd1na2vs0mg"},{"bike_id":"75f353ce-4811-4c7b-ab2d-e031bd678403","system_id":"levelo_inurba_marseille","lat":43.27383,"lon":5.36269,"is_reserved":false,"is_disabled":false,"rental_uris":{"android":"levelo://app?vid=75f353ce-4811-4c7b-ab2d-e031bd678403","ios":"levelo://app?vid=75f353ce-4811-4c7b-ab2d-e031bd678403"},"vehicle_type_id":"4","last_reported":1750003876,"current_range_meters":18800,"station_id":"ce4bhbh2rcd13ifvqeo0","pricing_plan_id":"cebpf4jnsgd1na2vs0mg"},{"bike_id":"5f333231-8646-4ab2-b1b1-ba18f70fd85b","system_id":"levelo_inurba_marseille","lat":43.28393,"lon":5.34997,"is_reserved":false,"is_disabled":false,"rental_uris":{"android":"levelo://app?vid=5f333231-8646-4ab2-b1b1-ba18f70fd85b","ios":"levelo://app?vid=5f333231-8646-4ab2-b1b1-ba18f70fd85b"},"vehicle_type_id":"4","last_reported":1750003876,"current_range_meters":18800,"station_id":"ce4bhbh2rcd13ifvqepg","pricing_plan_id":"cebpf4jnsgd1na2vs0mg"},{"bike_id":"9018e5a3-ecb8-4c6d-b41b-3557a2a5eb4b","system_id":"levelo_inurba_marseille","lat":43.23019,"lon":5.35503,"is_reserved":false,"is_disabled":false,"rental_uris":{"android":"levelo://app?vid=9018e5a3-ecb8-4c6d-b41b-3557a2a5eb4b","ios":"levelo://app?vid=9018e5a3-ecb8-4c6d-b41b-3557a2a5eb4b"},"vehicle_type_id":"4","last_reported":1750003876,"current_range_meters":18800,"station_id":"cpo3342slgdg3j2ifvpg","pricing_plan_id":"cebpf4jnsgd1na2vs0mg"},{"bike_id":"0e151c77-87da-4094-a238-db040f2b0c67","system_id":"levelo_inurba_marseille","lat":43.28409,"lon":5.34978,"is_reserved":false,"is_disabled":false,"rental_uris":{"android":"levelo://app?vid=0e151c77-87da-4094-a238-db040f2b0c67","ios":"levelo://app?vid=0e151c77-87da-4094-a238-db040f2b0c67"},"vehicle_type_id":"4","last_reported":1750003876,"current_range_meters":19200,"station_id":"","pricing_plan_id":"cebpf4jnsgd1na2vs0mg"},{"bike_id":"eddc221d-3af8-4650-9873-c75523765bff","system_id":"levelo_inurba_marseille","lat":43.28423,"lon":5.34983,"is_reserved":false,"is_disabled":false,"rental_uris":{"android":"levelo://app?vid=eddc221d-3af8-4650-9873-c75523765bff","ios":"levelo://app?vid=eddc221d-3af8-4650-9873-c75523765bff"},"vehicle_type_id":"4","last_reported":1750003876,"current_range_meters":19200,"station_id":"ce4bhbh2rcd13ifvqepg","pricing_plan_id":"cebpf4jnsgd1na2vs0mg"},{"bike_id":"8e5ea339-07f5-4cfc-9fd5-bc1c4a618ef8","system_id":"levelo_inurba_marseille","lat":43.26203,"lon":5.37466,"is_reserved":false,"is_disabled":false,"rental_uris":{"android":"levelo://app?vid=8e5ea339-07f5-4cfc-9fd5-bc1c4a618ef8","ios":"levelo://app?vid=8e5ea339-07f5-4cfc-9fd5-bc1c4a618ef8"},"vehicle_type_id":"4","last_reported":1750003876,"current_range_meters":19200,"station_id":"ce4bhgp2rcd13ifvqfc0","pricing_plan_id":"cebpf4jnsgd1na2vs0mg"},{"bike_id":"efb971b9-12e8-413c-a6eb-96a5da00fff8","system_id":"levelo_inurba_marseille","lat":43.31716,"lon":5.42412,"is_reserved":false,"is_disabled":false,"rental_uris":{"android":"levelo://app?vid=efb971b9-12e8-413c-a6eb-96a5da00fff8","ios":"levelo://app?vid=efb971b9-12e8-413c-a6eb-96a5da00fff8"},"vehicle_type_id":"4","last_reported":1750003876,"current_range_meters":19200,"station_id":"ce4bhp92rcd13ifvqhbg","pricing_plan_id":"cebpf4jnsgd1na2vs0mg"},{"bike_id":"205124f6-ff9f-4d50-931a-051d20b4a5bc","system_id":"levelo_inurba_marseille","lat":43.23187,"lon":5.35541,"is_reserved":false,"is_disabled":false,"rental_uris":{"android":"levelo://app?vid=205124f6-ff9f-4d50-931a-051d20b4a5bc","ios":"levelo://app?vid=205124f6-ff9f-4d50-931a-051d20b4a5bc"},"vehicle_type_id":"4","last_reported":1750003876,"current_range_meters":19200,"station_id":"ce4bhu92rcd13ifvqi70","pricing_plan_id":"cebpf4jnsgd1na2vs0mg"},{"bike_id":"3e9aefdc-4a9f-4ea2-a365-2437f1d3cc9d","system_id":"levelo_inurba_marseille","lat":43.21768,"lon":5.34594,"is_reserved":false,"is_disabled":false,"rental_uris":{"android":"levelo://app?vid=3e9aefdc-4a9f-4ea2-a365-2437f1d3cc9d","ios":"levelo://app?vid=3e9aefdc-4a9f-4ea2-a365-2437f1d3cc9d"},"vehicle_type_id":"4","last_reported":1750003876,"current_range_meters":19200,"station_id":"st_cvj6r9ubvosntc0bgbag","pricing_plan_id":"cebpf4jnsgd1na2vs0mg"},{"bike_id":"6f904e79-074e-44f7-a4ee-8b0cd00a4a95","system_id":"levelo_inurba_marseille","lat":43.21194,"lon":5.35072,"is_reserved":false,"is_disabled":false,"rental_uris":{"android":"levelo://app?vid=6f904e79-074e-44f7-a4ee-8b0cd00a4a95","ios":"levelo://app?vid=6f904e79-074e-44f7-a4ee-8b0cd00a4a95"},"vehicle_type_id":"4","last_reported":1750003876,"current_range_meters":19200,"station_id":"st_cvj6sg6p6f1abm77japg","pricing_plan_id":"cebpf4jnsgd1na2vs0mg"},{"bike_id":"b31d3165-d5e1-4bc6-a607-ca1a1c981148","system_id":"levelo_inurba_marseille","lat":43.27579,"lon":5.41749,"is_reserved":false,"is_disabled":false,"rental_uris":{"android":"levelo://app?vid=b31d3165-d5e1-4bc6-a607-ca1a1c981148","ios":"levelo://app?vid=b31d3165-d5e1-4bc6-a607-ca1a1c981148"},"vehicle_type_id":"4","last_reported":1750003876,"current_range_meters":19600,"station_id":"","pricing_plan_id":"cebpf4jnsgd1na2vs0mg"},{"bike_id":"321d97c5-881b-491c-b338-e93d744a8309","system_id":"levelo_inurba_marseille","lat":43.29782,"lon":5.38044,"is_reserved":false,"is_disabled":false,"rental_uris":{"android":"levelo://app?vid=321d97c5-881b-491c-b338-e93d744a8309","ios":"levelo://app?vid=321d97c5-881b-491c-b338-e93d744a8309"},"vehicle_type_id":"4","last_reported":1750003876,"current_range_meters":19600,"station_id":"ce4bgip2rcd13ifvqbb0","pricing_plan_id":"cebpf4jnsgd1na2vs0mg"},{"bike_id":"13b9bfcb-874b-4210-aca6-4bc7559d6450","system_id":"levelo_inurba_marseille","lat":43.26209,"lon":5.37444,"is_reserved":false,"is_disabled":false,"rental_uris":{"android":"levelo://app?vid=13b9bfcb-874b-4210-aca6-4bc7559d6450","ios":"levelo://app?vid=13b9bfcb-874b-4210-aca6-4bc7559d6450"},"vehicle_type_id":"4","last_reported":1750003876,"current_range_meters":19600,"station_id":"ce4bhgp2rcd13ifvqfc0","pricing_plan_id":"cebpf4jnsgd1na2vs0mg"},{"bike_id":"c377be55-bbf5-4056-98a0-d4bc8bac08f0","system_id":"levelo_inurba_marseille","lat":43.254944,"lon":5.376547,"is_reserved":false,"is_disabled":false,"rental_uris":{"android":"levelo://app?vid=c377be55-bbf5-4056-98a0-d4bc8bac08f0","ios":"levelo://app?vid=c377be55-bbf5-4056-98a0-d4bc8bac08f0"},"vehicle_type_id":"4","last_reported":1750003876,"current_range_meters":19600,"station_id":"ce4bhh12rcd13ifvqff0","pricing_plan_id":"cebpf4jnsgd1na2vs0mg"},{"bike_id":"b200674b-2afa-40ff-b238-2359448b6baf","system_id":"levelo_inurba_marseille","lat":43.23199,"lon":5.35553,"is_reserved":false,"is_disabled":false,"rental_uris":{"android":"levelo://app?vid=b200674b-2afa-40ff-b238-2359448b6baf","ios":"levelo://app?vid=b200674b-2afa-40ff-b238-2359448b6baf"},"vehicle_type_id":"4","last_reported":1750003876,"current_range_meters":19600,"station_id":"ce4bhu92rcd13ifvqi70","pricing_plan_id":"cebpf4jnsgd1na2vs0mg"},{"bike_id":"07ee301f-219d-458d-8161-006e5fc4301e","system_id":"levelo_inurba_marseille","lat":43.23077,"lon":5.35484,"is_reserved":false,"is_disabled":false,"rental_uris":{"android":"levelo://app?vid=07ee301f-219d-458d-8161-006e5fc4301e","ios":"levelo://app?vid=07ee301f-219d-458d-8161-006e5fc4301e"},"vehicle_type_id":"4","last_reported":1750003876,"current_range_meters":19600,"station_id":"cpo3342slgdg3j2ifvpg","pricing_plan_id":"cebpf4jnsgd1na2vs0mg"},{"bike_id":"75bd71f6-99c7-4a4f-b289-6aa83f3aed01","system_id":"levelo_inurba_marseille","lat":43.22938,"lon":5.35377,"is_reserved":false,"is_disabled":false,"rental_uris":{"android":"levelo://app?vid=75bd71f6-99c7-4a4f-b289-6aa83f3aed01","ios":"levelo://app?vid=75bd71f6-99c7-4a4f-b289-6aa83f3aed01"},"vehicle_type_id":"4","last_reported":1750003876,"current_range_meters":19600,"station_id":"cpo3532slgdg3j2ikp40","pricing_plan_id":"cebpf4jnsgd1na2vs0mg"},{"bike_id":"6459601e-8fe8-4eba-a8dd-95b6b60e6691","system_id":"levelo_inurba_marseille","lat":43.2804,"lon":5.350895,"is_reserved":false,"is_disabled":false,"rental_uris":{"android":"levelo://app?vid=6459601e-8fe8-4eba-a8dd-95b6b60e6691","ios":"levelo://app?vid=6459601e-8fe8-4eba-a8dd-95b6b60e6691"},"vehicle_type_id":"4","last_reported":1750003876,"current_range_meters":20000,"station_id":"","pricing_plan_id":"cebpf4jnsgd1na2vs0mg"},{"bike_id":"826f0ca3-e5fc-4cf8-8696-cb1fe62172b3","system_id":"levelo_inurba_marseille","lat":43.21198,"lon":5.350768,"is_reserved":false,"is_disabled":false,"rental_uris":{"android":"levelo://app?vid=826f0ca3-e5fc-4cf8-8696-cb1fe62172b3","ios":"levelo://app?vid=826f0ca3-e5fc-4cf8-8696-cb1fe62172b3"},"vehicle_type_id":"4","last_reported":1750003876,"current_range_meters":20000,"station_id":"","pricing_plan_id":"cebpf4jnsgd1na2vs0mg"},{"bike_id":"bd7bc889-0ace-44ba-adc2-5e336bdf27e2","system_id":"levelo_inurba_marseille","lat":43.30983,"lon":5.37451,"is_reserved":false,"is_disabled":false,"rental_uris":{"android":"levelo://app?vid=bd7bc889-0ace-44ba-adc2-5e336bdf27e2","ios":"levelo://app?vid=bd7bc889-0ace-44ba-adc2-5e336bdf27e2"},"vehicle_type_id":"4","last_reported":1750003876,"current_range_meters":20000,"station_id":"","pricing_plan_id":"cebpf4jnsgd1na2vs0mg"},{"bike_id":"ff05ce94-4a08-44c5-9c35-2903f62744ad","system_id":"levelo_inurba_marseille","lat":43.28399,"lon":5.35002,"is_reserved":false,"is_disabled":false,"rental_uris":{"android":"levelo://app?vid=ff05ce94-4a08-44c5-9c35-2903f62744ad","ios":"levelo://app?vid=ff05ce94-4a08-44c5-9c35-2903f62744ad"},"vehicle_type_id":"4","last_reported":1750003876,"current_range_meters":20000,"station_id":"ce4bhbh2rcd13ifvqepg","pricing_plan_id":"cebpf4jnsgd1na2vs0mg"},{"bike_id":"d2ad0a15-2a73-4000-9547-7c0d1ba66dac","system_id":"levelo_inurba_marseille","lat":43.26022,"lon":5.37546,"is_reserved":false,"is_disabled":false,"rental_uris":{"android":"levelo://app?vid=d2ad0a15-2a73-4000-9547-7c0d1ba66dac","ios":"levelo://app?vid=d2ad0a15-2a73-4000-9547-7c0d1ba66dac"},"vehicle_type_id":"4","last_reported":1750003876,"current_range_meters":20000,"station_id":"ce4bhgh2rcd13ifvqfa0","pricing_plan_id":"cebpf4jnsgd1na2vs0mg"},{"bike_id":"d407bde8-8212-4dee-a290-de2b03fa2147","system_id":"levelo_inurba_marseille","lat":43.239661,"lon":5.366281,"is_reserved":false,"is_disabled":false,"rental_uris":{"android":"levelo://app?vid=d407bde8-8212-4dee-a290-de2b03fa2147","ios":"levelo://app?vid=d407bde8-8212-4dee-a290-de2b03fa2147"},"vehicle_type_id":"4","last_reported":1750003876,"current_range_meters":20000,"station_id":"ce4bhi12rcd13ifvqfp0","pricing_plan_id":"cebpf4jnsgd1na2vs0mg"},{"bike_id":"f4bff9b2-4fba-4a8f-8ca1-873f835c64ed","system_id":"levelo_inurba_marseille","lat":43.24663,"lon":5.38162,"is_reserved":false,"is_disabled":false,"rental_uris":{"android":"levelo://app?vid=f4bff9b2-4fba-4a8f-8ca1-873f835c64ed","ios":"levelo://app?vid=f4bff9b2-4fba-4a8f-8ca1-873f835c64ed"},"vehicle_type_id":"4","last_reported":1750003876,"current_range_meters":20000,"station_id":"ce4bhih2rcd13ifvqfr0","pricing_plan_id":"cebpf4jnsgd1na2vs0mg"},{"bike_id":"d05ac431-fb33-4bb8-91b2-fd0db4839f4e","system_id":"levelo_inurba_marseille","lat":43.21751,"lon":5.34598,"is_reserved":false,"is_disabled":false,"rental_uris":{"android":"levelo://app?vid=d05ac431-fb33-4bb8-91b2-fd0db4839f4e","ios":"levelo://app?vid=d05ac431-fb33-4bb8-91b2-fd0db4839f4e"},"vehicle_type_id":"4","last_reported":1750003876,"current_range_meters":20000,"station_id":"st_cvj6r9ubvosntc0bgbag","pricing_plan_id":"cebpf4jnsgd1na2vs0mg"},{"bike_id":"fd372337-9387-4188-86a7-46b1ef24633b","system_id":"levelo_inurba_marseille","lat":43.21745,"lon":5.34606,"is_reserved":false,"is_disabled":false,"rental_uris":{"android":"levelo://app?vid=fd372337-9387-4188-86a7-46b1ef24633b","ios":"levelo://app?vid=fd372337-9387-4188-86a7-46b1ef24633b"},"vehicle_type_id":"4","last_reported":1750003876,"current_range_meters":20000,"station_id":"st_cvj6r9ubvosntc0bgbag","pricing_plan_id":"cebpf4jnsgd1na2vs0mg"},{"bike_id":"f4960cb7-92f3-48e4-a1cc-a2b8a605a4b3","system_id":"levelo_inurba_marseille","lat":43.33758,"lon":5.37404,"is_reserved":false,"is_disabled":false,"rental_uris":{"android":"levelo://app?vid=f4960cb7-92f3-48e4-a1cc-a2b8a605a4b3","ios":"levelo://app?vid=f4960cb7-92f3-48e4-a1cc-a2b8a605a4b3"},"vehicle_type_id":"4","last_reported":1750003876,"current_range_meters":20400,"station_id":"","pricing_plan_id":"cebpf4jnsgd1na2vs0mg"},{"bike_id":"31b1d6e1-2af5-4853-91e2-481b7d8a2ecf","system_id":"levelo_inurba_marseille","lat":43.28842,"lon":5.39318,"is_reserved":false,"is_disabled":false,"rental_uris":{"android":"levelo://app?vid=31b1d6e1-2af5-4853-91e2-481b7d8a2ecf","ios":"levelo://app?vid=31b1d6e1-2af5-4853-91e2-481b7d8a2ecf"},"vehicle_type_id":"4","last_reported":1750003876,"current_range_meters":20400,"station_id":"ce4bh2p2rcd13ifvqdi0","pricing_plan_id":"cebpf4jnsgd1na2vs0mg"},{"bike_id":"c3ef2170-7933-46ec-bbd2-fe4496dd8143","system_id":"levelo_inurba_marseille","lat":43.24651,"lon":5.38891,"is_reserved":false,"is_disabled":false,"rental_uris":{"android":"levelo://app?vid=c3ef2170-7933-46ec-bbd2-fe4496dd8143","ios":"levelo://app?vid=c3ef2170-7933-46ec-bbd2-fe4496dd8143"},"vehicle_type_id":"4","last_reported":1750003876,"current_range_meters":20400,"station_id":"ce4bhg12rcd13ifvqf60","pricing_plan_id":"cebpf4jnsgd1na2vs0mg"},{"bike_id":"d73274bf-93a2-4bac-9a38-1a80904bc1f5","system_id":"levelo_inurba_marseille","lat":43.21191,"lon":5.35068,"is_reserved":false,"is_disabled":false,"rental_uris":{"android":"levelo://app?vid=d73274bf-93a2-4bac-9a38-1a80904bc1f5","ios":"levelo://app?vid=d73274bf-93a2-4bac-9a38-1a80904bc1f5"},"vehicle_type_id":"4","last_reported":1750003876,"current_range_meters":20400,"station_id":"st_cvj6sg6p6f1abm77japg","pricing_plan_id":"cebpf4jnsgd1na2vs0mg"},{"bike_id":"603f222b-b101-4c35-9371-127c445889b7","system_id":"levelo_inurba_marseille","lat":43.21207,"lon":5.35066,"is_reserved":false,"is_disabled":false,"rental_uris":{"android":"levelo://app?vid=603f222b-b101-4c35-9371-127c445889b7","ios":"levelo://app?vid=603f222b-b101-4c35-9371-127c445889b7"},"vehicle_type_id":"4","last_reported":1750003876,"current_range_meters":20800,"station_id":"","pricing_plan_id":"cebpf4jnsgd1na2vs0mg"},{"bike_id":"44f20e4a-3d69-4b9a-93cc-0df66714ffc4","system_id":"levelo_inurba_marseille","lat":43.26199,"lon":5.37928,"is_reserved":false,"is_disabled":false,"rental_uris":{"android":"levelo://app?vid=44f20e4a-3d69-4b9a-93cc-0df66714ffc4","ios":"levelo://app?vid=44f20e4a-3d69-4b9a-93cc-0df66714ffc4"},"vehicle_type_id":"4","last_reported":1750003876,"current_range_meters":20800,"station_id":"ce4bhjp2rcd13ifvqg90","pricing_plan_id":"cebpf4jnsgd1na2vs0mg"},{"bike_id":"ae910de8-fa4d-49b7-a94d-e96784be66f8","system_id":"levelo_inurba_marseille","lat":43.26208,"lon":5.3744,"is_reserved":false,"is_disabled":false,"rental_uris":{"android":"levelo://app?vid=ae910de8-fa4d-49b7-a94d-e96784be66f8","ios":"levelo://app?vid=ae910de8-fa4d-49b7-a94d-e96784be66f8"},"vehicle_type_id":"4","last_reported":1750003876,"current_range_meters":21600,"station_id":"ce4bhgp2rcd13ifvqfc0","pricing_plan_id":"cebpf4jnsgd1na2vs0mg"},{"bike_id":"4971e09a-6fa0-4d6b-8fcb-78ca44f02791","system_id":"levelo_inurba_marseille","lat":43.30221,"lon":5.45326,"is_reserved":false,"is_disabled":false,"rental_uris":{"android":"levelo://app?vid=4971e09a-6fa0-4d6b-8fcb-78ca44f02791","ios":"levelo://app?vid=4971e09a-6fa0-4d6b-8fcb-78ca44f02791"},"vehicle_type_id":"4","last_reported":1750003876,"current_range_meters":22000,"station_id":"","pricing_plan_id":"cebpf4jnsgd1na2vs0mg"},{"bike_id":"1a8fd5e6-f623-4a91-a999-c2a3bce0269d","system_id":"levelo_inurba_marseille","lat":43.2678,"lon":5.37184,"is_reserved":false,"is_disabled":false,"rental_uris":{"android":"levelo://app?vid=1a8fd5e6-f623-4a91-a999-c2a3bce0269d","ios":"levelo://app?vid=1a8fd5e6-f623-4a91-a999-c2a3bce0269d"},"vehicle_type_id":"4","last_reported":1750003876,"current_range_meters":22000,"station_id":"","pricing_plan_id":"cebpf4jnsgd1na2vs0mg"},{"bike_id":"84b43430-4d99-410c-abfb-327015b70be1","system_id":"levelo_inurba_marseille","lat":43.31717,"lon":5.37759,"is_reserved":false,"is_disabled":false,"rental_uris":{"android":"levelo://app?vid=84b43430-4d99-410c-abfb-327015b70be1","ios":"levelo://app?vid=84b43430-4d99-410c-abfb-327015b70be1"},"vehicle_type_id":"4","last_reported":1750003876,"current_range_meters":22000,"station_id":"ce4bgth2rcd13ifvqch0","pricing_plan_id":"cebpf4jnsgd1na2vs0mg"},{"bike_id":"e612b7a7-3207-4aae-b53e-c8d480fc9283","system_id":"levelo_inurba_marseille","lat":43.23187,"lon":5.35566,"is_reserved":false,"is_disabled":false,"rental_uris":{"android":"levelo://app?vid=e612b7a7-3207-4aae-b53e-c8d480fc9283","ios":"levelo://app?vid=e612b7a7-3207-4aae-b53e-c8d480fc9283"},"vehicle_type_id":"4","last_reported":1750003876,"current_range_meters":22000,"station_id":"ce4bhu92rcd13ifvqi70","pricing_plan_id":"cebpf4jnsgd1na2vs0mg"},{"bike_id":"cffe493f-0864-4d9c-b541-735314174601","system_id":"levelo_inurba_marseille","lat":43.211923,"lon":5.350733,"is_reserved":false,"is_disabled":false,"rental_uris":{"android":"levelo://app?vid=cffe493f-0864-4d9c-b541-735314174601","ios":"levelo://app?vid=cffe493f-0864-4d9c-b541-735314174601"},"vehicle_type_id":"4","last_reported":1750003876,"current_range_meters":22000,"station_id":"st_cvj6sg6p6f1abm77japg","pricing_plan_id":"cebpf4jnsgd1na2vs0mg"},{"bike_id":"08b26cd2-7899-47e9-9ab6-2690c57d9091","system_id":"levelo_inurba_marseille","lat":43.21194,"lon":5.35087,"is_reserved":false,"is_disabled":false,"rental_uris":{"android":"levelo://app?vid=08b26cd2-7899-47e9-9ab6-2690c57d9091","ios":"levelo://app?vid=08b26cd2-7899-47e9-9ab6-2690c57d9091"},"vehicle_type_id":"4","last_reported":1750003876,"current_range_meters":22000,"station_id":"st_cvj6sg6p6f1abm77japg","pricing_plan_id":"cebpf4jnsgd1na2vs0mg"},{"bike_id":"dd16bb8a-2c26-47e3-9c65-3824e51300ce","system_id":"levelo_inurba_marseille","lat":43.27961,"lon":5.39103,"is_reserved":false,"is_disabled":false,"rental_uris":{"android":"levelo://app?vid=dd16bb8a-2c26-47e3-9c65-3824e51300ce","ios":"levelo://app?vid=dd16bb8a-2c26-47e3-9c65-3824e51300ce"},"vehicle_type_id":"4","last_reported":1750003876,"current_range_meters":22400,"station_id":"","pricing_plan_id":"cebpf4jnsgd1na2vs0mg"},{"bike_id":"2fd35b4c-ec20-4656-b2e6-9f1de8b8b826","system_id":"levelo_inurba_marseille","lat":43.28669,"lon":5.363538,"is_reserved":false,"is_disabled":false,"rental_uris":{"android":"levelo://app?vid=2fd35b4c-ec20-4656-b2e6-9f1de8b8b826","ios":"levelo://app?vid=2fd35b4c-ec20-4656-b2e6-9f1de8b8b826"},"vehicle_type_id":"4","last_reported":1750003876,"current_range_meters":22400,"station_id":"ce4bhah2rcd13ifvqej0","pricing_plan_id":"cebpf4jnsgd1na2vs0mg"},{"bike_id":"a90779a4-98dc-45b1-943a-212e01e584d9","system_id":"levelo_inurba_marseille","lat":43.23213,"lon":5.35561,"is_reserved":false,"is_disabled":false,"rental_uris":{"android":"levelo://app?vid=a90779a4-98dc-45b1-943a-212e01e584d9","ios":"levelo://app?vid=a90779a4-98dc-45b1-943a-212e01e584d9"},"vehicle_type_id":"4","last_reported":1750003876,"current_range_meters":22400,"station_id":"ce4bhu92rcd13ifvqi70","pricing_plan_id":"cebpf4jnsgd1na2vs0mg"},{"bike_id":"afe3c7a6-948f-44ef-8d51-c61eab9d9d4f","system_id":"levelo_inurba_marseille","lat":43.26552,"lon":5.37315,"is_reserved":false,"is_disabled":false,"rental_uris":{"android":"levelo://app?vid=afe3c7a6-948f-44ef-8d51-c61eab9d9d4f","ios":"levelo://app?vid=afe3c7a6-948f-44ef-8d51-c61eab9d9d4f"},"vehicle_type_id":"4","last_reported":1750003876,"current_range_meters":22800,"station_id":"ce4bhg12rcd13ifvqf70","pricing_plan_id":"cebpf4jnsgd1na2vs0mg"},{"bike_id":"c7e694bd-0c48-4c35-94b3-2669f77cd46a","system_id":"levelo_inurba_marseille","lat":43.24691,"lon":5.38166,"is_reserved":false,"is_disabled":false,"rental_uris":{"android":"levelo://app?vid=c7e694bd-0c48-4c35-94b3-2669f77cd46a","ios":"levelo://app?vid=c7e694bd-0c48-4c35-94b3-2669f77cd46a"},"vehicle_type_id":"4","last_reported":1750003876,"current_range_meters":22800,"station_id":"ce4bhih2rcd13ifvqfr0","pricing_plan_id":"cebpf4jnsgd1na2vs0mg"},{"bike_id":"db696f9f-9ecc-4e26-bd9c-bd73bc64204b","system_id":"levelo_inurba_marseille","lat":43.29904,"lon":5.43655,"is_reserved":false,"is_disabled":false,"rental_uris":{"android":"levelo://app?vid=db696f9f-9ecc-4e26-bd9c-bd73bc64204b","ios":"levelo://app?vid=db696f9f-9ecc-4e26-bd9c-bd73bc64204b"},"vehicle_type_id":"4","last_reported":1750003876,"current_range_meters":22800,"station_id":"ce4bhpp2rcd13ifvqhfg","pricing_plan_id":"cebpf4jnsgd1na2vs0mg"},{"bike_id":"3d9ec8c9-43fd-496e-a87d-dbb2bce9bc88","system_id":"levelo_inurba_marseille","lat":43.34141,"lon":5.40896,"is_reserved":false,"is_disabled":false,"rental_uris":{"android":"levelo://app?vid=3d9ec8c9-43fd-496e-a87d-dbb2bce9bc88","ios":"levelo://app?vid=3d9ec8c9-43fd-496e-a87d-dbb2bce9bc88"},"vehicle_type_id":"4","last_reported":1750003876,"current_range_meters":22800,"station_id":"ce4bhqh2rcd13ifvqhlg","pricing_plan_id":"cebpf4jnsgd1na2vs0mg"},{"bike_id":"09f811fc-ab4a-42b7-a739-0f8c9be6dce4","system_id":"levelo_inurba_marseille","lat":43.21169,"lon":5.35053,"is_reserved":false,"is_disabled":false,"rental_uris":{"android":"levelo://app?vid=09f811fc-ab4a-42b7-a739-0f8c9be6dce4","ios":"levelo://app?vid=09f811fc-ab4a-42b7-a739-0f8c9be6dce4"},"vehicle_type_id":"4","last_reported":1750003876,"current_range_meters":22800,"station_id":"st_cvj6sg6p6f1abm77japg","pricing_plan_id":"cebpf4jnsgd1na2vs0mg"},{"bike_id":"7007d345-2e3e-48ab-9c6d-1fa63013db8b","system_id":"levelo_inurba_marseille","lat":43.24676,"lon":5.38162,"is_reserved":false,"is_disabled":false,"rental_uris":{"android":"levelo://app?vid=7007d345-2e3e-48ab-9c6d-1fa63013db8b","ios":"levelo://app?vid=7007d345-2e3e-48ab-9c6d-1fa63013db8b"},"vehicle_type_id":"4","last_reported":1750003876,"current_range_meters":23200,"station_id":"ce4bhih2rcd13ifvqfr0","pricing_plan_id":"cebpf4jnsgd1na2vs0mg"},{"bike_id":"71856e5b-f59a-4a93-95d5-c6cdca845303","system_id":"levelo_inurba_marseille","lat":43.2558,"lon":5.38226,"is_reserved":false,"is_disabled":false,"rental_uris":{"android":"levelo://app?vid=71856e5b-f59a-4a93-95d5-c6cdca845303","ios":"levelo://app?vid=71856e5b-f59a-4a93-95d5-c6cdca845303"},"vehicle_type_id":"4","last_reported":1750003876,"current_range_meters":23200,"station_id":"ce4bhih2rcd13ifvqfs0","pricing_plan_id":"cebpf4jnsgd1na2vs0mg"},{"bike_id":"113b35ba-4bfc-4653-9981-9c94fd020996","system_id":"levelo_inurba_marseille","lat":43.23206,"lon":5.35539,"is_reserved":false,"is_disabled":false,"rental_uris":{"android":"levelo://app?vid=113b35ba-4bfc-4653-9981-9c94fd020996","ios":"levelo://app?vid=113b35ba-4bfc-4653-9981-9c94fd020996"},"vehicle_type_id":"4","last_reported":1750003876,"current_range_meters":23200,"station_id":"ce4bhu92rcd13ifvqi70","pricing_plan_id":"cebpf4jnsgd1na2vs0mg"},{"bike_id":"50bf2675-871a-4364-a37f-61b4decdabaf","system_id":"levelo_inurba_marseille","lat":43.24164,"lon":5.36392,"is_reserved":false,"is_disabled":false,"rental_uris":{"android":"levelo://app?vid=50bf2675-871a-4364-a37f-61b4decdabaf","ios":"levelo://app?vid=50bf2675-871a-4364-a37f-61b4decdabaf"},"vehicle_type_id":"4","last_reported":1750003876,"current_range_meters":23200,"station_id":"cpo36qri1sfpv3e86is0","pricing_plan_id":"cebpf4jnsgd1na2vs0mg"},{"bike_id":"ba0e21fd-e130-45d6-af75-be098ab05193","system_id":"levelo_inurba_marseille","lat":43.21191,"lon":5.35065,"is_reserved":false,"is_disabled":false,"rental_uris":{"android":"levelo://app?vid=ba0e21fd-e130-45d6-af75-be098ab05193","ios":"levelo://app?vid=ba0e21fd-e130-45d6-af75-be098ab05193"},"vehicle_type_id":"4","last_reported":1750003876,"current_range_meters":23200,"station_id":"st_cvj6sg6p6f1abm77japg","pricing_plan_id":"cebpf4jnsgd1na2vs0mg"},{"bike_id":"f8f5c739-72f4-49b1-b3d4-90e1f195211d","system_id":"levelo_inurba_marseille","lat":43.2119,"lon":5.35051,"is_reserved":false,"is_disabled":false,"rental_uris":{"android":"levelo://app?vid=f8f5c739-72f4-49b1-b3d4-90e1f195211d","ios":"levelo://app?vid=f8f5c739-72f4-49b1-b3d4-90e1f195211d"},"vehicle_type_id":"4","last_reported":1750003876,"current_range_meters":23200,"station_id":"st_cvj6sg6p6f1abm77japg","pricing_plan_id":"cebpf4jnsgd1na2vs0mg"},{"bike_id":"a895562e-7b04-44b7-9a5e-95b4c43fd47e","system_id":"levelo_inurba_marseille","lat":43.31841,"lon":5.3736,"is_reserved":false,"is_disabled":false,"rental_uris":{"android":"levelo://app?vid=a895562e-7b04-44b7-9a5e-95b4c43fd47e","ios":"levelo://app?vid=a895562e-7b04-44b7-9a5e-95b4c43fd47e"},"vehicle_type_id":"4","last_reported":1750003876,"current_range_meters":24000,"station_id":"","pricing_plan_id":"cebpf4jnsgd1na2vs0mg"},{"bike_id":"810ba258-2efb-41af-8783-29b5b2513757","system_id":"levelo_inurba_marseille","lat":43.28407,"lon":5.34989,"is_reserved":false,"is_disabled":false,"rental_uris":{"android":"levelo://app?vid=810ba258-2efb-41af-8783-29b5b2513757","ios":"levelo://app?vid=810ba258-2efb-41af-8783-29b5b2513757"},"vehicle_type_id":"4","last_reported":1750003876,"current_range_meters":24000,"station_id":"ce4bhbh2rcd13ifvqepg","pricing_plan_id":"cebpf4jnsgd1na2vs0mg"},{"bike_id":"62e0c3ff-8771-4019-a98e-0ad2f747d7c4","system_id":"levelo_inurba_marseille","lat":43.26041,"lon":5.37552,"is_reserved":false,"is_disabled":false,"rental_uris":{"android":"levelo://app?vid=62e0c3ff-8771-4019-a98e-0ad2f747d7c4","ios":"levelo://app?vid=62e0c3ff-8771-4019-a98e-0ad2f747d7c4"},"vehicle_type_id":"4","last_reported":1750003876,"current_range_meters":24000,"station_id":"ce4bhgh2rcd13ifvqfa0","pricing_plan_id":"cebpf4jnsgd1na2vs0mg"},{"bike_id":"4ad23c00-021a-4747-aab8-5d8200e3e204","system_id":"levelo_inurba_marseille","lat":43.239706,"lon":5.36644,"is_reserved":false,"is_disabled":false,"rental_uris":{"android":"levelo://app?vid=4ad23c00-021a-4747-aab8-5d8200e3e204","ios":"levelo://app?vid=4ad23c00-021a-4747-aab8-5d8200e3e204"},"vehicle_type_id":"4","last_reported":1750003876,"current_range_meters":24000,"station_id":"ce4bhi12rcd13ifvqfp0","pricing_plan_id":"cebpf4jnsgd1na2vs0mg"},{"bike_id":"cb59f7a9-1514-4aaf-9955-6146c328ab79","system_id":"levelo_inurba_marseille","lat":43.21191,"lon":5.35068,"is_reserved":false,"is_disabled":false,"rental_uris":{"android":"levelo://app?vid=cb59f7a9-1514-4aaf-9955-6146c328ab79","ios":"levelo://app?vid=cb59f7a9-1514-4aaf-9955-6146c328ab79"},"vehicle_type_id":"4","last_reported":1750003876,"current_range_meters":24000,"station_id":"st_cvj6sg6p6f1abm77japg","pricing_plan_id":"cebpf4jnsgd1na2vs0mg"},{"bike_id":"c12de7de-5c91-4232-bff8-bcefa9eb4caf","system_id":"levelo_inurba_marseille","lat":43.26369,"lon":5.39922,"is_reserved":false,"is_disabled":false,"rental_uris":{"android":"levelo://app?vid=c12de7de-5c91-4232-bff8-bcefa9eb4caf","ios":"levelo://app?vid=c12de7de-5c91-4232-bff8-bcefa9eb4caf"},"vehicle_type_id":"4","last_reported":1750003876,"current_range_meters":24400,"station_id":"","pricing_plan_id":"cebpf4jnsgd1na2vs0mg"},{"bike_id":"d861abdd-cedd-4a89-a51d-153ef75507f9","system_id":"levelo_inurba_marseille","lat":43.29882,"lon":5.38914,"is_reserved":false,"is_disabled":false,"rental_uris":{"android":"levelo://app?vid=d861abdd-cedd-4a89-a51d-153ef75507f9","ios":"levelo://app?vid=d861abdd-cedd-4a89-a51d-153ef75507f9"},"vehicle_type_id":"4","last_reported":1750003876,"current_range_meters":24400,"station_id":"ce4bh392rcd13ifvqdl0","pricing_plan_id":"cebpf4jnsgd1na2vs0mg"},{"bike_id":"dbabe530-2b8d-46d8-bcf5-58c88f66a14f","system_id":"levelo_inurba_marseille","lat":43.292694,"lon":5.384382,"is_reserved":false,"is_disabled":false,"rental_uris":{"android":"levelo://app?vid=dbabe530-2b8d-46d8-bcf5-58c88f66a14f","ios":"levelo://app?vid=dbabe530-2b8d-46d8-bcf5-58c88f66a14f"},"vehicle_type_id":"4","last_reported":1750003876,"current_range_meters":24400,"station_id":"ce4bh692rcd13ifvqea0","pricing_plan_id":"cebpf4jnsgd1na2vs0mg"},{"bike_id":"883dcf3e-05f2-409a-a662-474e5f54c167","system_id":"levelo_inurba_marseille","lat":43.284,"lon":5.3502,"is_reserved":false,"is_disabled":false,"rental_uris":{"android":"levelo://app?vid=883dcf3e-05f2-409a-a662-474e5f54c167","ios":"levelo://app?vid=883dcf3e-05f2-409a-a662-474e5f54c167"},"vehicle_type_id":"4","last_reported":1750003876,"current_range_meters":24400,"station_id":"ce4bhbh2rcd13ifvqepg","pricing_plan_id":"cebpf4jnsgd1na2vs0mg"},{"bike_id":"ded3a83d-ea6e-4a2b-a8d0-477f191bb818","system_id":"levelo_inurba_marseille","lat":43.28275,"lon":5.3506,"is_reserved":false,"is_disabled":false,"rental_uris":{"android":"levelo://app?vid=ded3a83d-ea6e-4a2b-a8d0-477f191bb818","ios":"levelo://app?vid=ded3a83d-ea6e-4a2b-a8d0-477f191bb818"},"vehicle_type_id":"4","last_reported":1750003876,"current_range_meters":24400,"station_id":"ce4bhbp2rcd13ifvqerg","pricing_plan_id":"cebpf4jnsgd1na2vs0mg"},{"bike_id":"cbed7ccc-ad57-4704-a162-4565bf909f61","system_id":"levelo_inurba_marseille","lat":43.28632,"lon":5.35072,"is_reserved":false,"is_disabled":false,"rental_uris":{"android":"levelo://app?vid=cbed7ccc-ad57-4704-a162-4565bf909f61","ios":"levelo://app?vid=cbed7ccc-ad57-4704-a162-4565bf909f61"},"vehicle_type_id":"4","last_reported":1750003876,"current_range_meters":24400,"station_id":"ce4bhch2rcd13ifvqeug","pricing_plan_id":"cebpf4jnsgd1na2vs0mg"},{"bike_id":"c8dfb0ea-7452-4653-979a-81a495939d6b","system_id":"levelo_inurba_marseille","lat":43.29902,"lon":5.43677,"is_reserved":false,"is_disabled":false,"rental_uris":{"android":"levelo://app?vid=c8dfb0ea-7452-4653-979a-81a495939d6b","ios":"levelo://app?vid=c8dfb0ea-7452-4653-979a-81a495939d6b"},"vehicle_type_id":"4","last_reported":1750003876,"current_range_meters":24400,"station_id":"ce4bhpp2rcd13ifvqhfg","pricing_plan_id":"cebpf4jnsgd1na2vs0mg"},{"bike_id":"645f836d-4eb5-4b62-a869-83c36c4aa7b1","system_id":"levelo_inurba_marseille","lat":43.22934,"lon":5.35368,"is_reserved":false,"is_disabled":false,"rental_uris":{"android":"levelo://app?vid=645f836d-4eb5-4b62-a869-83c36c4aa7b1","ios":"levelo://app?vid=645f836d-4eb5-4b62-a869-83c36c4aa7b1"},"vehicle_type_id":"4","last_reported":1750003876,"current_range_meters":24400,"station_id":"cpo3532slgdg3j2ikp40","pricing_plan_id":"cebpf4jnsgd1na2vs0mg"},{"bike_id":"36472e34-e9ba-41e5-a61e-edbdb714f564","system_id":"levelo_inurba_marseille","lat":43.21742,"lon":5.34595,"is_reserved":false,"is_disabled":false,"rental_uris":{"android":"levelo://app?vid=36472e34-e9ba-41e5-a61e-edbdb714f564","ios":"levelo://app?vid=36472e34-e9ba-41e5-a61e-edbdb714f564"},"vehicle_type_id":"4","last_reported":1750003876,"current_range_meters":24400,"station_id":"st_cvj6r9ubvosntc0bgbag","pricing_plan_id":"cebpf4jnsgd1na2vs0mg"},{"bike_id":"a9281598-d853-47ae-a377-e881afc4b4e1","system_id":"levelo_inurba_marseille","lat":43.21734,"lon":5.34602,"is_reserved":false,"is_disabled":false,"rental_uris":{"android":"levelo://app?vid=a9281598-d853-47ae-a377-e881afc4b4e1","ios":"levelo://app?vid=a9281598-d853-47ae-a377-e881afc4b4e1"},"vehicle_type_id":"4","last_reported":1750003876,"current_range_meters":24400,"station_id":"st_cvj6r9ubvosntc0bgbag","pricing_plan_id":"cebpf4jnsgd1na2vs0mg"},{"bike_id":"39d32260-51d5-455a-ba53-6471389bd255","system_id":"levelo_inurba_marseille","lat":43.31971,"lon":5.37615,"is_reserved":false,"is_disabled":false,"rental_uris":{"android":"levelo://app?vid=39d32260-51d5-455a-ba53-6471389bd255","ios":"levelo://app?vid=39d32260-51d5-455a-ba53-6471389bd255"},"vehicle_type_id":"4","last_reported":1750003876,"current_range_meters":24800,"station_id":"","pricing_plan_id":"cebpf4jnsgd1na2vs0mg"},{"bike_id":"072e1f75-5bd9-4b95-8d97-b0d08b9e0519","system_id":"levelo_inurba_marseille","lat":43.28427,"lon":5.34971,"is_reserved":false,"is_disabled":false,"rental_uris":{"android":"levelo://app?vid=072e1f75-5bd9-4b95-8d97-b0d08b9e0519","ios":"levelo://app?vid=072e1f75-5bd9-4b95-8d97-b0d08b9e0519"},"vehicle_type_id":"4","last_reported":1750003876,"current_range_meters":24800,"station_id":"ce4bhbh2rcd13ifvqepg","pricing_plan_id":"cebpf4jnsgd1na2vs0mg"},{"bike_id":"1a5ada1c-a5af-491e-8169-4d16d8f96188","system_id":"levelo_inurba_marseille","lat":43.32362,"lon":5.3677,"is_reserved":false,"is_disabled":false,"rental_uris":{"android":"levelo://app?vid=1a5ada1c-a5af-491e-8169-4d16d8f96188","ios":"levelo://app?vid=1a5ada1c-a5af-491e-8169-4d16d8f96188"},"vehicle_type_id":"4","last_reported":1750003876,"current_range_meters":24800,"station_id":"ce4bhsh2rcd13ifvqi2g","pricing_plan_id":"cebpf4jnsgd1na2vs0mg"},{"bike_id":"f97da1f7-a00b-49f1-a792-0d43763ff793","system_id":"levelo_inurba_marseille","lat":43.297803,"lon":5.393358,"is_reserved":false,"is_disabled":false,"rental_uris":{"android":"levelo://app?vid=f97da1f7-a00b-49f1-a792-0d43763ff793","ios":"levelo://app?vid=f97da1f7-a00b-49f1-a792-0d43763ff793"},"vehicle_type_id":"4","last_reported":1750003876,"current_range_meters":24800,"station_id":"chh1huq6cuj3fo74tm60","pricing_plan_id":"cebpf4jnsgd1na2vs0mg"},{"bike_id":"fba13c59-c4f6-474e-a1cd-bab0a3ad20e2","system_id":"levelo_inurba_marseille","lat":43.2694,"lon":5.40257,"is_reserved":false,"is_disabled":false,"rental_uris":{"android":"levelo://app?vid=fba13c59-c4f6-474e-a1cd-bab0a3ad20e2","ios":"levelo://app?vid=fba13c59-c4f6-474e-a1cd-bab0a3ad20e2"},"vehicle_type_id":"4","last_reported":1750003876,"current_range_meters":24800,"station_id":"cjm6bp8fraef2m0cb0m0","pricing_plan_id":"cebpf4jnsgd1na2vs0mg"},{"bike_id":"a85d1a35-3419-454c-8ef4-73a5f1f32988","system_id":"levelo_inurba_marseille","lat":43.22521,"lon":5.34767,"is_reserved":false,"is_disabled":false,"rental_uris":{"android":"levelo://app?vid=a85d1a35-3419-454c-8ef4-73a5f1f32988","ios":"levelo://app?vid=a85d1a35-3419-454c-8ef4-73a5f1f32988"},"vehicle_type_id":"4","last_reported":1750003876,"current_range_meters":24800,"station_id":"st_cvj5dfep6f1abm77gieg","pricing_plan_id":"cebpf4jnsgd1na2vs0mg"},{"bike_id":"a172b0cf-62c4-4c52-a818-ce564350df02","system_id":"levelo_inurba_marseille","lat":43.21192,"lon":5.35068,"is_reserved":false,"is_disabled":false,"rental_uris":{"android":"levelo://app?vid=a172b0cf-62c4-4c52-a818-ce564350df02","ios":"levelo://app?vid=a172b0cf-62c4-4c52-a818-ce564350df02"},"vehicle_type_id":"4","last_reported":1750003876,"current_range_meters":24800,"station_id":"st_cvj6sg6p6f1abm77japg","pricing_plan_id":"cebpf4jnsgd1na2vs0mg"},{"bike_id":"36336ee7-26e4-474a-b6bd-a4baca447d44","system_id":"levelo_inurba_marseille","lat":43.2439,"lon":5.37048,"is_reserved":false,"is_disabled":false,"rental_uris":{"android":"levelo://app?vid=36336ee7-26e4-474a-b6bd-a4baca447d44","ios":"levelo://app?vid=36336ee7-26e4-474a-b6bd-a4baca447d44"},"vehicle_type_id":"4","last_reported":1750003876,"current_range_meters":25200,"station_id":"ce4bhhh2rcd13ifvqfk0","pricing_plan_id":"cebpf4jnsgd1na2vs0mg"},{"bike_id":"dfe5f944-48ae-4314-8625-b3ff95609e9b","system_id":"levelo_inurba_marseille","lat":43.27497,"lon":5.42447,"is_reserved":false,"is_disabled":false,"rental_uris":{"android":"levelo://app?vid=dfe5f944-48ae-4314-8625-b3ff95609e9b","ios":"levelo://app?vid=dfe5f944-48ae-4314-8625-b3ff95609e9b"},"vehicle_type_id":"4","last_reported":1750003876,"current_range_meters":25200,"station_id":"ce4bhn92rcd13ifvqgrg","pricing_plan_id":"cebpf4jnsgd1na2vs0mg"},{"bike_id":"a74beba1-e2d9-4832-a312-5a12fcf5304e","system_id":"levelo_inurba_marseille","lat":43.22923,"lon":5.35385,"is_reserved":false,"is_disabled":false,"rental_uris":{"android":"levelo://app?vid=a74beba1-e2d9-4832-a312-5a12fcf5304e","ios":"levelo://app?vid=a74beba1-e2d9-4832-a312-5a12fcf5304e"},"vehicle_type_id":"4","last_reported":1750003876,"current_range_meters":25200,"station_id":"cpo3532slgdg3j2ikp40","pricing_plan_id":"cebpf4jnsgd1na2vs0mg"},{"bike_id":"62c0da7f-aff9-4ffa-86b8-6966d8f0e555","system_id":"levelo_inurba_marseille","lat":43.211882,"lon":5.350719,"is_reserved":false,"is_disabled":false,"rental_uris":{"android":"levelo://app?vid=62c0da7f-aff9-4ffa-86b8-6966d8f0e555","ios":"levelo://app?vid=62c0da7f-aff9-4ffa-86b8-6966d8f0e555"},"vehicle_type_id":"4","last_reported":1750003876,"current_range_meters":25200,"station_id":"st_cvj6sg6p6f1abm77japg","pricing_plan_id":"cebpf4jnsgd1na2vs0mg"},{"bike_id":"cedf8cc5-db41-4f6b-a3f3-c3e5b9cb61f8","system_id":"levelo_inurba_marseille","lat":43.26736,"lon":5.37203,"is_reserved":false,"is_disabled":false,"rental_uris":{"android":"levelo://app?vid=cedf8cc5-db41-4f6b-a3f3-c3e5b9cb61f8","ios":"levelo://app?vid=cedf8cc5-db41-4f6b-a3f3-c3e5b9cb61f8"},"vehicle_type_id":"4","last_reported":1750003876,"current_range_meters":25600,"station_id":"","pricing_plan_id":"cebpf4jnsgd1na2vs0mg"},{"bike_id":"754aa406-1d80-4690-84cf-43121593a791","system_id":"levelo_inurba_marseille","lat":43.28269,"lon":5.35056,"is_reserved":false,"is_disabled":false,"rental_uris":{"android":"levelo://app?vid=754aa406-1d80-4690-84cf-43121593a791","ios":"levelo://app?vid=754aa406-1d80-4690-84cf-43121593a791"},