{"last_updated":1759165762,"ttl":60,"version":"2.2","data":{"bikes":[{"bike_id":"9d689ac9-650b-4d22-a5d5-fba8bfe130e5","system_id":"levelo_inurba_marseille","lat":43.26966,"lon":5.38623,"is_reserved":false,"is_disabled":false,"rental_uris":{"android":"levelo://app?vid=9d689ac9-650b-4d22-a5d5-fba8bfe130e5","ios":"levelo://app?vid=9d689ac9-650b-4d22-a5d5-fba8bfe130e5"},"vehicle_type_id":"4","last_reported":1759165762,"current_range_meters":2800,"station_id":"ce4bhh92rcd13ifvqfh0","pricing_plan_id":"cebpf4jnsgd1na2vs0mg"},{"bike_id":"146e5f27-98f5-4ea0-8655-b74b5dab0bf4","system_id":"levelo_inurba_marseille","lat":43.26791,"lon":5.39416,"is_reserved":false,"is_disabled":false,"rental_uris":{"android":"levelo://app?vid=146e5f27-98f5-4ea0-8655-b74b5dab0bf4","ios":"levelo://app?vid=146e5f27-98f5-4ea0-8655-b74b5dab0bf4"},"vehicle_type_id":"4","last_reported":1759165762,"current_range_meters":2800,"station_id":"ce4bhh12rcd13ifvqfg0","pricing_plan_id":"cebpf4jnsgd1na2vs0mg"},{"bike_id":"972d2698-5855-4693-b9c8-897e0594e512","system_id":"levelo_inurba_marseille","lat":43.28614,"lon":5.35113,"is_reserved":false,"is_disabled":false,"rental_uris":{"android":"levelo://app?vid=972d2698-5855-4693-b9c8-897e0594e512","ios":"levelo://app?vid=972d2698-5855-4693-b9c8-897e0594e512"},"vehicle_type_id":"4","last_reported":1759165762,"current_range_meters":2800,"station_id":"ce4bhch2rcd13ifvqeug","pricing_plan_id":"cebpf4jnsgd1na2vs0mg"},{"bike_id":"ecc70cbc-b6e6-4e45-80b5-9cbe38cc7c22","system_id":"levelo_inurba_marseille","lat":43.30426,"lon":5.39783,"is_reserved":false,"is_disabled":false,"rental_uris":{"android":"levelo://app?vid=ecc70cbc-b6e6-4e45-80b5-9cbe38cc7c22","ios":"levelo://app?vid=ecc70cbc-b6e6-4e45-80b5-9cbe38cc7c22"},"vehicle_type_id":"4","last_reported":1759165762,"current_range_meters":2800,"station_id":"ce4bh092rcd13ifvqd20","pricing_plan_id":"cebpf4jnsgd1na2vs0mg"},{"bike_id":"81825a0f-81de-43d5-b9e5-8b2b4782041b","system_id":"levelo_inurba_marseille","lat":43.29019,"lon":5.38146,"is_reserved":false,"is_disabled":false,"rental_uris":{"android":"levelo://app?vid=81825a0f-81de-43d5-b9e5-8b2b4782041b","ios":"levelo://app?vid=81825a0f-81de-43d5-b9e5-8b2b4782041b"},"vehicle_type_id":"4","last_reported":1759165762,"current_range_meters":2800,"station_id":"ce4bh4p2rcd13ifvqe1g","pricing_plan_id":"cebpf4jnsgd1na2vs0mg"},{"bike_id":"005b3855-5e65-4d54-885e-109c6617c60c","system_id":"levelo_inurba_marseille","lat":43.25584,"lon":5.38226,"is_reserved":false,"is_disabled":false,"rental_uris":{"android":"levelo://app?vid=005b3855-5e65-4d54-885e-109c6617c60c","ios":"levelo://app?vid=005b3855-5e65-4d54-885e-109c6617c60c"},"vehicle_type_id":"4","last_reported":1759165762,"current_range_meters":2800,"station_id":"ce4bhih2rcd13ifvqfs0","pricing_plan_id":"cebpf4jnsgd1na2vs0mg"},{"bike_id":"f0bcbd57-fad8-4557-8de8-46520872c095","system_id":"levelo_inurba_marseille","lat":43.29935,"lon":5.365453,"is_reserved":false,"is_disabled":false,"rental_uris":{"android":"levelo://app?vid=f0bcbd57-fad8-4557-8de8-46520872c095","ios":"levelo://app?vid=f0bcbd57-fad8-4557-8de8-46520872c095"},"vehicle_type_id":"4","last_reported":1759165762,"current_range_meters":2800,"station_id":"ce4bgm92rcd13ifvqbr0","pricing_plan_id":"cebpf4jnsgd1na2vs0mg"},{"bike_id":"8bca3482-a153-4ba2-bde8-e385dd63bb76","system_id":"levelo_inurba_marseille","lat":43.29897,"lon":5.43677,"is_reserved":false,"is_disabled":false,"rental_uris":{"android":"levelo://app?vid=8bca3482-a153-4ba2-bde8-e385dd63bb76","ios":"levelo://app?vid=8bca3482-a153-4ba2-bde8-e385dd63bb76"},"vehicle_type_id":"4","last_reported":1759165762,"current_range_meters":2800,"station_id":"ce4bhpp2rcd13ifvqhfg","pricing_plan_id":"cebpf4jnsgd1na2vs0mg"},{"bike_id":"a3c22864-68b1-426f-b38b-f7a21ef7ce16","system_id":"levelo_inurba_marseille","lat":43.301397,"lon":5.374296,"is_reserved":false,"is_disabled":false,"rental_uris":{"android":"levelo://app?vid=a3c22864-68b1-426f-b38b-f7a21ef7ce16","ios":"levelo://app?vid=a3c22864-68b1-426f-b38b-f7a21ef7ce16"},"vehicle_type_id":"4","last_reported":1759165762,"current_range_meters":2800,"station_id":"ce4bgv12rcd13ifvqcp0","pricing_plan_id":"cebpf4jnsgd1na2vs0mg"},{"bike_id":"228632b6-e9d8-44a4-ac6d-aca29d5b8257","system_id":"levelo_inurba_marseille","lat":43.2872,"lon":5.36091,"is_reserved":false,"is_disabled":false,"rental_uris":{"android":"levelo://app?vid=228632b6-e9d8-44a4-ac6d-aca29d5b8257","ios":"levelo://app?vid=228632b6-e9d8-44a4-ac6d-aca29d5b8257"},"vehicle_type_id":"4","last_reported":1759165762,"current_range_meters":3200,"station_id":"cki0cbj6b192h4jlfktg","pricing_plan_id":"cebpf4jnsgd1na2vs0mg"},{"bike_id":"6e56ffb5-726a-45f9-aa7c-93f09407db40","system_id":"levelo_inurba_marseille","lat":43.25086,"lon":5.39516,"is_reserved":false,"is_disabled":false,"rental_uris":{"android":"levelo://app?vid=6e56ffb5-726a-45f9-aa7c-93f09407db40","ios":"levelo://app?vid=6e56ffb5-726a-45f9-aa7c-93f09407db40"},"vehicle_type_id":"4","last_reported":1759165762,"current_range_meters":3200,"station_id":"ce4bhm12rcd13ifvqgkg","pricing_plan_id":"cebpf4jnsgd1na2vs0mg"},{"bike_id":"2a08fcfc-0816-4cce-bcd5-78f6c34324d7","system_id":"levelo_inurba_marseille","lat":43.29782,"lon":5.38112,"is_reserved":false,"is_disabled":false,"rental_uris":{"android":"levelo://app?vid=2a08fcfc-0816-4cce-bcd5-78f6c34324d7","ios":"levelo://app?vid=2a08fcfc-0816-4cce-bcd5-78f6c34324d7"},"vehicle_type_id":"4","last_reported":1759165762,"current_range_meters":3200,"station_id":"ce4bgip2rcd13ifvqbb0","pricing_plan_id":"cebpf4jnsgd1na2vs0mg"},{"bike_id":"be7dae0d-94d7-4a0d-89d8-07c528e32b57","system_id":"levelo_inurba_marseille","lat":43.32582,"lon":5.39078,"is_reserved":false,"is_disabled":false,"rental_uris":{"android":"levelo://app?vid=be7dae0d-94d7-4a0d-89d8-07c528e32b57","ios":"levelo://app?vid=be7dae0d-94d7-4a0d-89d8-07c528e32b57"},"vehicle_type_id":"4","last_reported":1759165762,"current_range_meters":3200,"station_id":"","pricing_plan_id":"cebpf4jnsgd1na2vs0mg"},{"bike_id":"d4c9afaf-fc7f-4121-bdd6-574c85baa99a","system_id":"levelo_inurba_marseille","lat":43.31061,"lon":5.38357,"is_reserved":false,"is_disabled":false,"rental_uris":{"android":"levelo://app?vid=d4c9afaf-fc7f-4121-bdd6-574c85baa99a","ios":"levelo://app?vid=d4c9afaf-fc7f-4121-bdd6-574c85baa99a"},"vehicle_type_id":"4","last_reported":1759165762,"current_range_meters":3200,"station_id":"ce4bgv92rcd13ifvqcr0","pricing_plan_id":"cebpf4jnsgd1na2vs0mg"},{"bike_id":"bc92f504-4222-4c18-8f50-74b98d072c25","system_id":"levelo_inurba_marseille","lat":43.28616,"lon":5.35111,"is_reserved":false,"is_disabled":false,"rental_uris":{"android":"levelo://app?vid=bc92f504-4222-4c18-8f50-74b98d072c25","ios":"levelo://app?vid=bc92f504-4222-4c18-8f50-74b98d072c25"},"vehicle_type_id":"4","last_reported":1759165762,"current_range_meters":3200,"station_id":"ce4bhch2rcd13ifvqeug","pricing_plan_id":"cebpf4jnsgd1na2vs0mg"},{"bike_id":"2e99b054-9183-4934-aa45-315b1e11e23e","system_id":"levelo_inurba_marseille","lat":43.25573,"lon":5.38261,"is_reserved":false,"is_disabled":false,"rental_uris":{"android":"levelo://app?vid=2e99b054-9183-4934-aa45-315b1e11e23e","ios":"levelo://app?vid=2e99b054-9183-4934-aa45-315b1e11e23e"},"vehicle_type_id":"4","last_reported":1759165762,"current_range_meters":3600,"station_id":"ce4bhih2rcd13ifvqfs0","pricing_plan_id":"cebpf4jnsgd1na2vs0mg"},{"bike_id":"7d7ef160-528e-481d-8ef3-e5df7e12d7cc","system_id":"levelo_inurba_marseille","lat":43.28272,"lon":5.35067,"is_reserved":false,"is_disabled":false,"rental_uris":{"android":"levelo://app?vid=7d7ef160-528e-481d-8ef3-e5df7e12d7cc","ios":"levelo://app?vid=7d7ef160-528e-481d-8ef3-e5df7e12d7cc"},"vehicle_type_id":"4","last_reported":1759165762,"current_range_meters":3600,"station_id":"ce4bhbp2rcd13ifvqerg","pricing_plan_id":"cebpf4jnsgd1na2vs0mg"},{"bike_id":"e71ebd1c-8fd2-404d-8597-ad5b474bf007","system_id":"levelo_inurba_marseille","lat":43.27597,"lon":5.39488,"is_reserved":false,"is_disabled":false,"rental_uris":{"android":"levelo://app?vid=e71ebd1c-8fd2-404d-8597-ad5b474bf007","ios":"levelo://app?vid=e71ebd1c-8fd2-404d-8597-ad5b474bf007"},"vehicle_type_id":"4","last_reported":1759165762,"current_range_meters":3600,"station_id":"ce4bhdp2rcd13ifvqf20","pricing_plan_id":"cebpf4jnsgd1na2vs0mg"},{"bike_id":"833ec794-66bf-43cd-9547-54a7af99267b","system_id":"levelo_inurba_marseille","lat":43.281521,"lon":5.426521,"is_reserved":false,"is_disabled":false,"rental_uris":{"android":"levelo://app?vid=833ec794-66bf-43cd-9547-54a7af99267b","ios":"levelo://app?vid=833ec794-66bf-43cd-9547-54a7af99267b"},"vehicle_type_id":"4","last_reported":1759165762,"current_range_meters":3600,"station_id":"ce4bhnh2rcd13ifvqgug","pricing_plan_id":"cebpf4jnsgd1na2vs0mg"},{"bike_id":"d61f071a-1d5f-49c6-bd47-1d558faedea5","system_id":"levelo_inurba_marseille","lat":43.29532,"lon":5.38548,"is_reserved":false,"is_disabled":false,"rental_uris":{"android":"levelo://app?vid=d61f071a-1d5f-49c6-bd47-1d558faedea5","ios":"levelo://app?vid=d61f071a-1d5f-49c6-bd47-1d558faedea5"},"vehicle_type_id":"4","last_reported":1759165762,"current_range_meters":4000,"station_id":"ce4bgih2rcd13ifvqba0","pricing_plan_id":"cebpf4jnsgd1na2vs0mg"},{"bike_id":"d515a3cf-29dc-4e14-ae7f-af1536e8a0a3","system_id":"levelo_inurba_marseille","lat":43.27075,"lon":5.42273,"is_reserved":false,"is_disabled":false,"rental_uris":{"android":"levelo://app?vid=d515a3cf-29dc-4e14-ae7f-af1536e8a0a3","ios":"levelo://app?vid=d515a3cf-29dc-4e14-ae7f-af1536e8a0a3"},"vehicle_type_id":"4","last_reported":1759165762,"current_range_meters":4000,"station_id":"ce4bhk92rcd13ifvqgb0","pricing_plan_id":"cebpf4jnsgd1na2vs0mg"},{"bike_id":"99c7b3fd-951a-40e5-b70c-e0730aee4402","system_id":"levelo_inurba_marseille","lat":43.25581,"lon":5.38225,"is_reserved":false,"is_disabled":false,"rental_uris":{"android":"levelo://app?vid=99c7b3fd-951a-40e5-b70c-e0730aee4402","ios":"levelo://app?vid=99c7b3fd-951a-40e5-b70c-e0730aee4402"},"vehicle_type_id":"4","last_reported":1759165762,"current_range_meters":4000,"station_id":"ce4bhih2rcd13ifvqfs0","pricing_plan_id":"cebpf4jnsgd1na2vs0mg"},{"bike_id":"fe181884-f8bf-4531-bc82-d010f2eb6013","system_id":"levelo_inurba_marseille","lat":43.29282,"lon":5.36856,"is_reserved":false,"is_disabled":false,"rental_uris":{"android":"levelo://app?vid=fe181884-f8bf-4531-bc82-d010f2eb6013","ios":"levelo://app?vid=fe181884-f8bf-4531-bc82-d010f2eb6013"},"vehicle_type_id":"4","last_reported":1759165762,"current_range_meters":4400,"station_id":"ce4bhbp2rcd13ifvqesg","pricing_plan_id":"cebpf4jnsgd1na2vs0mg"},{"bike_id":"4fcf49da-ad50-414a-bda8-cbd36287dfda","system_id":"levelo_inurba_marseille","lat":43.25513,"lon":5.37653,"is_reserved":false,"is_disabled":true,"rental_uris":{"android":"levelo://app?vid=4fcf49da-ad50-414a-bda8-cbd36287dfda","ios":"levelo://app?vid=4fcf49da-ad50-414a-bda8-cbd36287dfda"},"vehicle_type_id":"4","last_reported":1759165762,"current_range_meters":4400,"station_id":"ce4bhh12rcd13ifvqff0","pricing_plan_id":"cebpf4jnsgd1na2vs0mg"},{"bike_id":"993bf898-88d5-47b9-bcae-e2f873a33157","system_id":"levelo_inurba_marseille","lat":43.26215,"lon":5.37447,"is_reserved":false,"is_disabled":false,"rental_uris":{"android":"levelo://app?vid=993bf898-88d5-47b9-bcae-e2f873a33157","ios":"levelo://app?vid=993bf898-88d5-47b9-bcae-e2f873a33157"},"vehicle_type_id":"4","last_reported":1759165762,"current_range_meters":4400,"station_id":"ce4bhgp2rcd13ifvqfc0","pricing_plan_id":"cebpf4jnsgd1na2vs0mg"},{"bike_id":"ed29f703-8242-4a80-9c1e-7aeac0f8b862","system_id":"levelo_inurba_marseille","lat":43.29324,"lon":5.41169,"is_reserved":false,"is_disabled":false,"rental_uris":{"android":"levelo://app?vid=ed29f703-8242-4a80-9c1e-7aeac0f8b862","ios":"levelo://app?vid=ed29f703-8242-4a80-9c1e-7aeac0f8b862"},"vehicle_type_id":"4","last_reported":1759165762,"current_range_meters":4400,"station_id":"","pricing_plan_id":"cebpf4jnsgd1na2vs0mg"},{"bike_id":"15abda28-44f2-403e-a2e2-fa9d4e0f9291","system_id":"levelo_inurba_marseille","lat":43.30304,"lon":5.36867,"is_reserved":false,"is_disabled":false,"rental_uris":{"android":"levelo://app?vid=15abda28-44f2-403e-a2e2-fa9d4e0f9291","ios":"levelo://app?vid=15abda28-44f2-403e-a2e2-fa9d4e0f9291"},"vehicle_type_id":"4","last_reported":1759165762,"current_range_meters":4000,"station_id":"ce4bgqh2rcd13ifvqc5g","pricing_plan_id":"cebpf4jnsgd1na2vs0mg"},{"bike_id":"a0fa5a9d-5723-431a-b8c4-be180ede1396","system_id":"levelo_inurba_marseille","lat":43.299215,"lon":5.374904,"is_reserved":false,"is_disabled":false,"rental_uris":{"android":"levelo://app?vid=a0fa5a9d-5723-431a-b8c4-be180ede1396","ios":"levelo://app?vid=a0fa5a9d-5723-431a-b8c4-be180ede1396"},"vehicle_type_id":"4","last_reported":1759165762,"current_range_meters":4400,"station_id":"ce4bgjh2rcd13ifvqbg0","pricing_plan_id":"cebpf4jnsgd1na2vs0mg"},{"bike_id":"2bd10002-fe4d-43c5-acd7-6ddc8dc37379","system_id":"levelo_inurba_marseille","lat":43.29617,"lon":5.37733,"is_reserved":false,"is_disabled":false,"rental_uris":{"android":"levelo://app?vid=2bd10002-fe4d-43c5-acd7-6ddc8dc37379","ios":"levelo://app?vid=2bd10002-fe4d-43c5-acd7-6ddc8dc37379"},"vehicle_type_id":"4","last_reported":1759165762,"current_range_meters":4000,"station_id":"ce4bgi92rcd13ifvqb90","pricing_plan_id":"cebpf4jnsgd1na2vs0mg"},{"bike_id":"798ffc8e-87c9-46b3-b416-557580394447","system_id":"levelo_inurba_marseille","lat":43.28703,"lon":5.39995,"is_reserved":false,"is_disabled":false,"rental_uris":{"android":"levelo://app?vid=798ffc8e-87c9-46b3-b416-557580394447","ios":"levelo://app?vid=798ffc8e-87c9-46b3-b416-557580394447"},"vehicle_type_id":"4","last_reported":1759165762,"current_range_meters":4800,"station_id":"ce4bho92rcd13ifvqh3g","pricing_plan_id":"cebpf4jnsgd1na2vs0mg"},{"bike_id":"0feac949-069c-4d88-9b50-4ba84b2ba034","system_id":"levelo_inurba_marseille","lat":43.2511,"lon":5.40332,"is_reserved":false,"is_disabled":false,"rental_uris":{"android":"levelo://app?vid=0feac949-069c-4d88-9b50-4ba84b2ba034","ios":"levelo://app?vid=0feac949-069c-4d88-9b50-4ba84b2ba034"},"vehicle_type_id":"4","last_reported":1759165762,"current_range_meters":4800,"station_id":"ce4bhlh2rcd13ifvqgig","pricing_plan_id":"cebpf4jnsgd1na2vs0mg"},{"bike_id":"7248eba5-c2eb-42ba-bbcc-0e2ef9529430","system_id":"levelo_inurba_marseille","lat":43.25337,"lon":5.42178,"is_reserved":false,"is_disabled":false,"rental_uris":{"android":"levelo://app?vid=7248eba5-c2eb-42ba-bbcc-0e2ef9529430","ios":"levelo://app?vid=7248eba5-c2eb-42ba-bbcc-0e2ef9529430"},"vehicle_type_id":"4","last_reported":1759165762,"current_range_meters":4800,"station_id":"st_d2m65c5bi1j21697t3ng","pricing_plan_id":"cebpf4jnsgd1na2vs0mg"},{"bike_id":"b630c107-6a09-48d5-a801-68ba4e998ea3","system_id":"levelo_inurba_marseille","lat":43.25866,"lon":5.39904,"is_reserved":false,"is_disabled":false,"rental_uris":{"android":"levelo://app?vid=b630c107-6a09-48d5-a801-68ba4e998ea3","ios":"levelo://app?vid=b630c107-6a09-48d5-a801-68ba4e998ea3"},"vehicle_type_id":"4","last_reported":1759165762,"current_range_meters":4800,"station_id":"ce4bhl92rcd13ifvqghg","pricing_plan_id":"cebpf4jnsgd1na2vs0mg"},{"bike_id":"e9ed9de5-c32d-4cbb-8fba-4253a33988f9","system_id":"levelo_inurba_marseille","lat":43.29789,"lon":5.39345,"is_reserved":false,"is_disabled":false,"rental_uris":{"android":"levelo://app?vid=e9ed9de5-c32d-4cbb-8fba-4253a33988f9","ios":"levelo://app?vid=e9ed9de5-c32d-4cbb-8fba-4253a33988f9"},"vehicle_type_id":"4","last_reported":1759165762,"current_range_meters":4800,"station_id":"chh1huq6cuj3fo74tm60","pricing_plan_id":"cebpf4jnsgd1na2vs0mg"},{"bike_id":"26172944-106b-4b4e-9e3c-562a87d00a0c","system_id":"levelo_inurba_marseille","lat":43.290321,"lon":5.376542,"is_reserved":false,"is_disabled":false,"rental_uris":{"android":"levelo://app?vid=26172944-106b-4b4e-9e3c-562a87d00a0c","ios":"levelo://app?vid=26172944-106b-4b4e-9e3c-562a87d00a0c"},"vehicle_type_id":"4","last_reported":1759165762,"current_range_meters":4800,"station_id":"","pricing_plan_id":"cebpf4jnsgd1na2vs0mg"},{"bike_id":"de2f92e1-0f27-4090-840a-d7428443427c","system_id":"levelo_inurba_marseille","lat":43.28018,"lon":5.36942,"is_reserved":false,"is_disabled":false,"rental_uris":{"android":"levelo://app?vid=de2f92e1-0f27-4090-840a-d7428443427c","ios":"levelo://app?vid=de2f92e1-0f27-4090-840a-d7428443427c"},"vehicle_type_id":"4","last_reported":1759165762,"current_range_meters":4800,"station_id":"ce4bha12rcd13ifvqef0","pricing_plan_id":"cebpf4jnsgd1na2vs0mg"},{"bike_id":"614392ae-79c5-4f41-bb09-9388ca314666","system_id":"levelo_inurba_marseille","lat":43.33597,"lon":5.41029,"is_reserved":false,"is_disabled":false,"rental_uris":{"android":"levelo://app?vid=614392ae-79c5-4f41-bb09-9388ca314666","ios":"levelo://app?vid=614392ae-79c5-4f41-bb09-9388ca314666"},"vehicle_type_id":"4","last_reported":1759165762,"current_range_meters":5600,"station_id":"ce4bhqh2rcd13ifvqhmg","pricing_plan_id":"cebpf4jnsgd1na2vs0mg"},{"bike_id":"4f194c40-87fd-45d8-84a8-40381524af69","system_id":"levelo_inurba_marseille","lat":43.24682,"lon":5.38153,"is_reserved":false,"is_disabled":false,"rental_uris":{"android":"levelo://app?vid=4f194c40-87fd-45d8-84a8-40381524af69","ios":"levelo://app?vid=4f194c40-87fd-45d8-84a8-40381524af69"},"vehicle_type_id":"4","last_reported":1759165762,"current_range_meters":5600,"station_id":"ce4bhih2rcd13ifvqfr0","pricing_plan_id":"cebpf4jnsgd1na2vs0mg"},{"bike_id":"08838fac-9ee3-44d9-b8d7-06a434f28f85","system_id":"levelo_inurba_marseille","lat":43.29533,"lon":5.38546,"is_reserved":false,"is_disabled":false,"rental_uris":{"android":"levelo://app?vid=08838fac-9ee3-44d9-b8d7-06a434f28f85","ios":"levelo://app?vid=08838fac-9ee3-44d9-b8d7-06a434f28f85"},"vehicle_type_id":"4","last_reported":1759165762,"current_range_meters":5600,"station_id":"ce4bgih2rcd13ifvqba0","pricing_plan_id":"cebpf4jnsgd1na2vs0mg"},{"bike_id":"2ea17b5b-cbd9-4f02-af2c-a9ba40f321c1","system_id":"levelo_inurba_marseille","lat":43.29269,"lon":5.37433,"is_reserved":false,"is_disabled":false,"rental_uris":{"android":"levelo://app?vid=2ea17b5b-cbd9-4f02-af2c-a9ba40f321c1","ios":"levelo://app?vid=2ea17b5b-cbd9-4f02-af2c-a9ba40f321c1"},"vehicle_type_id":"4","last_reported":1759165762,"current_range_meters":6000,"station_id":"ce4bgi12rcd13ifvqb70","pricing_plan_id":"cebpf4jnsgd1na2vs0mg"},{"bike_id":"a0b7ddea-5df4-4b2c-81ef-314da424bcce","system_id":"levelo_inurba_marseille","lat":43.2621,"lon":5.37444,"is_reserved":false,"is_disabled":false,"rental_uris":{"android":"levelo://app?vid=a0b7ddea-5df4-4b2c-81ef-314da424bcce","ios":"levelo://app?vid=a0b7ddea-5df4-4b2c-81ef-314da424bcce"},"vehicle_type_id":"4","last_reported":1759165762,"current_range_meters":6000,"station_id":"ce4bhgp2rcd13ifvqfc0","pricing_plan_id":"cebpf4jnsgd1na2vs0mg"},{"bike_id":"c59e5192-0653-4dc5-bfbd-35bd5cccfe27","system_id":"levelo_inurba_marseille","lat":43.31753,"lon":5.39021,"is_reserved":false,"is_disabled":false,"rental_uris":{"android":"levelo://app?vid=c59e5192-0653-4dc5-bfbd-35bd5cccfe27","ios":"levelo://app?vid=c59e5192-0653-4dc5-bfbd-35bd5cccfe27"},"vehicle_type_id":"4","last_reported":1759165762,"current_range_meters":6000,"station_id":"ce4bhqp2rcd13ifvqhng","pricing_plan_id":"cebpf4jnsgd1na2vs0mg"},{"bike_id":"d9452d18-6f2a-4562-935b-defbd1b86596","system_id":"levelo_inurba_marseille","lat":43.29011,"lon":5.35619,"is_reserved":false,"is_disabled":false,"rental_uris":{"android":"levelo://app?vid=d9452d18-6f2a-4562-935b-defbd1b86596","ios":"levelo://app?vid=d9452d18-6f2a-4562-935b-defbd1b86596"},"vehicle_type_id":"4","last_reported":1759165762,"current_range_meters":6400,"station_id":"ce4bhb92rcd13ifvqen0","pricing_plan_id":"cebpf4jnsgd1na2vs0mg"},{"bike_id":"6122cfb0-40a5-4a7c-abbd-9da082c2f16f","system_id":"levelo_inurba_marseille","lat":43.27623,"lon":5.36121,"is_reserved":false,"is_disabled":false,"rental_uris":{"android":"levelo://app?vid=6122cfb0-40a5-4a7c-abbd-9da082c2f16f","ios":"levelo://app?vid=6122cfb0-40a5-4a7c-abbd-9da082c2f16f"},"vehicle_type_id":"4","last_reported":1759165762,"current_range_meters":6000,"station_id":"ce4bgj92rcd13ifvqbe0","pricing_plan_id":"cebpf4jnsgd1na2vs0mg"},{"bike_id":"9483cc0b-ed3d-423c-97ab-bfc88344c929","system_id":"levelo_inurba_marseille","lat":43.296265,"lon":5.377127,"is_reserved":false,"is_disabled":false,"rental_uris":{"android":"levelo://app?vid=9483cc0b-ed3d-423c-97ab-bfc88344c929","ios":"levelo://app?vid=9483cc0b-ed3d-423c-97ab-bfc88344c929"},"vehicle_type_id":"4","last_reported":1759165762,"current_range_meters":6800,"station_id":"","pricing_plan_id":"cebpf4jnsgd1na2vs0mg"},{"bike_id":"3ea3d53c-e6af-41f3-be44-5d6713c8040a","system_id":"levelo_inurba_marseille","lat":43.29868,"lon":5.39729,"is_reserved":false,"is_disabled":false,"rental_uris":{"android":"levelo://app?vid=3ea3d53c-e6af-41f3-be44-5d6713c8040a","ios":"levelo://app?vid=3ea3d53c-e6af-41f3-be44-5d6713c8040a"},"vehicle_type_id":"4","last_reported":1759165762,"current_range_meters":6800,"station_id":"ce4bh0h2rcd13ifvqd50","pricing_plan_id":"cebpf4jnsgd1na2vs0mg"},{"bike_id":"67bb366c-ae4f-43d9-bb21-3800260e863e","system_id":"levelo_inurba_marseille","lat":43.29195,"lon":5.39311,"is_reserved":false,"is_disabled":false,"rental_uris":{"android":"levelo://app?vid=67bb366c-ae4f-43d9-bb21-3800260e863e","ios":"levelo://app?vid=67bb366c-ae4f-43d9-bb21-3800260e863e"},"vehicle_type_id":"4","last_reported":1759165762,"current_range_meters":6800,"station_id":"ce4bh192rcd13ifvqdd0","pricing_plan_id":"cebpf4jnsgd1na2vs0mg"},{"bike_id":"bc85c2b7-fb13-477a-bbd7-01f47d27e6a2","system_id":"levelo_inurba_marseille","lat":43.23193,"lon":5.35565,"is_reserved":false,"is_disabled":false,"rental_uris":{"android":"levelo://app?vid=bc85c2b7-fb13-477a-bbd7-01f47d27e6a2","ios":"levelo://app?vid=bc85c2b7-fb13-477a-bbd7-01f47d27e6a2"},"vehicle_type_id":"4","last_reported":1759165762,"current_range_meters":6800,"station_id":"ce4bhu92rcd13ifvqi70","pricing_plan_id":"cebpf4jnsgd1na2vs0mg"},{"bike_id":"3c14f83e-70b6-4ea2-88ed-6a8aabbd9324","system_id":"levelo_inurba_marseille","lat":43.286141,"lon":5.370607,"is_reserved":false,"is_disabled":false,"rental_uris":{"android":"levelo://app?vid=3c14f83e-70b6-4ea2-88ed-6a8aabbd9324","ios":"levelo://app?vid=3c14f83e-70b6-4ea2-88ed-6a8aabbd9324"},"vehicle_type_id":"4","last_reported":1759165762,"current_range_meters":6800,"station_id":"ce4bht12rcd13ifvqi60","pricing_plan_id":"cebpf4jnsgd1na2vs0mg"},{"bike_id":"f4378195-233f-44a8-9b8b-0fcab0729a00","system_id":"levelo_inurba_marseille","lat":43.29711,"lon":5.36609,"is_reserved":false,"is_disabled":false,"rental_uris":{"android":"levelo://app?vid=f4378195-233f-44a8-9b8b-0fcab0729a00","ios":"levelo://app?vid=f4378195-233f-44a8-9b8b-0fcab0729a00"},"vehicle_type_id":"4","last_reported":1759165762,"current_range_meters":6800,"station_id":"ce4bgn12rcd13ifvqbt0","pricing_plan_id":"cebpf4jnsgd1na2vs0mg"},{"bike_id":"8bda362e-d31c-4c3e-b79b-f12680781fd9","system_id":"levelo_inurba_marseille","lat":43.30141,"lon":5.39849,"is_reserved":false,"is_disabled":false,"rental_uris":{"android":"levelo://app?vid=8bda362e-d31c-4c3e-b79b-f12680781fd9","ios":"levelo://app?vid=8bda362e-d31c-4c3e-b79b-f12680781fd9"},"vehicle_type_id":"4","last_reported":1759165762,"current_range_meters":6800,"station_id":"ce4bh0h2rcd13ifvqd40","pricing_plan_id":"cebpf4jnsgd1na2vs0mg"},{"bike_id":"79d26f56-60dd-4db1-8e0e-5486fce57cf6","system_id":"levelo_inurba_marseille","lat":43.30445,"lon":5.38919,"is_reserved":false,"is_disabled":false,"rental_uris":{"android":"levelo://app?vid=79d26f56-60dd-4db1-8e0e-5486fce57cf6","ios":"levelo://app?vid=79d26f56-60dd-4db1-8e0e-5486fce57cf6"},"vehicle_type_id":"4","last_reported":1759165762,"current_range_meters":7200,"station_id":"ce4bgk12rcd13ifvqbi0","pricing_plan_id":"cebpf4jnsgd1na2vs0mg"},{"bike_id":"793c7c25-0860-4c1c-a8a4-bc3c6e69d4c0","system_id":"levelo_inurba_marseille","lat":43.30912,"lon":5.37186,"is_reserved":false,"is_disabled":false,"rental_uris":{"android":"levelo://app?vid=793c7c25-0860-4c1c-a8a4-bc3c6e69d4c0","ios":"levelo://app?vid=793c7c25-0860-4c1c-a8a4-bc3c6e69d4c0"},"vehicle_type_id":"4","last_reported":1759165762,"current_range_meters":6800,"station_id":"ce4bguh2rcd13ifvqckg","pricing_plan_id":"cebpf4jnsgd1na2vs0mg"},{"bike_id":"cefe59df-2426-4a68-83cf-fcecbb3c8c98","system_id":"levelo_inurba_marseille","lat":43.30264,"lon":5.39649,"is_reserved":false,"is_disabled":true,"rental_uris":{"android":"levelo://app?vid=cefe59df-2426-4a68-83cf-fcecbb3c8c98","ios":"levelo://app?vid=cefe59df-2426-4a68-83cf-fcecbb3c8c98"},"vehicle_type_id":"4","last_reported":1759165762,"current_range_meters":7200,"station_id":"","pricing_plan_id":"cebpf4jnsgd1na2vs0mg"},{"bike_id":"c9916796-5f07-4d22-aceb-87882fb08ac5","system_id":"levelo_inurba_marseille","lat":43.30589,"lon":5.36571,"is_reserved":false,"is_disabled":false,"rental_uris":{"android":"levelo://app?vid=c9916796-5f07-4d22-aceb-87882fb08ac5","ios":"levelo://app?vid=c9916796-5f07-4d22-aceb-87882fb08ac5"},"vehicle_type_id":"4","last_reported":1759165762,"current_range_meters":7200,"station_id":"ce4bgs12rcd13ifvqcag","pricing_plan_id":"cebpf4jnsgd1na2vs0mg"},{"bike_id":"df72ad22-71b5-4618-849d-206fe3d6ee33","system_id":"levelo_inurba_marseille","lat":43.28855,"lon":5.35852,"is_reserved":false,"is_disabled":false,"rental_uris":{"android":"levelo://app?vid=df72ad22-71b5-4618-849d-206fe3d6ee33","ios":"levelo://app?vid=df72ad22-71b5-4618-849d-206fe3d6ee33"},"vehicle_type_id":"4","last_reported":1759165762,"current_range_meters":7200,"station_id":"ce4bhb12rcd13ifvqem0","pricing_plan_id":"cebpf4jnsgd1na2vs0mg"},{"bike_id":"9547750a-0ba0-4dc2-90e1-0ba2064e9c98","system_id":"levelo_inurba_marseille","lat":43.31357,"lon":5.38495,"is_reserved":false,"is_disabled":false,"rental_uris":{"android":"levelo://app?vid=9547750a-0ba0-4dc2-90e1-0ba2064e9c98","ios":"levelo://app?vid=9547750a-0ba0-4dc2-90e1-0ba2064e9c98"},"vehicle_type_id":"4","last_reported":1759165762,"current_range_meters":6800,"station_id":"ce4bgt92rcd13ifvqcf0","pricing_plan_id":"cebpf4jnsgd1na2vs0mg"},{"bike_id":"8a4a8404-2223-404b-b9d6-fda388efd3eb","system_id":"levelo_inurba_marseille","lat":43.225399,"lon":5.348524,"is_reserved":false,"is_disabled":false,"rental_uris":{"android":"levelo://app?vid=8a4a8404-2223-404b-b9d6-fda388efd3eb","ios":"levelo://app?vid=8a4a8404-2223-404b-b9d6-fda388efd3eb"},"vehicle_type_id":"4","last_reported":1759165762,"current_range_meters":7200,"station_id":"","pricing_plan_id":"cebpf4jnsgd1na2vs0mg"},{"bike_id":"e67af6f5-e1a2-4b4a-bc71-cd8e677ee07f","system_id":"levelo_inurba_marseille","lat":43.28356,"lon":5.38097,"is_reserved":false,"is_disabled":false,"rental_uris":{"android":"levelo://app?vid=e67af6f5-e1a2-4b4a-bc71-cd8e677ee07f","ios":"levelo://app?vid=e67af6f5-e1a2-4b4a-bc71-cd8e677ee07f"},"vehicle_type_id":"4","last_reported":1759165762,"current_range_meters":7200,"station_id":"ce4bh412rcd13ifvqdr0","pricing_plan_id":"cebpf4jnsgd1na2vs0mg"},{"bike_id":"2ff39276-2e3b-4dca-9c6b-9c7bdaecb70f","system_id":"levelo_inurba_marseille","lat":43.30315,"lon":5.40436,"is_reserved":false,"is_disabled":false,"rental_uris":{"android":"levelo://app?vid=2ff39276-2e3b-4dca-9c6b-9c7bdaecb70f","ios":"levelo://app?vid=2ff39276-2e3b-4dca-9c6b-9c7bdaecb70f"},"vehicle_type_id":"4","last_reported":1759165762,"current_range_meters":7200,"station_id":"ce4bh012rcd13ifvqd10","pricing_plan_id":"cebpf4jnsgd1na2vs0mg"},{"bike_id":"b45645c3-5947-4e1b-9c1b-147f0540c9af","system_id":"levelo_inurba_marseille","lat":43.30799,"lon":5.43531,"is_reserved":false,"is_disabled":false,"rental_uris":{"android":"levelo://app?vid=b45645c3-5947-4e1b-9c1b-147f0540c9af","ios":"levelo://app?vid=b45645c3-5947-4e1b-9c1b-147f0540c9af"},"vehicle_type_id":"4","last_reported":1759165762,"current_range_meters":7200,"station_id":"ce4bhph2rcd13ifvqheg","pricing_plan_id":"cebpf4jnsgd1na2vs0mg"},{"bike_id":"258ab053-1083-4ca9-a32a-1e85f085fc22","system_id":"levelo_inurba_marseille","lat":43.337444,"lon":5.374475,"is_reserved":false,"is_disabled":false,"rental_uris":{"android":"levelo://app?vid=258ab053-1083-4ca9-a32a-1e85f085fc22","ios":"levelo://app?vid=258ab053-1083-4ca9-a32a-1e85f085fc22"},"vehicle_type_id":"4","last_reported":1759165762,"current_range_meters":7200,"station_id":"","pricing_plan_id":"cebpf4jnsgd1na2vs0mg"},{"bike_id":"8b353c9e-13c5-42ee-a76f-ccbd6269a3dc","system_id":"levelo_inurba_marseille","lat":43.30424,"lon":5.366666,"is_reserved":false,"is_disabled":false,"rental_uris":{"android":"levelo://app?vid=8b353c9e-13c5-42ee-a76f-ccbd6269a3dc","ios":"levelo://app?vid=8b353c9e-13c5-42ee-a76f-ccbd6269a3dc"},"vehicle_type_id":"4","last_reported":1759165762,"current_range_meters":8000,"station_id":"","pricing_plan_id":"cebpf4jnsgd1na2vs0mg"},{"bike_id":"29add83b-407e-48bc-befe-1f1b450ad89b","system_id":"levelo_inurba_marseille","lat":43.25576,"lon":5.3824,"is_reserved":false,"is_disabled":false,"rental_uris":{"android":"levelo://app?vid=29add83b-407e-48bc-befe-1f1b450ad89b","ios":"levelo://app?vid=29add83b-407e-48bc-befe-1f1b450ad89b"},"vehicle_type_id":"4","last_reported":1759165762,"current_range_meters":8000,"station_id":"ce4bhih2rcd13ifvqfs0","pricing_plan_id":"cebpf4jnsgd1na2vs0mg"},{"bike_id":"3f2bc1bf-8ed9-48ed-bdd2-4d3882921906","system_id":"levelo_inurba_marseille","lat":43.28694,"lon":5.3999,"is_reserved":false,"is_disabled":false,"rental_uris":{"android":"levelo://app?vid=3f2bc1bf-8ed9-48ed-bdd2-4d3882921906","ios":"levelo://app?vid=3f2bc1bf-8ed9-48ed-bdd2-4d3882921906"},"vehicle_type_id":"4","last_reported":1759165762,"current_range_meters":8000,"station_id":"ce4bho92rcd13ifvqh3g","pricing_plan_id":"cebpf4jnsgd1na2vs0mg"},{"bike_id":"6b80ed77-402f-4ee7-9b0d-5a4371ac25f9","system_id":"levelo_inurba_marseille","lat":43.28041,"lon":5.36943,"is_reserved":false,"is_disabled":false,"rental_uris":{"android":"levelo://app?vid=6b80ed77-402f-4ee7-9b0d-5a4371ac25f9","ios":"levelo://app?vid=6b80ed77-402f-4ee7-9b0d-5a4371ac25f9"},"vehicle_type_id":"4","last_reported":1759165762,"current_range_meters":8000,"station_id":"ce4bha12rcd13ifvqef0","pricing_plan_id":"cebpf4jnsgd1na2vs0mg"},{"bike_id":"6b974a3e-1b38-4efc-bb62-c8ce9b3809b9","system_id":"levelo_inurba_marseille","lat":43.30414,"lon":5.39754,"is_reserved":false,"is_disabled":false,"rental_uris":{"android":"levelo://app?vid=6b974a3e-1b38-4efc-bb62-c8ce9b3809b9","ios":"levelo://app?vid=6b974a3e-1b38-4efc-bb62-c8ce9b3809b9"},"vehicle_type_id":"4","last_reported":1759165762,"current_range_meters":8000,"station_id":"ce4bh092rcd13ifvqd20","pricing_plan_id":"cebpf4jnsgd1na2vs0mg"},{"bike_id":"6eeea41b-aa60-4f14-a3fb-55ba3b641da2","system_id":"levelo_inurba_marseille","lat":43.29863,"lon":5.38927,"is_reserved":false,"is_disabled":true,"rental_uris":{"android":"levelo://app?vid=6eeea41b-aa60-4f14-a3fb-55ba3b641da2","ios":"levelo://app?vid=6eeea41b-aa60-4f14-a3fb-55ba3b641da2"},"vehicle_type_id":"4","last_reported":1759165762,"current_range_meters":8000,"station_id":"ce4bh392rcd13ifvqdl0","pricing_plan_id":"cebpf4jnsgd1na2vs0mg"},{"bike_id":"2c6518be-b3f0-42d2-93c9-c1de9e54885f","system_id":"levelo_inurba_marseille","lat":43.29227,"lon":5.38219,"is_reserved":false,"is_disabled":false,"rental_uris":{"android":"levelo://app?vid=2c6518be-b3f0-42d2-93c9-c1de9e54885f","ios":"levelo://app?vid=2c6518be-b3f0-42d2-93c9-c1de9e54885f"},"vehicle_type_id":"4","last_reported":1759165762,"current_range_meters":8400,"station_id":"","pricing_plan_id":"cebpf4jnsgd1na2vs0mg"},{"bike_id":"34503df2-d71d-42e4-b8c8-08eb4c062de1","system_id":"levelo_inurba_marseille","lat":43.29199,"lon":5.39315,"is_reserved":false,"is_disabled":false,"rental_uris":{"android":"levelo://app?vid=34503df2-d71d-42e4-b8c8-08eb4c062de1","ios":"levelo://app?vid=34503df2-d71d-42e4-b8c8-08eb4c062de1"},"vehicle_type_id":"4","last_reported":1759165762,"current_range_meters":8400,"station_id":"ce4bh192rcd13ifvqdd0","pricing_plan_id":"cebpf4jnsgd1na2vs0mg"},{"bike_id":"ee96a502-9b76-492e-840a-498b02aefe72","system_id":"levelo_inurba_marseille","lat":43.32355,"lon":5.39217,"is_reserved":false,"is_disabled":false,"rental_uris":{"android":"levelo://app?vid=ee96a502-9b76-492e-840a-498b02aefe72","ios":"levelo://app?vid=ee96a502-9b76-492e-840a-498b02aefe72"},"vehicle_type_id":"4","last_reported":1759165762,"current_range_meters":8400,"station_id":"","pricing_plan_id":"cebpf4jnsgd1na2vs0mg"},{"bike_id":"511cc80f-04a6-4a9f-afdd-004129d93b1f","system_id":"levelo_inurba_marseille","lat":43.26617,"lon":5.39378,"is_reserved":false,"is_disabled":false,"rental_uris":{"android":"levelo://app?vid=511cc80f-04a6-4a9f-afdd-004129d93b1f","ios":"levelo://app?vid=511cc80f-04a6-4a9f-afdd-004129d93b1f"},"vehicle_type_id":"4","last_reported":1759165762,"current_range_meters":8400,"station_id":"","pricing_plan_id":"cebpf4jnsgd1na2vs0mg"},{"bike_id":"d7794779-f682-4307-94fd-0a6add566ca9","system_id":"levelo_inurba_marseille","lat":43.32328,"lon":5.40657,"is_reserved":false,"is_disabled":false,"rental_uris":{"android":"levelo://app?vid=d7794779-f682-4307-94fd-0a6add566ca9","ios":"levelo://app?vid=d7794779-f682-4307-94fd-0a6add566ca9"},"vehicle_type_id":"4","last_reported":1759165762,"current_range_meters":8400,"station_id":"ce4bhq92rcd13ifvqhjg","pricing_plan_id":"cebpf4jnsgd1na2vs0mg"},{"bike_id":"da0f26e9-0bdb-4063-b9f5-dcfb6728a88e","system_id":"levelo_inurba_marseille","lat":43.229284,"lon":5.353815,"is_reserved":false,"is_disabled":true,"rental_uris":{"android":"levelo://app?vid=da0f26e9-0bdb-4063-b9f5-dcfb6728a88e","ios":"levelo://app?vid=da0f26e9-0bdb-4063-b9f5-dcfb6728a88e"},"vehicle_type_id":"4","last_reported":1759165762,"current_range_meters":8400,"station_id":"cpo3532slgdg3j2ikp40","pricing_plan_id":"cebpf4jnsgd1na2vs0mg"},{"bike_id":"03350417-1098-4d6c-b8fe-9e64358744bf","system_id":"levelo_inurba_marseille","lat":43.31073,"lon":5.37729,"is_reserved":false,"is_disabled":false,"rental_uris":{"android":"levelo://app?vid=03350417-1098-4d6c-b8fe-9e64358744bf","ios":"levelo://app?vid=03350417-1098-4d6c-b8fe-9e64358744bf"},"vehicle_type_id":"4","last_reported":1759165762,"current_range_meters":8400,"station_id":"","pricing_plan_id":"cebpf4jnsgd1na2vs0mg"},{"bike_id":"48b6f2c1-c6fc-40d5-9daa-e019f96bb550","system_id":"levelo_inurba_marseille","lat":43.26806,"lon":5.40277,"is_reserved":false,"is_disabled":false,"rental_uris":{"android":"levelo://app?vid=48b6f2c1-c6fc-40d5-9daa-e019f96bb550","ios":"levelo://app?vid=48b6f2c1-c6fc-40d5-9daa-e019f96bb550"},"vehicle_type_id":"4","last_reported":1759165762,"current_range_meters":8400,"station_id":"ce501612rcd8frsf0b60","pricing_plan_id":"cebpf4jnsgd1na2vs0mg"},{"bike_id":"1dad2113-89e2-44fc-a0b6-ddd6a09baff1","system_id":"levelo_inurba_marseille","lat":43.337444,"lon":5.374475,"is_reserved":false,"is_disabled":false,"rental_uris":{"android":"levelo://app?vid=1dad2113-89e2-44fc-a0b6-ddd6a09baff1","ios":"levelo://app?vid=1dad2113-89e2-44fc-a0b6-ddd6a09baff1"},"vehicle_type_id":"4","last_reported":1759165762,"current_range_meters":8400,"station_id":"","pricing_plan_id":"cebpf4jnsgd1na2vs0mg"},{"bike_id":"ec44e2b9-465a-4ca9-9ae1-28ea8bcf3960","system_id":"levelo_inurba_marseille","lat":43.30426,"lon":5.38887,"is_reserved":false,"is_disabled":false,"rental_uris":{"android":"levelo://app?vid=ec44e2b9-465a-4ca9-9ae1-28ea8bcf3960","ios":"levelo://app?vid=ec44e2b9-465a-4ca9-9ae1-28ea8bcf3960"},"vehicle_type_id":"4","last_reported":1759165762,"current_range_meters":8800,"station_id":"ce4bgk12rcd13ifvqbi0","pricing_plan_id":"cebpf4jnsgd1na2vs0mg"},{"bike_id":"815fa209-d2d2-4aac-8987-479d7dbeedf8","system_id":"levelo_inurba_marseille","lat":43.24634,"lon":5.43154,"is_reserved":false,"is_disabled":false,"rental_uris":{"android":"levelo://app?vid=815fa209-d2d2-4aac-8987-479d7dbeedf8","ios":"levelo://app?vid=815fa209-d2d2-4aac-8987-479d7dbeedf8"},"vehicle_type_id":"4","last_reported":1759165762,"current_range_meters":8800,"station_id":"st_d2m6c4gdas8pm72e190g","pricing_plan_id":"cebpf4jnsgd1na2vs0mg"},{"bike_id":"6444e31e-fa9a-411c-b345-04ba3851ad74","system_id":"levelo_inurba_marseille","lat":43.338344,"lon":5.405923,"is_reserved":false,"is_disabled":false,"rental_uris":{"android":"levelo://app?vid=6444e31e-fa9a-411c-b345-04ba3851ad74","ios":"levelo://app?vid=6444e31e-fa9a-411c-b345-04ba3851ad74"},"vehicle_type_id":"4","last_reported":1759165762,"current_range_meters":8800,"station_id":"ce4bhqh2rcd13ifvqhmg","pricing_plan_id":"cebpf4jnsgd1na2vs0mg"},{"bike_id":"ea12a726-0d19-4734-8cf6-5c4ec27cd912","system_id":"levelo_inurba_marseille","lat":43.29524,"lon":5.38561,"is_reserved":false,"is_disabled":false,"rental_uris":{"android":"levelo://app?vid=ea12a726-0d19-4734-8cf6-5c4ec27cd912","ios":"levelo://app?vid=ea12a726-0d19-4734-8cf6-5c4ec27cd912"},"vehicle_type_id":"4","last_reported":1759165762,"current_range_meters":8800,"station_id":"ce4bgih2rcd13ifvqba0","pricing_plan_id":"cebpf4jnsgd1na2vs0mg"},{"bike_id":"d35f9847-905a-4e44-86ed-6317c043e421","system_id":"levelo_inurba_marseille","lat":43.26792,"lon":5.3941,"is_reserved":false,"is_disabled":false,"rental_uris":{"android":"levelo://app?vid=d35f9847-905a-4e44-86ed-6317c043e421","ios":"levelo://app?vid=d35f9847-905a-4e44-86ed-6317c043e421"},"vehicle_type_id":"4","last_reported":1759165762,"current_range_meters":8800,"station_id":"ce4bhh12rcd13ifvqfg0","pricing_plan_id":"cebpf4jnsgd1na2vs0mg"},{"bike_id":"363c8ab2-c6a0-4231-8ab7-4eae081a9cc9","system_id":"levelo_inurba_marseille","lat":43.33601,"lon":5.41035,"is_reserved":false,"is_disabled":false,"rental_uris":{"android":"levelo://app?vid=363c8ab2-c6a0-4231-8ab7-4eae081a9cc9","ios":"levelo://app?vid=363c8ab2-c6a0-4231-8ab7-4eae081a9cc9"},"vehicle_type_id":"4","last_reported":1759165762,"current_range_meters":8800,"station_id":"ce4bhqh2rcd13ifvqhmg","pricing_plan_id":"cebpf4jnsgd1na2vs0mg"},{"bike_id":"b8921f49-6aa9-413e-aee3-3ce60fab2fbd","system_id":"levelo_inurba_marseille","lat":43.29376,"lon":5.37835,"is_reserved":false,"is_disabled":false,"rental_uris":{"android":"levelo://app?vid=b8921f49-6aa9-413e-aee3-3ce60fab2fbd","ios":"levelo://app?vid=b8921f49-6aa9-413e-aee3-3ce60fab2fbd"},"vehicle_type_id":"4","last_reported":1759165762,"current_range_meters":8800,"station_id":"ce4bgjh2rcd13ifvqbf0","pricing_plan_id":"cebpf4jnsgd1na2vs0mg"},{"bike_id":"7b9c186b-5347-413a-847a-c991c9baf3a8","system_id":"levelo_inurba_marseille","lat":43.29205,"lon":5.39312,"is_reserved":false,"is_disabled":false,"rental_uris":{"android":"levelo://app?vid=7b9c186b-5347-413a-847a-c991c9baf3a8","ios":"levelo://app?vid=7b9c186b-5347-413a-847a-c991c9baf3a8"},"vehicle_type_id":"4","last_reported":1759165762,"current_range_meters":8800,"station_id":"ce4bh192rcd13ifvqdd0","pricing_plan_id":"cebpf4jnsgd1na2vs0mg"},{"bike_id":"67590a5a-8c78-426b-8764-53c8dd4a940b","system_id":"levelo_inurba_marseille","lat":43.28405,"lon":5.3501,"is_reserved":false,"is_disabled":false,"rental_uris":{"android":"levelo://app?vid=67590a5a-8c78-426b-8764-53c8dd4a940b","ios":"levelo://app?vid=67590a5a-8c78-426b-8764-53c8dd4a940b"},"vehicle_type_id":"4","last_reported":1759165762,"current_range_meters":8800,"station_id":"ce4bhbh2rcd13ifvqepg","pricing_plan_id":"cebpf4jnsgd1na2vs0mg"},{"bike_id":"445e3652-5328-445e-b8b2-8da2881b5983","system_id":"levelo_inurba_marseille","lat":43.30244,"lon":5.39438,"is_reserved":false,"is_disabled":false,"rental_uris":{"android":"levelo://app?vid=445e3652-5328-445e-b8b2-8da2881b5983","ios":"levelo://app?vid=445e3652-5328-445e-b8b2-8da2881b5983"},"vehicle_type_id":"4","last_reported":1759165762,"current_range_meters":8800,"station_id":"ce4bh0p2rcd13ifvqd70","pricing_plan_id":"cebpf4jnsgd1na2vs0mg"},{"bike_id":"ce59f9ec-42af-46b2-9013-3af26a13a794","system_id":"levelo_inurba_marseille","lat":43.30241,"lon":5.40059,"is_reserved":false,"is_disabled":false,"rental_uris":{"android":"levelo://app?vid=ce59f9ec-42af-46b2-9013-3af26a13a794","ios":"levelo://app?vid=ce59f9ec-42af-46b2-9013-3af26a13a794"},"vehicle_type_id":"4","last_reported":1759165762,"current_range_meters":9200,"station_id":"ce4bgvh2rcd13ifvqcs0","pricing_plan_id":"cebpf4jnsgd1na2vs0mg"},{"bike_id":"c470f6c4-797b-4efa-b126-5b04e7726667","system_id":"levelo_inurba_marseille","lat":43.24067,"lon":5.37769,"is_reserved":false,"is_disabled":false,"rental_uris":{"android":"levelo://app?vid=c470f6c4-797b-4efa-b126-5b04e7726667","ios":"levelo://app?vid=c470f6c4-797b-4efa-b126-5b04e7726667"},"vehicle_type_id":"4","last_reported":1759165762,"current_range_meters":9200,"station_id":"ce4bhnp2rcd13ifvqgvg","pricing_plan_id":"cebpf4jnsgd1na2vs0mg"},{"bike_id":"03e38958-02d9-431c-aa26-c4e1013a7cf3","system_id":"levelo_inurba_marseille","lat":43.28871,"lon":5.42511,"is_reserved":false,"is_disabled":false,"rental_uris":{"android":"levelo://app?vid=03e38958-02d9-431c-aa26-c4e1013a7cf3","ios":"levelo://app?vid=03e38958-02d9-431c-aa26-c4e1013a7cf3"},"vehicle_type_id":"4","last_reported":1759165762,"current_range_meters":9200,"station_id":"st_d3b462108ojc7389ooeg","pricing_plan_id":"cebpf4jnsgd1na2vs0mg"},{"bike_id":"8e4f84b2-d2d5-46e4-87a7-897278107144","system_id":"levelo_inurba_marseille","lat":43.287232,"lon":5.360886,"is_reserved":false,"is_disabled":false,"rental_uris":{"android":"levelo://app?vid=8e4f84b2-d2d5-46e4-87a7-897278107144","ios":"levelo://app?vid=8e4f84b2-d2d5-46e4-87a7-897278107144"},"vehicle_type_id":"4","last_reported":1759165762,"current_range_meters":9200,"station_id":"cki0cbj6b192h4jlfktg","pricing_plan_id":"cebpf4jnsgd1na2vs0mg"},{"bike_id":"b3928240-3932-4346-837b-31c0f7678028","system_id":"levelo_inurba_marseille","lat":43.29268,"lon":5.38443,"is_reserved":false,"is_disabled":false,"rental_uris":{"android":"levelo://app?vid=b3928240-3932-4346-837b-31c0f7678028","ios":"levelo://app?vid=b3928240-3932-4346-837b-31c0f7678028"},"vehicle_type_id":"4","last_reported":1759165762,"current_range_meters":9200,"station_id":"ce4bh692rcd13ifvqea0","pricing_plan_id":"cebpf4jnsgd1na2vs0mg"},{"bike_id":"e5378695-fba9-432a-9cfb-3b5b05e40fec","system_id":"levelo_inurba_marseille","lat":43.337986,"lon":5.374304,"is_reserved":false,"is_disabled":false,"rental_uris":{"android":"levelo://app?vid=e5378695-fba9-432a-9cfb-3b5b05e40fec","ios":"levelo://app?vid=e5378695-fba9-432a-9cfb-3b5b05e40fec"},"vehicle_type_id":"4","last_reported":1759165762,"current_range_meters":9200,"station_id":"","pricing_plan_id":"cebpf4jnsgd1na2vs0mg"},{"bike_id":"c47f5c3e-1ff3-43b7-b740-1c081ef57305","system_id":"levelo_inurba_marseille","lat":43.29647,"lon":5.376,"is_reserved":false,"is_disabled":false,"rental_uris":{"android":"levelo://app?vid=c47f5c3e-1ff3-43b7-b740-1c081ef57305","ios":"levelo://app?vid=c47f5c3e-1ff3-43b7-b740-1c081ef57305"},"vehicle_type_id":"4","last_reported":1759165762,"current_range_meters":9600,"station_id":"","pricing_plan_id":"cebpf4jnsgd1na2vs0mg"},{"bike_id":"81040f40-f219-4b98-b65c-e680fd4c0ed7","system_id":"levelo_inurba_marseille","lat":43.31076,"lon":5.38354,"is_reserved":false,"is_disabled":false,"rental_uris":{"android":"levelo://app?vid=81040f40-f219-4b98-b65c-e680fd4c0ed7","ios":"levelo://app?vid=81040f40-f219-4b98-b65c-e680fd4c0ed7"},"vehicle_type_id":"4","last_reported":1759165762,"current_range_meters":9600,"station_id":"ce4bgv92rcd13ifvqcr0","pricing_plan_id":"cebpf4jnsgd1na2vs0mg"},{"bike_id":"d7d09523-34bb-44d2-9695-02f0abea9b47","system_id":"levelo_inurba_marseille","lat":43.29747,"lon":5.37891,"is_reserved":false,"is_disabled":false,"rental_uris":{"android":"levelo://app?vid=d7d09523-34bb-44d2-9695-02f0abea9b47","ios":"levelo://app?vid=d7d09523-34bb-44d2-9695-02f0abea9b47"},"vehicle_type_id":"4","last_reported":1759165762,"current_range_meters":9600,"station_id":"","pricing_plan_id":"cebpf4jnsgd1na2vs0mg"},{"bike_id":"35e8f722-b82a-4247-beb8-7e2827829ce6","system_id":"levelo_inurba_marseille","lat":43.32405,"lon":5.3911,"is_reserved":false,"is_disabled":false,"rental_uris":{"android":"levelo://app?vid=35e8f722-b82a-4247-beb8-7e2827829ce6","ios":"levelo://app?vid=35e8f722-b82a-4247-beb8-7e2827829ce6"},"vehicle_type_id":"4","last_reported":1759165762,"current_range_meters":9600,"station_id":"","pricing_plan_id":"cebpf4jnsgd1na2vs0mg"},{"bike_id":"45cd9e73-8786-4978-9923-6422323a7327","system_id":"levelo_inurba_marseille","lat":43.255793,"lon":5.382281,"is_reserved":false,"is_disabled":false,"rental_uris":{"android":"levelo://app?vid=45cd9e73-8786-4978-9923-6422323a7327","ios":"levelo://app?vid=45cd9e73-8786-4978-9923-6422323a7327"},"vehicle_type_id":"4","last_reported":1759165762,"current_range_meters":9600,"station_id":"ce4bhih2rcd13ifvqfs0","pricing_plan_id":"cebpf4jnsgd1na2vs0mg"},{"bike_id":"93889a7b-8fe0-4254-be32-b28d5968f6c1","system_id":"levelo_inurba_marseille","lat":43.28679,"lon":5.38663,"is_reserved":false,"is_disabled":false,"rental_uris":{"android":"levelo://app?vid=93889a7b-8fe0-4254-be32-b28d5968f6c1","ios":"levelo://app?vid=93889a7b-8fe0-4254-be32-b28d5968f6c1"},"vehicle_type_id":"4","last_reported":1759165762,"current_range_meters":9200,"station_id":"ce4bh492rcd13ifvqdug","pricing_plan_id":"cebpf4jnsgd1na2vs0mg"},{"bike_id":"bc2baf4d-7c3f-4d8d-ac63-734ebec21f48","system_id":"levelo_inurba_marseille","lat":43.31321,"lon":5.39702,"is_reserved":false,"is_disabled":false,"rental_uris":{"android":"levelo://app?vid=bc2baf4d-7c3f-4d8d-ac63-734ebec21f48","ios":"levelo://app?vid=bc2baf4d-7c3f-4d8d-ac63-734ebec21f48"},"vehicle_type_id":"4","last_reported":1759165762,"current_range_meters":9600,"station_id":"ce4bgvp2rcd13ifvqcu0","pricing_plan_id":"cebpf4jnsgd1na2vs0mg"},{"bike_id":"e400a964-f43b-4b1c-9e54-4d580e694f8d","system_id":"levelo_inurba_marseille","lat":43.26939,"lon":5.40254,"is_reserved":false,"is_disabled":false,"rental_uris":{"android":"levelo://app?vid=e400a964-f43b-4b1c-9e54-4d580e694f8d","ios":"levelo://app?vid=e400a964-f43b-4b1c-9e54-4d580e694f8d"},"vehicle_type_id":"4","last_reported":1759165762,"current_range_meters":9600,"station_id":"cjm6bp8fraef2m0cb0m0","pricing_plan_id":"cebpf4jnsgd1na2vs0mg"},{"bike_id":"2d12fb5c-d3c8-42aa-843d-f6af6f3ea3fb","system_id":"levelo_inurba_marseille","lat":43.25502,"lon":5.37654,"is_reserved":false,"is_disabled":false,"rental_uris":{"android":"levelo://app?vid=2d12fb5c-d3c8-42aa-843d-f6af6f3ea3fb","ios":"levelo://app?vid=2d12fb5c-d3c8-42aa-843d-f6af6f3ea3fb"},"vehicle_type_id":"4","last_reported":1759165762,"current_range_meters":9600,"station_id":"ce4bhh12rcd13ifvqff0","pricing_plan_id":"cebpf4jnsgd1na2vs0mg"},{"bike_id":"731e8fa4-5c3d-44ce-bc4f-edfc24ee1f1c","system_id":"levelo_inurba_marseille","lat":43.32478,"lon":5.36567,"is_reserved":false,"is_disabled":false,"rental_uris":{"android":"levelo://app?vid=731e8fa4-5c3d-44ce-bc4f-edfc24ee1f1c","ios":"levelo://app?vid=731e8fa4-5c3d-44ce-bc4f-edfc24ee1f1c"},"vehicle_type_id":"4","last_reported":1759165762,"current_range_meters":10000,"station_id":"ce4bhs12rcd13ifvqhvg","pricing_plan_id":"cebpf4jnsgd1na2vs0mg"},{"bike_id":"2698c3c3-4f41-480c-b3bd-bf477fd82bf2","system_id":"levelo_inurba_marseille","lat":43.28698,"lon":5.37389,"is_reserved":false,"is_disabled":false,"rental_uris":{"android":"levelo://app?vid=2698c3c3-4f41-480c-b3bd-bf477fd82bf2","ios":"levelo://app?vid=2698c3c3-4f41-480c-b3bd-bf477fd82bf2"},"vehicle_type_id":"4","last_reported":1759165762,"current_range_meters":10000,"station_id":"ce4bh3p2rcd13ifvqdq0","pricing_plan_id":"cebpf4jnsgd1na2vs0mg"},{"bike_id":"a46c9749-d60b-4f2b-b7ee-f2fe7e03ca5c","system_id":"levelo_inurba_marseille","lat":43.29566,"lon":5.37518,"is_reserved":false,"is_disabled":false,"rental_uris":{"android":"levelo://app?vid=a46c9749-d60b-4f2b-b7ee-f2fe7e03ca5c","ios":"levelo://app?vid=a46c9749-d60b-4f2b-b7ee-f2fe7e03ca5c"},"vehicle_type_id":"4","last_reported":1759165762,"current_range_meters":10000,"station_id":"ce4bgh92rcd13ifvqb50","pricing_plan_id":"cebpf4jnsgd1na2vs0mg"},{"bike_id":"4eb905aa-c580-41eb-b375-7b7cdd7e1b57","system_id":"levelo_inurba_marseille","lat":43.29376,"lon":5.37854,"is_reserved":false,"is_disabled":false,"rental_uris":{"android":"levelo://app?vid=4eb905aa-c580-41eb-b375-7b7cdd7e1b57","ios":"levelo://app?vid=4eb905aa-c580-41eb-b375-7b7cdd7e1b57"},"vehicle_type_id":"4","last_reported":1759165762,"current_range_meters":10000,"station_id":"ce4bgjh2rcd13ifvqbf0","pricing_plan_id":"cebpf4jnsgd1na2vs0mg"},{"bike_id":"cad78ddf-8ee2-4eb0-a641-a7f11cad1edc","system_id":"levelo_inurba_marseille","lat":43.26027,"lon":5.37557,"is_reserved":false,"is_disabled":false,"rental_uris":{"android":"levelo://app?vid=cad78ddf-8ee2-4eb0-a641-a7f11cad1edc","ios":"levelo://app?vid=cad78ddf-8ee2-4eb0-a641-a7f11cad1edc"},"vehicle_type_id":"4","last_reported":1759165762,"current_range_meters":10000,"station_id":"ce4bhgh2rcd13ifvqfa0","pricing_plan_id":"cebpf4jnsgd1na2vs0mg"},{"bike_id":"8faf05c5-98e8-4a70-8643-75391f3c180e","system_id":"levelo_inurba_marseille","lat":43.25086,"lon":5.39525,"is_reserved":false,"is_disabled":false,"rental_uris":{"android":"levelo://app?vid=8faf05c5-98e8-4a70-8643-75391f3c180e","ios":"levelo://app?vid=8faf05c5-98e8-4a70-8643-75391f3c180e"},"vehicle_type_id":"4","last_reported":1759165762,"current_range_meters":10800,"station_id":"ce4bhm12rcd13ifvqgkg","pricing_plan_id":"cebpf4jnsgd1na2vs0mg"},{"bike_id":"8013e2da-75dd-4b87-b08b-f2320a60d812","system_id":"levelo_inurba_marseille","lat":43.28395,"lon":5.3755,"is_reserved":false,"is_disabled":false,"rental_uris":{"android":"levelo://app?vid=8013e2da-75dd-4b87-b08b-f2320a60d812","ios":"levelo://app?vid=8013e2da-75dd-4b87-b08b-f2320a60d812"},"vehicle_type_id":"4","last_reported":1759165762,"current_range_meters":11200,"station_id":"ce4bh412rcd13ifvqds0","pricing_plan_id":"cebpf4jnsgd1na2vs0mg"},{"bike_id":"678ae2a3-6376-41d9-85c2-7835cb1c061b","system_id":"levelo_inurba_marseille","lat":43.28857,"lon":5.42524,"is_reserved":false,"is_disabled":false,"rental_uris":{"android":"levelo://app?vid=678ae2a3-6376-41d9-85c2-7835cb1c061b","ios":"levelo://app?vid=678ae2a3-6376-41d9-85c2-7835cb1c061b"},"vehicle_type_id":"4","last_reported":1759165762,"current_range_meters":10800,"station_id":"st_d3b462108ojc7389ooeg","pricing_plan_id":"cebpf4jnsgd1na2vs0mg"},{"bike_id":"66f109bf-cdcb-407a-8b87-b189f65907a0","system_id":"levelo_inurba_marseille","lat":43.29171,"lon":5.37154,"is_reserved":false,"is_disabled":false,"rental_uris":{"android":"levelo://app?vid=66f109bf-cdcb-407a-8b87-b189f65907a0","ios":"levelo://app?vid=66f109bf-cdcb-407a-8b87-b189f65907a0"},"vehicle_type_id":"4","last_reported":1759165762,"current_range_meters":10800,"station_id":"ce4bha92rcd13ifvqeh0","pricing_plan_id":"cebpf4jnsgd1na2vs0mg"},{"bike_id":"d6c734f5-0e13-46a8-8e3e-fda40abe4b7d","system_id":"levelo_inurba_marseille","lat":43.302139,"lon":5.394708,"is_reserved":false,"is_disabled":true,"rental_uris":{"android":"levelo://app?vid=d6c734f5-0e13-46a8-8e3e-fda40abe4b7d","ios":"levelo://app?vid=d6c734f5-0e13-46a8-8e3e-fda40abe4b7d"},"vehicle_type_id":"4","last_reported":1759165762,"current_range_meters":10800,"station_id":"ce4bhgh2rcd13ifvqfa0","pricing_plan_id":"cebpf4jnsgd1na2vs0mg"},{"bike_id":"80b98ce0-3233-47ce-84db-722943723d1e","system_id":"levelo_inurba_marseille","lat":43.269329,"lon":5.38928,"is_reserved":false,"is_disabled":false,"rental_uris":{"android":"levelo://app?vid=80b98ce0-3233-47ce-84db-722943723d1e","ios":"levelo://app?vid=80b98ce0-3233-47ce-84db-722943723d1e"},"vehicle_type_id":"4","last_reported":1759165762,"current_range_meters":10800,"station_id":"","pricing_plan_id":"cebpf4jnsgd1na2vs0mg"},{"bike_id":"7a054fb0-220a-4dc6-862c-708fa78eed32","system_id":"levelo_inurba_marseille","lat":43.29802,"lon":5.38103,"is_reserved":false,"is_disabled":false,"rental_uris":{"android":"levelo://app?vid=7a054fb0-220a-4dc6-862c-708fa78eed32","ios":"levelo://app?vid=7a054fb0-220a-4dc6-862c-708fa78eed32"},"vehicle_type_id":"4","last_reported":1759165762,"current_range_meters":10800,"station_id":"ce4bgip2rcd13ifvqbb0","pricing_plan_id":"cebpf4jnsgd1na2vs0mg"},{"bike_id":"9c4235da-d3d0-4056-aa6b-c6aa6e8e7367","system_id":"levelo_inurba_marseille","lat":43.30683,"lon":5.37514,"is_reserved":false,"is_disabled":false,"rental_uris":{"android":"levelo://app?vid=9c4235da-d3d0-4056-aa6b-c6aa6e8e7367","ios":"levelo://app?vid=9c4235da-d3d0-4056-aa6b-c6aa6e8e7367"},"vehicle_type_id":"4","last_reported":1759165762,"current_range_meters":10800,"station_id":"","pricing_plan_id":"cebpf4jnsgd1na2vs0mg"},{"bike_id":"cce7b52f-f1a4-4e15-addc-b988d01be1d6","system_id":"levelo_inurba_marseille","lat":43.26953,"lon":5.38638,"is_reserved":false,"is_disabled":false,"rental_uris":{"android":"levelo://app?vid=cce7b52f-f1a4-4e15-addc-b988d01be1d6","ios":"levelo://app?vid=cce7b52f-f1a4-4e15-addc-b988d01be1d6"},"vehicle_type_id":"4","last_reported":1759165762,"current_range_meters":10800,"station_id":"ce4bhh92rcd13ifvqfh0","pricing_plan_id":"cebpf4jnsgd1na2vs0mg"},{"bike_id":"ee6406f7-9f33-4935-a835-0f3904e54bc4","system_id":"levelo_inurba_marseille","lat":43.31875,"lon":5.37317,"is_reserved":false,"is_disabled":true,"rental_uris":{"android":"levelo://app?vid=ee6406f7-9f33-4935-a835-0f3904e54bc4","ios":"levelo://app?vid=ee6406f7-9f33-4935-a835-0f3904e54bc4"},"vehicle_type_id":"4","last_reported":1759165762,"current_range_meters":11200,"station_id":"ce4bgt12rcd13ifvqcd0","pricing_plan_id":"cebpf4jnsgd1na2vs0mg"},{"bike_id":"8605f578-b37d-4c6b-a903-44c7fa521d01","system_id":"levelo_inurba_marseille","lat":43.255791,"lon":5.382291,"is_reserved":false,"is_disabled":false,"rental_uris":{"android":"levelo://app?vid=8605f578-b37d-4c6b-a903-44c7fa521d01","ios":"levelo://app?vid=8605f578-b37d-4c6b-a903-44c7fa521d01"},"vehicle_type_id":"4","last_reported":1759165762,"current_range_meters":11200,"station_id":"ce4bhih2rcd13ifvqfs0","pricing_plan_id":"cebpf4jnsgd1na2vs0mg"},{"bike_id":"aef85ac8-3cc3-470b-b00d-6df3b291f9d5","system_id":"levelo_inurba_marseille","lat":43.32657,"lon":5.41003,"is_reserved":false,"is_disabled":false,"rental_uris":{"android":"levelo://app?vid=aef85ac8-3cc3-470b-b00d-6df3b291f9d5","ios":"levelo://app?vid=aef85ac8-3cc3-470b-b00d-6df3b291f9d5"},"vehicle_type_id":"4","last_reported":1759165762,"current_range_meters":11200,"station_id":"ce4bhpp2rcd13ifvqhgg","pricing_plan_id":"cebpf4jnsgd1na2vs0mg"},{"bike_id":"ad36ad91-5b1b-4105-ac4a-6bb7f9760b47","system_id":"levelo_inurba_marseille","lat":43.232,"lon":5.39975,"is_reserved":false,"is_disabled":false,"rental_uris":{"android":"levelo://app?vid=ad36ad91-5b1b-4105-ac4a-6bb7f9760b47","ios":"levelo://app?vid=ad36ad91-5b1b-4105-ac4a-6bb7f9760b47"},"vehicle_type_id":"4","last_reported":1759165762,"current_range_meters":11200,"station_id":"ce4bhn12rcd13ifvqgqg","pricing_plan_id":"cebpf4jnsgd1na2vs0mg"},{"bike_id":"3709b9e3-4a09-4426-bee0-6bbd86158ef8","system_id":"levelo_inurba_marseille","lat":43.27944,"lon":5.41048,"is_reserved":false,"is_disabled":false,"rental_uris":{"android":"levelo://app?vid=3709b9e3-4a09-4426-bee0-6bbd86158ef8","ios":"levelo://app?vid=3709b9e3-4a09-4426-bee0-6bbd86158ef8"},"vehicle_type_id":"4","last_reported":1759165762,"current_range_meters":11200,"station_id":"ce4bhnp2rcd13ifvqh0g","pricing_plan_id":"cebpf4jnsgd1na2vs0mg"},{"bike_id":"54947219-ab18-4be3-ba5a-5d32a6bc2824","system_id":"levelo_inurba_marseille","lat":43.26054,"lon":5.39411,"is_reserved":false,"is_disabled":false,"rental_uris":{"android":"levelo://app?vid=54947219-ab18-4be3-ba5a-5d32a6bc2824","ios":"levelo://app?vid=54947219-ab18-4be3-ba5a-5d32a6bc2824"},"vehicle_type_id":"4","last_reported":1759165762,"current_range_meters":11200,"station_id":"ce4bhh92rcd13ifvqfj0","pricing_plan_id":"cebpf4jnsgd1na2vs0mg"},{"bike_id":"609b6340-fbc8-4690-a321-d41165ffc27b","system_id":"levelo_inurba_marseille","lat":43.27073,"lon":5.42284,"is_reserved":false,"is_disabled":false,"rental_uris":{"android":"levelo://app?vid=609b6340-fbc8-4690-a321-d41165ffc27b","ios":"levelo://app?vid=609b6340-fbc8-4690-a321-d41165ffc27b"},"vehicle_type_id":"4","last_reported":1759165762,"current_range_meters":11200,"station_id":"ce4bhk92rcd13ifvqgb0","pricing_plan_id":"cebpf4jnsgd1na2vs0mg"},{"bike_id":"75ae96d9-a98b-41da-ace8-6c40748272ff","system_id":"levelo_inurba_marseille","lat":43.30149,"lon":5.39842,"is_reserved":false,"is_disabled":false,"rental_uris":{"android":"levelo://app?vid=75ae96d9-a98b-41da-ace8-6c40748272ff","ios":"levelo://app?vid=75ae96d9-a98b-41da-ace8-6c40748272ff"},"vehicle_type_id":"4","last_reported":1759165762,"current_range_meters":11200,"station_id":"ce4bh0h2rcd13ifvqd40","pricing_plan_id":"cebpf4jnsgd1na2vs0mg"},{"bike_id":"8c0227e3-55e8-4994-aa0c-9b6ee99b7e26","system_id":"levelo_inurba_marseille","lat":43.23056,"lon":5.35494,"is_reserved":false,"is_disabled":false,"rental_uris":{"android":"levelo://app?vid=8c0227e3-55e8-4994-aa0c-9b6ee99b7e26","ios":"levelo://app?vid=8c0227e3-55e8-4994-aa0c-9b6ee99b7e26"},"vehicle_type_id":"4","last_reported":1759165762,"current_range_meters":11600,"station_id":"cpo3342slgdg3j2ifvpg","pricing_plan_id":"cebpf4jnsgd1na2vs0mg"},{"bike_id":"00653242-c78a-42e8-bec5-09a00ef9a1b5","system_id":"levelo_inurba_marseille","lat":43.26558,"lon":5.37287,"is_reserved":false,"is_disabled":false,"rental_uris":{"android":"levelo://app?vid=00653242-c78a-42e8-bec5-09a00ef9a1b5","ios":"levelo://app?vid=00653242-c78a-42e8-bec5-09a00ef9a1b5"},"vehicle_type_id":"4","last_reported":1759165762,"current_range_meters":11600,"station_id":"ce4bhg12rcd13ifvqf70","pricing_plan_id":"cebpf4jnsgd1na2vs0mg"},{"bike_id":"4868eaad-af1f-4aa3-9fc6-17cc88df4e59","system_id":"levelo_inurba_marseille","lat":43.24947,"lon":5.4049,"is_reserved":false,"is_disabled":false,"rental_uris":{"android":"levelo://app?vid=4868eaad-af1f-4aa3-9fc6-17cc88df4e59","ios":"levelo://app?vid=4868eaad-af1f-4aa3-9fc6-17cc88df4e59"},"vehicle_type_id":"4","last_reported":1759165762,"current_range_meters":11600,"station_id":"st_d2ngiaodas8pm72gd1h0","pricing_plan_id":"cebpf4jnsgd1na2vs0mg"},{"bike_id":"1a20d2f7-2b1b-4b04-beee-a6096e588d43","system_id":"levelo_inurba_marseille","lat":43.28702,"lon":5.3999,"is_reserved":false,"is_disabled":false,"rental_uris":{"android":"levelo://app?vid=1a20d2f7-2b1b-4b04-beee-a6096e588d43","ios":"levelo://app?vid=1a20d2f7-2b1b-4b04-beee-a6096e588d43"},"vehicle_type_id":"4","last_reported":1759165762,"current_range_meters":11600,"station_id":"ce4bho92rcd13ifvqh3g","pricing_plan_id":"cebpf4jnsgd1na2vs0mg"},{"bike_id":"10176dad-e77f-4f18-8cea-556decfc72aa","system_id":"levelo_inurba_marseille","lat":43.21764,"lon":5.34608,"is_reserved":false,"is_disabled":false,"rental_uris":{"android":"levelo://app?vid=10176dad-e77f-4f18-8cea-556decfc72aa","ios":"levelo://app?vid=10176dad-e77f-4f18-8cea-556decfc72aa"},"vehicle_type_id":"4","last_reported":1759165762,"current_range_meters":11600,"station_id":"st_cvj6r9ubvosntc0bgbag","pricing_plan_id":"cebpf4jnsgd1na2vs0mg"},{"bike_id":"02db8b55-4ff3-4639-a75b-5ab2fefc1f01","system_id":"levelo_inurba_marseille","lat":43.28561,"lon":5.39484,"is_reserved":false,"is_disabled":false,"rental_uris":{"android":"levelo://app?vid=02db8b55-4ff3-4639-a75b-5ab2fefc1f01","ios":"levelo://app?vid=02db8b55-4ff3-4639-a75b-5ab2fefc1f01"},"vehicle_type_id":"4","last_reported":1759165762,"current_range_meters":11600,"station_id":"ce4bh292rcd13ifvqdg0","pricing_plan_id":"cebpf4jnsgd1na2vs0mg"},{"bike_id":"91c679d1-3bf3-4c54-9c2b-a95b1fea0f45","system_id":"levelo_inurba_marseille","lat":43.30436,"lon":5.38881,"is_reserved":false,"is_disabled":false,"rental_uris":{"android":"levelo://app?vid=91c679d1-3bf3-4c54-9c2b-a95b1fea0f45","ios":"levelo://app?vid=91c679d1-3bf3-4c54-9c2b-a95b1fea0f45"},"vehicle_type_id":"4","last_reported":1759165762,"current_range_meters":11600,"station_id":"ce4bgk12rcd13ifvqbi0","pricing_plan_id":"cebpf4jnsgd1na2vs0mg"},{"bike_id":"d08386d0-c553-4fcc-a907-317228aa9e43","system_id":"levelo_inurba_marseille","lat":43.29868,"lon":5.39748,"is_reserved":false,"is_disabled":false,"rental_uris":{"android":"levelo://app?vid=d08386d0-c553-4fcc-a907-317228aa9e43","ios":"levelo://app?vid=d08386d0-c553-4fcc-a907-317228aa9e43"},"vehicle_type_id":"4","last_reported":1759165762,"current_range_meters":12000,"station_id":"ce4bh0h2rcd13ifvqd50","pricing_plan_id":"cebpf4jnsgd1na2vs0mg"},{"bike_id":"231f1dec-a53f-4248-aa33-81bf5776b33b","system_id":"levelo_inurba_marseille","lat":43.27949,"lon":5.41057,"is_reserved":false,"is_disabled":false,"rental_uris":{"android":"levelo://app?vid=231f1dec-a53f-4248-aa33-81bf5776b33b","ios":"levelo://app?vid=231f1dec-a53f-4248-aa33-81bf5776b33b"},"vehicle_type_id":"4","last_reported":1759165762,"current_range_meters":12000,"station_id":"ce4bhnp2rcd13ifvqh0g","pricing_plan_id":"cebpf4jnsgd1na2vs0mg"},{"bike_id":"7952d0c5-c3b4-4c29-bacd-f59ef155894d","system_id":"levelo_inurba_marseille","lat":43.309025,"lon":5.381673,"is_reserved":false,"is_disabled":false,"rental_uris":{"android":"levelo://app?vid=7952d0c5-c3b4-4c29-bacd-f59ef155894d","ios":"levelo://app?vid=7952d0c5-c3b4-4c29-bacd-f59ef155894d"},"vehicle_type_id":"4","last_reported":1759165762,"current_range_meters":12000,"station_id":"","pricing_plan_id":"cebpf4jnsgd1na2vs0mg"},{"bike_id":"ea59b303-6900-42ad-9e79-5b0f95bedd6c","system_id":"levelo_inurba_marseille","lat":43.30453,"lon":5.36869,"is_reserved":false,"is_disabled":false,"rental_uris":{"android":"levelo://app?vid=ea59b303-6900-42ad-9e79-5b0f95bedd6c","ios":"levelo://app?vid=ea59b303-6900-42ad-9e79-5b0f95bedd6c"},"vehicle_type_id":"4","last_reported":1759165762,"current_range_meters":12000,"station_id":"","pricing_plan_id":"cebpf4jnsgd1na2vs0mg"},{"bike_id":"e09acef0-dbed-46fb-abf6-9b23f5f03901","system_id":"levelo_inurba_marseille","lat":43.30147,"lon":5.37421,"is_reserved":false,"is_disabled":false,"rental_uris":{"android":"levelo://app?vid=e09acef0-dbed-46fb-abf6-9b23f5f03901","ios":"levelo://app?vid=e09acef0-dbed-46fb-abf6-9b23f5f03901"},"vehicle_type_id":"4","last_reported":1759165762,"current_range_meters":12000,"station_id":"ce4bgs92rcd13ifvqcc0","pricing_plan_id":"cebpf4jnsgd1na2vs0mg"},{"bike_id":"0eda2527-f3ce-4552-96df-04220f592c11","system_id":"levelo_inurba_marseille","lat":43.21196,"lon":5.35075,"is_reserved":false,"is_disabled":false,"rental_uris":{"android":"levelo://app?vid=0eda2527-f3ce-4552-96df-04220f592c11","ios":"levelo://app?vid=0eda2527-f3ce-4552-96df-04220f592c11"},"vehicle_type_id":"4","last_reported":1759165762,"current_range_meters":12000,"station_id":"st_cvj6sg6p6f1abm77japg","pricing_plan_id":"cebpf4jnsgd1na2vs0mg"},{"bike_id":"a07a513e-e5a9-4481-8592-d991379bc662","system_id":"levelo_inurba_marseille","lat":43.33735,"lon":5.37481,"is_reserved":false,"is_disabled":false,"rental_uris":{"android":"levelo://app?vid=a07a513e-e5a9-4481-8592-d991379bc662","ios":"levelo://app?vid=a07a513e-e5a9-4481-8592-d991379bc662"},"vehicle_type_id":"4","last_reported":1759165762,"current_range_meters":12000,"station_id":"","pricing_plan_id":"cebpf4jnsgd1na2vs0mg"},{"bike_id":"7dc10ae7-7366-4aef-afb3-946c513f88ef","system_id":"levelo_inurba_marseille","lat":43.27998,"lon":5.36409,"is_reserved":false,"is_disabled":false,"rental_uris":{"android":"levelo://app?vid=7dc10ae7-7366-4aef-afb3-946c513f88ef","ios":"levelo://app?vid=7dc10ae7-7366-4aef-afb3-946c513f88ef"},"vehicle_type_id":"4","last_reported":1759165762,"current_range_meters":12400,"station_id":"ce4bha12rcd13ifvqef0","pricing_plan_id":"cebpf4jnsgd1na2vs0mg"},{"bike_id":"f6e8cf02-4ec8-4f47-83dd-ddd84fe62208","system_id":"levelo_inurba_marseille","lat":43.23182,"lon":5.40016,"is_reserved":false,"is_disabled":false,"rental_uris":{"android":"levelo://app?vid=f6e8cf02-4ec8-4f47-83dd-ddd84fe62208","ios":"levelo://app?vid=f6e8cf02-4ec8-4f47-83dd-ddd84fe62208"},"vehicle_type_id":"4","last_reported":1759165762,"current_range_meters":12400,"station_id":"ce4bhn12rcd13ifvqgqg","pricing_plan_id":"cebpf4jnsgd1na2vs0mg"},{"bike_id":"c3304221-c49c-4cc8-aeb9-b593fc8da40e","system_id":"levelo_inurba_marseille","lat":43.28079,"lon":5.39667,"is_reserved":false,"is_disabled":false,"rental_uris":{"android":"levelo://app?vid=c3304221-c49c-4cc8-aeb9-b593fc8da40e","ios":"levelo://app?vid=c3304221-c49c-4cc8-aeb9-b593fc8da40e"},"vehicle_type_id":"4","last_reported":1759165762,"current_range_meters":12400,"station_id":"ce4bho12rcd13ifvqh2g","pricing_plan_id":"cebpf4jnsgd1na2vs0mg"},{"bike_id":"8c986307-df22-41f8-9c2d-42ccabc665aa","system_id":"levelo_inurba_marseille","lat":43.30187,"lon":5.36639,"is_reserved":false,"is_disabled":false,"rental_uris":{"android":"levelo://app?vid=8c986307-df22-41f8-9c2d-42ccabc665aa","ios":"levelo://app?vid=8c986307-df22-41f8-9c2d-42ccabc665aa"},"vehicle_type_id":"4","last_reported":1759165762,"current_range_meters":12400,"station_id":"ce4bgrh2rcd13ifvqc8g","pricing_plan_id":"cebpf4jnsgd1na2vs0mg"},{"bike_id":"cb763edd-8b1d-4aca-8fe3-35fb9fc521e1","system_id":"levelo_inurba_marseille","lat":43.30151,"lon":5.381,"is_reserved":false,"is_disabled":false,"rental_uris":{"android":"levelo://app?vid=cb763edd-8b1d-4aca-8fe3-35fb9fc521e1","ios":"levelo://app?vid=cb763edd-8b1d-4aca-8fe3-35fb9fc521e1"},"vehicle_type_id":"4","last_reported":1759165762,"current_range_meters":12400,"station_id":"ce4bgjp2rcd13ifvqbh0","pricing_plan_id":"cebpf4jnsgd1na2vs0mg"},{"bike_id":"c627b34a-8e81-4438-af3b-4fd0aab1c160","system_id":"levelo_inurba_marseille","lat":43.29682,"lon":5.36044,"is_reserved":false,"is_disabled":false,"rental_uris":{"android":"levelo://app?vid=c627b34a-8e81-4438-af3b-4fd0aab1c160","ios":"levelo://app?vid=c627b34a-8e81-4438-af3b-4fd0aab1c160"},"vehicle_type_id":"4","last_reported":1759165762,"current_range_meters":12400,"station_id":"","pricing_plan_id":"cebpf4jnsgd1na2vs0mg"},{"bike_id":"3567ea12-b03b-4f20-9b02-bdf737fd0205","system_id":"levelo_inurba_marseille","lat":43.3415,"lon":5.409374,"is_reserved":false,"is_disabled":false,"rental_uris":{"android":"levelo://app?vid=3567ea12-b03b-4f20-9b02-bdf737fd0205","ios":"levelo://app?vid=3567ea12-b03b-4f20-9b02-bdf737fd0205"},"vehicle_type_id":"4","last_reported":1759165762,"current_range_meters":12400,"station_id":"ce4bhqh2rcd13ifvqhlg","pricing_plan_id":"cebpf4jnsgd1na2vs0mg"},{"bike_id":"0030cf69-75f8-4719-a372-efc52bdb748a","system_id":"levelo_inurba_marseille","lat":43.32929,"lon":5.45413,"is_reserved":false,"is_disabled":false,"rental_uris":{"android":"levelo://app?vid=0030cf69-75f8-4719-a372-efc52bdb748a","ios":"levelo://app?vid=0030cf69-75f8-4719-a372-efc52bdb748a"},"vehicle_type_id":"4","last_reported":1759165762,"current_range_meters":12800,"station_id":"","pricing_plan_id":"cebpf4jnsgd1na2vs0mg"},{"bike_id":"44cc4359-e7b3-48af-83b4-65edd912ef63","system_id":"levelo_inurba_marseille","lat":43.28156,"lon":5.42646,"is_reserved":false,"is_disabled":true,"rental_uris":{"android":"levelo://app?vid=44cc4359-e7b3-48af-83b4-65edd912ef63","ios":"levelo://app?vid=44cc4359-e7b3-48af-83b4-65edd912ef63"},"vehicle_type_id":"4","last_reported":1759165762,"current_range_meters":12800,"station_id":"ce4bhnh2rcd13ifvqgug","pricing_plan_id":"cebpf4jnsgd1na2vs0mg"},{"bike_id":"a5b2b134-c49a-457f-98bf-c903cb9090ab","system_id":"levelo_inurba_marseille","lat":43.29809,"lon":5.38087,"is_reserved":false,"is_disabled":false,"rental_uris":{"android":"levelo://app?vid=a5b2b134-c49a-457f-98bf-c903cb9090ab","ios":"levelo://app?vid=a5b2b134-c49a-457f-98bf-c903cb9090ab"},"vehicle_type_id":"4","last_reported":1759165762,"current_range_meters":12800,"station_id":"ce4bgip2rcd13ifvqbb0","pricing_plan_id":"cebpf4jnsgd1na2vs0mg"},{"bike_id":"b1c2278a-e3ed-46d9-9147-054f0685a022","system_id":"levelo_inurba_marseille","lat":43.3113,"lon":5.39679,"is_reserved":false,"is_disabled":false,"rental_uris":{"android":"levelo://app?vid=b1c2278a-e3ed-46d9-9147-054f0685a022","ios":"levelo://app?vid=b1c2278a-e3ed-46d9-9147-054f0685a022"},"vehicle_type_id":"4","last_reported":1759165762,"current_range_meters":12800,"station_id":"ce4bgt92rcd13ifvqcg0","pricing_plan_id":"cebpf4jnsgd1na2vs0mg"},{"bike_id":"3aff64b1-875f-4a91-bc38-dd390bcc72d3","system_id":"levelo_inurba_marseille","lat":43.2873,"lon":5.36082,"is_reserved":false,"is_disabled":false,"rental_uris":{"android":"levelo://app?vid=3aff64b1-875f-4a91-bc38-dd390bcc72d3","ios":"levelo://app?vid=3aff64b1-875f-4a91-bc38-dd390bcc72d3"},"vehicle_type_id":"4","last_reported":1759165762,"current_range_meters":12800,"station_id":"cki0cbj6b192h4jlfktg","pricing_plan_id":"cebpf4jnsgd1na2vs0mg"},{"bike_id":"08897f5d-483e-4ffa-b1bb-f13bc5f35002","system_id":"levelo_inurba_marseille","lat":43.28069,"lon":5.39661,"is_reserved":false,"is_disabled":false,"rental_uris":{"android":"levelo://app?vid=08897f5d-483e-4ffa-b1bb-f13bc5f35002","ios":"levelo://app?vid=08897f5d-483e-4ffa-b1bb-f13bc5f35002"},"vehicle_type_id":"4","last_reported":1759165762,"current_range_meters":13600,"station_id":"ce4bho12rcd13ifvqh2g","pricing_plan_id":"cebpf4jnsgd1na2vs0mg"},{"bike_id":"385fa573-6758-43e7-a2f4-f27be30ea572","system_id":"levelo_inurba_marseille","lat":43.32067,"lon":5.36796,"is_reserved":false,"is_disabled":false,"rental_uris":{"android":"levelo://app?vid=385fa573-6758-43e7-a2f4-f27be30ea572","ios":"levelo://app?vid=385fa573-6758-43e7-a2f4-f27be30ea572"},"vehicle_type_id":"4","last_reported":1759165762,"current_range_meters":13600,"station_id":"ce4bhrh2rcd13ifvqhug","pricing_plan_id":"cebpf4jnsgd1na2vs0mg"},{"bike_id":"d60dc148-253b-4625-ae0c-8c88dcdb4260","system_id":"levelo_inurba_marseille","lat":43.272127,"lon":5.391798,"is_reserved":false,"is_disabled":false,"rental_uris":{"android":"levelo://app?vid=d60dc148-253b-4625-ae0c-8c88dcdb4260","ios":"levelo://app?vid=d60dc148-253b-4625-ae0c-8c88dcdb4260"},"vehicle_type_id":"4","last_reported":1759165762,"current_range_meters":13600,"station_id":"","pricing_plan_id":"cebpf4jnsgd1na2vs0mg"},{"bike_id":"59c62fd2-af36-4676-9331-b440df67fa94","system_id":"levelo_inurba_marseille","lat":43.28037,"lon":5.36945,"is_reserved":false,"is_disabled":false,"rental_uris":{"android":"levelo://app?vid=59c62fd2-af36-4676-9331-b440df67fa94","ios":"levelo://app?vid=59c62fd2-af36-4676-9331-b440df67fa94"},"vehicle_type_id":"4","last_reported":1759165762,"current_range_meters":13600,"station_id":"ce4bha12rcd13ifvqef0","pricing_plan_id":"cebpf4jnsgd1na2vs0mg"},{"bike_id":"fe7c339b-81a8-4a59-b339-9d30aae20d0f","system_id":"levelo_inurba_marseille","lat":43.25337,"lon":5.42178,"is_reserved":false,"is_disabled":false,"rental_uris":{"android":"levelo://app?vid=fe7c339b-81a8-4a59-b339-9d30aae20d0f","ios":"levelo://app?vid=fe7c339b-81a8-4a59-b339-9d30aae20d0f"},"vehicle_type_id":"4","last_reported":1759165762,"current_range_meters":13600,"station_id":"st_d2m65c5bi1j21697t3ng","pricing_plan_id":"cebpf4jnsgd1na2vs0mg"},{"bike_id":"16736934-dfee-4899-9572-c856d9cb8245","system_id":"levelo_inurba_marseille","lat":43.27844,"lon":5.40696,"is_reserved":false,"is_disabled":false,"rental_uris":{"android":"levelo://app?vid=16736934-dfee-4899-9572-c856d9cb8245","ios":"levelo://app?vid=16736934-dfee-4899-9572-c856d9cb8245"},"vehicle_type_id":"4","last_reported":1759165762,"current_range_meters":13600,"station_id":"ce4bhnh2rcd13ifvqgtg","pricing_plan_id":"cebpf4jnsgd1na2vs0mg"},{"bike_id":"498de633-1978-409b-aa35-b617d56ba506","system_id":"levelo_inurba_marseille","lat":43.289401,"lon":5.366452,"is_reserved":false,"is_disabled":false,"rental_uris":{"android":"levelo://app?vid=498de633-1978-409b-aa35-b617d56ba506","ios":"levelo://app?vid=498de633-1978-409b-aa35-b617d56ba506"},"vehicle_type_id":"4","last_reported":1759165762,"current_range_meters":13600,"station_id":"ce4bhap2rcd13ifvqek0","pricing_plan_id":"cebpf4jnsgd1na2vs0mg"},{"bike_id":"e5a1541b-2882-4a77-8b1d-2cf00a989e4e","system_id":"levelo_inurba_marseille","lat":43.28713,"lon":5.39982,"is_reserved":false,"is_disabled":false,"rental_uris":{"android":"levelo://app?vid=e5a1541b-2882-4a77-8b1d-2cf00a989e4e","ios":"levelo://app?vid=e5a1541b-2882-4a77-8b1d-2cf00a989e4e"},"vehicle_type_id":"4","last_reported":1759165762,"current_range_meters":13600,"station_id":"ce4bho92rcd13ifvqh3g","pricing_plan_id":"cebpf4jnsgd1na2vs0mg"},{"bike_id":"f788b846-abbc-493a-ba71-697af5f9fad9","system_id":"levelo_inurba_marseille","lat":43.27939,"lon":5.41048,"is_reserved":false,"is_disabled":false,"rental_uris":{"android":"levelo://app?vid=f788b846-abbc-493a-ba71-697af5f9fad9","ios":"levelo://app?vid=f788b846-abbc-493a-ba71-697af5f9fad9"},"vehicle_type_id":"4","last_reported":1759165762,"current_range_meters":13600,"station_id":"ce4bhnp2rcd13ifvqh0g","pricing_plan_id":"cebpf4jnsgd1na2vs0mg"},{"bike_id":"603b48a8-a4ae-4222-bee8-5769d86ea9a8","system_id":"levelo_inurba_marseille","lat":43.25338,"lon":5.42177,"is_reserved":false,"is_disabled":false,"rental_uris":{"android":"levelo://app?vid=603b48a8-a4ae-4222-bee8-5769d86ea9a8","ios":"levelo://app?vid=603b48a8-a4ae-4222-bee8-5769d86ea9a8"},"vehicle_type_id":"4","last_reported":1759165762,"current_range_meters":14000,"station_id":"st_d2m65c5bi1j21697t3ng","pricing_plan_id":"cebpf4jnsgd1na2vs0mg"},{"bike_id":"aa123961-c527-4db0-9350-7d548f67905a","system_id":"levelo_inurba_marseille","lat":43.27946,"lon":5.38753,"is_reserved":false,"is_disabled":false,"rental_uris":{"android":"levelo://app?vid=aa123961-c527-4db0-9350-7d548f67905a","ios":"levelo://app?vid=aa123961-c527-4db0-9350-7d548f67905a"},"vehicle_type_id":"4","last_reported":1759165762,"current_range_meters":14000,"station_id":"ce4bh492rcd13ifvqdvg","pricing_plan_id":"cebpf4jnsgd1na2vs0mg"},{"bike_id":"ba1cfbb3-555c-4e6c-85db-b50e9395062e","system_id":"levelo_inurba_marseille","lat":43.246877,"lon":5.381936,"is_reserved":false,"is_disabled":false,"rental_uris":{"android":"levelo://app?vid=ba1cfbb3-555c-4e6c-85db-b50e9395062e","ios":"levelo://app?vid=ba1cfbb3-555c-4e6c-85db-b50e9395062e"},"vehicle_type_id":"4","last_reported":1759165762,"current_range_meters":14000,"station_id":"","pricing_plan_id":"cebpf4jnsgd1na2vs0mg"},{"bike_id":"e16cf1fd-fed2-488c-a369-456956bb4647","system_id":"levelo_inurba_marseille","lat":43.28943,"lon":5.3963,"is_reserved":false,"is_disabled":false,"rental_uris":{"android":"levelo://app?vid=e16cf1fd-fed2-488c-a369-456956bb4647","ios":"levelo://app?vid=e16cf1fd-fed2-488c-a369-456956bb4647"},"vehicle_type_id":"4","last_reported":1759165762,"current_range_meters":14000,"station_id":"ce4bh3h2rcd13ifvqdn0","pricing_plan_id":"cebpf4jnsgd1na2vs0mg"},{"bike_id":"f8f5aba4-7c22-4d68-9712-86efe921d7f3","system_id":"levelo_inurba_marseille","lat":43.29522,"lon":5.39042,"is_reserved":false,"is_disabled":false,"rental_uris":{"android":"levelo://app?vid=f8f5aba4-7c22-4d68-9712-86efe921d7f3","ios":"levelo://app?vid=f8f5aba4-7c22-4d68-9712-86efe921d7f3"},"vehicle_type_id":"4","last_reported":1759165762,"current_range_meters":14000,"station_id":"ce4bh3p2rcd13ifvqdp0","pricing_plan_id":"cebpf4jnsgd1na2vs0mg"},{"bike_id":"2db625d0-8c63-4eed-9873-a7cdc4164cec","system_id":"levelo_inurba_marseille","lat":43.25085,"lon":5.39524,"is_reserved":false,"is_disabled":false,"rental_uris":{"android":"levelo://app?vid=2db625d0-8c63-4eed-9873-a7cdc4164cec","ios":"levelo://app?vid=2db625d0-8c63-4eed-9873-a7cdc4164cec"},"vehicle_type_id":"4","last_reported":1759165762,"current_range_meters":14000,"station_id":"ce4bhm12rcd13ifvqgkg","pricing_plan_id":"cebpf4jnsgd1na2vs0mg"},{"bike_id":"0f14628a-5ac7-4532-b350-2e1ae0522677","system_id":"levelo_inurba_marseille","lat":43.33609,"lon":5.4104,"is_reserved":false,"is_disabled":false,"rental_uris":{"android":"levelo://app?vid=0f14628a-5ac7-4532-b350-2e1ae0522677","ios":"levelo://app?vid=0f14628a-5ac7-4532-b350-2e1ae0522677"},"vehicle_type_id":"4","last_reported":1759165762,"current_range_meters":14000,"station_id":"ce4bhqh2rcd13ifvqhmg","pricing_plan_id":"cebpf4jnsgd1na2vs0mg"},{"bike_id":"ce5e157e-4ef2-4c41-9b3b-54d3eecbfa45","system_id":"levelo_inurba_marseille","lat":43.225355,"lon":5.348444,"is_reserved":false,"is_disabled":false,"rental_uris":{"android":"levelo://app?vid=ce5e157e-4ef2-4c41-9b3b-54d3eecbfa45","ios":"levelo://app?vid=ce5e157e-4ef2-4c41-9b3b-54d3eecbfa45"},"vehicle_type_id":"4","last_reported":1759165762,"current_range_meters":14000,"station_id":"","pricing_plan_id":"cebpf4jnsgd1na2vs0mg"},{"bike_id":"aebf0e68-ba27-412a-9ce2-11cc42127dee","system_id":"levelo_inurba_marseille","lat":43.337444,"lon":5.374475,"is_reserved":false,"is_disabled":false,"rental_uris":{"android":"levelo://app?vid=aebf0e68-ba27-412a-9ce2-11cc42127dee","ios":"levelo://app?vid=aebf0e68-ba27-412a-9ce2-11cc42127dee"},"vehicle_type_id":"4","last_reported":1759165762,"current_range_meters":14000,"station_id":"","pricing_plan_id":"cebpf4jnsgd1na2vs0mg"},{"bike_id":"1a4e60cc-70f4-44b6-80fa-6d4d9c9e9260","system_id":"levelo_inurba_marseille","lat":43.286972,"lon":5.399855,"is_reserved":false,"is_disabled":false,"rental_uris":{"android":"levelo://app?vid=1a4e60cc-70f4-44b6-80fa-6d4d9c9e9260","ios":"levelo://app?vid=1a4e60cc-70f4-44b6-80fa-6d4d9c9e9260"},"vehicle_type_id":"4","last_reported":1759165762,"current_range_meters":14400,"station_id":"ce4bho92rcd13ifvqh3g","pricing_plan_id":"cebpf4jnsgd1na2vs0mg"},{"bike_id":"37f92675-5c6d-4cea-8a60-2198fa390655","system_id":"levelo_inurba_marseille","lat":43.23964,"lon":5.36632,"is_reserved":false,"is_disabled":false,"rental_uris":{"android":"levelo://app?vid=37f92675-5c6d-4cea-8a60-2198fa390655","ios":"levelo://app?vid=37f92675-5c6d-4cea-8a60-2198fa390655"},"vehicle_type_id":"4","last_reported":1759165762,"current_range_meters":14400,"station_id":"","pricing_plan_id":"cebpf4jnsgd1na2vs0mg"},{"bike_id":"a9cd5665-4575-420b-bb7e-e441349a406a","system_id":"levelo_inurba_marseille","lat":43.2841,"lon":5.34996,"is_reserved":false,"is_disabled":false,"rental_uris":{"android":"levelo://app?vid=a9cd5665-4575-420b-bb7e-e441349a406a","ios":"levelo://app?vid=a9cd5665-4575-420b-bb7e-e441349a406a"},"vehicle_type_id":"4","last_reported":1759165762,"current_range_meters":14400,"station_id":"ce4bhbh2rcd13ifvqepg","pricing_plan_id":"cebpf4jnsgd1na2vs0mg"},{"bike_id":"91658db2-d6ae-4346-bb4d-02353c95c4ab","system_id":"levelo_inurba_marseille","lat":43.25348,"lon":5.42155,"is_reserved":false,"is_disabled":false,"rental_uris":{"android":"levelo://app?vid=91658db2-d6ae-4346-bb4d-02353c95c4ab","ios":"levelo://app?vid=91658db2-d6ae-4346-bb4d-02353c95c4ab"},"vehicle_type_id":"4","last_reported":1759165762,"current_range_meters":14400,"station_id":"st_d2m65c5bi1j21697t3ng","pricing_plan_id":"cebpf4jnsgd1na2vs0mg"},{"bike_id":"8cbcf5e7-b804-4925-bbed-5f57e8580ccf","system_id":"levelo_inurba_marseille","lat":43.31519,"lon":5.36803,"is_reserved":false,"is_disabled":false,"rental_uris":{"android":"levelo://app?vid=8cbcf5e7-b804-4925-bbed-5f57e8580ccf","ios":"levelo://app?vid=8cbcf5e7-b804-4925-bbed-5f57e8580ccf"},"vehicle_type_id":"4","last_reported":1759165762,"current_range_meters":14400,"station_id":"","pricing_plan_id":"cebpf4jnsgd1na2vs0mg"},{"bike_id":"56d6a008-a903-4bd5-8ee3-1cec5d05c634","system_id":"levelo_inurba_marseille","lat":43.31749,"lon":5.39024,"is_reserved":false,"is_disabled":false,"rental_uris":{"android":"levelo://app?vid=56d6a008-a903-4bd5-8ee3-1cec5d05c634","ios":"levelo://app?vid=56d6a008-a903-4bd5-8ee3-1cec5d05c634"},"vehicle_type_id":"4","last_reported":1759165762,"current_range_meters":14400,"station_id":"ce4bhqp2rcd13ifvqhng","pricing_plan_id":"cebpf4jnsgd1na2vs0mg"},{"bike_id":"f18bfee6-7ecb-46f8-b18f-e99fd2d0b433","system_id":"levelo_inurba_marseille","lat":43.31328,"lon":5.39697,"is_reserved":false,"is_disabled":false,"rental_uris":{"android":"levelo://app?vid=f18bfee6-7ecb-46f8-b18f-e99fd2d0b433","ios":"levelo://app?vid=f18bfee6-7ecb-46f8-b18f-e99fd2d0b433"},"vehicle_type_id":"4","last_reported":1759165762,"current_range_meters":14000,"station_id":"ce4bgvp2rcd13ifvqcu0","pricing_plan_id":"cebpf4jnsgd1na2vs0mg"},{"bike_id":"bc53de6a-e8df-4a49-b75a-2330e0ae40a2","system_id":"levelo_inurba_marseille","lat":43.28154,"lon":5.426481,"is_reserved":false,"is_disabled":false,"rental_uris":{"android":"levelo://app?vid=bc53de6a-e8df-4a49-b75a-2330e0ae40a2","ios":"levelo://app?vid=bc53de6a-e8df-4a49-b75a-2330e0ae40a2"},"vehicle_type_id":"4","last_reported":1759165762,"current_range_meters":14400,"station_id":"ce4bhnh2rcd13ifvqgug","pricing_plan_id":"cebpf4jnsgd1na2vs0mg"},{"bike_id":"ac2e39fd-d273-451f-a29d-2e78cafa6877","system_id":"levelo_inurba_marseille","lat":43.29524,"lon":5.39044,"is_reserved":false,"is_disabled":false,"rental_uris":{"android":"levelo://app?vid=ac2e39fd-d273-451f-a29d-2e78cafa6877","ios":"levelo://app?vid=ac2e39fd-d273-451f-a29d-2e78cafa6877"},"vehicle_type_id":"4","last_reported":1759165762,"current_range_meters":14400,"station_id":"ce4bh3p2rcd13ifvqdp0","pricing_plan_id":"cebpf4jnsgd1na2vs0mg"},{"bike_id":"5f8073b4-05d7-4778-a2bc-72bc906570f1","system_id":"levelo_inurba_marseille","lat":43.28939,"lon":5.36642,"is_reserved":false,"is_disabled":false,"rental_uris":{"android":"levelo://app?vid=5f8073b4-05d7-4778-a2bc-72bc906570f1","ios":"levelo://app?vid=5f8073b4-05d7-4778-a2bc-72bc906570f1"},"vehicle_type_id":"4","last_reported":1759165762,"current_range_meters":14400,"station_id":"ce4bhap2rcd13ifvqek0","pricing_plan_id":"cebpf4jnsgd1na2vs0mg"},{"bike_id":"a6d5fea6-0b36-4308-aa47-0115b1c3b025","system_id":"levelo_inurba_marseille","lat":43.30731,"lon":5.42452,"is_reserved":false,"is_disabled":false,"rental_uris":{"android":"levelo://app?vid=a6d5fea6-0b36-4308-aa47-0115b1c3b025","ios":"levelo://app?vid=a6d5fea6-0b36-4308-aa47-0115b1c3b025"},"vehicle_type_id":"4","last_reported":1759165762,"current_range_meters":14800,"station_id":"st_cvj6ca6bvosntc0bfgr0","pricing_plan_id":"cebpf4jnsgd1na2vs0mg"},{"bike_id":"78edd212-3bd8-4a45-bced-089e3907902a","system_id":"levelo_inurba_marseille","lat":43.32739,"lon":5.42383,"is_reserved":false,"is_disabled":false,"rental_uris":{"android":"levelo://app?vid=78edd212-3bd8-4a45-bced-089e3907902a","ios":"levelo://app?vid=78edd212-3bd8-4a45-bced-089e3907902a"},"vehicle_type_id":"4","last_reported":1759165762,"current_range_meters":14800,"station_id":"","pricing_plan_id":"cebpf4jnsgd1na2vs0mg"},{"bike_id":"51ff47fb-4e2d-430b-a869-ae4367fdf149","system_id":"levelo_inurba_marseille","lat":43.27945,"lon":5.41055,"is_reserved":false,"is_disabled":false,"rental_uris":{"android":"levelo://app?vid=51ff47fb-4e2d-430b-a869-ae4367fdf149","ios":"levelo://app?vid=51ff47fb-4e2d-430b-a869-ae4367fdf149"},"vehicle_type_id":"4","last_reported":1759165762,"current_range_meters":14800,"station_id":"ce4bhnp2rcd13ifvqh0g","pricing_plan_id":"cebpf4jnsgd1na2vs0mg"},{"bike_id":"e05a30fe-4e14-4483-a45a-c83216ebe41f","system_id":"levelo_inurba_marseille","lat":43.24546,"lon":5.39529,"is_reserved":false,"is_disabled":false,"rental_uris":{"android":"levelo://app?vid=e05a30fe-4e14-4483-a45a-c83216ebe41f","ios":"levelo://app?vid=e05a30fe-4e14-4483-a45a-c83216ebe41f"},"vehicle_type_id":"4","last_reported":1759165762,"current_range_meters":14800,"station_id":"ce4bhlp2rcd13ifvqgjg","pricing_plan_id":"cebpf4jnsgd1na2vs0mg"},{"bike_id":"a2e45c06-7d2f-44e3-92a1-23bde99e0798","system_id":"levelo_inurba_marseille","lat":43.2886,"lon":5.42522,"is_reserved":false,"is_disabled":false,"rental_uris":{"android":"levelo://app?vid=a2e45c06-7d2f-44e3-92a1-23bde99e0798","ios":"levelo://app?vid=a2e45c06-7d2f-44e3-92a1-23bde99e0798"},"vehicle_type_id":"4","last_reported":1759165762,"current_range_meters":14800,"station_id":"st_d3b462108ojc7389ooeg","pricing_plan_id":"cebpf4jnsgd1na2vs0mg"},{"bike_id":"afd393f5-2718-4bca-881e-1587c9618fcd","system_id":"levelo_inurba_marseille","lat":43.27945,"lon":5.41054,"is_reserved":false,"is_disabled":false,"rental_uris":{"android":"levelo://app?vid=afd393f5-2718-4bca-881e-1587c9618fcd","ios":"levelo://app?vid=afd393f5-2718-4bca-881e-1587c9618fcd"},"vehicle_type_id":"4","last_reported":1759165762,"current_range_meters":14800,"station_id":"ce4bhnp2rcd13ifvqh0g","pricing_plan_id":"cebpf4jnsgd1na2vs0mg"},{"bike_id":"99ce2063-5dfb-4ed3-a4a6-8fc3a54c4890","system_id":"levelo_inurba_marseille","lat":43.337444,"lon":5.374475,"is_reserved":false,"is_disabled":false,"rental_uris":{"android":"levelo://app?vid=99ce2063-5dfb-4ed3-a4a6-8fc3a54c4890","ios":"levelo://app?vid=99ce2063-5dfb-4ed3-a4a6-8fc3a54c4890"},"vehicle_type_id":"4","last_reported":1759165762,"current_range_meters":14800,"station_id":"","pricing_plan_id":"cebpf4jnsgd1na2vs0mg"},{"bike_id":"1dce7747-dc70-49e2-8210-f999a121a9f9","system_id":"levelo_inurba_marseille","lat":43.24388,"lon":5.37065,"is_reserved":false,"is_disabled":false,"rental_uris":{"android":"levelo://app?vid=1dce7747-dc70-49e2-8210-f999a121a9f9","ios":"levelo://app?vid=1dce7747-dc70-49e2-8210-f999a121a9f9"},"vehicle_type_id":"4","last_reported":1759165762,"current_range_meters":15200,"station_id":"ce4bhhh2rcd13ifvqfk0","pricing_plan_id":"cebpf4jnsgd1na2vs0mg"},{"bike_id":"b758b494-181d-4229-918f-9ce41e85b04d","system_id":"levelo_inurba_marseille","lat":43.33145,"lon":5.38163,"is_reserved":false,"is_disabled":false,"rental_uris":{"android":"levelo://app?vid=b758b494-181d-4229-918f-9ce41e85b04d","ios":"levelo://app?vid=b758b494-181d-4229-918f-9ce41e85b04d"},"vehicle_type_id":"4","last_reported":1759165762,"current_range_meters":15200,"station_id":"","pricing_plan_id":"cebpf4jnsgd1na2vs0mg"},{"bike_id":"90b4c2c6-74ed-4bc2-b762-05e29dca864f","system_id":"levelo_inurba_marseille","lat":43.24646,"lon":5.38893,"is_reserved":false,"is_disabled":false,"rental_uris":{"android":"levelo://app?vid=90b4c2c6-74ed-4bc2-b762-05e29dca864f","ios":"levelo://app?vid=90b4c2c6-74ed-4bc2-b762-05e29dca864f"},"vehicle_type_id":"4","last_reported":1759165762,"current_range_meters":15200,"station_id":"ce4bhg12rcd13ifvqf60","pricing_plan_id":"cebpf4jnsgd1na2vs0mg"},{"bike_id":"e6ad85b1-a3cb-4839-baf9-2eb5999fca22","system_id":"levelo_inurba_marseille","lat":43.29533,"lon":5.38549,"is_reserved":false,"is_disabled":false,"rental_uris":{"android":"levelo://app?vid=e6ad85b1-a3cb-4839-baf9-2eb5999fca22","ios":"levelo://app?vid=e6ad85b1-a3cb-4839-baf9-2eb5999fca22"},"vehicle_type_id":"4","last_reported":1759165762,"current_range_meters":15200,"station_id":"ce4bgih2rcd13ifvqba0","pricing_plan_id":"cebpf4jnsgd1na2vs0mg"},{"bike_id":"66f487ff-3aae-4a72-86ae-ce3145250e5e","system_id":"levelo_inurba_marseille","lat":43.28459,"lon":5.35898,"is_reserved":false,"is_disabled":false,"rental_uris":{"android":"levelo://app?vid=66f487ff-3aae-4a72-86ae-ce3145250e5e","ios":"levelo://app?vid=66f487ff-3aae-4a72-86ae-ce3145250e5e"},"vehicle_type_id":"4","last_reported":1759165762,"current_range_meters":15200,"station_id":"ce4bhah2rcd13ifvqei0","pricing_plan_id":"cebpf4jnsgd1na2vs0mg"},{"bike_id":"7a973314-3d16-4acd-a14a-c89da5af8be0","system_id":"levelo_inurba_marseille","lat":43.28949,"lon":5.36402,"is_reserved":false,"is_disabled":false,"rental_uris":{"android":"levelo://app?vid=7a973314-3d16-4acd-a14a-c89da5af8be0","ios":"levelo://app?vid=7a973314-3d16-4acd-a14a-c89da5af8be0"},"vehicle_type_id":"4","last_reported":1759165762,"current_range_meters":15200,"station_id":"ce4bhc92rcd13ifvqetg","pricing_plan_id":"cebpf4jnsgd1na2vs0mg"},{"bike_id":"60439a97-5dd2-4616-ad31-e3dd28bda889","system_id":"levelo_inurba_marseille","lat":43.311053,"lon":5.385775,"is_reserved":false,"is_disabled":false,"rental_uris":{"android":"levelo://app?vid=60439a97-5dd2-4616-ad31-e3dd28bda889","ios":"levelo://app?vid=60439a97-5dd2-4616-ad31-e3dd28bda889"},"vehicle_type_id":"4","last_reported":1759165762,"current_range_meters":15200,"station_id":"","pricing_plan_id":"cebpf4jnsgd1na2vs0mg"},{"bike_id":"00b3c5d5-9ad5-4872-b372-089fa3a04914","system_id":"levelo_inurba_marseille","lat":43.286376,"lon":5.354934,"is_reserved":false,"is_disabled":false,"rental_uris":{"android":"levelo://app?vid=00b3c5d5-9ad5-4872-b372-089fa3a04914","ios":"levelo://app?vid=00b3c5d5-9ad5-4872-b372-089fa3a04914"},"vehicle_type_id":"4","last_reported":1759165762,"current_range_meters":15200,"station_id":"","pricing_plan_id":"cebpf4jnsgd1na2vs0mg"},{"bike_id":"56ca0258-bee9-4eb2-b3c5-63b5cd0b9e67","system_id":"levelo_inurba_marseille","lat":43.33737,"lon":5.37445,"is_reserved":false,"is_disabled":false,"rental_uris":{"android":"levelo://app?vid=56ca0258-bee9-4eb2-b3c5-63b5cd0b9e67","ios":"levelo://app?vid=56ca0258-bee9-4eb2-b3c5-63b5cd0b9e67"},"vehicle_type_id":"4","last_reported":1759165762,"current_range_meters":15200,"station_id":"","pricing_plan_id":"cebpf4jnsgd1na2vs0mg"},{"bike_id":"92662833-c6ac-4b02-b7df-1638b54b1972","system_id":"levelo_inurba_marseille","lat":43.33742,"lon":5.37449,"is_reserved":false,"is_disabled":false,"rental_uris":{"android":"levelo://app?vid=92662833-c6ac-4b02-b7df-1638b54b1972","ios":"levelo://app?vid=92662833-c6ac-4b02-b7df-1638b54b1972"},"vehicle_type_id":"4","last_reported":1759165762,"current_range_meters":15200,"station_id":"","pricing_plan_id":"cebpf4jnsgd1na2vs0mg"},{"bike_id":"f8d78e5f-60e1-4623-939f-49e76ff16505","system_id":"levelo_inurba_marseille","lat":43.33742,"lon":5.37448,"is_reserved":false,"is_disabled":false,"rental_uris":{"android":"levelo://app?vid=f8d78e5f-60e1-4623-939f-49e76ff16505","ios":"levelo://app?vid=f8d78e5f-60e1-4623-939f-49e76ff16505"},"vehicle_type_id":"4","last_reported":1759165762,"current_range_meters":15200,"station_id":"","pricing_plan_id":"cebpf4jnsgd1na2vs0mg"},{"bike_id":"0c7ff1a9-6d5c-4c67-afa3-8340f1562a21","system_id":"levelo_inurba_marseille","lat":43.297138,"lon":5.376982,"is_reserved":false,"is_disabled":false,"rental_uris":{"android":"levelo://app?vid=0c7ff1a9-6d5c-4c67-afa3-8340f1562a21","ios":"levelo://app?vid=0c7ff1a9-6d5c-4c67-afa3-8340f1562a21"},"vehicle_type_id":"4","last_reported":1759165762,"current_range_meters":15200,"station_id":"ce4bgkh2rcd13ifvqbl0","pricing_plan_id":"cebpf4jnsgd1na2vs0mg"},{"bike_id":"044920dd-d539-4b28-a284-f3f6330313ab","system_id":"levelo_inurba_marseille","lat":43.28082,"lon":5.39668,"is_reserved":false,"is_disabled":false,"rental_uris":{"android":"levelo://app?vid=044920dd-d539-4b28-a284-f3f6330313ab","ios":"levelo://app?vid=044920dd-d539-4b28-a284-f3f6330313ab"},"vehicle_type_id":"4","last_reported":1759165762,"current_range_meters":16000,"station_id":"ce4bho12rcd13ifvqh2g","pricing_plan_id":"cebpf4jnsgd1na2vs0mg"},{"bike_id":"35674f30-45d2-4192-a400-f0f8445d4437","system_id":"levelo_inurba_marseille","lat":43.31066,"lon":5.40104,"is_reserved":false,"is_disabled":false,"rental_uris":{"android":"levelo://app?vid=35674f30-45d2-4192-a400-f0f8445d4437","ios":"levelo://app?vid=35674f30-45d2-4192-a400-f0f8445d4437"},"vehicle_type_id":"4","last_reported":1759165762,"current_range_meters":16000,"station_id":"","pricing_plan_id":"cebpf4jnsgd1na2vs0mg"},{"bike_id":"96520869-d013-4e0c-a355-f7bbd728ba84","system_id":"levelo_inurba_marseille","lat":43.32351,"lon":5.36734,"is_reserved":false,"is_disabled":false,"rental_uris":{"android":"levelo://app?vid=96520869-d013-4e0c-a355-f7bbd728ba84","ios":"levelo://app?vid=96520869-d013-4e0c-a355-f7bbd728ba84"},"vehicle_type_id":"4","last_reported":1759165762,"current_range_meters":16000,"station_id":"ce4bhsh2rcd13ifvqi2g","pricing_plan_id":"cebpf4jnsgd1na2vs0mg"},{"bike_id":"b2cf005e-1bc5-4616-9e17-028539dbf7b3","system_id":"levelo_inurba_marseille","lat":43.28624,"lon":5.35104,"is_reserved":false,"is_disabled":false,"rental_uris":{"android":"levelo://app?vid=b2cf005e-1bc5-4616-9e17-028539dbf7b3","ios":"levelo://app?vid=b2cf005e-1bc5-4616-9e17-028539dbf7b3"},"vehicle_type_id":"4","last_reported":1759165762,"current_range_meters":16000,"station_id":"ce4bhch2rcd13ifvqeug","pricing_plan_id":"cebpf4jnsgd1na2vs0mg"},{"bike_id":"8d51448a-1187-4e99-aa89-ca33bbfc86a6","system_id":"levelo_inurba_marseille","lat":43.24676,"lon":5.38149,"is_reserved":false,"is_disabled":false,"rental_uris":{"android":"levelo://app?vid=8d51448a-1187-4e99-aa89-ca33bbfc86a6","ios":"levelo://app?vid=8d51448a-1187-4e99-aa89-ca33bbfc86a6"},"vehicle_type_id":"4","last_reported":1759165762,"current_range_meters":16000,"station_id":"ce4bhih2rcd13ifvqfr0","pricing_plan_id":"cebpf4jnsgd1na2vs0mg"},{"bike_id":"738a51a6-02d0-4def-8f3f-9c82f6a6dd05","system_id":"levelo_inurba_marseille","lat":43.32349,"lon":5.36762,"is_reserved":false,"is_disabled":false,"rental_uris":{"android":"levelo://app?vid=738a51a6-02d0-4def-8f3f-9c82f6a6dd05","ios":"levelo://app?vid=738a51a6-02d0-4def-8f3f-9c82f6a6dd05"},"vehicle_type_id":"4","last_reported":1759165762,"current_range_meters":16000,"station_id":"ce4bhsh2rcd13ifvqi2g","pricing_plan_id":"cebpf4jnsgd1na2vs0mg"},{"bike_id":"cb8737f5-9915-4005-98ee-fd2aa1c38d9f","system_id":"levelo_inurba_marseille","lat":43.23191,"lon":5.39977,"is_reserved":false,"is_disabled":false,"rental_uris":{"android":"levelo://app?vid=cb8737f5-9915-4005-98ee-fd2aa1c38d9f","ios":"levelo://app?vid=cb8737f5-9915-4005-98ee-fd2aa1c38d9f"},"vehicle_type_id":"4","last_reported":1759165762,"current_range_meters":16000,"station_id":"ce4bhn12rcd13ifvqgqg","pricing_plan_id":"cebpf4jnsgd1na2vs0mg"},{"bike_id":"535d948d-5dec-4201-a2a5-2b357750da30","system_id":"levelo_inurba_marseille","lat":43.293201,"lon":5.386834,"is_reserved":false,"is_disabled":false,"rental_uris":{"android":"levelo://app?vid=535d948d-5dec-4201-a2a5-2b357750da30","ios":"levelo://app?vid=535d948d-5dec-4201-a2a5-2b357750da30"},"vehicle_type_id":"4","last_reported":1759165762,"current_range_meters":16000,"station_id":"ce4bgv92rcd13ifvqcr0","pricing_plan_id":"cebpf4jnsgd1na2vs0mg"},{"bike_id":"0aba4fe3-5dca-4d79-8b9d-2fc77d6e7d70","system_id":"levelo_inurba_marseille","lat":43.28418,"lon":5.349815,"is_reserved":false,"is_disabled":false,"rental_uris":{"android":"levelo://app?vid=0aba4fe3-5dca-4d79-8b9d-2fc77d6e7d70","ios":"levelo://app?vid=0aba4fe3-5dca-4d79-8b9d-2fc77d6e7d70"},"vehicle_type_id":"4","last_reported":1759165762,"current_range_meters":16400,"station_id":"","pricing_plan_id":"cebpf4jnsgd1na2vs0mg"},{"bike_id":"e17857ef-9057-4d30-b1e9-4ab6ead4c304","system_id":"levelo_inurba_marseille","lat":43.24656,"lon":5.38882,"is_reserved":false,"is_disabled":true,"rental_uris":{"android":"levelo://app?vid=e17857ef-9057-4d30-b1e9-4ab6ead4c304","ios":"levelo://app?vid=e17857ef-9057-4d30-b1e9-4ab6ead4c304"},"vehicle_type_id":"4","last_reported":1759165762,"current_range_meters":16400,"station_id":"ce4bhg12rcd13ifvqf60","pricing_plan_id":"cebpf4jnsgd1na2vs0mg"},{"bike_id":"05003c91-a305-4a33-a438-1d7ddd3d026b","system_id":"levelo_inurba_marseille","lat":43.25337,"lon":5.42178,"is_reserved":false,"is_disabled":false,"rental_uris":{"android":"levelo://app?vid=05003c91-a305-4a33-a438-1d7ddd3d026b","ios":"levelo://app?vid=05003c91-a305-4a33-a438-1d7ddd3d026b"},"vehicle_type_id":"4","last_reported":1759165762,"current_range_meters":16400,"station_id":"st_d2m65c5bi1j21697t3ng","pricing_plan_id":"cebpf4jnsgd1na2vs0mg"},{"bike_id":"9174e38a-f6c5-4657-8d7b-aa4f7ece4421","system_id":"levelo_inurba_marseille","lat":43.25327,"lon":5.42173,"is_reserved":false,"is_disabled":false,"rental_uris":{"android":"levelo://app?vid=9174e38a-f6c5-4657-8d7b-aa4f7ece4421","ios":"levelo://app?vid=9174e38a-f6c5-4657-8d7b-aa4f7ece4421"},"vehicle_type_id":"4","last_reported":1759165762,"current_range_meters":16400,"station_id":"st_d2m65c5bi1j21697t3ng","pricing_plan_id":"cebpf4jnsgd1na2vs0mg"},{"bike_id":"2fc253d3-1104-4685-8f36-3eb4eabea972","system_id":"levelo_inurba_marseille","lat":43.25572,"lon":5.38252,"is_reserved":false,"is_disabled":false,"rental_uris":{"android":"levelo://app?vid=2fc253d3-1104-4685-8f36-3eb4eabea972","ios":"levelo://app?vid=2fc253d3-1104-4685-8f36-3eb4eabea972"},"vehicle_type_id":"4","last_reported":1759165762,"current_range_meters":16800,"station_id":"ce4bhih2rcd13ifvqfs0","pricing_plan_id":"cebpf4jnsgd1na2vs0mg"},{"bike_id":"c032a927-6c5b-4c10-aa1b-a7ee62def39f","system_id":"levelo_inurba_marseille","lat":43.305386,"lon":5.384256,"is_reserved":false,"is_disabled":false,"rental_uris":{"android":"levelo://app?vid=c032a927-6c5b-4c10-aa1b-a7ee62def39f","ios":"levelo://app?vid=c032a927-6c5b-4c10-aa1b-a7ee62def39f"},"vehicle_type_id":"4","last_reported":1759165762,"current_range_meters":16800,"station_id":"ce4bgg92rcd13ifvqb30","pricing_plan_id":"cebpf4jnsgd1na2vs0mg"},{"bike_id":"f44df0c8-3c0a-4103-982e-900169d96e81","system_id":"levelo_inurba_marseille","lat":43.32131,"lon":5.36756,"is_reserved":false,"is_disabled":false,"rental_uris":{"android":"levelo://app?vid=f44df0c8-3c0a-4103-982e-900169d96e81","ios":"levelo://app?vid=f44df0c8-3c0a-4103-982e-900169d96e81"},"vehicle_type_id":"4","last_reported":1759165762,"current_range_meters":16800,"station_id":"ce4bhrh2rcd13ifvqhug","pricing_plan_id":"cebpf4jnsgd1na2vs0mg"},{"bike_id":"13604148-437a-4148-9ed9-019ca4e03ec3","system_id":"levelo_inurba_marseille","lat":43.24647,"lon":5.43148,"is_reserved":false,"is_disabled":false,"rental_uris":{"android":"levelo://app?vid=13604148-437a-4148-9ed9-019ca4e03ec3","ios":"levelo://app?vid=13604148-437a-4148-9ed9-019ca4e03ec3"},"vehicle_type_id":"4","last_reported":1759165762,"current_range_meters":16800,"station_id":"st_d2m6c4gdas8pm72e190g","pricing_plan_id":"cebpf4jnsgd1na2vs0mg"},{"bike_id":"9ddd5298-74c3-492b-96c8-8e772f044814","system_id":"levelo_inurba_marseille","lat":43.26201,"lon":5.3792,"is_reserved":false,"is_disabled":false,"rental_uris":{"android":"levelo://app?vid=9ddd5298-74c3-492b-96c8-8e772f044814","ios":"levelo://app?vid=9ddd5298-74c3-492b-96c8-8e772f044814"},"vehicle_type_id":"4","last_reported":1759165762,"current_range_meters":16800,"station_id":"ce4bhjp2rcd13ifvqg90","pricing_plan_id":"cebpf4jnsgd1na2vs0mg"},{"bike_id":"5c391320-f417-4eab-b3d9-8864c8126948","system_id":"levelo_inurba_marseille","lat":43.30352,"lon":5.4188,"is_reserved":false,"is_disabled":false,"rental_uris":{"android":"levelo://app?vid=5c391320-f417-4eab-b3d9-8864c8126948","ios":"levelo://app?vid=5c391320-f417-4eab-b3d9-8864c8126948"},"vehicle_type_id":"4","last_reported":1759165762,"current_range_meters":16800,"station_id":"ce4bhop2rcd13ifvqh7g","pricing_plan_id":"cebpf4jnsgd1na2vs0mg"},{"bike_id":"211afd9f-58b0-436e-9b6b-1acbadc34392","system_id":"levelo_inurba_marseille","lat":43.32357,"lon":5.36771,"is_reserved":false,"is_disabled":false,"rental_uris":{"android":"levelo://app?vid=211afd9f-58b0-436e-9b6b-1acbadc34392","ios":"levelo://app?vid=211afd9f-58b0-436e-9b6b-1acbadc34392"},"vehicle_type_id":"4","last_reported":1759165762,"current_range_meters":16800,"station_id":"ce4bhsh2rcd13ifvqi2g","pricing_plan_id":"cebpf4jnsgd1na2vs0mg"},{"bike_id":"d2f46c9e-a53c-42a7-ad54-fd7c896f4565","system_id":"levelo_inurba_marseille","lat":43.33797,"lon":5.37428,"is_reserved":false,"is_disabled":false,"rental_uris":{"android":"levelo://app?vid=d2f46c9e-a53c-42a7-ad54-fd7c896f4565","ios":"levelo://app?vid=d2f46c9e-a53c-42a7-ad54-fd7c896f4565"},"vehicle_type_id":"4","last_reported":1759165762,"current_range_meters":16800,"station_id":"","pricing_plan_id":"cebpf4jnsgd1na2vs0mg"},{"bike_id":"4f6c225c-2f41-4430-b894-aea1cc32d949","system_id":"levelo_inurba_marseille","lat":43.25348,"lon":5.4219,"is_reserved":false,"is_disabled":false,"rental_uris":{"android":"levelo://app?vid=4f6c225c-2f41-4430-b894-aea1cc32d949","ios":"levelo://app?vid=4f6c225c-2f41-4430-b894-aea1cc32d949"},"vehicle_type_id":"4","last_reported":1759165762,"current_range_meters":17200,"station_id":"st_d2m65c5bi1j21697t3ng","pricing_plan_id":"cebpf4jnsgd1na2vs0mg"},{"bike_id":"c9f8af9e-f631-4332-aa3b-2f355ca372ad","system_id":"levelo_inurba_marseille","lat":43.31327,"lon":5.39694,"is_reserved":false,"is_disabled":false,"rental_uris":{"android":"levelo://app?vid=c9f8af9e-f631-4332-aa3b-2f355ca372ad","ios":"levelo://app?vid=c9f8af9e-f631-4332-aa3b-2f355ca372ad"},"vehicle_type_id":"4","last_reported":1759165762,"current_range_meters":17200,"station_id":"ce4bgvp2rcd13ifvqcu0","pricing_plan_id":"cebpf4jnsgd1na2vs0mg"},{"bike_id":"b85bed18-5eb7-4352-b750-1a96c0b4f5b6","system_id":"levelo_inurba_marseille","lat":43.25327,"lon":5.42157,"is_reserved":false,"is_disabled":false,"rental_uris":{"android":"levelo://app?vid=b85bed18-5eb7-4352-b750-1a96c0b4f5b6","ios":"levelo://app?vid=b85bed18-5eb7-4352-b750-1a96c0b4f5b6"},"vehicle_type_id":"4","last_reported":1759165762,"current_range_meters":17200,"station_id":"st_d2m65c5bi1j21697t3ng","pricing_plan_id":"cebpf4jnsgd1na2vs0mg"},