{"last_updated":1700507174,"ttl":30,"version":"2.2","data":{"bikes":[{"bike_id":"f8e1c6cf-e33e-44f1-8e8d-a0ccde1564e0","system_id":"levelo_inurba_marseille","lat":43.312239,"lon":5.368562,"is_reserved":false,"is_disabled":false,"rental_uris":{"android":"levelo://app?vid=f8e1c6cf-e33e-44f1-8e8d-a0ccde1564e0","ios":"levelo://app?vid=f8e1c6cf-e33e-44f1-8e8d-a0ccde1564e0"},"vehicle_type_id":"4","last_reported":1700507174,"current_range_meters":29600,"station_id":"ce4bgl92rcd13ifvqbq0","pricing_plan_id":"free"},{"bike_id":"f874da3e-b17e-47f0-a499-90fd16b42a65","system_id":"levelo_inurba_marseille","lat":43.311513,"lon":5.368894,"is_reserved":false,"is_disabled":false,"rental_uris":{"android":"levelo://app?vid=f874da3e-b17e-47f0-a499-90fd16b42a65","ios":"levelo://app?vid=f874da3e-b17e-47f0-a499-90fd16b42a65"},"vehicle_type_id":"4","last_reported":1700507174,"current_range_meters":0,"station_id":"","pricing_plan_id":"free"},{"bike_id":"fc17d1df-19ec-4a9c-acf7-fdc43b73a0bc","system_id":"levelo_inurba_marseille","lat":43.308432,"lon":5.36894,"is_reserved":false,"is_disabled":false,"rental_uris":{"android":"levelo://app?vid=fc17d1df-19ec-4a9c-acf7-fdc43b73a0bc","ios":"levelo://app?vid=fc17d1df-19ec-4a9c-acf7-fdc43b73a0bc"},"vehicle_type_id":"4","last_reported":1700507174,"current_range_meters":20800,"station_id":"","pricing_plan_id":"free"},{"bike_id":"f4dac910-28bc-4215-90bb-3875efb17886","system_id":"levelo_inurba_marseille","lat":43.314811,"lon":5.373103,"is_reserved":false,"is_disabled":false,"rental_uris":{"android":"levelo://app?vid=f4dac910-28bc-4215-90bb-3875efb17886","ios":"levelo://app?vid=f4dac910-28bc-4215-90bb-3875efb17886"},"vehicle_type_id":"4","last_reported":1700507174,"current_range_meters":14400,"station_id":"ce4bgt12rcd13ifvqcd0","pricing_plan_id":"free"},{"bike_id":"61a8a4c5-a2f8-4b60-8914-c3d4c4b6a935","system_id":"levelo_inurba_marseille","lat":43.315008,"lon":5.373042,"is_reserved":false,"is_disabled":false,"rental_uris":{"android":"levelo://app?vid=61a8a4c5-a2f8-4b60-8914-c3d4c4b6a935","ios":"levelo://app?vid=61a8a4c5-a2f8-4b60-8914-c3d4c4b6a935"},"vehicle_type_id":"4","last_reported":1700507174,"current_range_meters":0,"station_id":"ce4bgt12rcd13ifvqcd0","pricing_plan_id":"free"},{"bike_id":"f398eddb-44a4-484b-acf1-6f8766e94a46","system_id":"levelo_inurba_marseille","lat":43.315734,"lon":5.372501,"is_reserved":false,"is_disabled":false,"rental_uris":{"android":"levelo://app?vid=f398eddb-44a4-484b-acf1-6f8766e94a46","ios":"levelo://app?vid=f398eddb-44a4-484b-acf1-6f8766e94a46"},"vehicle_type_id":"4","last_reported":1700507174,"current_range_meters":15600,"station_id":"","pricing_plan_id":"free"},{"bike_id":"f985d81c-2ef2-4e04-b53f-f7e05a11a860","system_id":"levelo_inurba_marseille","lat":43.30892,"lon":5.3719,"is_reserved":false,"is_disabled":false,"rental_uris":{"android":"levelo://app?vid=f985d81c-2ef2-4e04-b53f-f7e05a11a860","ios":"levelo://app?vid=f985d81c-2ef2-4e04-b53f-f7e05a11a860"},"vehicle_type_id":"4","last_reported":1700507174,"current_range_meters":0,"station_id":"ce4bguh2rcd13ifvqckg","pricing_plan_id":"free"},{"bike_id":"3475d204-43b6-43d9-b615-ca1d0d58200e","system_id":"levelo_inurba_marseille","lat":43.30679,"lon":5.3679,"is_reserved":false,"is_disabled":false,"rental_uris":{"android":"levelo://app?vid=3475d204-43b6-43d9-b615-ca1d0d58200e","ios":"levelo://app?vid=3475d204-43b6-43d9-b615-ca1d0d58200e"},"vehicle_type_id":"4","last_reported":1700507174,"current_range_meters":6000,"station_id":"","pricing_plan_id":"free"},{"bike_id":"5be226fe-9917-44d4-912e-03ffe52931bd","system_id":"levelo_inurba_marseille","lat":43.305368,"lon":5.367343,"is_reserved":false,"is_disabled":false,"rental_uris":{"android":"levelo://app?vid=5be226fe-9917-44d4-912e-03ffe52931bd","ios":"levelo://app?vid=5be226fe-9917-44d4-912e-03ffe52931bd"},"vehicle_type_id":"4","last_reported":1700507174,"current_range_meters":0,"station_id":"ce4bgrp2rcd13ifvqc9g","pricing_plan_id":"free"},{"bike_id":"e658ca4e-d050-437c-b99a-b0f44254f02a","system_id":"levelo_inurba_marseille","lat":43.305989,"lon":5.37225,"is_reserved":false,"is_disabled":false,"rental_uris":{"android":"levelo://app?vid=e658ca4e-d050-437c-b99a-b0f44254f02a","ios":"levelo://app?vid=e658ca4e-d050-437c-b99a-b0f44254f02a"},"vehicle_type_id":"4","last_reported":1700507174,"current_range_meters":1600,"station_id":"ce4bgqh2rcd13ifvqc4g","pricing_plan_id":"free"},{"bike_id":"bb5e8499-71e4-487e-94dc-8b5e4da04a7d","system_id":"levelo_inurba_marseille","lat":43.311125,"lon":5.377624,"is_reserved":false,"is_disabled":false,"rental_uris":{"android":"levelo://app?vid=bb5e8499-71e4-487e-94dc-8b5e4da04a7d","ios":"levelo://app?vid=bb5e8499-71e4-487e-94dc-8b5e4da04a7d"},"vehicle_type_id":"4","last_reported":1700507174,"current_range_meters":2000,"station_id":"ce4bgt92rcd13ifvqcg0","pricing_plan_id":"free"},{"bike_id":"4b63c657-6770-48af-96f9-581afea7ac32","system_id":"levelo_inurba_marseille","lat":43.311131,"lon":5.377651,"is_reserved":false,"is_disabled":false,"rental_uris":{"android":"levelo://app?vid=4b63c657-6770-48af-96f9-581afea7ac32","ios":"levelo://app?vid=4b63c657-6770-48af-96f9-581afea7ac32"},"vehicle_type_id":"4","last_reported":1700507174,"current_range_meters":9200,"station_id":"ce4bgt92rcd13ifvqcg0","pricing_plan_id":"free"},{"bike_id":"6a7c9465-73ca-4760-9cc6-6e1a33aab2df","system_id":"levelo_inurba_marseille","lat":43.31711,"lon":5.37695,"is_reserved":false,"is_disabled":false,"rental_uris":{"android":"levelo://app?vid=6a7c9465-73ca-4760-9cc6-6e1a33aab2df","ios":"levelo://app?vid=6a7c9465-73ca-4760-9cc6-6e1a33aab2df"},"vehicle_type_id":"4","last_reported":1700507174,"current_range_meters":20400,"station_id":"ce4bgth2rcd13ifvqch0","pricing_plan_id":"free"},{"bike_id":"baf36c7b-4ac0-4c7e-8f23-7946e859383e","system_id":"levelo_inurba_marseille","lat":43.316982,"lon":5.3774,"is_reserved":false,"is_disabled":false,"rental_uris":{"android":"levelo://app?vid=baf36c7b-4ac0-4c7e-8f23-7946e859383e","ios":"levelo://app?vid=baf36c7b-4ac0-4c7e-8f23-7946e859383e"},"vehicle_type_id":"4","last_reported":1700507174,"current_range_meters":20800,"station_id":"ce4bgth2rcd13ifvqch0","pricing_plan_id":"free"},{"bike_id":"d2f09f99-3a9a-44d4-b322-920b3a54d9eb","system_id":"levelo_inurba_marseille","lat":43.317075,"lon":5.377367,"is_reserved":false,"is_disabled":false,"rental_uris":{"android":"levelo://app?vid=d2f09f99-3a9a-44d4-b322-920b3a54d9eb","ios":"levelo://app?vid=d2f09f99-3a9a-44d4-b322-920b3a54d9eb"},"vehicle_type_id":"4","last_reported":1700507174,"current_range_meters":24400,"station_id":"ce4bgth2rcd13ifvqch0","pricing_plan_id":"free"},{"bike_id":"4f3a32ad-5b32-40f9-b872-8d4c4cbd4a0f","system_id":"levelo_inurba_marseille","lat":43.30312,"lon":5.36907,"is_reserved":false,"is_disabled":false,"rental_uris":{"android":"levelo://app?vid=4f3a32ad-5b32-40f9-b872-8d4c4cbd4a0f","ios":"levelo://app?vid=4f3a32ad-5b32-40f9-b872-8d4c4cbd4a0f"},"vehicle_type_id":"4","last_reported":1700507174,"current_range_meters":0,"station_id":"ce4bgqh2rcd13ifvqc5g","pricing_plan_id":"free"},{"bike_id":"46604a5d-1779-4e39-846a-b26165b874b2","system_id":"levelo_inurba_marseille","lat":43.315293,"lon":5.380349,"is_reserved":false,"is_disabled":false,"rental_uris":{"android":"levelo://app?vid=46604a5d-1779-4e39-846a-b26165b874b2","ios":"levelo://app?vid=46604a5d-1779-4e39-846a-b26165b874b2"},"vehicle_type_id":"4","last_reported":1700507174,"current_range_meters":7200,"station_id":"ce4bhsp2rcd13ifvqi50","pricing_plan_id":"free"},{"bike_id":"3b6d6bb4-c74b-45d6-a179-86884ae46556","system_id":"levelo_inurba_marseille","lat":43.301939,"lon":5.366286,"is_reserved":false,"is_disabled":false,"rental_uris":{"android":"levelo://app?vid=3b6d6bb4-c74b-45d6-a179-86884ae46556","ios":"levelo://app?vid=3b6d6bb4-c74b-45d6-a179-86884ae46556"},"vehicle_type_id":"4","last_reported":1700507174,"current_range_meters":0,"station_id":"ce4bgrh2rcd13ifvqc8g","pricing_plan_id":"free"},{"bike_id":"ffbb909d-3d65-40af-9af9-dc2b0bcbc6c5","system_id":"levelo_inurba_marseille","lat":43.30798,"lon":5.38142,"is_reserved":false,"is_disabled":false,"rental_uris":{"android":"levelo://app?vid=ffbb909d-3d65-40af-9af9-dc2b0bcbc6c5","ios":"levelo://app?vid=ffbb909d-3d65-40af-9af9-dc2b0bcbc6c5"},"vehicle_type_id":"4","last_reported":1700507174,"current_range_meters":14000,"station_id":"ce4bgt12rcd13ifvqce0","pricing_plan_id":"free"},{"bike_id":"4a878d1e-7219-48cd-8909-744b0ad3a4c9","system_id":"levelo_inurba_marseille","lat":43.308,"lon":5.38153,"is_reserved":false,"is_disabled":false,"rental_uris":{"android":"levelo://app?vid=4a878d1e-7219-48cd-8909-744b0ad3a4c9","ios":"levelo://app?vid=4a878d1e-7219-48cd-8909-744b0ad3a4c9"},"vehicle_type_id":"4","last_reported":1700507174,"current_range_meters":3200,"station_id":"ce4bgt12rcd13ifvqce0","pricing_plan_id":"free"},{"bike_id":"404ea89e-5ddd-4dbc-a174-59870d2bf551","system_id":"levelo_inurba_marseille","lat":43.308012,"lon":5.381511,"is_reserved":false,"is_disabled":false,"rental_uris":{"android":"levelo://app?vid=404ea89e-5ddd-4dbc-a174-59870d2bf551","ios":"levelo://app?vid=404ea89e-5ddd-4dbc-a174-59870d2bf551"},"vehicle_type_id":"4","last_reported":1700507174,"current_range_meters":4000,"station_id":"ce4bgt12rcd13ifvqce0","pricing_plan_id":"free"},{"bike_id":"d746bd46-a8bb-4659-8c4a-82343d90c5f5","system_id":"levelo_inurba_marseille","lat":43.313573,"lon":5.38512,"is_reserved":false,"is_disabled":false,"rental_uris":{"android":"levelo://app?vid=d746bd46-a8bb-4659-8c4a-82343d90c5f5","ios":"levelo://app?vid=d746bd46-a8bb-4659-8c4a-82343d90c5f5"},"vehicle_type_id":"4","last_reported":1700507174,"current_range_meters":11600,"station_id":"ce4bgt92rcd13ifvqcf0","pricing_plan_id":"free"},{"bike_id":"3698ea04-493c-4e2e-84fe-6fbe5672d404","system_id":"levelo_inurba_marseille","lat":43.299724,"lon":5.371829,"is_reserved":false,"is_disabled":false,"rental_uris":{"android":"levelo://app?vid=3698ea04-493c-4e2e-84fe-6fbe5672d404","ios":"levelo://app?vid=3698ea04-493c-4e2e-84fe-6fbe5672d404"},"vehicle_type_id":"4","last_reported":1700507174,"current_range_meters":7600,"station_id":"ce4bgr92rcd13ifvqc7g","pricing_plan_id":"free"},{"bike_id":"2d1ae35d-52aa-4f54-9233-b323fa1d6593","system_id":"levelo_inurba_marseille","lat":43.298433,"lon":5.362774,"is_reserved":false,"is_disabled":false,"rental_uris":{"android":"levelo://app?vid=2d1ae35d-52aa-4f54-9233-b323fa1d6593","ios":"levelo://app?vid=2d1ae35d-52aa-4f54-9233-b323fa1d6593"},"vehicle_type_id":"4","last_reported":1700507174,"current_range_meters":0,"station_id":"ce4bgpp2rcd13ifvqc3g","pricing_plan_id":"free"},{"bike_id":"9146ef58-ace1-49f2-88a9-56ceecd8d4ae","system_id":"levelo_inurba_marseille","lat":43.311722,"lon":5.387247,"is_reserved":false,"is_disabled":false,"rental_uris":{"android":"levelo://app?vid=9146ef58-ace1-49f2-88a9-56ceecd8d4ae","ios":"levelo://app?vid=9146ef58-ace1-49f2-88a9-56ceecd8d4ae"},"vehicle_type_id":"4","last_reported":1700507174,"current_range_meters":0,"station_id":"ce4bgv12rcd13ifvqcp0","pricing_plan_id":"free"},{"bike_id":"70e27cd3-624e-47fc-95d7-2e50739a681f","system_id":"levelo_inurba_marseille","lat":43.311722,"lon":5.387247,"is_reserved":false,"is_disabled":false,"rental_uris":{"android":"levelo://app?vid=70e27cd3-624e-47fc-95d7-2e50739a681f","ios":"levelo://app?vid=70e27cd3-624e-47fc-95d7-2e50739a681f"},"vehicle_type_id":"4","last_reported":1700507174,"current_range_meters":1200,"station_id":"ce4bgv12rcd13ifvqcp0","pricing_plan_id":"free"},{"bike_id":"bc669a6b-6dd7-475b-ab5d-53ecab206603","system_id":"levelo_inurba_marseille","lat":43.311722,"lon":5.387247,"is_reserved":false,"is_disabled":false,"rental_uris":{"android":"levelo://app?vid=bc669a6b-6dd7-475b-ab5d-53ecab206603","ios":"levelo://app?vid=bc669a6b-6dd7-475b-ab5d-53ecab206603"},"vehicle_type_id":"4","last_reported":1700507174,"current_range_meters":2800,"station_id":"ce4bgv12rcd13ifvqcp0","pricing_plan_id":"free"},{"bike_id":"f08b0271-ae73-492f-9a89-b8d51dfdbf59","system_id":"levelo_inurba_marseille","lat":43.29811,"lon":5.37099,"is_reserved":false,"is_disabled":false,"rental_uris":{"android":"levelo://app?vid=f08b0271-ae73-492f-9a89-b8d51dfdbf59","ios":"levelo://app?vid=f08b0271-ae73-492f-9a89-b8d51dfdbf59"},"vehicle_type_id":"4","last_reported":1700507174,"current_range_meters":19200,"station_id":"ce4bgop2rcd13ifvqc1g","pricing_plan_id":"free"},{"bike_id":"95f7a8be-3dc6-4b12-8685-93dc23878d16","system_id":"levelo_inurba_marseille","lat":43.32288,"lon":5.38267,"is_reserved":false,"is_disabled":false,"rental_uris":{"android":"levelo://app?vid=95f7a8be-3dc6-4b12-8685-93dc23878d16","ios":"levelo://app?vid=95f7a8be-3dc6-4b12-8685-93dc23878d16"},"vehicle_type_id":"4","last_reported":1700507174,"current_range_meters":26400,"station_id":"ce4bhr12rcd13ifvqhqg","pricing_plan_id":"free"},{"bike_id":"163157fd-493b-4747-9dab-79c0b8fa118e","system_id":"levelo_inurba_marseille","lat":43.322906,"lon":5.382669,"is_reserved":false,"is_disabled":false,"rental_uris":{"android":"levelo://app?vid=163157fd-493b-4747-9dab-79c0b8fa118e","ios":"levelo://app?vid=163157fd-493b-4747-9dab-79c0b8fa118e"},"vehicle_type_id":"4","last_reported":1700507174,"current_range_meters":8000,"station_id":"ce4bhr12rcd13ifvqhqg","pricing_plan_id":"free"},{"bike_id":"4877c1bd-6c5b-4748-a29f-20d769f45293","system_id":"levelo_inurba_marseille","lat":43.32288,"lon":5.38274,"is_reserved":false,"is_disabled":false,"rental_uris":{"android":"levelo://app?vid=4877c1bd-6c5b-4748-a29f-20d769f45293","ios":"levelo://app?vid=4877c1bd-6c5b-4748-a29f-20d769f45293"},"vehicle_type_id":"4","last_reported":1700507174,"current_range_meters":7200,"station_id":"ce4bhr12rcd13ifvqhqg","pricing_plan_id":"free"},{"bike_id":"af1d5b43-c1f3-4f49-a6bc-4e530f32c442","system_id":"levelo_inurba_marseille","lat":43.322872,"lon":5.382756,"is_reserved":false,"is_disabled":false,"rental_uris":{"android":"levelo://app?vid=af1d5b43-c1f3-4f49-a6bc-4e530f32c442","ios":"levelo://app?vid=af1d5b43-c1f3-4f49-a6bc-4e530f32c442"},"vehicle_type_id":"4","last_reported":1700507174,"current_range_meters":24000,"station_id":"ce4bhr12rcd13ifvqhqg","pricing_plan_id":"free"},{"bike_id":"995986c1-6e15-456c-a41c-7fb4d7786f92","system_id":"levelo_inurba_marseille","lat":43.32831,"lon":5.36686,"is_reserved":false,"is_disabled":false,"rental_uris":{"android":"levelo://app?vid=995986c1-6e15-456c-a41c-7fb4d7786f92","ios":"levelo://app?vid=995986c1-6e15-456c-a41c-7fb4d7786f92"},"vehicle_type_id":"4","last_reported":1700507174,"current_range_meters":6800,"station_id":"ce4bhs92rcd13ifvqi0g","pricing_plan_id":"free"},{"bike_id":"50c9c2bb-c7f5-4c7c-b7f9-79d291df4c17","system_id":"levelo_inurba_marseille","lat":43.29573,"lon":5.367355,"is_reserved":false,"is_disabled":false,"rental_uris":{"android":"levelo://app?vid=50c9c2bb-c7f5-4c7c-b7f9-79d291df4c17","ios":"levelo://app?vid=50c9c2bb-c7f5-4c7c-b7f9-79d291df4c17"},"vehicle_type_id":"4","last_reported":1700507174,"current_range_meters":0,"station_id":"ce4bgph2rcd13ifvqc2g","pricing_plan_id":"free"},{"bike_id":"a4fc4f1f-b4cb-4447-9650-54a96ed51e29","system_id":"levelo_inurba_marseille","lat":43.32143,"lon":5.38709,"is_reserved":false,"is_disabled":false,"rental_uris":{"android":"levelo://app?vid=a4fc4f1f-b4cb-4447-9650-54a96ed51e29","ios":"levelo://app?vid=a4fc4f1f-b4cb-4447-9650-54a96ed51e29"},"vehicle_type_id":"4","last_reported":1700507174,"current_range_meters":0,"station_id":"","pricing_plan_id":"free"},{"bike_id":"f73e4b62-db53-41c8-9427-31b1dc519812","system_id":"levelo_inurba_marseille","lat":43.296921,"lon":5.376579,"is_reserved":false,"is_disabled":false,"rental_uris":{"android":"levelo://app?vid=f73e4b62-db53-41c8-9427-31b1dc519812","ios":"levelo://app?vid=f73e4b62-db53-41c8-9427-31b1dc519812"},"vehicle_type_id":"4","last_reported":1700507174,"current_range_meters":21600,"station_id":"ce4bgkh2rcd13ifvqbl0","pricing_plan_id":"free"},{"bike_id":"c8c6a0ef-27bd-47a1-9708-6361c9c4e009","system_id":"levelo_inurba_marseille","lat":43.317557,"lon":5.390173,"is_reserved":false,"is_disabled":false,"rental_uris":{"android":"levelo://app?vid=c8c6a0ef-27bd-47a1-9708-6361c9c4e009","ios":"levelo://app?vid=c8c6a0ef-27bd-47a1-9708-6361c9c4e009"},"vehicle_type_id":"4","last_reported":1700507174,"current_range_meters":1600,"station_id":"ce4bhqp2rcd13ifvqhng","pricing_plan_id":"free"},{"bike_id":"40703649-84db-4836-b1cb-1ac7fa6c53bd","system_id":"levelo_inurba_marseille","lat":43.317557,"lon":5.390173,"is_reserved":false,"is_disabled":false,"rental_uris":{"android":"levelo://app?vid=40703649-84db-4836-b1cb-1ac7fa6c53bd","ios":"levelo://app?vid=40703649-84db-4836-b1cb-1ac7fa6c53bd"},"vehicle_type_id":"4","last_reported":1700507174,"current_range_meters":0,"station_id":"ce4bhqp2rcd13ifvqhng","pricing_plan_id":"free"},{"bike_id":"f1da3980-fd89-4a16-a73a-0f525105e0c0","system_id":"levelo_inurba_marseille","lat":43.317557,"lon":5.390173,"is_reserved":false,"is_disabled":false,"rental_uris":{"android":"levelo://app?vid=f1da3980-fd89-4a16-a73a-0f525105e0c0","ios":"levelo://app?vid=f1da3980-fd89-4a16-a73a-0f525105e0c0"},"vehicle_type_id":"4","last_reported":1700507174,"current_range_meters":24800,"station_id":"ce4bhqp2rcd13ifvqhng","pricing_plan_id":"free"},{"bike_id":"67ffd28a-0325-489b-a10f-d90500122751","system_id":"levelo_inurba_marseille","lat":43.295748,"lon":5.37522,"is_reserved":false,"is_disabled":false,"rental_uris":{"android":"levelo://app?vid=67ffd28a-0325-489b-a10f-d90500122751","ios":"levelo://app?vid=67ffd28a-0325-489b-a10f-d90500122751"},"vehicle_type_id":"4","last_reported":1700507174,"current_range_meters":31200,"station_id":"ce4bgh92rcd13ifvqb50","pricing_plan_id":"free"},{"bike_id":"3e3e92fe-39b7-4933-99ff-3747b28b5d69","system_id":"levelo_inurba_marseille","lat":43.328154,"lon":5.380034,"is_reserved":false,"is_disabled":false,"rental_uris":{"android":"levelo://app?vid=3e3e92fe-39b7-4933-99ff-3747b28b5d69","ios":"levelo://app?vid=3e3e92fe-39b7-4933-99ff-3747b28b5d69"},"vehicle_type_id":"4","last_reported":1700507174,"current_range_meters":1200,"station_id":"","pricing_plan_id":"free"},{"bike_id":"e145a3f7-00ac-4f8f-bfe5-435bc38ccaf7","system_id":"levelo_inurba_marseille","lat":43.293801,"lon":5.363066,"is_reserved":false,"is_disabled":false,"rental_uris":{"android":"levelo://app?vid=e145a3f7-00ac-4f8f-bfe5-435bc38ccaf7","ios":"levelo://app?vid=e145a3f7-00ac-4f8f-bfe5-435bc38ccaf7"},"vehicle_type_id":"4","last_reported":1700507174,"current_range_meters":18800,"station_id":"","pricing_plan_id":"free"},{"bike_id":"457267b3-9390-4309-8307-42319d1e300c","system_id":"levelo_inurba_marseille","lat":43.32363,"lon":5.38891,"is_reserved":false,"is_disabled":false,"rental_uris":{"android":"levelo://app?vid=457267b3-9390-4309-8307-42319d1e300c","ios":"levelo://app?vid=457267b3-9390-4309-8307-42319d1e300c"},"vehicle_type_id":"4","last_reported":1700507174,"current_range_meters":19200,"station_id":"ce4bhqp2rcd13ifvqhog","pricing_plan_id":"free"},{"bike_id":"3cb8c185-c31b-4eef-a7c6-7f786fc47019","system_id":"levelo_inurba_marseille","lat":43.323466,"lon":5.3891,"is_reserved":false,"is_disabled":false,"rental_uris":{"android":"levelo://app?vid=3cb8c185-c31b-4eef-a7c6-7f786fc47019","ios":"levelo://app?vid=3cb8c185-c31b-4eef-a7c6-7f786fc47019"},"vehicle_type_id":"4","last_reported":1700507174,"current_range_meters":10000,"station_id":"ce4bhqp2rcd13ifvqhog","pricing_plan_id":"free"},{"bike_id":"614c8e0d-4b86-4d4c-b9ea-46a39baa5ac3","system_id":"levelo_inurba_marseille","lat":43.32369,"lon":5.3889,"is_reserved":false,"is_disabled":false,"rental_uris":{"android":"levelo://app?vid=614c8e0d-4b86-4d4c-b9ea-46a39baa5ac3","ios":"levelo://app?vid=614c8e0d-4b86-4d4c-b9ea-46a39baa5ac3"},"vehicle_type_id":"4","last_reported":1700507174,"current_range_meters":16400,"station_id":"ce4bhqp2rcd13ifvqhog","pricing_plan_id":"free"},{"bike_id":"04c62577-f6f4-42bf-a2cb-49840fad24d9","system_id":"levelo_inurba_marseille","lat":43.330543,"lon":5.378928,"is_reserved":false,"is_disabled":false,"rental_uris":{"android":"levelo://app?vid=04c62577-f6f4-42bf-a2cb-49840fad24d9","ios":"levelo://app?vid=04c62577-f6f4-42bf-a2cb-49840fad24d9"},"vehicle_type_id":"4","last_reported":1700507174,"current_range_meters":4800,"station_id":"","pricing_plan_id":"free"},{"bike_id":"26f39cce-4a32-40c4-858a-ae915cfe7715","system_id":"levelo_inurba_marseille","lat":43.302992,"lon":5.392136,"is_reserved":false,"is_disabled":false,"rental_uris":{"android":"levelo://app?vid=26f39cce-4a32-40c4-858a-ae915cfe7715","ios":"levelo://app?vid=26f39cce-4a32-40c4-858a-ae915cfe7715"},"vehicle_type_id":"4","last_reported":1700507174,"current_range_meters":0,"station_id":"ce4bgkh2rcd13ifvqbk0","pricing_plan_id":"free"},{"bike_id":"346d88fc-5828-4e7b-81ab-acb559da9bfc","system_id":"levelo_inurba_marseille","lat":43.300852,"lon":5.390859,"is_reserved":false,"is_disabled":false,"rental_uris":{"android":"levelo://app?vid=346d88fc-5828-4e7b-81ab-acb559da9bfc","ios":"levelo://app?vid=346d88fc-5828-4e7b-81ab-acb559da9bfc"},"vehicle_type_id":"4","last_reported":1700507174,"current_range_meters":12400,"station_id":"ce4bh192rcd13ifvqdb0","pricing_plan_id":"free"},{"bike_id":"067f2884-1843-4dad-a3cf-d1b9315badc1","system_id":"levelo_inurba_marseille","lat":43.291676,"lon":5.371482,"is_reserved":false,"is_disabled":false,"rental_uris":{"android":"levelo://app?vid=067f2884-1843-4dad-a3cf-d1b9315badc1","ios":"levelo://app?vid=067f2884-1843-4dad-a3cf-d1b9315badc1"},"vehicle_type_id":"4","last_reported":1700507174,"current_range_meters":0,"station_id":"ce4bha92rcd13ifvqeh0","pricing_plan_id":"free"},{"bike_id":"2602bfcf-98ba-4c75-ab1f-c472efc98476","system_id":"levelo_inurba_marseille","lat":43.291675,"lon":5.371583,"is_reserved":false,"is_disabled":false,"rental_uris":{"android":"levelo://app?vid=2602bfcf-98ba-4c75-ab1f-c472efc98476","ios":"levelo://app?vid=2602bfcf-98ba-4c75-ab1f-c472efc98476"},"vehicle_type_id":"4","last_reported":1700507174,"current_range_meters":9600,"station_id":"ce4bha92rcd13ifvqeh0","pricing_plan_id":"free"},{"bike_id":"19e2d639-7d12-4901-b22f-d315065707ee","system_id":"levelo_inurba_marseille","lat":43.29161,"lon":5.37158,"is_reserved":false,"is_disabled":false,"rental_uris":{"android":"levelo://app?vid=19e2d639-7d12-4901-b22f-d315065707ee","ios":"levelo://app?vid=19e2d639-7d12-4901-b22f-d315065707ee"},"vehicle_type_id":"4","last_reported":1700507174,"current_range_meters":5200,"station_id":"ce4bha92rcd13ifvqeh0","pricing_plan_id":"free"},{"bike_id":"57b3a308-ada7-4381-8f83-941c6ce0a062","system_id":"levelo_inurba_marseille","lat":43.31331,"lon":5.39693,"is_reserved":false,"is_disabled":false,"rental_uris":{"android":"levelo://app?vid=57b3a308-ada7-4381-8f83-941c6ce0a062","ios":"levelo://app?vid=57b3a308-ada7-4381-8f83-941c6ce0a062"},"vehicle_type_id":"4","last_reported":1700507174,"current_range_meters":14800,"station_id":"ce4bgvp2rcd13ifvqcu0","pricing_plan_id":"free"},{"bike_id":"c2f6306c-fd64-45c1-bddd-930de3c5441a","system_id":"levelo_inurba_marseille","lat":43.31326,"lon":5.39694,"is_reserved":false,"is_disabled":false,"rental_uris":{"android":"levelo://app?vid=c2f6306c-fd64-45c1-bddd-930de3c5441a","ios":"levelo://app?vid=c2f6306c-fd64-45c1-bddd-930de3c5441a"},"vehicle_type_id":"4","last_reported":1700507174,"current_range_meters":16000,"station_id":"ce4bgvp2rcd13ifvqcu0","pricing_plan_id":"free"},{"bike_id":"9995eb3c-2251-456c-b847-7f07a3ce9f22","system_id":"levelo_inurba_marseille","lat":43.31329,"lon":5.39694,"is_reserved":false,"is_disabled":false,"rental_uris":{"android":"levelo://app?vid=9995eb3c-2251-456c-b847-7f07a3ce9f22","ios":"levelo://app?vid=9995eb3c-2251-456c-b847-7f07a3ce9f22"},"vehicle_type_id":"4","last_reported":1700507174,"current_range_meters":31200,"station_id":"ce4bgvp2rcd13ifvqcu0","pricing_plan_id":"free"},{"bike_id":"67c51ff7-f78d-4f39-8689-df0fdf44a28a","system_id":"levelo_inurba_marseille","lat":43.3133,"lon":5.39694,"is_reserved":false,"is_disabled":false,"rental_uris":{"android":"levelo://app?vid=67c51ff7-f78d-4f39-8689-df0fdf44a28a","ios":"levelo://app?vid=67c51ff7-f78d-4f39-8689-df0fdf44a28a"},"vehicle_type_id":"4","last_reported":1700507174,"current_range_meters":0,"station_id":"ce4bgvp2rcd13ifvqcu0","pricing_plan_id":"free"},{"bike_id":"d54fdc6e-dcf9-4abe-aa53-161724f36f3b","system_id":"levelo_inurba_marseille","lat":43.313279,"lon":5.396947,"is_reserved":false,"is_disabled":false,"rental_uris":{"android":"levelo://app?vid=d54fdc6e-dcf9-4abe-aa53-161724f36f3b","ios":"levelo://app?vid=d54fdc6e-dcf9-4abe-aa53-161724f36f3b"},"vehicle_type_id":"4","last_reported":1700507174,"current_range_meters":31200,"station_id":"ce4bgvp2rcd13ifvqcu0","pricing_plan_id":"free"},{"bike_id":"ce051eff-165d-4f75-b778-1c0df5f35b40","system_id":"levelo_inurba_marseille","lat":43.31328,"lon":5.39695,"is_reserved":false,"is_disabled":false,"rental_uris":{"android":"levelo://app?vid=ce051eff-165d-4f75-b778-1c0df5f35b40","ios":"levelo://app?vid=ce051eff-165d-4f75-b778-1c0df5f35b40"},"vehicle_type_id":"4","last_reported":1700507174,"current_range_meters":18000,"station_id":"ce4bgvp2rcd13ifvqcu0","pricing_plan_id":"free"},{"bike_id":"5e2df123-d933-4169-a934-01acce82c9f3","system_id":"levelo_inurba_marseille","lat":43.31326,"lon":5.39696,"is_reserved":false,"is_disabled":false,"rental_uris":{"android":"levelo://app?vid=5e2df123-d933-4169-a934-01acce82c9f3","ios":"levelo://app?vid=5e2df123-d933-4169-a934-01acce82c9f3"},"vehicle_type_id":"4","last_reported":1700507174,"current_range_meters":22800,"station_id":"ce4bgvp2rcd13ifvqcu0","pricing_plan_id":"free"},{"bike_id":"98aa03dc-e2da-495e-8e32-de58a61e91d2","system_id":"levelo_inurba_marseille","lat":43.31327,"lon":5.39698,"is_reserved":false,"is_disabled":false,"rental_uris":{"android":"levelo://app?vid=98aa03dc-e2da-495e-8e32-de58a61e91d2","ios":"levelo://app?vid=98aa03dc-e2da-495e-8e32-de58a61e91d2"},"vehicle_type_id":"4","last_reported":1700507174,"current_range_meters":28800,"station_id":"ce4bgvp2rcd13ifvqcu0","pricing_plan_id":"free"},{"bike_id":"d1702d67-2dd2-458f-ad35-76414ccc698d","system_id":"levelo_inurba_marseille","lat":43.313291,"lon":5.396838,"is_reserved":false,"is_disabled":false,"rental_uris":{"android":"levelo://app?vid=d1702d67-2dd2-458f-ad35-76414ccc698d","ios":"levelo://app?vid=d1702d67-2dd2-458f-ad35-76414ccc698d"},"vehicle_type_id":"4","last_reported":1700507174,"current_range_meters":6800,"station_id":"ce4bgvp2rcd13ifvqcu0","pricing_plan_id":"free"},{"bike_id":"36872ee5-993e-4d34-a3be-b97360ae2615","system_id":"levelo_inurba_marseille","lat":43.30085,"lon":5.390856,"is_reserved":false,"is_disabled":false,"rental_uris":{"android":"levelo://app?vid=36872ee5-993e-4d34-a3be-b97360ae2615","ios":"levelo://app?vid=36872ee5-993e-4d34-a3be-b97360ae2615"},"vehicle_type_id":"4","last_reported":1700507174,"current_range_meters":0,"station_id":"ce4bh192rcd13ifvqdb0","pricing_plan_id":"free"},{"bike_id":"e3f21c12-6520-4a6d-ae37-aea90898e333","system_id":"levelo_inurba_marseille","lat":43.290779,"lon":5.371482,"is_reserved":false,"is_disabled":false,"rental_uris":{"android":"levelo://app?vid=e3f21c12-6520-4a6d-ae37-aea90898e333","ios":"levelo://app?vid=e3f21c12-6520-4a6d-ae37-aea90898e333"},"vehicle_type_id":"4","last_reported":1700507174,"current_range_meters":29600,"station_id":"ce4bh5p2rcd13ifvqe4g","pricing_plan_id":"free"},{"bike_id":"0cefd546-d357-4941-b099-9bc1df68a059","system_id":"levelo_inurba_marseille","lat":43.290779,"lon":5.371482,"is_reserved":false,"is_disabled":false,"rental_uris":{"android":"levelo://app?vid=0cefd546-d357-4941-b099-9bc1df68a059","ios":"levelo://app?vid=0cefd546-d357-4941-b099-9bc1df68a059"},"vehicle_type_id":"4","last_reported":1700507174,"current_range_meters":6000,"station_id":"ce4bh5p2rcd13ifvqe4g","pricing_plan_id":"free"},{"bike_id":"31826d8e-5efd-44c9-8d46-7150142868d8","system_id":"levelo_inurba_marseille","lat":43.290624,"lon":5.359245,"is_reserved":false,"is_disabled":false,"rental_uris":{"android":"levelo://app?vid=31826d8e-5efd-44c9-8d46-7150142868d8","ios":"levelo://app?vid=31826d8e-5efd-44c9-8d46-7150142868d8"},"vehicle_type_id":"4","last_reported":1700507174,"current_range_meters":22800,"station_id":"ce4bha92rcd13ifvqeg0","pricing_plan_id":"free"},{"bike_id":"132aba4c-5ae8-40e1-8742-2e82508abc6e","system_id":"levelo_inurba_marseille","lat":43.28945,"lon":5.36407,"is_reserved":false,"is_disabled":false,"rental_uris":{"android":"levelo://app?vid=132aba4c-5ae8-40e1-8742-2e82508abc6e","ios":"levelo://app?vid=132aba4c-5ae8-40e1-8742-2e82508abc6e"},"vehicle_type_id":"4","last_reported":1700507174,"current_range_meters":18800,"station_id":"ce4bhc92rcd13ifvqetg","pricing_plan_id":"free"},{"bike_id":"db0bfc97-e02e-4d4e-8916-ca7243959049","system_id":"levelo_inurba_marseille","lat":43.28982,"lon":5.35968,"is_reserved":false,"is_disabled":false,"rental_uris":{"android":"levelo://app?vid=db0bfc97-e02e-4d4e-8916-ca7243959049","ios":"levelo://app?vid=db0bfc97-e02e-4d4e-8916-ca7243959049"},"vehicle_type_id":"4","last_reported":1700507174,"current_range_meters":22000,"station_id":"","pricing_plan_id":"free"},{"bike_id":"ad5d7ef7-f8b2-4129-bacf-82473bfdf55c","system_id":"levelo_inurba_marseille","lat":43.304274,"lon":5.397513,"is_reserved":false,"is_disabled":false,"rental_uris":{"android":"levelo://app?vid=ad5d7ef7-f8b2-4129-bacf-82473bfdf55c","ios":"levelo://app?vid=ad5d7ef7-f8b2-4129-bacf-82473bfdf55c"},"vehicle_type_id":"4","last_reported":1700507174,"current_range_meters":4000,"station_id":"ce4bh092rcd13ifvqd20","pricing_plan_id":"free"},{"bike_id":"6c3f86c9-9c97-4389-947e-4acabddb9d98","system_id":"levelo_inurba_marseille","lat":43.3304,"lon":5.389215,"is_reserved":false,"is_disabled":false,"rental_uris":{"android":"levelo://app?vid=6c3f86c9-9c97-4389-947e-4acabddb9d98","ios":"levelo://app?vid=6c3f86c9-9c97-4389-947e-4acabddb9d98"},"vehicle_type_id":"4","last_reported":1700507174,"current_range_meters":22400,"station_id":"ce4bhr92rcd13ifvqhrg","pricing_plan_id":"free"},{"bike_id":"58180374-f06e-4b90-834d-fae491697cd0","system_id":"levelo_inurba_marseille","lat":43.33045,"lon":5.38916,"is_reserved":false,"is_disabled":false,"rental_uris":{"android":"levelo://app?vid=58180374-f06e-4b90-834d-fae491697cd0","ios":"levelo://app?vid=58180374-f06e-4b90-834d-fae491697cd0"},"vehicle_type_id":"4","last_reported":1700507174,"current_range_meters":400,"station_id":"ce4bhr92rcd13ifvqhrg","pricing_plan_id":"free"},{"bike_id":"a970e4ab-aa98-4f46-8ef1-16901408a2af","system_id":"levelo_inurba_marseille","lat":43.290103,"lon":5.356114,"is_reserved":false,"is_disabled":false,"rental_uris":{"android":"levelo://app?vid=a970e4ab-aa98-4f46-8ef1-16901408a2af","ios":"levelo://app?vid=a970e4ab-aa98-4f46-8ef1-16901408a2af"},"vehicle_type_id":"4","last_reported":1700507174,"current_range_meters":11200,"station_id":"ce4bhb92rcd13ifvqen0","pricing_plan_id":"free"},{"bike_id":"5c51b3f1-2fc4-4510-9f24-42ee141c1811","system_id":"levelo_inurba_marseille","lat":43.290103,"lon":5.356114,"is_reserved":false,"is_disabled":false,"rental_uris":{"android":"levelo://app?vid=5c51b3f1-2fc4-4510-9f24-42ee141c1811","ios":"levelo://app?vid=5c51b3f1-2fc4-4510-9f24-42ee141c1811"},"vehicle_type_id":"4","last_reported":1700507174,"current_range_meters":0,"station_id":"ce4bhb92rcd13ifvqen0","pricing_plan_id":"free"},{"bike_id":"b04804cf-5e01-4a00-a221-33ce71eafa30","system_id":"levelo_inurba_marseille","lat":43.330442,"lon":5.389148,"is_reserved":false,"is_disabled":false,"rental_uris":{"android":"levelo://app?vid=b04804cf-5e01-4a00-a221-33ce71eafa30","ios":"levelo://app?vid=b04804cf-5e01-4a00-a221-33ce71eafa30"},"vehicle_type_id":"4","last_reported":1700507174,"current_range_meters":12800,"station_id":"ce4bhr92rcd13ifvqhrg","pricing_plan_id":"free"},{"bike_id":"25f2f82c-eb04-4b79-ba19-5ef0e6134874","system_id":"levelo_inurba_marseille","lat":43.330442,"lon":5.389148,"is_reserved":false,"is_disabled":false,"rental_uris":{"android":"levelo://app?vid=25f2f82c-eb04-4b79-ba19-5ef0e6134874","ios":"levelo://app?vid=25f2f82c-eb04-4b79-ba19-5ef0e6134874"},"vehicle_type_id":"4","last_reported":1700507174,"current_range_meters":22400,"station_id":"ce4bhr92rcd13ifvqhrg","pricing_plan_id":"free"},{"bike_id":"418cad27-1253-4eee-9723-e40bc1fe08f9","system_id":"levelo_inurba_marseille","lat":43.295169,"lon":5.390426,"is_reserved":false,"is_disabled":false,"rental_uris":{"android":"levelo://app?vid=418cad27-1253-4eee-9723-e40bc1fe08f9","ios":"levelo://app?vid=418cad27-1253-4eee-9723-e40bc1fe08f9"},"vehicle_type_id":"4","last_reported":1700507174,"current_range_meters":24800,"station_id":"ce4bh3p2rcd13ifvqdp0","pricing_plan_id":"free"},{"bike_id":"57cf4294-1e52-4458-b133-0811eda133f9","system_id":"levelo_inurba_marseille","lat":43.295169,"lon":5.390426,"is_reserved":false,"is_disabled":false,"rental_uris":{"android":"levelo://app?vid=57cf4294-1e52-4458-b133-0811eda133f9","ios":"levelo://app?vid=57cf4294-1e52-4458-b133-0811eda133f9"},"vehicle_type_id":"4","last_reported":1700507174,"current_range_meters":3200,"station_id":"ce4bh3p2rcd13ifvqdp0","pricing_plan_id":"free"},{"bike_id":"9c94b05e-ae80-41bc-9bc2-26b944d21a2d","system_id":"levelo_inurba_marseille","lat":43.2901,"lon":5.381269,"is_reserved":false,"is_disabled":false,"rental_uris":{"android":"levelo://app?vid=9c94b05e-ae80-41bc-9bc2-26b944d21a2d","ios":"levelo://app?vid=9c94b05e-ae80-41bc-9bc2-26b944d21a2d"},"vehicle_type_id":"4","last_reported":1700507174,"current_range_meters":800,"station_id":"ce4bh4p2rcd13ifvqe1g","pricing_plan_id":"free"},{"bike_id":"08cd3c25-96f5-46a2-80f8-c59e2e04b11d","system_id":"levelo_inurba_marseille","lat":43.288557,"lon":5.358385,"is_reserved":false,"is_disabled":false,"rental_uris":{"android":"levelo://app?vid=08cd3c25-96f5-46a2-80f8-c59e2e04b11d","ios":"levelo://app?vid=08cd3c25-96f5-46a2-80f8-c59e2e04b11d"},"vehicle_type_id":"4","last_reported":1700507174,"current_range_meters":0,"station_id":"ce4bhb12rcd13ifvqem0","pricing_plan_id":"free"},{"bike_id":"07202f70-50d7-46f0-a5bd-59712659d6a0","system_id":"levelo_inurba_marseille","lat":43.31251,"lon":5.40162,"is_reserved":false,"is_disabled":false,"rental_uris":{"android":"levelo://app?vid=07202f70-50d7-46f0-a5bd-59712659d6a0","ios":"levelo://app?vid=07202f70-50d7-46f0-a5bd-59712659d6a0"},"vehicle_type_id":"4","last_reported":1700507174,"current_range_meters":6000,"station_id":"","pricing_plan_id":"free"},{"bike_id":"9d76eca6-e85e-49d7-809a-4e0ac58db9fa","system_id":"levelo_inurba_marseille","lat":43.312814,"lon":5.401718,"is_reserved":false,"is_disabled":false,"rental_uris":{"android":"levelo://app?vid=9d76eca6-e85e-49d7-809a-4e0ac58db9fa","ios":"levelo://app?vid=9d76eca6-e85e-49d7-809a-4e0ac58db9fa"},"vehicle_type_id":"4","last_reported":1700507174,"current_range_meters":30800,"station_id":"ce4bh092rcd13ifvqd30","pricing_plan_id":"free"},{"bike_id":"32c3052d-6284-4959-86ad-ab46f267ce26","system_id":"levelo_inurba_marseille","lat":43.33745,"lon":5.37461,"is_reserved":false,"is_disabled":false,"rental_uris":{"android":"levelo://app?vid=32c3052d-6284-4959-86ad-ab46f267ce26","ios":"levelo://app?vid=32c3052d-6284-4959-86ad-ab46f267ce26"},"vehicle_type_id":"4","last_reported":1700507174,"current_range_meters":24000,"station_id":"","pricing_plan_id":"free"},{"bike_id":"018c1b8c-ec50-4254-826e-88031b94cf4f","system_id":"levelo_inurba_marseille","lat":43.312803,"lon":5.401752,"is_reserved":false,"is_disabled":false,"rental_uris":{"android":"levelo://app?vid=018c1b8c-ec50-4254-826e-88031b94cf4f","ios":"levelo://app?vid=018c1b8c-ec50-4254-826e-88031b94cf4f"},"vehicle_type_id":"4","last_reported":1700507174,"current_range_meters":17200,"station_id":"ce4bh092rcd13ifvqd30","pricing_plan_id":"free"},{"bike_id":"6a01914c-8698-4f48-b494-37501834332a","system_id":"levelo_inurba_marseille","lat":43.312672,"lon":5.401774,"is_reserved":false,"is_disabled":false,"rental_uris":{"android":"levelo://app?vid=6a01914c-8698-4f48-b494-37501834332a","ios":"levelo://app?vid=6a01914c-8698-4f48-b494-37501834332a"},"vehicle_type_id":"4","last_reported":1700507174,"current_range_meters":5200,"station_id":"ce4bh092rcd13ifvqd30","pricing_plan_id":"free"},{"bike_id":"d5007cd5-ae02-43a7-8284-60107adb6236","system_id":"levelo_inurba_marseille","lat":43.33755,"lon":5.37455,"is_reserved":false,"is_disabled":false,"rental_uris":{"android":"levelo://app?vid=d5007cd5-ae02-43a7-8284-60107adb6236","ios":"levelo://app?vid=d5007cd5-ae02-43a7-8284-60107adb6236"},"vehicle_type_id":"4","last_reported":1700507174,"current_range_meters":24800,"station_id":"","pricing_plan_id":"free"},{"bike_id":"01bbc10c-ff7d-4f4a-97c2-ab2c2c6398be","system_id":"levelo_inurba_marseille","lat":43.312729,"lon":5.401905,"is_reserved":false,"is_disabled":false,"rental_uris":{"android":"levelo://app?vid=01bbc10c-ff7d-4f4a-97c2-ab2c2c6398be","ios":"levelo://app?vid=01bbc10c-ff7d-4f4a-97c2-ab2c2c6398be"},"vehicle_type_id":"4","last_reported":1700507174,"current_range_meters":30800,"station_id":"ce4bh092rcd13ifvqd30","pricing_plan_id":"free"},{"bike_id":"7d1b648a-c616-4e16-9ce5-054be0c1527d","system_id":"levelo_inurba_marseille","lat":43.33758,"lon":5.37493,"is_reserved":false,"is_disabled":false,"rental_uris":{"android":"levelo://app?vid=7d1b648a-c616-4e16-9ce5-054be0c1527d","ios":"levelo://app?vid=7d1b648a-c616-4e16-9ce5-054be0c1527d"},"vehicle_type_id":"4","last_reported":1700507174,"current_range_meters":29600,"station_id":"","pricing_plan_id":"free"},{"bike_id":"84b9d05f-3d7e-4742-8deb-25bbb4b79fa5","system_id":"levelo_inurba_marseille","lat":43.30642,"lon":5.401031,"is_reserved":false,"is_disabled":false,"rental_uris":{"android":"levelo://app?vid=84b9d05f-3d7e-4742-8deb-25bbb4b79fa5","ios":"levelo://app?vid=84b9d05f-3d7e-4742-8deb-25bbb4b79fa5"},"vehicle_type_id":"4","last_reported":1700507174,"current_range_meters":1200,"station_id":"ce4bh112rcd13ifvqda0","pricing_plan_id":"free"},{"bike_id":"2400a2d1-1f01-4fc5-8c2b-199596767b2d","system_id":"levelo_inurba_marseille","lat":43.28727,"lon":5.36078,"is_reserved":false,"is_disabled":false,"rental_uris":{"android":"levelo://app?vid=2400a2d1-1f01-4fc5-8c2b-199596767b2d","ios":"levelo://app?vid=2400a2d1-1f01-4fc5-8c2b-199596767b2d"},"vehicle_type_id":"4","last_reported":1700507174,"current_range_meters":24400,"station_id":"cki0cbj6b192h4jlfktg","pricing_plan_id":"free"},{"bike_id":"1b8120c1-e38f-4da9-b932-a710eafc6aa8","system_id":"levelo_inurba_marseille","lat":43.28727,"lon":5.36078,"is_reserved":false,"is_disabled":false,"rental_uris":{"android":"levelo://app?vid=1b8120c1-e38f-4da9-b932-a710eafc6aa8","ios":"levelo://app?vid=1b8120c1-e38f-4da9-b932-a710eafc6aa8"},"vehicle_type_id":"4","last_reported":1700507174,"current_range_meters":30400,"station_id":"cki0cbj6b192h4jlfktg","pricing_plan_id":"free"},{"bike_id":"f04cecb4-c85c-4d4b-bf1e-b57266d59fee","system_id":"levelo_inurba_marseille","lat":43.298681,"lon":5.397225,"is_reserved":false,"is_disabled":false,"rental_uris":{"android":"levelo://app?vid=f04cecb4-c85c-4d4b-bf1e-b57266d59fee","ios":"levelo://app?vid=f04cecb4-c85c-4d4b-bf1e-b57266d59fee"},"vehicle_type_id":"4","last_reported":1700507174,"current_range_meters":8400,"station_id":"ce4bh0h2rcd13ifvqd50","pricing_plan_id":"free"},{"bike_id":"b2a61ad4-f4e5-4df1-a2eb-1c2f5f9461a8","system_id":"levelo_inurba_marseille","lat":43.287027,"lon":5.373787,"is_reserved":false,"is_disabled":false,"rental_uris":{"android":"levelo://app?vid=b2a61ad4-f4e5-4df1-a2eb-1c2f5f9461a8","ios":"levelo://app?vid=b2a61ad4-f4e5-4df1-a2eb-1c2f5f9461a8"},"vehicle_type_id":"4","last_reported":1700507174,"current_range_meters":17600,"station_id":"ce4bh3p2rcd13ifvqdq0","pricing_plan_id":"free"},{"bike_id":"d1b9d137-5cb9-4458-b572-9fd46e31804a","system_id":"levelo_inurba_marseille","lat":43.298681,"lon":5.397225,"is_reserved":false,"is_disabled":false,"rental_uris":{"android":"levelo://app?vid=d1b9d137-5cb9-4458-b572-9fd46e31804a","ios":"levelo://app?vid=d1b9d137-5cb9-4458-b572-9fd46e31804a"},"vehicle_type_id":"4","last_reported":1700507174,"current_range_meters":20400,"station_id":"ce4bh0h2rcd13ifvqd50","pricing_plan_id":"free"},{"bike_id":"a0c9ea25-5d71-4aaa-9074-cee421410871","system_id":"levelo_inurba_marseille","lat":43.287,"lon":5.37385,"is_reserved":false,"is_disabled":false,"rental_uris":{"android":"levelo://app?vid=a0c9ea25-5d71-4aaa-9074-cee421410871","ios":"levelo://app?vid=a0c9ea25-5d71-4aaa-9074-cee421410871"},"vehicle_type_id":"4","last_reported":1700507174,"current_range_meters":5600,"station_id":"ce4bh3p2rcd13ifvqdq0","pricing_plan_id":"free"},{"bike_id":"81cc9845-3be0-41d1-abea-b872f7ad60d5","system_id":"levelo_inurba_marseille","lat":43.298681,"lon":5.397225,"is_reserved":false,"is_disabled":false,"rental_uris":{"android":"levelo://app?vid=81cc9845-3be0-41d1-abea-b872f7ad60d5","ios":"levelo://app?vid=81cc9845-3be0-41d1-abea-b872f7ad60d5"},"vehicle_type_id":"4","last_reported":1700507174,"current_range_meters":21600,"station_id":"ce4bh0h2rcd13ifvqd50","pricing_plan_id":"free"},{"bike_id":"617d4fb1-20ab-45c0-8f72-5755e144f908","system_id":"levelo_inurba_marseille","lat":43.29525,"lon":5.39404,"is_reserved":false,"is_disabled":false,"rental_uris":{"android":"levelo://app?vid=617d4fb1-20ab-45c0-8f72-5755e144f908","ios":"levelo://app?vid=617d4fb1-20ab-45c0-8f72-5755e144f908"},"vehicle_type_id":"4","last_reported":1700507174,"current_range_meters":10400,"station_id":"ce4bh292rcd13ifvqdf0","pricing_plan_id":"free"},{"bike_id":"e8b7c949-15c0-4c3d-bafc-4d9889bc6869","system_id":"levelo_inurba_marseille","lat":43.286039,"lon":5.370681,"is_reserved":false,"is_disabled":false,"rental_uris":{"android":"levelo://app?vid=e8b7c949-15c0-4c3d-bafc-4d9889bc6869","ios":"levelo://app?vid=e8b7c949-15c0-4c3d-bafc-4d9889bc6869"},"vehicle_type_id":"4","last_reported":1700507174,"current_range_meters":25200,"station_id":"ce4bht12rcd13ifvqi60","pricing_plan_id":"free"},{"bike_id":"40b594dc-ddda-41de-9bdf-8a560fca7208","system_id":"levelo_inurba_marseille","lat":43.286039,"lon":5.370681,"is_reserved":false,"is_disabled":false,"rental_uris":{"android":"levelo://app?vid=40b594dc-ddda-41de-9bdf-8a560fca7208","ios":"levelo://app?vid=40b594dc-ddda-41de-9bdf-8a560fca7208"},"vehicle_type_id":"4","last_reported":1700507174,"current_range_meters":28800,"station_id":"ce4bht12rcd13ifvqi60","pricing_plan_id":"free"},{"bike_id":"06f2b101-1fe5-41d1-a37b-f9152f1c6b71","system_id":"levelo_inurba_marseille","lat":43.316517,"lon":5.404375,"is_reserved":false,"is_disabled":false,"rental_uris":{"android":"levelo://app?vid=06f2b101-1fe5-41d1-a37b-f9152f1c6b71","ios":"levelo://app?vid=06f2b101-1fe5-41d1-a37b-f9152f1c6b71"},"vehicle_type_id":"4","last_reported":1700507174,"current_range_meters":15600,"station_id":"ce4bh012rcd13ifvqd00","pricing_plan_id":"free"},{"bike_id":"6aa26154-4405-489d-beff-c458086ddd95","system_id":"levelo_inurba_marseille","lat":43.291994,"lon":5.392907,"is_reserved":false,"is_disabled":false,"rental_uris":{"android":"levelo://app?vid=6aa26154-4405-489d-beff-c458086ddd95","ios":"levelo://app?vid=6aa26154-4405-489d-beff-c458086ddd95"},"vehicle_type_id":"4","last_reported":1700507174,"current_range_meters":22800,"station_id":"ce4bh192rcd13ifvqdd0","pricing_plan_id":"free"},{"bike_id":"77c3e609-337f-4c81-be80-01f1e9aab04c","system_id":"levelo_inurba_marseille","lat":43.284538,"lon":5.358657,"is_reserved":false,"is_disabled":false,"rental_uris":{"android":"levelo://app?vid=77c3e609-337f-4c81-be80-01f1e9aab04c","ios":"levelo://app?vid=77c3e609-337f-4c81-be80-01f1e9aab04c"},"vehicle_type_id":"4","last_reported":1700507174,"current_range_meters":4800,"station_id":"ce4bhah2rcd13ifvqei0","pricing_plan_id":"free"},{"bike_id":"35006318-c5cf-402e-b6ab-83a12564ebaf","system_id":"levelo_inurba_marseille","lat":43.284538,"lon":5.358657,"is_reserved":false,"is_disabled":false,"rental_uris":{"android":"levelo://app?vid=35006318-c5cf-402e-b6ab-83a12564ebaf","ios":"levelo://app?vid=35006318-c5cf-402e-b6ab-83a12564ebaf"},"vehicle_type_id":"4","last_reported":1700507174,"current_range_meters":0,"station_id":"ce4bhah2rcd13ifvqei0","pricing_plan_id":"free"},{"bike_id":"eda63b73-b14f-4905-8fc9-6d3ef4d62438","system_id":"levelo_inurba_marseille","lat":43.2846,"lon":5.35895,"is_reserved":false,"is_disabled":false,"rental_uris":{"android":"levelo://app?vid=eda63b73-b14f-4905-8fc9-6d3ef4d62438","ios":"levelo://app?vid=eda63b73-b14f-4905-8fc9-6d3ef4d62438"},"vehicle_type_id":"4","last_reported":1700507174,"current_range_meters":12000,"station_id":"ce4bhah2rcd13ifvqei0","pricing_plan_id":"free"},{"bike_id":"3b76308c-89df-428b-9ed9-ff417fd447a6","system_id":"levelo_inurba_marseille","lat":43.2846,"lon":5.35893,"is_reserved":false,"is_disabled":false,"rental_uris":{"android":"levelo://app?vid=3b76308c-89df-428b-9ed9-ff417fd447a6","ios":"levelo://app?vid=3b76308c-89df-428b-9ed9-ff417fd447a6"},"vehicle_type_id":"4","last_reported":1700507174,"current_range_meters":30800,"station_id":"ce4bhah2rcd13ifvqei0","pricing_plan_id":"free"},{"bike_id":"9732ab80-e62c-46fa-b562-b0e0c192b55a","system_id":"levelo_inurba_marseille","lat":43.284538,"lon":5.358657,"is_reserved":false,"is_disabled":false,"rental_uris":{"android":"levelo://app?vid=9732ab80-e62c-46fa-b562-b0e0c192b55a","ios":"levelo://app?vid=9732ab80-e62c-46fa-b562-b0e0c192b55a"},"vehicle_type_id":"4","last_reported":1700507174,"current_range_meters":22400,"station_id":"ce4bhah2rcd13ifvqei0","pricing_plan_id":"free"},{"bike_id":"ae1a042e-5400-4acc-b6fc-670f4baa06e6","system_id":"levelo_inurba_marseille","lat":43.2846,"lon":5.35884,"is_reserved":false,"is_disabled":false,"rental_uris":{"android":"levelo://app?vid=ae1a042e-5400-4acc-b6fc-670f4baa06e6","ios":"levelo://app?vid=ae1a042e-5400-4acc-b6fc-670f4baa06e6"},"vehicle_type_id":"4","last_reported":1700507174,"current_range_meters":17600,"station_id":"ce4bhah2rcd13ifvqei0","pricing_plan_id":"free"},{"bike_id":"288666b6-2bca-40b3-9e5b-0556cd143ccc","system_id":"levelo_inurba_marseille","lat":43.284538,"lon":5.358657,"is_reserved":false,"is_disabled":false,"rental_uris":{"android":"levelo://app?vid=288666b6-2bca-40b3-9e5b-0556cd143ccc","ios":"levelo://app?vid=288666b6-2bca-40b3-9e5b-0556cd143ccc"},"vehicle_type_id":"4","last_reported":1700507174,"current_range_meters":0,"station_id":"ce4bhah2rcd13ifvqei0","pricing_plan_id":"free"},{"bike_id":"58b4b7cf-48a5-446b-936a-877a03d27593","system_id":"levelo_inurba_marseille","lat":43.28458,"lon":5.35888,"is_reserved":false,"is_disabled":false,"rental_uris":{"android":"levelo://app?vid=58b4b7cf-48a5-446b-936a-877a03d27593","ios":"levelo://app?vid=58b4b7cf-48a5-446b-936a-877a03d27593"},"vehicle_type_id":"4","last_reported":1700507174,"current_range_meters":13600,"station_id":"ce4bhah2rcd13ifvqei0","pricing_plan_id":"free"},{"bike_id":"c1f38e34-3ecd-49fe-ba70-3b9c23bc5a1c","system_id":"levelo_inurba_marseille","lat":43.284534,"lon":5.358662,"is_reserved":false,"is_disabled":false,"rental_uris":{"android":"levelo://app?vid=c1f38e34-3ecd-49fe-ba70-3b9c23bc5a1c","ios":"levelo://app?vid=c1f38e34-3ecd-49fe-ba70-3b9c23bc5a1c"},"vehicle_type_id":"4","last_reported":1700507174,"current_range_meters":9600,"station_id":"ce4bhah2rcd13ifvqei0","pricing_plan_id":"free"},{"bike_id":"90fbeaaa-7656-4325-9663-f8ffd2cad7c8","system_id":"levelo_inurba_marseille","lat":43.28452,"lon":5.35883,"is_reserved":false,"is_disabled":false,"rental_uris":{"android":"levelo://app?vid=90fbeaaa-7656-4325-9663-f8ffd2cad7c8","ios":"levelo://app?vid=90fbeaaa-7656-4325-9663-f8ffd2cad7c8"},"vehicle_type_id":"4","last_reported":1700507174,"current_range_meters":21600,"station_id":"ce4bhah2rcd13ifvqei0","pricing_plan_id":"free"},{"bike_id":"a03bc167-3f90-4afe-89f0-2334b5872e81","system_id":"levelo_inurba_marseille","lat":43.284538,"lon":5.358657,"is_reserved":false,"is_disabled":false,"rental_uris":{"android":"levelo://app?vid=a03bc167-3f90-4afe-89f0-2334b5872e81","ios":"levelo://app?vid=a03bc167-3f90-4afe-89f0-2334b5872e81"},"vehicle_type_id":"4","last_reported":1700507174,"current_range_meters":24000,"station_id":"ce4bhah2rcd13ifvqei0","pricing_plan_id":"free"},{"bike_id":"390730f2-24a2-47cd-aadd-b7140a08f7f5","system_id":"levelo_inurba_marseille","lat":43.294314,"lon":5.397498,"is_reserved":false,"is_disabled":false,"rental_uris":{"android":"levelo://app?vid=390730f2-24a2-47cd-aadd-b7140a08f7f5","ios":"levelo://app?vid=390730f2-24a2-47cd-aadd-b7140a08f7f5"},"vehicle_type_id":"4","last_reported":1700507174,"current_range_meters":22000,"station_id":"ce4bh3h2rcd13ifvqdo0","pricing_plan_id":"free"},{"bike_id":"231587a4-7ef8-4c06-9d0a-445e7f82dfba","system_id":"levelo_inurba_marseille","lat":43.294314,"lon":5.397498,"is_reserved":false,"is_disabled":false,"rental_uris":{"android":"levelo://app?vid=231587a4-7ef8-4c06-9d0a-445e7f82dfba","ios":"levelo://app?vid=231587a4-7ef8-4c06-9d0a-445e7f82dfba"},"vehicle_type_id":"4","last_reported":1700507174,"current_range_meters":11200,"station_id":"ce4bh3h2rcd13ifvqdo0","pricing_plan_id":"free"},{"bike_id":"92b8e850-ba70-477a-85c3-96cef3a83d46","system_id":"levelo_inurba_marseille","lat":43.28617,"lon":5.35111,"is_reserved":false,"is_disabled":false,"rental_uris":{"android":"levelo://app?vid=92b8e850-ba70-477a-85c3-96cef3a83d46","ios":"levelo://app?vid=92b8e850-ba70-477a-85c3-96cef3a83d46"},"vehicle_type_id":"4","last_reported":1700507174,"current_range_meters":0,"station_id":"ce4bhch2rcd13ifvqeug","pricing_plan_id":"free"},{"bike_id":"b99b0cff-ade6-4996-a075-0f70ee649462","system_id":"levelo_inurba_marseille","lat":43.28618,"lon":5.35106,"is_reserved":false,"is_disabled":false,"rental_uris":{"android":"levelo://app?vid=b99b0cff-ade6-4996-a075-0f70ee649462","ios":"levelo://app?vid=b99b0cff-ade6-4996-a075-0f70ee649462"},"vehicle_type_id":"4","last_reported":1700507174,"current_range_meters":17600,"station_id":"ce4bhch2rcd13ifvqeug","pricing_plan_id":"free"},{"bike_id":"764f9488-8fff-4b14-ab3e-a684aa244915","system_id":"levelo_inurba_marseille","lat":43.28415,"lon":5.37512,"is_reserved":false,"is_disabled":false,"rental_uris":{"android":"levelo://app?vid=764f9488-8fff-4b14-ab3e-a684aa244915","ios":"levelo://app?vid=764f9488-8fff-4b14-ab3e-a684aa244915"},"vehicle_type_id":"4","last_reported":1700507174,"current_range_meters":800,"station_id":"ce4bh412rcd13ifvqds0","pricing_plan_id":"free"},{"bike_id":"e2888d54-4cde-4cd1-a872-e6c664296037","system_id":"levelo_inurba_marseille","lat":43.28624,"lon":5.38396,"is_reserved":false,"is_disabled":false,"rental_uris":{"android":"levelo://app?vid=e2888d54-4cde-4cd1-a872-e6c664296037","ios":"levelo://app?vid=e2888d54-4cde-4cd1-a872-e6c664296037"},"vehicle_type_id":"4","last_reported":1700507174,"current_range_meters":0,"station_id":"","pricing_plan_id":"free"},{"bike_id":"7a784f6b-8a5f-4637-9a7c-8411a190f8d8","system_id":"levelo_inurba_marseille","lat":43.295713,"lon":5.399639,"is_reserved":false,"is_disabled":false,"rental_uris":{"android":"levelo://app?vid=7a784f6b-8a5f-4637-9a7c-8411a190f8d8","ios":"levelo://app?vid=7a784f6b-8a5f-4637-9a7c-8411a190f8d8"},"vehicle_type_id":"4","last_reported":1700507174,"current_range_meters":18000,"station_id":"ce4bh312rcd13ifvqdj0","pricing_plan_id":"free"},{"bike_id":"b5f0211a-7848-430f-9277-6a34fe68c18e","system_id":"levelo_inurba_marseille","lat":43.28406,"lon":5.37511,"is_reserved":false,"is_disabled":false,"rental_uris":{"android":"levelo://app?vid=b5f0211a-7848-430f-9277-6a34fe68c18e","ios":"levelo://app?vid=b5f0211a-7848-430f-9277-6a34fe68c18e"},"vehicle_type_id":"4","last_reported":1700507174,"current_range_meters":2000,"station_id":"ce4bh412rcd13ifvqds0","pricing_plan_id":"free"},{"bike_id":"1df67d05-d0bd-4de2-b0ba-25cd51fb2a0a","system_id":"levelo_inurba_marseille","lat":43.295713,"lon":5.399639,"is_reserved":false,"is_disabled":false,"rental_uris":{"android":"levelo://app?vid=1df67d05-d0bd-4de2-b0ba-25cd51fb2a0a","ios":"levelo://app?vid=1df67d05-d0bd-4de2-b0ba-25cd51fb2a0a"},"vehicle_type_id":"4","last_reported":1700507174,"current_range_meters":21600,"station_id":"ce4bh312rcd13ifvqdj0","pricing_plan_id":"free"},{"bike_id":"68f186b5-f296-4fa6-b768-0bdd60ec4eb4","system_id":"levelo_inurba_marseille","lat":43.295713,"lon":5.399639,"is_reserved":false,"is_disabled":false,"rental_uris":{"android":"levelo://app?vid=68f186b5-f296-4fa6-b768-0bdd60ec4eb4","ios":"levelo://app?vid=68f186b5-f296-4fa6-b768-0bdd60ec4eb4"},"vehicle_type_id":"4","last_reported":1700507174,"current_range_meters":28800,"station_id":"ce4bh312rcd13ifvqdj0","pricing_plan_id":"free"},{"bike_id":"97b9ed28-5719-4513-a5fd-f31cc952f309","system_id":"levelo_inurba_marseille","lat":43.295713,"lon":5.399639,"is_reserved":false,"is_disabled":false,"rental_uris":{"android":"levelo://app?vid=97b9ed28-5719-4513-a5fd-f31cc952f309","ios":"levelo://app?vid=97b9ed28-5719-4513-a5fd-f31cc952f309"},"vehicle_type_id":"4","last_reported":1700507174,"current_range_meters":17200,"station_id":"ce4bh312rcd13ifvqdj0","pricing_plan_id":"free"},{"bike_id":"e60caffc-69c4-40b3-96d3-61bb2516e449","system_id":"levelo_inurba_marseille","lat":43.286595,"lon":5.386795,"is_reserved":false,"is_disabled":false,"rental_uris":{"android":"levelo://app?vid=e60caffc-69c4-40b3-96d3-61bb2516e449","ios":"levelo://app?vid=e60caffc-69c4-40b3-96d3-61bb2516e449"},"vehicle_type_id":"4","last_reported":1700507174,"current_range_meters":3600,"station_id":"ce4bh492rcd13ifvqdug","pricing_plan_id":"free"},{"bike_id":"66ffe33f-f938-421b-9737-35c834e7a44f","system_id":"levelo_inurba_marseille","lat":43.286595,"lon":5.386795,"is_reserved":false,"is_disabled":false,"rental_uris":{"android":"levelo://app?vid=66ffe33f-f938-421b-9737-35c834e7a44f","ios":"levelo://app?vid=66ffe33f-f938-421b-9737-35c834e7a44f"},"vehicle_type_id":"4","last_reported":1700507174,"current_range_meters":8800,"station_id":"ce4bh492rcd13ifvqdug","pricing_plan_id":"free"},{"bike_id":"7fca6a8c-d6d0-4347-afca-cee4899803ec","system_id":"levelo_inurba_marseille","lat":43.318847,"lon":5.407346,"is_reserved":false,"is_disabled":false,"rental_uris":{"android":"levelo://app?vid=7fca6a8c-d6d0-4347-afca-cee4899803ec","ios":"levelo://app?vid=7fca6a8c-d6d0-4347-afca-cee4899803ec"},"vehicle_type_id":"4","last_reported":1700507174,"current_range_meters":15200,"station_id":"ce4bhq12rcd13ifvqhig","pricing_plan_id":"free"},{"bike_id":"7ee32f59-0a04-4793-bacb-e238dfbe3a09","system_id":"levelo_inurba_marseille","lat":43.319179,"lon":5.407725,"is_reserved":false,"is_disabled":false,"rental_uris":{"android":"levelo://app?vid=7ee32f59-0a04-4793-bacb-e238dfbe3a09","ios":"levelo://app?vid=7ee32f59-0a04-4793-bacb-e238dfbe3a09"},"vehicle_type_id":"4","last_reported":1700507174,"current_range_meters":28000,"station_id":"ce4bhq12rcd13ifvqhig","pricing_plan_id":"free"},{"bike_id":"5974ad3b-da81-42ca-a08b-1b3632a47afa","system_id":"levelo_inurba_marseille","lat":43.33237,"lon":5.3985,"is_reserved":false,"is_disabled":false,"rental_uris":{"android":"levelo://app?vid=5974ad3b-da81-42ca-a08b-1b3632a47afa","ios":"levelo://app?vid=5974ad3b-da81-42ca-a08b-1b3632a47afa"},"vehicle_type_id":"4","last_reported":1700507174,"current_range_meters":0,"station_id":"","pricing_plan_id":"free"},{"bike_id":"4fbed95d-7196-4444-a845-d6b81cf0e641","system_id":"levelo_inurba_marseille","lat":43.323464,"lon":5.406297,"is_reserved":false,"is_disabled":false,"rental_uris":{"android":"levelo://app?vid=4fbed95d-7196-4444-a845-d6b81cf0e641","ios":"levelo://app?vid=4fbed95d-7196-4444-a845-d6b81cf0e641"},"vehicle_type_id":"4","last_reported":1700507174,"current_range_meters":14800,"station_id":"ce4bhq92rcd13ifvqhjg","pricing_plan_id":"free"},{"bike_id":"aa9ed338-993c-4944-bb3b-8ec82246a8bd","system_id":"levelo_inurba_marseille","lat":43.323464,"lon":5.406297,"is_reserved":false,"is_disabled":false,"rental_uris":{"android":"levelo://app?vid=aa9ed338-993c-4944-bb3b-8ec82246a8bd","ios":"levelo://app?vid=aa9ed338-993c-4944-bb3b-8ec82246a8bd"},"vehicle_type_id":"4","last_reported":1700507174,"current_range_meters":21200,"station_id":"ce4bhq92rcd13ifvqhjg","pricing_plan_id":"free"},{"bike_id":"083a72a4-c264-41ca-9cbc-b5a0b3c2f24b","system_id":"levelo_inurba_marseille","lat":43.283764,"lon":5.353765,"is_reserved":false,"is_disabled":false,"rental_uris":{"android":"levelo://app?vid=083a72a4-c264-41ca-9cbc-b5a0b3c2f24b","ios":"levelo://app?vid=083a72a4-c264-41ca-9cbc-b5a0b3c2f24b"},"vehicle_type_id":"4","last_reported":1700507174,"current_range_meters":17200,"station_id":"","pricing_plan_id":"free"},{"bike_id":"93d0469d-7f7c-4223-8709-b9ae3b48f340","system_id":"levelo_inurba_marseille","lat":43.284793,"lon":5.384119,"is_reserved":false,"is_disabled":false,"rental_uris":{"android":"levelo://app?vid=93d0469d-7f7c-4223-8709-b9ae3b48f340","ios":"levelo://app?vid=93d0469d-7f7c-4223-8709-b9ae3b48f340"},"vehicle_type_id":"4","last_reported":1700507174,"current_range_meters":0,"station_id":"ce4bh512rcd13ifvqe3g","pricing_plan_id":"free"},{"bike_id":"a9e147c9-52ce-46fc-8e8f-faabb1ce17f4","system_id":"levelo_inurba_marseille","lat":43.284787,"lon":5.384116,"is_reserved":false,"is_disabled":false,"rental_uris":{"android":"levelo://app?vid=a9e147c9-52ce-46fc-8e8f-faabb1ce17f4","ios":"levelo://app?vid=a9e147c9-52ce-46fc-8e8f-faabb1ce17f4"},"vehicle_type_id":"4","last_reported":1700507174,"current_range_meters":0,"station_id":"ce4bh512rcd13ifvqe3g","pricing_plan_id":"free"},{"bike_id":"bdbb4688-f253-4ef3-8eb8-f8ee5de14771","system_id":"levelo_inurba_marseille","lat":43.284787,"lon":5.384116,"is_reserved":false,"is_disabled":false,"rental_uris":{"android":"levelo://app?vid=bdbb4688-f253-4ef3-8eb8-f8ee5de14771","ios":"levelo://app?vid=bdbb4688-f253-4ef3-8eb8-f8ee5de14771"},"vehicle_type_id":"4","last_reported":1700507174,"current_range_meters":13200,"station_id":"ce4bh512rcd13ifvqe3g","pricing_plan_id":"free"},{"bike_id":"88fd216e-5c3c-4fc6-ba6c-ce5d64f1db15","system_id":"levelo_inurba_marseille","lat":43.297946,"lon":5.404063,"is_reserved":false,"is_disabled":false,"rental_uris":{"android":"levelo://app?vid=88fd216e-5c3c-4fc6-ba6c-ce5d64f1db15","ios":"levelo://app?vid=88fd216e-5c3c-4fc6-ba6c-ce5d64f1db15"},"vehicle_type_id":"4","last_reported":1700507174,"current_range_meters":12400,"station_id":"ce4bh112rcd13ifvqd90","pricing_plan_id":"free"},{"bike_id":"c3930fbf-d9e2-47a4-add3-a722a1f062d5","system_id":"levelo_inurba_marseille","lat":43.28846,"lon":5.39317,"is_reserved":false,"is_disabled":false,"rental_uris":{"android":"levelo://app?vid=c3930fbf-d9e2-47a4-add3-a722a1f062d5","ios":"levelo://app?vid=c3930fbf-d9e2-47a4-add3-a722a1f062d5"},"vehicle_type_id":"4","last_reported":1700507174,"current_range_meters":2400,"station_id":"ce4bh2p2rcd13ifvqdi0","pricing_plan_id":"free"},{"bike_id":"6501d018-7f59-4392-9894-233af4730128","system_id":"levelo_inurba_marseille","lat":43.288501,"lon":5.393087,"is_reserved":false,"is_disabled":false,"rental_uris":{"android":"levelo://app?vid=6501d018-7f59-4392-9894-233af4730128","ios":"levelo://app?vid=6501d018-7f59-4392-9894-233af4730128"},"vehicle_type_id":"4","last_reported":1700507174,"current_range_meters":22400,"station_id":"ce4bh2p2rcd13ifvqdi0","pricing_plan_id":"free"},{"bike_id":"ea691db5-1a81-4eac-8067-c6e9653bad97","system_id":"levelo_inurba_marseille","lat":43.283494,"lon":5.380945,"is_reserved":false,"is_disabled":false,"rental_uris":{"android":"levelo://app?vid=ea691db5-1a81-4eac-8067-c6e9653bad97","ios":"levelo://app?vid=ea691db5-1a81-4eac-8067-c6e9653bad97"},"vehicle_type_id":"4","last_reported":1700507174,"current_range_meters":0,"station_id":"ce4bh412rcd13ifvqdr0","pricing_plan_id":"free"},{"bike_id":"cbb18b09-1fab-40f2-a1a6-c2a2523c6ff1","system_id":"levelo_inurba_marseille","lat":43.288501,"lon":5.393087,"is_reserved":false,"is_disabled":false,"rental_uris":{"android":"levelo://app?vid=cbb18b09-1fab-40f2-a1a6-c2a2523c6ff1","ios":"levelo://app?vid=cbb18b09-1fab-40f2-a1a6-c2a2523c6ff1"},"vehicle_type_id":"4","last_reported":1700507174,"current_range_meters":3600,"station_id":"ce4bh2p2rcd13ifvqdi0","pricing_plan_id":"free"},{"bike_id":"a8a1b583-241a-41d3-8430-e27d744338d2","system_id":"levelo_inurba_marseille","lat":43.289363,"lon":5.396322,"is_reserved":false,"is_disabled":false,"rental_uris":{"android":"levelo://app?vid=a8a1b583-241a-41d3-8430-e27d744338d2","ios":"levelo://app?vid=a8a1b583-241a-41d3-8430-e27d744338d2"},"vehicle_type_id":"4","last_reported":1700507174,"current_range_meters":26000,"station_id":"ce4bh3h2rcd13ifvqdn0","pricing_plan_id":"free"},{"bike_id":"af6a20f1-6ae5-479b-b6bb-b176247be045","system_id":"levelo_inurba_marseille","lat":43.296263,"lon":5.40601,"is_reserved":false,"is_disabled":false,"rental_uris":{"android":"levelo://app?vid=af6a20f1-6ae5-479b-b6bb-b176247be045","ios":"levelo://app?vid=af6a20f1-6ae5-479b-b6bb-b176247be045"},"vehicle_type_id":"4","last_reported":1700507174,"current_range_meters":21600,"station_id":"ce4bh0h2rcd13ifvqd60","pricing_plan_id":"free"},{"bike_id":"9c2d02f0-ea7c-40f3-ba9c-5cbee0704b1f","system_id":"levelo_inurba_marseille","lat":43.282754,"lon":5.350519,"is_reserved":false,"is_disabled":false,"rental_uris":{"android":"levelo://app?vid=9c2d02f0-ea7c-40f3-ba9c-5cbee0704b1f","ios":"levelo://app?vid=9c2d02f0-ea7c-40f3-ba9c-5cbee0704b1f"},"vehicle_type_id":"4","last_reported":1700507174,"current_range_meters":13600,"station_id":"ce4bhbp2rcd13ifvqerg","pricing_plan_id":"free"},{"bike_id":"3d506b3d-7f95-4c4d-b6c9-5fad01b35569","system_id":"levelo_inurba_marseille","lat":43.28368,"lon":5.38639,"is_reserved":false,"is_disabled":false,"rental_uris":{"android":"levelo://app?vid=3d506b3d-7f95-4c4d-b6c9-5fad01b35569","ios":"levelo://app?vid=3d506b3d-7f95-4c4d-b6c9-5fad01b35569"},"vehicle_type_id":"4","last_reported":1700507174,"current_range_meters":0,"station_id":"ce4bh492rcd13ifvqdvg","pricing_plan_id":"free"},{"bike_id":"e5625dab-e7e6-4c95-a889-3e65c36b7747","system_id":"levelo_inurba_marseille","lat":43.282754,"lon":5.350519,"is_reserved":false,"is_disabled":false,"rental_uris":{"android":"levelo://app?vid=e5625dab-e7e6-4c95-a889-3e65c36b7747","ios":"levelo://app?vid=e5625dab-e7e6-4c95-a889-3e65c36b7747"},"vehicle_type_id":"4","last_reported":1700507174,"current_range_meters":1200,"station_id":"ce4bhbp2rcd13ifvqerg","pricing_plan_id":"free"},{"bike_id":"0f3640a2-ad01-4760-9e09-ddd92fef4a58","system_id":"levelo_inurba_marseille","lat":43.282744,"lon":5.350533,"is_reserved":false,"is_disabled":false,"rental_uris":{"android":"levelo://app?vid=0f3640a2-ad01-4760-9e09-ddd92fef4a58","ios":"levelo://app?vid=0f3640a2-ad01-4760-9e09-ddd92fef4a58"},"vehicle_type_id":"4","last_reported":1700507174,"current_range_meters":29200,"station_id":"ce4bhbp2rcd13ifvqerg","pricing_plan_id":"free"},{"bike_id":"2e6c79c0-6e68-4ac8-a76f-130ecfe2427c","system_id":"levelo_inurba_marseille","lat":43.28039,"lon":5.369297,"is_reserved":false,"is_disabled":false,"rental_uris":{"android":"levelo://app?vid=2e6c79c0-6e68-4ac8-a76f-130ecfe2427c","ios":"levelo://app?vid=2e6c79c0-6e68-4ac8-a76f-130ecfe2427c"},"vehicle_type_id":"4","last_reported":1700507174,"current_range_meters":11200,"station_id":"ce4bha12rcd13ifvqef0","pricing_plan_id":"free"},{"bike_id":"d91a4321-33cb-4444-ae0a-360a0804a435","system_id":"levelo_inurba_marseille","lat":43.28039,"lon":5.369297,"is_reserved":false,"is_disabled":false,"rental_uris":{"android":"levelo://app?vid=d91a4321-33cb-4444-ae0a-360a0804a435","ios":"levelo://app?vid=d91a4321-33cb-4444-ae0a-360a0804a435"},"vehicle_type_id":"4","last_reported":1700507174,"current_range_meters":31200,"station_id":"ce4bha12rcd13ifvqef0","pricing_plan_id":"free"},{"bike_id":"a4289e65-08d8-413c-b67b-0772a0344243","system_id":"levelo_inurba_marseille","lat":43.28039,"lon":5.369297,"is_reserved":false,"is_disabled":false,"rental_uris":{"android":"levelo://app?vid=a4289e65-08d8-413c-b67b-0772a0344243","ios":"levelo://app?vid=a4289e65-08d8-413c-b67b-0772a0344243"},"vehicle_type_id":"4","last_reported":1700507174,"current_range_meters":400,"station_id":"ce4bha12rcd13ifvqef0","pricing_plan_id":"free"},{"bike_id":"954fb569-de15-43f3-b85d-59add9649954","system_id":"levelo_inurba_marseille","lat":43.290412,"lon":5.399633,"is_reserved":false,"is_disabled":false,"rental_uris":{"android":"levelo://app?vid=954fb569-de15-43f3-b85d-59add9649954","ios":"levelo://app?vid=954fb569-de15-43f3-b85d-59add9649954"},"vehicle_type_id":"4","last_reported":1700507174,"current_range_meters":6800,"station_id":"ce4bh392rcd13ifvqdm0","pricing_plan_id":"free"},{"bike_id":"72938841-88d7-46f5-b09f-6af48ae82c0d","system_id":"levelo_inurba_marseille","lat":43.296263,"lon":5.40601,"is_reserved":false,"is_disabled":false,"rental_uris":{"android":"levelo://app?vid=72938841-88d7-46f5-b09f-6af48ae82c0d","ios":"levelo://app?vid=72938841-88d7-46f5-b09f-6af48ae82c0d"},"vehicle_type_id":"4","last_reported":1700507174,"current_range_meters":20800,"station_id":"ce4bh0h2rcd13ifvqd60","pricing_plan_id":"free"},{"bike_id":"9997bee0-367f-4f90-b31c-abae09834c68","system_id":"levelo_inurba_marseille","lat":43.296263,"lon":5.40601,"is_reserved":false,"is_disabled":false,"rental_uris":{"android":"levelo://app?vid=9997bee0-367f-4f90-b31c-abae09834c68","ios":"levelo://app?vid=9997bee0-367f-4f90-b31c-abae09834c68"},"vehicle_type_id":"4","last_reported":1700507174,"current_range_meters":6000,"station_id":"ce4bh0h2rcd13ifvqd60","pricing_plan_id":"free"},{"bike_id":"5201811f-1e22-4e3d-b39b-79c7b024cacf","system_id":"levelo_inurba_marseille","lat":43.29041,"lon":5.399634,"is_reserved":false,"is_disabled":false,"rental_uris":{"android":"levelo://app?vid=5201811f-1e22-4e3d-b39b-79c7b024cacf","ios":"levelo://app?vid=5201811f-1e22-4e3d-b39b-79c7b024cacf"},"vehicle_type_id":"4","last_reported":1700507174,"current_range_meters":10400,"station_id":"ce4bh392rcd13ifvqdm0","pricing_plan_id":"free"},{"bike_id":"74765eb0-c026-44a7-9508-167821e632c4","system_id":"levelo_inurba_marseille","lat":43.28432,"lon":5.39189,"is_reserved":false,"is_disabled":false,"rental_uris":{"android":"levelo://app?vid=74765eb0-c026-44a7-9508-167821e632c4","ios":"levelo://app?vid=74765eb0-c026-44a7-9508-167821e632c4"},"vehicle_type_id":"4","last_reported":1700507174,"current_range_meters":21600,"station_id":"ce4bhoh2rcd13ifvqh5g","pricing_plan_id":"free"},{"bike_id":"0934b2c8-7585-4285-afa7-06e9b213296c","system_id":"levelo_inurba_marseille","lat":43.28575,"lon":5.39495,"is_reserved":false,"is_disabled":false,"rental_uris":{"android":"levelo://app?vid=0934b2c8-7585-4285-afa7-06e9b213296c","ios":"levelo://app?vid=0934b2c8-7585-4285-afa7-06e9b213296c"},"vehicle_type_id":"4","last_reported":1700507174,"current_range_meters":0,"station_id":"ce4bh292rcd13ifvqdg0","pricing_plan_id":"free"},{"bike_id":"ccf9b17e-2fb6-47d5-b5cb-73ea08fcb6e5","system_id":"levelo_inurba_marseille","lat":43.28575,"lon":5.39498,"is_reserved":false,"is_disabled":false,"rental_uris":{"android":"levelo://app?vid=ccf9b17e-2fb6-47d5-b5cb-73ea08fcb6e5","ios":"levelo://app?vid=ccf9b17e-2fb6-47d5-b5cb-73ea08fcb6e5"},"vehicle_type_id":"4","last_reported":1700507174,"current_range_meters":0,"station_id":"ce4bh292rcd13ifvqdg0","pricing_plan_id":"free"},{"bike_id":"5cc71858-168e-4f27-a50f-c2ad738ddeab","system_id":"levelo_inurba_marseille","lat":43.304188,"lon":5.412904,"is_reserved":false,"is_disabled":false,"rental_uris":{"android":"levelo://app?vid=5cc71858-168e-4f27-a50f-c2ad738ddeab","ios":"levelo://app?vid=5cc71858-168e-4f27-a50f-c2ad738ddeab"},"vehicle_type_id":"4","last_reported":1700507174,"current_range_meters":11600,"station_id":"ce4bhop2rcd13ifvqh8g","pricing_plan_id":"free"},{"bike_id":"24eca922-3587-47e4-a445-4cb426ad2b8b","system_id":"levelo_inurba_marseille","lat":43.304188,"lon":5.412904,"is_reserved":false,"is_disabled":false,"rental_uris":{"android":"levelo://app?vid=24eca922-3587-47e4-a445-4cb426ad2b8b","ios":"levelo://app?vid=24eca922-3587-47e4-a445-4cb426ad2b8b"},"vehicle_type_id":"4","last_reported":1700507174,"current_range_meters":24800,"station_id":"ce4bhop2rcd13ifvqh8g","pricing_plan_id":"free"},{"bike_id":"1aa76ac8-ccaf-41d2-8fb5-033e7c180f10","system_id":"levelo_inurba_marseille","lat":43.304188,"lon":5.412904,"is_reserved":false,"is_disabled":false,"rental_uris":{"android":"levelo://app?vid=1aa76ac8-ccaf-41d2-8fb5-033e7c180f10","ios":"levelo://app?vid=1aa76ac8-ccaf-41d2-8fb5-033e7c180f10"},"vehicle_type_id":"4","last_reported":1700507174,"current_range_meters":3200,"station_id":"ce4bhop2rcd13ifvqh8g","pricing_plan_id":"free"},{"bike_id":"9246ff32-54f7-4c5e-8fc5-df00fd6d65b0","system_id":"levelo_inurba_marseille","lat":43.304188,"lon":5.412904,"is_reserved":false,"is_disabled":false,"rental_uris":{"android":"levelo://app?vid=9246ff32-54f7-4c5e-8fc5-df00fd6d65b0","ios":"levelo://app?vid=9246ff32-54f7-4c5e-8fc5-df00fd6d65b0"},"vehicle_type_id":"4","last_reported":1700507174,"current_range_meters":4800,"station_id":"ce4bhop2rcd13ifvqh8g","pricing_plan_id":"free"},{"bike_id":"e0138e0b-c48d-40b6-9bde-6c361470a6fc","system_id":"levelo_inurba_marseille","lat":43.279087,"lon":5.380114,"is_reserved":false,"is_disabled":false,"rental_uris":{"android":"levelo://app?vid=e0138e0b-c48d-40b6-9bde-6c361470a6fc","ios":"levelo://app?vid=e0138e0b-c48d-40b6-9bde-6c361470a6fc"},"vehicle_type_id":"4","last_reported":1700507174,"current_range_meters":12400,"station_id":"ce4bhf92rcd13ifvqf50","pricing_plan_id":"free"},{"bike_id":"c521c654-b85d-47f5-b98d-2379bcbd0d56","system_id":"levelo_inurba_marseille","lat":43.287154,"lon":5.399979,"is_reserved":false,"is_disabled":false,"rental_uris":{"android":"levelo://app?vid=c521c654-b85d-47f5-b98d-2379bcbd0d56","ios":"levelo://app?vid=c521c654-b85d-47f5-b98d-2379bcbd0d56"},"vehicle_type_id":"4","last_reported":1700507174,"current_range_meters":23200,"station_id":"ce4bho92rcd13ifvqh3g","pricing_plan_id":"free"},{"bike_id":"523b1b1e-07c5-4563-9267-39847f456af5","system_id":"levelo_inurba_marseille","lat":43.287154,"lon":5.399979,"is_reserved":false,"is_disabled":false,"rental_uris":{"android":"levelo://app?vid=523b1b1e-07c5-4563-9267-39847f456af5","ios":"levelo://app?vid=523b1b1e-07c5-4563-9267-39847f456af5"},"vehicle_type_id":"4","last_reported":1700507174,"current_range_meters":9600,"station_id":"ce4bho92rcd13ifvqh3g","pricing_plan_id":"free"},{"bike_id":"8a505e24-76c6-41ee-b24d-5f05348f01d0","system_id":"levelo_inurba_marseille","lat":43.320045,"lon":5.415046,"is_reserved":false,"is_disabled":false,"rental_uris":{"android":"levelo://app?vid=8a505e24-76c6-41ee-b24d-5f05348f01d0","ios":"levelo://app?vid=8a505e24-76c6-41ee-b24d-5f05348f01d0"},"vehicle_type_id":"4","last_reported":1700507174,"current_range_meters":10000,"station_id":"ce4bhq92rcd13ifvqhkg","pricing_plan_id":"free"},{"bike_id":"115d0e60-41d5-4567-9a97-2ccb1c200c09","system_id":"levelo_inurba_marseille","lat":43.27968,"lon":5.38737,"is_reserved":false,"is_disabled":false,"rental_uris":{"android":"levelo://app?vid=115d0e60-41d5-4567-9a97-2ccb1c200c09","ios":"levelo://app?vid=115d0e60-41d5-4567-9a97-2ccb1c200c09"},"vehicle_type_id":"4","last_reported":1700507174,"current_range_meters":0,"station_id":"ce4bhg12rcd13ifvqf80","pricing_plan_id":"free"},{"bike_id":"72b0bccb-8e0e-43fa-b87f-27421baa144c","system_id":"levelo_inurba_marseille","lat":43.292597,"lon":5.408982,"is_reserved":false,"is_disabled":false,"rental_uris":{"android":"levelo://app?vid=72b0bccb-8e0e-43fa-b87f-27421baa144c","ios":"levelo://app?vid=72b0bccb-8e0e-43fa-b87f-27421baa144c"},"vehicle_type_id":"4","last_reported":1700507174,"current_range_meters":31200,"station_id":"","pricing_plan_id":"free"},{"bike_id":"43dd0815-60aa-4e00-8382-e3c0301fedd9","system_id":"levelo_inurba_marseille","lat":43.292571,"lon":5.409107,"is_reserved":false,"is_disabled":false,"rental_uris":{"android":"levelo://app?vid=43dd0815-60aa-4e00-8382-e3c0301fedd9","ios":"levelo://app?vid=43dd0815-60aa-4e00-8382-e3c0301fedd9"},"vehicle_type_id":"4","last_reported":1700507174,"current_range_meters":14000,"station_id":"ce4bh192rcd13ifvqdc0","pricing_plan_id":"free"},{"bike_id":"c1f21fc6-c0fd-428c-9316-a6ba5e33cb75","system_id":"levelo_inurba_marseille","lat":43.292571,"lon":5.409107,"is_reserved":false,"is_disabled":false,"rental_uris":{"android":"levelo://app?vid=c1f21fc6-c0fd-428c-9316-a6ba5e33cb75","ios":"levelo://app?vid=c1f21fc6-c0fd-428c-9316-a6ba5e33cb75"},"vehicle_type_id":"4","last_reported":1700507174,"current_range_meters":400,"station_id":"ce4bh192rcd13ifvqdc0","pricing_plan_id":"free"},{"bike_id":"c0d29d9a-6592-4661-842a-4f8df48adf57","system_id":"levelo_inurba_marseille","lat":43.292571,"lon":5.409107,"is_reserved":false,"is_disabled":false,"rental_uris":{"android":"levelo://app?vid=c0d29d9a-6592-4661-842a-4f8df48adf57","ios":"levelo://app?vid=c0d29d9a-6592-4661-842a-4f8df48adf57"},"vehicle_type_id":"4","last_reported":1700507174,"current_range_meters":10000,"station_id":"ce4bh192rcd13ifvqdc0","pricing_plan_id":"free"},{"bike_id":"0804e643-d3ba-424c-8d33-5b0f2b6e7cc0","system_id":"levelo_inurba_marseille","lat":43.292571,"lon":5.409107,"is_reserved":false,"is_disabled":false,"rental_uris":{"android":"levelo://app?vid=0804e643-d3ba-424c-8d33-5b0f2b6e7cc0","ios":"levelo://app?vid=0804e643-d3ba-424c-8d33-5b0f2b6e7cc0"},"vehicle_type_id":"4","last_reported":1700507174,"current_range_meters":6400,"station_id":"ce4bh192rcd13ifvqdc0","pricing_plan_id":"free"},{"bike_id":"a9630f11-93f9-4600-ad6d-807bc14b2ecb","system_id":"levelo_inurba_marseille","lat":43.292569,"lon":5.409107,"is_reserved":false,"is_disabled":false,"rental_uris":{"android":"levelo://app?vid=a9630f11-93f9-4600-ad6d-807bc14b2ecb","ios":"levelo://app?vid=a9630f11-93f9-4600-ad6d-807bc14b2ecb"},"vehicle_type_id":"4","last_reported":1700507174,"current_range_meters":16400,"station_id":"ce4bh192rcd13ifvqdc0","pricing_plan_id":"free"},{"bike_id":"876363a8-61b0-4f0c-bf1d-921afae4afac","system_id":"levelo_inurba_marseille","lat":43.292569,"lon":5.409107,"is_reserved":false,"is_disabled":false,"rental_uris":{"android":"levelo://app?vid=876363a8-61b0-4f0c-bf1d-921afae4afac","ios":"levelo://app?vid=876363a8-61b0-4f0c-bf1d-921afae4afac"},"vehicle_type_id":"4","last_reported":1700507174,"current_range_meters":3200,"station_id":"ce4bh192rcd13ifvqdc0","pricing_plan_id":"free"},{"bike_id":"84b5947a-2c26-4baf-8e3e-9f73a6cd95ec","system_id":"levelo_inurba_marseille","lat":43.325233,"lon":5.414318,"is_reserved":false,"is_disabled":false,"rental_uris":{"android":"levelo://app?vid=84b5947a-2c26-4baf-8e3e-9f73a6cd95ec","ios":"levelo://app?vid=84b5947a-2c26-4baf-8e3e-9f73a6cd95ec"},"vehicle_type_id":"4","last_reported":1700507174,"current_range_meters":8000,"station_id":"ce4bhq12rcd13ifvqhhg","pricing_plan_id":"free"},{"bike_id":"e306716e-2e26-48ea-81fc-2efdad2b4da6","system_id":"levelo_inurba_marseille","lat":43.292571,"lon":5.409107,"is_reserved":false,"is_disabled":false,"rental_uris":{"android":"levelo://app?vid=e306716e-2e26-48ea-81fc-2efdad2b4da6","ios":"levelo://app?vid=e306716e-2e26-48ea-81fc-2efdad2b4da6"},"vehicle_type_id":"4","last_reported":1700507174,"current_range_meters":15200,"station_id":"ce4bh192rcd13ifvqdc0","pricing_plan_id":"free"},{"bike_id":"a20985a8-f5f7-4a42-a1b3-196f66bfe5bf","system_id":"levelo_inurba_marseille","lat":43.325233,"lon":5.414318,"is_reserved":false,"is_disabled":false,"rental_uris":{"android":"levelo://app?vid=a20985a8-f5f7-4a42-a1b3-196f66bfe5bf","ios":"levelo://app?vid=a20985a8-f5f7-4a42-a1b3-196f66bfe5bf"},"vehicle_type_id":"4","last_reported":1700507174,"current_range_meters":20000,"station_id":"ce4bhq12rcd13ifvqhhg","pricing_plan_id":"free"},{"bike_id":"2cd80375-1b12-4261-83aa-29b34641f3de","system_id":"levelo_inurba_marseille","lat":43.292569,"lon":5.409107,"is_reserved":false,"is_disabled":false,"rental_uris":{"android":"levelo://app?vid=2cd80375-1b12-4261-83aa-29b34641f3de","ios":"levelo://app?vid=2cd80375-1b12-4261-83aa-29b34641f3de"},"vehicle_type_id":"4","last_reported":1700507174,"current_range_meters":11600,"station_id":"ce4bh192rcd13ifvqdc0","pricing_plan_id":"free"},{"bike_id":"1ec53fc5-b8e3-4edc-85bf-09f89af93265","system_id":"levelo_inurba_marseille","lat":43.276158,"lon":5.361199,"is_reserved":false,"is_disabled":false,"rental_uris":{"android":"levelo://app?vid=1ec53fc5-b8e3-4edc-85bf-09f89af93265","ios":"levelo://app?vid=1ec53fc5-b8e3-4edc-85bf-09f89af93265"},"vehicle_type_id":"4","last_reported":1700507174,"current_range_meters":14800,"station_id":"ce4bgj92rcd13ifvqbe0","pricing_plan_id":"free"},{"bike_id":"664dd67f-5692-428a-87dd-097c33c2959d","system_id":"levelo_inurba_marseille","lat":43.27615,"lon":5.36117,"is_reserved":false,"is_disabled":false,"rental_uris":{"android":"levelo://app?vid=664dd67f-5692-428a-87dd-097c33c2959d","ios":"levelo://app?vid=664dd67f-5692-428a-87dd-097c33c2959d"},"vehicle_type_id":"4","last_reported":1700507174,"current_range_meters":26800,"station_id":"ce4bgj92rcd13ifvqbe0","pricing_plan_id":"free"},{"bike_id":"54d83bdb-854d-4ada-827b-6f0754351f02","system_id":"levelo_inurba_marseille","lat":43.276136,"lon":5.361188,"is_reserved":false,"is_disabled":false,"rental_uris":{"android":"levelo://app?vid=54d83bdb-854d-4ada-827b-6f0754351f02","ios":"levelo://app?vid=54d83bdb-854d-4ada-827b-6f0754351f02"},"vehicle_type_id":"4","last_reported":1700507174,"current_range_meters":29600,"station_id":"ce4bgj92rcd13ifvqbe0","pricing_plan_id":"free"},{"bike_id":"4f1a6b35-6778-477c-bad5-109b7f667c51","system_id":"levelo_inurba_marseille","lat":43.276179,"lon":5.361009,"is_reserved":false,"is_disabled":false,"rental_uris":{"android":"levelo://app?vid=4f1a6b35-6778-477c-bad5-109b7f667c51","ios":"levelo://app?vid=4f1a6b35-6778-477c-bad5-109b7f667c51"},"vehicle_type_id":"4","last_reported":1700507174,"current_range_meters":18800,"station_id":"ce4bgj92rcd13ifvqbe0","pricing_plan_id":"free"},{"bike_id":"5d9e0f61-3ef2-46bf-80cd-8b1cc5acf214","system_id":"levelo_inurba_marseille","lat":43.27612,"lon":5.36114,"is_reserved":false,"is_disabled":false,"rental_uris":{"android":"levelo://app?vid=5d9e0f61-3ef2-46bf-80cd-8b1cc5acf214","ios":"levelo://app?vid=5d9e0f61-3ef2-46bf-80cd-8b1cc5acf214"},"vehicle_type_id":"4","last_reported":1700507174,"current_range_meters":31200,"station_id":"ce4bgj92rcd13ifvqbe0","pricing_plan_id":"free"},{"bike_id":"f91eeb3c-69ad-4653-b479-bf02928f8fef","system_id":"levelo_inurba_marseille","lat":43.276179,"lon":5.361009,"is_reserved":false,"is_disabled":false,"rental_uris":{"android":"levelo://app?vid=f91eeb3c-69ad-4653-b479-bf02928f8fef","ios":"levelo://app?vid=f91eeb3c-69ad-4653-b479-bf02928f8fef"},"vehicle_type_id":"4","last_reported":1700507174,"current_range_meters":3600,"station_id":"ce4bgj92rcd13ifvqbe0","pricing_plan_id":"free"},{"bike_id":"59aa648c-61f6-4ce1-8738-37e2fea2c3af","system_id":"levelo_inurba_marseille","lat":43.27606,"lon":5.36113,"is_reserved":false,"is_disabled":false,"rental_uris":{"android":"levelo://app?vid=59aa648c-61f6-4ce1-8738-37e2fea2c3af","ios":"levelo://app?vid=59aa648c-61f6-4ce1-8738-37e2fea2c3af"},"vehicle_type_id":"4","last_reported":1700507174,"current_range_meters":31200,"station_id":"ce4bgj92rcd13ifvqbe0","pricing_plan_id":"free"},{"bike_id":"18ce2666-79bd-47fe-a6be-b07ac06673c9","system_id":"levelo_inurba_marseille","lat":43.280784,"lon":5.396622,"is_reserved":false,"is_disabled":false,"rental_uris":{"android":"levelo://app?vid=18ce2666-79bd-47fe-a6be-b07ac06673c9","ios":"levelo://app?vid=18ce2666-79bd-47fe-a6be-b07ac06673c9"},"vehicle_type_id":"4","last_reported":1700507174,"current_range_meters":18000,"station_id":"ce4bho12rcd13ifvqh2g","pricing_plan_id":"free"},{"bike_id":"5686c140-c982-45fe-993c-0de95d6aace4","system_id":"levelo_inurba_marseille","lat":43.278401,"lon":5.392152,"is_reserved":false,"is_disabled":false,"rental_uris":{"android":"levelo://app?vid=5686c140-c982-45fe-993c-0de95d6aace4","ios":"levelo://app?vid=5686c140-c982-45fe-993c-0de95d6aace4"},"vehicle_type_id":"4","last_reported":1700507174,"current_range_meters":0,"station_id":"ce4bhjp2rcd13ifvqga0","pricing_plan_id":"free"},{"bike_id":"c0b19757-e061-4f7e-974f-237f1ce59d1d","system_id":"levelo_inurba_marseille","lat":43.278399,"lon":5.392139,"is_reserved":false,"is_disabled":false,"rental_uris":{"android":"levelo://app?vid=c0b19757-e061-4f7e-974f-237f1ce59d1d","ios":"levelo://app?vid=c0b19757-e061-4f7e-974f-237f1ce59d1d"},"vehicle_type_id":"4","last_reported":1700507174,"current_range_meters":2000,"station_id":"ce4bhjp2rcd13ifvqga0","pricing_plan_id":"free"},{"bike_id":"679a4a01-59a1-4c8d-b8fe-45b352858c01","system_id":"levelo_inurba_marseille","lat":43.278399,"lon":5.392139,"is_reserved":false,"is_disabled":false,"rental_uris":{"android":"levelo://app?vid=679a4a01-59a1-4c8d-b8fe-45b352858c01","ios":"levelo://app?vid=679a4a01-59a1-4c8d-b8fe-45b352858c01"},"vehicle_type_id":"4","last_reported":1700507174,"current_range_meters":8800,"station_id":"ce4bhjp2rcd13ifvqga0","pricing_plan_id":"free"},{"bike_id":"14491e89-76d4-4f00-805c-e48bf0203f90","system_id":"levelo_inurba_marseille","lat":43.27374,"lon":5.36246,"is_reserved":false,"is_disabled":false,"rental_uris":{"android":"levelo://app?vid=14491e89-76d4-4f00-805c-e48bf0203f90","ios":"levelo://app?vid=14491e89-76d4-4f00-805c-e48bf0203f90"},"vehicle_type_id":"4","last_reported":1700507174,"current_range_meters":24800,"station_id":"ce4bhbh2rcd13ifvqeo0","pricing_plan_id":"free"},{"bike_id":"6d985181-6d41-4cfb-9663-379346399c44","system_id":"levelo_inurba_marseille","lat":43.336,"lon":5.41035,"is_reserved":false,"is_disabled":false,"rental_uris":{"android":"levelo://app?vid=6d985181-6d41-4cfb-9663-379346399c44","ios":"levelo://app?vid=6d985181-6d41-4cfb-9663-379346399c44"},"vehicle_type_id":"4","last_reported":1700507174,"current_range_meters":400,"station_id":"ce4bhqh2rcd13ifvqhmg","pricing_plan_id":"free"},{"bike_id":"d3d1cf09-8dde-43c7-8bfb-6d72b8c1f3a1","system_id":"levelo_inurba_marseille","lat":43.33612,"lon":5.410321,"is_reserved":false,"is_disabled":false,"rental_uris":{"android":"levelo://app?vid=d3d1cf09-8dde-43c7-8bfb-6d72b8c1f3a1","ios":"levelo://app?vid=d3d1cf09-8dde-43c7-8bfb-6d72b8c1f3a1"},"vehicle_type_id":"4","last_reported":1700507174,"current_range_meters":18400,"station_id":"ce4bhqh2rcd13ifvqhmg","pricing_plan_id":"free"},{"bike_id":"461cf750-090d-4c43-abc9-403973184d4c","system_id":"levelo_inurba_marseille","lat":43.279952,"lon":5.400085,"is_reserved":false,"is_disabled":false,"rental_uris":{"android":"levelo://app?vid=461cf750-090d-4c43-abc9-403973184d4c","ios":"levelo://app?vid=461cf750-090d-4c43-abc9-403973184d4c"},"vehicle_type_id":"4","last_reported":1700507174,"current_range_meters":0,"station_id":"ce4bho92rcd13ifvqh4g","pricing_plan_id":"free"},{"bike_id":"a462ad5e-bea9-41c4-ab74-c8f536700599","system_id":"levelo_inurba_marseille","lat":43.279952,"lon":5.400085,"is_reserved":false,"is_disabled":false,"rental_uris":{"android":"levelo://app?vid=a462ad5e-bea9-41c4-ab74-c8f536700599","ios":"levelo://app?vid=a462ad5e-bea9-41c4-ab74-c8f536700599"},"vehicle_type_id":"4","last_reported":1700507174,"current_range_meters":30800,"station_id":"ce4bho92rcd13ifvqh4g","pricing_plan_id":"free"},{"bike_id":"879c9f55-adb4-41eb-93d5-282bdbd63bbf","system_id":"levelo_inurba_marseille","lat":43.27996,"lon":5.40013,"is_reserved":false,"is_disabled":false,"rental_uris":{"android":"levelo://app?vid=879c9f55-adb4-41eb-93d5-282bdbd63bbf","ios":"levelo://app?vid=879c9f55-adb4-41eb-93d5-282bdbd63bbf"},"vehicle_type_id":"4","last_reported":1700507174,"current_range_meters":2400,"station_id":"ce4bho92rcd13ifvqh4g","pricing_plan_id":"free"},{"bike_id":"d4762b2a-32f7-403a-8eab-7a1f1418e95c","system_id":"levelo_inurba_marseille","lat":43.27994,"lon":5.40013,"is_reserved":false,"is_disabled":false,"rental_uris":{"android":"levelo://app?vid=d4762b2a-32f7-403a-8eab-7a1f1418e95c","ios":"levelo://app?vid=d4762b2a-32f7-403a-8eab-7a1f1418e95c"},"vehicle_type_id":"4","last_reported":1700507174,"current_range_meters":1600,"station_id":"ce4bho92rcd13ifvqh4g","pricing_plan_id":"free"},{"bike_id":"24eb3593-996e-46a8-8fd4-f0e91d60bad6","system_id":"levelo_inurba_marseille","lat":43.279952,"lon":5.400085,"is_reserved":false,"is_disabled":false,"rental_uris":{"android":"levelo://app?vid=24eb3593-996e-46a8-8fd4-f0e91d60bad6","ios":"levelo://app?vid=24eb3593-996e-46a8-8fd4-f0e91d60bad6"},"vehicle_type_id":"4","last_reported":1700507174,"current_range_meters":10400,"station_id":"ce4bho92rcd13ifvqh4g","pricing_plan_id":"free"},{"bike_id":"ba09796f-3820-452a-85ea-3c4e33e45e79","system_id":"levelo_inurba_marseille","lat":43.279952,"lon":5.400085,"is_reserved":false,"is_disabled":false,"rental_uris":{"android":"levelo://app?vid=ba09796f-3820-452a-85ea-3c4e33e45e79","ios":"levelo://app?vid=ba09796f-3820-452a-85ea-3c4e33e45e79"},"vehicle_type_id":"4","last_reported":1700507174,"current_range_meters":8800,"station_id":"ce4bho92rcd13ifvqh4g","pricing_plan_id":"free"},{"bike_id":"0fff839f-0351-4a12-9b81-3e794e577e79","system_id":"levelo_inurba_marseille","lat":43.31716,"lon":5.42396,"is_reserved":false,"is_disabled":false,"rental_uris":{"android":"levelo://app?vid=0fff839f-0351-4a12-9b81-3e794e577e79","ios":"levelo://app?vid=0fff839f-0351-4a12-9b81-3e794e577e79"},"vehicle_type_id":"4","last_reported":1700507174,"current_range_meters":18800,"station_id":"ce4bhp92rcd13ifvqhbg","pricing_plan_id":"free"},{"bike_id":"62795268-6228-4ab9-a2a1-d237ecb5526e","system_id":"levelo_inurba_marseille","lat":43.32533,"lon":5.42482,"is_reserved":false,"is_disabled":false,"rental_uris":{"android":"levelo://app?vid=62795268-6228-4ab9-a2a1-d237ecb5526e","ios":"levelo://app?vid=62795268-6228-4ab9-a2a1-d237ecb5526e"},"vehicle_type_id":"4","last_reported":1700507174,"current_range_meters":24000,"station_id":"","pricing_plan_id":"free"},{"bike_id":"e7999838-2e8b-4b2f-b4ea-a7f990a0764b","system_id":"levelo_inurba_marseille","lat":43.295511,"lon":5.422926,"is_reserved":false,"is_disabled":false,"rental_uris":{"android":"levelo://app?vid=e7999838-2e8b-4b2f-b4ea-a7f990a0764b","ios":"levelo://app?vid=e7999838-2e8b-4b2f-b4ea-a7f990a0764b"},"vehicle_type_id":"4","last_reported":1700507174,"current_range_meters":8400,"station_id":"ce4bhph2rcd13ifvqhdg","pricing_plan_id":"free"},{"bike_id":"f15df866-8232-45bd-9a7b-91c496aebe7e","system_id":"levelo_inurba_marseille","lat":43.295523,"lon":5.422926,"is_reserved":false,"is_disabled":false,"rental_uris":{"android":"levelo://app?vid=f15df866-8232-45bd-9a7b-91c496aebe7e","ios":"levelo://app?vid=f15df866-8232-45bd-9a7b-91c496aebe7e"},"vehicle_type_id":"4","last_reported":1700507174,"current_range_meters":12800,"station_id":"ce4bhph2rcd13ifvqhdg","pricing_plan_id":"free"},{"bike_id":"d06dc048-5aa8-4744-8334-97117a5e8c79","system_id":"levelo_inurba_marseille","lat":43.272118,"lon":5.391758,"is_reserved":false,"is_disabled":false,"rental_uris":{"android":"levelo://app?vid=d06dc048-5aa8-4744-8334-97117a5e8c79","ios":"levelo://app?vid=d06dc048-5aa8-4744-8334-97117a5e8c79"},"vehicle_type_id":"4","last_reported":1700507174,"current_range_meters":0,"station_id":"ce4bhhp2rcd13ifvqfm0","pricing_plan_id":"free"},{"bike_id":"f8f5619a-a183-461d-b100-453fb972fcd4","system_id":"levelo_inurba_marseille","lat":43.272118,"lon":5.391758,"is_reserved":false,"is_disabled":false,"rental_uris":{"android":"levelo://app?vid=f8f5619a-a183-461d-b100-453fb972fcd4","ios":"levelo://app?vid=f8f5619a-a183-461d-b100-453fb972fcd4"},"vehicle_type_id":"4","last_reported":1700507174,"current_range_meters":9200,"station_id":"ce4bhhp2rcd13ifvqfm0","pricing_plan_id":"free"},{"bike_id":"0c3c91a0-2760-436d-8134-9f5da30b513e","system_id":"levelo_inurba_marseille","lat":43.271975,"lon":5.392428,"is_reserved":false,"is_disabled":false,"rental_uris":{"android":"levelo://app?vid=0c3c91a0-2760-436d-8134-9f5da30b513e","ios":"levelo://app?vid=0c3c91a0-2760-436d-8134-9f5da30b513e"},"vehicle_type_id":"4","last_reported":1700507174,"current_range_meters":7600,"station_id":"","pricing_plan_id":"free"},{"bike_id":"f0ed4531-078e-42fb-a007-3ed80505eb54","system_id":"levelo_inurba_marseille","lat":43.271891,"lon":5.392412,"is_reserved":false,"is_disabled":false,"rental_uris":{"android":"levelo://app?vid=f0ed4531-078e-42fb-a007-3ed80505eb54","ios":"levelo://app?vid=f0ed4531-078e-42fb-a007-3ed80505eb54"},"vehicle_type_id":"4","last_reported":1700507174,"current_range_meters":0,"station_id":"","pricing_plan_id":"free"},{"bike_id":"074d868c-f5b6-48a8-a2dc-f6355a644030","system_id":"levelo_inurba_marseille","lat":43.324273,"lon":5.42796,"is_reserved":false,"is_disabled":false,"rental_uris":{"android":"levelo://app?vid=074d868c-f5b6-48a8-a2dc-f6355a644030","ios":"levelo://app?vid=074d868c-f5b6-48a8-a2dc-f6355a644030"},"vehicle_type_id":"4","last_reported":1700507174,"current_range_meters":0,"station_id":"","pricing_plan_id":"free"},{"bike_id":"05d7a7d9-a4c6-4437-9afc-25d937de5c80","system_id":"levelo_inurba_marseille","lat":43.27942,"lon":5.41042,"is_reserved":false,"is_disabled":false,"rental_uris":{"android":"levelo://app?vid=05d7a7d9-a4c6-4437-9afc-25d937de5c80","ios":"levelo://app?vid=05d7a7d9-a4c6-4437-9afc-25d937de5c80"},"vehicle_type_id":"4","last_reported":1700507174,"current_range_meters":0,"station_id":"ce4bhnp2rcd13ifvqh0g","pricing_plan_id":"free"},{"bike_id":"3e39d6d5-f4fa-4b52-aba9-d853f38dc02f","system_id":"levelo_inurba_marseille","lat":43.26559,"lon":5.37292,"is_reserved":false,"is_disabled":false,"rental_uris":{"android":"levelo://app?vid=3e39d6d5-f4fa-4b52-aba9-d853f38dc02f","ios":"levelo://app?vid=3e39d6d5-f4fa-4b52-aba9-d853f38dc02f"},"vehicle_type_id":"4","last_reported":1700507174,"current_range_meters":31200,"station_id":"ce4bhg12rcd13ifvqf70","pricing_plan_id":"free"},{"bike_id":"1716cda1-1aa0-4886-afa7-8df4f0f77633","system_id":"levelo_inurba_marseille","lat":43.2655,"lon":5.37293,"is_reserved":false,"is_disabled":false,"rental_uris":{"android":"levelo://app?vid=1716cda1-1aa0-4886-afa7-8df4f0f77633","ios":"levelo://app?vid=1716cda1-1aa0-4886-afa7-8df4f0f77633"},"vehicle_type_id":"4","last_reported":1700507174,"current_range_meters":16000,"station_id":"ce4bhg12rcd13ifvqf70","pricing_plan_id":"free"},{"bike_id":"c7758cb2-2a45-4f89-aa5c-0e391d845c76","system_id":"levelo_inurba_marseille","lat":43.326053,"lon":5.429943,"is_reserved":false,"is_disabled":false,"rental_uris":{"android":"levelo://app?vid=c7758cb2-2a45-4f89-aa5c-0e391d845c76","ios":"levelo://app?vid=c7758cb2-2a45-4f89-aa5c-0e391d845c76"},"vehicle_type_id":"4","last_reported":1700507174,"current_range_meters":0,"station_id":"","pricing_plan_id":"free"},{"bike_id":"42871d3b-8c03-490f-baf1-f4b57c44a331","system_id":"levelo_inurba_marseille","lat":43.326174,"lon":5.430584,"is_reserved":false,"is_disabled":false,"rental_uris":{"android":"levelo://app?vid=42871d3b-8c03-490f-baf1-f4b57c44a331","ios":"levelo://app?vid=42871d3b-8c03-490f-baf1-f4b57c44a331"},"vehicle_type_id":"4","last_reported":1700507174,"current_range_meters":13600,"station_id":"","pricing_plan_id":"free"},{"bike_id":"94179806-c345-429a-a3bd-4d31fd89fb4d","system_id":"levelo_inurba_marseille","lat":43.267966,"lon":5.393976,"is_reserved":false,"is_disabled":false,"rental_uris":{"android":"levelo://app?vid=94179806-c345-429a-a3bd-4d31fd89fb4d","ios":"levelo://app?vid=94179806-c345-429a-a3bd-4d31fd89fb4d"},"vehicle_type_id":"4","last_reported":1700507174,"current_range_meters":18400,"station_id":"ce4bhh12rcd13ifvqfg0","pricing_plan_id":"free"},{"bike_id":"b2c14fc1-7ad1-45ee-8f05-a044f4db70c3","system_id":"levelo_inurba_marseille","lat":43.30798,"lon":5.43523,"is_reserved":false,"is_disabled":false,"rental_uris":{"android":"levelo://app?vid=b2c14fc1-7ad1-45ee-8f05-a044f4db70c3","ios":"levelo://app?vid=b2c14fc1-7ad1-45ee-8f05-a044f4db70c3"},"vehicle_type_id":"4","last_reported":1700507174,"current_range_meters":0,"station_id":"ce4bhph2rcd13ifvqheg","pricing_plan_id":"free"},{"bike_id":"e0b6e798-96e8-4d3e-97b1-72573e4132fe","system_id":"levelo_inurba_marseille","lat":43.308051,"lon":5.43527,"is_reserved":false,"is_disabled":false,"rental_uris":{"android":"levelo://app?vid=e0b6e798-96e8-4d3e-97b1-72573e4132fe","ios":"levelo://app?vid=e0b6e798-96e8-4d3e-97b1-72573e4132fe"},"vehicle_type_id":"4","last_reported":1700507174,"current_range_meters":31200,"station_id":"ce4bhph2rcd13ifvqheg","pricing_plan_id":"free"},{"bike_id":"af35100f-aa63-4223-9164-808b42a74cea","system_id":"levelo_inurba_marseille","lat":43.26563,"lon":5.39007,"is_reserved":false,"is_disabled":false,"rental_uris":{"android":"levelo://app?vid=af35100f-aa63-4223-9164-808b42a74cea","ios":"levelo://app?vid=af35100f-aa63-4223-9164-808b42a74cea"},"vehicle_type_id":"4","last_reported":1700507174,"current_range_meters":0,"station_id":"ce4bhe12rcd13ifvqf30","pricing_plan_id":"free"},{"bike_id":"7bf0fc47-97a5-4f4d-826a-022382cff8a8","system_id":"levelo_inurba_marseille","lat":43.26949,"lon":5.40245,"is_reserved":false,"is_disabled":false,"rental_uris":{"android":"levelo://app?vid=7bf0fc47-97a5-4f4d-826a-022382cff8a8","ios":"levelo://app?vid=7bf0fc47-97a5-4f4d-826a-022382cff8a8"},"vehicle_type_id":"4","last_reported":1700507174,"current_range_meters":0,"station_id":"cjm6bp8fraef2m0cb0m0","pricing_plan_id":"free"},{"bike_id":"59ec4f65-1f5b-477d-8c24-4b5eaa486a22","system_id":"levelo_inurba_marseille","lat":43.26949,"lon":5.40262,"is_reserved":false,"is_disabled":false,"rental_uris":{"android":"levelo://app?vid=59ec4f65-1f5b-477d-8c24-4b5eaa486a22","ios":"levelo://app?vid=59ec4f65-1f5b-477d-8c24-4b5eaa486a22"},"vehicle_type_id":"4","last_reported":1700507174,"current_range_meters":20000,"station_id":"cjm6bp8fraef2m0cb0m0","pricing_plan_id":"free"},{"bike_id":"f86b7645-64ae-410a-8f71-4e4747c8ede6","system_id":"levelo_inurba_marseille","lat":43.26941,"lon":5.40254,"is_reserved":false,"is_disabled":false,"rental_uris":{"android":"levelo://app?vid=f86b7645-64ae-410a-8f71-4e4747c8ede6","ios":"levelo://app?vid=f86b7645-64ae-410a-8f71-4e4747c8ede6"},"vehicle_type_id":"4","last_reported":1700507174,"current_range_meters":14000,"station_id":"cjm6bp8fraef2m0cb0m0","pricing_plan_id":"free"},{"bike_id":"197eb130-4e61-444c-9971-05b1de9d33a3","system_id":"levelo_inurba_marseille","lat":43.261782,"lon":5.374515,"is_reserved":false,"is_disabled":false,"rental_uris":{"android":"levelo://app?vid=197eb130-4e61-444c-9971-05b1de9d33a3","ios":"levelo://app?vid=197eb130-4e61-444c-9971-05b1de9d33a3"},"vehicle_type_id":"4","last_reported":1700507174,"current_range_meters":5200,"station_id":"ce4bhgp2rcd13ifvqfc0","pricing_plan_id":"free"},{"bike_id":"b7636829-a2f0-4574-8582-57ef92337a95","system_id":"levelo_inurba_marseille","lat":43.261782,"lon":5.374515,"is_reserved":false,"is_disabled":false,"rental_uris":{"android":"levelo://app?vid=b7636829-a2f0-4574-8582-57ef92337a95","ios":"levelo://app?vid=b7636829-a2f0-4574-8582-57ef92337a95"},"vehicle_type_id":"4","last_reported":1700507174,"current_range_meters":26400,"station_id":"ce4bhgp2rcd13ifvqfc0","pricing_plan_id":"free"},{"bike_id":"e45871c5-4b8c-4e9e-a69f-79201cf583d9","system_id":"levelo_inurba_marseille","lat":43.31709,"lon":5.43706,"is_reserved":false,"is_disabled":false,"rental_uris":{"android":"levelo://app?vid=e45871c5-4b8c-4e9e-a69f-79201cf583d9","ios":"levelo://app?vid=e45871c5-4b8c-4e9e-a69f-79201cf583d9"},"vehicle_type_id":"4","last_reported":1700507174,"current_range_meters":15200,"station_id":"ce4bhp92rcd13ifvqhcg","pricing_plan_id":"free"},{"bike_id":"4fac02bc-1688-411e-a1c7-c040dbdc4acd","system_id":"levelo_inurba_marseille","lat":43.317104,"lon":5.436818,"is_reserved":false,"is_disabled":false,"rental_uris":{"android":"levelo://app?vid=4fac02bc-1688-411e-a1c7-c040dbdc4acd","ios":"levelo://app?vid=4fac02bc-1688-411e-a1c7-c040dbdc4acd"},"vehicle_type_id":"4","last_reported":1700507174,"current_range_meters":7600,"station_id":"ce4bhp92rcd13ifvqhcg","pricing_plan_id":"free"},{"bike_id":"da36aa35-b707-4a96-a9c2-5393f360ed13","system_id":"levelo_inurba_marseille","lat":43.27177,"lon":5.40993,"is_reserved":false,"is_disabled":false,"rental_uris":{"android":"levelo://app?vid=da36aa35-b707-4a96-a9c2-5393f360ed13","ios":"levelo://app?vid=da36aa35-b707-4a96-a9c2-5393f360ed13"},"vehicle_type_id":"4","last_reported":1700507174,"current_range_meters":30400,"station_id":"ce4bhl12rcd13ifvqgf0","pricing_plan_id":"free"},{"bike_id":"900338ba-e73c-43e4-805a-dbd8b9d9eb04","system_id":"levelo_inurba_marseille","lat":43.271368,"lon":5.40928,"is_reserved":false,"is_disabled":false,"rental_uris":{"android":"levelo://app?vid=900338ba-e73c-43e4-805a-dbd8b9d9eb04","ios":"levelo://app?vid=900338ba-e73c-43e4-805a-dbd8b9d9eb04"},"vehicle_type_id":"4","last_reported":1700507174,"current_range_meters":22400,"station_id":"ce4bhl12rcd13ifvqgf0","pricing_plan_id":"free"},{"bike_id":"e091721e-2ba7-4a38-a1d6-0430eedf171f","system_id":"levelo_inurba_marseille","lat":43.271368,"lon":5.40928,"is_reserved":false,"is_disabled":false,"rental_uris":{"android":"levelo://app?vid=e091721e-2ba7-4a38-a1d6-0430eedf171f","ios":"levelo://app?vid=e091721e-2ba7-4a38-a1d6-0430eedf171f"},"vehicle_type_id":"4","last_reported":1700507174,"current_range_meters":10000,"station_id":"ce4bhl12rcd13ifvqgf0","pricing_plan_id":"free"},{"bike_id":"74ce853b-0d8b-42c9-81c8-17a7564a4b34","system_id":"levelo_inurba_marseille","lat":43.31725,"lon":5.43786,"is_reserved":false,"is_disabled":false,"rental_uris":{"android":"levelo://app?vid=74ce853b-0d8b-42c9-81c8-17a7564a4b34","ios":"levelo://app?vid=74ce853b-0d8b-42c9-81c8-17a7564a4b34"},"vehicle_type_id":"4","last_reported":1700507174,"current_range_meters":10000,"station_id":"","pricing_plan_id":"free"},{"bike_id":"02fe7647-f601-4c5d-9dcf-886abc495cd7","system_id":"levelo_inurba_marseille","lat":43.29898,"lon":5.43665,"is_reserved":false,"is_disabled":false,"rental_uris":{"android":"levelo://app?vid=02fe7647-f601-4c5d-9dcf-886abc495cd7","ios":"levelo://app?vid=02fe7647-f601-4c5d-9dcf-886abc495cd7"},"vehicle_type_id":"4","last_reported":1700507174,"current_range_meters":0,"station_id":"ce4bhpp2rcd13ifvqhfg","pricing_plan_id":"free"},{"bike_id":"241f026e-775b-43ac-ba3f-9d4d3a91c74c","system_id":"levelo_inurba_marseille","lat":43.298768,"lon":5.43643,"is_reserved":false,"is_disabled":false,"rental_uris":{"android":"levelo://app?vid=241f026e-775b-43ac-ba3f-9d4d3a91c74c","ios":"levelo://app?vid=241f026e-775b-43ac-ba3f-9d4d3a91c74c"},"vehicle_type_id":"4","last_reported":1700507174,"current_range_meters":30400,"station_id":"ce4bhpp2rcd13ifvqhfg","pricing_plan_id":"free"},{"bike_id":"9fffba1d-dd3c-4f9a-b15f-579464dcab20","system_id":"levelo_inurba_marseille","lat":43.260219,"lon":5.37546,"is_reserved":false,"is_disabled":false,"rental_uris":{"android":"levelo://app?vid=9fffba1d-dd3c-4f9a-b15f-579464dcab20","ios":"levelo://app?vid=9fffba1d-dd3c-4f9a-b15f-579464dcab20"},"vehicle_type_id":"4","last_reported":1700507174,"current_range_meters":29600,"station_id":"ce4bhgh2rcd13ifvqfa0","pricing_plan_id":"free"},{"bike_id":"dc230d7f-9d6a-47e8-aea1-b76f2dd2b333","system_id":"levelo_inurba_marseille","lat":43.28153,"lon":5.4265,"is_reserved":false,"is_disabled":false,"rental_uris":{"android":"levelo://app?vid=dc230d7f-9d6a-47e8-aea1-b76f2dd2b333","ios":"levelo://app?vid=dc230d7f-9d6a-47e8-aea1-b76f2dd2b333"},"vehicle_type_id":"4","last_reported":1700507174,"current_range_meters":14000,"station_id":"ce4bhnh2rcd13ifvqgug","pricing_plan_id":"free"},{"bike_id":"e439e5d4-d03b-4296-83ba-ceff072df74b","system_id":"levelo_inurba_marseille","lat":43.26067,"lon":5.394,"is_reserved":false,"is_disabled":false,"rental_uris":{"android":"levelo://app?vid=e439e5d4-d03b-4296-83ba-ceff072df74b","ios":"levelo://app?vid=e439e5d4-d03b-4296-83ba-ceff072df74b"},"vehicle_type_id":"4","last_reported":1700507174,"current_range_meters":0,"station_id":"ce4bhh92rcd13ifvqfj0","pricing_plan_id":"free"},{"bike_id":"19e7bdd6-6837-474c-859f-7a145802b0f3","system_id":"levelo_inurba_marseille","lat":43.260593,"lon":5.394003,"is_reserved":false,"is_disabled":false,"rental_uris":{"android":"levelo://app?vid=19e7bdd6-6837-474c-859f-7a145802b0f3","ios":"levelo://app?vid=19e7bdd6-6837-474c-859f-7a145802b0f3"},"vehicle_type_id":"4","last_reported":1700507174,"current_range_meters":0,"station_id":"ce4bhh92rcd13ifvqfj0","pricing_plan_id":"free"},