{"last_updated":1737274242,"ttl":60,"version":"2.2","data":{"bikes":[{"bike_id":"ab673ef1-7e40-4594-9d0e-7f7e3f6eef5a","system_id":"levelo_inurba_marseille","lat":43.29051,"lon":5.39942,"is_reserved":false,"is_disabled":false,"rental_uris":{"android":"levelo://app?vid=ab673ef1-7e40-4594-9d0e-7f7e3f6eef5a","ios":"levelo://app?vid=ab673ef1-7e40-4594-9d0e-7f7e3f6eef5a"},"vehicle_type_id":"4","last_reported":1737274242,"current_range_meters":39200,"station_id":"ce4bh392rcd13ifvqdm0","pricing_plan_id":"cebpf4jnsgd1na2vs0mg"},{"bike_id":"1a436c62-f447-44e4-a31d-30a6397fe66d","system_id":"levelo_inurba_marseille","lat":43.30473,"lon":5.37914,"is_reserved":false,"is_disabled":false,"rental_uris":{"android":"levelo://app?vid=1a436c62-f447-44e4-a31d-30a6397fe66d","ios":"levelo://app?vid=1a436c62-f447-44e4-a31d-30a6397fe66d"},"vehicle_type_id":"4","last_reported":1737274242,"current_range_meters":32000,"station_id":"ce4bgup2rcd13ifvqcn0","pricing_plan_id":"cebpf4jnsgd1na2vs0mg"},{"bike_id":"a8952787-a77f-475a-b83d-e8b332145710","system_id":"levelo_inurba_marseille","lat":43.281045,"lon":5.37848,"is_reserved":false,"is_disabled":false,"rental_uris":{"android":"levelo://app?vid=a8952787-a77f-475a-b83d-e8b332145710","ios":"levelo://app?vid=a8952787-a77f-475a-b83d-e8b332145710"},"vehicle_type_id":"4","last_reported":1737274242,"current_range_meters":30400,"station_id":"ce4bha12rcd13ifvqee0","pricing_plan_id":"cebpf4jnsgd1na2vs0mg"},{"bike_id":"49142cff-fb21-4c2a-b7b6-d170fa289b55","system_id":"levelo_inurba_marseille","lat":43.31883,"lon":5.40723,"is_reserved":false,"is_disabled":false,"rental_uris":{"android":"levelo://app?vid=49142cff-fb21-4c2a-b7b6-d170fa289b55","ios":"levelo://app?vid=49142cff-fb21-4c2a-b7b6-d170fa289b55"},"vehicle_type_id":"4","last_reported":1737274242,"current_range_meters":30400,"station_id":"ce4bhq12rcd13ifvqhig","pricing_plan_id":"cebpf4jnsgd1na2vs0mg"},{"bike_id":"5f84fc91-657f-4d73-bf50-f67bb7b69099","system_id":"levelo_inurba_marseille","lat":43.25494,"lon":5.37661,"is_reserved":false,"is_disabled":false,"rental_uris":{"android":"levelo://app?vid=5f84fc91-657f-4d73-bf50-f67bb7b69099","ios":"levelo://app?vid=5f84fc91-657f-4d73-bf50-f67bb7b69099"},"vehicle_type_id":"4","last_reported":1737274242,"current_range_meters":37600,"station_id":"ce4bhh12rcd13ifvqff0","pricing_plan_id":"cebpf4jnsgd1na2vs0mg"},{"bike_id":"eb6a7ef2-9572-4999-b0d9-89ac6512f20e","system_id":"levelo_inurba_marseille","lat":43.2501,"lon":5.38937,"is_reserved":false,"is_disabled":false,"rental_uris":{"android":"levelo://app?vid=eb6a7ef2-9572-4999-b0d9-89ac6512f20e","ios":"levelo://app?vid=eb6a7ef2-9572-4999-b0d9-89ac6512f20e"},"vehicle_type_id":"4","last_reported":1737274242,"current_range_meters":38800,"station_id":"ce4bhgp2rcd13ifvqfd0","pricing_plan_id":"cebpf4jnsgd1na2vs0mg"},{"bike_id":"32983ca2-b16e-4020-8699-0f3928b6b30e","system_id":"levelo_inurba_marseille","lat":43.29572,"lon":5.39964,"is_reserved":false,"is_disabled":false,"rental_uris":{"android":"levelo://app?vid=32983ca2-b16e-4020-8699-0f3928b6b30e","ios":"levelo://app?vid=32983ca2-b16e-4020-8699-0f3928b6b30e"},"vehicle_type_id":"4","last_reported":1737274242,"current_range_meters":8800,"station_id":"ce4bh312rcd13ifvqdj0","pricing_plan_id":"cebpf4jnsgd1na2vs0mg"},{"bike_id":"c692e1f1-0ed0-4496-86f6-c9e3cbb6e911","system_id":"levelo_inurba_marseille","lat":43.28158,"lon":5.42648,"is_reserved":false,"is_disabled":false,"rental_uris":{"android":"levelo://app?vid=c692e1f1-0ed0-4496-86f6-c9e3cbb6e911","ios":"levelo://app?vid=c692e1f1-0ed0-4496-86f6-c9e3cbb6e911"},"vehicle_type_id":"4","last_reported":1737274242,"current_range_meters":25600,"station_id":"ce4bhnh2rcd13ifvqgug","pricing_plan_id":"cebpf4jnsgd1na2vs0mg"},{"bike_id":"a5cfd84d-4cae-4412-b199-dcb982d64799","system_id":"levelo_inurba_marseille","lat":43.28424,"lon":5.39201,"is_reserved":false,"is_disabled":true,"rental_uris":{"android":"levelo://app?vid=a5cfd84d-4cae-4412-b199-dcb982d64799","ios":"levelo://app?vid=a5cfd84d-4cae-4412-b199-dcb982d64799"},"vehicle_type_id":"4","last_reported":1737274242,"current_range_meters":0,"station_id":"ce4bhoh2rcd13ifvqh5g","pricing_plan_id":"cebpf4jnsgd1na2vs0mg"},{"bike_id":"d4b68915-2e1c-4a93-ac84-959364ed50a9","system_id":"levelo_inurba_marseille","lat":43.292453,"lon":5.409069,"is_reserved":false,"is_disabled":false,"rental_uris":{"android":"levelo://app?vid=d4b68915-2e1c-4a93-ac84-959364ed50a9","ios":"levelo://app?vid=d4b68915-2e1c-4a93-ac84-959364ed50a9"},"vehicle_type_id":"4","last_reported":1737274242,"current_range_meters":24800,"station_id":"ce4bh192rcd13ifvqdc0","pricing_plan_id":"cebpf4jnsgd1na2vs0mg"},{"bike_id":"31a281f0-03e7-40e6-9192-a07a3730f17e","system_id":"levelo_inurba_marseille","lat":43.29562,"lon":5.39996,"is_reserved":false,"is_disabled":false,"rental_uris":{"android":"levelo://app?vid=31a281f0-03e7-40e6-9192-a07a3730f17e","ios":"levelo://app?vid=31a281f0-03e7-40e6-9192-a07a3730f17e"},"vehicle_type_id":"4","last_reported":1737274242,"current_range_meters":38800,"station_id":"ce4bh312rcd13ifvqdj0","pricing_plan_id":"cebpf4jnsgd1na2vs0mg"},{"bike_id":"2e458cba-09ed-4b28-bcfa-56c339e37ef1","system_id":"levelo_inurba_marseille","lat":43.274961,"lon":5.424579,"is_reserved":false,"is_disabled":false,"rental_uris":{"android":"levelo://app?vid=2e458cba-09ed-4b28-bcfa-56c339e37ef1","ios":"levelo://app?vid=2e458cba-09ed-4b28-bcfa-56c339e37ef1"},"vehicle_type_id":"4","last_reported":1737274242,"current_range_meters":32000,"station_id":"ce4bhn92rcd13ifvqgrg","pricing_plan_id":"cebpf4jnsgd1na2vs0mg"},{"bike_id":"4d7363f6-ff16-43fe-8b45-92ac557f5504","system_id":"levelo_inurba_marseille","lat":43.28949,"lon":5.36426,"is_reserved":false,"is_disabled":false,"rental_uris":{"android":"levelo://app?vid=4d7363f6-ff16-43fe-8b45-92ac557f5504","ios":"levelo://app?vid=4d7363f6-ff16-43fe-8b45-92ac557f5504"},"vehicle_type_id":"4","last_reported":1737274242,"current_range_meters":11200,"station_id":"ce4bhc92rcd13ifvqetg","pricing_plan_id":"cebpf4jnsgd1na2vs0mg"},{"bike_id":"3a994724-45a4-4bd8-b8de-79a0ca017493","system_id":"levelo_inurba_marseille","lat":43.26772,"lon":5.39433,"is_reserved":false,"is_disabled":false,"rental_uris":{"android":"levelo://app?vid=3a994724-45a4-4bd8-b8de-79a0ca017493","ios":"levelo://app?vid=3a994724-45a4-4bd8-b8de-79a0ca017493"},"vehicle_type_id":"4","last_reported":1737274242,"current_range_meters":38400,"station_id":"ce4bhh12rcd13ifvqfg0","pricing_plan_id":"cebpf4jnsgd1na2vs0mg"},{"bike_id":"90c165c3-eff9-4a4a-8f28-cfa68619e419","system_id":"levelo_inurba_marseille","lat":43.287143,"lon":5.399906,"is_reserved":false,"is_disabled":true,"rental_uris":{"android":"levelo://app?vid=90c165c3-eff9-4a4a-8f28-cfa68619e419","ios":"levelo://app?vid=90c165c3-eff9-4a4a-8f28-cfa68619e419"},"vehicle_type_id":"4","last_reported":1737274242,"current_range_meters":29600,"station_id":"ce4bho92rcd13ifvqh3g","pricing_plan_id":"cebpf4jnsgd1na2vs0mg"},{"bike_id":"f3885d15-b73b-47a5-a9dc-0d82fe0173e3","system_id":"levelo_inurba_marseille","lat":43.29226,"lon":5.36065,"is_reserved":false,"is_disabled":false,"rental_uris":{"android":"levelo://app?vid=f3885d15-b73b-47a5-a9dc-0d82fe0173e3","ios":"levelo://app?vid=f3885d15-b73b-47a5-a9dc-0d82fe0173e3"},"vehicle_type_id":"4","last_reported":1737274242,"current_range_meters":32400,"station_id":"ce4bhbh2rcd13ifvqeqg","pricing_plan_id":"cebpf4jnsgd1na2vs0mg"},{"bike_id":"4975d3c5-1381-4300-914e-0a110da6ae0f","system_id":"levelo_inurba_marseille","lat":43.24059,"lon":5.37787,"is_reserved":false,"is_disabled":false,"rental_uris":{"android":"levelo://app?vid=4975d3c5-1381-4300-914e-0a110da6ae0f","ios":"levelo://app?vid=4975d3c5-1381-4300-914e-0a110da6ae0f"},"vehicle_type_id":"4","last_reported":1737274242,"current_range_meters":39200,"station_id":"ce4bhnp2rcd13ifvqgvg","pricing_plan_id":"cebpf4jnsgd1na2vs0mg"},{"bike_id":"a415cf4f-ff4c-4204-8f2b-7f27d59692e5","system_id":"levelo_inurba_marseille","lat":43.30885,"lon":5.39633,"is_reserved":false,"is_disabled":false,"rental_uris":{"android":"levelo://app?vid=a415cf4f-ff4c-4204-8f2b-7f27d59692e5","ios":"levelo://app?vid=a415cf4f-ff4c-4204-8f2b-7f27d59692e5"},"vehicle_type_id":"4","last_reported":1737274242,"current_range_meters":38800,"station_id":"ce4bh012rcd13ifvqcv0","pricing_plan_id":"cebpf4jnsgd1na2vs0mg"},{"bike_id":"ca9db58d-947c-4860-8654-70c594dc1043","system_id":"levelo_inurba_marseille","lat":43.28459,"lon":5.35893,"is_reserved":false,"is_disabled":false,"rental_uris":{"android":"levelo://app?vid=ca9db58d-947c-4860-8654-70c594dc1043","ios":"levelo://app?vid=ca9db58d-947c-4860-8654-70c594dc1043"},"vehicle_type_id":"4","last_reported":1737274242,"current_range_meters":38800,"station_id":"ce4bhah2rcd13ifvqei0","pricing_plan_id":"cebpf4jnsgd1na2vs0mg"},{"bike_id":"2fe88d16-af55-4de4-84b3-2988d3ee891a","system_id":"levelo_inurba_marseille","lat":43.303556,"lon":5.418899,"is_reserved":false,"is_disabled":false,"rental_uris":{"android":"levelo://app?vid=2fe88d16-af55-4de4-84b3-2988d3ee891a","ios":"levelo://app?vid=2fe88d16-af55-4de4-84b3-2988d3ee891a"},"vehicle_type_id":"4","last_reported":1737274242,"current_range_meters":38400,"station_id":"ce4bhop2rcd13ifvqh7g","pricing_plan_id":"cebpf4jnsgd1na2vs0mg"},{"bike_id":"46efa326-c02d-4314-a6fe-f05976f22b94","system_id":"levelo_inurba_marseille","lat":43.28019,"lon":5.36951,"is_reserved":false,"is_disabled":false,"rental_uris":{"android":"levelo://app?vid=46efa326-c02d-4314-a6fe-f05976f22b94","ios":"levelo://app?vid=46efa326-c02d-4314-a6fe-f05976f22b94"},"vehicle_type_id":"4","last_reported":1737274242,"current_range_meters":14800,"station_id":"ce4bha12rcd13ifvqef0","pricing_plan_id":"cebpf4jnsgd1na2vs0mg"},{"bike_id":"b9be44ef-7bb0-4ba3-a4f5-2e356db06bba","system_id":"levelo_inurba_marseille","lat":43.31063,"lon":5.38606,"is_reserved":false,"is_disabled":false,"rental_uris":{"android":"levelo://app?vid=b9be44ef-7bb0-4ba3-a4f5-2e356db06bba","ios":"levelo://app?vid=b9be44ef-7bb0-4ba3-a4f5-2e356db06bba"},"vehicle_type_id":"4","last_reported":1737274242,"current_range_meters":31200,"station_id":"","pricing_plan_id":"cebpf4jnsgd1na2vs0mg"},{"bike_id":"763ed4fc-16fd-47a0-aedf-62c028daa66f","system_id":"levelo_inurba_marseille","lat":43.36399,"lon":5.35566,"is_reserved":false,"is_disabled":false,"rental_uris":{"android":"levelo://app?vid=763ed4fc-16fd-47a0-aedf-62c028daa66f","ios":"levelo://app?vid=763ed4fc-16fd-47a0-aedf-62c028daa66f"},"vehicle_type_id":"4","last_reported":1737274242,"current_range_meters":14800,"station_id":"","pricing_plan_id":"cebpf4jnsgd1na2vs0mg"},{"bike_id":"8714c275-8772-493a-a1bb-649bdf0edbe0","system_id":"levelo_inurba_marseille","lat":43.3089,"lon":5.36877,"is_reserved":false,"is_disabled":false,"rental_uris":{"android":"levelo://app?vid=8714c275-8772-493a-a1bb-649bdf0edbe0","ios":"levelo://app?vid=8714c275-8772-493a-a1bb-649bdf0edbe0"},"vehicle_type_id":"4","last_reported":1737274242,"current_range_meters":35200,"station_id":"ce4bgn92rcd13ifvqbvg","pricing_plan_id":"cebpf4jnsgd1na2vs0mg"},{"bike_id":"1022f24d-239e-49a1-a4b8-988e34719576","system_id":"levelo_inurba_marseille","lat":43.245457,"lon":5.395279,"is_reserved":false,"is_disabled":false,"rental_uris":{"android":"levelo://app?vid=1022f24d-239e-49a1-a4b8-988e34719576","ios":"levelo://app?vid=1022f24d-239e-49a1-a4b8-988e34719576"},"vehicle_type_id":"4","last_reported":1737274242,"current_range_meters":14800,"station_id":"ce4bhlp2rcd13ifvqgjg","pricing_plan_id":"cebpf4jnsgd1na2vs0mg"},{"bike_id":"d359f35f-3ca3-405b-82ef-cb0e77381ed0","system_id":"levelo_inurba_marseille","lat":43.29556,"lon":5.39988,"is_reserved":false,"is_disabled":false,"rental_uris":{"android":"levelo://app?vid=d359f35f-3ca3-405b-82ef-cb0e77381ed0","ios":"levelo://app?vid=d359f35f-3ca3-405b-82ef-cb0e77381ed0"},"vehicle_type_id":"4","last_reported":1737274242,"current_range_meters":28000,"station_id":"ce4bh312rcd13ifvqdj0","pricing_plan_id":"cebpf4jnsgd1na2vs0mg"},{"bike_id":"c60b4a84-565f-4ae4-a9dc-2cb297430a4e","system_id":"levelo_inurba_marseille","lat":43.30915,"lon":5.40165,"is_reserved":false,"is_disabled":false,"rental_uris":{"android":"levelo://app?vid=c60b4a84-565f-4ae4-a9dc-2cb297430a4e","ios":"levelo://app?vid=c60b4a84-565f-4ae4-a9dc-2cb297430a4e"},"vehicle_type_id":"4","last_reported":1737274242,"current_range_meters":38800,"station_id":"ce4bgvp2rcd13ifvqct0","pricing_plan_id":"cebpf4jnsgd1na2vs0mg"},{"bike_id":"3477fb5d-938e-4d71-a64e-f956f336dc45","system_id":"levelo_inurba_marseille","lat":43.24156,"lon":5.39733,"is_reserved":false,"is_disabled":false,"rental_uris":{"android":"levelo://app?vid=3477fb5d-938e-4d71-a64e-f956f336dc45","ios":"levelo://app?vid=3477fb5d-938e-4d71-a64e-f956f336dc45"},"vehicle_type_id":"4","last_reported":1737274242,"current_range_meters":38800,"station_id":"ce4bhn12rcd13ifvqgpg","pricing_plan_id":"cebpf4jnsgd1na2vs0mg"},{"bike_id":"f3c94274-f861-4c89-8bb1-1ebe1a531935","system_id":"levelo_inurba_marseille","lat":43.25005,"lon":5.38922,"is_reserved":false,"is_disabled":false,"rental_uris":{"android":"levelo://app?vid=f3c94274-f861-4c89-8bb1-1ebe1a531935","ios":"levelo://app?vid=f3c94274-f861-4c89-8bb1-1ebe1a531935"},"vehicle_type_id":"4","last_reported":1737274242,"current_range_meters":38000,"station_id":"ce4bhgp2rcd13ifvqfd0","pricing_plan_id":"cebpf4jnsgd1na2vs0mg"},{"bike_id":"1f6f683c-a65a-4019-a9f0-ea302b841d62","system_id":"levelo_inurba_marseille","lat":43.27106,"lon":5.39111,"is_reserved":false,"is_disabled":false,"rental_uris":{"android":"levelo://app?vid=1f6f683c-a65a-4019-a9f0-ea302b841d62","ios":"levelo://app?vid=1f6f683c-a65a-4019-a9f0-ea302b841d62"},"vehicle_type_id":"4","last_reported":1737274242,"current_range_meters":28800,"station_id":"","pricing_plan_id":"cebpf4jnsgd1na2vs0mg"},{"bike_id":"ea820ade-d81d-428e-82b9-7f165f7e8e75","system_id":"levelo_inurba_marseille","lat":43.32352,"lon":5.3677,"is_reserved":false,"is_disabled":false,"rental_uris":{"android":"levelo://app?vid=ea820ade-d81d-428e-82b9-7f165f7e8e75","ios":"levelo://app?vid=ea820ade-d81d-428e-82b9-7f165f7e8e75"},"vehicle_type_id":"4","last_reported":1737274242,"current_range_meters":17200,"station_id":"ce4bhsh2rcd13ifvqi2g","pricing_plan_id":"cebpf4jnsgd1na2vs0mg"},{"bike_id":"c29020e0-83ef-4b06-ac4f-c4422257f84a","system_id":"levelo_inurba_marseille","lat":43.36391,"lon":5.35613,"is_reserved":false,"is_disabled":false,"rental_uris":{"android":"levelo://app?vid=c29020e0-83ef-4b06-ac4f-c4422257f84a","ios":"levelo://app?vid=c29020e0-83ef-4b06-ac4f-c4422257f84a"},"vehicle_type_id":"4","last_reported":1737274242,"current_range_meters":19600,"station_id":"","pricing_plan_id":"cebpf4jnsgd1na2vs0mg"},{"bike_id":"2a8e6794-3001-4785-a1fa-2c1da9117a55","system_id":"levelo_inurba_marseille","lat":43.27562,"lon":5.38414,"is_reserved":false,"is_disabled":false,"rental_uris":{"android":"levelo://app?vid=2a8e6794-3001-4785-a1fa-2c1da9117a55","ios":"levelo://app?vid=2a8e6794-3001-4785-a1fa-2c1da9117a55"},"vehicle_type_id":"4","last_reported":1737274242,"current_range_meters":38800,"station_id":"ce4bhh92rcd13ifvqfi0","pricing_plan_id":"cebpf4jnsgd1na2vs0mg"},{"bike_id":"a857a7ae-548e-49d1-9a1f-df8c75795140","system_id":"levelo_inurba_marseille","lat":43.289347,"lon":5.396289,"is_reserved":false,"is_disabled":false,"rental_uris":{"android":"levelo://app?vid=a857a7ae-548e-49d1-9a1f-df8c75795140","ios":"levelo://app?vid=a857a7ae-548e-49d1-9a1f-df8c75795140"},"vehicle_type_id":"4","last_reported":1737274242,"current_range_meters":38800,"station_id":"ce4bh3h2rcd13ifvqdn0","pricing_plan_id":"cebpf4jnsgd1na2vs0mg"},{"bike_id":"03130477-5de0-4f40-b2f5-8e95486c51e6","system_id":"levelo_inurba_marseille","lat":43.26806,"lon":5.40275,"is_reserved":false,"is_disabled":false,"rental_uris":{"android":"levelo://app?vid=03130477-5de0-4f40-b2f5-8e95486c51e6","ios":"levelo://app?vid=03130477-5de0-4f40-b2f5-8e95486c51e6"},"vehicle_type_id":"4","last_reported":1737274242,"current_range_meters":34000,"station_id":"ce501612rcd8frsf0b60","pricing_plan_id":"cebpf4jnsgd1na2vs0mg"},{"bike_id":"1bc986a8-9387-4926-b0fd-2f0f185b1da4","system_id":"levelo_inurba_marseille","lat":43.28441,"lon":5.35892,"is_reserved":false,"is_disabled":false,"rental_uris":{"android":"levelo://app?vid=1bc986a8-9387-4926-b0fd-2f0f185b1da4","ios":"levelo://app?vid=1bc986a8-9387-4926-b0fd-2f0f185b1da4"},"vehicle_type_id":"4","last_reported":1737274242,"current_range_meters":22000,"station_id":"ce4bhah2rcd13ifvqei0","pricing_plan_id":"cebpf4jnsgd1na2vs0mg"},{"bike_id":"4d4ec566-516b-4793-a5be-68a8e0188dc4","system_id":"levelo_inurba_marseille","lat":43.33029,"lon":5.39036,"is_reserved":false,"is_disabled":false,"rental_uris":{"android":"levelo://app?vid=4d4ec566-516b-4793-a5be-68a8e0188dc4","ios":"levelo://app?vid=4d4ec566-516b-4793-a5be-68a8e0188dc4"},"vehicle_type_id":"4","last_reported":1737274242,"current_range_meters":38800,"station_id":"ce4bhr92rcd13ifvqhrg","pricing_plan_id":"cebpf4jnsgd1na2vs0mg"},{"bike_id":"b672b566-ae6e-4181-a2cb-0155be334a04","system_id":"levelo_inurba_marseille","lat":43.289446,"lon":5.366288,"is_reserved":false,"is_disabled":true,"rental_uris":{"android":"levelo://app?vid=b672b566-ae6e-4181-a2cb-0155be334a04","ios":"levelo://app?vid=b672b566-ae6e-4181-a2cb-0155be334a04"},"vehicle_type_id":"4","last_reported":1737274242,"current_range_meters":34000,"station_id":"ce4bhap2rcd13ifvqek0","pricing_plan_id":"cebpf4jnsgd1na2vs0mg"},{"bike_id":"e9b26cca-a227-4762-933b-a7510f012b99","system_id":"levelo_inurba_marseille","lat":43.29563,"lon":5.39971,"is_reserved":false,"is_disabled":false,"rental_uris":{"android":"levelo://app?vid=e9b26cca-a227-4762-933b-a7510f012b99","ios":"levelo://app?vid=e9b26cca-a227-4762-933b-a7510f012b99"},"vehicle_type_id":"4","last_reported":1737274242,"current_range_meters":38000,"station_id":"ce4bh312rcd13ifvqdj0","pricing_plan_id":"cebpf4jnsgd1na2vs0mg"},{"bike_id":"04e7f6b2-1170-476d-8eb7-54bc6ab7d23c","system_id":"levelo_inurba_marseille","lat":43.243785,"lon":5.370518,"is_reserved":false,"is_disabled":false,"rental_uris":{"android":"levelo://app?vid=04e7f6b2-1170-476d-8eb7-54bc6ab7d23c","ios":"levelo://app?vid=04e7f6b2-1170-476d-8eb7-54bc6ab7d23c"},"vehicle_type_id":"4","last_reported":1737274242,"current_range_meters":38000,"station_id":"ce4bhhh2rcd13ifvqfk0","pricing_plan_id":"cebpf4jnsgd1na2vs0mg"},{"bike_id":"4395dfba-4e3d-4b8b-aa73-f3e693689e94","system_id":"levelo_inurba_marseille","lat":43.24656,"lon":5.3815,"is_reserved":false,"is_disabled":false,"rental_uris":{"android":"levelo://app?vid=4395dfba-4e3d-4b8b-aa73-f3e693689e94","ios":"levelo://app?vid=4395dfba-4e3d-4b8b-aa73-f3e693689e94"},"vehicle_type_id":"4","last_reported":1737274242,"current_range_meters":24400,"station_id":"ce4bhih2rcd13ifvqfr0","pricing_plan_id":"cebpf4jnsgd1na2vs0mg"},{"bike_id":"02a616e7-132c-44d5-838b-aff3c9623560","system_id":"levelo_inurba_marseille","lat":43.29033,"lon":5.39968,"is_reserved":false,"is_disabled":false,"rental_uris":{"android":"levelo://app?vid=02a616e7-132c-44d5-838b-aff3c9623560","ios":"levelo://app?vid=02a616e7-132c-44d5-838b-aff3c9623560"},"vehicle_type_id":"4","last_reported":1737274242,"current_range_meters":8400,"station_id":"ce4bh392rcd13ifvqdm0","pricing_plan_id":"cebpf4jnsgd1na2vs0mg"},{"bike_id":"4ca4a284-7c6d-494d-904d-fa6aeb88c6a7","system_id":"levelo_inurba_marseille","lat":43.30882,"lon":5.39641,"is_reserved":false,"is_disabled":false,"rental_uris":{"android":"levelo://app?vid=4ca4a284-7c6d-494d-904d-fa6aeb88c6a7","ios":"levelo://app?vid=4ca4a284-7c6d-494d-904d-fa6aeb88c6a7"},"vehicle_type_id":"4","last_reported":1737274242,"current_range_meters":28400,"station_id":"ce4bh012rcd13ifvqcv0","pricing_plan_id":"cebpf4jnsgd1na2vs0mg"},{"bike_id":"df581145-fd95-4a77-a27c-2465bbb559bf","system_id":"levelo_inurba_marseille","lat":43.24669,"lon":5.38145,"is_reserved":false,"is_disabled":false,"rental_uris":{"android":"levelo://app?vid=df581145-fd95-4a77-a27c-2465bbb559bf","ios":"levelo://app?vid=df581145-fd95-4a77-a27c-2465bbb559bf"},"vehicle_type_id":"4","last_reported":1737274242,"current_range_meters":28400,"station_id":"ce4bhih2rcd13ifvqfr0","pricing_plan_id":"cebpf4jnsgd1na2vs0mg"},{"bike_id":"a1268425-e1b2-45b1-8fbc-9391b8140126","system_id":"levelo_inurba_marseille","lat":43.24392,"lon":5.37062,"is_reserved":false,"is_disabled":false,"rental_uris":{"android":"levelo://app?vid=a1268425-e1b2-45b1-8fbc-9391b8140126","ios":"levelo://app?vid=a1268425-e1b2-45b1-8fbc-9391b8140126"},"vehicle_type_id":"4","last_reported":1737274242,"current_range_meters":30000,"station_id":"ce4bhhh2rcd13ifvqfk0","pricing_plan_id":"cebpf4jnsgd1na2vs0mg"},{"bike_id":"501ab4fd-c09d-4978-b056-79da026409be","system_id":"levelo_inurba_marseille","lat":43.25942,"lon":5.40746,"is_reserved":false,"is_disabled":false,"rental_uris":{"android":"levelo://app?vid=501ab4fd-c09d-4978-b056-79da026409be","ios":"levelo://app?vid=501ab4fd-c09d-4978-b056-79da026409be"},"vehicle_type_id":"4","last_reported":1737274242,"current_range_meters":36800,"station_id":"","pricing_plan_id":"cebpf4jnsgd1na2vs0mg"},{"bike_id":"c997c11d-c5fb-4097-94f9-0199648ff695","system_id":"levelo_inurba_marseille","lat":43.2808,"lon":5.39668,"is_reserved":false,"is_disabled":false,"rental_uris":{"android":"levelo://app?vid=c997c11d-c5fb-4097-94f9-0199648ff695","ios":"levelo://app?vid=c997c11d-c5fb-4097-94f9-0199648ff695"},"vehicle_type_id":"4","last_reported":1737274242,"current_range_meters":38800,"station_id":"ce4bho12rcd13ifvqh2g","pricing_plan_id":"cebpf4jnsgd1na2vs0mg"},{"bike_id":"1b9a9c77-b796-458f-9405-6cbabf6b8565","system_id":"levelo_inurba_marseille","lat":43.30219,"lon":5.3947,"is_reserved":false,"is_disabled":false,"rental_uris":{"android":"levelo://app?vid=1b9a9c77-b796-458f-9405-6cbabf6b8565","ios":"levelo://app?vid=1b9a9c77-b796-458f-9405-6cbabf6b8565"},"vehicle_type_id":"4","last_reported":1737274242,"current_range_meters":36400,"station_id":"ce4bh0p2rcd13ifvqd70","pricing_plan_id":"cebpf4jnsgd1na2vs0mg"},{"bike_id":"38c185d8-e4c7-4dac-b304-b4571124284e","system_id":"levelo_inurba_marseille","lat":43.29594,"lon":5.36729,"is_reserved":false,"is_disabled":false,"rental_uris":{"android":"levelo://app?vid=38c185d8-e4c7-4dac-b304-b4571124284e","ios":"levelo://app?vid=38c185d8-e4c7-4dac-b304-b4571124284e"},"vehicle_type_id":"4","last_reported":1737274242,"current_range_meters":38400,"station_id":"ce4bgph2rcd13ifvqc2g","pricing_plan_id":"cebpf4jnsgd1na2vs0mg"},{"bike_id":"3a731730-e771-49da-936d-6c5bde95e753","system_id":"levelo_inurba_marseille","lat":43.24387,"lon":5.37061,"is_reserved":false,"is_disabled":false,"rental_uris":{"android":"levelo://app?vid=3a731730-e771-49da-936d-6c5bde95e753","ios":"levelo://app?vid=3a731730-e771-49da-936d-6c5bde95e753"},"vehicle_type_id":"4","last_reported":1737274242,"current_range_meters":11600,"station_id":"ce4bhhh2rcd13ifvqfk0","pricing_plan_id":"cebpf4jnsgd1na2vs0mg"},{"bike_id":"cd25f333-fd4e-4c60-8178-f47ff2a33434","system_id":"levelo_inurba_marseille","lat":43.24389,"lon":5.3706,"is_reserved":false,"is_disabled":false,"rental_uris":{"android":"levelo://app?vid=cd25f333-fd4e-4c60-8178-f47ff2a33434","ios":"levelo://app?vid=cd25f333-fd4e-4c60-8178-f47ff2a33434"},"vehicle_type_id":"4","last_reported":1737274242,"current_range_meters":25200,"station_id":"ce4bhhh2rcd13ifvqfk0","pricing_plan_id":"cebpf4jnsgd1na2vs0mg"},{"bike_id":"7b5cc4cc-e608-454c-95d4-00c7b5c48c31","system_id":"levelo_inurba_marseille","lat":43.25929,"lon":5.40913,"is_reserved":false,"is_disabled":false,"rental_uris":{"android":"levelo://app?vid=7b5cc4cc-e608-454c-95d4-00c7b5c48c31","ios":"levelo://app?vid=7b5cc4cc-e608-454c-95d4-00c7b5c48c31"},"vehicle_type_id":"4","last_reported":1737274242,"current_range_meters":7200,"station_id":"ce4bhm92rcd13ifvqglg","pricing_plan_id":"cebpf4jnsgd1na2vs0mg"},{"bike_id":"e5e38031-b61f-42d5-b1a3-5ea7c7c1aec3","system_id":"levelo_inurba_marseille","lat":43.30145,"lon":5.38084,"is_reserved":false,"is_disabled":false,"rental_uris":{"android":"levelo://app?vid=e5e38031-b61f-42d5-b1a3-5ea7c7c1aec3","ios":"levelo://app?vid=e5e38031-b61f-42d5-b1a3-5ea7c7c1aec3"},"vehicle_type_id":"4","last_reported":1737274242,"current_range_meters":29600,"station_id":"ce4bgjp2rcd13ifvqbh0","pricing_plan_id":"cebpf4jnsgd1na2vs0mg"},{"bike_id":"644b6a66-e713-4aa9-bb95-30a64653cec0","system_id":"levelo_inurba_marseille","lat":43.27488,"lon":5.4246,"is_reserved":false,"is_disabled":false,"rental_uris":{"android":"levelo://app?vid=644b6a66-e713-4aa9-bb95-30a64653cec0","ios":"levelo://app?vid=644b6a66-e713-4aa9-bb95-30a64653cec0"},"vehicle_type_id":"4","last_reported":1737274242,"current_range_meters":16800,"station_id":"ce4bhn92rcd13ifvqgrg","pricing_plan_id":"cebpf4jnsgd1na2vs0mg"},{"bike_id":"c8f7cc55-fbaf-43c6-ab25-9f6c9663110a","system_id":"levelo_inurba_marseille","lat":43.3176,"lon":5.39008,"is_reserved":false,"is_disabled":false,"rental_uris":{"android":"levelo://app?vid=c8f7cc55-fbaf-43c6-ab25-9f6c9663110a","ios":"levelo://app?vid=c8f7cc55-fbaf-43c6-ab25-9f6c9663110a"},"vehicle_type_id":"4","last_reported":1737274242,"current_range_meters":38800,"station_id":"ce4bhqp2rcd13ifvqhng","pricing_plan_id":"cebpf4jnsgd1na2vs0mg"},{"bike_id":"db15da2e-41c6-4bd9-b308-2f26cb3b8799","system_id":"levelo_inurba_marseille","lat":43.31706,"lon":5.43713,"is_reserved":false,"is_disabled":false,"rental_uris":{"android":"levelo://app?vid=db15da2e-41c6-4bd9-b308-2f26cb3b8799","ios":"levelo://app?vid=db15da2e-41c6-4bd9-b308-2f26cb3b8799"},"vehicle_type_id":"4","last_reported":1737274242,"current_range_meters":3600,"station_id":"ce4bhp92rcd13ifvqhcg","pricing_plan_id":"cebpf4jnsgd1na2vs0mg"},{"bike_id":"cc58c983-a9b7-4101-8f9c-21e5c3efe2bb","system_id":"levelo_inurba_marseille","lat":43.28548,"lon":5.39492,"is_reserved":false,"is_disabled":false,"rental_uris":{"android":"levelo://app?vid=cc58c983-a9b7-4101-8f9c-21e5c3efe2bb","ios":"levelo://app?vid=cc58c983-a9b7-4101-8f9c-21e5c3efe2bb"},"vehicle_type_id":"4","last_reported":1737274242,"current_range_meters":28400,"station_id":"ce4bh292rcd13ifvqdg0","pricing_plan_id":"cebpf4jnsgd1na2vs0mg"},{"bike_id":"af5b8175-7607-4e8b-bd8b-498775e7b79a","system_id":"levelo_inurba_marseille","lat":43.2815,"lon":5.4265,"is_reserved":false,"is_disabled":false,"rental_uris":{"android":"levelo://app?vid=af5b8175-7607-4e8b-bd8b-498775e7b79a","ios":"levelo://app?vid=af5b8175-7607-4e8b-bd8b-498775e7b79a"},"vehicle_type_id":"4","last_reported":1737274242,"current_range_meters":28000,"station_id":"ce4bhnh2rcd13ifvqgug","pricing_plan_id":"cebpf4jnsgd1na2vs0mg"},{"bike_id":"366b3361-9a74-4f75-aa58-5cacc4d8afe8","system_id":"levelo_inurba_marseille","lat":43.29547,"lon":5.42299,"is_reserved":false,"is_disabled":false,"rental_uris":{"android":"levelo://app?vid=366b3361-9a74-4f75-aa58-5cacc4d8afe8","ios":"levelo://app?vid=366b3361-9a74-4f75-aa58-5cacc4d8afe8"},"vehicle_type_id":"4","last_reported":1737274242,"current_range_meters":38800,"station_id":"ce4bhph2rcd13ifvqhdg","pricing_plan_id":"cebpf4jnsgd1na2vs0mg"},{"bike_id":"881b5c41-0031-4b63-adac-9f22e7427a39","system_id":"levelo_inurba_marseille","lat":43.28692,"lon":5.38664,"is_reserved":false,"is_disabled":false,"rental_uris":{"android":"levelo://app?vid=881b5c41-0031-4b63-adac-9f22e7427a39","ios":"levelo://app?vid=881b5c41-0031-4b63-adac-9f22e7427a39"},"vehicle_type_id":"4","last_reported":1737274242,"current_range_meters":38400,"station_id":"ce4bh492rcd13ifvqdug","pricing_plan_id":"cebpf4jnsgd1na2vs0mg"},{"bike_id":"10b8da58-1f12-44b0-8c4c-eff01d48a146","system_id":"levelo_inurba_marseille","lat":43.30668,"lon":5.40105,"is_reserved":false,"is_disabled":true,"rental_uris":{"android":"levelo://app?vid=10b8da58-1f12-44b0-8c4c-eff01d48a146","ios":"levelo://app?vid=10b8da58-1f12-44b0-8c4c-eff01d48a146"},"vehicle_type_id":"4","last_reported":1737274242,"current_range_meters":28400,"station_id":"ce4bh112rcd13ifvqda0","pricing_plan_id":"cebpf4jnsgd1na2vs0mg"},{"bike_id":"d1a77a42-019d-427b-8631-0001e41c6be5","system_id":"levelo_inurba_marseille","lat":43.308855,"lon":5.371867,"is_reserved":false,"is_disabled":false,"rental_uris":{"android":"levelo://app?vid=d1a77a42-019d-427b-8631-0001e41c6be5","ios":"levelo://app?vid=d1a77a42-019d-427b-8631-0001e41c6be5"},"vehicle_type_id":"4","last_reported":1737274242,"current_range_meters":29600,"station_id":"ce4bguh2rcd13ifvqckg","pricing_plan_id":"cebpf4jnsgd1na2vs0mg"},{"bike_id":"ca8aa51d-4833-4c77-8009-59b7c07323a3","system_id":"levelo_inurba_marseille","lat":43.323668,"lon":5.367641,"is_reserved":false,"is_disabled":false,"rental_uris":{"android":"levelo://app?vid=ca8aa51d-4833-4c77-8009-59b7c07323a3","ios":"levelo://app?vid=ca8aa51d-4833-4c77-8009-59b7c07323a3"},"vehicle_type_id":"4","last_reported":1737274242,"current_range_meters":36800,"station_id":"ce4bhsh2rcd13ifvqi2g","pricing_plan_id":"cebpf4jnsgd1na2vs0mg"},{"bike_id":"cd21465a-99d4-4df2-80bc-53a53cf0eafe","system_id":"levelo_inurba_marseille","lat":43.286242,"lon":5.351031,"is_reserved":false,"is_disabled":false,"rental_uris":{"android":"levelo://app?vid=cd21465a-99d4-4df2-80bc-53a53cf0eafe","ios":"levelo://app?vid=cd21465a-99d4-4df2-80bc-53a53cf0eafe"},"vehicle_type_id":"4","last_reported":1737274242,"current_range_meters":8400,"station_id":"ce4bhch2rcd13ifvqeug","pricing_plan_id":"cebpf4jnsgd1na2vs0mg"},{"bike_id":"9dc49063-283d-43eb-bbfe-31fee7e70777","system_id":"levelo_inurba_marseille","lat":43.31237,"lon":5.36835,"is_reserved":false,"is_disabled":false,"rental_uris":{"android":"levelo://app?vid=9dc49063-283d-43eb-bbfe-31fee7e70777","ios":"levelo://app?vid=9dc49063-283d-43eb-bbfe-31fee7e70777"},"vehicle_type_id":"4","last_reported":1737274242,"current_range_meters":9200,"station_id":"ce4bgl92rcd13ifvqbq0","pricing_plan_id":"cebpf4jnsgd1na2vs0mg"},{"bike_id":"4b73b77a-9a3b-4f18-a046-cb900f7887f8","system_id":"levelo_inurba_marseille","lat":43.31729,"lon":5.42383,"is_reserved":false,"is_disabled":false,"rental_uris":{"android":"levelo://app?vid=4b73b77a-9a3b-4f18-a046-cb900f7887f8","ios":"levelo://app?vid=4b73b77a-9a3b-4f18-a046-cb900f7887f8"},"vehicle_type_id":"4","last_reported":1737274242,"current_range_meters":38800,"station_id":"ce4bhp92rcd13ifvqhbg","pricing_plan_id":"cebpf4jnsgd1na2vs0mg"},{"bike_id":"74bf9fa6-b490-4985-84f6-376c7e8f74e0","system_id":"levelo_inurba_marseille","lat":43.23953,"lon":5.36644,"is_reserved":false,"is_disabled":false,"rental_uris":{"android":"levelo://app?vid=74bf9fa6-b490-4985-84f6-376c7e8f74e0","ios":"levelo://app?vid=74bf9fa6-b490-4985-84f6-376c7e8f74e0"},"vehicle_type_id":"4","last_reported":1737274242,"current_range_meters":24800,"station_id":"ce4bhi12rcd13ifvqfp0","pricing_plan_id":"cebpf4jnsgd1na2vs0mg"},{"bike_id":"2f4caf98-3961-4ced-b044-5e0f3f85f603","system_id":"levelo_inurba_marseille","lat":43.2797,"lon":5.38716,"is_reserved":false,"is_disabled":false,"rental_uris":{"android":"levelo://app?vid=2f4caf98-3961-4ced-b044-5e0f3f85f603","ios":"levelo://app?vid=2f4caf98-3961-4ced-b044-5e0f3f85f603"},"vehicle_type_id":"4","last_reported":1737274242,"current_range_meters":39200,"station_id":"ce4bhg12rcd13ifvqf80","pricing_plan_id":"cebpf4jnsgd1na2vs0mg"},{"bike_id":"57d9fa47-e597-4ea4-913f-9b45079bd718","system_id":"levelo_inurba_marseille","lat":43.33071,"lon":5.38963,"is_reserved":false,"is_disabled":false,"rental_uris":{"android":"levelo://app?vid=57d9fa47-e597-4ea4-913f-9b45079bd718","ios":"levelo://app?vid=57d9fa47-e597-4ea4-913f-9b45079bd718"},"vehicle_type_id":"4","last_reported":1737274242,"current_range_meters":8400,"station_id":"","pricing_plan_id":"cebpf4jnsgd1na2vs0mg"},{"bike_id":"8425f527-93d3-4514-a4ff-69db683ce640","system_id":"levelo_inurba_marseille","lat":43.305899,"lon":5.393474,"is_reserved":false,"is_disabled":false,"rental_uris":{"android":"levelo://app?vid=8425f527-93d3-4514-a4ff-69db683ce640","ios":"levelo://app?vid=8425f527-93d3-4514-a4ff-69db683ce640"},"vehicle_type_id":"4","last_reported":1737274242,"current_range_meters":39200,"station_id":"ce4bh0p2rcd13ifvqd80","pricing_plan_id":"cebpf4jnsgd1na2vs0mg"},{"bike_id":"4ec76aa8-1e80-4051-b2ea-1baaf50a61e8","system_id":"levelo_inurba_marseille","lat":43.241277,"lon":5.380999,"is_reserved":false,"is_disabled":false,"rental_uris":{"android":"levelo://app?vid=4ec76aa8-1e80-4051-b2ea-1baaf50a61e8","ios":"levelo://app?vid=4ec76aa8-1e80-4051-b2ea-1baaf50a61e8"},"vehicle_type_id":"4","last_reported":1737274242,"current_range_meters":18000,"station_id":"","pricing_plan_id":"cebpf4jnsgd1na2vs0mg"},{"bike_id":"abf9a94d-47ed-4ee4-a756-d72acf4c1209","system_id":"levelo_inurba_marseille","lat":43.28731,"lon":5.36082,"is_reserved":false,"is_disabled":false,"rental_uris":{"android":"levelo://app?vid=abf9a94d-47ed-4ee4-a756-d72acf4c1209","ios":"levelo://app?vid=abf9a94d-47ed-4ee4-a756-d72acf4c1209"},"vehicle_type_id":"4","last_reported":1737274242,"current_range_meters":36800,"station_id":"cki0cbj6b192h4jlfktg","pricing_plan_id":"cebpf4jnsgd1na2vs0mg"},{"bike_id":"bd00f222-ce0c-4f81-a68c-0edabc3e5f6b","system_id":"levelo_inurba_marseille","lat":43.25091,"lon":5.39509,"is_reserved":false,"is_disabled":false,"rental_uris":{"android":"levelo://app?vid=bd00f222-ce0c-4f81-a68c-0edabc3e5f6b","ios":"levelo://app?vid=bd00f222-ce0c-4f81-a68c-0edabc3e5f6b"},"vehicle_type_id":"4","last_reported":1737274242,"current_range_meters":37600,"station_id":"ce4bhm12rcd13ifvqgkg","pricing_plan_id":"cebpf4jnsgd1na2vs0mg"},{"bike_id":"2c114e21-3f5a-457e-b6ff-3dda5266ff12","system_id":"levelo_inurba_marseille","lat":43.30417,"lon":5.39762,"is_reserved":false,"is_disabled":false,"rental_uris":{"android":"levelo://app?vid=2c114e21-3f5a-457e-b6ff-3dda5266ff12","ios":"levelo://app?vid=2c114e21-3f5a-457e-b6ff-3dda5266ff12"},"vehicle_type_id":"4","last_reported":1737274242,"current_range_meters":38800,"station_id":"ce4bh092rcd13ifvqd20","pricing_plan_id":"cebpf4jnsgd1na2vs0mg"},{"bike_id":"d400821d-12fc-4b92-a929-07e330bc24b2","system_id":"levelo_inurba_marseille","lat":43.22934,"lon":5.35381,"is_reserved":false,"is_disabled":false,"rental_uris":{"android":"levelo://app?vid=d400821d-12fc-4b92-a929-07e330bc24b2","ios":"levelo://app?vid=d400821d-12fc-4b92-a929-07e330bc24b2"},"vehicle_type_id":"4","last_reported":1737274242,"current_range_meters":38000,"station_id":"cpo3532slgdg3j2ikp40","pricing_plan_id":"cebpf4jnsgd1na2vs0mg"},{"bike_id":"570e6f65-051f-4c4c-b4eb-ff6d5b0ad0cd","system_id":"levelo_inurba_marseille","lat":43.29038,"lon":5.39963,"is_reserved":false,"is_disabled":false,"rental_uris":{"android":"levelo://app?vid=570e6f65-051f-4c4c-b4eb-ff6d5b0ad0cd","ios":"levelo://app?vid=570e6f65-051f-4c4c-b4eb-ff6d5b0ad0cd"},"vehicle_type_id":"4","last_reported":1737274242,"current_range_meters":34800,"station_id":"ce4bh392rcd13ifvqdm0","pricing_plan_id":"cebpf4jnsgd1na2vs0mg"},{"bike_id":"4104cbba-088f-4383-b2a0-261d17699731","system_id":"levelo_inurba_marseille","lat":43.239624,"lon":5.366407,"is_reserved":false,"is_disabled":false,"rental_uris":{"android":"levelo://app?vid=4104cbba-088f-4383-b2a0-261d17699731","ios":"levelo://app?vid=4104cbba-088f-4383-b2a0-261d17699731"},"vehicle_type_id":"4","last_reported":1737274242,"current_range_meters":37600,"station_id":"ce4bhi12rcd13ifvqfp0","pricing_plan_id":"cebpf4jnsgd1na2vs0mg"},{"bike_id":"7671f6ca-f839-45d5-8f7e-97fa0d127297","system_id":"levelo_inurba_marseille","lat":43.26788,"lon":5.39418,"is_reserved":false,"is_disabled":false,"rental_uris":{"android":"levelo://app?vid=7671f6ca-f839-45d5-8f7e-97fa0d127297","ios":"levelo://app?vid=7671f6ca-f839-45d5-8f7e-97fa0d127297"},"vehicle_type_id":"4","last_reported":1737274242,"current_range_meters":38400,"station_id":"ce4bhh12rcd13ifvqfg0","pricing_plan_id":"cebpf4jnsgd1na2vs0mg"},{"bike_id":"fc7115b1-aa0e-4511-b228-f0a9757f59e4","system_id":"levelo_inurba_marseille","lat":43.292741,"lon":5.401284,"is_reserved":false,"is_disabled":false,"rental_uris":{"android":"levelo://app?vid=fc7115b1-aa0e-4511-b228-f0a9757f59e4","ios":"levelo://app?vid=fc7115b1-aa0e-4511-b228-f0a9757f59e4"},"vehicle_type_id":"4","last_reported":1737274242,"current_range_meters":36000,"station_id":"ce4bh312rcd13ifvqdk0","pricing_plan_id":"cebpf4jnsgd1na2vs0mg"},{"bike_id":"881f5a56-0072-422c-a05d-eee833d8c733","system_id":"levelo_inurba_marseille","lat":43.33138,"lon":5.37797,"is_reserved":false,"is_disabled":false,"rental_uris":{"android":"levelo://app?vid=881f5a56-0072-422c-a05d-eee833d8c733","ios":"levelo://app?vid=881f5a56-0072-422c-a05d-eee833d8c733"},"vehicle_type_id":"4","last_reported":1737274242,"current_range_meters":37600,"station_id":"","pricing_plan_id":"cebpf4jnsgd1na2vs0mg"},{"bike_id":"28ef1c1e-dd89-43e8-817b-9b489831397b","system_id":"levelo_inurba_marseille","lat":43.271152,"lon":5.396224,"is_reserved":false,"is_disabled":true,"rental_uris":{"android":"levelo://app?vid=28ef1c1e-dd89-43e8-817b-9b489831397b","ios":"levelo://app?vid=28ef1c1e-dd89-43e8-817b-9b489831397b"},"vehicle_type_id":"4","last_reported":1737274242,"current_range_meters":0,"station_id":"","pricing_plan_id":"cebpf4jnsgd1na2vs0mg"},{"bike_id":"63f5da95-45c1-4439-88f3-ff94f7d248dd","system_id":"levelo_inurba_marseille","lat":43.23186,"lon":5.39999,"is_reserved":false,"is_disabled":false,"rental_uris":{"android":"levelo://app?vid=63f5da95-45c1-4439-88f3-ff94f7d248dd","ios":"levelo://app?vid=63f5da95-45c1-4439-88f3-ff94f7d248dd"},"vehicle_type_id":"4","last_reported":1737274242,"current_range_meters":33200,"station_id":"ce4bhn12rcd13ifvqgqg","pricing_plan_id":"cebpf4jnsgd1na2vs0mg"},{"bike_id":"0c31c1d5-70d1-43ca-9b08-9ce7cab9d3bb","system_id":"levelo_inurba_marseille","lat":43.28936,"lon":5.39635,"is_reserved":false,"is_disabled":false,"rental_uris":{"android":"levelo://app?vid=0c31c1d5-70d1-43ca-9b08-9ce7cab9d3bb","ios":"levelo://app?vid=0c31c1d5-70d1-43ca-9b08-9ce7cab9d3bb"},"vehicle_type_id":"4","last_reported":1737274242,"current_range_meters":37600,"station_id":"ce4bh3h2rcd13ifvqdn0","pricing_plan_id":"cebpf4jnsgd1na2vs0mg"},{"bike_id":"f083c262-9d3a-4ca9-864b-20b28a95222b","system_id":"levelo_inurba_marseille","lat":43.26721,"lon":5.39435,"is_reserved":false,"is_disabled":false,"rental_uris":{"android":"levelo://app?vid=f083c262-9d3a-4ca9-864b-20b28a95222b","ios":"levelo://app?vid=f083c262-9d3a-4ca9-864b-20b28a95222b"},"vehicle_type_id":"4","last_reported":1737274242,"current_range_meters":38000,"station_id":"ce4bhh12rcd13ifvqfg0","pricing_plan_id":"cebpf4jnsgd1na2vs0mg"},{"bike_id":"c77de84a-305d-47e5-b81a-44313d3b8aa9","system_id":"levelo_inurba_marseille","lat":43.258686,"lon":5.399023,"is_reserved":false,"is_disabled":false,"rental_uris":{"android":"levelo://app?vid=c77de84a-305d-47e5-b81a-44313d3b8aa9","ios":"levelo://app?vid=c77de84a-305d-47e5-b81a-44313d3b8aa9"},"vehicle_type_id":"4","last_reported":1737274242,"current_range_meters":28400,"station_id":"ce4bhl92rcd13ifvqghg","pricing_plan_id":"cebpf4jnsgd1na2vs0mg"},{"bike_id":"357eaeda-fef2-41f2-9ad0-621ae2cc5c09","system_id":"levelo_inurba_marseille","lat":43.33753,"lon":5.37518,"is_reserved":false,"is_disabled":false,"rental_uris":{"android":"levelo://app?vid=357eaeda-fef2-41f2-9ad0-621ae2cc5c09","ios":"levelo://app?vid=357eaeda-fef2-41f2-9ad0-621ae2cc5c09"},"vehicle_type_id":"4","last_reported":1737274242,"current_range_meters":33600,"station_id":"","pricing_plan_id":"cebpf4jnsgd1na2vs0mg"},{"bike_id":"35fde096-5140-4df8-b37b-39272cff65d4","system_id":"levelo_inurba_marseille","lat":43.29221,"lon":5.360667,"is_reserved":false,"is_disabled":false,"rental_uris":{"android":"levelo://app?vid=35fde096-5140-4df8-b37b-39272cff65d4","ios":"levelo://app?vid=35fde096-5140-4df8-b37b-39272cff65d4"},"vehicle_type_id":"4","last_reported":1737274242,"current_range_meters":37600,"station_id":"ce4bhbh2rcd13ifvqeqg","pricing_plan_id":"cebpf4jnsgd1na2vs0mg"},{"bike_id":"ad37be90-cd16-435d-9ccb-35b175ce6ca4","system_id":"levelo_inurba_marseille","lat":43.284559,"lon":5.358924,"is_reserved":false,"is_disabled":false,"rental_uris":{"android":"levelo://app?vid=ad37be90-cd16-435d-9ccb-35b175ce6ca4","ios":"levelo://app?vid=ad37be90-cd16-435d-9ccb-35b175ce6ca4"},"vehicle_type_id":"4","last_reported":1737274242,"current_range_meters":24800,"station_id":"ce4bhah2rcd13ifvqei0","pricing_plan_id":"cebpf4jnsgd1na2vs0mg"},{"bike_id":"5ebc0e23-f2f4-4cc0-bd89-a31a0285ee53","system_id":"levelo_inurba_marseille","lat":43.317,"lon":5.43698,"is_reserved":false,"is_disabled":false,"rental_uris":{"android":"levelo://app?vid=5ebc0e23-f2f4-4cc0-bd89-a31a0285ee53","ios":"levelo://app?vid=5ebc0e23-f2f4-4cc0-bd89-a31a0285ee53"},"vehicle_type_id":"4","last_reported":1737274242,"current_range_meters":38800,"station_id":"ce4bhp92rcd13ifvqhcg","pricing_plan_id":"cebpf4jnsgd1na2vs0mg"},{"bike_id":"e2481d2d-ec3c-436f-9eeb-094327789afd","system_id":"levelo_inurba_marseille","lat":43.29695,"lon":5.42372,"is_reserved":false,"is_disabled":false,"rental_uris":{"android":"levelo://app?vid=e2481d2d-ec3c-436f-9eeb-094327789afd","ios":"levelo://app?vid=e2481d2d-ec3c-436f-9eeb-094327789afd"},"vehicle_type_id":"4","last_reported":1737274242,"current_range_meters":9200,"station_id":"","pricing_plan_id":"cebpf4jnsgd1na2vs0mg"},{"bike_id":"4d4b0e98-71c8-4e53-9659-55113dc5e691","system_id":"levelo_inurba_marseille","lat":43.28862,"lon":5.3585,"is_reserved":false,"is_disabled":false,"rental_uris":{"android":"levelo://app?vid=4d4b0e98-71c8-4e53-9659-55113dc5e691","ios":"levelo://app?vid=4d4b0e98-71c8-4e53-9659-55113dc5e691"},"vehicle_type_id":"4","last_reported":1737274242,"current_range_meters":38800,"station_id":"ce4bhb12rcd13ifvqem0","pricing_plan_id":"cebpf4jnsgd1na2vs0mg"},{"bike_id":"406cf7e1-dd3a-472a-896f-d09b14680f3c","system_id":"levelo_inurba_marseille","lat":43.27324,"lon":5.37906,"is_reserved":false,"is_disabled":false,"rental_uris":{"android":"levelo://app?vid=406cf7e1-dd3a-472a-896f-d09b14680f3c","ios":"levelo://app?vid=406cf7e1-dd3a-472a-896f-d09b14680f3c"},"vehicle_type_id":"4","last_reported":1737274242,"current_range_meters":27200,"station_id":"","pricing_plan_id":"cebpf4jnsgd1na2vs0mg"},{"bike_id":"68f5a584-da65-4cb6-9bd3-f9911abc0334","system_id":"levelo_inurba_marseille","lat":43.30201,"lon":5.39465,"is_reserved":false,"is_disabled":false,"rental_uris":{"android":"levelo://app?vid=68f5a584-da65-4cb6-9bd3-f9911abc0334","ios":"levelo://app?vid=68f5a584-da65-4cb6-9bd3-f9911abc0334"},"vehicle_type_id":"4","last_reported":1737274242,"current_range_meters":24400,"station_id":"ce4bh0p2rcd13ifvqd70","pricing_plan_id":"cebpf4jnsgd1na2vs0mg"},{"bike_id":"01a07bd9-36a1-4c19-a88b-7c9e3a6ee490","system_id":"levelo_inurba_marseille","lat":43.250872,"lon":5.395135,"is_reserved":false,"is_disabled":false,"rental_uris":{"android":"levelo://app?vid=01a07bd9-36a1-4c19-a88b-7c9e3a6ee490","ios":"levelo://app?vid=01a07bd9-36a1-4c19-a88b-7c9e3a6ee490"},"vehicle_type_id":"4","last_reported":1737274242,"current_range_meters":33600,"station_id":"ce4bhm12rcd13ifvqgkg","pricing_plan_id":"cebpf4jnsgd1na2vs0mg"},{"bike_id":"850c2333-a382-4245-9262-9d1484761558","system_id":"levelo_inurba_marseille","lat":43.29206,"lon":5.36065,"is_reserved":false,"is_disabled":false,"rental_uris":{"android":"levelo://app?vid=850c2333-a382-4245-9262-9d1484761558","ios":"levelo://app?vid=850c2333-a382-4245-9262-9d1484761558"},"vehicle_type_id":"4","last_reported":1737274242,"current_range_meters":7200,"station_id":"ce4bhbh2rcd13ifvqeqg","pricing_plan_id":"cebpf4jnsgd1na2vs0mg"},{"bike_id":"f29e034a-17ca-48c5-967e-ab0409c174fe","system_id":"levelo_inurba_marseille","lat":43.302939,"lon":5.392139,"is_reserved":false,"is_disabled":false,"rental_uris":{"android":"levelo://app?vid=f29e034a-17ca-48c5-967e-ab0409c174fe","ios":"levelo://app?vid=f29e034a-17ca-48c5-967e-ab0409c174fe"},"vehicle_type_id":"4","last_reported":1737274242,"current_range_meters":38800,"station_id":"ce4bgkh2rcd13ifvqbk0","pricing_plan_id":"cebpf4jnsgd1na2vs0mg"},{"bike_id":"24d3b331-52fa-4564-a98e-732c1dea4a32","system_id":"levelo_inurba_marseille","lat":43.27494,"lon":5.424587,"is_reserved":false,"is_disabled":true,"rental_uris":{"android":"levelo://app?vid=24d3b331-52fa-4564-a98e-732c1dea4a32","ios":"levelo://app?vid=24d3b331-52fa-4564-a98e-732c1dea4a32"},"vehicle_type_id":"4","last_reported":1737274242,"current_range_meters":0,"station_id":"ce4bhn92rcd13ifvqgrg","pricing_plan_id":"cebpf4jnsgd1na2vs0mg"},{"bike_id":"61e04b06-6407-46c1-8d9c-8b0589f70b62","system_id":"levelo_inurba_marseille","lat":43.30413,"lon":5.41276,"is_reserved":false,"is_disabled":false,"rental_uris":{"android":"levelo://app?vid=61e04b06-6407-46c1-8d9c-8b0589f70b62","ios":"levelo://app?vid=61e04b06-6407-46c1-8d9c-8b0589f70b62"},"vehicle_type_id":"4","last_reported":1737274242,"current_range_meters":12800,"station_id":"ce4bhop2rcd13ifvqh8g","pricing_plan_id":"cebpf4jnsgd1na2vs0mg"},{"bike_id":"830df493-d61b-4af0-9067-68cf38f60ac0","system_id":"levelo_inurba_marseille","lat":43.28449,"lon":5.35895,"is_reserved":false,"is_disabled":false,"rental_uris":{"android":"levelo://app?vid=830df493-d61b-4af0-9067-68cf38f60ac0","ios":"levelo://app?vid=830df493-d61b-4af0-9067-68cf38f60ac0"},"vehicle_type_id":"4","last_reported":1737274242,"current_range_meters":28800,"station_id":"ce4bhah2rcd13ifvqei0","pricing_plan_id":"cebpf4jnsgd1na2vs0mg"},{"bike_id":"524072f1-ace1-43cc-8007-f91dc732b1f7","system_id":"levelo_inurba_marseille","lat":43.25084,"lon":5.39513,"is_reserved":false,"is_disabled":false,"rental_uris":{"android":"levelo://app?vid=524072f1-ace1-43cc-8007-f91dc732b1f7","ios":"levelo://app?vid=524072f1-ace1-43cc-8007-f91dc732b1f7"},"vehicle_type_id":"4","last_reported":1737274242,"current_range_meters":32400,"station_id":"ce4bhm12rcd13ifvqgkg","pricing_plan_id":"cebpf4jnsgd1na2vs0mg"},{"bike_id":"4176cd66-1893-4442-bd75-0360ec9d6e01","system_id":"levelo_inurba_marseille","lat":43.28926,"lon":5.3642,"is_reserved":false,"is_disabled":false,"rental_uris":{"android":"levelo://app?vid=4176cd66-1893-4442-bd75-0360ec9d6e01","ios":"levelo://app?vid=4176cd66-1893-4442-bd75-0360ec9d6e01"},"vehicle_type_id":"4","last_reported":1737274242,"current_range_meters":34000,"station_id":"ce4bhc92rcd13ifvqetg","pricing_plan_id":"cebpf4jnsgd1na2vs0mg"},{"bike_id":"cd195908-7692-40ef-8f14-bc81abd6e292","system_id":"levelo_inurba_marseille","lat":43.30314,"lon":5.40435,"is_reserved":false,"is_disabled":false,"rental_uris":{"android":"levelo://app?vid=cd195908-7692-40ef-8f14-bc81abd6e292","ios":"levelo://app?vid=cd195908-7692-40ef-8f14-bc81abd6e292"},"vehicle_type_id":"4","last_reported":1737274242,"current_range_meters":38800,"station_id":"ce4bh012rcd13ifvqd10","pricing_plan_id":"cebpf4jnsgd1na2vs0mg"},{"bike_id":"59829282-52a1-4f2c-9ab6-c535355001fb","system_id":"levelo_inurba_marseille","lat":43.304448,"lon":5.388975,"is_reserved":false,"is_disabled":false,"rental_uris":{"android":"levelo://app?vid=59829282-52a1-4f2c-9ab6-c535355001fb","ios":"levelo://app?vid=59829282-52a1-4f2c-9ab6-c535355001fb"},"vehicle_type_id":"4","last_reported":1737274242,"current_range_meters":34000,"station_id":"ce4bgk12rcd13ifvqbi0","pricing_plan_id":"cebpf4jnsgd1na2vs0mg"},{"bike_id":"52944324-56c0-4eb2-bed2-f2a48346d11b","system_id":"levelo_inurba_marseille","lat":43.283469,"lon":5.381074,"is_reserved":false,"is_disabled":false,"rental_uris":{"android":"levelo://app?vid=52944324-56c0-4eb2-bed2-f2a48346d11b","ios":"levelo://app?vid=52944324-56c0-4eb2-bed2-f2a48346d11b"},"vehicle_type_id":"4","last_reported":1737274242,"current_range_meters":37600,"station_id":"ce4bh412rcd13ifvqdr0","pricing_plan_id":"cebpf4jnsgd1na2vs0mg"},{"bike_id":"65e19d52-65af-4dc3-872d-bb4dccee0994","system_id":"levelo_inurba_marseille","lat":43.26918,"lon":5.38921,"is_reserved":false,"is_disabled":false,"rental_uris":{"android":"levelo://app?vid=65e19d52-65af-4dc3-872d-bb4dccee0994","ios":"levelo://app?vid=65e19d52-65af-4dc3-872d-bb4dccee0994"},"vehicle_type_id":"4","last_reported":1737274242,"current_range_meters":38000,"station_id":"ce4bhhh2rcd13ifvqfl0","pricing_plan_id":"cebpf4jnsgd1na2vs0mg"},{"bike_id":"4291632b-b89c-4c47-8e03-1ac2c74e4815","system_id":"levelo_inurba_marseille","lat":43.26028,"lon":5.37619,"is_reserved":false,"is_disabled":false,"rental_uris":{"android":"levelo://app?vid=4291632b-b89c-4c47-8e03-1ac2c74e4815","ios":"levelo://app?vid=4291632b-b89c-4c47-8e03-1ac2c74e4815"},"vehicle_type_id":"4","last_reported":1737274242,"current_range_meters":38000,"station_id":"","pricing_plan_id":"cebpf4jnsgd1na2vs0mg"},{"bike_id":"804b3b4e-2b7b-432d-bee9-ad793eff9ddf","system_id":"levelo_inurba_marseille","lat":43.25702,"lon":5.41038,"is_reserved":false,"is_disabled":false,"rental_uris":{"android":"levelo://app?vid=804b3b4e-2b7b-432d-bee9-ad793eff9ddf","ios":"levelo://app?vid=804b3b4e-2b7b-432d-bee9-ad793eff9ddf"},"vehicle_type_id":"4","last_reported":1737274242,"current_range_meters":8400,"station_id":"ce4bhkp2rcd13ifvqgd0","pricing_plan_id":"cebpf4jnsgd1na2vs0mg"},{"bike_id":"63ee011d-7677-4e33-9490-1fd81b71f214","system_id":"levelo_inurba_marseille","lat":43.30881,"lon":5.39651,"is_reserved":false,"is_disabled":false,"rental_uris":{"android":"levelo://app?vid=63ee011d-7677-4e33-9490-1fd81b71f214","ios":"levelo://app?vid=63ee011d-7677-4e33-9490-1fd81b71f214"},"vehicle_type_id":"4","last_reported":1737274242,"current_range_meters":20000,"station_id":"ce4bh012rcd13ifvqcv0","pricing_plan_id":"cebpf4jnsgd1na2vs0mg"},{"bike_id":"fef4e376-c67d-459e-a834-bcbe6ddc903c","system_id":"levelo_inurba_marseille","lat":43.25008,"lon":5.38935,"is_reserved":false,"is_disabled":false,"rental_uris":{"android":"levelo://app?vid=fef4e376-c67d-459e-a834-bcbe6ddc903c","ios":"levelo://app?vid=fef4e376-c67d-459e-a834-bcbe6ddc903c"},"vehicle_type_id":"4","last_reported":1737274242,"current_range_meters":36800,"station_id":"ce4bhgp2rcd13ifvqfd0","pricing_plan_id":"cebpf4jnsgd1na2vs0mg"},{"bike_id":"dfd96ebd-2cae-4ab5-8d13-f6e62258957e","system_id":"levelo_inurba_marseille","lat":43.31721,"lon":5.42415,"is_reserved":false,"is_disabled":false,"rental_uris":{"android":"levelo://app?vid=dfd96ebd-2cae-4ab5-8d13-f6e62258957e","ios":"levelo://app?vid=dfd96ebd-2cae-4ab5-8d13-f6e62258957e"},"vehicle_type_id":"4","last_reported":1737274242,"current_range_meters":38000,"station_id":"ce4bhp92rcd13ifvqhbg","pricing_plan_id":"cebpf4jnsgd1na2vs0mg"},{"bike_id":"5216534c-21a3-49c6-aa1a-f817992eca31","system_id":"levelo_inurba_marseille","lat":43.30405,"lon":5.39759,"is_reserved":false,"is_disabled":false,"rental_uris":{"android":"levelo://app?vid=5216534c-21a3-49c6-aa1a-f817992eca31","ios":"levelo://app?vid=5216534c-21a3-49c6-aa1a-f817992eca31"},"vehicle_type_id":"4","last_reported":1737274242,"current_range_meters":36000,"station_id":"ce4bh092rcd13ifvqd20","pricing_plan_id":"cebpf4jnsgd1na2vs0mg"},{"bike_id":"13d3fd97-e21c-4164-8b58-6e6c0cfe1ec1","system_id":"levelo_inurba_marseille","lat":43.28048,"lon":5.36942,"is_reserved":false,"is_disabled":false,"rental_uris":{"android":"levelo://app?vid=13d3fd97-e21c-4164-8b58-6e6c0cfe1ec1","ios":"levelo://app?vid=13d3fd97-e21c-4164-8b58-6e6c0cfe1ec1"},"vehicle_type_id":"4","last_reported":1737274242,"current_range_meters":38800,"station_id":"ce4bha12rcd13ifvqef0","pricing_plan_id":"cebpf4jnsgd1na2vs0mg"},{"bike_id":"fae143cc-e0b7-42e0-ac41-6327643321d0","system_id":"levelo_inurba_marseille","lat":43.25824,"lon":5.39446,"is_reserved":false,"is_disabled":false,"rental_uris":{"android":"levelo://app?vid=fae143cc-e0b7-42e0-ac41-6327643321d0","ios":"levelo://app?vid=fae143cc-e0b7-42e0-ac41-6327643321d0"},"vehicle_type_id":"4","last_reported":1737274242,"current_range_meters":28800,"station_id":"ce4bhip2rcd13ifvqft0","pricing_plan_id":"cebpf4jnsgd1na2vs0mg"},{"bike_id":"bcd96ff4-f53b-4513-aba6-d7a0a8f8f0c1","system_id":"levelo_inurba_marseille","lat":43.25799,"lon":5.39474,"is_reserved":false,"is_disabled":false,"rental_uris":{"android":"levelo://app?vid=bcd96ff4-f53b-4513-aba6-d7a0a8f8f0c1","ios":"levelo://app?vid=bcd96ff4-f53b-4513-aba6-d7a0a8f8f0c1"},"vehicle_type_id":"4","last_reported":1737274242,"current_range_meters":38000,"station_id":"ce4bhip2rcd13ifvqft0","pricing_plan_id":"cebpf4jnsgd1na2vs0mg"},{"bike_id":"8600d936-bbb2-4761-9f8e-aa4c1032bd26","system_id":"levelo_inurba_marseille","lat":43.304164,"lon":5.397518,"is_reserved":false,"is_disabled":false,"rental_uris":{"android":"levelo://app?vid=8600d936-bbb2-4761-9f8e-aa4c1032bd26","ios":"levelo://app?vid=8600d936-bbb2-4761-9f8e-aa4c1032bd26"},"vehicle_type_id":"4","last_reported":1737274242,"current_range_meters":39200,"station_id":"ce4bh092rcd13ifvqd20","pricing_plan_id":"cebpf4jnsgd1na2vs0mg"},{"bike_id":"1aa78b1c-8375-4544-b13a-8234ca3d6fce","system_id":"levelo_inurba_marseille","lat":43.33612,"lon":5.40982,"is_reserved":false,"is_disabled":false,"rental_uris":{"android":"levelo://app?vid=1aa78b1c-8375-4544-b13a-8234ca3d6fce","ios":"levelo://app?vid=1aa78b1c-8375-4544-b13a-8234ca3d6fce"},"vehicle_type_id":"4","last_reported":1737274242,"current_range_meters":30800,"station_id":"ce4bhqh2rcd13ifvqhmg","pricing_plan_id":"cebpf4jnsgd1na2vs0mg"},{"bike_id":"f4a4a406-b0a5-42fc-9236-32e93ac6f6b2","system_id":"levelo_inurba_marseille","lat":43.2323,"lon":5.43595,"is_reserved":false,"is_disabled":true,"rental_uris":{"android":"levelo://app?vid=f4a4a406-b0a5-42fc-9236-32e93ac6f6b2","ios":"levelo://app?vid=f4a4a406-b0a5-42fc-9236-32e93ac6f6b2"},"vehicle_type_id":"4","last_reported":1737274242,"current_range_meters":26800,"station_id":"ce4bhmp2rcd13ifvqgog","pricing_plan_id":"cebpf4jnsgd1na2vs0mg"},{"bike_id":"210ffe2d-27bf-471a-a897-ba0eb55d9e2b","system_id":"levelo_inurba_marseille","lat":43.270662,"lon":5.422762,"is_reserved":false,"is_disabled":false,"rental_uris":{"android":"levelo://app?vid=210ffe2d-27bf-471a-a897-ba0eb55d9e2b","ios":"levelo://app?vid=210ffe2d-27bf-471a-a897-ba0eb55d9e2b"},"vehicle_type_id":"4","last_reported":1737274242,"current_range_meters":36000,"station_id":"ce4bhk92rcd13ifvqgb0","pricing_plan_id":"cebpf4jnsgd1na2vs0mg"},{"bike_id":"a4431e53-0d9a-425a-96de-1883c22e59e1","system_id":"levelo_inurba_marseille","lat":43.29526,"lon":5.3904,"is_reserved":false,"is_disabled":false,"rental_uris":{"android":"levelo://app?vid=a4431e53-0d9a-425a-96de-1883c22e59e1","ios":"levelo://app?vid=a4431e53-0d9a-425a-96de-1883c22e59e1"},"vehicle_type_id":"4","last_reported":1737274242,"current_range_meters":36400,"station_id":"ce4bh312rcd13ifvqdj0","pricing_plan_id":"cebpf4jnsgd1na2vs0mg"},{"bike_id":"1fbee72f-4022-4967-952a-f436800964f4","system_id":"levelo_inurba_marseille","lat":43.25,"lon":5.38921,"is_reserved":false,"is_disabled":false,"rental_uris":{"android":"levelo://app?vid=1fbee72f-4022-4967-952a-f436800964f4","ios":"levelo://app?vid=1fbee72f-4022-4967-952a-f436800964f4"},"vehicle_type_id":"4","last_reported":1737274242,"current_range_meters":16000,"station_id":"ce4bhgp2rcd13ifvqfd0","pricing_plan_id":"cebpf4jnsgd1na2vs0mg"},{"bike_id":"4ebcf35d-ba6a-4a63-a095-1b70c86871a7","system_id":"levelo_inurba_marseille","lat":43.3094,"lon":5.40158,"is_reserved":false,"is_disabled":false,"rental_uris":{"android":"levelo://app?vid=4ebcf35d-ba6a-4a63-a095-1b70c86871a7","ios":"levelo://app?vid=4ebcf35d-ba6a-4a63-a095-1b70c86871a7"},"vehicle_type_id":"4","last_reported":1737274242,"current_range_meters":38800,"station_id":"ce4bgvp2rcd13ifvqct0","pricing_plan_id":"cebpf4jnsgd1na2vs0mg"},{"bike_id":"1d9dadc3-a9f2-4a37-b16f-dc002d79f83c","system_id":"levelo_inurba_marseille","lat":43.24079,"lon":5.37746,"is_reserved":false,"is_disabled":false,"rental_uris":{"android":"levelo://app?vid=1d9dadc3-a9f2-4a37-b16f-dc002d79f83c","ios":"levelo://app?vid=1d9dadc3-a9f2-4a37-b16f-dc002d79f83c"},"vehicle_type_id":"4","last_reported":1737274242,"current_range_meters":25200,"station_id":"ce4bhnp2rcd13ifvqgvg","pricing_plan_id":"cebpf4jnsgd1na2vs0mg"},{"bike_id":"4bd96a6e-5b62-4b7e-a075-ead23fa5c459","system_id":"levelo_inurba_marseille","lat":43.29921,"lon":5.3748,"is_reserved":false,"is_disabled":false,"rental_uris":{"android":"levelo://app?vid=4bd96a6e-5b62-4b7e-a075-ead23fa5c459","ios":"levelo://app?vid=4bd96a6e-5b62-4b7e-a075-ead23fa5c459"},"vehicle_type_id":"4","last_reported":1737274242,"current_range_meters":38400,"station_id":"ce4bgjh2rcd13ifvqbg0","pricing_plan_id":"cebpf4jnsgd1na2vs0mg"},{"bike_id":"74bd9320-6568-47aa-bc9d-f58f23afb672","system_id":"levelo_inurba_marseille","lat":43.28182,"lon":5.42669,"is_reserved":false,"is_disabled":false,"rental_uris":{"android":"levelo://app?vid=74bd9320-6568-47aa-bc9d-f58f23afb672","ios":"levelo://app?vid=74bd9320-6568-47aa-bc9d-f58f23afb672"},"vehicle_type_id":"4","last_reported":1737274242,"current_range_meters":27200,"station_id":"ce4bhnh2rcd13ifvqgug","pricing_plan_id":"cebpf4jnsgd1na2vs0mg"},{"bike_id":"5c2b48c5-c07c-4e33-a776-013e6e6e6b46","system_id":"levelo_inurba_marseille","lat":43.33598,"lon":5.41006,"is_reserved":false,"is_disabled":false,"rental_uris":{"android":"levelo://app?vid=5c2b48c5-c07c-4e33-a776-013e6e6e6b46","ios":"levelo://app?vid=5c2b48c5-c07c-4e33-a776-013e6e6e6b46"},"vehicle_type_id":"4","last_reported":1737274242,"current_range_meters":16800,"station_id":"ce4bhqh2rcd13ifvqhmg","pricing_plan_id":"cebpf4jnsgd1na2vs0mg"},{"bike_id":"7224572b-f221-4a91-833d-f18a2fa18d57","system_id":"levelo_inurba_marseille","lat":43.27821,"lon":5.3921,"is_reserved":false,"is_disabled":false,"rental_uris":{"android":"levelo://app?vid=7224572b-f221-4a91-833d-f18a2fa18d57","ios":"levelo://app?vid=7224572b-f221-4a91-833d-f18a2fa18d57"},"vehicle_type_id":"4","last_reported":1737274242,"current_range_meters":38800,"station_id":"ce4bhjp2rcd13ifvqga0","pricing_plan_id":"cebpf4jnsgd1na2vs0mg"},{"bike_id":"0b347ee2-2808-4cbd-aafe-e2b2194ac787","system_id":"levelo_inurba_marseille","lat":43.2591,"lon":5.40883,"is_reserved":false,"is_disabled":false,"rental_uris":{"android":"levelo://app?vid=0b347ee2-2808-4cbd-aafe-e2b2194ac787","ios":"levelo://app?vid=0b347ee2-2808-4cbd-aafe-e2b2194ac787"},"vehicle_type_id":"4","last_reported":1737274242,"current_range_meters":2800,"station_id":"ce4bhm92rcd13ifvqglg","pricing_plan_id":"cebpf4jnsgd1na2vs0mg"},{"bike_id":"56bc8aaf-0f94-4e50-98d4-bba0e99201f1","system_id":"levelo_inurba_marseille","lat":43.257159,"lon":5.411088,"is_reserved":false,"is_disabled":false,"rental_uris":{"android":"levelo://app?vid=56bc8aaf-0f94-4e50-98d4-bba0e99201f1","ios":"levelo://app?vid=56bc8aaf-0f94-4e50-98d4-bba0e99201f1"},"vehicle_type_id":"4","last_reported":1737274242,"current_range_meters":22800,"station_id":"ce4bhkp2rcd13ifvqgd0","pricing_plan_id":"cebpf4jnsgd1na2vs0mg"},{"bike_id":"7b855d51-4b0d-4d46-b791-c89a66723c4e","system_id":"levelo_inurba_marseille","lat":43.302558,"lon":5.400814,"is_reserved":false,"is_disabled":false,"rental_uris":{"android":"levelo://app?vid=7b855d51-4b0d-4d46-b791-c89a66723c4e","ios":"levelo://app?vid=7b855d51-4b0d-4d46-b791-c89a66723c4e"},"vehicle_type_id":"4","last_reported":1737274242,"current_range_meters":28400,"station_id":"ce4bgvh2rcd13ifvqcs0","pricing_plan_id":"cebpf4jnsgd1na2vs0mg"},{"bike_id":"234d1550-b7dd-465b-9578-32049a642f2b","system_id":"levelo_inurba_marseille","lat":43.29969,"lon":5.41326,"is_reserved":false,"is_disabled":false,"rental_uris":{"android":"levelo://app?vid=234d1550-b7dd-465b-9578-32049a642f2b","ios":"levelo://app?vid=234d1550-b7dd-465b-9578-32049a642f2b"},"vehicle_type_id":"4","last_reported":1737274242,"current_range_meters":36400,"station_id":"ce4bhp12rcd13ifvqh9g","pricing_plan_id":"cebpf4jnsgd1na2vs0mg"},{"bike_id":"715ecd0b-2bb3-4d1c-8187-4121f3e8803d","system_id":"levelo_inurba_marseille","lat":43.24543,"lon":5.39537,"is_reserved":false,"is_disabled":false,"rental_uris":{"android":"levelo://app?vid=715ecd0b-2bb3-4d1c-8187-4121f3e8803d","ios":"levelo://app?vid=715ecd0b-2bb3-4d1c-8187-4121f3e8803d"},"vehicle_type_id":"4","last_reported":1737274242,"current_range_meters":7200,"station_id":"ce4bhlp2rcd13ifvqgjg","pricing_plan_id":"cebpf4jnsgd1na2vs0mg"},{"bike_id":"f67c5c26-72f1-437c-9ef5-261cb0b78c87","system_id":"levelo_inurba_marseille","lat":43.3097,"lon":5.39038,"is_reserved":false,"is_disabled":false,"rental_uris":{"android":"levelo://app?vid=f67c5c26-72f1-437c-9ef5-261cb0b78c87","ios":"levelo://app?vid=f67c5c26-72f1-437c-9ef5-261cb0b78c87"},"vehicle_type_id":"4","last_reported":1737274242,"current_range_meters":38800,"station_id":"ce4bgup2rcd13ifvqco0","pricing_plan_id":"cebpf4jnsgd1na2vs0mg"},{"bike_id":"c5c1e2c1-9b51-4cb1-879c-c0156dbad799","system_id":"levelo_inurba_marseille","lat":43.31718,"lon":5.42393,"is_reserved":false,"is_disabled":false,"rental_uris":{"android":"levelo://app?vid=c5c1e2c1-9b51-4cb1-879c-c0156dbad799","ios":"levelo://app?vid=c5c1e2c1-9b51-4cb1-879c-c0156dbad799"},"vehicle_type_id":"4","last_reported":1737274242,"current_range_meters":26800,"station_id":"ce4bhp92rcd13ifvqhbg","pricing_plan_id":"cebpf4jnsgd1na2vs0mg"},{"bike_id":"57d0217a-9f4d-4a5f-be75-d910388ab45d","system_id":"levelo_inurba_marseille","lat":43.27936,"lon":5.4104,"is_reserved":false,"is_disabled":false,"rental_uris":{"android":"levelo://app?vid=57d0217a-9f4d-4a5f-be75-d910388ab45d","ios":"levelo://app?vid=57d0217a-9f4d-4a5f-be75-d910388ab45d"},"vehicle_type_id":"4","last_reported":1737274242,"current_range_meters":16400,"station_id":"ce4bhnp2rcd13ifvqh0g","pricing_plan_id":"cebpf4jnsgd1na2vs0mg"},{"bike_id":"7cff5365-e703-478e-994f-b62528305bc1","system_id":"levelo_inurba_marseille","lat":43.27675,"lon":5.38919,"is_reserved":false,"is_disabled":false,"rental_uris":{"android":"levelo://app?vid=7cff5365-e703-478e-994f-b62528305bc1","ios":"levelo://app?vid=7cff5365-e703-478e-994f-b62528305bc1"},"vehicle_type_id":"4","last_reported":1737274242,"current_range_meters":38800,"station_id":"ce4bhi12rcd13ifvqfo0","pricing_plan_id":"cebpf4jnsgd1na2vs0mg"},{"bike_id":"0505ce1f-f3a4-40dc-b7cb-e38492068cb0","system_id":"levelo_inurba_marseille","lat":43.30303,"lon":5.39213,"is_reserved":false,"is_disabled":false,"rental_uris":{"android":"levelo://app?vid=0505ce1f-f3a4-40dc-b7cb-e38492068cb0","ios":"levelo://app?vid=0505ce1f-f3a4-40dc-b7cb-e38492068cb0"},"vehicle_type_id":"4","last_reported":1737274242,"current_range_meters":33200,"station_id":"ce4bgkh2rcd13ifvqbk0","pricing_plan_id":"cebpf4jnsgd1na2vs0mg"},{"bike_id":"529dc2a7-7a3f-459d-9839-46273633cc3a","system_id":"levelo_inurba_marseille","lat":43.27499,"lon":5.42456,"is_reserved":false,"is_disabled":false,"rental_uris":{"android":"levelo://app?vid=529dc2a7-7a3f-459d-9839-46273633cc3a","ios":"levelo://app?vid=529dc2a7-7a3f-459d-9839-46273633cc3a"},"vehicle_type_id":"4","last_reported":1737274242,"current_range_meters":24800,"station_id":"ce4bhn92rcd13ifvqgrg","pricing_plan_id":"cebpf4jnsgd1na2vs0mg"},{"bike_id":"56b8e9bc-f750-4815-bc98-9098414d16db","system_id":"levelo_inurba_marseille","lat":43.23199,"lon":5.35546,"is_reserved":false,"is_disabled":true,"rental_uris":{"android":"levelo://app?vid=56b8e9bc-f750-4815-bc98-9098414d16db","ios":"levelo://app?vid=56b8e9bc-f750-4815-bc98-9098414d16db"},"vehicle_type_id":"4","last_reported":1737274242,"current_range_meters":0,"station_id":"ce4bhu92rcd13ifvqi70","pricing_plan_id":"cebpf4jnsgd1na2vs0mg"},{"bike_id":"0e91b70c-1e42-4d65-a90a-72cbd40954b0","system_id":"levelo_inurba_marseille","lat":43.323628,"lon":5.367568,"is_reserved":false,"is_disabled":false,"rental_uris":{"android":"levelo://app?vid=0e91b70c-1e42-4d65-a90a-72cbd40954b0","ios":"levelo://app?vid=0e91b70c-1e42-4d65-a90a-72cbd40954b0"},"vehicle_type_id":"4","last_reported":1737274242,"current_range_meters":8400,"station_id":"ce4bhsh2rcd13ifvqi2g","pricing_plan_id":"cebpf4jnsgd1na2vs0mg"},{"bike_id":"5e918c77-bf2a-4fed-a39b-71b6079cd700","system_id":"levelo_inurba_marseille","lat":43.28435,"lon":5.39196,"is_reserved":false,"is_disabled":false,"rental_uris":{"android":"levelo://app?vid=5e918c77-bf2a-4fed-a39b-71b6079cd700","ios":"levelo://app?vid=5e918c77-bf2a-4fed-a39b-71b6079cd700"},"vehicle_type_id":"4","last_reported":1737274242,"current_range_meters":31200,"station_id":"ce4bhoh2rcd13ifvqh5g","pricing_plan_id":"cebpf4jnsgd1na2vs0mg"},{"bike_id":"fcff8b6e-6484-4e4c-8d98-9ab325ed2e27","system_id":"levelo_inurba_marseille","lat":43.324819,"lon":5.365741,"is_reserved":false,"is_disabled":false,"rental_uris":{"android":"levelo://app?vid=fcff8b6e-6484-4e4c-8d98-9ab325ed2e27","ios":"levelo://app?vid=fcff8b6e-6484-4e4c-8d98-9ab325ed2e27"},"vehicle_type_id":"4","last_reported":1737274242,"current_range_meters":38800,"station_id":"ce4bhs12rcd13ifvqhvg","pricing_plan_id":"cebpf4jnsgd1na2vs0mg"},{"bike_id":"362f2ba6-952e-4a62-8e77-110149e6c012","system_id":"levelo_inurba_marseille","lat":43.33631,"lon":5.4099,"is_reserved":false,"is_disabled":false,"rental_uris":{"android":"levelo://app?vid=362f2ba6-952e-4a62-8e77-110149e6c012","ios":"levelo://app?vid=362f2ba6-952e-4a62-8e77-110149e6c012"},"vehicle_type_id":"4","last_reported":1737274242,"current_range_meters":5600,"station_id":"ce4bhqh2rcd13ifvqhmg","pricing_plan_id":"cebpf4jnsgd1na2vs0mg"},{"bike_id":"ee5e46e2-1b7f-4f41-b9a7-702e7757e533","system_id":"levelo_inurba_marseille","lat":43.30242,"lon":5.40058,"is_reserved":false,"is_disabled":false,"rental_uris":{"android":"levelo://app?vid=ee5e46e2-1b7f-4f41-b9a7-702e7757e533","ios":"levelo://app?vid=ee5e46e2-1b7f-4f41-b9a7-702e7757e533"},"vehicle_type_id":"4","last_reported":1737274242,"current_range_meters":32000,"station_id":"ce4bgvh2rcd13ifvqcs0","pricing_plan_id":"cebpf4jnsgd1na2vs0mg"},{"bike_id":"2d51ed35-cd4a-4798-ae66-82a7306e8efd","system_id":"levelo_inurba_marseille","lat":43.31889,"lon":5.40729,"is_reserved":false,"is_disabled":false,"rental_uris":{"android":"levelo://app?vid=2d51ed35-cd4a-4798-ae66-82a7306e8efd","ios":"levelo://app?vid=2d51ed35-cd4a-4798-ae66-82a7306e8efd"},"vehicle_type_id":"4","last_reported":1737274242,"current_range_meters":14400,"station_id":"ce4bhq12rcd13ifvqhig","pricing_plan_id":"cebpf4jnsgd1na2vs0mg"},{"bike_id":"3fc83956-a2cd-441f-93bc-4508418b1783","system_id":"levelo_inurba_marseille","lat":43.299097,"lon":5.374748,"is_reserved":false,"is_disabled":false,"rental_uris":{"android":"levelo://app?vid=3fc83956-a2cd-441f-93bc-4508418b1783","ios":"levelo://app?vid=3fc83956-a2cd-441f-93bc-4508418b1783"},"vehicle_type_id":"4","last_reported":1737274242,"current_range_meters":8800,"station_id":"ce4bgjh2rcd13ifvqbg0","pricing_plan_id":"cebpf4jnsgd1na2vs0mg"},{"bike_id":"8f6b590a-fcef-4cef-ad62-ce286ade8a64","system_id":"levelo_inurba_marseille","lat":43.29582,"lon":5.39967,"is_reserved":false,"is_disabled":false,"rental_uris":{"android":"levelo://app?vid=8f6b590a-fcef-4cef-ad62-ce286ade8a64","ios":"levelo://app?vid=8f6b590a-fcef-4cef-ad62-ce286ade8a64"},"vehicle_type_id":"4","last_reported":1737274242,"current_range_meters":35600,"station_id":"ce4bh312rcd13ifvqdj0","pricing_plan_id":"cebpf4jnsgd1na2vs0mg"},{"bike_id":"0966a8a8-2d5b-449d-8d62-52bfeeb2bcde","system_id":"levelo_inurba_marseille","lat":43.29728,"lon":5.37704,"is_reserved":false,"is_disabled":true,"rental_uris":{"android":"levelo://app?vid=0966a8a8-2d5b-449d-8d62-52bfeeb2bcde","ios":"levelo://app?vid=0966a8a8-2d5b-449d-8d62-52bfeeb2bcde"},"vehicle_type_id":"4","last_reported":1737274242,"current_range_meters":38000,"station_id":"ce4bgkh2rcd13ifvqbl0","pricing_plan_id":"cebpf4jnsgd1na2vs0mg"},{"bike_id":"22465212-93af-4e0b-b803-6ee82bba56d5","system_id":"levelo_inurba_marseille","lat":43.33759,"lon":5.3748,"is_reserved":false,"is_disabled":false,"rental_uris":{"android":"levelo://app?vid=22465212-93af-4e0b-b803-6ee82bba56d5","ios":"levelo://app?vid=22465212-93af-4e0b-b803-6ee82bba56d5"},"vehicle_type_id":"4","last_reported":1737274242,"current_range_meters":29600,"station_id":"","pricing_plan_id":"cebpf4jnsgd1na2vs0mg"},{"bike_id":"2bba4a8f-966f-4b79-ad41-59d17bf0a02e","system_id":"levelo_inurba_marseille","lat":43.28739,"lon":5.36082,"is_reserved":false,"is_disabled":false,"rental_uris":{"android":"levelo://app?vid=2bba4a8f-966f-4b79-ad41-59d17bf0a02e","ios":"levelo://app?vid=2bba4a8f-966f-4b79-ad41-59d17bf0a02e"},"vehicle_type_id":"4","last_reported":1737274242,"current_range_meters":38000,"station_id":"cki0cbj6b192h4jlfktg","pricing_plan_id":"cebpf4jnsgd1na2vs0mg"},{"bike_id":"3e8275bc-2c83-49a8-84b7-c9092eea83a5","system_id":"levelo_inurba_marseille","lat":43.31679,"lon":5.40476,"is_reserved":false,"is_disabled":false,"rental_uris":{"android":"levelo://app?vid=3e8275bc-2c83-49a8-84b7-c9092eea83a5","ios":"levelo://app?vid=3e8275bc-2c83-49a8-84b7-c9092eea83a5"},"vehicle_type_id":"4","last_reported":1737274242,"current_range_meters":9600,"station_id":"ce4bh012rcd13ifvqd00","pricing_plan_id":"cebpf4jnsgd1na2vs0mg"},{"bike_id":"27c10a5c-e5d3-4044-9edf-4f58b096712f","system_id":"levelo_inurba_marseille","lat":43.30316,"lon":5.40451,"is_reserved":false,"is_disabled":true,"rental_uris":{"android":"levelo://app?vid=27c10a5c-e5d3-4044-9edf-4f58b096712f","ios":"levelo://app?vid=27c10a5c-e5d3-4044-9edf-4f58b096712f"},"vehicle_type_id":"4","last_reported":1737274242,"current_range_meters":0,"station_id":"ce4bh012rcd13ifvqd10","pricing_plan_id":"cebpf4jnsgd1na2vs0mg"},{"bike_id":"01f1ff31-689b-418c-8855-79c26daa62ec","system_id":"levelo_inurba_marseille","lat":43.27366,"lon":5.36256,"is_reserved":false,"is_disabled":false,"rental_uris":{"android":"levelo://app?vid=01f1ff31-689b-418c-8855-79c26daa62ec","ios":"levelo://app?vid=01f1ff31-689b-418c-8855-79c26daa62ec"},"vehicle_type_id":"4","last_reported":1737274242,"current_range_meters":32400,"station_id":"ce4bhbh2rcd13ifvqeo0","pricing_plan_id":"cebpf4jnsgd1na2vs0mg"},{"bike_id":"19fb1931-f075-402c-a076-088e72accb76","system_id":"levelo_inurba_marseille","lat":43.248051,"lon":5.374708,"is_reserved":false,"is_disabled":false,"rental_uris":{"android":"levelo://app?vid=19fb1931-f075-402c-a076-088e72accb76","ios":"levelo://app?vid=19fb1931-f075-402c-a076-088e72accb76"},"vehicle_type_id":"4","last_reported":1737274242,"current_range_meters":11600,"station_id":"ce4bhgh2rcd13ifvqfb0","pricing_plan_id":"cebpf4jnsgd1na2vs0mg"},{"bike_id":"081f780a-421e-4d29-9981-68dbb84da5f6","system_id":"levelo_inurba_marseille","lat":43.31752,"lon":5.39006,"is_reserved":false,"is_disabled":false,"rental_uris":{"android":"levelo://app?vid=081f780a-421e-4d29-9981-68dbb84da5f6","ios":"levelo://app?vid=081f780a-421e-4d29-9981-68dbb84da5f6"},"vehicle_type_id":"4","last_reported":1737274242,"current_range_meters":38800,"station_id":"ce4bhqp2rcd13ifvqhng","pricing_plan_id":"cebpf4jnsgd1na2vs0mg"},{"bike_id":"86b1129b-34c7-4cb1-acb7-46aa8942c62c","system_id":"levelo_inurba_marseille","lat":43.23139,"lon":5.43711,"is_reserved":false,"is_disabled":false,"rental_uris":{"android":"levelo://app?vid=86b1129b-34c7-4cb1-acb7-46aa8942c62c","ios":"levelo://app?vid=86b1129b-34c7-4cb1-acb7-46aa8942c62c"},"vehicle_type_id":"4","last_reported":1737274242,"current_range_meters":38400,"station_id":"ce4bhmp2rcd13ifvqgog","pricing_plan_id":"cebpf4jnsgd1na2vs0mg"},{"bike_id":"93b019a8-d37c-4848-8e8d-cf900af142a9","system_id":"levelo_inurba_marseille","lat":43.29623,"lon":5.37168,"is_reserved":false,"is_disabled":false,"rental_uris":{"android":"levelo://app?vid=93b019a8-d37c-4848-8e8d-cf900af142a9","ios":"levelo://app?vid=93b019a8-d37c-4848-8e8d-cf900af142a9"},"vehicle_type_id":"4","last_reported":1737274242,"current_range_meters":39200,"station_id":"ce4bgnh2rcd13ifvqc0g","pricing_plan_id":"cebpf4jnsgd1na2vs0mg"},{"bike_id":"fad73bdb-6dc6-4c07-95d2-7cbcf7b07690","system_id":"levelo_inurba_marseille","lat":43.3089,"lon":5.3966,"is_reserved":false,"is_disabled":false,"rental_uris":{"android":"levelo://app?vid=fad73bdb-6dc6-4c07-95d2-7cbcf7b07690","ios":"levelo://app?vid=fad73bdb-6dc6-4c07-95d2-7cbcf7b07690"},"vehicle_type_id":"4","last_reported":1737274242,"current_range_meters":26800,"station_id":"ce4bh012rcd13ifvqcv0","pricing_plan_id":"cebpf4jnsgd1na2vs0mg"},{"bike_id":"359264b6-cc9c-4d77-996c-c5218ed5c647","system_id":"levelo_inurba_marseille","lat":43.318882,"lon":5.407327,"is_reserved":false,"is_disabled":false,"rental_uris":{"android":"levelo://app?vid=359264b6-cc9c-4d77-996c-c5218ed5c647","ios":"levelo://app?vid=359264b6-cc9c-4d77-996c-c5218ed5c647"},"vehicle_type_id":"4","last_reported":1737274242,"current_range_meters":9600,"station_id":"ce4bhq12rcd13ifvqhig","pricing_plan_id":"cebpf4jnsgd1na2vs0mg"},{"bike_id":"ad918d02-2287-4eac-99fb-4c4d0533782b","system_id":"levelo_inurba_marseille","lat":43.25103,"lon":5.40347,"is_reserved":false,"is_disabled":false,"rental_uris":{"android":"levelo://app?vid=ad918d02-2287-4eac-99fb-4c4d0533782b","ios":"levelo://app?vid=ad918d02-2287-4eac-99fb-4c4d0533782b"},"vehicle_type_id":"4","last_reported":1737274242,"current_range_meters":11200,"station_id":"ce4bhlh2rcd13ifvqgig","pricing_plan_id":"cebpf4jnsgd1na2vs0mg"},{"bike_id":"c6f874ed-7baa-4ffa-b8dc-93b47368c64c","system_id":"levelo_inurba_marseille","lat":43.273768,"lon":5.362501,"is_reserved":false,"is_disabled":false,"rental_uris":{"android":"levelo://app?vid=c6f874ed-7baa-4ffa-b8dc-93b47368c64c","ios":"levelo://app?vid=c6f874ed-7baa-4ffa-b8dc-93b47368c64c"},"vehicle_type_id":"4","last_reported":1737274242,"current_range_meters":30400,"station_id":"ce4bhbh2rcd13ifvqeo0","pricing_plan_id":"cebpf4jnsgd1na2vs0mg"},{"bike_id":"82eafdac-bd81-479d-a7b0-05db8ca76c26","system_id":"levelo_inurba_marseille","lat":43.25819,"lon":5.39433,"is_reserved":false,"is_disabled":true,"rental_uris":{"android":"levelo://app?vid=82eafdac-bd81-479d-a7b0-05db8ca76c26","ios":"levelo://app?vid=82eafdac-bd81-479d-a7b0-05db8ca76c26"},"vehicle_type_id":"4","last_reported":1737274242,"current_range_meters":0,"station_id":"ce4bhip2rcd13ifvqft0","pricing_plan_id":"cebpf4jnsgd1na2vs0mg"},{"bike_id":"88b2d2e1-f031-4080-9cac-720a82058612","system_id":"levelo_inurba_marseille","lat":43.31283,"lon":5.40166,"is_reserved":false,"is_disabled":false,"rental_uris":{"android":"levelo://app?vid=88b2d2e1-f031-4080-9cac-720a82058612","ios":"levelo://app?vid=88b2d2e1-f031-4080-9cac-720a82058612"},"vehicle_type_id":"4","last_reported":1737274242,"current_range_meters":38800,"station_id":"ce4bh092rcd13ifvqd30","pricing_plan_id":"cebpf4jnsgd1na2vs0mg"},{"bike_id":"7fefe014-5ff5-4472-a513-faec3bd0f1ab","system_id":"levelo_inurba_marseille","lat":43.260554,"lon":5.393956,"is_reserved":false,"is_disabled":true,"rental_uris":{"android":"levelo://app?vid=7fefe014-5ff5-4472-a513-faec3bd0f1ab","ios":"levelo://app?vid=7fefe014-5ff5-4472-a513-faec3bd0f1ab"},"vehicle_type_id":"4","last_reported":1737274242,"current_range_meters":1600,"station_id":"ce4bhh92rcd13ifvqfj0","pricing_plan_id":"cebpf4jnsgd1na2vs0mg"},{"bike_id":"93887ba0-f4e1-4ca6-bcbb-ee5a285a43f8","system_id":"levelo_inurba_marseille","lat":43.31307,"lon":5.39702,"is_reserved":false,"is_disabled":false,"rental_uris":{"android":"levelo://app?vid=93887ba0-f4e1-4ca6-bcbb-ee5a285a43f8","ios":"levelo://app?vid=93887ba0-f4e1-4ca6-bcbb-ee5a285a43f8"},"vehicle_type_id":"4","last_reported":1737274242,"current_range_meters":4400,"station_id":"ce4bgvp2rcd13ifvqcu0","pricing_plan_id":"cebpf4jnsgd1na2vs0mg"},{"bike_id":"41ff4665-df5a-496b-aa53-38a1d8195dac","system_id":"levelo_inurba_marseille","lat":43.30176,"lon":5.38081,"is_reserved":false,"is_disabled":false,"rental_uris":{"android":"levelo://app?vid=41ff4665-df5a-496b-aa53-38a1d8195dac","ios":"levelo://app?vid=41ff4665-df5a-496b-aa53-38a1d8195dac"},"vehicle_type_id":"4","last_reported":1737274242,"current_range_meters":38000,"station_id":"ce4bgjp2rcd13ifvqbh0","pricing_plan_id":"cebpf4jnsgd1na2vs0mg"},{"bike_id":"bb2c972b-a334-4a20-923e-d31219a3f76a","system_id":"levelo_inurba_marseille","lat":43.29502,"lon":5.39402,"is_reserved":false,"is_disabled":false,"rental_uris":{"android":"levelo://app?vid=bb2c972b-a334-4a20-923e-d31219a3f76a","ios":"levelo://app?vid=bb2c972b-a334-4a20-923e-d31219a3f76a"},"vehicle_type_id":"4","last_reported":1737274242,"current_range_meters":35200,"station_id":"ce4bh292rcd13ifvqdf0","pricing_plan_id":"cebpf4jnsgd1na2vs0mg"},{"bike_id":"e76e9268-95b0-4c39-8e08-32cbf56c489e","system_id":"levelo_inurba_marseille","lat":43.28577,"lon":5.39498,"is_reserved":false,"is_disabled":false,"rental_uris":{"android":"levelo://app?vid=e76e9268-95b0-4c39-8e08-32cbf56c489e","ios":"levelo://app?vid=e76e9268-95b0-4c39-8e08-32cbf56c489e"},"vehicle_type_id":"4","last_reported":1737274242,"current_range_meters":35200,"station_id":"ce4bh292rcd13ifvqdg0","pricing_plan_id":"cebpf4jnsgd1na2vs0mg"},{"bike_id":"e1803d3a-2390-4e8d-82bc-144811a24811","system_id":"levelo_inurba_marseille","lat":43.24631,"lon":5.38911,"is_reserved":false,"is_disabled":false,"rental_uris":{"android":"levelo://app?vid=e1803d3a-2390-4e8d-82bc-144811a24811","ios":"levelo://app?vid=e1803d3a-2390-4e8d-82bc-144811a24811"},"vehicle_type_id":"4","last_reported":1737274242,"current_range_meters":37600,"station_id":"ce4bhg12rcd13ifvqf60","pricing_plan_id":"cebpf4jnsgd1na2vs0mg"},{"bike_id":"2f229b84-0dd9-4150-b226-a007f85e4aa6","system_id":"levelo_inurba_marseille","lat":43.30114,"lon":5.37448,"is_reserved":false,"is_disabled":false,"rental_uris":{"android":"levelo://app?vid=2f229b84-0dd9-4150-b226-a007f85e4aa6","ios":"levelo://app?vid=2f229b84-0dd9-4150-b226-a007f85e4aa6"},"vehicle_type_id":"4","last_reported":1737274242,"current_range_meters":38800,"station_id":"ce4bgs92rcd13ifvqcc0","pricing_plan_id":"cebpf4jnsgd1na2vs0mg"},{"bike_id":"f2390374-e060-4fe1-bcfa-cb2711193e58","system_id":"levelo_inurba_marseille","lat":43.25086,"lon":5.39523,"is_reserved":false,"is_disabled":false,"rental_uris":{"android":"levelo://app?vid=f2390374-e060-4fe1-bcfa-cb2711193e58","ios":"levelo://app?vid=f2390374-e060-4fe1-bcfa-cb2711193e58"},"vehicle_type_id":"4","last_reported":1737274242,"current_range_meters":38800,"station_id":"ce4bhm12rcd13ifvqgkg","pricing_plan_id":"cebpf4jnsgd1na2vs0mg"},{"bike_id":"e013395f-6e2e-43e3-aa9b-9dc8ff0c226b","system_id":"levelo_inurba_marseille","lat":43.30815,"lon":5.43526,"is_reserved":false,"is_disabled":false,"rental_uris":{"android":"levelo://app?vid=e013395f-6e2e-43e3-aa9b-9dc8ff0c226b","ios":"levelo://app?vid=e013395f-6e2e-43e3-aa9b-9dc8ff0c226b"},"vehicle_type_id":"4","last_reported":1737274242,"current_range_meters":26800,"station_id":"ce4bhph2rcd13ifvqheg","pricing_plan_id":"cebpf4jnsgd1na2vs0mg"},{"bike_id":"d922a541-8d59-49fe-8950-daca6d5f04c0","system_id":"levelo_inurba_marseille","lat":43.29247,"lon":5.40918,"is_reserved":false,"is_disabled":false,"rental_uris":{"android":"levelo://app?vid=d922a541-8d59-49fe-8950-daca6d5f04c0","ios":"levelo://app?vid=d922a541-8d59-49fe-8950-daca6d5f04c0"},"vehicle_type_id":"4","last_reported":1737274242,"current_range_meters":38800,"station_id":"ce4bh192rcd13ifvqdc0","pricing_plan_id":"cebpf4jnsgd1na2vs0mg"},{"bike_id":"591b3bd2-5685-4ec2-843e-e45d69c9aabd","system_id":"levelo_inurba_marseille","lat":43.26051,"lon":5.39396,"is_reserved":false,"is_disabled":false,"rental_uris":{"android":"levelo://app?vid=591b3bd2-5685-4ec2-843e-e45d69c9aabd","ios":"levelo://app?vid=591b3bd2-5685-4ec2-843e-e45d69c9aabd"},"vehicle_type_id":"4","last_reported":1737274242,"current_range_meters":38800,"station_id":"ce4bhh92rcd13ifvqfj0","pricing_plan_id":"cebpf4jnsgd1na2vs0mg"},{"bike_id":"d71c3af2-0f77-40b3-9da4-f9b966f02980","system_id":"levelo_inurba_marseille","lat":43.2894,"lon":5.36643,"is_reserved":false,"is_disabled":false,"rental_uris":{"android":"levelo://app?vid=d71c3af2-0f77-40b3-9da4-f9b966f02980","ios":"levelo://app?vid=d71c3af2-0f77-40b3-9da4-f9b966f02980"},"vehicle_type_id":"4","last_reported":1737274242,"current_range_meters":25600,"station_id":"ce4bhap2rcd13ifvqek0","pricing_plan_id":"cebpf4jnsgd1na2vs0mg"},{"bike_id":"535838d9-5884-4db7-a3a6-b956e4d0f129","system_id":"levelo_inurba_marseille","lat":43.30541,"lon":5.38428,"is_reserved":false,"is_disabled":false,"rental_uris":{"android":"levelo://app?vid=535838d9-5884-4db7-a3a6-b956e4d0f129","ios":"levelo://app?vid=535838d9-5884-4db7-a3a6-b956e4d0f129"},"vehicle_type_id":"4","last_reported":1737274242,"current_range_meters":17600,"station_id":"ce4bgg92rcd13ifvqb30","pricing_plan_id":"cebpf4jnsgd1na2vs0mg"},{"bike_id":"a3dd20f0-27d2-43cd-8b06-2b1035532be4","system_id":"levelo_inurba_marseille","lat":43.280839,"lon":5.396541,"is_reserved":false,"is_disabled":false,"rental_uris":{"android":"levelo://app?vid=a3dd20f0-27d2-43cd-8b06-2b1035532be4","ios":"levelo://app?vid=a3dd20f0-27d2-43cd-8b06-2b1035532be4"},"vehicle_type_id":"4","last_reported":1737274242,"current_range_meters":38800,"station_id":"ce4bho12rcd13ifvqh2g","pricing_plan_id":"cebpf4jnsgd1na2vs0mg"},{"bike_id":"65bc6e4b-80b6-41da-bb7d-25f938e2741d","system_id":"levelo_inurba_marseille","lat":43.28711,"lon":5.3999,"is_reserved":false,"is_disabled":false,"rental_uris":{"android":"levelo://app?vid=65bc6e4b-80b6-41da-bb7d-25f938e2741d","ios":"levelo://app?vid=65bc6e4b-80b6-41da-bb7d-25f938e2741d"},"vehicle_type_id":"4","last_reported":1737274242,"current_range_meters":32800,"station_id":"ce4bho92rcd13ifvqh3g","pricing_plan_id":"cebpf4jnsgd1na2vs0mg"},{"bike_id":"d468c43b-79f9-4a69-9334-f2e452c76c01","system_id":"levelo_inurba_marseille","lat":43.31219,"lon":5.36899,"is_reserved":false,"is_disabled":false,"rental_uris":{"android":"levelo://app?vid=d468c43b-79f9-4a69-9334-f2e452c76c01","ios":"levelo://app?vid=d468c43b-79f9-4a69-9334-f2e452c76c01"},"vehicle_type_id":"4","last_reported":1737274242,"current_range_meters":35200,"station_id":"ce4bgl92rcd13ifvqbq0","pricing_plan_id":"cebpf4jnsgd1na2vs0mg"},{"bike_id":"0f6ac4af-0772-4e9d-8e8e-ecf1f5c1f7e9","system_id":"levelo_inurba_marseille","lat":43.30591,"lon":5.39339,"is_reserved":false,"is_disabled":false,"rental_uris":{"android":"levelo://app?vid=0f6ac4af-0772-4e9d-8e8e-ecf1f5c1f7e9","ios":"levelo://app?vid=0f6ac4af-0772-4e9d-8e8e-ecf1f5c1f7e9"},"vehicle_type_id":"4","last_reported":1737274242,"current_range_meters":38800,"station_id":"ce4bh0p2rcd13ifvqd80","pricing_plan_id":"cebpf4jnsgd1na2vs0mg"},{"bike_id":"5a3716de-7d12-4757-b7a0-e5e283057e63","system_id":"levelo_inurba_marseille","lat":43.24069,"lon":5.37766,"is_reserved":false,"is_disabled":false,"rental_uris":{"android":"levelo://app?vid=5a3716de-7d12-4757-b7a0-e5e283057e63","ios":"levelo://app?vid=5a3716de-7d12-4757-b7a0-e5e283057e63"},"vehicle_type_id":"4","last_reported":1737274242,"current_range_meters":38800,"station_id":"ce4bhnp2rcd13ifvqgvg","pricing_plan_id":"cebpf4jnsgd1na2vs0mg"},{"bike_id":"a95248e8-7ba2-479e-9b5c-9fb4d8e98c2b","system_id":"levelo_inurba_marseille","lat":43.28086,"lon":5.42196,"is_reserved":false,"is_disabled":true,"rental_uris":{"android":"levelo://app?vid=a95248e8-7ba2-479e-9b5c-9fb4d8e98c2b","ios":"levelo://app?vid=a95248e8-7ba2-479e-9b5c-9fb4d8e98c2b"},"vehicle_type_id":"4","last_reported":1737274242,"current_range_meters":0,"station_id":"","pricing_plan_id":"cebpf4jnsgd1na2vs0mg"},{"bike_id":"246f2aa1-d855-40ee-b8e2-0e541013d632","system_id":"levelo_inurba_marseille","lat":43.27796,"lon":5.40725,"is_reserved":false,"is_disabled":true,"rental_uris":{"android":"levelo://app?vid=246f2aa1-d855-40ee-b8e2-0e541013d632","ios":"levelo://app?vid=246f2aa1-d855-40ee-b8e2-0e541013d632"},"vehicle_type_id":"4","last_reported":1737274242,"current_range_meters":0,"station_id":"ce4bhnh2rcd13ifvqgtg","pricing_plan_id":"cebpf4jnsgd1na2vs0mg"},{"bike_id":"87cefc3a-e36a-4030-9c3f-9fc87455f3e3","system_id":"levelo_inurba_marseille","lat":43.27368,"lon":5.36231,"is_reserved":false,"is_disabled":false,"rental_uris":{"android":"levelo://app?vid=87cefc3a-e36a-4030-9c3f-9fc87455f3e3","ios":"levelo://app?vid=87cefc3a-e36a-4030-9c3f-9fc87455f3e3"},"vehicle_type_id":"4","last_reported":1737274242,"current_range_meters":38000,"station_id":"ce4bhbh2rcd13ifvqeo0","pricing_plan_id":"cebpf4jnsgd1na2vs0mg"},{"bike_id":"072a32aa-1410-4c96-9be8-3fc14752dc70","system_id":"levelo_inurba_marseille","lat":43.29747,"lon":5.37698,"is_reserved":false,"is_disabled":false,"rental_uris":{"android":"levelo://app?vid=072a32aa-1410-4c96-9be8-3fc14752dc70","ios":"levelo://app?vid=072a32aa-1410-4c96-9be8-3fc14752dc70"},"vehicle_type_id":"4","last_reported":1737274242,"current_range_meters":34000,"station_id":"ce4bgkh2rcd13ifvqbl0","pricing_plan_id":"cebpf4jnsgd1na2vs0mg"},{"bike_id":"c5fd4115-ef9b-417b-9a07-50ba619cdb53","system_id":"levelo_inurba_marseille","lat":43.302105,"lon":5.394689,"is_reserved":false,"is_disabled":false,"rental_uris":{"android":"levelo://app?vid=c5fd4115-ef9b-417b-9a07-50ba619cdb53","ios":"levelo://app?vid=c5fd4115-ef9b-417b-9a07-50ba619cdb53"},"vehicle_type_id":"4","last_reported":1737274242,"current_range_meters":33200,"station_id":"ce4bh0p2rcd13ifvqd70","pricing_plan_id":"cebpf4jnsgd1na2vs0mg"},{"bike_id":"a8404ae2-4b03-4e79-b2fb-443e381045c4","system_id":"levelo_inurba_marseille","lat":43.275576,"lon":5.384393,"is_reserved":false,"is_disabled":false,"rental_uris":{"android":"levelo://app?vid=a8404ae2-4b03-4e79-b2fb-443e381045c4","ios":"levelo://app?vid=a8404ae2-4b03-4e79-b2fb-443e381045c4"},"vehicle_type_id":"4","last_reported":1737274242,"current_range_meters":38800,"station_id":"ce4bhh92rcd13ifvqfi0","pricing_plan_id":"cebpf4jnsgd1na2vs0mg"},{"bike_id":"dd310bee-2e8a-4a2f-91bc-662e51f1f228","system_id":"levelo_inurba_marseille","lat":43.24022,"lon":5.37782,"is_reserved":false,"is_disabled":false,"rental_uris":{"android":"levelo://app?vid=dd310bee-2e8a-4a2f-91bc-662e51f1f228","ios":"levelo://app?vid=dd310bee-2e8a-4a2f-91bc-662e51f1f228"},"vehicle_type_id":"4","last_reported":1737274242,"current_range_meters":25200,"station_id":"","pricing_plan_id":"cebpf4jnsgd1na2vs0mg"},{"bike_id":"927159ff-ab29-4a04-84bb-c2b8f5dcea44","system_id":"levelo_inurba_marseille","lat":43.26558,"lon":5.37303,"is_reserved":false,"is_disabled":false,"rental_uris":{"android":"levelo://app?vid=927159ff-ab29-4a04-84bb-c2b8f5dcea44","ios":"levelo://app?vid=927159ff-ab29-4a04-84bb-c2b8f5dcea44"},"vehicle_type_id":"4","last_reported":1737274242,"current_range_meters":24800,"station_id":"ce4bhg12rcd13ifvqf70","pricing_plan_id":"cebpf4jnsgd1na2vs0mg"},{"bike_id":"8e334ff9-5a63-41d2-8532-f258c2310355","system_id":"levelo_inurba_marseille","lat":43.30594,"lon":5.37231,"is_reserved":false,"is_disabled":false,"rental_uris":{"android":"levelo://app?vid=8e334ff9-5a63-41d2-8532-f258c2310355","ios":"levelo://app?vid=8e334ff9-5a63-41d2-8532-f258c2310355"},"vehicle_type_id":"4","last_reported":1737274242,"current_range_meters":38000,"station_id":"ce4bgqh2rcd13ifvqc4g","pricing_plan_id":"cebpf4jnsgd1na2vs0mg"},{"bike_id":"2189f33e-4cfd-4f76-9d91-913095d551c4","system_id":"levelo_inurba_marseille","lat":43.303509,"lon":5.390934,"is_reserved":false,"is_disabled":true,"rental_uris":{"android":"levelo://app?vid=2189f33e-4cfd-4f76-9d91-913095d551c4","ios":"levelo://app?vid=2189f33e-4cfd-4f76-9d91-913095d551c4"},"vehicle_type_id":"4","last_reported":1737274242,"current_range_meters":0,"station_id":"","pricing_plan_id":"cebpf4jnsgd1na2vs0mg"},{"bike_id":"d3d09a19-44d5-45b9-8a4d-51061f2a6f15","system_id":"levelo_inurba_marseille","lat":43.279993,"lon":5.400154,"is_reserved":false,"is_disabled":false,"rental_uris":{"android":"levelo://app?vid=d3d09a19-44d5-45b9-8a4d-51061f2a6f15","ios":"levelo://app?vid=d3d09a19-44d5-45b9-8a4d-51061f2a6f15"},"vehicle_type_id":"4","last_reported":1737274242,"current_range_meters":8000,"station_id":"ce4bho92rcd13ifvqh4g","pricing_plan_id":"cebpf4jnsgd1na2vs0mg"},{"bike_id":"5f710268-073d-4db3-8e21-1ae7b4b5a30d","system_id":"levelo_inurba_marseille","lat":43.33604,"lon":5.41003,"is_reserved":false,"is_disabled":false,"rental_uris":{"android":"levelo://app?vid=5f710268-073d-4db3-8e21-1ae7b4b5a30d","ios":"levelo://app?vid=5f710268-073d-4db3-8e21-1ae7b4b5a30d"},"vehicle_type_id":"4","last_reported":1737274242,"current_range_meters":9600,"station_id":"ce4bhqh2rcd13ifvqhmg","pricing_plan_id":"cebpf4jnsgd1na2vs0mg"},{"bike_id":"668f9767-c78d-438a-96bb-c0760f782967","system_id":"levelo_inurba_marseille","lat":43.26173,"lon":5.37925,"is_reserved":false,"is_disabled":false,"rental_uris":{"android":"levelo://app?vid=668f9767-c78d-438a-96bb-c0760f782967","ios":"levelo://app?vid=668f9767-c78d-438a-96bb-c0760f782967"},"vehicle_type_id":"4","last_reported":1737274242,"current_range_meters":37600,"station_id":"ce4bhjp2rcd13ifvqg90","pricing_plan_id":"cebpf4jnsgd1na2vs0mg"},{"bike_id":"541b7769-8083-411e-ad4d-d20a4dfa7b91","system_id":"levelo_inurba_marseille","lat":43.3127,"lon":5.40206,"is_reserved":false,"is_disabled":false,"rental_uris":{"android":"levelo://app?vid=541b7769-8083-411e-ad4d-d20a4dfa7b91","ios":"levelo://app?vid=541b7769-8083-411e-ad4d-d20a4dfa7b91"},"vehicle_type_id":"4","last_reported":1737274242,"current_range_meters":38800,"station_id":"ce4bh092rcd13ifvqd30","pricing_plan_id":"cebpf4jnsgd1na2vs0mg"},{"bike_id":"298d2613-8659-4565-ade6-d6e216e8e84d","system_id":"levelo_inurba_marseille","lat":43.25824,"lon":5.39438,"is_reserved":false,"is_disabled":false,"rental_uris":{"android":"levelo://app?vid=298d2613-8659-4565-ade6-d6e216e8e84d","ios":"levelo://app?vid=298d2613-8659-4565-ade6-d6e216e8e84d"},"vehicle_type_id":"4","last_reported":1737274242,"current_range_meters":38000,"station_id":"ce4bhip2rcd13ifvqft0","pricing_plan_id":"cebpf4jnsgd1na2vs0mg"},{"bike_id":"e741f30c-f7c4-4a0a-821f-1b79968d8237","system_id":"levelo_inurba_marseille","lat":43.336111,"lon":5.409956,"is_reserved":false,"is_disabled":false,"rental_uris":{"android":"levelo://app?vid=e741f30c-f7c4-4a0a-821f-1b79968d8237","ios":"levelo://app?vid=e741f30c-f7c4-4a0a-821f-1b79968d8237"},"vehicle_type_id":"4","last_reported":1737274242,"current_range_meters":20400,"station_id":"ce4bhqh2rcd13ifvqhmg","pricing_plan_id":"cebpf4jnsgd1na2vs0mg"},{"bike_id":"ccd0901b-a948-44d9-829c-13279088edc9","system_id":"levelo_inurba_marseille","lat":43.29258,"lon":5.40909,"is_reserved":false,"is_disabled":false,"rental_uris":{"android":"levelo://app?vid=ccd0901b-a948-44d9-829c-13279088edc9","ios":"levelo://app?vid=ccd0901b-a948-44d9-829c-13279088edc9"},"vehicle_type_id":"4","last_reported":1737274242,"current_range_meters":28000,"station_id":"ce4bh192rcd13ifvqdc0","pricing_plan_id":"cebpf4jnsgd1na2vs0mg"},{"bike_id":"0d5bf58b-8962-4322-87c4-754920ec04ac","system_id":"levelo_inurba_marseille","lat":43.31183,"lon":5.38713,"is_reserved":false,"is_disabled":true,"rental_uris":{"android":"levelo://app?vid=0d5bf58b-8962-4322-87c4-754920ec04ac","ios":"levelo://app?vid=0d5bf58b-8962-4322-87c4-754920ec04ac"},"vehicle_type_id":"4","last_reported":1737274242,"current_range_meters":32800,"station_id":"ce4bgv12rcd13ifvqcp0","pricing_plan_id":"cebpf4jnsgd1na2vs0mg"},{"bike_id":"c92cbb9f-5a8c-4f30-b00a-221ba31b944d","system_id":"levelo_inurba_marseille","lat":43.28448,"lon":5.35002,"is_reserved":false,"is_disabled":true,"rental_uris":{"android":"levelo://app?vid=c92cbb9f-5a8c-4f30-b00a-221ba31b944d","ios":"levelo://app?vid=c92cbb9f-5a8c-4f30-b00a-221ba31b944d"},"vehicle_type_id":"4","last_reported":1737274242,"current_range_meters":32400,"station_id":"ce4bhbh2rcd13ifvqepg","pricing_plan_id":"cebpf4jnsgd1na2vs0mg"},{"bike_id":"41902fd9-fa18-46a4-b43c-51a2cb10a6db","system_id":"levelo_inurba_marseille","lat":43.303602,"lon":5.418936,"is_reserved":false,"is_disabled":false,"rental_uris":{"android":"levelo://app?vid=41902fd9-fa18-46a4-b43c-51a2cb10a6db","ios":"levelo://app?vid=41902fd9-fa18-46a4-b43c-51a2cb10a6db"},"vehicle_type_id":"4","last_reported":1737274242,"current_range_meters":38400,"station_id":"ce4bhop2rcd13ifvqh7g","pricing_plan_id":"cebpf4jnsgd1na2vs0mg"},{"bike_id":"4e35d48b-8446-4e2a-a4c2-e2ce4476ec82","system_id":"levelo_inurba_marseille","lat":43.284198,"lon":5.349923,"is_reserved":false,"is_disabled":false,"rental_uris":{"android":"levelo://app?vid=4e35d48b-8446-4e2a-a4c2-e2ce4476ec82","ios":"levelo://app?vid=4e35d48b-8446-4e2a-a4c2-e2ce4476ec82"},"vehicle_type_id":"4","last_reported":1737274242,"current_range_meters":30400,"station_id":"ce4bhbh2rcd13ifvqepg","pricing_plan_id":"cebpf4jnsgd1na2vs0mg"},{"bike_id":"d7c0872a-e6bf-430f-af66-52a0c0c846ba","system_id":"levelo_inurba_marseille","lat":43.290386,"lon":5.359263,"is_reserved":false,"is_disabled":false,"rental_uris":{"android":"levelo://app?vid=d7c0872a-e6bf-430f-af66-52a0c0c846ba","ios":"levelo://app?vid=d7c0872a-e6bf-430f-af66-52a0c0c846ba"},"vehicle_type_id":"4","last_reported":1737274242,"current_range_meters":16400,"station_id":"ce4bha92rcd13ifvqeg0","pricing_plan_id":"cebpf4jnsgd1na2vs0mg"},{"bike_id":"fe90f7a6-3920-456a-9451-50d213b7000f","system_id":"levelo_inurba_marseille","lat":43.284811,"lon":5.384376,"is_reserved":false,"is_disabled":true,"rental_uris":{"android":"levelo://app?vid=fe90f7a6-3920-456a-9451-50d213b7000f","ios":"levelo://app?vid=fe90f7a6-3920-456a-9451-50d213b7000f"},"vehicle_type_id":"4","last_reported":1737274242,"current_range_meters":33200,"station_id":"ce4bh512rcd13ifvqe3g","pricing_plan_id":"cebpf4jnsgd1na2vs0mg"},{"bike_id":"701eaa77-7a53-45d9-810d-85ea1065f324","system_id":"levelo_inurba_marseille","lat":43.31284,"lon":5.40181,"is_reserved":false,"is_disabled":false,"rental_uris":{"android":"levelo://app?vid=701eaa77-7a53-45d9-810d-85ea1065f324","ios":"levelo://app?vid=701eaa77-7a53-45d9-810d-85ea1065f324"},"vehicle_type_id":"4","last_reported":1737274242,"current_range_meters":38800,"station_id":"ce4bh092rcd13ifvqd30","pricing_plan_id":"cebpf4jnsgd1na2vs0mg"},{"bike_id":"919e93a6-0791-4d8a-9838-d57cbdc5d937","system_id":"levelo_inurba_marseille","lat":43.25105,"lon":5.40325,"is_reserved":false,"is_disabled":false,"rental_uris":{"android":"levelo://app?vid=919e93a6-0791-4d8a-9838-d57cbdc5d937","ios":"levelo://app?vid=919e93a6-0791-4d8a-9838-d57cbdc5d937"},"vehicle_type_id":"4","last_reported":1737274242,"current_range_meters":32000,"station_id":"ce4bhlh2rcd13ifvqgig","pricing_plan_id":"cebpf4jnsgd1na2vs0mg"},{"bike_id":"b2e5f39f-369e-4eff-87e9-360a19b541cc","system_id":"levelo_inurba_marseille","lat":43.29035,"lon":5.3995,"is_reserved":false,"is_disabled":false,"rental_uris":{"android":"levelo://app?vid=b2e5f39f-369e-4eff-87e9-360a19b541cc","ios":"levelo://app?vid=b2e5f39f-369e-4eff-87e9-360a19b541cc"},"vehicle_type_id":"4","last_reported":1737274242,"current_range_meters":28000,"station_id":"ce4bh392rcd13ifvqdm0","pricing_plan_id":"cebpf4jnsgd1na2vs0mg"},{"bike_id":"aeeb7245-8a7c-4b79-b9ac-efca69f7818a","system_id":"levelo_inurba_marseille","lat":43.32087,"lon":5.36794,"is_reserved":false,"is_disabled":false,"rental_uris":{"android":"levelo://app?vid=aeeb7245-8a7c-4b79-b9ac-efca69f7818a","ios":"levelo://app?vid=aeeb7245-8a7c-4b79-b9ac-efca69f7818a"},"vehicle_type_id":"4","last_reported":1737274242,"current_range_meters":22400,"station_id":"ce4bhrh2rcd13ifvqhug","pricing_plan_id":"cebpf4jnsgd1na2vs0mg"},{"bike_id":"0870bbda-c16c-498d-bd59-1063e9453e67","system_id":"levelo_inurba_marseille","lat":43.287088,"lon":5.399873,"is_reserved":false,"is_disabled":false,"rental_uris":{"android":"levelo://app?vid=0870bbda-c16c-498d-bd59-1063e9453e67","ios":"levelo://app?vid=0870bbda-c16c-498d-bd59-1063e9453e67"},"vehicle_type_id":"4","last_reported":1737274242,"current_range_meters":38400,"station_id":"ce4bho92rcd13ifvqh3g","pricing_plan_id":"cebpf4jnsgd1na2vs0mg"},{"bike_id":"8599ff9a-126a-4dad-8612-859b1ad7ee21","system_id":"levelo_inurba_marseille","lat":43.28945,"lon":5.36641,"is_reserved":false,"is_disabled":false,"rental_uris":{"android":"levelo://app?vid=8599ff9a-126a-4dad-8612-859b1ad7ee21","ios":"levelo://app?vid=8599ff9a-126a-4dad-8612-859b1ad7ee21"},"vehicle_type_id":"4","last_reported":1737274242,"current_range_meters":16800,"station_id":"","pricing_plan_id":"cebpf4jnsgd1na2vs0mg"},{"bike_id":"7b52e969-7498-42fb-aafb-034e09ca2f2a","system_id":"levelo_inurba_marseille","lat":43.30804,"lon":5.43542,"is_reserved":false,"is_disabled":false,"rental_uris":{"android":"levelo://app?vid=7b52e969-7498-42fb-aafb-034e09ca2f2a","ios":"levelo://app?vid=7b52e969-7498-42fb-aafb-034e09ca2f2a"},"vehicle_type_id":"4","last_reported":1737274242,"current_range_meters":30400,"station_id":"ce4bhph2rcd13ifvqheg","pricing_plan_id":"cebpf4jnsgd1na2vs0mg"},{"bike_id":"a9a0e60f-8e94-490a-988c-5a9cfc45d626","system_id":"levelo_inurba_marseille","lat":43.241682,"lon":5.363964,"is_reserved":false,"is_disabled":false,"rental_uris":{"android":"levelo://app?vid=a9a0e60f-8e94-490a-988c-5a9cfc45d626","ios":"levelo://app?vid=a9a0e60f-8e94-490a-988c-5a9cfc45d626"},"vehicle_type_id":"4","last_reported":1737274242,"current_range_meters":8400,"station_id":"cpo36qri1sfpv3e86is0","pricing_plan_id":"cebpf4jnsgd1na2vs0mg"},{"bike_id":"58884e6e-7975-42c3-9664-e0af9fd37610","system_id":"levelo_inurba_marseille","lat":43.2795,"lon":5.4166,"is_reserved":false,"is_disabled":false,"rental_uris":{"android":"levelo://app?vid=58884e6e-7975-42c3-9664-e0af9fd37610","ios":"levelo://app?vid=58884e6e-7975-42c3-9664-e0af9fd37610"},"vehicle_type_id":"4","last_reported":1737274242,"current_range_meters":27600,"station_id":"","pricing_plan_id":"cebpf4jnsgd1na2vs0mg"},{"bike_id":"89c1a652-9641-46a8-bf6a-f3b28b86db4b","system_id":"levelo_inurba_marseille","lat":43.240696,"lon":5.377544,"is_reserved":false,"is_disabled":false,"rental_uris":{"android":"levelo://app?vid=89c1a652-9641-46a8-bf6a-f3b28b86db4b","ios":"levelo://app?vid=89c1a652-9641-46a8-bf6a-f3b28b86db4b"},"vehicle_type_id":"4","last_reported":1737274242,"current_range_meters":9600,"station_id":"ce4bhnp2rcd13ifvqgvg","pricing_plan_id":"cebpf4jnsgd1na2vs0mg"},{"bike_id":"5136cca2-dc79-42d5-a096-5120a2626c68","system_id":"levelo_inurba_marseille","lat":43.30926,"lon":5.40148,"is_reserved":false,"is_disabled":false,"rental_uris":{"android":"levelo://app?vid=5136cca2-dc79-42d5-a096-5120a2626c68","ios":"levelo://app?vid=5136cca2-dc79-42d5-a096-5120a2626c68"},"vehicle_type_id":"4","last_reported":1737274242,"current_range_meters":38800,"station_id":"ce4bgvp2rcd13ifvqct0","pricing_plan_id":"cebpf4jnsgd1na2vs0mg"},{"bike_id":"76dbf6ef-b4a8-4cef-8918-462b67116819","system_id":"levelo_inurba_marseille","lat":43.32288,"lon":5.38272,"is_reserved":false,"is_disabled":false,"rental_uris":{"android":"levelo://app?vid=76dbf6ef-b4a8-4cef-8918-462b67116819","ios":"levelo://app?vid=76dbf6ef-b4a8-4cef-8918-462b67116819"},"vehicle_type_id":"4","last_reported":1737274242,"current_range_meters":38000,"station_id":"ce4bhr12rcd13ifvqhqg","pricing_plan_id":"cebpf4jnsgd1na2vs0mg"},{"bike_id":"820164e1-d741-4f5e-8323-9f339e4633fd","system_id":"levelo_inurba_marseille","lat":43.25712,"lon":5.41703,"is_reserved":false,"is_disabled":false,"rental_uris":{"android":"levelo://app?vid=820164e1-d741-4f5e-8323-9f339e4633fd","ios":"levelo://app?vid=820164e1-d741-4f5e-8323-9f339e4633fd"},"vehicle_type_id":"4","last_reported":1737274242,"current_range_meters":30800,"station_id":"","pricing_plan_id":"cebpf4jnsgd1na2vs0mg"},{"bike_id":"d5a4b84a-471f-4edb-a016-4dd0af7e2137","system_id":"levelo_inurba_marseille","lat":43.25859,"lon":5.39909,"is_reserved":false,"is_disabled":true,"rental_uris":{"android":"levelo://app?vid=d5a4b84a-471f-4edb-a016-4dd0af7e2137","ios":"levelo://app?vid=d5a4b84a-471f-4edb-a016-4dd0af7e2137"},"vehicle_type_id":"4","last_reported":1737274242,"current_range_meters":0,"station_id":"ce4bhl92rcd13ifvqghg","pricing_plan_id":"cebpf4jnsgd1na2vs0mg"},{"bike_id":"8c79a501-1f9a-49ec-b787-7aa7d6b56a53","system_id":"levelo_inurba_marseille","lat":43.30416,"lon":5.41287,"is_reserved":false,"is_disabled":false,"rental_uris":{"android":"levelo://app?vid=8c79a501-1f9a-49ec-b787-7aa7d6b56a53","ios":"levelo://app?vid=8c79a501-1f9a-49ec-b787-7aa7d6b56a53"},"vehicle_type_id":"4","last_reported":1737274242,"current_range_meters":38800,"station_id":"ce4bhop2rcd13ifvqh8g","pricing_plan_id":"cebpf4jnsgd1na2vs0mg"},{"bike_id":"4cb68426-8da2-4c31-9cb8-0779a8fd0d03","system_id":"levelo_inurba_marseille","lat":43.27898,"lon":5.38016,"is_reserved":false,"is_disabled":false,"rental_uris":{"android":"levelo://app?vid=4cb68426-8da2-4c31-9cb8-0779a8fd0d03","ios":"levelo://app?vid=4cb68426-8da2-4c31-9cb8-0779a8fd0d03"},"vehicle_type_id":"4","last_reported":1737274242,"current_range_meters":38000,"station_id":"ce4bhf92rcd13ifvqf50","pricing_plan_id":"cebpf4jnsgd1na2vs0mg"},