{"last_updated":1713841691,"ttl":30,"version":"2.2","data":{"bikes":[{"bike_id":"6b721cc9-8a81-483d-b34f-56b99258065e","system_id":"levelo_inurba_marseille","lat":43.312239,"lon":5.368562,"is_reserved":false,"is_disabled":false,"rental_uris":{"android":"levelo://app?vid=6b721cc9-8a81-483d-b34f-56b99258065e","ios":"levelo://app?vid=6b721cc9-8a81-483d-b34f-56b99258065e"},"vehicle_type_id":"4","last_reported":1713841691,"current_range_meters":26400,"station_id":"ce4bgl92rcd13ifvqbq0","pricing_plan_id":"cebpf4jnsgd1na2vs0mg"},{"bike_id":"58621b55-a269-49d0-b608-a7ac8c3b34ee","system_id":"levelo_inurba_marseille","lat":43.312239,"lon":5.368562,"is_reserved":false,"is_disabled":false,"rental_uris":{"android":"levelo://app?vid=58621b55-a269-49d0-b608-a7ac8c3b34ee","ios":"levelo://app?vid=58621b55-a269-49d0-b608-a7ac8c3b34ee"},"vehicle_type_id":"4","last_reported":1713841691,"current_range_meters":30800,"station_id":"ce4bgl92rcd13ifvqbq0","pricing_plan_id":"cebpf4jnsgd1na2vs0mg"},{"bike_id":"99f910e8-01ab-4ca6-ae2a-fa9ab014571d","system_id":"levelo_inurba_marseille","lat":43.309076,"lon":5.368465,"is_reserved":false,"is_disabled":false,"rental_uris":{"android":"levelo://app?vid=99f910e8-01ab-4ca6-ae2a-fa9ab014571d","ios":"levelo://app?vid=99f910e8-01ab-4ca6-ae2a-fa9ab014571d"},"vehicle_type_id":"4","last_reported":1713841691,"current_range_meters":28800,"station_id":"ce4bgn92rcd13ifvqbvg","pricing_plan_id":"cebpf4jnsgd1na2vs0mg"},{"bike_id":"a93041cd-c6b7-4f49-b656-87ee356bf43f","system_id":"levelo_inurba_marseille","lat":43.314811,"lon":5.373103,"is_reserved":false,"is_disabled":false,"rental_uris":{"android":"levelo://app?vid=a93041cd-c6b7-4f49-b656-87ee356bf43f","ios":"levelo://app?vid=a93041cd-c6b7-4f49-b656-87ee356bf43f"},"vehicle_type_id":"4","last_reported":1713841691,"current_range_meters":24800,"station_id":"ce4bgt12rcd13ifvqcd0","pricing_plan_id":"cebpf4jnsgd1na2vs0mg"},{"bike_id":"0be82b9a-1561-4044-8322-fe06b1711dd0","system_id":"levelo_inurba_marseille","lat":43.314811,"lon":5.373103,"is_reserved":false,"is_disabled":false,"rental_uris":{"android":"levelo://app?vid=0be82b9a-1561-4044-8322-fe06b1711dd0","ios":"levelo://app?vid=0be82b9a-1561-4044-8322-fe06b1711dd0"},"vehicle_type_id":"4","last_reported":1713841691,"current_range_meters":3600,"station_id":"ce4bgt12rcd13ifvqcd0","pricing_plan_id":"cebpf4jnsgd1na2vs0mg"},{"bike_id":"cb5e7be0-9e24-4c02-90c4-dfc813bad657","system_id":"levelo_inurba_marseille","lat":43.309039,"lon":5.371797,"is_reserved":false,"is_disabled":false,"rental_uris":{"android":"levelo://app?vid=cb5e7be0-9e24-4c02-90c4-dfc813bad657","ios":"levelo://app?vid=cb5e7be0-9e24-4c02-90c4-dfc813bad657"},"vehicle_type_id":"4","last_reported":1713841691,"current_range_meters":31200,"station_id":"ce4bguh2rcd13ifvqckg","pricing_plan_id":"cebpf4jnsgd1na2vs0mg"},{"bike_id":"1b914e00-f197-4c7b-b82f-a8c1ab83dbd1","system_id":"levelo_inurba_marseille","lat":43.309039,"lon":5.371797,"is_reserved":false,"is_disabled":false,"rental_uris":{"android":"levelo://app?vid=1b914e00-f197-4c7b-b82f-a8c1ab83dbd1","ios":"levelo://app?vid=1b914e00-f197-4c7b-b82f-a8c1ab83dbd1"},"vehicle_type_id":"4","last_reported":1713841691,"current_range_meters":14400,"station_id":"ce4bguh2rcd13ifvqckg","pricing_plan_id":"cebpf4jnsgd1na2vs0mg"},{"bike_id":"f3c8e660-adb7-448d-9d5d-55a0433da1f6","system_id":"levelo_inurba_marseille","lat":43.309039,"lon":5.371797,"is_reserved":false,"is_disabled":false,"rental_uris":{"android":"levelo://app?vid=f3c8e660-adb7-448d-9d5d-55a0433da1f6","ios":"levelo://app?vid=f3c8e660-adb7-448d-9d5d-55a0433da1f6"},"vehicle_type_id":"4","last_reported":1713841691,"current_range_meters":22000,"station_id":"ce4bguh2rcd13ifvqckg","pricing_plan_id":"cebpf4jnsgd1na2vs0mg"},{"bike_id":"01297242-f819-4e00-9e6e-24e4b3ee8d60","system_id":"levelo_inurba_marseille","lat":43.30886,"lon":5.372016,"is_reserved":false,"is_disabled":false,"rental_uris":{"android":"levelo://app?vid=01297242-f819-4e00-9e6e-24e4b3ee8d60","ios":"levelo://app?vid=01297242-f819-4e00-9e6e-24e4b3ee8d60"},"vehicle_type_id":"4","last_reported":1713841691,"current_range_meters":17600,"station_id":"ce4bguh2rcd13ifvqckg","pricing_plan_id":"cebpf4jnsgd1na2vs0mg"},{"bike_id":"2bb2517d-37b4-4ccc-beb8-a7d081ac19ea","system_id":"levelo_inurba_marseille","lat":43.30537,"lon":5.367345,"is_reserved":false,"is_disabled":false,"rental_uris":{"android":"levelo://app?vid=2bb2517d-37b4-4ccc-beb8-a7d081ac19ea","ios":"levelo://app?vid=2bb2517d-37b4-4ccc-beb8-a7d081ac19ea"},"vehicle_type_id":"4","last_reported":1713841691,"current_range_meters":27200,"station_id":"ce4bgrp2rcd13ifvqc9g","pricing_plan_id":"cebpf4jnsgd1na2vs0mg"},{"bike_id":"ae9dbb51-859f-49f8-8ced-145029a98162","system_id":"levelo_inurba_marseille","lat":43.30537,"lon":5.367345,"is_reserved":false,"is_disabled":false,"rental_uris":{"android":"levelo://app?vid=ae9dbb51-859f-49f8-8ced-145029a98162","ios":"levelo://app?vid=ae9dbb51-859f-49f8-8ced-145029a98162"},"vehicle_type_id":"4","last_reported":1713841691,"current_range_meters":20400,"station_id":"ce4bgrp2rcd13ifvqc9g","pricing_plan_id":"cebpf4jnsgd1na2vs0mg"},{"bike_id":"828f0807-fe1c-4e0a-b9fa-e5b7d079789e","system_id":"levelo_inurba_marseille","lat":43.305383,"lon":5.366927,"is_reserved":false,"is_disabled":false,"rental_uris":{"android":"levelo://app?vid=828f0807-fe1c-4e0a-b9fa-e5b7d079789e","ios":"levelo://app?vid=828f0807-fe1c-4e0a-b9fa-e5b7d079789e"},"vehicle_type_id":"4","last_reported":1713841691,"current_range_meters":4800,"station_id":"ce4bgrp2rcd13ifvqc9g","pricing_plan_id":"cebpf4jnsgd1na2vs0mg"},{"bike_id":"396776d0-5752-4c34-a9b1-084519584274","system_id":"levelo_inurba_marseille","lat":43.305989,"lon":5.37225,"is_reserved":false,"is_disabled":false,"rental_uris":{"android":"levelo://app?vid=396776d0-5752-4c34-a9b1-084519584274","ios":"levelo://app?vid=396776d0-5752-4c34-a9b1-084519584274"},"vehicle_type_id":"4","last_reported":1713841691,"current_range_meters":4000,"station_id":"ce4bgqh2rcd13ifvqc4g","pricing_plan_id":"cebpf4jnsgd1na2vs0mg"},{"bike_id":"96dd9577-c6cb-448e-b6bf-d3bd72ec0bd8","system_id":"levelo_inurba_marseille","lat":43.305989,"lon":5.37225,"is_reserved":false,"is_disabled":false,"rental_uris":{"android":"levelo://app?vid=96dd9577-c6cb-448e-b6bf-d3bd72ec0bd8","ios":"levelo://app?vid=96dd9577-c6cb-448e-b6bf-d3bd72ec0bd8"},"vehicle_type_id":"4","last_reported":1713841691,"current_range_meters":31200,"station_id":"ce4bgqh2rcd13ifvqc4g","pricing_plan_id":"cebpf4jnsgd1na2vs0mg"},{"bike_id":"00da64fc-7223-4831-b851-c768f3c889c0","system_id":"levelo_inurba_marseille","lat":43.305989,"lon":5.37225,"is_reserved":false,"is_disabled":false,"rental_uris":{"android":"levelo://app?vid=00da64fc-7223-4831-b851-c768f3c889c0","ios":"levelo://app?vid=00da64fc-7223-4831-b851-c768f3c889c0"},"vehicle_type_id":"4","last_reported":1713841691,"current_range_meters":6000,"station_id":"ce4bgqh2rcd13ifvqc4g","pricing_plan_id":"cebpf4jnsgd1na2vs0mg"},{"bike_id":"26b12c9d-88a1-4a9c-90fd-bafa8957f4c7","system_id":"levelo_inurba_marseille","lat":43.305989,"lon":5.37225,"is_reserved":false,"is_disabled":false,"rental_uris":{"android":"levelo://app?vid=26b12c9d-88a1-4a9c-90fd-bafa8957f4c7","ios":"levelo://app?vid=26b12c9d-88a1-4a9c-90fd-bafa8957f4c7"},"vehicle_type_id":"4","last_reported":1713841691,"current_range_meters":7200,"station_id":"ce4bgqh2rcd13ifvqc4g","pricing_plan_id":"cebpf4jnsgd1na2vs0mg"},{"bike_id":"579da789-7881-4f27-9616-62580396c4f1","system_id":"levelo_inurba_marseille","lat":43.311131,"lon":5.377651,"is_reserved":false,"is_disabled":false,"rental_uris":{"android":"levelo://app?vid=579da789-7881-4f27-9616-62580396c4f1","ios":"levelo://app?vid=579da789-7881-4f27-9616-62580396c4f1"},"vehicle_type_id":"4","last_reported":1713841691,"current_range_meters":11200,"station_id":"ce4bgt92rcd13ifvqcg0","pricing_plan_id":"cebpf4jnsgd1na2vs0mg"},{"bike_id":"d4eb8c8b-5f5f-4917-b4b4-3e5b23cd30e6","system_id":"levelo_inurba_marseille","lat":43.31116,"lon":5.377622,"is_reserved":false,"is_disabled":false,"rental_uris":{"android":"levelo://app?vid=d4eb8c8b-5f5f-4917-b4b4-3e5b23cd30e6","ios":"levelo://app?vid=d4eb8c8b-5f5f-4917-b4b4-3e5b23cd30e6"},"vehicle_type_id":"4","last_reported":1713841691,"current_range_meters":24800,"station_id":"ce4bgt92rcd13ifvqcg0","pricing_plan_id":"cebpf4jnsgd1na2vs0mg"},{"bike_id":"b0c32b44-feaf-435c-a091-c44b0cb45308","system_id":"levelo_inurba_marseille","lat":43.311125,"lon":5.377624,"is_reserved":false,"is_disabled":false,"rental_uris":{"android":"levelo://app?vid=b0c32b44-feaf-435c-a091-c44b0cb45308","ios":"levelo://app?vid=b0c32b44-feaf-435c-a091-c44b0cb45308"},"vehicle_type_id":"4","last_reported":1713841691,"current_range_meters":22000,"station_id":"ce4bgt92rcd13ifvqcg0","pricing_plan_id":"cebpf4jnsgd1na2vs0mg"},{"bike_id":"704f465e-073b-4f67-ae7e-676bb1da07e1","system_id":"levelo_inurba_marseille","lat":43.311125,"lon":5.377624,"is_reserved":false,"is_disabled":false,"rental_uris":{"android":"levelo://app?vid=704f465e-073b-4f67-ae7e-676bb1da07e1","ios":"levelo://app?vid=704f465e-073b-4f67-ae7e-676bb1da07e1"},"vehicle_type_id":"4","last_reported":1713841691,"current_range_meters":27600,"station_id":"ce4bgt92rcd13ifvqcg0","pricing_plan_id":"cebpf4jnsgd1na2vs0mg"},{"bike_id":"b974460a-3963-48d2-a0a0-1e01e825e481","system_id":"levelo_inurba_marseille","lat":43.311125,"lon":5.377624,"is_reserved":false,"is_disabled":false,"rental_uris":{"android":"levelo://app?vid=b974460a-3963-48d2-a0a0-1e01e825e481","ios":"levelo://app?vid=b974460a-3963-48d2-a0a0-1e01e825e481"},"vehicle_type_id":"4","last_reported":1713841691,"current_range_meters":25200,"station_id":"ce4bgt92rcd13ifvqcg0","pricing_plan_id":"cebpf4jnsgd1na2vs0mg"},{"bike_id":"fbfd5276-cf0e-4340-8fdd-bd8fe4444451","system_id":"levelo_inurba_marseille","lat":43.311131,"lon":5.377651,"is_reserved":false,"is_disabled":false,"rental_uris":{"android":"levelo://app?vid=fbfd5276-cf0e-4340-8fdd-bd8fe4444451","ios":"levelo://app?vid=fbfd5276-cf0e-4340-8fdd-bd8fe4444451"},"vehicle_type_id":"4","last_reported":1713841691,"current_range_meters":31200,"station_id":"ce4bgt92rcd13ifvqcg0","pricing_plan_id":"cebpf4jnsgd1na2vs0mg"},{"bike_id":"754fdf76-2c1d-4739-bef9-d22ecb349f48","system_id":"levelo_inurba_marseille","lat":43.307945,"lon":5.376487,"is_reserved":false,"is_disabled":false,"rental_uris":{"android":"levelo://app?vid=754fdf76-2c1d-4739-bef9-d22ecb349f48","ios":"levelo://app?vid=754fdf76-2c1d-4739-bef9-d22ecb349f48"},"vehicle_type_id":"4","last_reported":1713841691,"current_range_meters":29200,"station_id":"ce4bgv92rcd13ifvqcq0","pricing_plan_id":"cebpf4jnsgd1na2vs0mg"},{"bike_id":"2577fb2a-9dc6-4b39-abe2-3b818e9d97a9","system_id":"levelo_inurba_marseille","lat":43.307945,"lon":5.376487,"is_reserved":false,"is_disabled":false,"rental_uris":{"android":"levelo://app?vid=2577fb2a-9dc6-4b39-abe2-3b818e9d97a9","ios":"levelo://app?vid=2577fb2a-9dc6-4b39-abe2-3b818e9d97a9"},"vehicle_type_id":"4","last_reported":1713841691,"current_range_meters":28800,"station_id":"ce4bgv92rcd13ifvqcq0","pricing_plan_id":"cebpf4jnsgd1na2vs0mg"},{"bike_id":"7bd9dcd7-cfa4-4720-b545-724872c01541","system_id":"levelo_inurba_marseille","lat":43.317159,"lon":5.377487,"is_reserved":false,"is_disabled":false,"rental_uris":{"android":"levelo://app?vid=7bd9dcd7-cfa4-4720-b545-724872c01541","ios":"levelo://app?vid=7bd9dcd7-cfa4-4720-b545-724872c01541"},"vehicle_type_id":"4","last_reported":1713841691,"current_range_meters":24400,"station_id":"ce4bgth2rcd13ifvqch0","pricing_plan_id":"cebpf4jnsgd1na2vs0mg"},{"bike_id":"3385ee2a-c550-4633-ade2-dfbb928c531a","system_id":"levelo_inurba_marseille","lat":43.317075,"lon":5.377367,"is_reserved":false,"is_disabled":false,"rental_uris":{"android":"levelo://app?vid=3385ee2a-c550-4633-ade2-dfbb928c531a","ios":"levelo://app?vid=3385ee2a-c550-4633-ade2-dfbb928c531a"},"vehicle_type_id":"4","last_reported":1713841691,"current_range_meters":30800,"station_id":"ce4bgth2rcd13ifvqch0","pricing_plan_id":"cebpf4jnsgd1na2vs0mg"},{"bike_id":"19f25d95-5e6f-4551-b0a3-5110d01f16de","system_id":"levelo_inurba_marseille","lat":43.303046,"lon":5.368981,"is_reserved":false,"is_disabled":false,"rental_uris":{"android":"levelo://app?vid=19f25d95-5e6f-4551-b0a3-5110d01f16de","ios":"levelo://app?vid=19f25d95-5e6f-4551-b0a3-5110d01f16de"},"vehicle_type_id":"4","last_reported":1713841691,"current_range_meters":27200,"station_id":"ce4bgqh2rcd13ifvqc5g","pricing_plan_id":"cebpf4jnsgd1na2vs0mg"},{"bike_id":"0a43eaf1-ee84-49ef-8698-eb1429bb9512","system_id":"levelo_inurba_marseille","lat":43.303046,"lon":5.368981,"is_reserved":false,"is_disabled":false,"rental_uris":{"android":"levelo://app?vid=0a43eaf1-ee84-49ef-8698-eb1429bb9512","ios":"levelo://app?vid=0a43eaf1-ee84-49ef-8698-eb1429bb9512"},"vehicle_type_id":"4","last_reported":1713841691,"current_range_meters":10800,"station_id":"ce4bgqh2rcd13ifvqc5g","pricing_plan_id":"cebpf4jnsgd1na2vs0mg"},{"bike_id":"39aaf6d0-7a08-48b6-864c-b572e27b7b16","system_id":"levelo_inurba_marseille","lat":43.305184,"lon":5.37539,"is_reserved":false,"is_disabled":false,"rental_uris":{"android":"levelo://app?vid=39aaf6d0-7a08-48b6-864c-b572e27b7b16","ios":"levelo://app?vid=39aaf6d0-7a08-48b6-864c-b572e27b7b16"},"vehicle_type_id":"4","last_reported":1713841691,"current_range_meters":8400,"station_id":"","pricing_plan_id":"cebpf4jnsgd1na2vs0mg"},{"bike_id":"206a6d29-401f-46b3-b878-6d387e8710ad","system_id":"levelo_inurba_marseille","lat":43.30304,"lon":5.368987,"is_reserved":false,"is_disabled":false,"rental_uris":{"android":"levelo://app?vid=206a6d29-401f-46b3-b878-6d387e8710ad","ios":"levelo://app?vid=206a6d29-401f-46b3-b878-6d387e8710ad"},"vehicle_type_id":"4","last_reported":1713841691,"current_range_meters":22800,"station_id":"ce4bgqh2rcd13ifvqc5g","pricing_plan_id":"cebpf4jnsgd1na2vs0mg"},{"bike_id":"83bf7651-e56e-4c73-b2df-f0860658554c","system_id":"levelo_inurba_marseille","lat":43.315289,"lon":5.380349,"is_reserved":false,"is_disabled":false,"rental_uris":{"android":"levelo://app?vid=83bf7651-e56e-4c73-b2df-f0860658554c","ios":"levelo://app?vid=83bf7651-e56e-4c73-b2df-f0860658554c"},"vehicle_type_id":"4","last_reported":1713841691,"current_range_meters":7600,"station_id":"ce4bhsp2rcd13ifvqi50","pricing_plan_id":"cebpf4jnsgd1na2vs0mg"},{"bike_id":"3fe57c5f-ad80-4997-b059-460e086c908f","system_id":"levelo_inurba_marseille","lat":43.315289,"lon":5.380349,"is_reserved":false,"is_disabled":false,"rental_uris":{"android":"levelo://app?vid=3fe57c5f-ad80-4997-b059-460e086c908f","ios":"levelo://app?vid=3fe57c5f-ad80-4997-b059-460e086c908f"},"vehicle_type_id":"4","last_reported":1713841691,"current_range_meters":31200,"station_id":"ce4bhsp2rcd13ifvqi50","pricing_plan_id":"cebpf4jnsgd1na2vs0mg"},{"bike_id":"a9e8ec94-fa8e-4599-a1e2-aca13c0d132e","system_id":"levelo_inurba_marseille","lat":43.315289,"lon":5.380349,"is_reserved":false,"is_disabled":false,"rental_uris":{"android":"levelo://app?vid=a9e8ec94-fa8e-4599-a1e2-aca13c0d132e","ios":"levelo://app?vid=a9e8ec94-fa8e-4599-a1e2-aca13c0d132e"},"vehicle_type_id":"4","last_reported":1713841691,"current_range_meters":14000,"station_id":"ce4bhsp2rcd13ifvqi50","pricing_plan_id":"cebpf4jnsgd1na2vs0mg"},{"bike_id":"04a52809-4714-4f3c-866f-faa7c2ffb546","system_id":"levelo_inurba_marseille","lat":43.315289,"lon":5.380349,"is_reserved":false,"is_disabled":false,"rental_uris":{"android":"levelo://app?vid=04a52809-4714-4f3c-866f-faa7c2ffb546","ios":"levelo://app?vid=04a52809-4714-4f3c-866f-faa7c2ffb546"},"vehicle_type_id":"4","last_reported":1713841691,"current_range_meters":29600,"station_id":"ce4bhsp2rcd13ifvqi50","pricing_plan_id":"cebpf4jnsgd1na2vs0mg"},{"bike_id":"76772df6-7021-4bfc-8ded-6f9bc577e6bc","system_id":"levelo_inurba_marseille","lat":43.315289,"lon":5.380349,"is_reserved":false,"is_disabled":false,"rental_uris":{"android":"levelo://app?vid=76772df6-7021-4bfc-8ded-6f9bc577e6bc","ios":"levelo://app?vid=76772df6-7021-4bfc-8ded-6f9bc577e6bc"},"vehicle_type_id":"4","last_reported":1713841691,"current_range_meters":25200,"station_id":"ce4bhsp2rcd13ifvqi50","pricing_plan_id":"cebpf4jnsgd1na2vs0mg"},{"bike_id":"cf8ba942-38b6-49bf-a232-6f94025c7074","system_id":"levelo_inurba_marseille","lat":43.315293,"lon":5.380349,"is_reserved":false,"is_disabled":false,"rental_uris":{"android":"levelo://app?vid=cf8ba942-38b6-49bf-a232-6f94025c7074","ios":"levelo://app?vid=cf8ba942-38b6-49bf-a232-6f94025c7074"},"vehicle_type_id":"4","last_reported":1713841691,"current_range_meters":26400,"station_id":"ce4bhsp2rcd13ifvqi50","pricing_plan_id":"cebpf4jnsgd1na2vs0mg"},{"bike_id":"86a4c3b9-2fa6-4ec1-8814-ca9ca261329d","system_id":"levelo_inurba_marseille","lat":43.315293,"lon":5.380349,"is_reserved":false,"is_disabled":false,"rental_uris":{"android":"levelo://app?vid=86a4c3b9-2fa6-4ec1-8814-ca9ca261329d","ios":"levelo://app?vid=86a4c3b9-2fa6-4ec1-8814-ca9ca261329d"},"vehicle_type_id":"4","last_reported":1713841691,"current_range_meters":30800,"station_id":"ce4bhsp2rcd13ifvqi50","pricing_plan_id":"cebpf4jnsgd1na2vs0mg"},{"bike_id":"c45e9593-4f2b-4dec-8331-bd3e3921e58c","system_id":"levelo_inurba_marseille","lat":43.3019,"lon":5.36614,"is_reserved":false,"is_disabled":false,"rental_uris":{"android":"levelo://app?vid=c45e9593-4f2b-4dec-8331-bd3e3921e58c","ios":"levelo://app?vid=c45e9593-4f2b-4dec-8331-bd3e3921e58c"},"vehicle_type_id":"4","last_reported":1713841691,"current_range_meters":22000,"station_id":"ce4bgrh2rcd13ifvqc8g","pricing_plan_id":"cebpf4jnsgd1na2vs0mg"},{"bike_id":"b53e183a-dd76-4abb-8f8a-e829e71109f0","system_id":"levelo_inurba_marseille","lat":43.301939,"lon":5.366286,"is_reserved":false,"is_disabled":false,"rental_uris":{"android":"levelo://app?vid=b53e183a-dd76-4abb-8f8a-e829e71109f0","ios":"levelo://app?vid=b53e183a-dd76-4abb-8f8a-e829e71109f0"},"vehicle_type_id":"4","last_reported":1713841691,"current_range_meters":16000,"station_id":"ce4bgrh2rcd13ifvqc8g","pricing_plan_id":"cebpf4jnsgd1na2vs0mg"},{"bike_id":"37ca75cf-073d-4343-a280-3bede96370bb","system_id":"levelo_inurba_marseille","lat":43.301939,"lon":5.366286,"is_reserved":false,"is_disabled":false,"rental_uris":{"android":"levelo://app?vid=37ca75cf-073d-4343-a280-3bede96370bb","ios":"levelo://app?vid=37ca75cf-073d-4343-a280-3bede96370bb"},"vehicle_type_id":"4","last_reported":1713841691,"current_range_meters":30000,"station_id":"ce4bgrh2rcd13ifvqc8g","pricing_plan_id":"cebpf4jnsgd1na2vs0mg"},{"bike_id":"25d3b51a-ac6d-477a-bf4f-16b642a53050","system_id":"levelo_inurba_marseille","lat":43.306431,"lon":5.380196,"is_reserved":false,"is_disabled":false,"rental_uris":{"android":"levelo://app?vid=25d3b51a-ac6d-477a-bf4f-16b642a53050","ios":"levelo://app?vid=25d3b51a-ac6d-477a-bf4f-16b642a53050"},"vehicle_type_id":"4","last_reported":1713841691,"current_range_meters":12400,"station_id":"","pricing_plan_id":"cebpf4jnsgd1na2vs0mg"},{"bike_id":"3c208ef6-ab16-44fa-b4ab-cdf0cc525e98","system_id":"levelo_inurba_marseille","lat":43.308012,"lon":5.381511,"is_reserved":false,"is_disabled":false,"rental_uris":{"android":"levelo://app?vid=3c208ef6-ab16-44fa-b4ab-cdf0cc525e98","ios":"levelo://app?vid=3c208ef6-ab16-44fa-b4ab-cdf0cc525e98"},"vehicle_type_id":"4","last_reported":1713841691,"current_range_meters":14000,"station_id":"ce4bgt12rcd13ifvqce0","pricing_plan_id":"cebpf4jnsgd1na2vs0mg"},{"bike_id":"9e6bc310-05ce-4550-83d7-66ed8fa972b4","system_id":"levelo_inurba_marseille","lat":43.308012,"lon":5.381511,"is_reserved":false,"is_disabled":false,"rental_uris":{"android":"levelo://app?vid=9e6bc310-05ce-4550-83d7-66ed8fa972b4","ios":"levelo://app?vid=9e6bc310-05ce-4550-83d7-66ed8fa972b4"},"vehicle_type_id":"4","last_reported":1713841691,"current_range_meters":31200,"station_id":"ce4bgt12rcd13ifvqce0","pricing_plan_id":"cebpf4jnsgd1na2vs0mg"},{"bike_id":"4e0da47c-c93c-4bbf-a385-b539b95c4f0c","system_id":"levelo_inurba_marseille","lat":43.308012,"lon":5.381511,"is_reserved":false,"is_disabled":false,"rental_uris":{"android":"levelo://app?vid=4e0da47c-c93c-4bbf-a385-b539b95c4f0c","ios":"levelo://app?vid=4e0da47c-c93c-4bbf-a385-b539b95c4f0c"},"vehicle_type_id":"4","last_reported":1713841691,"current_range_meters":22800,"station_id":"ce4bgt12rcd13ifvqce0","pricing_plan_id":"cebpf4jnsgd1na2vs0mg"},{"bike_id":"7d3296cb-aef5-4cae-9c4e-a8c8385105cf","system_id":"levelo_inurba_marseille","lat":43.308012,"lon":5.381511,"is_reserved":false,"is_disabled":false,"rental_uris":{"android":"levelo://app?vid=7d3296cb-aef5-4cae-9c4e-a8c8385105cf","ios":"levelo://app?vid=7d3296cb-aef5-4cae-9c4e-a8c8385105cf"},"vehicle_type_id":"4","last_reported":1713841691,"current_range_meters":27200,"station_id":"ce4bgt12rcd13ifvqce0","pricing_plan_id":"cebpf4jnsgd1na2vs0mg"},{"bike_id":"6f6bcd9d-1e52-4d72-8f10-daa2588803c1","system_id":"levelo_inurba_marseille","lat":43.308012,"lon":5.381511,"is_reserved":false,"is_disabled":false,"rental_uris":{"android":"levelo://app?vid=6f6bcd9d-1e52-4d72-8f10-daa2588803c1","ios":"levelo://app?vid=6f6bcd9d-1e52-4d72-8f10-daa2588803c1"},"vehicle_type_id":"4","last_reported":1713841691,"current_range_meters":31200,"station_id":"ce4bgt12rcd13ifvqce0","pricing_plan_id":"cebpf4jnsgd1na2vs0mg"},{"bike_id":"3efc55b7-e935-4b20-b410-a9ad3b7102dd","system_id":"levelo_inurba_marseille","lat":43.308012,"lon":5.381511,"is_reserved":false,"is_disabled":false,"rental_uris":{"android":"levelo://app?vid=3efc55b7-e935-4b20-b410-a9ad3b7102dd","ios":"levelo://app?vid=3efc55b7-e935-4b20-b410-a9ad3b7102dd"},"vehicle_type_id":"4","last_reported":1713841691,"current_range_meters":16800,"station_id":"ce4bgt12rcd13ifvqce0","pricing_plan_id":"cebpf4jnsgd1na2vs0mg"},{"bike_id":"baac2558-1b5a-4e9c-b2c5-8f43ab46ec78","system_id":"levelo_inurba_marseille","lat":43.308012,"lon":5.381511,"is_reserved":false,"is_disabled":false,"rental_uris":{"android":"levelo://app?vid=baac2558-1b5a-4e9c-b2c5-8f43ab46ec78","ios":"levelo://app?vid=baac2558-1b5a-4e9c-b2c5-8f43ab46ec78"},"vehicle_type_id":"4","last_reported":1713841691,"current_range_meters":21200,"station_id":"ce4bgt12rcd13ifvqce0","pricing_plan_id":"cebpf4jnsgd1na2vs0mg"},{"bike_id":"b202ebec-687a-4293-baaf-7ad4730a6cac","system_id":"levelo_inurba_marseille","lat":43.308012,"lon":5.381511,"is_reserved":false,"is_disabled":false,"rental_uris":{"android":"levelo://app?vid=b202ebec-687a-4293-baaf-7ad4730a6cac","ios":"levelo://app?vid=b202ebec-687a-4293-baaf-7ad4730a6cac"},"vehicle_type_id":"4","last_reported":1713841691,"current_range_meters":27600,"station_id":"ce4bgt12rcd13ifvqce0","pricing_plan_id":"cebpf4jnsgd1na2vs0mg"},{"bike_id":"d283e913-e0fc-4c2c-8899-fd9c211899cb","system_id":"levelo_inurba_marseille","lat":43.308012,"lon":5.381511,"is_reserved":false,"is_disabled":false,"rental_uris":{"android":"levelo://app?vid=d283e913-e0fc-4c2c-8899-fd9c211899cb","ios":"levelo://app?vid=d283e913-e0fc-4c2c-8899-fd9c211899cb"},"vehicle_type_id":"4","last_reported":1713841691,"current_range_meters":18000,"station_id":"ce4bgt12rcd13ifvqce0","pricing_plan_id":"cebpf4jnsgd1na2vs0mg"},{"bike_id":"5854da98-282e-46ec-82b6-2d88c16ded3b","system_id":"levelo_inurba_marseille","lat":43.308012,"lon":5.381511,"is_reserved":false,"is_disabled":false,"rental_uris":{"android":"levelo://app?vid=5854da98-282e-46ec-82b6-2d88c16ded3b","ios":"levelo://app?vid=5854da98-282e-46ec-82b6-2d88c16ded3b"},"vehicle_type_id":"4","last_reported":1713841691,"current_range_meters":23600,"station_id":"ce4bgt12rcd13ifvqce0","pricing_plan_id":"cebpf4jnsgd1na2vs0mg"},{"bike_id":"7d6c472f-0085-4396-a9c3-3298c846a3be","system_id":"levelo_inurba_marseille","lat":43.304606,"lon":5.379026,"is_reserved":false,"is_disabled":false,"rental_uris":{"android":"levelo://app?vid=7d6c472f-0085-4396-a9c3-3298c846a3be","ios":"levelo://app?vid=7d6c472f-0085-4396-a9c3-3298c846a3be"},"vehicle_type_id":"4","last_reported":1713841691,"current_range_meters":30400,"station_id":"ce4bgup2rcd13ifvqcn0","pricing_plan_id":"cebpf4jnsgd1na2vs0mg"},{"bike_id":"588cc68b-5b45-4d7a-8487-5fa9d91577ef","system_id":"levelo_inurba_marseille","lat":43.304606,"lon":5.379026,"is_reserved":false,"is_disabled":false,"rental_uris":{"android":"levelo://app?vid=588cc68b-5b45-4d7a-8487-5fa9d91577ef","ios":"levelo://app?vid=588cc68b-5b45-4d7a-8487-5fa9d91577ef"},"vehicle_type_id":"4","last_reported":1713841691,"current_range_meters":14400,"station_id":"ce4bgup2rcd13ifvqcn0","pricing_plan_id":"cebpf4jnsgd1na2vs0mg"},{"bike_id":"902ff35f-ae95-47ae-b594-ff1dbc66ef66","system_id":"levelo_inurba_marseille","lat":43.304606,"lon":5.379026,"is_reserved":false,"is_disabled":false,"rental_uris":{"android":"levelo://app?vid=902ff35f-ae95-47ae-b594-ff1dbc66ef66","ios":"levelo://app?vid=902ff35f-ae95-47ae-b594-ff1dbc66ef66"},"vehicle_type_id":"4","last_reported":1713841691,"current_range_meters":12400,"station_id":"ce4bgup2rcd13ifvqcn0","pricing_plan_id":"cebpf4jnsgd1na2vs0mg"},{"bike_id":"cd63eedf-0a4e-4fff-b335-e0408c7916c8","system_id":"levelo_inurba_marseille","lat":43.304606,"lon":5.379026,"is_reserved":false,"is_disabled":false,"rental_uris":{"android":"levelo://app?vid=cd63eedf-0a4e-4fff-b335-e0408c7916c8","ios":"levelo://app?vid=cd63eedf-0a4e-4fff-b335-e0408c7916c8"},"vehicle_type_id":"4","last_reported":1713841691,"current_range_meters":2800,"station_id":"ce4bgup2rcd13ifvqcn0","pricing_plan_id":"cebpf4jnsgd1na2vs0mg"},{"bike_id":"50578c5e-80ed-4118-890d-e4855770135d","system_id":"levelo_inurba_marseille","lat":43.304606,"lon":5.379026,"is_reserved":false,"is_disabled":false,"rental_uris":{"android":"levelo://app?vid=50578c5e-80ed-4118-890d-e4855770135d","ios":"levelo://app?vid=50578c5e-80ed-4118-890d-e4855770135d"},"vehicle_type_id":"4","last_reported":1713841691,"current_range_meters":20400,"station_id":"ce4bgup2rcd13ifvqcn0","pricing_plan_id":"cebpf4jnsgd1na2vs0mg"},{"bike_id":"a8c21b7c-b0cf-49d2-8679-fdb0f411a095","system_id":"levelo_inurba_marseille","lat":43.304606,"lon":5.379026,"is_reserved":false,"is_disabled":false,"rental_uris":{"android":"levelo://app?vid=a8c21b7c-b0cf-49d2-8679-fdb0f411a095","ios":"levelo://app?vid=a8c21b7c-b0cf-49d2-8679-fdb0f411a095"},"vehicle_type_id":"4","last_reported":1713841691,"current_range_meters":16000,"station_id":"ce4bgup2rcd13ifvqcn0","pricing_plan_id":"cebpf4jnsgd1na2vs0mg"},{"bike_id":"3e5f4c49-a4e8-46ee-85c0-f53f20d0b0de","system_id":"levelo_inurba_marseille","lat":43.304606,"lon":5.379026,"is_reserved":false,"is_disabled":false,"rental_uris":{"android":"levelo://app?vid=3e5f4c49-a4e8-46ee-85c0-f53f20d0b0de","ios":"levelo://app?vid=3e5f4c49-a4e8-46ee-85c0-f53f20d0b0de"},"vehicle_type_id":"4","last_reported":1713841691,"current_range_meters":25200,"station_id":"ce4bgup2rcd13ifvqcn0","pricing_plan_id":"cebpf4jnsgd1na2vs0mg"},{"bike_id":"e740acc4-fe7d-4720-8898-69f7ffbdaf25","system_id":"levelo_inurba_marseille","lat":43.304606,"lon":5.379026,"is_reserved":false,"is_disabled":false,"rental_uris":{"android":"levelo://app?vid=e740acc4-fe7d-4720-8898-69f7ffbdaf25","ios":"levelo://app?vid=e740acc4-fe7d-4720-8898-69f7ffbdaf25"},"vehicle_type_id":"4","last_reported":1713841691,"current_range_meters":19600,"station_id":"ce4bgup2rcd13ifvqcn0","pricing_plan_id":"cebpf4jnsgd1na2vs0mg"},{"bike_id":"e6af3e04-a5ed-4b66-9ab4-a25a1c836f46","system_id":"levelo_inurba_marseille","lat":43.304606,"lon":5.379026,"is_reserved":false,"is_disabled":false,"rental_uris":{"android":"levelo://app?vid=e6af3e04-a5ed-4b66-9ab4-a25a1c836f46","ios":"levelo://app?vid=e6af3e04-a5ed-4b66-9ab4-a25a1c836f46"},"vehicle_type_id":"4","last_reported":1713841691,"current_range_meters":16400,"station_id":"ce4bgup2rcd13ifvqcn0","pricing_plan_id":"cebpf4jnsgd1na2vs0mg"},{"bike_id":"4de203a6-e210-4aa0-bcb0-972d5a213134","system_id":"levelo_inurba_marseille","lat":43.324771,"lon":5.36557,"is_reserved":false,"is_disabled":false,"rental_uris":{"android":"levelo://app?vid=4de203a6-e210-4aa0-bcb0-972d5a213134","ios":"levelo://app?vid=4de203a6-e210-4aa0-bcb0-972d5a213134"},"vehicle_type_id":"4","last_reported":1713841691,"current_range_meters":20000,"station_id":"ce4bhs12rcd13ifvqhvg","pricing_plan_id":"cebpf4jnsgd1na2vs0mg"},{"bike_id":"bef39e5f-69ef-4fe8-9684-4cf76d6fb47e","system_id":"levelo_inurba_marseille","lat":43.324771,"lon":5.36557,"is_reserved":false,"is_disabled":false,"rental_uris":{"android":"levelo://app?vid=bef39e5f-69ef-4fe8-9684-4cf76d6fb47e","ios":"levelo://app?vid=bef39e5f-69ef-4fe8-9684-4cf76d6fb47e"},"vehicle_type_id":"4","last_reported":1713841691,"current_range_meters":8000,"station_id":"ce4bhs12rcd13ifvqhvg","pricing_plan_id":"cebpf4jnsgd1na2vs0mg"},{"bike_id":"93cf05cf-247c-44fd-8239-5459e93ea3ed","system_id":"levelo_inurba_marseille","lat":43.324771,"lon":5.36557,"is_reserved":false,"is_disabled":false,"rental_uris":{"android":"levelo://app?vid=93cf05cf-247c-44fd-8239-5459e93ea3ed","ios":"levelo://app?vid=93cf05cf-247c-44fd-8239-5459e93ea3ed"},"vehicle_type_id":"4","last_reported":1713841691,"current_range_meters":15200,"station_id":"ce4bhs12rcd13ifvqhvg","pricing_plan_id":"cebpf4jnsgd1na2vs0mg"},{"bike_id":"a8ccb5f6-d4cb-44bd-acc1-5922a53d7eea","system_id":"levelo_inurba_marseille","lat":43.310804,"lon":5.38359,"is_reserved":false,"is_disabled":false,"rental_uris":{"android":"levelo://app?vid=a8ccb5f6-d4cb-44bd-acc1-5922a53d7eea","ios":"levelo://app?vid=a8ccb5f6-d4cb-44bd-acc1-5922a53d7eea"},"vehicle_type_id":"4","last_reported":1713841691,"current_range_meters":20800,"station_id":"ce4bgv92rcd13ifvqcr0","pricing_plan_id":"cebpf4jnsgd1na2vs0mg"},{"bike_id":"2cc015a7-aff3-4d01-bcbf-332efe174d62","system_id":"levelo_inurba_marseille","lat":43.310804,"lon":5.38359,"is_reserved":false,"is_disabled":false,"rental_uris":{"android":"levelo://app?vid=2cc015a7-aff3-4d01-bcbf-332efe174d62","ios":"levelo://app?vid=2cc015a7-aff3-4d01-bcbf-332efe174d62"},"vehicle_type_id":"4","last_reported":1713841691,"current_range_meters":12800,"station_id":"ce4bgv92rcd13ifvqcr0","pricing_plan_id":"cebpf4jnsgd1na2vs0mg"},{"bike_id":"8aa90576-5fcd-4176-bc45-c0ad5460d54d","system_id":"levelo_inurba_marseille","lat":43.301429,"lon":5.37413,"is_reserved":false,"is_disabled":false,"rental_uris":{"android":"levelo://app?vid=8aa90576-5fcd-4176-bc45-c0ad5460d54d","ios":"levelo://app?vid=8aa90576-5fcd-4176-bc45-c0ad5460d54d"},"vehicle_type_id":"4","last_reported":1713841691,"current_range_meters":28800,"station_id":"ce4bgs92rcd13ifvqcc0","pricing_plan_id":"cebpf4jnsgd1na2vs0mg"},{"bike_id":"a898ef2a-ea14-49db-ac26-da894a207b38","system_id":"levelo_inurba_marseille","lat":43.301429,"lon":5.37413,"is_reserved":false,"is_disabled":false,"rental_uris":{"android":"levelo://app?vid=a898ef2a-ea14-49db-ac26-da894a207b38","ios":"levelo://app?vid=a898ef2a-ea14-49db-ac26-da894a207b38"},"vehicle_type_id":"4","last_reported":1713841691,"current_range_meters":2800,"station_id":"ce4bgs92rcd13ifvqcc0","pricing_plan_id":"cebpf4jnsgd1na2vs0mg"},{"bike_id":"36e6c597-4c9b-44fd-b549-5a94fcfa18a9","system_id":"levelo_inurba_marseille","lat":43.319935,"lon":5.381699,"is_reserved":false,"is_disabled":false,"rental_uris":{"android":"levelo://app?vid=36e6c597-4c9b-44fd-b549-5a94fcfa18a9","ios":"levelo://app?vid=36e6c597-4c9b-44fd-b549-5a94fcfa18a9"},"vehicle_type_id":"4","last_reported":1713841691,"current_range_meters":17200,"station_id":"ce4bhr12rcd13ifvqhpg","pricing_plan_id":"cebpf4jnsgd1na2vs0mg"},{"bike_id":"b1ad8e85-6b2d-4d9d-bcd3-ae1ef94cc858","system_id":"levelo_inurba_marseille","lat":43.30131,"lon":5.37417,"is_reserved":false,"is_disabled":false,"rental_uris":{"android":"levelo://app?vid=b1ad8e85-6b2d-4d9d-bcd3-ae1ef94cc858","ios":"levelo://app?vid=b1ad8e85-6b2d-4d9d-bcd3-ae1ef94cc858"},"vehicle_type_id":"4","last_reported":1713841691,"current_range_meters":30000,"station_id":"ce4bgs92rcd13ifvqcc0","pricing_plan_id":"cebpf4jnsgd1na2vs0mg"},{"bike_id":"f93eef6b-628d-49e2-addc-56cb17903cdc","system_id":"levelo_inurba_marseille","lat":43.319935,"lon":5.381699,"is_reserved":false,"is_disabled":false,"rental_uris":{"android":"levelo://app?vid=f93eef6b-628d-49e2-addc-56cb17903cdc","ios":"levelo://app?vid=f93eef6b-628d-49e2-addc-56cb17903cdc"},"vehicle_type_id":"4","last_reported":1713841691,"current_range_meters":18400,"station_id":"ce4bhr12rcd13ifvqhpg","pricing_plan_id":"cebpf4jnsgd1na2vs0mg"},{"bike_id":"7e34a868-f7f5-4cc8-ad38-12f475d2e78e","system_id":"levelo_inurba_marseille","lat":43.319935,"lon":5.381699,"is_reserved":false,"is_disabled":false,"rental_uris":{"android":"levelo://app?vid=7e34a868-f7f5-4cc8-ad38-12f475d2e78e","ios":"levelo://app?vid=7e34a868-f7f5-4cc8-ad38-12f475d2e78e"},"vehicle_type_id":"4","last_reported":1713841691,"current_range_meters":24000,"station_id":"ce4bhr12rcd13ifvqhpg","pricing_plan_id":"cebpf4jnsgd1na2vs0mg"},{"bike_id":"71adbe34-2f9a-470e-9db9-22e3f5446b00","system_id":"levelo_inurba_marseille","lat":43.319935,"lon":5.381699,"is_reserved":false,"is_disabled":false,"rental_uris":{"android":"levelo://app?vid=71adbe34-2f9a-470e-9db9-22e3f5446b00","ios":"levelo://app?vid=71adbe34-2f9a-470e-9db9-22e3f5446b00"},"vehicle_type_id":"4","last_reported":1713841691,"current_range_meters":17200,"station_id":"ce4bhr12rcd13ifvqhpg","pricing_plan_id":"cebpf4jnsgd1na2vs0mg"},{"bike_id":"433458f1-4592-4f2a-9af5-551c5a82a6c5","system_id":"levelo_inurba_marseille","lat":43.319947,"lon":5.381553,"is_reserved":false,"is_disabled":false,"rental_uris":{"android":"levelo://app?vid=433458f1-4592-4f2a-9af5-551c5a82a6c5","ios":"levelo://app?vid=433458f1-4592-4f2a-9af5-551c5a82a6c5"},"vehicle_type_id":"4","last_reported":1713841691,"current_range_meters":24000,"station_id":"ce4bhr12rcd13ifvqhpg","pricing_plan_id":"cebpf4jnsgd1na2vs0mg"},{"bike_id":"fec8dffa-10ef-4635-82bc-fa57de892e01","system_id":"levelo_inurba_marseille","lat":43.319935,"lon":5.381699,"is_reserved":false,"is_disabled":false,"rental_uris":{"android":"levelo://app?vid=fec8dffa-10ef-4635-82bc-fa57de892e01","ios":"levelo://app?vid=fec8dffa-10ef-4635-82bc-fa57de892e01"},"vehicle_type_id":"4","last_reported":1713841691,"current_range_meters":31200,"station_id":"ce4bhr12rcd13ifvqhpg","pricing_plan_id":"cebpf4jnsgd1na2vs0mg"},{"bike_id":"b6448e4e-bc8c-4096-befe-00e7d7b27d86","system_id":"levelo_inurba_marseille","lat":43.319935,"lon":5.381699,"is_reserved":false,"is_disabled":false,"rental_uris":{"android":"levelo://app?vid=b6448e4e-bc8c-4096-befe-00e7d7b27d86","ios":"levelo://app?vid=b6448e4e-bc8c-4096-befe-00e7d7b27d86"},"vehicle_type_id":"4","last_reported":1713841691,"current_range_meters":9200,"station_id":"ce4bhr12rcd13ifvqhpg","pricing_plan_id":"cebpf4jnsgd1na2vs0mg"},{"bike_id":"70ad4208-4ea1-48bc-a19d-39f226fe0387","system_id":"levelo_inurba_marseille","lat":43.31991,"lon":5.38167,"is_reserved":false,"is_disabled":false,"rental_uris":{"android":"levelo://app?vid=70ad4208-4ea1-48bc-a19d-39f226fe0387","ios":"levelo://app?vid=70ad4208-4ea1-48bc-a19d-39f226fe0387"},"vehicle_type_id":"4","last_reported":1713841691,"current_range_meters":31200,"station_id":"ce4bhr12rcd13ifvqhpg","pricing_plan_id":"cebpf4jnsgd1na2vs0mg"},{"bike_id":"ee0243ef-8189-4777-9ac8-48d94c0683e9","system_id":"levelo_inurba_marseille","lat":43.319935,"lon":5.381699,"is_reserved":false,"is_disabled":false,"rental_uris":{"android":"levelo://app?vid=ee0243ef-8189-4777-9ac8-48d94c0683e9","ios":"levelo://app?vid=ee0243ef-8189-4777-9ac8-48d94c0683e9"},"vehicle_type_id":"4","last_reported":1713841691,"current_range_meters":29600,"station_id":"ce4bhr12rcd13ifvqhpg","pricing_plan_id":"cebpf4jnsgd1na2vs0mg"},{"bike_id":"7081c296-2397-44cc-bede-aa5cee197285","system_id":"levelo_inurba_marseille","lat":43.319935,"lon":5.381699,"is_reserved":false,"is_disabled":false,"rental_uris":{"android":"levelo://app?vid=7081c296-2397-44cc-bede-aa5cee197285","ios":"levelo://app?vid=7081c296-2397-44cc-bede-aa5cee197285"},"vehicle_type_id":"4","last_reported":1713841691,"current_range_meters":30000,"station_id":"ce4bhr12rcd13ifvqhpg","pricing_plan_id":"cebpf4jnsgd1na2vs0mg"},{"bike_id":"60497e5c-882c-4ac3-8384-449f8e5db08e","system_id":"levelo_inurba_marseille","lat":43.319935,"lon":5.381699,"is_reserved":false,"is_disabled":false,"rental_uris":{"android":"levelo://app?vid=60497e5c-882c-4ac3-8384-449f8e5db08e","ios":"levelo://app?vid=60497e5c-882c-4ac3-8384-449f8e5db08e"},"vehicle_type_id":"4","last_reported":1713841691,"current_range_meters":31200,"station_id":"ce4bhr12rcd13ifvqhpg","pricing_plan_id":"cebpf4jnsgd1na2vs0mg"},{"bike_id":"199fa78b-0d25-4b1a-b53c-1af25abccc99","system_id":"levelo_inurba_marseille","lat":43.313571,"lon":5.384829,"is_reserved":false,"is_disabled":false,"rental_uris":{"android":"levelo://app?vid=199fa78b-0d25-4b1a-b53c-1af25abccc99","ios":"levelo://app?vid=199fa78b-0d25-4b1a-b53c-1af25abccc99"},"vehicle_type_id":"4","last_reported":1713841691,"current_range_meters":10800,"station_id":"ce4bgt92rcd13ifvqcf0","pricing_plan_id":"cebpf4jnsgd1na2vs0mg"},{"bike_id":"ef291fc9-3ea2-4d38-b6c2-2ab3ef96c0cd","system_id":"levelo_inurba_marseille","lat":43.313571,"lon":5.384829,"is_reserved":false,"is_disabled":false,"rental_uris":{"android":"levelo://app?vid=ef291fc9-3ea2-4d38-b6c2-2ab3ef96c0cd","ios":"levelo://app?vid=ef291fc9-3ea2-4d38-b6c2-2ab3ef96c0cd"},"vehicle_type_id":"4","last_reported":1713841691,"current_range_meters":13200,"station_id":"ce4bgt92rcd13ifvqcf0","pricing_plan_id":"cebpf4jnsgd1na2vs0mg"},{"bike_id":"db31ee4d-d5e8-4aa9-b189-dfc4e67cb12e","system_id":"levelo_inurba_marseille","lat":43.313571,"lon":5.384829,"is_reserved":false,"is_disabled":false,"rental_uris":{"android":"levelo://app?vid=db31ee4d-d5e8-4aa9-b189-dfc4e67cb12e","ios":"levelo://app?vid=db31ee4d-d5e8-4aa9-b189-dfc4e67cb12e"},"vehicle_type_id":"4","last_reported":1713841691,"current_range_meters":25600,"station_id":"ce4bgt92rcd13ifvqcf0","pricing_plan_id":"cebpf4jnsgd1na2vs0mg"},{"bike_id":"1febad8b-55e4-4046-ba42-c9e193dbc955","system_id":"levelo_inurba_marseille","lat":43.313571,"lon":5.384829,"is_reserved":false,"is_disabled":false,"rental_uris":{"android":"levelo://app?vid=1febad8b-55e4-4046-ba42-c9e193dbc955","ios":"levelo://app?vid=1febad8b-55e4-4046-ba42-c9e193dbc955"},"vehicle_type_id":"4","last_reported":1713841691,"current_range_meters":29200,"station_id":"ce4bgt92rcd13ifvqcf0","pricing_plan_id":"cebpf4jnsgd1na2vs0mg"},{"bike_id":"fd8375f8-eaab-4fca-80eb-97be54e62b6b","system_id":"levelo_inurba_marseille","lat":43.313571,"lon":5.384829,"is_reserved":false,"is_disabled":false,"rental_uris":{"android":"levelo://app?vid=fd8375f8-eaab-4fca-80eb-97be54e62b6b","ios":"levelo://app?vid=fd8375f8-eaab-4fca-80eb-97be54e62b6b"},"vehicle_type_id":"4","last_reported":1713841691,"current_range_meters":30400,"station_id":"ce4bgt92rcd13ifvqcf0","pricing_plan_id":"cebpf4jnsgd1na2vs0mg"},{"bike_id":"7102c219-a9d7-4e22-af83-f5be2cd3cbfd","system_id":"levelo_inurba_marseille","lat":43.313571,"lon":5.384829,"is_reserved":false,"is_disabled":false,"rental_uris":{"android":"levelo://app?vid=7102c219-a9d7-4e22-af83-f5be2cd3cbfd","ios":"levelo://app?vid=7102c219-a9d7-4e22-af83-f5be2cd3cbfd"},"vehicle_type_id":"4","last_reported":1713841691,"current_range_meters":24800,"station_id":"ce4bgt92rcd13ifvqcf0","pricing_plan_id":"cebpf4jnsgd1na2vs0mg"},{"bike_id":"1027e629-2ce3-4b00-8654-e09d99e2e22f","system_id":"levelo_inurba_marseille","lat":43.313571,"lon":5.384829,"is_reserved":false,"is_disabled":false,"rental_uris":{"android":"levelo://app?vid=1027e629-2ce3-4b00-8654-e09d99e2e22f","ios":"levelo://app?vid=1027e629-2ce3-4b00-8654-e09d99e2e22f"},"vehicle_type_id":"4","last_reported":1713841691,"current_range_meters":8800,"station_id":"ce4bgt92rcd13ifvqcf0","pricing_plan_id":"cebpf4jnsgd1na2vs0mg"},{"bike_id":"3255c556-24c3-48ea-9443-245d28292754","system_id":"levelo_inurba_marseille","lat":43.313571,"lon":5.384829,"is_reserved":false,"is_disabled":false,"rental_uris":{"android":"levelo://app?vid=3255c556-24c3-48ea-9443-245d28292754","ios":"levelo://app?vid=3255c556-24c3-48ea-9443-245d28292754"},"vehicle_type_id":"4","last_reported":1713841691,"current_range_meters":25200,"station_id":"ce4bgt92rcd13ifvqcf0","pricing_plan_id":"cebpf4jnsgd1na2vs0mg"},{"bike_id":"cfbc6904-d0a6-4526-a5cb-3b7cc466a2e5","system_id":"levelo_inurba_marseille","lat":43.313571,"lon":5.384829,"is_reserved":false,"is_disabled":false,"rental_uris":{"android":"levelo://app?vid=cfbc6904-d0a6-4526-a5cb-3b7cc466a2e5","ios":"levelo://app?vid=cfbc6904-d0a6-4526-a5cb-3b7cc466a2e5"},"vehicle_type_id":"4","last_reported":1713841691,"current_range_meters":31200,"station_id":"ce4bgt92rcd13ifvqcf0","pricing_plan_id":"cebpf4jnsgd1na2vs0mg"},{"bike_id":"7bd4ff73-5caf-4826-a93f-178c8263efbf","system_id":"levelo_inurba_marseille","lat":43.313571,"lon":5.384829,"is_reserved":false,"is_disabled":false,"rental_uris":{"android":"levelo://app?vid=7bd4ff73-5caf-4826-a93f-178c8263efbf","ios":"levelo://app?vid=7bd4ff73-5caf-4826-a93f-178c8263efbf"},"vehicle_type_id":"4","last_reported":1713841691,"current_range_meters":20000,"station_id":"ce4bgt92rcd13ifvqcf0","pricing_plan_id":"cebpf4jnsgd1na2vs0mg"},{"bike_id":"318ec6c5-8346-481d-896c-62ac1aff7688","system_id":"levelo_inurba_marseille","lat":43.313571,"lon":5.384829,"is_reserved":false,"is_disabled":false,"rental_uris":{"android":"levelo://app?vid=318ec6c5-8346-481d-896c-62ac1aff7688","ios":"levelo://app?vid=318ec6c5-8346-481d-896c-62ac1aff7688"},"vehicle_type_id":"4","last_reported":1713841691,"current_range_meters":30400,"station_id":"ce4bgt92rcd13ifvqcf0","pricing_plan_id":"cebpf4jnsgd1na2vs0mg"},{"bike_id":"267f4927-f82e-46f4-bdd6-8b2057f1868d","system_id":"levelo_inurba_marseille","lat":43.313571,"lon":5.384829,"is_reserved":false,"is_disabled":false,"rental_uris":{"android":"levelo://app?vid=267f4927-f82e-46f4-bdd6-8b2057f1868d","ios":"levelo://app?vid=267f4927-f82e-46f4-bdd6-8b2057f1868d"},"vehicle_type_id":"4","last_reported":1713841691,"current_range_meters":14000,"station_id":"ce4bgt92rcd13ifvqcf0","pricing_plan_id":"cebpf4jnsgd1na2vs0mg"},{"bike_id":"8c74152c-44be-4d4a-975b-027d1446708c","system_id":"levelo_inurba_marseille","lat":43.299222,"lon":5.365554,"is_reserved":false,"is_disabled":false,"rental_uris":{"android":"levelo://app?vid=8c74152c-44be-4d4a-975b-027d1446708c","ios":"levelo://app?vid=8c74152c-44be-4d4a-975b-027d1446708c"},"vehicle_type_id":"4","last_reported":1713841691,"current_range_meters":15200,"station_id":"ce4bgm92rcd13ifvqbr0","pricing_plan_id":"cebpf4jnsgd1na2vs0mg"},{"bike_id":"e7b82499-9516-4332-9670-4ac56c9f18f1","system_id":"levelo_inurba_marseille","lat":43.299222,"lon":5.365554,"is_reserved":false,"is_disabled":false,"rental_uris":{"android":"levelo://app?vid=e7b82499-9516-4332-9670-4ac56c9f18f1","ios":"levelo://app?vid=e7b82499-9516-4332-9670-4ac56c9f18f1"},"vehicle_type_id":"4","last_reported":1713841691,"current_range_meters":22400,"station_id":"ce4bgm92rcd13ifvqbr0","pricing_plan_id":"cebpf4jnsgd1na2vs0mg"},{"bike_id":"5b591945-1a12-4923-a79a-ccf3e314a38d","system_id":"levelo_inurba_marseille","lat":43.299222,"lon":5.365554,"is_reserved":false,"is_disabled":false,"rental_uris":{"android":"levelo://app?vid=5b591945-1a12-4923-a79a-ccf3e314a38d","ios":"levelo://app?vid=5b591945-1a12-4923-a79a-ccf3e314a38d"},"vehicle_type_id":"4","last_reported":1713841691,"current_range_meters":24800,"station_id":"ce4bgm92rcd13ifvqbr0","pricing_plan_id":"cebpf4jnsgd1na2vs0mg"},{"bike_id":"fc799cae-28e6-4e9d-9474-e3a2c7a7aa07","system_id":"levelo_inurba_marseille","lat":43.299222,"lon":5.365554,"is_reserved":false,"is_disabled":false,"rental_uris":{"android":"levelo://app?vid=fc799cae-28e6-4e9d-9474-e3a2c7a7aa07","ios":"levelo://app?vid=fc799cae-28e6-4e9d-9474-e3a2c7a7aa07"},"vehicle_type_id":"4","last_reported":1713841691,"current_range_meters":20000,"station_id":"ce4bgm92rcd13ifvqbr0","pricing_plan_id":"cebpf4jnsgd1na2vs0mg"},{"bike_id":"23e950d4-e189-403d-aa79-c5bd6b3182c8","system_id":"levelo_inurba_marseille","lat":43.29973,"lon":5.371828,"is_reserved":false,"is_disabled":false,"rental_uris":{"android":"levelo://app?vid=23e950d4-e189-403d-aa79-c5bd6b3182c8","ios":"levelo://app?vid=23e950d4-e189-403d-aa79-c5bd6b3182c8"},"vehicle_type_id":"4","last_reported":1713841691,"current_range_meters":31200,"station_id":"ce4bgr92rcd13ifvqc7g","pricing_plan_id":"cebpf4jnsgd1na2vs0mg"},{"bike_id":"282a0637-f50e-40cb-9b67-bb3b8a56d2a3","system_id":"levelo_inurba_marseille","lat":43.298433,"lon":5.362774,"is_reserved":false,"is_disabled":false,"rental_uris":{"android":"levelo://app?vid=282a0637-f50e-40cb-9b67-bb3b8a56d2a3","ios":"levelo://app?vid=282a0637-f50e-40cb-9b67-bb3b8a56d2a3"},"vehicle_type_id":"4","last_reported":1713841691,"current_range_meters":2000,"station_id":"ce4bgpp2rcd13ifvqc3g","pricing_plan_id":"cebpf4jnsgd1na2vs0mg"},{"bike_id":"9b31c5cc-0e04-41b6-acaf-075e374232fa","system_id":"levelo_inurba_marseille","lat":43.298433,"lon":5.362774,"is_reserved":false,"is_disabled":false,"rental_uris":{"android":"levelo://app?vid=9b31c5cc-0e04-41b6-acaf-075e374232fa","ios":"levelo://app?vid=9b31c5cc-0e04-41b6-acaf-075e374232fa"},"vehicle_type_id":"4","last_reported":1713841691,"current_range_meters":30800,"station_id":"ce4bgpp2rcd13ifvqc3g","pricing_plan_id":"cebpf4jnsgd1na2vs0mg"},{"bike_id":"bea8eece-a67d-4e27-8c47-5b0be0a8092a","system_id":"levelo_inurba_marseille","lat":43.298433,"lon":5.362774,"is_reserved":false,"is_disabled":false,"rental_uris":{"android":"levelo://app?vid=bea8eece-a67d-4e27-8c47-5b0be0a8092a","ios":"levelo://app?vid=bea8eece-a67d-4e27-8c47-5b0be0a8092a"},"vehicle_type_id":"4","last_reported":1713841691,"current_range_meters":22800,"station_id":"ce4bgpp2rcd13ifvqc3g","pricing_plan_id":"cebpf4jnsgd1na2vs0mg"},{"bike_id":"abadb87e-d6c9-4594-a4cb-277a49d5fa89","system_id":"levelo_inurba_marseille","lat":43.298433,"lon":5.362774,"is_reserved":false,"is_disabled":false,"rental_uris":{"android":"levelo://app?vid=abadb87e-d6c9-4594-a4cb-277a49d5fa89","ios":"levelo://app?vid=abadb87e-d6c9-4594-a4cb-277a49d5fa89"},"vehicle_type_id":"4","last_reported":1713841691,"current_range_meters":22000,"station_id":"ce4bgpp2rcd13ifvqc3g","pricing_plan_id":"cebpf4jnsgd1na2vs0mg"},{"bike_id":"ebd4ffba-8f1c-4255-b8ef-c58319fe81e3","system_id":"levelo_inurba_marseille","lat":43.305364,"lon":5.384119,"is_reserved":false,"is_disabled":false,"rental_uris":{"android":"levelo://app?vid=ebd4ffba-8f1c-4255-b8ef-c58319fe81e3","ios":"levelo://app?vid=ebd4ffba-8f1c-4255-b8ef-c58319fe81e3"},"vehicle_type_id":"4","last_reported":1713841691,"current_range_meters":30400,"station_id":"ce4bgg92rcd13ifvqb30","pricing_plan_id":"cebpf4jnsgd1na2vs0mg"},{"bike_id":"793de283-510f-4469-b523-cd758663af6c","system_id":"levelo_inurba_marseille","lat":43.305364,"lon":5.384119,"is_reserved":false,"is_disabled":false,"rental_uris":{"android":"levelo://app?vid=793de283-510f-4469-b523-cd758663af6c","ios":"levelo://app?vid=793de283-510f-4469-b523-cd758663af6c"},"vehicle_type_id":"4","last_reported":1713841691,"current_range_meters":27200,"station_id":"ce4bgg92rcd13ifvqb30","pricing_plan_id":"cebpf4jnsgd1na2vs0mg"},{"bike_id":"54614408-b024-47f5-a07c-10df6978df30","system_id":"levelo_inurba_marseille","lat":43.305366,"lon":5.384336,"is_reserved":false,"is_disabled":false,"rental_uris":{"android":"levelo://app?vid=54614408-b024-47f5-a07c-10df6978df30","ios":"levelo://app?vid=54614408-b024-47f5-a07c-10df6978df30"},"vehicle_type_id":"4","last_reported":1713841691,"current_range_meters":17200,"station_id":"ce4bgg92rcd13ifvqb30","pricing_plan_id":"cebpf4jnsgd1na2vs0mg"},{"bike_id":"8e5691c8-5135-4bc9-bf01-ff8828d7b2b8","system_id":"levelo_inurba_marseille","lat":43.311722,"lon":5.387247,"is_reserved":false,"is_disabled":false,"rental_uris":{"android":"levelo://app?vid=8e5691c8-5135-4bc9-bf01-ff8828d7b2b8","ios":"levelo://app?vid=8e5691c8-5135-4bc9-bf01-ff8828d7b2b8"},"vehicle_type_id":"4","last_reported":1713841691,"current_range_meters":26800,"station_id":"ce4bgv12rcd13ifvqcp0","pricing_plan_id":"cebpf4jnsgd1na2vs0mg"},{"bike_id":"1e1d058b-9e9c-4ba6-9f15-36b8d6e50a3f","system_id":"levelo_inurba_marseille","lat":43.311722,"lon":5.387247,"is_reserved":false,"is_disabled":false,"rental_uris":{"android":"levelo://app?vid=1e1d058b-9e9c-4ba6-9f15-36b8d6e50a3f","ios":"levelo://app?vid=1e1d058b-9e9c-4ba6-9f15-36b8d6e50a3f"},"vehicle_type_id":"4","last_reported":1713841691,"current_range_meters":16000,"station_id":"ce4bgv12rcd13ifvqcp0","pricing_plan_id":"cebpf4jnsgd1na2vs0mg"},{"bike_id":"dc4ab206-ddd1-4511-a5f8-9bb3d316d2a2","system_id":"levelo_inurba_marseille","lat":43.311722,"lon":5.387247,"is_reserved":false,"is_disabled":false,"rental_uris":{"android":"levelo://app?vid=dc4ab206-ddd1-4511-a5f8-9bb3d316d2a2","ios":"levelo://app?vid=dc4ab206-ddd1-4511-a5f8-9bb3d316d2a2"},"vehicle_type_id":"4","last_reported":1713841691,"current_range_meters":31200,"station_id":"ce4bgv12rcd13ifvqcp0","pricing_plan_id":"cebpf4jnsgd1na2vs0mg"},{"bike_id":"fcffe787-2b7f-4250-886a-dc21224532db","system_id":"levelo_inurba_marseille","lat":43.311654,"lon":5.387237,"is_reserved":false,"is_disabled":false,"rental_uris":{"android":"levelo://app?vid=fcffe787-2b7f-4250-886a-dc21224532db","ios":"levelo://app?vid=fcffe787-2b7f-4250-886a-dc21224532db"},"vehicle_type_id":"4","last_reported":1713841691,"current_range_meters":12400,"station_id":"ce4bgv12rcd13ifvqcp0","pricing_plan_id":"cebpf4jnsgd1na2vs0mg"},{"bike_id":"5e1d7550-0168-4317-a9e6-bf664418a24f","system_id":"levelo_inurba_marseille","lat":43.299243,"lon":5.37481,"is_reserved":false,"is_disabled":false,"rental_uris":{"android":"levelo://app?vid=5e1d7550-0168-4317-a9e6-bf664418a24f","ios":"levelo://app?vid=5e1d7550-0168-4317-a9e6-bf664418a24f"},"vehicle_type_id":"4","last_reported":1713841691,"current_range_meters":29200,"station_id":"ce4bgjh2rcd13ifvqbg0","pricing_plan_id":"cebpf4jnsgd1na2vs0mg"},{"bike_id":"b3283833-cee7-48dd-a3a6-820e5e1c122e","system_id":"levelo_inurba_marseille","lat":43.297774,"lon":5.370875,"is_reserved":false,"is_disabled":false,"rental_uris":{"android":"levelo://app?vid=b3283833-cee7-48dd-a3a6-820e5e1c122e","ios":"levelo://app?vid=b3283833-cee7-48dd-a3a6-820e5e1c122e"},"vehicle_type_id":"4","last_reported":1713841691,"current_range_meters":23200,"station_id":"ce4bgop2rcd13ifvqc1g","pricing_plan_id":"cebpf4jnsgd1na2vs0mg"},{"bike_id":"ad122f28-cffc-48f0-902e-08df89a095df","system_id":"levelo_inurba_marseille","lat":43.297774,"lon":5.370875,"is_reserved":false,"is_disabled":false,"rental_uris":{"android":"levelo://app?vid=ad122f28-cffc-48f0-902e-08df89a095df","ios":"levelo://app?vid=ad122f28-cffc-48f0-902e-08df89a095df"},"vehicle_type_id":"4","last_reported":1713841691,"current_range_meters":30000,"station_id":"ce4bgop2rcd13ifvqc1g","pricing_plan_id":"cebpf4jnsgd1na2vs0mg"},{"bike_id":"0596a7bd-2488-4686-9e1b-913831b0e489","system_id":"levelo_inurba_marseille","lat":43.322872,"lon":5.382756,"is_reserved":false,"is_disabled":false,"rental_uris":{"android":"levelo://app?vid=0596a7bd-2488-4686-9e1b-913831b0e489","ios":"levelo://app?vid=0596a7bd-2488-4686-9e1b-913831b0e489"},"vehicle_type_id":"4","last_reported":1713841691,"current_range_meters":31200,"station_id":"ce4bhr12rcd13ifvqhqg","pricing_plan_id":"cebpf4jnsgd1na2vs0mg"},{"bike_id":"454f2963-a870-401a-a816-3704b04ea77e","system_id":"levelo_inurba_marseille","lat":43.322872,"lon":5.382756,"is_reserved":false,"is_disabled":false,"rental_uris":{"android":"levelo://app?vid=454f2963-a870-401a-a816-3704b04ea77e","ios":"levelo://app?vid=454f2963-a870-401a-a816-3704b04ea77e"},"vehicle_type_id":"4","last_reported":1713841691,"current_range_meters":31200,"station_id":"ce4bhr12rcd13ifvqhqg","pricing_plan_id":"cebpf4jnsgd1na2vs0mg"},{"bike_id":"fa2a8b85-b515-405b-b33b-068777ad296e","system_id":"levelo_inurba_marseille","lat":43.322872,"lon":5.382756,"is_reserved":false,"is_disabled":false,"rental_uris":{"android":"levelo://app?vid=fa2a8b85-b515-405b-b33b-068777ad296e","ios":"levelo://app?vid=fa2a8b85-b515-405b-b33b-068777ad296e"},"vehicle_type_id":"4","last_reported":1713841691,"current_range_meters":26800,"station_id":"ce4bhr12rcd13ifvqhqg","pricing_plan_id":"cebpf4jnsgd1na2vs0mg"},{"bike_id":"b87c4180-08df-49c8-872f-4a266b5c0162","system_id":"levelo_inurba_marseille","lat":43.322872,"lon":5.382756,"is_reserved":false,"is_disabled":false,"rental_uris":{"android":"levelo://app?vid=b87c4180-08df-49c8-872f-4a266b5c0162","ios":"levelo://app?vid=b87c4180-08df-49c8-872f-4a266b5c0162"},"vehicle_type_id":"4","last_reported":1713841691,"current_range_meters":20000,"station_id":"ce4bhr12rcd13ifvqhqg","pricing_plan_id":"cebpf4jnsgd1na2vs0mg"},{"bike_id":"92c24665-badb-4ed7-9129-70f50714ed40","system_id":"levelo_inurba_marseille","lat":43.322872,"lon":5.382756,"is_reserved":false,"is_disabled":false,"rental_uris":{"android":"levelo://app?vid=92c24665-badb-4ed7-9129-70f50714ed40","ios":"levelo://app?vid=92c24665-badb-4ed7-9129-70f50714ed40"},"vehicle_type_id":"4","last_reported":1713841691,"current_range_meters":12000,"station_id":"ce4bhr12rcd13ifvqhqg","pricing_plan_id":"cebpf4jnsgd1na2vs0mg"},{"bike_id":"ef61a51c-36c6-4c2f-9a98-9ec3cb0d9ad4","system_id":"levelo_inurba_marseille","lat":43.322872,"lon":5.382756,"is_reserved":false,"is_disabled":false,"rental_uris":{"android":"levelo://app?vid=ef61a51c-36c6-4c2f-9a98-9ec3cb0d9ad4","ios":"levelo://app?vid=ef61a51c-36c6-4c2f-9a98-9ec3cb0d9ad4"},"vehicle_type_id":"4","last_reported":1713841691,"current_range_meters":18800,"station_id":"ce4bhr12rcd13ifvqhqg","pricing_plan_id":"cebpf4jnsgd1na2vs0mg"},{"bike_id":"c46d9a8d-ee81-498e-bbb5-006f1b556bbe","system_id":"levelo_inurba_marseille","lat":43.322872,"lon":5.382756,"is_reserved":false,"is_disabled":false,"rental_uris":{"android":"levelo://app?vid=c46d9a8d-ee81-498e-bbb5-006f1b556bbe","ios":"levelo://app?vid=c46d9a8d-ee81-498e-bbb5-006f1b556bbe"},"vehicle_type_id":"4","last_reported":1713841691,"current_range_meters":11600,"station_id":"ce4bhr12rcd13ifvqhqg","pricing_plan_id":"cebpf4jnsgd1na2vs0mg"},{"bike_id":"4aa6bbb6-acfe-4a72-b7aa-c41f660e7dba","system_id":"levelo_inurba_marseille","lat":43.322872,"lon":5.382756,"is_reserved":false,"is_disabled":false,"rental_uris":{"android":"levelo://app?vid=4aa6bbb6-acfe-4a72-b7aa-c41f660e7dba","ios":"levelo://app?vid=4aa6bbb6-acfe-4a72-b7aa-c41f660e7dba"},"vehicle_type_id":"4","last_reported":1713841691,"current_range_meters":27600,"station_id":"ce4bhr12rcd13ifvqhqg","pricing_plan_id":"cebpf4jnsgd1na2vs0mg"},{"bike_id":"0b32fa2b-6e99-4115-bc6d-55694d0bf299","system_id":"levelo_inurba_marseille","lat":43.322872,"lon":5.382756,"is_reserved":false,"is_disabled":false,"rental_uris":{"android":"levelo://app?vid=0b32fa2b-6e99-4115-bc6d-55694d0bf299","ios":"levelo://app?vid=0b32fa2b-6e99-4115-bc6d-55694d0bf299"},"vehicle_type_id":"4","last_reported":1713841691,"current_range_meters":31200,"station_id":"ce4bhr12rcd13ifvqhqg","pricing_plan_id":"cebpf4jnsgd1na2vs0mg"},{"bike_id":"a4cc2678-1ae4-4d41-a3d2-cbb8a9fd73ac","system_id":"levelo_inurba_marseille","lat":43.322872,"lon":5.382756,"is_reserved":false,"is_disabled":false,"rental_uris":{"android":"levelo://app?vid=a4cc2678-1ae4-4d41-a3d2-cbb8a9fd73ac","ios":"levelo://app?vid=a4cc2678-1ae4-4d41-a3d2-cbb8a9fd73ac"},"vehicle_type_id":"4","last_reported":1713841691,"current_range_meters":31200,"station_id":"ce4bhr12rcd13ifvqhqg","pricing_plan_id":"cebpf4jnsgd1na2vs0mg"},{"bike_id":"77423322-5b97-4d45-a055-63655884e5c2","system_id":"levelo_inurba_marseille","lat":43.29718,"lon":5.366088,"is_reserved":false,"is_disabled":false,"rental_uris":{"android":"levelo://app?vid=77423322-5b97-4d45-a055-63655884e5c2","ios":"levelo://app?vid=77423322-5b97-4d45-a055-63655884e5c2"},"vehicle_type_id":"4","last_reported":1713841691,"current_range_meters":26800,"station_id":"ce4bgn12rcd13ifvqbt0","pricing_plan_id":"cebpf4jnsgd1na2vs0mg"},{"bike_id":"8a4a5be6-55d6-400f-9f2f-c2a3cfa47226","system_id":"levelo_inurba_marseille","lat":43.297164,"lon":5.366154,"is_reserved":false,"is_disabled":false,"rental_uris":{"android":"levelo://app?vid=8a4a5be6-55d6-400f-9f2f-c2a3cfa47226","ios":"levelo://app?vid=8a4a5be6-55d6-400f-9f2f-c2a3cfa47226"},"vehicle_type_id":"4","last_reported":1713841691,"current_range_meters":4800,"station_id":"ce4bgn12rcd13ifvqbt0","pricing_plan_id":"cebpf4jnsgd1na2vs0mg"},{"bike_id":"56d91149-6e86-4d7c-a134-c4517c20ecff","system_id":"levelo_inurba_marseille","lat":43.297163,"lon":5.366121,"is_reserved":false,"is_disabled":false,"rental_uris":{"android":"levelo://app?vid=56d91149-6e86-4d7c-a134-c4517c20ecff","ios":"levelo://app?vid=56d91149-6e86-4d7c-a134-c4517c20ecff"},"vehicle_type_id":"4","last_reported":1713841691,"current_range_meters":12000,"station_id":"ce4bgn12rcd13ifvqbt0","pricing_plan_id":"cebpf4jnsgd1na2vs0mg"},{"bike_id":"9906b685-ad7b-4943-a072-1d1d7218458f","system_id":"levelo_inurba_marseille","lat":43.297159,"lon":5.366118,"is_reserved":false,"is_disabled":false,"rental_uris":{"android":"levelo://app?vid=9906b685-ad7b-4943-a072-1d1d7218458f","ios":"levelo://app?vid=9906b685-ad7b-4943-a072-1d1d7218458f"},"vehicle_type_id":"4","last_reported":1713841691,"current_range_meters":27600,"station_id":"ce4bgn12rcd13ifvqbt0","pricing_plan_id":"cebpf4jnsgd1na2vs0mg"},{"bike_id":"2499b580-d075-4d02-8641-96baa79f9cad","system_id":"levelo_inurba_marseille","lat":43.297163,"lon":5.365866,"is_reserved":false,"is_disabled":false,"rental_uris":{"android":"levelo://app?vid=2499b580-d075-4d02-8641-96baa79f9cad","ios":"levelo://app?vid=2499b580-d075-4d02-8641-96baa79f9cad"},"vehicle_type_id":"4","last_reported":1713841691,"current_range_meters":8800,"station_id":"ce4bgn12rcd13ifvqbt0","pricing_plan_id":"cebpf4jnsgd1na2vs0mg"},{"bike_id":"5c01d95e-0405-4031-bb70-b05f42b28485","system_id":"levelo_inurba_marseille","lat":43.297163,"lon":5.365866,"is_reserved":false,"is_disabled":false,"rental_uris":{"android":"levelo://app?vid=5c01d95e-0405-4031-bb70-b05f42b28485","ios":"levelo://app?vid=5c01d95e-0405-4031-bb70-b05f42b28485"},"vehicle_type_id":"4","last_reported":1713841691,"current_range_meters":19200,"station_id":"ce4bgn12rcd13ifvqbt0","pricing_plan_id":"cebpf4jnsgd1na2vs0mg"},{"bike_id":"a3f2630f-3f36-46c1-8241-2237e09056bd","system_id":"levelo_inurba_marseille","lat":43.279975,"lon":5.40009,"is_reserved":false,"is_disabled":false,"rental_uris":{"android":"levelo://app?vid=a3f2630f-3f36-46c1-8241-2237e09056bd","ios":"levelo://app?vid=a3f2630f-3f36-46c1-8241-2237e09056bd"},"vehicle_type_id":"4","last_reported":1713841691,"current_range_meters":2400,"station_id":"ce4bho92rcd13ifvqh4g","pricing_plan_id":"cebpf4jnsgd1na2vs0mg"},{"bike_id":"2c8de765-155e-4a9b-93ca-42b2eee69667","system_id":"levelo_inurba_marseille","lat":43.297163,"lon":5.365866,"is_reserved":false,"is_disabled":false,"rental_uris":{"android":"levelo://app?vid=2c8de765-155e-4a9b-93ca-42b2eee69667","ios":"levelo://app?vid=2c8de765-155e-4a9b-93ca-42b2eee69667"},"vehicle_type_id":"4","last_reported":1713841691,"current_range_meters":12400,"station_id":"ce4bgn12rcd13ifvqbt0","pricing_plan_id":"cebpf4jnsgd1na2vs0mg"},{"bike_id":"8bb3317e-96b1-4656-84ac-aa85834cc641","system_id":"levelo_inurba_marseille","lat":43.32572,"lon":5.38056,"is_reserved":false,"is_disabled":false,"rental_uris":{"android":"levelo://app?vid=8bb3317e-96b1-4656-84ac-aa85834cc641","ios":"levelo://app?vid=8bb3317e-96b1-4656-84ac-aa85834cc641"},"vehicle_type_id":"4","last_reported":1713841691,"current_range_meters":6800,"station_id":"","pricing_plan_id":"cebpf4jnsgd1na2vs0mg"},{"bike_id":"c8492147-ebd7-42e7-8411-426039ecaede","system_id":"levelo_inurba_marseille","lat":43.296129,"lon":5.370777,"is_reserved":false,"is_disabled":false,"rental_uris":{"android":"levelo://app?vid=c8492147-ebd7-42e7-8411-426039ecaede","ios":"levelo://app?vid=c8492147-ebd7-42e7-8411-426039ecaede"},"vehicle_type_id":"4","last_reported":1713841691,"current_range_meters":27600,"station_id":"ce4bgnh2rcd13ifvqc0g","pricing_plan_id":"cebpf4jnsgd1na2vs0mg"},{"bike_id":"22ee16ca-a245-4dc1-ad8a-db06da73955c","system_id":"levelo_inurba_marseille","lat":43.29587,"lon":5.36875,"is_reserved":false,"is_disabled":false,"rental_uris":{"android":"levelo://app?vid=22ee16ca-a245-4dc1-ad8a-db06da73955c","ios":"levelo://app?vid=22ee16ca-a245-4dc1-ad8a-db06da73955c"},"vehicle_type_id":"4","last_reported":1713841691,"current_range_meters":15600,"station_id":"","pricing_plan_id":"cebpf4jnsgd1na2vs0mg"},{"bike_id":"77102b21-ea90-4c3f-bc57-7a43ac94d554","system_id":"levelo_inurba_marseille","lat":43.296935,"lon":5.376544,"is_reserved":false,"is_disabled":false,"rental_uris":{"android":"levelo://app?vid=77102b21-ea90-4c3f-bc57-7a43ac94d554","ios":"levelo://app?vid=77102b21-ea90-4c3f-bc57-7a43ac94d554"},"vehicle_type_id":"4","last_reported":1713841691,"current_range_meters":26000,"station_id":"ce4bgkh2rcd13ifvqbl0","pricing_plan_id":"cebpf4jnsgd1na2vs0mg"},{"bike_id":"4ff2a3fb-4dd6-4639-8df0-e655400e692e","system_id":"levelo_inurba_marseille","lat":43.299028,"lon":5.381509,"is_reserved":false,"is_disabled":false,"rental_uris":{"android":"levelo://app?vid=4ff2a3fb-4dd6-4639-8df0-e655400e692e","ios":"levelo://app?vid=4ff2a3fb-4dd6-4639-8df0-e655400e692e"},"vehicle_type_id":"4","last_reported":1713841691,"current_range_meters":11600,"station_id":"ce4bgj12rcd13ifvqbc0","pricing_plan_id":"cebpf4jnsgd1na2vs0mg"},{"bike_id":"782b71bb-dff7-4167-b994-7991b000d359","system_id":"levelo_inurba_marseille","lat":43.309589,"lon":5.390258,"is_reserved":false,"is_disabled":false,"rental_uris":{"android":"levelo://app?vid=782b71bb-dff7-4167-b994-7991b000d359","ios":"levelo://app?vid=782b71bb-dff7-4167-b994-7991b000d359"},"vehicle_type_id":"4","last_reported":1713841691,"current_range_meters":27600,"station_id":"ce4bgup2rcd13ifvqco0","pricing_plan_id":"cebpf4jnsgd1na2vs0mg"},{"bike_id":"db84e0f9-acfa-40be-95bf-57d8e37fe629","system_id":"levelo_inurba_marseille","lat":43.309589,"lon":5.390258,"is_reserved":false,"is_disabled":false,"rental_uris":{"android":"levelo://app?vid=db84e0f9-acfa-40be-95bf-57d8e37fe629","ios":"levelo://app?vid=db84e0f9-acfa-40be-95bf-57d8e37fe629"},"vehicle_type_id":"4","last_reported":1713841691,"current_range_meters":26800,"station_id":"ce4bgup2rcd13ifvqco0","pricing_plan_id":"cebpf4jnsgd1na2vs0mg"},{"bike_id":"64de4753-224d-4bed-8152-d456d0a3b9ff","system_id":"levelo_inurba_marseille","lat":43.309589,"lon":5.390258,"is_reserved":false,"is_disabled":false,"rental_uris":{"android":"levelo://app?vid=64de4753-224d-4bed-8152-d456d0a3b9ff","ios":"levelo://app?vid=64de4753-224d-4bed-8152-d456d0a3b9ff"},"vehicle_type_id":"4","last_reported":1713841691,"current_range_meters":31200,"station_id":"ce4bgup2rcd13ifvqco0","pricing_plan_id":"cebpf4jnsgd1na2vs0mg"},{"bike_id":"5e34793c-68ce-483c-ac6a-83b0cb5bfac7","system_id":"levelo_inurba_marseille","lat":43.317569,"lon":5.390139,"is_reserved":false,"is_disabled":false,"rental_uris":{"android":"levelo://app?vid=5e34793c-68ce-483c-ac6a-83b0cb5bfac7","ios":"levelo://app?vid=5e34793c-68ce-483c-ac6a-83b0cb5bfac7"},"vehicle_type_id":"4","last_reported":1713841691,"current_range_meters":0,"station_id":"ce4bhqp2rcd13ifvqhng","pricing_plan_id":"cebpf4jnsgd1na2vs0mg"},{"bike_id":"11246085-2ea5-4b58-b2e0-7e774ac54885","system_id":"levelo_inurba_marseille","lat":43.317557,"lon":5.390173,"is_reserved":false,"is_disabled":false,"rental_uris":{"android":"levelo://app?vid=11246085-2ea5-4b58-b2e0-7e774ac54885","ios":"levelo://app?vid=11246085-2ea5-4b58-b2e0-7e774ac54885"},"vehicle_type_id":"4","last_reported":1713841691,"current_range_meters":28400,"station_id":"ce4bhqp2rcd13ifvqhng","pricing_plan_id":"cebpf4jnsgd1na2vs0mg"},{"bike_id":"6d156540-28be-441b-be24-d4f7844984f2","system_id":"levelo_inurba_marseille","lat":43.317557,"lon":5.390173,"is_reserved":false,"is_disabled":false,"rental_uris":{"android":"levelo://app?vid=6d156540-28be-441b-be24-d4f7844984f2","ios":"levelo://app?vid=6d156540-28be-441b-be24-d4f7844984f2"},"vehicle_type_id":"4","last_reported":1713841691,"current_range_meters":6000,"station_id":"ce4bhqp2rcd13ifvqhng","pricing_plan_id":"cebpf4jnsgd1na2vs0mg"},{"bike_id":"bebe9533-abf9-40cd-89b1-70318038b4f3","system_id":"levelo_inurba_marseille","lat":43.298037,"lon":5.381066,"is_reserved":false,"is_disabled":false,"rental_uris":{"android":"levelo://app?vid=bebe9533-abf9-40cd-89b1-70318038b4f3","ios":"levelo://app?vid=bebe9533-abf9-40cd-89b1-70318038b4f3"},"vehicle_type_id":"4","last_reported":1713841691,"current_range_meters":23600,"station_id":"ce4bgip2rcd13ifvqbb0","pricing_plan_id":"cebpf4jnsgd1na2vs0mg"},{"bike_id":"00900ef0-db63-4136-b8fe-7fca4b398edc","system_id":"levelo_inurba_marseille","lat":43.298037,"lon":5.381066,"is_reserved":false,"is_disabled":false,"rental_uris":{"android":"levelo://app?vid=00900ef0-db63-4136-b8fe-7fca4b398edc","ios":"levelo://app?vid=00900ef0-db63-4136-b8fe-7fca4b398edc"},"vehicle_type_id":"4","last_reported":1713841691,"current_range_meters":31600,"station_id":"ce4bgip2rcd13ifvqbb0","pricing_plan_id":"cebpf4jnsgd1na2vs0mg"},{"bike_id":"9cbe349b-c0af-468d-af6c-38ffd915b89b","system_id":"levelo_inurba_marseille","lat":43.298037,"lon":5.381066,"is_reserved":false,"is_disabled":false,"rental_uris":{"android":"levelo://app?vid=9cbe349b-c0af-468d-af6c-38ffd915b89b","ios":"levelo://app?vid=9cbe349b-c0af-468d-af6c-38ffd915b89b"},"vehicle_type_id":"4","last_reported":1713841691,"current_range_meters":11600,"station_id":"ce4bgip2rcd13ifvqbb0","pricing_plan_id":"cebpf4jnsgd1na2vs0mg"},{"bike_id":"31e6d394-dd7f-42c8-9934-e9d175d5ff74","system_id":"levelo_inurba_marseille","lat":43.304274,"lon":5.388873,"is_reserved":false,"is_disabled":false,"rental_uris":{"android":"levelo://app?vid=31e6d394-dd7f-42c8-9934-e9d175d5ff74","ios":"levelo://app?vid=31e6d394-dd7f-42c8-9934-e9d175d5ff74"},"vehicle_type_id":"4","last_reported":1713841691,"current_range_meters":23200,"station_id":"ce4bgk12rcd13ifvqbi0","pricing_plan_id":"cebpf4jnsgd1na2vs0mg"},{"bike_id":"1a3e0ae4-9d31-4369-a452-5ae800f59226","system_id":"levelo_inurba_marseille","lat":43.304274,"lon":5.388873,"is_reserved":false,"is_disabled":false,"rental_uris":{"android":"levelo://app?vid=1a3e0ae4-9d31-4369-a452-5ae800f59226","ios":"levelo://app?vid=1a3e0ae4-9d31-4369-a452-5ae800f59226"},"vehicle_type_id":"4","last_reported":1713841691,"current_range_meters":31200,"station_id":"ce4bgk12rcd13ifvqbi0","pricing_plan_id":"cebpf4jnsgd1na2vs0mg"},{"bike_id":"b97bb88d-0c9a-41ee-abf2-09fa956be891","system_id":"levelo_inurba_marseille","lat":43.304274,"lon":5.388873,"is_reserved":false,"is_disabled":false,"rental_uris":{"android":"levelo://app?vid=b97bb88d-0c9a-41ee-abf2-09fa956be891","ios":"levelo://app?vid=b97bb88d-0c9a-41ee-abf2-09fa956be891"},"vehicle_type_id":"4","last_reported":1713841691,"current_range_meters":8000,"station_id":"ce4bgk12rcd13ifvqbi0","pricing_plan_id":"cebpf4jnsgd1na2vs0mg"},{"bike_id":"49f2b2c8-2d0b-48aa-ba7c-4b6f6151fff0","system_id":"levelo_inurba_marseille","lat":43.304278,"lon":5.388868,"is_reserved":false,"is_disabled":false,"rental_uris":{"android":"levelo://app?vid=49f2b2c8-2d0b-48aa-ba7c-4b6f6151fff0","ios":"levelo://app?vid=49f2b2c8-2d0b-48aa-ba7c-4b6f6151fff0"},"vehicle_type_id":"4","last_reported":1713841691,"current_range_meters":23200,"station_id":"ce4bgk12rcd13ifvqbi0","pricing_plan_id":"cebpf4jnsgd1na2vs0mg"},{"bike_id":"0458de78-6f96-4a89-9be8-66130bc49821","system_id":"levelo_inurba_marseille","lat":43.304353,"lon":5.388931,"is_reserved":false,"is_disabled":false,"rental_uris":{"android":"levelo://app?vid=0458de78-6f96-4a89-9be8-66130bc49821","ios":"levelo://app?vid=0458de78-6f96-4a89-9be8-66130bc49821"},"vehicle_type_id":"4","last_reported":1713841691,"current_range_meters":15600,"station_id":"ce4bgk12rcd13ifvqbi0","pricing_plan_id":"cebpf4jnsgd1na2vs0mg"},{"bike_id":"8037ae75-e401-41b9-88fa-3da08475f4ac","system_id":"levelo_inurba_marseille","lat":43.295748,"lon":5.37522,"is_reserved":false,"is_disabled":false,"rental_uris":{"android":"levelo://app?vid=8037ae75-e401-41b9-88fa-3da08475f4ac","ios":"levelo://app?vid=8037ae75-e401-41b9-88fa-3da08475f4ac"},"vehicle_type_id":"4","last_reported":1713841691,"current_range_meters":30400,"station_id":"ce4bgh92rcd13ifvqb50","pricing_plan_id":"cebpf4jnsgd1na2vs0mg"},{"bike_id":"93042ae7-65b7-4d2e-b2d4-e5e121f0f020","system_id":"levelo_inurba_marseille","lat":43.3043,"lon":5.38898,"is_reserved":false,"is_disabled":false,"rental_uris":{"android":"levelo://app?vid=93042ae7-65b7-4d2e-b2d4-e5e121f0f020","ios":"levelo://app?vid=93042ae7-65b7-4d2e-b2d4-e5e121f0f020"},"vehicle_type_id":"4","last_reported":1713841691,"current_range_meters":23200,"station_id":"ce4bgk12rcd13ifvqbi0","pricing_plan_id":"cebpf4jnsgd1na2vs0mg"},{"bike_id":"200a5c85-5f19-4396-bcad-7262e9e0ccc5","system_id":"levelo_inurba_marseille","lat":43.299707,"lon":5.384859,"is_reserved":false,"is_disabled":false,"rental_uris":{"android":"levelo://app?vid=200a5c85-5f19-4396-bcad-7262e9e0ccc5","ios":"levelo://app?vid=200a5c85-5f19-4396-bcad-7262e9e0ccc5"},"vehicle_type_id":"4","last_reported":1713841691,"current_range_meters":28800,"station_id":"ce4bgj92rcd13ifvqbd0","pricing_plan_id":"cebpf4jnsgd1na2vs0mg"},{"bike_id":"88251c8f-8486-43b5-b119-1906a18eae32","system_id":"levelo_inurba_marseille","lat":43.299717,"lon":5.384845,"is_reserved":false,"is_disabled":false,"rental_uris":{"android":"levelo://app?vid=88251c8f-8486-43b5-b119-1906a18eae32","ios":"levelo://app?vid=88251c8f-8486-43b5-b119-1906a18eae32"},"vehicle_type_id":"4","last_reported":1713841691,"current_range_meters":24400,"station_id":"ce4bgj92rcd13ifvqbd0","pricing_plan_id":"cebpf4jnsgd1na2vs0mg"},{"bike_id":"2c15739c-8d68-42c4-8011-89815c75044b","system_id":"levelo_inurba_marseille","lat":43.32367,"lon":5.388836,"is_reserved":false,"is_disabled":false,"rental_uris":{"android":"levelo://app?vid=2c15739c-8d68-42c4-8011-89815c75044b","ios":"levelo://app?vid=2c15739c-8d68-42c4-8011-89815c75044b"},"vehicle_type_id":"4","last_reported":1713841691,"current_range_meters":18800,"station_id":"ce4bhqp2rcd13ifvqhog","pricing_plan_id":"cebpf4jnsgd1na2vs0mg"},{"bike_id":"84fcbba0-a528-49f6-8786-6d3dc1c3d573","system_id":"levelo_inurba_marseille","lat":43.293259,"lon":5.371586,"is_reserved":false,"is_disabled":false,"rental_uris":{"android":"levelo://app?vid=84fcbba0-a528-49f6-8786-6d3dc1c3d573","ios":"levelo://app?vid=84fcbba0-a528-49f6-8786-6d3dc1c3d573"},"vehicle_type_id":"4","last_reported":1713841691,"current_range_meters":30000,"station_id":"ce4bgh92rcd13ifvqb40","pricing_plan_id":"cebpf4jnsgd1na2vs0mg"},{"bike_id":"a4e9c45c-b9dc-45c1-94c2-ac11efe9d79b","system_id":"levelo_inurba_marseille","lat":43.31869,"lon":5.393526,"is_reserved":false,"is_disabled":false,"rental_uris":{"android":"levelo://app?vid=a4e9c45c-b9dc-45c1-94c2-ac11efe9d79b","ios":"levelo://app?vid=a4e9c45c-b9dc-45c1-94c2-ac11efe9d79b"},"vehicle_type_id":"4","last_reported":1713841691,"current_range_meters":24000,"station_id":"","pricing_plan_id":"cebpf4jnsgd1na2vs0mg"},{"bike_id":"8afb8ecc-f214-4778-a98f-44039ef3af3a","system_id":"levelo_inurba_marseille","lat":43.305994,"lon":5.393687,"is_reserved":false,"is_disabled":false,"rental_uris":{"android":"levelo://app?vid=8afb8ecc-f214-4778-a98f-44039ef3af3a","ios":"levelo://app?vid=8afb8ecc-f214-4778-a98f-44039ef3af3a"},"vehicle_type_id":"4","last_reported":1713841691,"current_range_meters":26000,"station_id":"ce4bh0p2rcd13ifvqd80","pricing_plan_id":"cebpf4jnsgd1na2vs0mg"},{"bike_id":"c4bdfd23-a5ae-4735-b665-f671f0cad160","system_id":"levelo_inurba_marseille","lat":43.305981,"lon":5.393534,"is_reserved":false,"is_disabled":false,"rental_uris":{"android":"levelo://app?vid=c4bdfd23-a5ae-4735-b665-f671f0cad160","ios":"levelo://app?vid=c4bdfd23-a5ae-4735-b665-f671f0cad160"},"vehicle_type_id":"4","last_reported":1713841691,"current_range_meters":30800,"station_id":"ce4bh0p2rcd13ifvqd80","pricing_plan_id":"cebpf4jnsgd1na2vs0mg"},{"bike_id":"0693c29f-2c46-406e-ba26-ed7aad9e1127","system_id":"levelo_inurba_marseille","lat":43.305893,"lon":5.393495,"is_reserved":false,"is_disabled":false,"rental_uris":{"android":"levelo://app?vid=0693c29f-2c46-406e-ba26-ed7aad9e1127","ios":"levelo://app?vid=0693c29f-2c46-406e-ba26-ed7aad9e1127"},"vehicle_type_id":"4","last_reported":1713841691,"current_range_meters":26000,"station_id":"ce4bh0p2rcd13ifvqd80","pricing_plan_id":"cebpf4jnsgd1na2vs0mg"},{"bike_id":"cd8c8886-5d11-4c23-bf02-92236e7a9a85","system_id":"levelo_inurba_marseille","lat":43.305994,"lon":5.393687,"is_reserved":false,"is_disabled":false,"rental_uris":{"android":"levelo://app?vid=cd8c8886-5d11-4c23-bf02-92236e7a9a85","ios":"levelo://app?vid=cd8c8886-5d11-4c23-bf02-92236e7a9a85"},"vehicle_type_id":"4","last_reported":1713841691,"current_range_meters":30800,"station_id":"ce4bh0p2rcd13ifvqd80","pricing_plan_id":"cebpf4jnsgd1na2vs0mg"},{"bike_id":"8c1c48c9-bc76-4b84-9b1c-0d0acde5b3c2","system_id":"levelo_inurba_marseille","lat":43.30599,"lon":5.39355,"is_reserved":false,"is_disabled":false,"rental_uris":{"android":"levelo://app?vid=8c1c48c9-bc76-4b84-9b1c-0d0acde5b3c2","ios":"levelo://app?vid=8c1c48c9-bc76-4b84-9b1c-0d0acde5b3c2"},"vehicle_type_id":"4","last_reported":1713841691,"current_range_meters":11200,"station_id":"ce4bh0p2rcd13ifvqd80","pricing_plan_id":"cebpf4jnsgd1na2vs0mg"},{"bike_id":"4e4ac551-3f94-4885-822e-514ff792a317","system_id":"levelo_inurba_marseille","lat":43.30585,"lon":5.39351,"is_reserved":false,"is_disabled":false,"rental_uris":{"android":"levelo://app?vid=4e4ac551-3f94-4885-822e-514ff792a317","ios":"levelo://app?vid=4e4ac551-3f94-4885-822e-514ff792a317"},"vehicle_type_id":"4","last_reported":1713841691,"current_range_meters":21600,"station_id":"ce4bh0p2rcd13ifvqd80","pricing_plan_id":"cebpf4jnsgd1na2vs0mg"},{"bike_id":"bb8f33bb-c449-4b71-92d8-f2f51b088a19","system_id":"levelo_inurba_marseille","lat":43.305962,"lon":5.393595,"is_reserved":false,"is_disabled":false,"rental_uris":{"android":"levelo://app?vid=bb8f33bb-c449-4b71-92d8-f2f51b088a19","ios":"levelo://app?vid=bb8f33bb-c449-4b71-92d8-f2f51b088a19"},"vehicle_type_id":"4","last_reported":1713841691,"current_range_meters":14400,"station_id":"ce4bh0p2rcd13ifvqd80","pricing_plan_id":"cebpf4jnsgd1na2vs0mg"},{"bike_id":"0fc237f3-76c6-4c15-8722-a999bc9e3350","system_id":"levelo_inurba_marseille","lat":43.305994,"lon":5.393687,"is_reserved":false,"is_disabled":false,"rental_uris":{"android":"levelo://app?vid=0fc237f3-76c6-4c15-8722-a999bc9e3350","ios":"levelo://app?vid=0fc237f3-76c6-4c15-8722-a999bc9e3350"},"vehicle_type_id":"4","last_reported":1713841691,"current_range_meters":28800,"station_id":"ce4bh0p2rcd13ifvqd80","pricing_plan_id":"cebpf4jnsgd1na2vs0mg"},{"bike_id":"d6dd2222-09f8-4f96-b40f-37132bca4113","system_id":"levelo_inurba_marseille","lat":43.302992,"lon":5.392136,"is_reserved":false,"is_disabled":false,"rental_uris":{"android":"levelo://app?vid=d6dd2222-09f8-4f96-b40f-37132bca4113","ios":"levelo://app?vid=d6dd2222-09f8-4f96-b40f-37132bca4113"},"vehicle_type_id":"4","last_reported":1713841691,"current_range_meters":8800,"station_id":"ce4bgkh2rcd13ifvqbk0","pricing_plan_id":"cebpf4jnsgd1na2vs0mg"},{"bike_id":"2acc8d06-e0cc-48ee-b8fb-af1fe12ceffa","system_id":"levelo_inurba_marseille","lat":43.302992,"lon":5.392136,"is_reserved":false,"is_disabled":false,"rental_uris":{"android":"levelo://app?vid=2acc8d06-e0cc-48ee-b8fb-af1fe12ceffa","ios":"levelo://app?vid=2acc8d06-e0cc-48ee-b8fb-af1fe12ceffa"},"vehicle_type_id":"4","last_reported":1713841691,"current_range_meters":31600,"station_id":"ce4bgkh2rcd13ifvqbk0","pricing_plan_id":"cebpf4jnsgd1na2vs0mg"},{"bike_id":"80a66af7-df3b-4735-85de-f0dd031150fb","system_id":"levelo_inurba_marseille","lat":43.302992,"lon":5.392136,"is_reserved":false,"is_disabled":false,"rental_uris":{"android":"levelo://app?vid=80a66af7-df3b-4735-85de-f0dd031150fb","ios":"levelo://app?vid=80a66af7-df3b-4735-85de-f0dd031150fb"},"vehicle_type_id":"4","last_reported":1713841691,"current_range_meters":31600,"station_id":"ce4bgkh2rcd13ifvqbk0","pricing_plan_id":"cebpf4jnsgd1na2vs0mg"},{"bike_id":"4bef2d92-3d91-4033-9048-98319fb667e9","system_id":"levelo_inurba_marseille","lat":43.302992,"lon":5.392136,"is_reserved":false,"is_disabled":false,"rental_uris":{"android":"levelo://app?vid=4bef2d92-3d91-4033-9048-98319fb667e9","ios":"levelo://app?vid=4bef2d92-3d91-4033-9048-98319fb667e9"},"vehicle_type_id":"4","last_reported":1713841691,"current_range_meters":8000,"station_id":"ce4bgkh2rcd13ifvqbk0","pricing_plan_id":"cebpf4jnsgd1na2vs0mg"},{"bike_id":"73b62252-1ba6-433c-bcdb-59e25b43aa84","system_id":"levelo_inurba_marseille","lat":43.302992,"lon":5.392136,"is_reserved":false,"is_disabled":false,"rental_uris":{"android":"levelo://app?vid=73b62252-1ba6-433c-bcdb-59e25b43aa84","ios":"levelo://app?vid=73b62252-1ba6-433c-bcdb-59e25b43aa84"},"vehicle_type_id":"4","last_reported":1713841691,"current_range_meters":28800,"station_id":"ce4bgkh2rcd13ifvqbk0","pricing_plan_id":"cebpf4jnsgd1na2vs0mg"},{"bike_id":"58f576a0-dc99-4b7a-8aa9-78df10e9f946","system_id":"levelo_inurba_marseille","lat":43.292311,"lon":5.360731,"is_reserved":false,"is_disabled":false,"rental_uris":{"android":"levelo://app?vid=58f576a0-dc99-4b7a-8aa9-78df10e9f946","ios":"levelo://app?vid=58f576a0-dc99-4b7a-8aa9-78df10e9f946"},"vehicle_type_id":"4","last_reported":1713841691,"current_range_meters":14800,"station_id":"ce4bhbh2rcd13ifvqeqg","pricing_plan_id":"cebpf4jnsgd1na2vs0mg"},{"bike_id":"46f80415-8b26-4cc9-94ca-3376583f72cc","system_id":"levelo_inurba_marseille","lat":43.292311,"lon":5.360731,"is_reserved":false,"is_disabled":false,"rental_uris":{"android":"levelo://app?vid=46f80415-8b26-4cc9-94ca-3376583f72cc","ios":"levelo://app?vid=46f80415-8b26-4cc9-94ca-3376583f72cc"},"vehicle_type_id":"4","last_reported":1713841691,"current_range_meters":30000,"station_id":"ce4bhbh2rcd13ifvqeqg","pricing_plan_id":"cebpf4jnsgd1na2vs0mg"},{"bike_id":"b7a52a1e-207d-437d-a0cd-ee9712340f23","system_id":"levelo_inurba_marseille","lat":43.30085,"lon":5.390856,"is_reserved":false,"is_disabled":false,"rental_uris":{"android":"levelo://app?vid=b7a52a1e-207d-437d-a0cd-ee9712340f23","ios":"levelo://app?vid=b7a52a1e-207d-437d-a0cd-ee9712340f23"},"vehicle_type_id":"4","last_reported":1713841691,"current_range_meters":28400,"station_id":"ce4bh192rcd13ifvqdb0","pricing_plan_id":"cebpf4jnsgd1na2vs0mg"},{"bike_id":"c38fc3fe-2580-4eef-86dc-cff4cdc8ffce","system_id":"levelo_inurba_marseille","lat":43.292311,"lon":5.360731,"is_reserved":false,"is_disabled":false,"rental_uris":{"android":"levelo://app?vid=c38fc3fe-2580-4eef-86dc-cff4cdc8ffce","ios":"levelo://app?vid=c38fc3fe-2580-4eef-86dc-cff4cdc8ffce"},"vehicle_type_id":"4","last_reported":1713841691,"current_range_meters":3200,"station_id":"ce4bhbh2rcd13ifvqeqg","pricing_plan_id":"cebpf4jnsgd1na2vs0mg"},{"bike_id":"d1437bb2-4748-488f-84a1-087801b9c4b1","system_id":"levelo_inurba_marseille","lat":43.292311,"lon":5.360731,"is_reserved":false,"is_disabled":false,"rental_uris":{"android":"levelo://app?vid=d1437bb2-4748-488f-84a1-087801b9c4b1","ios":"levelo://app?vid=d1437bb2-4748-488f-84a1-087801b9c4b1"},"vehicle_type_id":"4","last_reported":1713841691,"current_range_meters":7600,"station_id":"ce4bhbh2rcd13ifvqeqg","pricing_plan_id":"cebpf4jnsgd1na2vs0mg"},{"bike_id":"ade1c4fe-f587-43fe-8d98-c2d7c9c559dc","system_id":"levelo_inurba_marseille","lat":43.292155,"lon":5.360475,"is_reserved":false,"is_disabled":false,"rental_uris":{"android":"levelo://app?vid=ade1c4fe-f587-43fe-8d98-c2d7c9c559dc","ios":"levelo://app?vid=ade1c4fe-f587-43fe-8d98-c2d7c9c559dc"},"vehicle_type_id":"4","last_reported":1713841691,"current_range_meters":29600,"station_id":"ce4bhbh2rcd13ifvqeqg","pricing_plan_id":"cebpf4jnsgd1na2vs0mg"},{"bike_id":"f563b70c-4252-4ce5-b0f2-340d01af7e4c","system_id":"levelo_inurba_marseille","lat":43.298764,"lon":5.388973,"is_reserved":false,"is_disabled":false,"rental_uris":{"android":"levelo://app?vid=f563b70c-4252-4ce5-b0f2-340d01af7e4c","ios":"levelo://app?vid=f563b70c-4252-4ce5-b0f2-340d01af7e4c"},"vehicle_type_id":"4","last_reported":1713841691,"current_range_meters":30800,"station_id":"ce4bh392rcd13ifvqdl0","pricing_plan_id":"cebpf4jnsgd1na2vs0mg"},{"bike_id":"9d2e3e02-189b-4e75-a2e8-46c08345821e","system_id":"levelo_inurba_marseille","lat":43.298764,"lon":5.388973,"is_reserved":false,"is_disabled":false,"rental_uris":{"android":"levelo://app?vid=9d2e3e02-189b-4e75-a2e8-46c08345821e","ios":"levelo://app?vid=9d2e3e02-189b-4e75-a2e8-46c08345821e"},"vehicle_type_id":"4","last_reported":1713841691,"current_range_meters":5600,"station_id":"ce4bh392rcd13ifvqdl0","pricing_plan_id":"cebpf4jnsgd1na2vs0mg"},{"bike_id":"eda12945-f4f0-4453-9f72-fc5f48b025bb","system_id":"levelo_inurba_marseille","lat":43.298764,"lon":5.388973,"is_reserved":false,"is_disabled":false,"rental_uris":{"android":"levelo://app?vid=eda12945-f4f0-4453-9f72-fc5f48b025bb","ios":"levelo://app?vid=eda12945-f4f0-4453-9f72-fc5f48b025bb"},"vehicle_type_id":"4","last_reported":1713841691,"current_range_meters":31200,"station_id":"ce4bh392rcd13ifvqdl0","pricing_plan_id":"cebpf4jnsgd1na2vs0mg"},{"bike_id":"cf629e27-8de9-40ab-976d-c9b32c91efb3","system_id":"levelo_inurba_marseille","lat":43.298764,"lon":5.388973,"is_reserved":false,"is_disabled":false,"rental_uris":{"android":"levelo://app?vid=cf629e27-8de9-40ab-976d-c9b32c91efb3","ios":"levelo://app?vid=cf629e27-8de9-40ab-976d-c9b32c91efb3"},"vehicle_type_id":"4","last_reported":1713841691,"current_range_meters":30800,"station_id":"ce4bh392rcd13ifvqdl0","pricing_plan_id":"cebpf4jnsgd1na2vs0mg"},{"bike_id":"93427828-bcb4-4daf-a087-6ac309dc4a38","system_id":"levelo_inurba_marseille","lat":43.298764,"lon":5.388973,"is_reserved":false,"is_disabled":false,"rental_uris":{"android":"levelo://app?vid=93427828-bcb4-4daf-a087-6ac309dc4a38","ios":"levelo://app?vid=93427828-bcb4-4daf-a087-6ac309dc4a38"},"vehicle_type_id":"4","last_reported":1713841691,"current_range_meters":4000,"station_id":"ce4bh392rcd13ifvqdl0","pricing_plan_id":"cebpf4jnsgd1na2vs0mg"},{"bike_id":"ff4a11d7-c845-474e-bdeb-effd267b7f71","system_id":"levelo_inurba_marseille","lat":43.298764,"lon":5.388973,"is_reserved":false,"is_disabled":false,"rental_uris":{"android":"levelo://app?vid=ff4a11d7-c845-474e-bdeb-effd267b7f71","ios":"levelo://app?vid=ff4a11d7-c845-474e-bdeb-effd267b7f71"},"vehicle_type_id":"4","last_reported":1713841691,"current_range_meters":5200,"station_id":"ce4bh392rcd13ifvqdl0","pricing_plan_id":"cebpf4jnsgd1na2vs0mg"},{"bike_id":"cfc104ec-7e83-44fa-9395-e670234220fc","system_id":"levelo_inurba_marseille","lat":43.298764,"lon":5.388973,"is_reserved":false,"is_disabled":false,"rental_uris":{"android":"levelo://app?vid=cfc104ec-7e83-44fa-9395-e670234220fc","ios":"levelo://app?vid=cfc104ec-7e83-44fa-9395-e670234220fc"},"vehicle_type_id":"4","last_reported":1713841691,"current_range_meters":24000,"station_id":"ce4bh392rcd13ifvqdl0","pricing_plan_id":"cebpf4jnsgd1na2vs0mg"},{"bike_id":"53b0e129-cf05-4059-b3b7-47df5a5e1cba","system_id":"levelo_inurba_marseille","lat":43.298764,"lon":5.388973,"is_reserved":false,"is_disabled":false,"rental_uris":{"android":"levelo://app?vid=53b0e129-cf05-4059-b3b7-47df5a5e1cba","ios":"levelo://app?vid=53b0e129-cf05-4059-b3b7-47df5a5e1cba"},"vehicle_type_id":"4","last_reported":1713841691,"current_range_meters":28800,"station_id":"ce4bh392rcd13ifvqdl0","pricing_plan_id":"cebpf4jnsgd1na2vs0mg"},{"bike_id":"62206347-e46f-4e90-b7b3-5b763e7a9771","system_id":"levelo_inurba_marseille","lat":43.309047,"lon":5.396551,"is_reserved":false,"is_disabled":false,"rental_uris":{"android":"levelo://app?vid=62206347-e46f-4e90-b7b3-5b763e7a9771","ios":"levelo://app?vid=62206347-e46f-4e90-b7b3-5b763e7a9771"},"vehicle_type_id":"4","last_reported":1713841691,"current_range_meters":21600,"station_id":"ce4bh012rcd13ifvqcv0","pricing_plan_id":"cebpf4jnsgd1na2vs0mg"},{"bike_id":"b144b4d4-02cf-4f13-87fa-f46fd2719858","system_id":"levelo_inurba_marseille","lat":43.292005,"lon":5.357875,"is_reserved":false,"is_disabled":false,"rental_uris":{"android":"levelo://app?vid=b144b4d4-02cf-4f13-87fa-f46fd2719858","ios":"levelo://app?vid=b144b4d4-02cf-4f13-87fa-f46fd2719858"},"vehicle_type_id":"4","last_reported":1713841691,"current_range_meters":29200,"station_id":"ce4bhb12rcd13ifvqel0","pricing_plan_id":"cebpf4jnsgd1na2vs0mg"},{"bike_id":"56f9d725-c5b0-4496-b839-4d07b3cdbc31","system_id":"levelo_inurba_marseille","lat":43.292005,"lon":5.357875,"is_reserved":false,"is_disabled":false,"rental_uris":{"android":"levelo://app?vid=56f9d725-c5b0-4496-b839-4d07b3cdbc31","ios":"levelo://app?vid=56f9d725-c5b0-4496-b839-4d07b3cdbc31"},"vehicle_type_id":"4","last_reported":1713841691,"current_range_meters":26800,"station_id":"ce4bhb12rcd13ifvqel0","pricing_plan_id":"cebpf4jnsgd1na2vs0mg"},{"bike_id":"6efce0b7-a6e5-4e3f-90d6-0a45b465c914","system_id":"levelo_inurba_marseille","lat":43.309038,"lon":5.396546,"is_reserved":false,"is_disabled":false,"rental_uris":{"android":"levelo://app?vid=6efce0b7-a6e5-4e3f-90d6-0a45b465c914","ios":"levelo://app?vid=6efce0b7-a6e5-4e3f-90d6-0a45b465c914"},"vehicle_type_id":"4","last_reported":1713841691,"current_range_meters":30400,"station_id":"ce4bh012rcd13ifvqcv0","pricing_plan_id":"cebpf4jnsgd1na2vs0mg"},{"bike_id":"4af6fa97-1449-4043-88f9-389ddec88698","system_id":"levelo_inurba_marseille","lat":43.309047,"lon":5.396551,"is_reserved":false,"is_disabled":false,"rental_uris":{"android":"levelo://app?vid=4af6fa97-1449-4043-88f9-389ddec88698","ios":"levelo://app?vid=4af6fa97-1449-4043-88f9-389ddec88698"},"vehicle_type_id":"4","last_reported":1713841691,"current_range_meters":15200,"station_id":"ce4bh012rcd13ifvqcv0","pricing_plan_id":"cebpf4jnsgd1na2vs0mg"},{"bike_id":"be52dea2-2b28-4a45-a82b-d227d8d76c64","system_id":"levelo_inurba_marseille","lat":43.309038,"lon":5.396546,"is_reserved":false,"is_disabled":false,"rental_uris":{"android":"levelo://app?vid=be52dea2-2b28-4a45-a82b-d227d8d76c64","ios":"levelo://app?vid=be52dea2-2b28-4a45-a82b-d227d8d76c64"},"vehicle_type_id":"4","last_reported":1713841691,"current_range_meters":25600,"station_id":"ce4bh012rcd13ifvqcv0","pricing_plan_id":"cebpf4jnsgd1na2vs0mg"},{"bike_id":"34bd4533-06fd-422b-b66a-1c3c31cf3d34","system_id":"levelo_inurba_marseille","lat":43.308862,"lon":5.39638,"is_reserved":false,"is_disabled":false,"rental_uris":{"android":"levelo://app?vid=34bd4533-06fd-422b-b66a-1c3c31cf3d34","ios":"levelo://app?vid=34bd4533-06fd-422b-b66a-1c3c31cf3d34"},"vehicle_type_id":"4","last_reported":1713841691,"current_range_meters":4000,"station_id":"ce4bh012rcd13ifvqcv0","pricing_plan_id":"cebpf4jnsgd1na2vs0mg"},{"bike_id":"d56092db-a2b7-4ec8-b761-a121f686aaaa","system_id":"levelo_inurba_marseille","lat":43.309038,"lon":5.396546,"is_reserved":false,"is_disabled":false,"rental_uris":{"android":"levelo://app?vid=d56092db-a2b7-4ec8-b761-a121f686aaaa","ios":"levelo://app?vid=d56092db-a2b7-4ec8-b761-a121f686aaaa"},"vehicle_type_id":"4","last_reported":1713841691,"current_range_meters":16400,"station_id":"ce4bh012rcd13ifvqcv0","pricing_plan_id":"cebpf4jnsgd1na2vs0mg"},{"bike_id":"7ba63e03-66ca-46b0-86b7-18bfdcfcf6d2","system_id":"levelo_inurba_marseille","lat":43.309047,"lon":5.396551,"is_reserved":false,"is_disabled":false,"rental_uris":{"android":"levelo://app?vid=7ba63e03-66ca-46b0-86b7-18bfdcfcf6d2","ios":"levelo://app?vid=7ba63e03-66ca-46b0-86b7-18bfdcfcf6d2"},"vehicle_type_id":"4","last_reported":1713841691,"current_range_meters":25600,"station_id":"ce4bh012rcd13ifvqcv0","pricing_plan_id":"cebpf4jnsgd1na2vs0mg"},{"bike_id":"fdf103d3-19e6-4467-8acc-7565ab271e21","system_id":"levelo_inurba_marseille","lat":43.309038,"lon":5.396546,"is_reserved":false,"is_disabled":false,"rental_uris":{"android":"levelo://app?vid=fdf103d3-19e6-4467-8acc-7565ab271e21","ios":"levelo://app?vid=fdf103d3-19e6-4467-8acc-7565ab271e21"},"vehicle_type_id":"4","last_reported":1713841691,"current_range_meters":30400,"station_id":"ce4bh012rcd13ifvqcv0","pricing_plan_id":"cebpf4jnsgd1na2vs0mg"},{"bike_id":"ac326e32-31e6-4034-944e-7406030b5a57","system_id":"levelo_inurba_marseille","lat":43.309047,"lon":5.396551,"is_reserved":false,"is_disabled":false,"rental_uris":{"android":"levelo://app?vid=ac326e32-31e6-4034-944e-7406030b5a57","ios":"levelo://app?vid=ac326e32-31e6-4034-944e-7406030b5a57"},"vehicle_type_id":"4","last_reported":1713841691,"current_range_meters":30800,"station_id":"ce4bh012rcd13ifvqcv0","pricing_plan_id":"cebpf4jnsgd1na2vs0mg"},{"bike_id":"ded4fa11-5719-4994-981d-2c88722e1ada","system_id":"levelo_inurba_marseille","lat":43.309038,"lon":5.396546,"is_reserved":false,"is_disabled":false,"rental_uris":{"android":"levelo://app?vid=ded4fa11-5719-4994-981d-2c88722e1ada","ios":"levelo://app?vid=ded4fa11-5719-4994-981d-2c88722e1ada"},"vehicle_type_id":"4","last_reported":1713841691,"current_range_meters":31200,"station_id":"ce4bh012rcd13ifvqcv0","pricing_plan_id":"cebpf4jnsgd1na2vs0mg"},{"bike_id":"1d6d6e15-78ac-437a-af50-8d4896a6f365","system_id":"levelo_inurba_marseille","lat":43.309047,"lon":5.396551,"is_reserved":false,"is_disabled":false,"rental_uris":{"android":"levelo://app?vid=1d6d6e15-78ac-437a-af50-8d4896a6f365","ios":"levelo://app?vid=1d6d6e15-78ac-437a-af50-8d4896a6f365"},"vehicle_type_id":"4","last_reported":1713841691,"current_range_meters":31200,"station_id":"ce4bh012rcd13ifvqcv0","pricing_plan_id":"cebpf4jnsgd1na2vs0mg"},{"bike_id":"ceeac1d6-b120-4d29-87ee-97af72dd2da8","system_id":"levelo_inurba_marseille","lat":43.309038,"lon":5.396546,"is_reserved":false,"is_disabled":false,"rental_uris":{"android":"levelo://app?vid=ceeac1d6-b120-4d29-87ee-97af72dd2da8","ios":"levelo://app?vid=ceeac1d6-b120-4d29-87ee-97af72dd2da8"},"vehicle_type_id":"4","last_reported":1713841691,"current_range_meters":8800,"station_id":"ce4bh012rcd13ifvqcv0","pricing_plan_id":"cebpf4jnsgd1na2vs0mg"},{"bike_id":"61dd40a7-a13c-4654-87bc-b89f9c758d77","system_id":"levelo_inurba_marseille","lat":43.309038,"lon":5.396546,"is_reserved":false,"is_disabled":false,"rental_uris":{"android":"levelo://app?vid=61dd40a7-a13c-4654-87bc-b89f9c758d77","ios":"levelo://app?vid=61dd40a7-a13c-4654-87bc-b89f9c758d77"},"vehicle_type_id":"4","last_reported":1713841691,"current_range_meters":25600,"station_id":"ce4bh012rcd13ifvqcv0","pricing_plan_id":"cebpf4jnsgd1na2vs0mg"},{"bike_id":"9e164f4e-0d8b-4510-9aec-6743f59c872f","system_id":"levelo_inurba_marseille","lat":43.31324,"lon":5.3969,"is_reserved":false,"is_disabled":false,"rental_uris":{"android":"levelo://app?vid=9e164f4e-0d8b-4510-9aec-6743f59c872f","ios":"levelo://app?vid=9e164f4e-0d8b-4510-9aec-6743f59c872f"},"vehicle_type_id":"4","last_reported":1713841691,"current_range_meters":16000,"station_id":"ce4bgvp2rcd13ifvqcu0","pricing_plan_id":"cebpf4jnsgd1na2vs0mg"},{"bike_id":"54aa5e6e-4858-4e0c-8e7a-0096639a71dd","system_id":"levelo_inurba_marseille","lat":43.309047,"lon":5.396551,"is_reserved":false,"is_disabled":false,"rental_uris":{"android":"levelo://app?vid=54aa5e6e-4858-4e0c-8e7a-0096639a71dd","ios":"levelo://app?vid=54aa5e6e-4858-4e0c-8e7a-0096639a71dd"},"vehicle_type_id":"4","last_reported":1713841691,"current_range_meters":30000,"station_id":"ce4bh012rcd13ifvqcv0","pricing_plan_id":"cebpf4jnsgd1na2vs0mg"},{"bike_id":"57939d8d-f152-4244-84f4-766b3896623e","system_id":"levelo_inurba_marseille","lat":43.313299,"lon":5.396918,"is_reserved":false,"is_disabled":false,"rental_uris":{"android":"levelo://app?vid=57939d8d-f152-4244-84f4-766b3896623e","ios":"levelo://app?vid=57939d8d-f152-4244-84f4-766b3896623e"},"vehicle_type_id":"4","last_reported":1713841691,"current_range_meters":26000,"station_id":"ce4bgvp2rcd13ifvqcu0","pricing_plan_id":"cebpf4jnsgd1na2vs0mg"},{"bike_id":"57654638-d33a-4678-a210-dc13e2d98f60","system_id":"levelo_inurba_marseille","lat":43.31323,"lon":5.39692,"is_reserved":false,"is_disabled":false,"rental_uris":{"android":"levelo://app?vid=57654638-d33a-4678-a210-dc13e2d98f60","ios":"levelo://app?vid=57654638-d33a-4678-a210-dc13e2d98f60"},"vehicle_type_id":"4","last_reported":1713841691,"current_range_meters":9200,"station_id":"ce4bgvp2rcd13ifvqcu0","pricing_plan_id":"cebpf4jnsgd1na2vs0mg"},{"bike_id":"430bdb4d-6b65-4f2e-92e4-512ef52ef177","system_id":"levelo_inurba_marseille","lat":43.313291,"lon":5.396838,"is_reserved":false,"is_disabled":false,"rental_uris":{"android":"levelo://app?vid=430bdb4d-6b65-4f2e-92e4-512ef52ef177","ios":"levelo://app?vid=430bdb4d-6b65-4f2e-92e4-512ef52ef177"},"vehicle_type_id":"4","last_reported":1713841691,"current_range_meters":20800,"station_id":"ce4bgvp2rcd13ifvqcu0","pricing_plan_id":"cebpf4jnsgd1na2vs0mg"},{"bike_id":"f4f4da84-b06f-46c9-a7d8-c7d3aee46654","system_id":"levelo_inurba_marseille","lat":43.309038,"lon":5.396546,"is_reserved":false,"is_disabled":false,"rental_uris":{"android":"levelo://app?vid=f4f4da84-b06f-46c9-a7d8-c7d3aee46654","ios":"levelo://app?vid=f4f4da84-b06f-46c9-a7d8-c7d3aee46654"},"vehicle_type_id":"4","last_reported":1713841691,"current_range_meters":18800,"station_id":"ce4bh012rcd13ifvqcv0","pricing_plan_id":"cebpf4jnsgd1na2vs0mg"},{"bike_id":"d9da1fbf-0f9b-4471-9c16-1b1c42a0f8f2","system_id":"levelo_inurba_marseille","lat":43.313291,"lon":5.396838,"is_reserved":false,"is_disabled":false,"rental_uris":{"android":"levelo://app?vid=d9da1fbf-0f9b-4471-9c16-1b1c42a0f8f2","ios":"levelo://app?vid=d9da1fbf-0f9b-4471-9c16-1b1c42a0f8f2"},"vehicle_type_id":"4","last_reported":1713841691,"current_range_meters":29200,"station_id":"ce4bgvp2rcd13ifvqcu0","pricing_plan_id":"cebpf4jnsgd1na2vs0mg"},{"bike_id":"543a512c-c67f-45eb-ab93-2358117ca2fd","system_id":"levelo_inurba_marseille","lat":43.313291,"lon":5.396838,"is_reserved":false,"is_disabled":false,"rental_uris":{"android":"levelo://app?vid=543a512c-c67f-45eb-ab93-2358117ca2fd","ios":"levelo://app?vid=543a512c-c67f-45eb-ab93-2358117ca2fd"},"vehicle_type_id":"4","last_reported":1713841691,"current_range_meters":31200,"station_id":"ce4bgvp2rcd13ifvqcu0","pricing_plan_id":"cebpf4jnsgd1na2vs0mg"},{"bike_id":"c6c44270-f44e-4011-9e36-5b56fd688381","system_id":"levelo_inurba_marseille","lat":43.313291,"lon":5.396838,"is_reserved":false,"is_disabled":false,"rental_uris":{"android":"levelo://app?vid=c6c44270-f44e-4011-9e36-5b56fd688381","ios":"levelo://app?vid=c6c44270-f44e-4011-9e36-5b56fd688381"},"vehicle_type_id":"4","last_reported":1713841691,"current_range_meters":28000,"station_id":"ce4bgvp2rcd13ifvqcu0","pricing_plan_id":"cebpf4jnsgd1na2vs0mg"},{"bike_id":"6d7957f9-6081-4889-a3d2-ee9265a636e3","system_id":"levelo_inurba_marseille","lat":43.291994,"lon":5.357886,"is_reserved":false,"is_disabled":false,"rental_uris":{"android":"levelo://app?vid=6d7957f9-6081-4889-a3d2-ee9265a636e3","ios":"levelo://app?vid=6d7957f9-6081-4889-a3d2-ee9265a636e3"},"vehicle_type_id":"4","last_reported":1713841691,"current_range_meters":30400,"station_id":"ce4bhb12rcd13ifvqel0","pricing_plan_id":"cebpf4jnsgd1na2vs0mg"},{"bike_id":"f8995a94-c566-4555-9bab-988b8c69494c","system_id":"levelo_inurba_marseille","lat":43.31324,"lon":5.39696,"is_reserved":false,"is_disabled":false,"rental_uris":{"android":"levelo://app?vid=f8995a94-c566-4555-9bab-988b8c69494c","ios":"levelo://app?vid=f8995a94-c566-4555-9bab-988b8c69494c"},"vehicle_type_id":"4","last_reported":1713841691,"current_range_meters":21200,"station_id":"ce4bgvp2rcd13ifvqcu0","pricing_plan_id":"cebpf4jnsgd1na2vs0mg"},{"bike_id":"6bd3e79e-1b9f-483f-8a2d-d6d94e527ace","system_id":"levelo_inurba_marseille","lat":43.31329,"lon":5.39696,"is_reserved":false,"is_disabled":false,"rental_uris":{"android":"levelo://app?vid=6bd3e79e-1b9f-483f-8a2d-d6d94e527ace","ios":"levelo://app?vid=6bd3e79e-1b9f-483f-8a2d-d6d94e527ace"},"vehicle_type_id":"4","last_reported":1713841691,"current_range_meters":25200,"station_id":"ce4bgvp2rcd13ifvqcu0","pricing_plan_id":"cebpf4jnsgd1na2vs0mg"},{"bike_id":"3164f708-d683-478a-a841-4be13c9b015e","system_id":"levelo_inurba_marseille","lat":43.313291,"lon":5.396838,"is_reserved":false,"is_disabled":false,"rental_uris":{"android":"levelo://app?vid=3164f708-d683-478a-a841-4be13c9b015e","ios":"levelo://app?vid=3164f708-d683-478a-a841-4be13c9b015e"},"vehicle_type_id":"4","last_reported":1713841691,"current_range_meters":21600,"station_id":"ce4bgvp2rcd13ifvqcu0","pricing_plan_id":"cebpf4jnsgd1na2vs0mg"},{"bike_id":"cce6fd4e-50e0-4304-a527-26f7c1020a1e","system_id":"levelo_inurba_marseille","lat":43.31324,"lon":5.39698,"is_reserved":false,"is_disabled":false,"rental_uris":{"android":"levelo://app?vid=cce6fd4e-50e0-4304-a527-26f7c1020a1e","ios":"levelo://app?vid=cce6fd4e-50e0-4304-a527-26f7c1020a1e"},"vehicle_type_id":"4","last_reported":1713841691,"current_range_meters":18000,"station_id":"ce4bgvp2rcd13ifvqcu0","pricing_plan_id":"cebpf4jnsgd1na2vs0mg"},{"bike_id":"89337a98-5f62-4891-886d-8731587e4e5e","system_id":"levelo_inurba_marseille","lat":43.31331,"lon":5.39698,"is_reserved":false,"is_disabled":false,"rental_uris":{"android":"levelo://app?vid=89337a98-5f62-4891-886d-8731587e4e5e","ios":"levelo://app?vid=89337a98-5f62-4891-886d-8731587e4e5e"},"vehicle_type_id":"4","last_reported":1713841691,"current_range_meters":13600,"station_id":"ce4bgvp2rcd13ifvqcu0","pricing_plan_id":"cebpf4jnsgd1na2vs0mg"},{"bike_id":"2b0bd679-86fe-4b87-98fa-92a39296cfe9","system_id":"levelo_inurba_marseille","lat":43.30884,"lon":5.39651,"is_reserved":false,"is_disabled":false,"rental_uris":{"android":"levelo://app?vid=2b0bd679-86fe-4b87-98fa-92a39296cfe9","ios":"levelo://app?vid=2b0bd679-86fe-4b87-98fa-92a39296cfe9"},"vehicle_type_id":"4","last_reported":1713841691,"current_range_meters":30400,"station_id":"ce4bh012rcd13ifvqcv0","pricing_plan_id":"cebpf4jnsgd1na2vs0mg"},{"bike_id":"d2cb6371-8698-41ff-995f-c68dc75c3036","system_id":"levelo_inurba_marseille","lat":43.308795,"lon":5.3965,"is_reserved":false,"is_disabled":false,"rental_uris":{"android":"levelo://app?vid=d2cb6371-8698-41ff-995f-c68dc75c3036","ios":"levelo://app?vid=d2cb6371-8698-41ff-995f-c68dc75c3036"},"vehicle_type_id":"4","last_reported":1713841691,"current_range_meters":24000,"station_id":"ce4bh012rcd13ifvqcv0","pricing_plan_id":"cebpf4jnsgd1na2vs0mg"},{"bike_id":"47af96ca-c406-4057-a538-d02ebb28f1e2","system_id":"levelo_inurba_marseille","lat":43.313261,"lon":5.39699,"is_reserved":false,"is_disabled":false,"rental_uris":{"android":"levelo://app?vid=47af96ca-c406-4057-a538-d02ebb28f1e2","ios":"levelo://app?vid=47af96ca-c406-4057-a538-d02ebb28f1e2"},"vehicle_type_id":"4","last_reported":1713841691,"current_range_meters":30400,"station_id":"ce4bgvp2rcd13ifvqcu0","pricing_plan_id":"cebpf4jnsgd1na2vs0mg"},{"bike_id":"acf70660-b535-4129-bd9c-f476b7a642f2","system_id":"levelo_inurba_marseille","lat":43.31327,"lon":5.397,"is_reserved":false,"is_disabled":false,"rental_uris":{"android":"levelo://app?vid=acf70660-b535-4129-bd9c-f476b7a642f2","ios":"levelo://app?vid=acf70660-b535-4129-bd9c-f476b7a642f2"},"vehicle_type_id":"4","last_reported":1713841691,"current_range_meters":10000,"station_id":"ce4bgvp2rcd13ifvqcu0","pricing_plan_id":"cebpf4jnsgd1na2vs0mg"},{"bike_id":"1a43f498-88dd-4eed-b33d-508a8f02c184","system_id":"levelo_inurba_marseille","lat":43.313291,"lon":5.396838,"is_reserved":false,"is_disabled":false,"rental_uris":{"android":"levelo://app?vid=1a43f498-88dd-4eed-b33d-508a8f02c184","ios":"levelo://app?vid=1a43f498-88dd-4eed-b33d-508a8f02c184"},"vehicle_type_id":"4","last_reported":1713841691,"current_range_meters":26400,"station_id":"ce4bgvp2rcd13ifvqcu0","pricing_plan_id":"cebpf4jnsgd1na2vs0mg"},{"bike_id":"76bd2945-b15d-4fb1-b8f3-54cfd66067f1","system_id":"levelo_inurba_marseille","lat":43.313251,"lon":5.397024,"is_reserved":false,"is_disabled":false,"rental_uris":{"android":"levelo://app?vid=76bd2945-b15d-4fb1-b8f3-54cfd66067f1","ios":"levelo://app?vid=76bd2945-b15d-4fb1-b8f3-54cfd66067f1"},"vehicle_type_id":"4","last_reported":1713841691,"current_range_meters":29600,"station_id":"ce4bgvp2rcd13ifvqcu0","pricing_plan_id":"cebpf4jnsgd1na2vs0mg"},{"bike_id":"5aac2d0a-5c91-4141-90a0-584e517051f4","system_id":"levelo_inurba_marseille","lat":43.313291,"lon":5.396838,"is_reserved":false,"is_disabled":false,"rental_uris":{"android":"levelo://app?vid=5aac2d0a-5c91-4141-90a0-584e517051f4","ios":"levelo://app?vid=5aac2d0a-5c91-4141-90a0-584e517051f4"},"vehicle_type_id":"4","last_reported":1713841691,"current_range_meters":24000,"station_id":"ce4bgvp2rcd13ifvqcu0","pricing_plan_id":"cebpf4jnsgd1na2vs0mg"},