{"last_updated":1769581290,"ttl":60,"version":"2.2","data":{"bikes":[{"bike_id":"0fe9790f-2855-49ff-8f98-060f51a6f3f4","system_id":"levelo_inurba_marseille","lat":43.24678,"lon":5.38159,"is_reserved":false,"is_disabled":false,"rental_uris":{"android":"levelo://app?vid=0fe9790f-2855-49ff-8f98-060f51a6f3f4","ios":"levelo://app?vid=0fe9790f-2855-49ff-8f98-060f51a6f3f4"},"vehicle_type_id":"4","last_reported":1769581290,"current_range_meters":2800,"station_id":"ce4bhih2rcd13ifvqfr0","pricing_plan_id":"cebpf4jnsgd1na2vs0mg"},{"bike_id":"974b1adc-fa0a-44be-be78-6b6b8d03af1b","system_id":"levelo_inurba_marseille","lat":43.32352,"lon":5.36733,"is_reserved":false,"is_disabled":false,"rental_uris":{"android":"levelo://app?vid=974b1adc-fa0a-44be-be78-6b6b8d03af1b","ios":"levelo://app?vid=974b1adc-fa0a-44be-be78-6b6b8d03af1b"},"vehicle_type_id":"4","last_reported":1769581290,"current_range_meters":2800,"station_id":"ce4bhsh2rcd13ifvqi2g","pricing_plan_id":"cebpf4jnsgd1na2vs0mg"},{"bike_id":"297c28f5-1df8-4418-8d2a-1d09912b4a4c","system_id":"levelo_inurba_marseille","lat":43.29269,"lon":5.38448,"is_reserved":false,"is_disabled":false,"rental_uris":{"android":"levelo://app?vid=297c28f5-1df8-4418-8d2a-1d09912b4a4c","ios":"levelo://app?vid=297c28f5-1df8-4418-8d2a-1d09912b4a4c"},"vehicle_type_id":"4","last_reported":1769581290,"current_range_meters":2800,"station_id":"ce4bh692rcd13ifvqea0","pricing_plan_id":"cebpf4jnsgd1na2vs0mg"},{"bike_id":"39b7b3d1-c6ef-4852-9f6b-58e78f8f64cb","system_id":"levelo_inurba_marseille","lat":43.31483,"lon":5.37304,"is_reserved":false,"is_disabled":false,"rental_uris":{"android":"levelo://app?vid=39b7b3d1-c6ef-4852-9f6b-58e78f8f64cb","ios":"levelo://app?vid=39b7b3d1-c6ef-4852-9f6b-58e78f8f64cb"},"vehicle_type_id":"4","last_reported":1769581290,"current_range_meters":2800,"station_id":"ce4bgt12rcd13ifvqcd0","pricing_plan_id":"cebpf4jnsgd1na2vs0mg"},{"bike_id":"0c26df12-1950-4717-af22-5c47bd1b9ee1","system_id":"levelo_inurba_marseille","lat":43.24947,"lon":5.40501,"is_reserved":false,"is_disabled":false,"rental_uris":{"android":"levelo://app?vid=0c26df12-1950-4717-af22-5c47bd1b9ee1","ios":"levelo://app?vid=0c26df12-1950-4717-af22-5c47bd1b9ee1"},"vehicle_type_id":"4","last_reported":1769581290,"current_range_meters":2800,"station_id":"st_d2ngiaodas8pm72gd1h0","pricing_plan_id":"cebpf4jnsgd1na2vs0mg"},{"bike_id":"4182a78b-f81a-4339-a5bf-fd0c809cb67c","system_id":"levelo_inurba_marseille","lat":43.24178,"lon":5.36402,"is_reserved":false,"is_disabled":false,"rental_uris":{"android":"levelo://app?vid=4182a78b-f81a-4339-a5bf-fd0c809cb67c","ios":"levelo://app?vid=4182a78b-f81a-4339-a5bf-fd0c809cb67c"},"vehicle_type_id":"4","last_reported":1769581290,"current_range_meters":3200,"station_id":"cpo36qri1sfpv3e86is0","pricing_plan_id":"cebpf4jnsgd1na2vs0mg"},{"bike_id":"9c0f94c4-b37c-40bf-80a5-dff27d73ee95","system_id":"levelo_inurba_marseille","lat":43.26565,"lon":5.38995,"is_reserved":false,"is_disabled":false,"rental_uris":{"android":"levelo://app?vid=9c0f94c4-b37c-40bf-80a5-dff27d73ee95","ios":"levelo://app?vid=9c0f94c4-b37c-40bf-80a5-dff27d73ee95"},"vehicle_type_id":"4","last_reported":1769581290,"current_range_meters":3200,"station_id":"ce4bhe12rcd13ifvqf30","pricing_plan_id":"cebpf4jnsgd1na2vs0mg"},{"bike_id":"700fea19-1f0b-46cc-ade6-9fa0d06d4ef2","system_id":"levelo_inurba_marseille","lat":43.312335,"lon":5.368613,"is_reserved":false,"is_disabled":false,"rental_uris":{"android":"levelo://app?vid=700fea19-1f0b-46cc-ade6-9fa0d06d4ef2","ios":"levelo://app?vid=700fea19-1f0b-46cc-ade6-9fa0d06d4ef2"},"vehicle_type_id":"4","last_reported":1769581290,"current_range_meters":3200,"station_id":"ce4bgl92rcd13ifvqbq0","pricing_plan_id":"cebpf4jnsgd1na2vs0mg"},{"bike_id":"1874eda8-a3c3-49b6-9412-f0fc01cc3854","system_id":"levelo_inurba_marseille","lat":43.3235,"lon":5.36717,"is_reserved":false,"is_disabled":false,"rental_uris":{"android":"levelo://app?vid=1874eda8-a3c3-49b6-9412-f0fc01cc3854","ios":"levelo://app?vid=1874eda8-a3c3-49b6-9412-f0fc01cc3854"},"vehicle_type_id":"4","last_reported":1769581290,"current_range_meters":3200,"station_id":"ce4bhsh2rcd13ifvqi2g","pricing_plan_id":"cebpf4jnsgd1na2vs0mg"},{"bike_id":"e2912b90-a2e7-4158-81a6-8d358cdc4e62","system_id":"levelo_inurba_marseille","lat":43.29924,"lon":5.37462,"is_reserved":false,"is_disabled":false,"rental_uris":{"android":"levelo://app?vid=e2912b90-a2e7-4158-81a6-8d358cdc4e62","ios":"levelo://app?vid=e2912b90-a2e7-4158-81a6-8d358cdc4e62"},"vehicle_type_id":"4","last_reported":1769581290,"current_range_meters":3200,"station_id":"ce4bgjh2rcd13ifvqbg0","pricing_plan_id":"cebpf4jnsgd1na2vs0mg"},{"bike_id":"75e37893-9805-424d-bc2e-7d2475cb6f2d","system_id":"levelo_inurba_marseille","lat":43.25345,"lon":5.42169,"is_reserved":false,"is_disabled":false,"rental_uris":{"android":"levelo://app?vid=75e37893-9805-424d-bc2e-7d2475cb6f2d","ios":"levelo://app?vid=75e37893-9805-424d-bc2e-7d2475cb6f2d"},"vehicle_type_id":"4","last_reported":1769581290,"current_range_meters":3200,"station_id":"st_d2m65c5bi1j21697t3ng","pricing_plan_id":"cebpf4jnsgd1na2vs0mg"},{"bike_id":"91d870a4-4a3d-4749-b0c2-ad130846435a","system_id":"levelo_inurba_marseille","lat":43.313586,"lon":5.36695,"is_reserved":false,"is_disabled":false,"rental_uris":{"android":"levelo://app?vid=91d870a4-4a3d-4749-b0c2-ad130846435a","ios":"levelo://app?vid=91d870a4-4a3d-4749-b0c2-ad130846435a"},"vehicle_type_id":"4","last_reported":1769581290,"current_range_meters":3200,"station_id":"ce4bgr92rcd13ifvqc6g","pricing_plan_id":"cebpf4jnsgd1na2vs0mg"},{"bike_id":"4b4e8521-2ba4-44a1-ae99-0e0cab827900","system_id":"levelo_inurba_marseille","lat":43.29034,"lon":5.37548,"is_reserved":false,"is_disabled":false,"rental_uris":{"android":"levelo://app?vid=4b4e8521-2ba4-44a1-ae99-0e0cab827900","ios":"levelo://app?vid=4b4e8521-2ba4-44a1-ae99-0e0cab827900"},"vehicle_type_id":"4","last_reported":1769581290,"current_range_meters":3200,"station_id":"ce4bh692rcd13ifvqe90","pricing_plan_id":"cebpf4jnsgd1na2vs0mg"},{"bike_id":"c4331a36-6999-42e2-9488-7f8c2c2dfef1","system_id":"levelo_inurba_marseille","lat":43.3081,"lon":5.4045,"is_reserved":false,"is_disabled":false,"rental_uris":{"android":"levelo://app?vid=c4331a36-6999-42e2-9488-7f8c2c2dfef1","ios":"levelo://app?vid=c4331a36-6999-42e2-9488-7f8c2c2dfef1"},"vehicle_type_id":"4","last_reported":1769581290,"current_range_meters":3200,"station_id":"","pricing_plan_id":"cebpf4jnsgd1na2vs0mg"},{"bike_id":"b1fb0068-8678-4de5-8fc1-5a876cba349a","system_id":"levelo_inurba_marseille","lat":43.30244,"lon":5.4006,"is_reserved":false,"is_disabled":false,"rental_uris":{"android":"levelo://app?vid=b1fb0068-8678-4de5-8fc1-5a876cba349a","ios":"levelo://app?vid=b1fb0068-8678-4de5-8fc1-5a876cba349a"},"vehicle_type_id":"4","last_reported":1769581290,"current_range_meters":3200,"station_id":"ce4bgvh2rcd13ifvqcs0","pricing_plan_id":"cebpf4jnsgd1na2vs0mg"},{"bike_id":"6f374c96-c5b2-4c6b-96f7-b598f302a1b1","system_id":"levelo_inurba_marseille","lat":43.26667,"lon":5.3829,"is_reserved":false,"is_disabled":false,"rental_uris":{"android":"levelo://app?vid=6f374c96-c5b2-4c6b-96f7-b598f302a1b1","ios":"levelo://app?vid=6f374c96-c5b2-4c6b-96f7-b598f302a1b1"},"vehicle_type_id":"4","last_reported":1769581290,"current_range_meters":3200,"station_id":"ce4bhg92rcd13ifvqf90","pricing_plan_id":"cebpf4jnsgd1na2vs0mg"},{"bike_id":"542c4194-0cbb-46a2-81b1-a944e64c63f6","system_id":"levelo_inurba_marseille","lat":43.27185,"lon":5.40998,"is_reserved":false,"is_disabled":false,"rental_uris":{"android":"levelo://app?vid=542c4194-0cbb-46a2-81b1-a944e64c63f6","ios":"levelo://app?vid=542c4194-0cbb-46a2-81b1-a944e64c63f6"},"vehicle_type_id":"4","last_reported":1769581290,"current_range_meters":3200,"station_id":"ce4bhl12rcd13ifvqgf0","pricing_plan_id":"cebpf4jnsgd1na2vs0mg"},{"bike_id":"50975ff8-ef5b-48ef-9a63-788455e79d9e","system_id":"levelo_inurba_marseille","lat":43.30176,"lon":5.3662,"is_reserved":false,"is_disabled":false,"rental_uris":{"android":"levelo://app?vid=50975ff8-ef5b-48ef-9a63-788455e79d9e","ios":"levelo://app?vid=50975ff8-ef5b-48ef-9a63-788455e79d9e"},"vehicle_type_id":"4","last_reported":1769581290,"current_range_meters":3200,"station_id":"ce4bgrh2rcd13ifvqc8g","pricing_plan_id":"cebpf4jnsgd1na2vs0mg"},{"bike_id":"3068b6de-22ec-4bb7-bd70-ef84189d5ccf","system_id":"levelo_inurba_marseille","lat":43.24172,"lon":5.36376,"is_reserved":false,"is_disabled":false,"rental_uris":{"android":"levelo://app?vid=3068b6de-22ec-4bb7-bd70-ef84189d5ccf","ios":"levelo://app?vid=3068b6de-22ec-4bb7-bd70-ef84189d5ccf"},"vehicle_type_id":"4","last_reported":1769581290,"current_range_meters":3200,"station_id":"cpo36qri1sfpv3e86is0","pricing_plan_id":"cebpf4jnsgd1na2vs0mg"},{"bike_id":"67319617-e363-454c-971c-619a05701ccc","system_id":"levelo_inurba_marseille","lat":43.30906,"lon":5.40338,"is_reserved":false,"is_disabled":false,"rental_uris":{"android":"levelo://app?vid=67319617-e363-454c-971c-619a05701ccc","ios":"levelo://app?vid=67319617-e363-454c-971c-619a05701ccc"},"vehicle_type_id":"4","last_reported":1769581290,"current_range_meters":3600,"station_id":"","pricing_plan_id":"cebpf4jnsgd1na2vs0mg"},{"bike_id":"4563cd4a-14be-4cd2-962a-8eb9b6992943","system_id":"levelo_inurba_marseille","lat":43.23194,"lon":5.35574,"is_reserved":false,"is_disabled":false,"rental_uris":{"android":"levelo://app?vid=4563cd4a-14be-4cd2-962a-8eb9b6992943","ios":"levelo://app?vid=4563cd4a-14be-4cd2-962a-8eb9b6992943"},"vehicle_type_id":"4","last_reported":1769581290,"current_range_meters":3600,"station_id":"ce4bhu92rcd13ifvqi70","pricing_plan_id":"cebpf4jnsgd1na2vs0mg"},{"bike_id":"ebb420da-9f91-41a5-8e07-8ddc17ac8d79","system_id":"levelo_inurba_marseille","lat":43.27996,"lon":5.4166,"is_reserved":false,"is_disabled":false,"rental_uris":{"android":"levelo://app?vid=ebb420da-9f91-41a5-8e07-8ddc17ac8d79","ios":"levelo://app?vid=ebb420da-9f91-41a5-8e07-8ddc17ac8d79"},"vehicle_type_id":"4","last_reported":1769581290,"current_range_meters":3600,"station_id":"ce4bho12rcd13ifvqh1g","pricing_plan_id":"cebpf4jnsgd1na2vs0mg"},{"bike_id":"8a8efbd2-c8c7-47dd-9cd0-80920d5272d5","system_id":"levelo_inurba_marseille","lat":43.28335,"lon":5.38104,"is_reserved":false,"is_disabled":false,"rental_uris":{"android":"levelo://app?vid=8a8efbd2-c8c7-47dd-9cd0-80920d5272d5","ios":"levelo://app?vid=8a8efbd2-c8c7-47dd-9cd0-80920d5272d5"},"vehicle_type_id":"4","last_reported":1769581290,"current_range_meters":3600,"station_id":"ce4bh412rcd13ifvqdr0","pricing_plan_id":"cebpf4jnsgd1na2vs0mg"},{"bike_id":"9a9f87c4-7d9d-404f-8b88-4c63caebac89","system_id":"levelo_inurba_marseille","lat":43.24388,"lon":5.37054,"is_reserved":false,"is_disabled":false,"rental_uris":{"android":"levelo://app?vid=9a9f87c4-7d9d-404f-8b88-4c63caebac89","ios":"levelo://app?vid=9a9f87c4-7d9d-404f-8b88-4c63caebac89"},"vehicle_type_id":"4","last_reported":1769581290,"current_range_meters":3600,"station_id":"ce4bhhh2rcd13ifvqfk0","pricing_plan_id":"cebpf4jnsgd1na2vs0mg"},{"bike_id":"719075ca-0fc5-46e5-a7a9-99e73984d012","system_id":"levelo_inurba_marseille","lat":43.335423,"lon":5.374602,"is_reserved":false,"is_disabled":false,"rental_uris":{"android":"levelo://app?vid=719075ca-0fc5-46e5-a7a9-99e73984d012","ios":"levelo://app?vid=719075ca-0fc5-46e5-a7a9-99e73984d012"},"vehicle_type_id":"4","last_reported":1769581290,"current_range_meters":3600,"station_id":"st_d46tts09ee8s73dlu43g","pricing_plan_id":"cebpf4jnsgd1na2vs0mg"},{"bike_id":"aef48c2d-4e9e-44fa-b69a-17199407ac19","system_id":"levelo_inurba_marseille","lat":43.28466,"lon":5.48414,"is_reserved":false,"is_disabled":false,"rental_uris":{"android":"levelo://app?vid=aef48c2d-4e9e-44fa-b69a-17199407ac19","ios":"levelo://app?vid=aef48c2d-4e9e-44fa-b69a-17199407ac19"},"vehicle_type_id":"4","last_reported":1769581290,"current_range_meters":3600,"station_id":"st_d3svhcjqgbts73a3dn0g","pricing_plan_id":"cebpf4jnsgd1na2vs0mg"},{"bike_id":"a3c4df46-4a67-4fb6-bedb-61f3b6cd7bc3","system_id":"levelo_inurba_marseille","lat":43.30543,"lon":5.365363,"is_reserved":false,"is_disabled":false,"rental_uris":{"android":"levelo://app?vid=a3c4df46-4a67-4fb6-bedb-61f3b6cd7bc3","ios":"levelo://app?vid=a3c4df46-4a67-4fb6-bedb-61f3b6cd7bc3"},"vehicle_type_id":"4","last_reported":1769581290,"current_range_meters":4000,"station_id":"ce4bgs12rcd13ifvqcag","pricing_plan_id":"cebpf4jnsgd1na2vs0mg"},{"bike_id":"553f7ec8-0556-4b19-a60a-b39852dc6c80","system_id":"levelo_inurba_marseille","lat":43.28439,"lon":5.3918,"is_reserved":false,"is_disabled":false,"rental_uris":{"android":"levelo://app?vid=553f7ec8-0556-4b19-a60a-b39852dc6c80","ios":"levelo://app?vid=553f7ec8-0556-4b19-a60a-b39852dc6c80"},"vehicle_type_id":"4","last_reported":1769581290,"current_range_meters":4000,"station_id":"ce4bhoh2rcd13ifvqh5g","pricing_plan_id":"cebpf4jnsgd1na2vs0mg"},{"bike_id":"e1120862-e77d-472e-b5c8-670c3df22cb9","system_id":"levelo_inurba_marseille","lat":43.240701,"lon":5.377661,"is_reserved":false,"is_disabled":false,"rental_uris":{"android":"levelo://app?vid=e1120862-e77d-472e-b5c8-670c3df22cb9","ios":"levelo://app?vid=e1120862-e77d-472e-b5c8-670c3df22cb9"},"vehicle_type_id":"4","last_reported":1769581290,"current_range_meters":4000,"station_id":"ce4bhnp2rcd13ifvqgvg","pricing_plan_id":"cebpf4jnsgd1na2vs0mg"},{"bike_id":"29aa5aa3-c04d-4a4a-9381-86a1ba9e5e8a","system_id":"levelo_inurba_marseille","lat":43.26543,"lon":5.37292,"is_reserved":false,"is_disabled":false,"rental_uris":{"android":"levelo://app?vid=29aa5aa3-c04d-4a4a-9381-86a1ba9e5e8a","ios":"levelo://app?vid=29aa5aa3-c04d-4a4a-9381-86a1ba9e5e8a"},"vehicle_type_id":"4","last_reported":1769581290,"current_range_meters":4000,"station_id":"ce4bhg12rcd13ifvqf70","pricing_plan_id":"cebpf4jnsgd1na2vs0mg"},{"bike_id":"9d3e3713-b1f5-4f31-b786-ecd7f8f5227c","system_id":"levelo_inurba_marseille","lat":43.286095,"lon":5.370628,"is_reserved":false,"is_disabled":false,"rental_uris":{"android":"levelo://app?vid=9d3e3713-b1f5-4f31-b786-ecd7f8f5227c","ios":"levelo://app?vid=9d3e3713-b1f5-4f31-b786-ecd7f8f5227c"},"vehicle_type_id":"4","last_reported":1769581290,"current_range_meters":4000,"station_id":"ce4bht12rcd13ifvqi60","pricing_plan_id":"cebpf4jnsgd1na2vs0mg"},{"bike_id":"7538a865-1dd9-4a97-95e0-6d30a52209b6","system_id":"levelo_inurba_marseille","lat":43.24636,"lon":5.43138,"is_reserved":false,"is_disabled":false,"rental_uris":{"android":"levelo://app?vid=7538a865-1dd9-4a97-95e0-6d30a52209b6","ios":"levelo://app?vid=7538a865-1dd9-4a97-95e0-6d30a52209b6"},"vehicle_type_id":"4","last_reported":1769581290,"current_range_meters":4000,"station_id":"st_d2m6c4gdas8pm72e190g","pricing_plan_id":"cebpf4jnsgd1na2vs0mg"},{"bike_id":"4d891c58-f813-4fc8-87d6-9e518aec06e8","system_id":"levelo_inurba_marseille","lat":43.22926,"lon":5.3537,"is_reserved":false,"is_disabled":false,"rental_uris":{"android":"levelo://app?vid=4d891c58-f813-4fc8-87d6-9e518aec06e8","ios":"levelo://app?vid=4d891c58-f813-4fc8-87d6-9e518aec06e8"},"vehicle_type_id":"4","last_reported":1769581290,"current_range_meters":4400,"station_id":"cpo3532slgdg3j2ikp40","pricing_plan_id":"cebpf4jnsgd1na2vs0mg"},{"bike_id":"b2aac410-77a5-4cbd-abbb-455469608028","system_id":"levelo_inurba_marseille","lat":43.27575,"lon":5.38409,"is_reserved":false,"is_disabled":false,"rental_uris":{"android":"levelo://app?vid=b2aac410-77a5-4cbd-abbb-455469608028","ios":"levelo://app?vid=b2aac410-77a5-4cbd-abbb-455469608028"},"vehicle_type_id":"4","last_reported":1769581290,"current_range_meters":4400,"station_id":"ce4bhh92rcd13ifvqfi0","pricing_plan_id":"cebpf4jnsgd1na2vs0mg"},{"bike_id":"a4197ac1-f17c-4dde-8532-d7c6e6881287","system_id":"levelo_inurba_marseille","lat":43.23186,"lon":5.35558,"is_reserved":false,"is_disabled":false,"rental_uris":{"android":"levelo://app?vid=a4197ac1-f17c-4dde-8532-d7c6e6881287","ios":"levelo://app?vid=a4197ac1-f17c-4dde-8532-d7c6e6881287"},"vehicle_type_id":"4","last_reported":1769581290,"current_range_meters":4400,"station_id":"ce4bhu92rcd13ifvqi70","pricing_plan_id":"cebpf4jnsgd1na2vs0mg"},{"bike_id":"3de70621-51e2-4731-b78a-28f6ec31e9a0","system_id":"levelo_inurba_marseille","lat":43.30779,"lon":5.3765,"is_reserved":false,"is_disabled":false,"rental_uris":{"android":"levelo://app?vid=3de70621-51e2-4731-b78a-28f6ec31e9a0","ios":"levelo://app?vid=3de70621-51e2-4731-b78a-28f6ec31e9a0"},"vehicle_type_id":"4","last_reported":1769581290,"current_range_meters":4400,"station_id":"ce4bgv92rcd13ifvqcq0","pricing_plan_id":"cebpf4jnsgd1na2vs0mg"},{"bike_id":"290d589a-cd77-4eb3-bc79-b6c8d68b2fa8","system_id":"levelo_inurba_marseille","lat":43.27654,"lon":5.38844,"is_reserved":false,"is_disabled":false,"rental_uris":{"android":"levelo://app?vid=290d589a-cd77-4eb3-bc79-b6c8d68b2fa8","ios":"levelo://app?vid=290d589a-cd77-4eb3-bc79-b6c8d68b2fa8"},"vehicle_type_id":"4","last_reported":1769581290,"current_range_meters":4400,"station_id":"ce4bhi12rcd13ifvqfo0","pricing_plan_id":"cebpf4jnsgd1na2vs0mg"},{"bike_id":"dbbba3c0-c1c5-4350-86f9-fe3dfc8ec5c8","system_id":"levelo_inurba_marseille","lat":43.28979,"lon":5.38135,"is_reserved":false,"is_disabled":false,"rental_uris":{"android":"levelo://app?vid=dbbba3c0-c1c5-4350-86f9-fe3dfc8ec5c8","ios":"levelo://app?vid=dbbba3c0-c1c5-4350-86f9-fe3dfc8ec5c8"},"vehicle_type_id":"4","last_reported":1769581290,"current_range_meters":4400,"station_id":"ce4bh4p2rcd13ifvqe1g","pricing_plan_id":"cebpf4jnsgd1na2vs0mg"},{"bike_id":"210d34b3-637d-4a3a-93be-c748d1fe37e1","system_id":"levelo_inurba_marseille","lat":43.24636,"lon":5.43142,"is_reserved":false,"is_disabled":false,"rental_uris":{"android":"levelo://app?vid=210d34b3-637d-4a3a-93be-c748d1fe37e1","ios":"levelo://app?vid=210d34b3-637d-4a3a-93be-c748d1fe37e1"},"vehicle_type_id":"4","last_reported":1769581290,"current_range_meters":4400,"station_id":"st_d2m6c4gdas8pm72e190g","pricing_plan_id":"cebpf4jnsgd1na2vs0mg"},{"bike_id":"59088526-00fc-4343-ab43-79ed1a6c00bd","system_id":"levelo_inurba_marseille","lat":43.27559,"lon":5.43432,"is_reserved":false,"is_disabled":false,"rental_uris":{"android":"levelo://app?vid=59088526-00fc-4343-ab43-79ed1a6c00bd","ios":"levelo://app?vid=59088526-00fc-4343-ab43-79ed1a6c00bd"},"vehicle_type_id":"4","last_reported":1769581290,"current_range_meters":4400,"station_id":"","pricing_plan_id":"cebpf4jnsgd1na2vs0mg"},{"bike_id":"36f7c41f-78fc-4f53-8c20-a0d2a7d86399","system_id":"levelo_inurba_marseille","lat":43.31271,"lon":5.40196,"is_reserved":false,"is_disabled":false,"rental_uris":{"android":"levelo://app?vid=36f7c41f-78fc-4f53-8c20-a0d2a7d86399","ios":"levelo://app?vid=36f7c41f-78fc-4f53-8c20-a0d2a7d86399"},"vehicle_type_id":"4","last_reported":1769581290,"current_range_meters":4800,"station_id":"ce4bh092rcd13ifvqd30","pricing_plan_id":"cebpf4jnsgd1na2vs0mg"},{"bike_id":"9dfe4fba-9e48-4cb0-bd24-cda4cd328a21","system_id":"levelo_inurba_marseille","lat":43.27949,"lon":5.38696,"is_reserved":false,"is_disabled":false,"rental_uris":{"android":"levelo://app?vid=9dfe4fba-9e48-4cb0-bd24-cda4cd328a21","ios":"levelo://app?vid=9dfe4fba-9e48-4cb0-bd24-cda4cd328a21"},"vehicle_type_id":"4","last_reported":1769581290,"current_range_meters":4800,"station_id":"ce4bhg12rcd13ifvqf80","pricing_plan_id":"cebpf4jnsgd1na2vs0mg"},{"bike_id":"b1c835b9-d1b0-4420-b1bf-6cfd071e73dc","system_id":"levelo_inurba_marseille","lat":43.248048,"lon":5.374453,"is_reserved":false,"is_disabled":false,"rental_uris":{"android":"levelo://app?vid=b1c835b9-d1b0-4420-b1bf-6cfd071e73dc","ios":"levelo://app?vid=b1c835b9-d1b0-4420-b1bf-6cfd071e73dc"},"vehicle_type_id":"4","last_reported":1769581290,"current_range_meters":4800,"station_id":"ce4bhgh2rcd13ifvqfb0","pricing_plan_id":"cebpf4jnsgd1na2vs0mg"},{"bike_id":"13572e35-2aa0-4de4-8fc0-3a452362e536","system_id":"levelo_inurba_marseille","lat":43.28624,"lon":5.35083,"is_reserved":false,"is_disabled":false,"rental_uris":{"android":"levelo://app?vid=13572e35-2aa0-4de4-8fc0-3a452362e536","ios":"levelo://app?vid=13572e35-2aa0-4de4-8fc0-3a452362e536"},"vehicle_type_id":"4","last_reported":1769581290,"current_range_meters":4800,"station_id":"ce4bhch2rcd13ifvqeug","pricing_plan_id":"cebpf4jnsgd1na2vs0mg"},{"bike_id":"e01e12df-208f-43ee-99bf-5376acaa42bf","system_id":"levelo_inurba_marseille","lat":43.28875,"lon":5.42525,"is_reserved":false,"is_disabled":false,"rental_uris":{"android":"levelo://app?vid=e01e12df-208f-43ee-99bf-5376acaa42bf","ios":"levelo://app?vid=e01e12df-208f-43ee-99bf-5376acaa42bf"},"vehicle_type_id":"4","last_reported":1769581290,"current_range_meters":4800,"station_id":"st_d3b462108ojc7389ooeg","pricing_plan_id":"cebpf4jnsgd1na2vs0mg"},{"bike_id":"6795f19e-c0fc-46d0-b4c8-af2ef658e675","system_id":"levelo_inurba_marseille","lat":43.26689,"lon":5.38278,"is_reserved":false,"is_disabled":false,"rental_uris":{"android":"levelo://app?vid=6795f19e-c0fc-46d0-b4c8-af2ef658e675","ios":"levelo://app?vid=6795f19e-c0fc-46d0-b4c8-af2ef658e675"},"vehicle_type_id":"4","last_reported":1769581290,"current_range_meters":4800,"station_id":"ce4bhg92rcd13ifvqf90","pricing_plan_id":"cebpf4jnsgd1na2vs0mg"},{"bike_id":"b1d411da-d9de-417f-9943-4d5aa9df36ed","system_id":"levelo_inurba_marseille","lat":43.29582,"lon":5.39274,"is_reserved":false,"is_disabled":false,"rental_uris":{"android":"levelo://app?vid=b1d411da-d9de-417f-9943-4d5aa9df36ed","ios":"levelo://app?vid=b1d411da-d9de-417f-9943-4d5aa9df36ed"},"vehicle_type_id":"4","last_reported":1769581290,"current_range_meters":4800,"station_id":"","pricing_plan_id":"cebpf4jnsgd1na2vs0mg"},{"bike_id":"5b1328e1-725c-435f-9cc2-db91a5108ba5","system_id":"levelo_inurba_marseille","lat":43.24982,"lon":5.38927,"is_reserved":false,"is_disabled":false,"rental_uris":{"android":"levelo://app?vid=5b1328e1-725c-435f-9cc2-db91a5108ba5","ios":"levelo://app?vid=5b1328e1-725c-435f-9cc2-db91a5108ba5"},"vehicle_type_id":"4","last_reported":1769581290,"current_range_meters":4800,"station_id":"ce4bhgp2rcd13ifvqfd0","pricing_plan_id":"cebpf4jnsgd1na2vs0mg"},{"bike_id":"e25bebe5-a155-4b39-977a-f9a7df78d040","system_id":"levelo_inurba_marseille","lat":43.27997,"lon":5.40006,"is_reserved":false,"is_disabled":false,"rental_uris":{"android":"levelo://app?vid=e25bebe5-a155-4b39-977a-f9a7df78d040","ios":"levelo://app?vid=e25bebe5-a155-4b39-977a-f9a7df78d040"},"vehicle_type_id":"4","last_reported":1769581290,"current_range_meters":5600,"station_id":"ce4bho92rcd13ifvqh4g","pricing_plan_id":"cebpf4jnsgd1na2vs0mg"},{"bike_id":"13412fd6-fcc8-4592-8f33-a77ca55d2b61","system_id":"levelo_inurba_marseille","lat":43.31072,"lon":5.38736,"is_reserved":false,"is_disabled":false,"rental_uris":{"android":"levelo://app?vid=13412fd6-fcc8-4592-8f33-a77ca55d2b61","ios":"levelo://app?vid=13412fd6-fcc8-4592-8f33-a77ca55d2b61"},"vehicle_type_id":"4","last_reported":1769581290,"current_range_meters":5600,"station_id":"","pricing_plan_id":"cebpf4jnsgd1na2vs0mg"},{"bike_id":"9381fd80-ecdc-4343-8355-1f4e601fa674","system_id":"levelo_inurba_marseille","lat":43.3136,"lon":5.38502,"is_reserved":false,"is_disabled":false,"rental_uris":{"android":"levelo://app?vid=9381fd80-ecdc-4343-8355-1f4e601fa674","ios":"levelo://app?vid=9381fd80-ecdc-4343-8355-1f4e601fa674"},"vehicle_type_id":"4","last_reported":1769581290,"current_range_meters":5600,"station_id":"ce4bgt92rcd13ifvqcf0","pricing_plan_id":"cebpf4jnsgd1na2vs0mg"},{"bike_id":"61880ac2-f997-4832-8d0d-3d1f8617cb44","system_id":"levelo_inurba_marseille","lat":43.24459,"lon":5.42543,"is_reserved":false,"is_disabled":false,"rental_uris":{"android":"levelo://app?vid=61880ac2-f997-4832-8d0d-3d1f8617cb44","ios":"levelo://app?vid=61880ac2-f997-4832-8d0d-3d1f8617cb44"},"vehicle_type_id":"4","last_reported":1769581290,"current_range_meters":5600,"station_id":"st_d4a3vfp97mjs738cd8kg","pricing_plan_id":"cebpf4jnsgd1na2vs0mg"},{"bike_id":"51f12955-85fa-488e-a5a3-3568ec645218","system_id":"levelo_inurba_marseille","lat":43.23139,"lon":5.43728,"is_reserved":false,"is_disabled":false,"rental_uris":{"android":"levelo://app?vid=51f12955-85fa-488e-a5a3-3568ec645218","ios":"levelo://app?vid=51f12955-85fa-488e-a5a3-3568ec645218"},"vehicle_type_id":"4","last_reported":1769581290,"current_range_meters":5600,"station_id":"ce4bhmp2rcd13ifvqgog","pricing_plan_id":"cebpf4jnsgd1na2vs0mg"},{"bike_id":"a5ef2b0b-b618-43d1-9c04-75419de035cf","system_id":"levelo_inurba_marseille","lat":43.33153,"lon":5.37687,"is_reserved":false,"is_disabled":false,"rental_uris":{"android":"levelo://app?vid=a5ef2b0b-b618-43d1-9c04-75419de035cf","ios":"levelo://app?vid=a5ef2b0b-b618-43d1-9c04-75419de035cf"},"vehicle_type_id":"4","last_reported":1769581290,"current_range_meters":5600,"station_id":"st_d46cu089ee8s73dldbu0","pricing_plan_id":"cebpf4jnsgd1na2vs0mg"},{"bike_id":"4b3417a6-1f1f-4163-87a9-5c0d16767f2a","system_id":"levelo_inurba_marseille","lat":43.2848,"lon":5.48396,"is_reserved":false,"is_disabled":false,"rental_uris":{"android":"levelo://app?vid=4b3417a6-1f1f-4163-87a9-5c0d16767f2a","ios":"levelo://app?vid=4b3417a6-1f1f-4163-87a9-5c0d16767f2a"},"vehicle_type_id":"4","last_reported":1769581290,"current_range_meters":5600,"station_id":"st_d3svhcjqgbts73a3dn0g","pricing_plan_id":"cebpf4jnsgd1na2vs0mg"},{"bike_id":"8caec0da-510f-465b-a85b-1a85d1f0149c","system_id":"levelo_inurba_marseille","lat":43.29018,"lon":5.38632,"is_reserved":false,"is_disabled":false,"rental_uris":{"android":"levelo://app?vid=8caec0da-510f-465b-a85b-1a85d1f0149c","ios":"levelo://app?vid=8caec0da-510f-465b-a85b-1a85d1f0149c"},"vehicle_type_id":"4","last_reported":1769581290,"current_range_meters":5600,"station_id":"ce4bh4p2rcd13ifvqe0g","pricing_plan_id":"cebpf4jnsgd1na2vs0mg"},{"bike_id":"78aa4272-c4e4-4137-8530-4c40847f1cd9","system_id":"levelo_inurba_marseille","lat":43.30534,"lon":5.36704,"is_reserved":false,"is_disabled":false,"rental_uris":{"android":"levelo://app?vid=78aa4272-c4e4-4137-8530-4c40847f1cd9","ios":"levelo://app?vid=78aa4272-c4e4-4137-8530-4c40847f1cd9"},"vehicle_type_id":"4","last_reported":1769581290,"current_range_meters":5600,"station_id":"ce4bgrp2rcd13ifvqc9g","pricing_plan_id":"cebpf4jnsgd1na2vs0mg"},{"bike_id":"db91af1c-8610-46d2-8811-cba210a8ff4f","system_id":"levelo_inurba_marseille","lat":43.33265,"lon":5.3795,"is_reserved":false,"is_disabled":false,"rental_uris":{"android":"levelo://app?vid=db91af1c-8610-46d2-8811-cba210a8ff4f","ios":"levelo://app?vid=db91af1c-8610-46d2-8811-cba210a8ff4f"},"vehicle_type_id":"4","last_reported":1769581290,"current_range_meters":5600,"station_id":"","pricing_plan_id":"cebpf4jnsgd1na2vs0mg"},{"bike_id":"caf214c6-f51e-422f-a150-65a2d01f29fe","system_id":"levelo_inurba_marseille","lat":43.33254,"lon":5.36628,"is_reserved":false,"is_disabled":false,"rental_uris":{"android":"levelo://app?vid=caf214c6-f51e-422f-a150-65a2d01f29fe","ios":"levelo://app?vid=caf214c6-f51e-422f-a150-65a2d01f29fe"},"vehicle_type_id":"4","last_reported":1769581290,"current_range_meters":5600,"station_id":"","pricing_plan_id":"cebpf4jnsgd1na2vs0mg"},{"bike_id":"5f88ef7d-34d2-43da-a22b-b843407995b2","system_id":"levelo_inurba_marseille","lat":43.25311,"lon":5.42181,"is_reserved":false,"is_disabled":false,"rental_uris":{"android":"levelo://app?vid=5f88ef7d-34d2-43da-a22b-b843407995b2","ios":"levelo://app?vid=5f88ef7d-34d2-43da-a22b-b843407995b2"},"vehicle_type_id":"4","last_reported":1769581290,"current_range_meters":5600,"station_id":"st_d2m65c5bi1j21697t3ng","pricing_plan_id":"cebpf4jnsgd1na2vs0mg"},{"bike_id":"31a9cf4b-bdac-45bc-804c-0eeaadaae826","system_id":"levelo_inurba_marseille","lat":43.28486,"lon":5.38568,"is_reserved":false,"is_disabled":false,"rental_uris":{"android":"levelo://app?vid=31a9cf4b-bdac-45bc-804c-0eeaadaae826","ios":"levelo://app?vid=31a9cf4b-bdac-45bc-804c-0eeaadaae826"},"vehicle_type_id":"4","last_reported":1769581290,"current_range_meters":6000,"station_id":"ce4bh8p2rcd13ifvqeb0","pricing_plan_id":"cebpf4jnsgd1na2vs0mg"},{"bike_id":"4854dc84-dcec-4dbc-9c00-a6f61a1c1439","system_id":"levelo_inurba_marseille","lat":43.299,"lon":5.36565,"is_reserved":false,"is_disabled":false,"rental_uris":{"android":"levelo://app?vid=4854dc84-dcec-4dbc-9c00-a6f61a1c1439","ios":"levelo://app?vid=4854dc84-dcec-4dbc-9c00-a6f61a1c1439"},"vehicle_type_id":"4","last_reported":1769581290,"current_range_meters":6000,"station_id":"ce4bgm92rcd13ifvqbr0","pricing_plan_id":"cebpf4jnsgd1na2vs0mg"},{"bike_id":"b244fee1-5adf-4ca2-81e4-cb11581286dd","system_id":"levelo_inurba_marseille","lat":43.29615,"lon":5.3772,"is_reserved":false,"is_disabled":false,"rental_uris":{"android":"levelo://app?vid=b244fee1-5adf-4ca2-81e4-cb11581286dd","ios":"levelo://app?vid=b244fee1-5adf-4ca2-81e4-cb11581286dd"},"vehicle_type_id":"4","last_reported":1769581290,"current_range_meters":6000,"station_id":"ce4bgi92rcd13ifvqb90","pricing_plan_id":"cebpf4jnsgd1na2vs0mg"},{"bike_id":"51b8f39f-e87e-4327-a9b7-dad481cf0cba","system_id":"levelo_inurba_marseille","lat":43.23752,"lon":5.36634,"is_reserved":false,"is_disabled":false,"rental_uris":{"android":"levelo://app?vid=51b8f39f-e87e-4327-a9b7-dad481cf0cba","ios":"levelo://app?vid=51b8f39f-e87e-4327-a9b7-dad481cf0cba"},"vehicle_type_id":"4","last_reported":1769581290,"current_range_meters":6000,"station_id":"st_d3nk18o9ro0c73en2l3g","pricing_plan_id":"cebpf4jnsgd1na2vs0mg"},{"bike_id":"730f088c-00d8-4b8f-a391-1a0afdcd34ad","system_id":"levelo_inurba_marseille","lat":43.25927,"lon":5.40895,"is_reserved":false,"is_disabled":false,"rental_uris":{"android":"levelo://app?vid=730f088c-00d8-4b8f-a391-1a0afdcd34ad","ios":"levelo://app?vid=730f088c-00d8-4b8f-a391-1a0afdcd34ad"},"vehicle_type_id":"4","last_reported":1769581290,"current_range_meters":6000,"station_id":"ce4bhm92rcd13ifvqglg","pricing_plan_id":"cebpf4jnsgd1na2vs0mg"},{"bike_id":"747f4c47-aefe-4b01-b365-5dc585c0a65f","system_id":"levelo_inurba_marseille","lat":43.26556,"lon":5.40332,"is_reserved":false,"is_disabled":false,"rental_uris":{"android":"levelo://app?vid=747f4c47-aefe-4b01-b365-5dc585c0a65f","ios":"levelo://app?vid=747f4c47-aefe-4b01-b365-5dc585c0a65f"},"vehicle_type_id":"4","last_reported":1769581290,"current_range_meters":6000,"station_id":"ce4bhmp2rcd13ifvqgng","pricing_plan_id":"cebpf4jnsgd1na2vs0mg"},{"bike_id":"11befed1-a92b-4a9f-975e-e6b2233bc5ee","system_id":"levelo_inurba_marseille","lat":43.25631,"lon":5.41828,"is_reserved":false,"is_disabled":false,"rental_uris":{"android":"levelo://app?vid=11befed1-a92b-4a9f-975e-e6b2233bc5ee","ios":"levelo://app?vid=11befed1-a92b-4a9f-975e-e6b2233bc5ee"},"vehicle_type_id":"4","last_reported":1769581290,"current_range_meters":6000,"station_id":"","pricing_plan_id":"cebpf4jnsgd1na2vs0mg"},{"bike_id":"175e5f71-fbb3-4254-8434-f47a57e9bda6","system_id":"levelo_inurba_marseille","lat":43.23141,"lon":5.43725,"is_reserved":false,"is_disabled":false,"rental_uris":{"android":"levelo://app?vid=175e5f71-fbb3-4254-8434-f47a57e9bda6","ios":"levelo://app?vid=175e5f71-fbb3-4254-8434-f47a57e9bda6"},"vehicle_type_id":"4","last_reported":1769581290,"current_range_meters":6000,"station_id":"ce4bhmp2rcd13ifvqgog","pricing_plan_id":"cebpf4jnsgd1na2vs0mg"},{"bike_id":"eeec3323-1eab-4171-a774-187bc3a536e5","system_id":"levelo_inurba_marseille","lat":43.29938,"lon":5.36503,"is_reserved":false,"is_disabled":false,"rental_uris":{"android":"levelo://app?vid=eeec3323-1eab-4171-a774-187bc3a536e5","ios":"levelo://app?vid=eeec3323-1eab-4171-a774-187bc3a536e5"},"vehicle_type_id":"4","last_reported":1769581290,"current_range_meters":6000,"station_id":"ce4bgm92rcd13ifvqbr0","pricing_plan_id":"cebpf4jnsgd1na2vs0mg"},{"bike_id":"8daea874-6378-4664-a8a0-600241f931cc","system_id":"levelo_inurba_marseille","lat":43.23788,"lon":5.36648,"is_reserved":false,"is_disabled":false,"rental_uris":{"android":"levelo://app?vid=8daea874-6378-4664-a8a0-600241f931cc","ios":"levelo://app?vid=8daea874-6378-4664-a8a0-600241f931cc"},"vehicle_type_id":"4","last_reported":1769581290,"current_range_meters":6000,"station_id":"st_d3nk18o9ro0c73en2l3g","pricing_plan_id":"cebpf4jnsgd1na2vs0mg"},{"bike_id":"773a0794-9608-48d0-ac87-744f6b7bca0d","system_id":"levelo_inurba_marseille","lat":43.2256,"lon":5.41632,"is_reserved":false,"is_disabled":false,"rental_uris":{"android":"levelo://app?vid=773a0794-9608-48d0-ac87-744f6b7bca0d","ios":"levelo://app?vid=773a0794-9608-48d0-ac87-744f6b7bca0d"},"vehicle_type_id":"4","last_reported":1769581290,"current_range_meters":6000,"station_id":"st_d2o4gvlbi1j2169b742g","pricing_plan_id":"cebpf4jnsgd1na2vs0mg"},{"bike_id":"38939492-5112-461d-8788-f383260a8286","system_id":"levelo_inurba_marseille","lat":43.3315,"lon":5.37701,"is_reserved":false,"is_disabled":false,"rental_uris":{"android":"levelo://app?vid=38939492-5112-461d-8788-f383260a8286","ios":"levelo://app?vid=38939492-5112-461d-8788-f383260a8286"},"vehicle_type_id":"4","last_reported":1769581290,"current_range_meters":6000,"station_id":"st_d46cu089ee8s73dldbu0","pricing_plan_id":"cebpf4jnsgd1na2vs0mg"},{"bike_id":"681ce965-8852-47c7-848e-dc11cce7b7a3","system_id":"levelo_inurba_marseille","lat":43.28414,"lon":5.37526,"is_reserved":false,"is_disabled":false,"rental_uris":{"android":"levelo://app?vid=681ce965-8852-47c7-848e-dc11cce7b7a3","ios":"levelo://app?vid=681ce965-8852-47c7-848e-dc11cce7b7a3"},"vehicle_type_id":"4","last_reported":1769581290,"current_range_meters":6000,"station_id":"ce4bh412rcd13ifvqds0","pricing_plan_id":"cebpf4jnsgd1na2vs0mg"},{"bike_id":"5629f77c-efd7-418d-a053-3ace41b8a029","system_id":"levelo_inurba_marseille","lat":43.28264,"lon":5.35071,"is_reserved":false,"is_disabled":false,"rental_uris":{"android":"levelo://app?vid=5629f77c-efd7-418d-a053-3ace41b8a029","ios":"levelo://app?vid=5629f77c-efd7-418d-a053-3ace41b8a029"},"vehicle_type_id":"4","last_reported":1769581290,"current_range_meters":6000,"station_id":"ce4bhbp2rcd13ifvqerg","pricing_plan_id":"cebpf4jnsgd1na2vs0mg"},{"bike_id":"0e3e56a8-c028-4a2f-88ed-6334be577f88","system_id":"levelo_inurba_marseille","lat":43.23145,"lon":5.43713,"is_reserved":false,"is_disabled":false,"rental_uris":{"android":"levelo://app?vid=0e3e56a8-c028-4a2f-88ed-6334be577f88","ios":"levelo://app?vid=0e3e56a8-c028-4a2f-88ed-6334be577f88"},"vehicle_type_id":"4","last_reported":1769581290,"current_range_meters":6000,"station_id":"ce4bhmp2rcd13ifvqgog","pricing_plan_id":"cebpf4jnsgd1na2vs0mg"},{"bike_id":"3dafe802-837e-451b-b935-a1b9b8663acf","system_id":"levelo_inurba_marseille","lat":43.28676,"lon":5.38672,"is_reserved":false,"is_disabled":false,"rental_uris":{"android":"levelo://app?vid=3dafe802-837e-451b-b935-a1b9b8663acf","ios":"levelo://app?vid=3dafe802-837e-451b-b935-a1b9b8663acf"},"vehicle_type_id":"4","last_reported":1769581290,"current_range_meters":6000,"station_id":"ce4bh492rcd13ifvqdug","pricing_plan_id":"cebpf4jnsgd1na2vs0mg"},{"bike_id":"a9c793a9-5d97-4324-bdcb-d5a005f7a8f7","system_id":"levelo_inurba_marseille","lat":43.309504,"lon":5.390444,"is_reserved":false,"is_disabled":true,"rental_uris":{"android":"levelo://app?vid=a9c793a9-5d97-4324-bdcb-d5a005f7a8f7","ios":"levelo://app?vid=a9c793a9-5d97-4324-bdcb-d5a005f7a8f7"},"vehicle_type_id":"4","last_reported":1769581290,"current_range_meters":6000,"station_id":"ce4bgup2rcd13ifvqco0","pricing_plan_id":"cebpf4jnsgd1na2vs0mg"},{"bike_id":"2ca6fe91-be90-4997-84ae-2ea75d00b036","system_id":"levelo_inurba_marseille","lat":43.30647,"lon":5.43166,"is_reserved":false,"is_disabled":false,"rental_uris":{"android":"levelo://app?vid=2ca6fe91-be90-4997-84ae-2ea75d00b036","ios":"levelo://app?vid=2ca6fe91-be90-4997-84ae-2ea75d00b036"},"vehicle_type_id":"4","last_reported":1769581290,"current_range_meters":6000,"station_id":"","pricing_plan_id":"cebpf4jnsgd1na2vs0mg"},{"bike_id":"800524c2-19cc-40be-87a1-b4e517236f21","system_id":"levelo_inurba_marseille","lat":43.274233,"lon":5.394112,"is_reserved":false,"is_disabled":false,"rental_uris":{"android":"levelo://app?vid=800524c2-19cc-40be-87a1-b4e517236f21","ios":"levelo://app?vid=800524c2-19cc-40be-87a1-b4e517236f21"},"vehicle_type_id":"4","last_reported":1769581290,"current_range_meters":6000,"station_id":"ce4bhdp2rcd13ifvqf20","pricing_plan_id":"cebpf4jnsgd1na2vs0mg"},{"bike_id":"db310099-e410-46db-8f42-7b76b3ec64f2","system_id":"levelo_inurba_marseille","lat":43.25814,"lon":5.39434,"is_reserved":false,"is_disabled":false,"rental_uris":{"android":"levelo://app?vid=db310099-e410-46db-8f42-7b76b3ec64f2","ios":"levelo://app?vid=db310099-e410-46db-8f42-7b76b3ec64f2"},"vehicle_type_id":"4","last_reported":1769581290,"current_range_meters":6000,"station_id":"ce4bhip2rcd13ifvqft0","pricing_plan_id":"cebpf4jnsgd1na2vs0mg"},{"bike_id":"2e77998e-c517-4f35-8821-169fc0fea54e","system_id":"levelo_inurba_marseille","lat":43.23188,"lon":5.35552,"is_reserved":false,"is_disabled":false,"rental_uris":{"android":"levelo://app?vid=2e77998e-c517-4f35-8821-169fc0fea54e","ios":"levelo://app?vid=2e77998e-c517-4f35-8821-169fc0fea54e"},"vehicle_type_id":"4","last_reported":1769581290,"current_range_meters":6000,"station_id":"ce4bhu92rcd13ifvqi70","pricing_plan_id":"cebpf4jnsgd1na2vs0mg"},{"bike_id":"2bb0f349-fb35-4e2d-a5ba-27ffd71d2f88","system_id":"levelo_inurba_marseille","lat":43.23191,"lon":5.39986,"is_reserved":false,"is_disabled":false,"rental_uris":{"android":"levelo://app?vid=2bb0f349-fb35-4e2d-a5ba-27ffd71d2f88","ios":"levelo://app?vid=2bb0f349-fb35-4e2d-a5ba-27ffd71d2f88"},"vehicle_type_id":"4","last_reported":1769581290,"current_range_meters":6000,"station_id":"ce4bhn12rcd13ifvqgqg","pricing_plan_id":"cebpf4jnsgd1na2vs0mg"},{"bike_id":"8d29d0e3-46a7-46e1-b1ec-72c4acc7e11e","system_id":"levelo_inurba_marseille","lat":43.31174,"lon":5.38718,"is_reserved":false,"is_disabled":false,"rental_uris":{"android":"levelo://app?vid=8d29d0e3-46a7-46e1-b1ec-72c4acc7e11e","ios":"levelo://app?vid=8d29d0e3-46a7-46e1-b1ec-72c4acc7e11e"},"vehicle_type_id":"4","last_reported":1769581290,"current_range_meters":6400,"station_id":"ce4bgv12rcd13ifvqcp0","pricing_plan_id":"cebpf4jnsgd1na2vs0mg"},{"bike_id":"1542e1ca-cd07-4dfd-9870-92d8d283ae0b","system_id":"levelo_inurba_marseille","lat":43.29261,"lon":5.40909,"is_reserved":false,"is_disabled":false,"rental_uris":{"android":"levelo://app?vid=1542e1ca-cd07-4dfd-9870-92d8d283ae0b","ios":"levelo://app?vid=1542e1ca-cd07-4dfd-9870-92d8d283ae0b"},"vehicle_type_id":"4","last_reported":1769581290,"current_range_meters":6400,"station_id":"ce4bh192rcd13ifvqdc0","pricing_plan_id":"cebpf4jnsgd1na2vs0mg"},{"bike_id":"8a225959-9028-4e8e-bb41-43f7382c386a","system_id":"levelo_inurba_marseille","lat":43.25427,"lon":5.39634,"is_reserved":false,"is_disabled":false,"rental_uris":{"android":"levelo://app?vid=8a225959-9028-4e8e-bb41-43f7382c386a","ios":"levelo://app?vid=8a225959-9028-4e8e-bb41-43f7382c386a"},"vehicle_type_id":"4","last_reported":1769581290,"current_range_meters":6400,"station_id":"","pricing_plan_id":"cebpf4jnsgd1na2vs0mg"},{"bike_id":"de9aa781-9c4f-4eff-9a2c-5d6291b57e78","system_id":"levelo_inurba_marseille","lat":43.28611,"lon":5.39884,"is_reserved":false,"is_disabled":false,"rental_uris":{"android":"levelo://app?vid=de9aa781-9c4f-4eff-9a2c-5d6291b57e78","ios":"levelo://app?vid=de9aa781-9c4f-4eff-9a2c-5d6291b57e78"},"vehicle_type_id":"4","last_reported":1769581290,"current_range_meters":6400,"station_id":"st_d4a7ka997mjs738ck50g","pricing_plan_id":"cebpf4jnsgd1na2vs0mg"},{"bike_id":"6b642e2e-5754-4090-ab24-4228cde7de3b","system_id":"levelo_inurba_marseille","lat":43.25322,"lon":5.42157,"is_reserved":false,"is_disabled":false,"rental_uris":{"android":"levelo://app?vid=6b642e2e-5754-4090-ab24-4228cde7de3b","ios":"levelo://app?vid=6b642e2e-5754-4090-ab24-4228cde7de3b"},"vehicle_type_id":"4","last_reported":1769581290,"current_range_meters":6400,"station_id":"st_d2m65c5bi1j21697t3ng","pricing_plan_id":"cebpf4jnsgd1na2vs0mg"},{"bike_id":"d2c4eb74-42b0-4647-9a1a-00c8b86dfe4c","system_id":"levelo_inurba_marseille","lat":43.25825,"lon":5.39425,"is_reserved":false,"is_disabled":false,"rental_uris":{"android":"levelo://app?vid=d2c4eb74-42b0-4647-9a1a-00c8b86dfe4c","ios":"levelo://app?vid=d2c4eb74-42b0-4647-9a1a-00c8b86dfe4c"},"vehicle_type_id":"4","last_reported":1769581290,"current_range_meters":6400,"station_id":"ce4bhip2rcd13ifvqft0","pricing_plan_id":"cebpf4jnsgd1na2vs0mg"},{"bike_id":"fcab2187-722c-47c3-bd9b-060a8b766a7c","system_id":"levelo_inurba_marseille","lat":43.24077,"lon":5.3772,"is_reserved":false,"is_disabled":true,"rental_uris":{"android":"levelo://app?vid=fcab2187-722c-47c3-bd9b-060a8b766a7c","ios":"levelo://app?vid=fcab2187-722c-47c3-bd9b-060a8b766a7c"},"vehicle_type_id":"4","last_reported":1769581290,"current_range_meters":6400,"station_id":"ce4bhnp2rcd13ifvqgvg","pricing_plan_id":"cebpf4jnsgd1na2vs0mg"},{"bike_id":"21ba2119-db74-43aa-b8cc-a48471daa57f","system_id":"levelo_inurba_marseille","lat":43.26063,"lon":5.39396,"is_reserved":false,"is_disabled":false,"rental_uris":{"android":"levelo://app?vid=21ba2119-db74-43aa-b8cc-a48471daa57f","ios":"levelo://app?vid=21ba2119-db74-43aa-b8cc-a48471daa57f"},"vehicle_type_id":"4","last_reported":1769581290,"current_range_meters":6400,"station_id":"ce4bhh92rcd13ifvqfj0","pricing_plan_id":"cebpf4jnsgd1na2vs0mg"},{"bike_id":"958b43fb-8c80-4692-977b-3f50e641a707","system_id":"levelo_inurba_marseille","lat":43.25933,"lon":5.40923,"is_reserved":false,"is_disabled":false,"rental_uris":{"android":"levelo://app?vid=958b43fb-8c80-4692-977b-3f50e641a707","ios":"levelo://app?vid=958b43fb-8c80-4692-977b-3f50e641a707"},"vehicle_type_id":"4","last_reported":1769581290,"current_range_meters":6400,"station_id":"ce4bhm92rcd13ifvqglg","pricing_plan_id":"cebpf4jnsgd1na2vs0mg"},{"bike_id":"ec6cd7cd-b5d0-46e7-a3c8-0526c2ec4592","system_id":"levelo_inurba_marseille","lat":43.28427,"lon":5.34981,"is_reserved":false,"is_disabled":false,"rental_uris":{"android":"levelo://app?vid=ec6cd7cd-b5d0-46e7-a3c8-0526c2ec4592","ios":"levelo://app?vid=ec6cd7cd-b5d0-46e7-a3c8-0526c2ec4592"},"vehicle_type_id":"4","last_reported":1769581290,"current_range_meters":6400,"station_id":"ce4bhbh2rcd13ifvqepg","pricing_plan_id":"cebpf4jnsgd1na2vs0mg"},{"bike_id":"5ec5e39e-3ed1-40f6-847f-e3215d6e9aa5","system_id":"levelo_inurba_marseille","lat":43.28413,"lon":5.34985,"is_reserved":false,"is_disabled":false,"rental_uris":{"android":"levelo://app?vid=5ec5e39e-3ed1-40f6-847f-e3215d6e9aa5","ios":"levelo://app?vid=5ec5e39e-3ed1-40f6-847f-e3215d6e9aa5"},"vehicle_type_id":"4","last_reported":1769581290,"current_range_meters":6400,"station_id":"ce4bhbh2rcd13ifvqepg","pricing_plan_id":"cebpf4jnsgd1na2vs0mg"},{"bike_id":"8ee4fc0d-7e68-4f07-915e-0e457859cb73","system_id":"levelo_inurba_marseille","lat":43.31274,"lon":5.40171,"is_reserved":false,"is_disabled":false,"rental_uris":{"android":"levelo://app?vid=8ee4fc0d-7e68-4f07-915e-0e457859cb73","ios":"levelo://app?vid=8ee4fc0d-7e68-4f07-915e-0e457859cb73"},"vehicle_type_id":"4","last_reported":1769581290,"current_range_meters":6800,"station_id":"ce4bh092rcd13ifvqd30","pricing_plan_id":"cebpf4jnsgd1na2vs0mg"},{"bike_id":"3f2aa41d-c383-46ab-8819-d330a3a97ead","system_id":"levelo_inurba_marseille","lat":43.24062,"lon":5.37792,"is_reserved":false,"is_disabled":false,"rental_uris":{"android":"levelo://app?vid=3f2aa41d-c383-46ab-8819-d330a3a97ead","ios":"levelo://app?vid=3f2aa41d-c383-46ab-8819-d330a3a97ead"},"vehicle_type_id":"4","last_reported":1769581290,"current_range_meters":6800,"station_id":"ce4bhnp2rcd13ifvqgvg","pricing_plan_id":"cebpf4jnsgd1na2vs0mg"},{"bike_id":"514c844d-80e4-42ca-ab9c-6d07233a3220","system_id":"levelo_inurba_marseille","lat":43.297947,"lon":5.39342,"is_reserved":false,"is_disabled":false,"rental_uris":{"android":"levelo://app?vid=514c844d-80e4-42ca-ab9c-6d07233a3220","ios":"levelo://app?vid=514c844d-80e4-42ca-ab9c-6d07233a3220"},"vehicle_type_id":"4","last_reported":1769581290,"current_range_meters":6800,"station_id":"chh1huq6cuj3fo74tm60","pricing_plan_id":"cebpf4jnsgd1na2vs0mg"},{"bike_id":"9d18fdf9-39ae-4327-b5b3-8e0012d45c5a","system_id":"levelo_inurba_marseille","lat":43.31544,"lon":5.38042,"is_reserved":false,"is_disabled":false,"rental_uris":{"android":"levelo://app?vid=9d18fdf9-39ae-4327-b5b3-8e0012d45c5a","ios":"levelo://app?vid=9d18fdf9-39ae-4327-b5b3-8e0012d45c5a"},"vehicle_type_id":"4","last_reported":1769581290,"current_range_meters":6800,"station_id":"ce4bhsp2rcd13ifvqi50","pricing_plan_id":"cebpf4jnsgd1na2vs0mg"},{"bike_id":"3bc5eb93-5e52-4f30-bca7-1c72bb708566","system_id":"levelo_inurba_marseille","lat":43.30904,"lon":5.37221,"is_reserved":false,"is_disabled":false,"rental_uris":{"android":"levelo://app?vid=3bc5eb93-5e52-4f30-bca7-1c72bb708566","ios":"levelo://app?vid=3bc5eb93-5e52-4f30-bca7-1c72bb708566"},"vehicle_type_id":"4","last_reported":1769581290,"current_range_meters":6800,"station_id":"ce4bguh2rcd13ifvqckg","pricing_plan_id":"cebpf4jnsgd1na2vs0mg"},{"bike_id":"1ad2e393-a92c-4f9d-816f-005ca727b14e","system_id":"levelo_inurba_marseille","lat":43.23147,"lon":5.43725,"is_reserved":false,"is_disabled":false,"rental_uris":{"android":"levelo://app?vid=1ad2e393-a92c-4f9d-816f-005ca727b14e","ios":"levelo://app?vid=1ad2e393-a92c-4f9d-816f-005ca727b14e"},"vehicle_type_id":"4","last_reported":1769581290,"current_range_meters":6800,"station_id":"ce4bhmp2rcd13ifvqgog","pricing_plan_id":"cebpf4jnsgd1na2vs0mg"},{"bike_id":"0e2af928-1823-41b4-be10-9ab8609a9a2e","system_id":"levelo_inurba_marseille","lat":43.2417,"lon":5.36393,"is_reserved":false,"is_disabled":false,"rental_uris":{"android":"levelo://app?vid=0e2af928-1823-41b4-be10-9ab8609a9a2e","ios":"levelo://app?vid=0e2af928-1823-41b4-be10-9ab8609a9a2e"},"vehicle_type_id":"4","last_reported":1769581290,"current_range_meters":6800,"station_id":"cpo36qri1sfpv3e86is0","pricing_plan_id":"cebpf4jnsgd1na2vs0mg"},{"bike_id":"d89cf35e-ea72-4be0-abab-d87970f6484a","system_id":"levelo_inurba_marseille","lat":43.30542,"lon":5.36535,"is_reserved":false,"is_disabled":false,"rental_uris":{"android":"levelo://app?vid=d89cf35e-ea72-4be0-abab-d87970f6484a","ios":"levelo://app?vid=d89cf35e-ea72-4be0-abab-d87970f6484a"},"vehicle_type_id":"4","last_reported":1769581290,"current_range_meters":6800,"station_id":"ce4bgs12rcd13ifvqcag","pricing_plan_id":"cebpf4jnsgd1na2vs0mg"},{"bike_id":"81fef906-e459-4704-b7bd-13ca2e6b9c5d","system_id":"levelo_inurba_marseille","lat":43.25567,"lon":5.38232,"is_reserved":false,"is_disabled":false,"rental_uris":{"android":"levelo://app?vid=81fef906-e459-4704-b7bd-13ca2e6b9c5d","ios":"levelo://app?vid=81fef906-e459-4704-b7bd-13ca2e6b9c5d"},"vehicle_type_id":"4","last_reported":1769581290,"current_range_meters":6800,"station_id":"ce4bhih2rcd13ifvqfs0","pricing_plan_id":"cebpf4jnsgd1na2vs0mg"},{"bike_id":"832ba7eb-1c35-43cb-be63-61f58639df63","system_id":"levelo_inurba_marseille","lat":43.32327,"lon":5.36756,"is_reserved":false,"is_disabled":false,"rental_uris":{"android":"levelo://app?vid=832ba7eb-1c35-43cb-be63-61f58639df63","ios":"levelo://app?vid=832ba7eb-1c35-43cb-be63-61f58639df63"},"vehicle_type_id":"4","last_reported":1769581290,"current_range_meters":6800,"station_id":"ce4bhsh2rcd13ifvqi2g","pricing_plan_id":"cebpf4jnsgd1na2vs0mg"},{"bike_id":"8de525a9-5bd3-43a9-9291-a02ed36bbc58","system_id":"levelo_inurba_marseille","lat":43.33148,"lon":5.37686,"is_reserved":false,"is_disabled":false,"rental_uris":{"android":"levelo://app?vid=8de525a9-5bd3-43a9-9291-a02ed36bbc58","ios":"levelo://app?vid=8de525a9-5bd3-43a9-9291-a02ed36bbc58"},"vehicle_type_id":"4","last_reported":1769581290,"current_range_meters":6800,"station_id":"st_d46cu089ee8s73dldbu0","pricing_plan_id":"cebpf4jnsgd1na2vs0mg"},{"bike_id":"a8f1b119-7c8f-4823-adf6-e1c0d9df05c4","system_id":"levelo_inurba_marseille","lat":43.30647,"lon":5.40062,"is_reserved":false,"is_disabled":false,"rental_uris":{"android":"levelo://app?vid=a8f1b119-7c8f-4823-adf6-e1c0d9df05c4","ios":"levelo://app?vid=a8f1b119-7c8f-4823-adf6-e1c0d9df05c4"},"vehicle_type_id":"4","last_reported":1769581290,"current_range_meters":6800,"station_id":"ce4bh112rcd13ifvqda0","pricing_plan_id":"cebpf4jnsgd1na2vs0mg"},{"bike_id":"5432d7a0-1700-4fbb-98da-e9587b56686e","system_id":"levelo_inurba_marseille","lat":43.2761,"lon":5.36106,"is_reserved":false,"is_disabled":false,"rental_uris":{"android":"levelo://app?vid=5432d7a0-1700-4fbb-98da-e9587b56686e","ios":"levelo://app?vid=5432d7a0-1700-4fbb-98da-e9587b56686e"},"vehicle_type_id":"4","last_reported":1769581290,"current_range_meters":7200,"station_id":"ce4bgj92rcd13ifvqbe0","pricing_plan_id":"cebpf4jnsgd1na2vs0mg"},{"bike_id":"82a6b099-0577-4798-9a60-21fb38c2bbb7","system_id":"levelo_inurba_marseille","lat":43.29813,"lon":5.44064,"is_reserved":false,"is_disabled":false,"rental_uris":{"android":"levelo://app?vid=82a6b099-0577-4798-9a60-21fb38c2bbb7","ios":"levelo://app?vid=82a6b099-0577-4798-9a60-21fb38c2bbb7"},"vehicle_type_id":"4","last_reported":1769581290,"current_range_meters":7200,"station_id":"st_d3jp68qikq2c7381ktn0","pricing_plan_id":"cebpf4jnsgd1na2vs0mg"},{"bike_id":"701b1f82-872b-404a-b1b9-c04d698fc931","system_id":"levelo_inurba_marseille","lat":43.28973,"lon":5.35635,"is_reserved":false,"is_disabled":false,"rental_uris":{"android":"levelo://app?vid=701b1f82-872b-404a-b1b9-c04d698fc931","ios":"levelo://app?vid=701b1f82-872b-404a-b1b9-c04d698fc931"},"vehicle_type_id":"4","last_reported":1769581290,"current_range_meters":7200,"station_id":"ce4bhb92rcd13ifvqen0","pricing_plan_id":"cebpf4jnsgd1na2vs0mg"},{"bike_id":"83fc51a6-33d8-4514-8bb6-691df6dd60b4","system_id":"levelo_inurba_marseille","lat":43.301228,"lon":5.431025,"is_reserved":false,"is_disabled":false,"rental_uris":{"android":"levelo://app?vid=83fc51a6-33d8-4514-8bb6-691df6dd60b4","ios":"levelo://app?vid=83fc51a6-33d8-4514-8bb6-691df6dd60b4"},"vehicle_type_id":"4","last_reported":1769581290,"current_range_meters":7200,"station_id":"st_d3js3co5814s73ftftug","pricing_plan_id":"cebpf4jnsgd1na2vs0mg"},{"bike_id":"f1b504c8-6ca4-4143-a7a7-e72830d2ebb5","system_id":"levelo_inurba_marseille","lat":43.28104,"lon":5.37846,"is_reserved":false,"is_disabled":false,"rental_uris":{"android":"levelo://app?vid=f1b504c8-6ca4-4143-a7a7-e72830d2ebb5","ios":"levelo://app?vid=f1b504c8-6ca4-4143-a7a7-e72830d2ebb5"},"vehicle_type_id":"4","last_reported":1769581290,"current_range_meters":7200,"station_id":"ce4bha12rcd13ifvqee0","pricing_plan_id":"cebpf4jnsgd1na2vs0mg"},{"bike_id":"63dc15a4-721e-4373-abbf-a95cac1a8859","system_id":"levelo_inurba_marseille","lat":43.26917,"lon":5.40256,"is_reserved":false,"is_disabled":false,"rental_uris":{"android":"levelo://app?vid=63dc15a4-721e-4373-abbf-a95cac1a8859","ios":"levelo://app?vid=63dc15a4-721e-4373-abbf-a95cac1a8859"},"vehicle_type_id":"4","last_reported":1769581290,"current_range_meters":7200,"station_id":"cjm6bp8fraef2m0cb0m0","pricing_plan_id":"cebpf4jnsgd1na2vs0mg"},{"bike_id":"e23c24f4-b640-46d3-8f45-06cfab7ac66b","system_id":"levelo_inurba_marseille","lat":43.28611,"lon":5.39859,"is_reserved":false,"is_disabled":true,"rental_uris":{"android":"levelo://app?vid=e23c24f4-b640-46d3-8f45-06cfab7ac66b","ios":"levelo://app?vid=e23c24f4-b640-46d3-8f45-06cfab7ac66b"},"vehicle_type_id":"4","last_reported":1769581290,"current_range_meters":7200,"station_id":"st_d4a7ka997mjs738ck50g","pricing_plan_id":"cebpf4jnsgd1na2vs0mg"},{"bike_id":"69c7f316-91ef-4e7e-b7c9-fa2468ad9829","system_id":"levelo_inurba_marseille","lat":43.28,"lon":5.4167,"is_reserved":false,"is_disabled":false,"rental_uris":{"android":"levelo://app?vid=69c7f316-91ef-4e7e-b7c9-fa2468ad9829","ios":"levelo://app?vid=69c7f316-91ef-4e7e-b7c9-fa2468ad9829"},"vehicle_type_id":"4","last_reported":1769581290,"current_range_meters":7200,"station_id":"ce4bho12rcd13ifvqh1g","pricing_plan_id":"cebpf4jnsgd1na2vs0mg"},{"bike_id":"55815b43-85cf-40ff-97dd-1477d8dcbf09","system_id":"levelo_inurba_marseille","lat":43.23146,"lon":5.43727,"is_reserved":false,"is_disabled":false,"rental_uris":{"android":"levelo://app?vid=55815b43-85cf-40ff-97dd-1477d8dcbf09","ios":"levelo://app?vid=55815b43-85cf-40ff-97dd-1477d8dcbf09"},"vehicle_type_id":"4","last_reported":1769581290,"current_range_meters":7200,"station_id":"ce4bhmp2rcd13ifvqgog","pricing_plan_id":"cebpf4jnsgd1na2vs0mg"},{"bike_id":"43cdc93d-f3f2-47d5-9737-990cb5438b9e","system_id":"levelo_inurba_marseille","lat":43.33143,"lon":5.37694,"is_reserved":false,"is_disabled":false,"rental_uris":{"android":"levelo://app?vid=43cdc93d-f3f2-47d5-9737-990cb5438b9e","ios":"levelo://app?vid=43cdc93d-f3f2-47d5-9737-990cb5438b9e"},"vehicle_type_id":"4","last_reported":1769581290,"current_range_meters":7200,"station_id":"st_d46cu089ee8s73dldbu0","pricing_plan_id":"cebpf4jnsgd1na2vs0mg"},{"bike_id":"69015cf3-bc6b-446f-9be5-f6f422a1478d","system_id":"levelo_inurba_marseille","lat":43.28865,"lon":5.42526,"is_reserved":false,"is_disabled":false,"rental_uris":{"android":"levelo://app?vid=69015cf3-bc6b-446f-9be5-f6f422a1478d","ios":"levelo://app?vid=69015cf3-bc6b-446f-9be5-f6f422a1478d"},"vehicle_type_id":"4","last_reported":1769581290,"current_range_meters":7200,"station_id":"st_d3b462108ojc7389ooeg","pricing_plan_id":"cebpf4jnsgd1na2vs0mg"},{"bike_id":"dd025a3b-8d88-4cc7-98ea-d46d5c91c806","system_id":"levelo_inurba_marseille","lat":43.2719,"lon":5.40988,"is_reserved":false,"is_disabled":false,"rental_uris":{"android":"levelo://app?vid=dd025a3b-8d88-4cc7-98ea-d46d5c91c806","ios":"levelo://app?vid=dd025a3b-8d88-4cc7-98ea-d46d5c91c806"},"vehicle_type_id":"4","last_reported":1769581290,"current_range_meters":7200,"station_id":"ce4bhl12rcd13ifvqgf0","pricing_plan_id":"cebpf4jnsgd1na2vs0mg"},{"bike_id":"99601a2c-48b8-4f74-97ad-6df8e49ff5ae","system_id":"levelo_inurba_marseille","lat":43.315,"lon":5.37301,"is_reserved":false,"is_disabled":false,"rental_uris":{"android":"levelo://app?vid=99601a2c-48b8-4f74-97ad-6df8e49ff5ae","ios":"levelo://app?vid=99601a2c-48b8-4f74-97ad-6df8e49ff5ae"},"vehicle_type_id":"4","last_reported":1769581290,"current_range_meters":8000,"station_id":"ce4bgt12rcd13ifvqcd0","pricing_plan_id":"cebpf4jnsgd1na2vs0mg"},{"bike_id":"2b025830-a75f-4dd0-9345-1f4a2853b8f8","system_id":"levelo_inurba_marseille","lat":43.3234,"lon":5.36747,"is_reserved":false,"is_disabled":false,"rental_uris":{"android":"levelo://app?vid=2b025830-a75f-4dd0-9345-1f4a2853b8f8","ios":"levelo://app?vid=2b025830-a75f-4dd0-9345-1f4a2853b8f8"},"vehicle_type_id":"4","last_reported":1769581290,"current_range_meters":8000,"station_id":"ce4bhsh2rcd13ifvqi2g","pricing_plan_id":"cebpf4jnsgd1na2vs0mg"},{"bike_id":"d6f39e75-dc9f-4ba9-bbb4-c7d3ad379682","system_id":"levelo_inurba_marseille","lat":43.29723,"lon":5.37713,"is_reserved":false,"is_disabled":true,"rental_uris":{"android":"levelo://app?vid=d6f39e75-dc9f-4ba9-bbb4-c7d3ad379682","ios":"levelo://app?vid=d6f39e75-dc9f-4ba9-bbb4-c7d3ad379682"},"vehicle_type_id":"4","last_reported":1769581290,"current_range_meters":8000,"station_id":"ce4bgkh2rcd13ifvqbl0","pricing_plan_id":"cebpf4jnsgd1na2vs0mg"},{"bike_id":"70e6e4b1-7efc-43fa-b416-14145ad2c461","system_id":"levelo_inurba_marseille","lat":43.27797,"lon":5.40732,"is_reserved":false,"is_disabled":false,"rental_uris":{"android":"levelo://app?vid=70e6e4b1-7efc-43fa-b416-14145ad2c461","ios":"levelo://app?vid=70e6e4b1-7efc-43fa-b416-14145ad2c461"},"vehicle_type_id":"4","last_reported":1769581290,"current_range_meters":8000,"station_id":"ce4bhnh2rcd13ifvqgtg","pricing_plan_id":"cebpf4jnsgd1na2vs0mg"},{"bike_id":"678be1cf-f9f7-49eb-adf8-547682fd2956","system_id":"levelo_inurba_marseille","lat":43.25333,"lon":5.42148,"is_reserved":false,"is_disabled":false,"rental_uris":{"android":"levelo://app?vid=678be1cf-f9f7-49eb-adf8-547682fd2956","ios":"levelo://app?vid=678be1cf-f9f7-49eb-adf8-547682fd2956"},"vehicle_type_id":"4","last_reported":1769581290,"current_range_meters":8000,"station_id":"st_d2m65c5bi1j21697t3ng","pricing_plan_id":"cebpf4jnsgd1na2vs0mg"},{"bike_id":"88a37b06-9d5d-4de9-85d2-81901cc8e044","system_id":"levelo_inurba_marseille","lat":43.29565,"lon":5.39972,"is_reserved":false,"is_disabled":false,"rental_uris":{"android":"levelo://app?vid=88a37b06-9d5d-4de9-85d2-81901cc8e044","ios":"levelo://app?vid=88a37b06-9d5d-4de9-85d2-81901cc8e044"},"vehicle_type_id":"4","last_reported":1769581290,"current_range_meters":8000,"station_id":"ce4bh312rcd13ifvqdj0","pricing_plan_id":"cebpf4jnsgd1na2vs0mg"},{"bike_id":"700f53c3-0f71-427d-98b9-13f521e75378","system_id":"levelo_inurba_marseille","lat":43.292144,"lon":5.360579,"is_reserved":false,"is_disabled":false,"rental_uris":{"android":"levelo://app?vid=700f53c3-0f71-427d-98b9-13f521e75378","ios":"levelo://app?vid=700f53c3-0f71-427d-98b9-13f521e75378"},"vehicle_type_id":"4","last_reported":1769581290,"current_range_meters":8000,"station_id":"ce4bhbh2rcd13ifvqeqg","pricing_plan_id":"cebpf4jnsgd1na2vs0mg"},{"bike_id":"1f27925c-ff25-4870-9c4e-ac24412cf67a","system_id":"levelo_inurba_marseille","lat":43.30089,"lon":5.37668,"is_reserved":false,"is_disabled":false,"rental_uris":{"android":"levelo://app?vid=1f27925c-ff25-4870-9c4e-ac24412cf67a","ios":"levelo://app?vid=1f27925c-ff25-4870-9c4e-ac24412cf67a"},"vehicle_type_id":"4","last_reported":1769581290,"current_range_meters":8000,"station_id":"","pricing_plan_id":"cebpf4jnsgd1na2vs0mg"},{"bike_id":"a8bb1413-c00e-4733-889d-5d7e76a39ec8","system_id":"levelo_inurba_marseille","lat":43.2707,"lon":5.38301,"is_reserved":false,"is_disabled":false,"rental_uris":{"android":"levelo://app?vid=a8bb1413-c00e-4733-889d-5d7e76a39ec8","ios":"levelo://app?vid=a8bb1413-c00e-4733-889d-5d7e76a39ec8"},"vehicle_type_id":"4","last_reported":1769581290,"current_range_meters":8000,"station_id":"st_d3n2fo6cfp8s73cte1j0","pricing_plan_id":"cebpf4jnsgd1na2vs0mg"},{"bike_id":"2e4b5a78-8d5f-49ab-a32c-da3979878386","system_id":"levelo_inurba_marseille","lat":43.25483,"lon":5.37649,"is_reserved":false,"is_disabled":false,"rental_uris":{"android":"levelo://app?vid=2e4b5a78-8d5f-49ab-a32c-da3979878386","ios":"levelo://app?vid=2e4b5a78-8d5f-49ab-a32c-da3979878386"},"vehicle_type_id":"4","last_reported":1769581290,"current_range_meters":8000,"station_id":"ce4bhh12rcd13ifvqff0","pricing_plan_id":"cebpf4jnsgd1na2vs0mg"},{"bike_id":"60c02f49-2adf-4424-ade8-9c6070d15506","system_id":"levelo_inurba_marseille","lat":43.25006,"lon":5.38914,"is_reserved":false,"is_disabled":false,"rental_uris":{"android":"levelo://app?vid=60c02f49-2adf-4424-ade8-9c6070d15506","ios":"levelo://app?vid=60c02f49-2adf-4424-ade8-9c6070d15506"},"vehicle_type_id":"4","last_reported":1769581290,"current_range_meters":8000,"station_id":"ce4bhgp2rcd13ifvqfd0","pricing_plan_id":"cebpf4jnsgd1na2vs0mg"},{"bike_id":"7685a49c-8aa3-4105-b6c4-9b0fdec5d0f8","system_id":"levelo_inurba_marseille","lat":43.31492,"lon":5.3721,"is_reserved":false,"is_disabled":false,"rental_uris":{"android":"levelo://app?vid=7685a49c-8aa3-4105-b6c4-9b0fdec5d0f8","ios":"levelo://app?vid=7685a49c-8aa3-4105-b6c4-9b0fdec5d0f8"},"vehicle_type_id":"4","last_reported":1769581290,"current_range_meters":8000,"station_id":"","pricing_plan_id":"cebpf4jnsgd1na2vs0mg"},{"bike_id":"2dbcfb09-4400-44a8-acaa-f7ee75e884ce","system_id":"levelo_inurba_marseille","lat":43.24472,"lon":5.42534,"is_reserved":false,"is_disabled":false,"rental_uris":{"android":"levelo://app?vid=2dbcfb09-4400-44a8-acaa-f7ee75e884ce","ios":"levelo://app?vid=2dbcfb09-4400-44a8-acaa-f7ee75e884ce"},"vehicle_type_id":"4","last_reported":1769581290,"current_range_meters":8000,"station_id":"st_d4a3vfp97mjs738cd8kg","pricing_plan_id":"cebpf4jnsgd1na2vs0mg"},{"bike_id":"42f8414b-aac3-4531-a10a-d65bb6862d25","system_id":"levelo_inurba_marseille","lat":43.25311,"lon":5.42174,"is_reserved":false,"is_disabled":false,"rental_uris":{"android":"levelo://app?vid=42f8414b-aac3-4531-a10a-d65bb6862d25","ios":"levelo://app?vid=42f8414b-aac3-4531-a10a-d65bb6862d25"},"vehicle_type_id":"4","last_reported":1769581290,"current_range_meters":8000,"station_id":"st_d2m65c5bi1j21697t3ng","pricing_plan_id":"cebpf4jnsgd1na2vs0mg"},{"bike_id":"5d05d531-ebc5-422e-a94d-fab2e789248e","system_id":"levelo_inurba_marseille","lat":43.25087,"lon":5.39499,"is_reserved":false,"is_disabled":false,"rental_uris":{"android":"levelo://app?vid=5d05d531-ebc5-422e-a94d-fab2e789248e","ios":"levelo://app?vid=5d05d531-ebc5-422e-a94d-fab2e789248e"},"vehicle_type_id":"4","last_reported":1769581290,"current_range_meters":8400,"station_id":"ce4bhm12rcd13ifvqgkg","pricing_plan_id":"cebpf4jnsgd1na2vs0mg"},{"bike_id":"7c70a630-f080-4d65-8f79-af323dbedc62","system_id":"levelo_inurba_marseille","lat":43.30153,"lon":5.43137,"is_reserved":false,"is_disabled":false,"rental_uris":{"android":"levelo://app?vid=7c70a630-f080-4d65-8f79-af323dbedc62","ios":"levelo://app?vid=7c70a630-f080-4d65-8f79-af323dbedc62"},"vehicle_type_id":"4","last_reported":1769581290,"current_range_meters":8400,"station_id":"st_d3js3co5814s73ftftug","pricing_plan_id":"cebpf4jnsgd1na2vs0mg"},{"bike_id":"72089be9-38d6-423c-b54b-444cdb64406b","system_id":"levelo_inurba_marseille","lat":43.28426,"lon":5.34979,"is_reserved":false,"is_disabled":false,"rental_uris":{"android":"levelo://app?vid=72089be9-38d6-423c-b54b-444cdb64406b","ios":"levelo://app?vid=72089be9-38d6-423c-b54b-444cdb64406b"},"vehicle_type_id":"4","last_reported":1769581290,"current_range_meters":8400,"station_id":"ce4bhbh2rcd13ifvqepg","pricing_plan_id":"cebpf4jnsgd1na2vs0mg"},{"bike_id":"bac31d5e-69ad-4b95-9bcb-aa8baed8fee9","system_id":"levelo_inurba_marseille","lat":43.30882,"lon":5.39635,"is_reserved":false,"is_disabled":false,"rental_uris":{"android":"levelo://app?vid=bac31d5e-69ad-4b95-9bcb-aa8baed8fee9","ios":"levelo://app?vid=bac31d5e-69ad-4b95-9bcb-aa8baed8fee9"},"vehicle_type_id":"4","last_reported":1769581290,"current_range_meters":8400,"station_id":"ce4bh012rcd13ifvqcv0","pricing_plan_id":"cebpf4jnsgd1na2vs0mg"},{"bike_id":"b641be8d-2a32-425d-bc32-cceff7ab894e","system_id":"levelo_inurba_marseille","lat":43.24669,"lon":5.38141,"is_reserved":false,"is_disabled":false,"rental_uris":{"android":"levelo://app?vid=b641be8d-2a32-425d-bc32-cceff7ab894e","ios":"levelo://app?vid=b641be8d-2a32-425d-bc32-cceff7ab894e"},"vehicle_type_id":"4","last_reported":1769581290,"current_range_meters":8400,"station_id":"ce4bhih2rcd13ifvqfr0","pricing_plan_id":"cebpf4jnsgd1na2vs0mg"},{"bike_id":"234f7311-25dc-4b55-a0cb-d05382a81de7","system_id":"levelo_inurba_marseille","lat":43.30304,"lon":5.36887,"is_reserved":false,"is_disabled":false,"rental_uris":{"android":"levelo://app?vid=234f7311-25dc-4b55-a0cb-d05382a81de7","ios":"levelo://app?vid=234f7311-25dc-4b55-a0cb-d05382a81de7"},"vehicle_type_id":"4","last_reported":1769581290,"current_range_meters":8400,"station_id":"ce4bgqh2rcd13ifvqc5g","pricing_plan_id":"cebpf4jnsgd1na2vs0mg"},{"bike_id":"215d9242-cc67-4957-98e5-94a2159c71f8","system_id":"levelo_inurba_marseille","lat":43.32337,"lon":5.36715,"is_reserved":false,"is_disabled":false,"rental_uris":{"android":"levelo://app?vid=215d9242-cc67-4957-98e5-94a2159c71f8","ios":"levelo://app?vid=215d9242-cc67-4957-98e5-94a2159c71f8"},"vehicle_type_id":"4","last_reported":1769581290,"current_range_meters":8400,"station_id":"ce4bhsh2rcd13ifvqi2g","pricing_plan_id":"cebpf4jnsgd1na2vs0mg"},{"bike_id":"0bf0459a-fbb5-4f06-abd8-2dc09069a288","system_id":"levelo_inurba_marseille","lat":43.28744,"lon":5.3607,"is_reserved":false,"is_disabled":false,"rental_uris":{"android":"levelo://app?vid=0bf0459a-fbb5-4f06-abd8-2dc09069a288","ios":"levelo://app?vid=0bf0459a-fbb5-4f06-abd8-2dc09069a288"},"vehicle_type_id":"4","last_reported":1769581290,"current_range_meters":8400,"station_id":"cki0cbj6b192h4jlfktg","pricing_plan_id":"cebpf4jnsgd1na2vs0mg"},{"bike_id":"c00d1abe-f6f3-4677-9b5b-65f2d4348ca7","system_id":"levelo_inurba_marseille","lat":43.23181,"lon":5.35546,"is_reserved":false,"is_disabled":false,"rental_uris":{"android":"levelo://app?vid=c00d1abe-f6f3-4677-9b5b-65f2d4348ca7","ios":"levelo://app?vid=c00d1abe-f6f3-4677-9b5b-65f2d4348ca7"},"vehicle_type_id":"4","last_reported":1769581290,"current_range_meters":8400,"station_id":"ce4bhu92rcd13ifvqi70","pricing_plan_id":"cebpf4jnsgd1na2vs0mg"},{"bike_id":"6c565bad-d59d-4237-a764-78dae2c15adc","system_id":"levelo_inurba_marseille","lat":43.27917,"lon":5.39605,"is_reserved":false,"is_disabled":false,"rental_uris":{"android":"levelo://app?vid=6c565bad-d59d-4237-a764-78dae2c15adc","ios":"levelo://app?vid=6c565bad-d59d-4237-a764-78dae2c15adc"},"vehicle_type_id":"4","last_reported":1769581290,"current_range_meters":8400,"station_id":"ce4bhf92rcd13ifvqf40","pricing_plan_id":"cebpf4jnsgd1na2vs0mg"},{"bike_id":"d75d722c-1278-467f-b25c-2eec7b30ce3e","system_id":"levelo_inurba_marseille","lat":43.29692,"lon":5.37753,"is_reserved":false,"is_disabled":false,"rental_uris":{"android":"levelo://app?vid=d75d722c-1278-467f-b25c-2eec7b30ce3e","ios":"levelo://app?vid=d75d722c-1278-467f-b25c-2eec7b30ce3e"},"vehicle_type_id":"4","last_reported":1769581290,"current_range_meters":8400,"station_id":"","pricing_plan_id":"cebpf4jnsgd1na2vs0mg"},{"bike_id":"0e67fe98-9108-433b-9434-394fc2106387","system_id":"levelo_inurba_marseille","lat":43.24631,"lon":5.43141,"is_reserved":false,"is_disabled":false,"rental_uris":{"android":"levelo://app?vid=0e67fe98-9108-433b-9434-394fc2106387","ios":"levelo://app?vid=0e67fe98-9108-433b-9434-394fc2106387"},"vehicle_type_id":"4","last_reported":1769581290,"current_range_meters":8400,"station_id":"st_d2m6c4gdas8pm72e190g","pricing_plan_id":"cebpf4jnsgd1na2vs0mg"},{"bike_id":"637b9777-0add-457f-8d9a-f4a28f2e8516","system_id":"levelo_inurba_marseille","lat":43.279929,"lon":5.400286,"is_reserved":false,"is_disabled":false,"rental_uris":{"android":"levelo://app?vid=637b9777-0add-457f-8d9a-f4a28f2e8516","ios":"levelo://app?vid=637b9777-0add-457f-8d9a-f4a28f2e8516"},"vehicle_type_id":"4","last_reported":1769581290,"current_range_meters":8400,"station_id":"ce4bho92rcd13ifvqh4g","pricing_plan_id":"cebpf4jnsgd1na2vs0mg"},{"bike_id":"dca56683-484c-4cbd-a002-b9a1d5c6aa4e","system_id":"levelo_inurba_marseille","lat":43.337682,"lon":5.374371,"is_reserved":false,"is_disabled":false,"rental_uris":{"android":"levelo://app?vid=dca56683-484c-4cbd-a002-b9a1d5c6aa4e","ios":"levelo://app?vid=dca56683-484c-4cbd-a002-b9a1d5c6aa4e"},"vehicle_type_id":"4","last_reported":1769581290,"current_range_meters":8400,"station_id":"","pricing_plan_id":"cebpf4jnsgd1na2vs0mg"},{"bike_id":"41c91ad2-73b9-4699-b23d-1b5a65edd284","system_id":"levelo_inurba_marseille","lat":43.33528,"lon":5.37472,"is_reserved":false,"is_disabled":false,"rental_uris":{"android":"levelo://app?vid=41c91ad2-73b9-4699-b23d-1b5a65edd284","ios":"levelo://app?vid=41c91ad2-73b9-4699-b23d-1b5a65edd284"},"vehicle_type_id":"4","last_reported":1769581290,"current_range_meters":8400,"station_id":"","pricing_plan_id":"cebpf4jnsgd1na2vs0mg"},{"bike_id":"8f81f246-6d5d-41c6-a914-40ca18e88edd","system_id":"levelo_inurba_marseille","lat":43.33199,"lon":5.40234,"is_reserved":false,"is_disabled":false,"rental_uris":{"android":"levelo://app?vid=8f81f246-6d5d-41c6-a914-40ca18e88edd","ios":"levelo://app?vid=8f81f246-6d5d-41c6-a914-40ca18e88edd"},"vehicle_type_id":"4","last_reported":1769581290,"current_range_meters":8800,"station_id":"","pricing_plan_id":"cebpf4jnsgd1na2vs0mg"},{"bike_id":"c4afb074-53a0-4d44-b5f4-69a59fdc18cd","system_id":"levelo_inurba_marseille","lat":43.24172,"lon":5.36387,"is_reserved":false,"is_disabled":false,"rental_uris":{"android":"levelo://app?vid=c4afb074-53a0-4d44-b5f4-69a59fdc18cd","ios":"levelo://app?vid=c4afb074-53a0-4d44-b5f4-69a59fdc18cd"},"vehicle_type_id":"4","last_reported":1769581290,"current_range_meters":8800,"station_id":"cpo36qri1sfpv3e86is0","pricing_plan_id":"cebpf4jnsgd1na2vs0mg"},{"bike_id":"edcf7268-9037-4d86-a040-f29b3b6258a5","system_id":"levelo_inurba_marseille","lat":43.32471,"lon":5.36559,"is_reserved":false,"is_disabled":false,"rental_uris":{"android":"levelo://app?vid=edcf7268-9037-4d86-a040-f29b3b6258a5","ios":"levelo://app?vid=edcf7268-9037-4d86-a040-f29b3b6258a5"},"vehicle_type_id":"4","last_reported":1769581290,"current_range_meters":8800,"station_id":"ce4bhs12rcd13ifvqhvg","pricing_plan_id":"cebpf4jnsgd1na2vs0mg"},{"bike_id":"1ffbda22-e3ce-449b-8cf2-1a8499f4ffd7","system_id":"levelo_inurba_marseille","lat":43.26957,"lon":5.38629,"is_reserved":false,"is_disabled":false,"rental_uris":{"android":"levelo://app?vid=1ffbda22-e3ce-449b-8cf2-1a8499f4ffd7","ios":"levelo://app?vid=1ffbda22-e3ce-449b-8cf2-1a8499f4ffd7"},"vehicle_type_id":"4","last_reported":1769581290,"current_range_meters":8800,"station_id":"ce4bhh92rcd13ifvqfh0","pricing_plan_id":"cebpf4jnsgd1na2vs0mg"},{"bike_id":"452f769f-adc3-4ad7-809e-fe7e6a116547","system_id":"levelo_inurba_marseille","lat":43.29585,"lon":5.37469,"is_reserved":false,"is_disabled":false,"rental_uris":{"android":"levelo://app?vid=452f769f-adc3-4ad7-809e-fe7e6a116547","ios":"levelo://app?vid=452f769f-adc3-4ad7-809e-fe7e6a116547"},"vehicle_type_id":"4","last_reported":1769581290,"current_range_meters":8800,"station_id":"ce4bgh92rcd13ifvqb50","pricing_plan_id":"cebpf4jnsgd1na2vs0mg"},{"bike_id":"c5845baf-9f1a-482b-a6a9-83c61113307a","system_id":"levelo_inurba_marseille","lat":43.230588,"lon":5.354969,"is_reserved":false,"is_disabled":false,"rental_uris":{"android":"levelo://app?vid=c5845baf-9f1a-482b-a6a9-83c61113307a","ios":"levelo://app?vid=c5845baf-9f1a-482b-a6a9-83c61113307a"},"vehicle_type_id":"4","last_reported":1769581290,"current_range_meters":8800,"station_id":"cpo3342slgdg3j2ifvpg","pricing_plan_id":"cebpf4jnsgd1na2vs0mg"},{"bike_id":"f0eae6e6-e46c-4d12-9b40-260e4bc30f2a","system_id":"levelo_inurba_marseille","lat":43.30739,"lon":5.42436,"is_reserved":false,"is_disabled":false,"rental_uris":{"android":"levelo://app?vid=f0eae6e6-e46c-4d12-9b40-260e4bc30f2a","ios":"levelo://app?vid=f0eae6e6-e46c-4d12-9b40-260e4bc30f2a"},"vehicle_type_id":"4","last_reported":1769581290,"current_range_meters":8800,"station_id":"st_cvj6ca6bvosntc0bfgr0","pricing_plan_id":"cebpf4jnsgd1na2vs0mg"},{"bike_id":"cb244530-27d3-443c-b788-0340e0e04b1c","system_id":"levelo_inurba_marseille","lat":43.33154,"lon":5.37697,"is_reserved":false,"is_disabled":false,"rental_uris":{"android":"levelo://app?vid=cb244530-27d3-443c-b788-0340e0e04b1c","ios":"levelo://app?vid=cb244530-27d3-443c-b788-0340e0e04b1c"},"vehicle_type_id":"4","last_reported":1769581290,"current_range_meters":8800,"station_id":"st_d46cu089ee8s73dldbu0","pricing_plan_id":"cebpf4jnsgd1na2vs0mg"},{"bike_id":"914127e8-49a8-4276-a763-1a69ecd3223b","system_id":"levelo_inurba_marseille","lat":43.27208,"lon":5.39179,"is_reserved":false,"is_disabled":false,"rental_uris":{"android":"levelo://app?vid=914127e8-49a8-4276-a763-1a69ecd3223b","ios":"levelo://app?vid=914127e8-49a8-4276-a763-1a69ecd3223b"},"vehicle_type_id":"4","last_reported":1769581290,"current_range_meters":8800,"station_id":"ce4bhhp2rcd13ifvqfm0","pricing_plan_id":"cebpf4jnsgd1na2vs0mg"},{"bike_id":"fd5cac91-3b82-41b2-9b97-04cacea7a2ee","system_id":"levelo_inurba_marseille","lat":43.26191,"lon":5.37424,"is_reserved":false,"is_disabled":false,"rental_uris":{"android":"levelo://app?vid=fd5cac91-3b82-41b2-9b97-04cacea7a2ee","ios":"levelo://app?vid=fd5cac91-3b82-41b2-9b97-04cacea7a2ee"},"vehicle_type_id":"4","last_reported":1769581290,"current_range_meters":8800,"station_id":"ce4bhgp2rcd13ifvqfc0","pricing_plan_id":"cebpf4jnsgd1na2vs0mg"},{"bike_id":"8a5928aa-dc6b-4d56-8730-ed239b40e300","system_id":"levelo_inurba_marseille","lat":43.288639,"lon":5.425117,"is_reserved":false,"is_disabled":false,"rental_uris":{"android":"levelo://app?vid=8a5928aa-dc6b-4d56-8730-ed239b40e300","ios":"levelo://app?vid=8a5928aa-dc6b-4d56-8730-ed239b40e300"},"vehicle_type_id":"4","last_reported":1769581290,"current_range_meters":8800,"station_id":"st_d3b462108ojc7389ooeg","pricing_plan_id":"cebpf4jnsgd1na2vs0mg"},{"bike_id":"69a8705c-622c-4687-befc-0e95f406c55e","system_id":"levelo_inurba_marseille","lat":43.22552,"lon":5.41629,"is_reserved":false,"is_disabled":false,"rental_uris":{"android":"levelo://app?vid=69a8705c-622c-4687-befc-0e95f406c55e","ios":"levelo://app?vid=69a8705c-622c-4687-befc-0e95f406c55e"},"vehicle_type_id":"4","last_reported":1769581290,"current_range_meters":9200,"station_id":"st_d2o4gvlbi1j2169b742g","pricing_plan_id":"cebpf4jnsgd1na2vs0mg"},{"bike_id":"b45c8d2c-8d88-4cef-8b61-a19c2da1c61e","system_id":"levelo_inurba_marseille","lat":43.33524,"lon":5.37463,"is_reserved":false,"is_disabled":false,"rental_uris":{"android":"levelo://app?vid=b45c8d2c-8d88-4cef-8b61-a19c2da1c61e","ios":"levelo://app?vid=b45c8d2c-8d88-4cef-8b61-a19c2da1c61e"},"vehicle_type_id":"4","last_reported":1769581290,"current_range_meters":9200,"station_id":"st_d46tts09ee8s73dlu43g","pricing_plan_id":"cebpf4jnsgd1na2vs0mg"},{"bike_id":"e67fc9ad-980c-4bee-9cef-9478c6435fce","system_id":"levelo_inurba_marseille","lat":43.27953,"lon":5.41052,"is_reserved":false,"is_disabled":true,"rental_uris":{"android":"levelo://app?vid=e67fc9ad-980c-4bee-9cef-9478c6435fce","ios":"levelo://app?vid=e67fc9ad-980c-4bee-9cef-9478c6435fce"},"vehicle_type_id":"4","last_reported":1769581290,"current_range_meters":9200,"station_id":"ce4bhnp2rcd13ifvqh0g","pricing_plan_id":"cebpf4jnsgd1na2vs0mg"},{"bike_id":"554273e5-dbc4-419c-93da-8c12effff02f","system_id":"levelo_inurba_marseille","lat":43.29938,"lon":5.36512,"is_reserved":false,"is_disabled":false,"rental_uris":{"android":"levelo://app?vid=554273e5-dbc4-419c-93da-8c12effff02f","ios":"levelo://app?vid=554273e5-dbc4-419c-93da-8c12effff02f"},"vehicle_type_id":"4","last_reported":1769581290,"current_range_meters":9200,"station_id":"ce4bgm92rcd13ifvqbr0","pricing_plan_id":"cebpf4jnsgd1na2vs0mg"},{"bike_id":"683c0f49-31bb-4a9b-877a-ad6cfca2974a","system_id":"levelo_inurba_marseille","lat":43.2739,"lon":5.39435,"is_reserved":false,"is_disabled":false,"rental_uris":{"android":"levelo://app?vid=683c0f49-31bb-4a9b-877a-ad6cfca2974a","ios":"levelo://app?vid=683c0f49-31bb-4a9b-877a-ad6cfca2974a"},"vehicle_type_id":"4","last_reported":1769581290,"current_range_meters":9200,"station_id":"ce4bhdp2rcd13ifvqf20","pricing_plan_id":"cebpf4jnsgd1na2vs0mg"},{"bike_id":"474f1086-a1a0-4862-9586-72b6d697aa42","system_id":"levelo_inurba_marseille","lat":43.30591,"lon":5.37204,"is_reserved":false,"is_disabled":false,"rental_uris":{"android":"levelo://app?vid=474f1086-a1a0-4862-9586-72b6d697aa42","ios":"levelo://app?vid=474f1086-a1a0-4862-9586-72b6d697aa42"},"vehicle_type_id":"4","last_reported":1769581290,"current_range_meters":9200,"station_id":"ce4bgqh2rcd13ifvqc4g","pricing_plan_id":"cebpf4jnsgd1na2vs0mg"},{"bike_id":"ec92a3d7-0aaf-40cf-9513-2fb7d35cc0c4","system_id":"levelo_inurba_marseille","lat":43.23051,"lon":5.35484,"is_reserved":false,"is_disabled":false,"rental_uris":{"android":"levelo://app?vid=ec92a3d7-0aaf-40cf-9513-2fb7d35cc0c4","ios":"levelo://app?vid=ec92a3d7-0aaf-40cf-9513-2fb7d35cc0c4"},"vehicle_type_id":"4","last_reported":1769581290,"current_range_meters":9200,"station_id":"cpo3342slgdg3j2ifvpg","pricing_plan_id":"cebpf4jnsgd1na2vs0mg"},{"bike_id":"a097c751-bb29-4ebe-bc02-881e85889070","system_id":"levelo_inurba_marseille","lat":43.28858,"lon":5.42507,"is_reserved":false,"is_disabled":false,"rental_uris":{"android":"levelo://app?vid=a097c751-bb29-4ebe-bc02-881e85889070","ios":"levelo://app?vid=a097c751-bb29-4ebe-bc02-881e85889070"},"vehicle_type_id":"4","last_reported":1769581290,"current_range_meters":9200,"station_id":"st_d3b462108ojc7389ooeg","pricing_plan_id":"cebpf4jnsgd1na2vs0mg"},{"bike_id":"cfedf624-7e0e-4bd9-a95e-500dd777dd55","system_id":"levelo_inurba_marseille","lat":43.28968,"lon":5.37844,"is_reserved":false,"is_disabled":false,"rental_uris":{"android":"levelo://app?vid=cfedf624-7e0e-4bd9-a95e-500dd777dd55","ios":"levelo://app?vid=cfedf624-7e0e-4bd9-a95e-500dd777dd55"},"vehicle_type_id":"4","last_reported":1769581290,"current_range_meters":9200,"station_id":"ce4bh9p2rcd13ifvqed0","pricing_plan_id":"cebpf4jnsgd1na2vs0mg"},{"bike_id":"bc230eaa-6d54-4e2d-8428-bb3463d83558","system_id":"levelo_inurba_marseille","lat":43.27308,"lon":5.39066,"is_reserved":false,"is_disabled":false,"rental_uris":{"android":"levelo://app?vid=bc230eaa-6d54-4e2d-8428-bb3463d83558","ios":"levelo://app?vid=bc230eaa-6d54-4e2d-8428-bb3463d83558"},"vehicle_type_id":"4","last_reported":1769581290,"current_range_meters":9600,"station_id":"ce4bhgp2rcd13ifvqfe0","pricing_plan_id":"cebpf4jnsgd1na2vs0mg"},{"bike_id":"29065f68-7126-4714-9ee4-88cfe04e93fc","system_id":"levelo_inurba_marseille","lat":43.28207,"lon":5.42645,"is_reserved":false,"is_disabled":false,"rental_uris":{"android":"levelo://app?vid=29065f68-7126-4714-9ee4-88cfe04e93fc","ios":"levelo://app?vid=29065f68-7126-4714-9ee4-88cfe04e93fc"},"vehicle_type_id":"4","last_reported":1769581290,"current_range_meters":9600,"station_id":"","pricing_plan_id":"cebpf4jnsgd1na2vs0mg"},{"bike_id":"b8437f5d-1a9d-40c2-908d-8c815904e7ec","system_id":"levelo_inurba_marseille","lat":43.26035,"lon":5.3939,"is_reserved":false,"is_disabled":false,"rental_uris":{"android":"levelo://app?vid=b8437f5d-1a9d-40c2-908d-8c815904e7ec","ios":"levelo://app?vid=b8437f5d-1a9d-40c2-908d-8c815904e7ec"},"vehicle_type_id":"4","last_reported":1769581290,"current_range_meters":9600,"station_id":"ce4bhh92rcd13ifvqfj0","pricing_plan_id":"cebpf4jnsgd1na2vs0mg"},{"bike_id":"d6347785-7f4b-4520-b64a-bf5bb0e98944","system_id":"levelo_inurba_marseille","lat":43.25005,"lon":5.38923,"is_reserved":false,"is_disabled":false,"rental_uris":{"android":"levelo://app?vid=d6347785-7f4b-4520-b64a-bf5bb0e98944","ios":"levelo://app?vid=d6347785-7f4b-4520-b64a-bf5bb0e98944"},"vehicle_type_id":"4","last_reported":1769581290,"current_range_meters":9600,"station_id":"ce4bhgp2rcd13ifvqfd0","pricing_plan_id":"cebpf4jnsgd1na2vs0mg"},{"bike_id":"4ae21097-68ff-4a44-bcb7-3e142e11d517","system_id":"levelo_inurba_marseille","lat":43.2417,"lon":5.36408,"is_reserved":false,"is_disabled":false,"rental_uris":{"android":"levelo://app?vid=4ae21097-68ff-4a44-bcb7-3e142e11d517","ios":"levelo://app?vid=4ae21097-68ff-4a44-bcb7-3e142e11d517"},"vehicle_type_id":"4","last_reported":1769581290,"current_range_meters":9600,"station_id":"cpo36qri1sfpv3e86is0","pricing_plan_id":"cebpf4jnsgd1na2vs0mg"},{"bike_id":"b96775b7-8954-4f94-990f-968813344c58","system_id":"levelo_inurba_marseille","lat":43.312681,"lon":5.377845,"is_reserved":false,"is_disabled":false,"rental_uris":{"android":"levelo://app?vid=b96775b7-8954-4f94-990f-968813344c58","ios":"levelo://app?vid=b96775b7-8954-4f94-990f-968813344c58"},"vehicle_type_id":"4","last_reported":1769581290,"current_range_meters":9600,"station_id":"","pricing_plan_id":"cebpf4jnsgd1na2vs0mg"},{"bike_id":"8c50cc1b-6957-4db2-9b96-76d9d37bac03","system_id":"levelo_inurba_marseille","lat":43.22565,"lon":5.41631,"is_reserved":false,"is_disabled":false,"rental_uris":{"android":"levelo://app?vid=8c50cc1b-6957-4db2-9b96-76d9d37bac03","ios":"levelo://app?vid=8c50cc1b-6957-4db2-9b96-76d9d37bac03"},"vehicle_type_id":"4","last_reported":1769581290,"current_range_meters":9600,"station_id":"st_d2o4gvlbi1j2169b742g","pricing_plan_id":"cebpf4jnsgd1na2vs0mg"},{"bike_id":"d3fe457c-42db-4a73-8740-69111f583d12","system_id":"levelo_inurba_marseille","lat":43.29146,"lon":5.39354,"is_reserved":false,"is_disabled":false,"rental_uris":{"android":"levelo://app?vid=d3fe457c-42db-4a73-8740-69111f583d12","ios":"levelo://app?vid=d3fe457c-42db-4a73-8740-69111f583d12"},"vehicle_type_id":"4","last_reported":1769581290,"current_range_meters":9600,"station_id":"","pricing_plan_id":"cebpf4jnsgd1na2vs0mg"},{"bike_id":"730ec796-6fd1-4878-826d-bea59cf00889","system_id":"levelo_inurba_marseille","lat":43.28187,"lon":5.39094,"is_reserved":false,"is_disabled":false,"rental_uris":{"android":"levelo://app?vid=730ec796-6fd1-4878-826d-bea59cf00889","ios":"levelo://app?vid=730ec796-6fd1-4878-826d-bea59cf00889"},"vehicle_type_id":"4","last_reported":1769581290,"current_range_meters":9600,"station_id":"ce4bhn92rcd13ifvqgsg","pricing_plan_id":"cebpf4jnsgd1na2vs0mg"},{"bike_id":"36855e79-f7ac-4112-b45f-3779dd796963","system_id":"levelo_inurba_marseille","lat":43.30161,"lon":5.37343,"is_reserved":false,"is_disabled":false,"rental_uris":{"android":"levelo://app?vid=36855e79-f7ac-4112-b45f-3779dd796963","ios":"levelo://app?vid=36855e79-f7ac-4112-b45f-3779dd796963"},"vehicle_type_id":"4","last_reported":1769581290,"current_range_meters":9600,"station_id":"","pricing_plan_id":"cebpf4jnsgd1na2vs0mg"},{"bike_id":"8148cc3a-8742-4692-b37d-81dedc907656","system_id":"levelo_inurba_marseille","lat":43.29938,"lon":5.36527,"is_reserved":false,"is_disabled":false,"rental_uris":{"android":"levelo://app?vid=8148cc3a-8742-4692-b37d-81dedc907656","ios":"levelo://app?vid=8148cc3a-8742-4692-b37d-81dedc907656"},"vehicle_type_id":"4","last_reported":1769581290,"current_range_meters":9600,"station_id":"ce4bgm92rcd13ifvqbr0","pricing_plan_id":"cebpf4jnsgd1na2vs0mg"},{"bike_id":"768a9805-41c3-4563-af90-04a08e7a279d","system_id":"levelo_inurba_marseille","lat":43.25714,"lon":5.41119,"is_reserved":false,"is_disabled":false,"rental_uris":{"android":"levelo://app?vid=768a9805-41c3-4563-af90-04a08e7a279d","ios":"levelo://app?vid=768a9805-41c3-4563-af90-04a08e7a279d"},"vehicle_type_id":"4","last_reported":1769581290,"current_range_meters":10000,"station_id":"ce4bhkp2rcd13ifvqgd0","pricing_plan_id":"cebpf4jnsgd1na2vs0mg"},{"bike_id":"d58f344c-cd0b-44a8-8dbf-ba727762a67b","system_id":"levelo_inurba_marseille","lat":43.231439,"lon":5.437146,"is_reserved":false,"is_disabled":false,"rental_uris":{"android":"levelo://app?vid=d58f344c-cd0b-44a8-8dbf-ba727762a67b","ios":"levelo://app?vid=d58f344c-cd0b-44a8-8dbf-ba727762a67b"},"vehicle_type_id":"4","last_reported":1769581290,"current_range_meters":10000,"station_id":"ce4bhmp2rcd13ifvqgog","pricing_plan_id":"cebpf4jnsgd1na2vs0mg"},{"bike_id":"e8f03a56-57c3-45d7-aa77-c0c99a59d5d8","system_id":"levelo_inurba_marseille","lat":43.31483,"lon":5.37304,"is_reserved":false,"is_disabled":false,"rental_uris":{"android":"levelo://app?vid=e8f03a56-57c3-45d7-aa77-c0c99a59d5d8","ios":"levelo://app?vid=e8f03a56-57c3-45d7-aa77-c0c99a59d5d8"},"vehicle_type_id":"4","last_reported":1769581290,"current_range_meters":10000,"station_id":"ce4bgt12rcd13ifvqcd0","pricing_plan_id":"cebpf4jnsgd1na2vs0mg"},{"bike_id":"3e6599b3-80f5-4cb4-a947-9865a5671465","system_id":"levelo_inurba_marseille","lat":43.27623,"lon":5.36103,"is_reserved":false,"is_disabled":false,"rental_uris":{"android":"levelo://app?vid=3e6599b3-80f5-4cb4-a947-9865a5671465","ios":"levelo://app?vid=3e6599b3-80f5-4cb4-a947-9865a5671465"},"vehicle_type_id":"4","last_reported":1769581290,"current_range_meters":10000,"station_id":"ce4bgj92rcd13ifvqbe0","pricing_plan_id":"cebpf4jnsgd1na2vs0mg"},{"bike_id":"312472ef-ec71-4255-ba04-19d354fd64d5","system_id":"levelo_inurba_marseille","lat":43.23962,"lon":5.36621,"is_reserved":false,"is_disabled":false,"rental_uris":{"android":"levelo://app?vid=312472ef-ec71-4255-ba04-19d354fd64d5","ios":"levelo://app?vid=312472ef-ec71-4255-ba04-19d354fd64d5"},"vehicle_type_id":"4","last_reported":1769581290,"current_range_meters":10000,"station_id":"ce4bhi12rcd13ifvqfp0","pricing_plan_id":"cebpf4jnsgd1na2vs0mg"},{"bike_id":"4964a424-0af3-42e2-bf0b-74b0ddd1ccbc","system_id":"levelo_inurba_marseille","lat":43.25674,"lon":5.38647,"is_reserved":false,"is_disabled":false,"rental_uris":{"android":"levelo://app?vid=4964a424-0af3-42e2-bf0b-74b0ddd1ccbc","ios":"levelo://app?vid=4964a424-0af3-42e2-bf0b-74b0ddd1ccbc"},"vehicle_type_id":"4","last_reported":1769581290,"current_range_meters":10000,"station_id":"","pricing_plan_id":"cebpf4jnsgd1na2vs0mg"},{"bike_id":"fa3935ca-5664-431b-81b3-d462965b7a2a","system_id":"levelo_inurba_marseille","lat":43.2313,"lon":5.43714,"is_reserved":false,"is_disabled":false,"rental_uris":{"android":"levelo://app?vid=fa3935ca-5664-431b-81b3-d462965b7a2a","ios":"levelo://app?vid=fa3935ca-5664-431b-81b3-d462965b7a2a"},"vehicle_type_id":"4","last_reported":1769581290,"current_range_meters":10000,"station_id":"ce4bhmp2rcd13ifvqgog","pricing_plan_id":"cebpf4jnsgd1na2vs0mg"},{"bike_id":"c07f73fb-61ca-46b5-b7a6-c22c91a3d83d","system_id":"levelo_inurba_marseille","lat":43.32482,"lon":5.36563,"is_reserved":false,"is_disabled":false,"rental_uris":{"android":"levelo://app?vid=c07f73fb-61ca-46b5-b7a6-c22c91a3d83d","ios":"levelo://app?vid=c07f73fb-61ca-46b5-b7a6-c22c91a3d83d"},"vehicle_type_id":"4","last_reported":1769581290,"current_range_meters":10000,"station_id":"ce4bhs12rcd13ifvqhvg","pricing_plan_id":"cebpf4jnsgd1na2vs0mg"},{"bike_id":"538c5204-13fa-429b-ac20-8c9c858aef14","system_id":"levelo_inurba_marseille","lat":43.23174,"lon":5.39984,"is_reserved":false,"is_disabled":false,"rental_uris":{"android":"levelo://app?vid=538c5204-13fa-429b-ac20-8c9c858aef14","ios":"levelo://app?vid=538c5204-13fa-429b-ac20-8c9c858aef14"},"vehicle_type_id":"4","last_reported":1769581290,"current_range_meters":10000,"station_id":"ce4bhn12rcd13ifvqgqg","pricing_plan_id":"cebpf4jnsgd1na2vs0mg"},{"bike_id":"2dcd229b-9a70-410f-96af-5a659ecc8110","system_id":"levelo_inurba_marseille","lat":43.24157,"lon":5.36389,"is_reserved":false,"is_disabled":false,"rental_uris":{"android":"levelo://app?vid=2dcd229b-9a70-410f-96af-5a659ecc8110","ios":"levelo://app?vid=2dcd229b-9a70-410f-96af-5a659ecc8110"},"vehicle_type_id":"4","last_reported":1769581290,"current_range_meters":10000,"station_id":"cpo36qri1sfpv3e86is0","pricing_plan_id":"cebpf4jnsgd1na2vs0mg"},{"bike_id":"c3641efd-82fa-4de2-a15a-e6b19a434bf3","system_id":"levelo_inurba_marseille","lat":43.23961,"lon":5.3662,"is_reserved":false,"is_disabled":false,"rental_uris":{"android":"levelo://app?vid=c3641efd-82fa-4de2-a15a-e6b19a434bf3","ios":"levelo://app?vid=c3641efd-82fa-4de2-a15a-e6b19a434bf3"},"vehicle_type_id":"4","last_reported":1769581290,"current_range_meters":10000,"station_id":"ce4bhi12rcd13ifvqfp0","pricing_plan_id":"cebpf4jnsgd1na2vs0mg"},{"bike_id":"0a7405ad-871c-4a38-944c-17ac55cc69b6","system_id":"levelo_inurba_marseille","lat":43.24167,"lon":5.36406,"is_reserved":false,"is_disabled":false,"rental_uris":{"android":"levelo://app?vid=0a7405ad-871c-4a38-944c-17ac55cc69b6","ios":"levelo://app?vid=0a7405ad-871c-4a38-944c-17ac55cc69b6"},"vehicle_type_id":"4","last_reported":1769581290,"current_range_meters":10000,"station_id":"cpo36qri1sfpv3e86is0","pricing_plan_id":"cebpf4jnsgd1na2vs0mg"},{"bike_id":"7467cb27-eaf1-4da2-8e26-27fbbc086518","system_id":"levelo_inurba_marseille","lat":43.29941,"lon":5.42654,"is_reserved":false,"is_disabled":false,"rental_uris":{"android":"levelo://app?vid=7467cb27-eaf1-4da2-8e26-27fbbc086518","ios":"levelo://app?vid=7467cb27-eaf1-4da2-8e26-27fbbc086518"},"vehicle_type_id":"4","last_reported":1769581290,"current_range_meters":10000,"station_id":"","pricing_plan_id":"cebpf4jnsgd1na2vs0mg"},{"bike_id":"8c072e3b-353a-4ad6-aa38-ac83b00c79d4","system_id":"levelo_inurba_marseille","lat":43.31314,"lon":5.39702,"is_reserved":false,"is_disabled":false,"rental_uris":{"android":"levelo://app?vid=8c072e3b-353a-4ad6-aa38-ac83b00c79d4","ios":"levelo://app?vid=8c072e3b-353a-4ad6-aa38-ac83b00c79d4"},"vehicle_type_id":"4","last_reported":1769581290,"current_range_meters":10000,"station_id":"ce4bgvp2rcd13ifvqcu0","pricing_plan_id":"cebpf4jnsgd1na2vs0mg"},{"bike_id":"e62bdab7-b0b7-47c8-b91a-9cdf5ff83e7e","system_id":"levelo_inurba_marseille","lat":43.281,"lon":5.37862,"is_reserved":false,"is_disabled":false,"rental_uris":{"android":"levelo://app?vid=e62bdab7-b0b7-47c8-b91a-9cdf5ff83e7e","ios":"levelo://app?vid=e62bdab7-b0b7-47c8-b91a-9cdf5ff83e7e"},"vehicle_type_id":"4","last_reported":1769581290,"current_range_meters":10000,"station_id":"ce4bha12rcd13ifvqee0","pricing_plan_id":"cebpf4jnsgd1na2vs0mg"},{"bike_id":"c98b11d0-0520-418d-bfc6-d6149e6ffac9","system_id":"levelo_inurba_marseille","lat":43.28453,"lon":5.48418,"is_reserved":false,"is_disabled":false,"rental_uris":{"android":"levelo://app?vid=c98b11d0-0520-418d-bfc6-d6149e6ffac9","ios":"levelo://app?vid=c98b11d0-0520-418d-bfc6-d6149e6ffac9"},"vehicle_type_id":"4","last_reported":1769581290,"current_range_meters":10000,"station_id":"st_d3svhcjqgbts73a3dn0g","pricing_plan_id":"cebpf4jnsgd1na2vs0mg"},{"bike_id":"cef89498-fbf9-4ad5-afa6-46a5eea10249","system_id":"levelo_inurba_marseille","lat":43.27329,"lon":5.40968,"is_reserved":false,"is_disabled":false,"rental_uris":{"android":"levelo://app?vid=cef89498-fbf9-4ad5-afa6-46a5eea10249","ios":"levelo://app?vid=cef89498-fbf9-4ad5-afa6-46a5eea10249"},"vehicle_type_id":"4","last_reported":1769581290,"current_range_meters":10000,"station_id":"","pricing_plan_id":"cebpf4jnsgd1na2vs0mg"},{"bike_id":"12d18314-b173-4f53-8c34-39de8e2a6514","system_id":"levelo_inurba_marseille","lat":43.28447,"lon":5.38789,"is_reserved":false,"is_disabled":false,"rental_uris":{"android":"levelo://app?vid=12d18314-b173-4f53-8c34-39de8e2a6514","ios":"levelo://app?vid=12d18314-b173-4f53-8c34-39de8e2a6514"},"vehicle_type_id":"4","last_reported":1769581290,"current_range_meters":10800,"station_id":"","pricing_plan_id":"cebpf4jnsgd1na2vs0mg"},{"bike_id":"c7e4813a-c248-4d27-817f-f64ef50a11f2","system_id":"levelo_inurba_marseille","lat":43.260354,"lon":5.40793,"is_reserved":false,"is_disabled":false,"rental_uris":{"android":"levelo://app?vid=c7e4813a-c248-4d27-817f-f64ef50a11f2","ios":"levelo://app?vid=c7e4813a-c248-4d27-817f-f64ef50a11f2"},"vehicle_type_id":"4","last_reported":1769581290,"current_range_meters":10800,"station_id":"ce4bhm92rcd13ifvqglg","pricing_plan_id":"cebpf4jnsgd1na2vs0mg"},{"bike_id":"9806da0f-d7e9-4daf-99fc-e3fd22a4da76","system_id":"levelo_inurba_marseille","lat":43.25935,"lon":5.40881,"is_reserved":false,"is_disabled":false,"rental_uris":{"android":"levelo://app?vid=9806da0f-d7e9-4daf-99fc-e3fd22a4da76","ios":"levelo://app?vid=9806da0f-d7e9-4daf-99fc-e3fd22a4da76"},"vehicle_type_id":"4","last_reported":1769581290,"current_range_meters":10800,"station_id":"ce4bhm92rcd13ifvqglg","pricing_plan_id":"cebpf4jnsgd1na2vs0mg"},{"bike_id":"a9d61f59-4fb7-4f9c-8f78-ddfcb7d9a59d","system_id":"levelo_inurba_marseille","lat":43.30157,"lon":5.38097,"is_reserved":false,"is_disabled":false,"rental_uris":{"android":"levelo://app?vid=a9d61f59-4fb7-4f9c-8f78-ddfcb7d9a59d","ios":"levelo://app?vid=a9d61f59-4fb7-4f9c-8f78-ddfcb7d9a59d"},"vehicle_type_id":"4","last_reported":1769581290,"current_range_meters":10800,"station_id":"ce4bgjp2rcd13ifvqbh0","pricing_plan_id":"cebpf4jnsgd1na2vs0mg"},{"bike_id":"26516155-7022-452e-98b2-f7eda9554bb7","system_id":"levelo_inurba_marseille","lat":43.24619,"lon":5.38905,"is_reserved":false,"is_disabled":false,"rental_uris":{"android":"levelo://app?vid=26516155-7022-452e-98b2-f7eda9554bb7","ios":"levelo://app?vid=26516155-7022-452e-98b2-f7eda9554bb7"},"vehicle_type_id":"4","last_reported":1769581290,"current_range_meters":10800,"station_id":"ce4bhg12rcd13ifvqf60","pricing_plan_id":"cebpf4jnsgd1na2vs0mg"},{"bike_id":"802f6e05-7249-407a-aac4-32d2041628b8","system_id":"levelo_inurba_marseille","lat":43.2305,"lon":5.35483,"is_reserved":false,"is_disabled":false,"rental_uris":{"android":"levelo://app?vid=802f6e05-7249-407a-aac4-32d2041628b8","ios":"levelo://app?vid=802f6e05-7249-407a-aac4-32d2041628b8"},"vehicle_type_id":"4","last_reported":1769581290,"current_range_meters":10800,"station_id":"cpo3342slgdg3j2ifvpg","pricing_plan_id":"cebpf4jnsgd1na2vs0mg"},{"bike_id":"982edc25-dfa9-4d3c-954a-e454025b01e5","system_id":"levelo_inurba_marseille","lat":43.31756,"lon":5.39019,"is_reserved":false,"is_disabled":false,"rental_uris":{"android":"levelo://app?vid=982edc25-dfa9-4d3c-954a-e454025b01e5","ios":"levelo://app?vid=982edc25-dfa9-4d3c-954a-e454025b01e5"},"vehicle_type_id":"4","last_reported":1769581290,"current_range_meters":10800,"station_id":"ce4bhqp2rcd13ifvqhng","pricing_plan_id":"cebpf4jnsgd1na2vs0mg"},{"bike_id":"e236f0a6-2e87-48ed-94ce-e49f696f4842","system_id":"levelo_inurba_marseille","lat":43.265944,"lon":5.374991,"is_reserved":false,"is_disabled":false,"rental_uris":{"android":"levelo://app?vid=e236f0a6-2e87-48ed-94ce-e49f696f4842","ios":"levelo://app?vid=e236f0a6-2e87-48ed-94ce-e49f696f4842"},"vehicle_type_id":"4","last_reported":1769581290,"current_range_meters":10800,"station_id":"","pricing_plan_id":"cebpf4jnsgd1na2vs0mg"},{"bike_id":"def94ae7-cad0-4b98-8d66-92c169e98d5f","system_id":"levelo_inurba_marseille","lat":43.23952,"lon":5.36628,"is_reserved":false,"is_disabled":false,"rental_uris":{"android":"levelo://app?vid=def94ae7-cad0-4b98-8d66-92c169e98d5f","ios":"levelo://app?vid=def94ae7-cad0-4b98-8d66-92c169e98d5f"},"vehicle_type_id":"4","last_reported":1769581290,"current_range_meters":10800,"station_id":"ce4bhi12rcd13ifvqfp0","pricing_plan_id":"cebpf4jnsgd1na2vs0mg"},{"bike_id":"7316f60c-8b12-4f7d-9646-805365ea2132","system_id":"levelo_inurba_marseille","lat":43.24586,"lon":5.39404,"is_reserved":false,"is_disabled":false,"rental_uris":{"android":"levelo://app?vid=7316f60c-8b12-4f7d-9646-805365ea2132","ios":"levelo://app?vid=7316f60c-8b12-4f7d-9646-805365ea2132"},"vehicle_type_id":"4","last_reported":1769581290,"current_range_meters":10800,"station_id":"","pricing_plan_id":"cebpf4jnsgd1na2vs0mg"},{"bike_id":"4bd6cb39-f26e-431f-9c48-bc9838a79167","system_id":"levelo_inurba_marseille","lat":43.29801,"lon":5.44062,"is_reserved":false,"is_disabled":false,"rental_uris":{"android":"levelo://app?vid=4bd6cb39-f26e-431f-9c48-bc9838a79167","ios":"levelo://app?vid=4bd6cb39-f26e-431f-9c48-bc9838a79167"},"vehicle_type_id":"4","last_reported":1769581290,"current_range_meters":10800,"station_id":"st_d3jp68qikq2c7381ktn0","pricing_plan_id":"cebpf4jnsgd1na2vs0mg"},{"bike_id":"29e658f4-2359-46f1-90c1-df0499696a70","system_id":"levelo_inurba_marseille","lat":43.30118,"lon":5.43117,"is_reserved":false,"is_disabled":false,"rental_uris":{"android":"levelo://app?vid=29e658f4-2359-46f1-90c1-df0499696a70","ios":"levelo://app?vid=29e658f4-2359-46f1-90c1-df0499696a70"},"vehicle_type_id":"4","last_reported":1769581290,"current_range_meters":11200,"station_id":"st_d3js3co5814s73ftftug","pricing_plan_id":"cebpf4jnsgd1na2vs0mg"},{"bike_id":"9530e525-99a6-44ef-9550-48c35496d598","system_id":"levelo_inurba_marseille","lat":43.3354,"lon":5.37437,"is_reserved":false,"is_disabled":false,"rental_uris":{"android":"levelo://app?vid=9530e525-99a6-44ef-9550-48c35496d598","ios":"levelo://app?vid=9530e525-99a6-44ef-9550-48c35496d598"},"vehicle_type_id":"4","last_reported":1769581290,"current_range_meters":11200,"station_id":"st_d46tts09ee8s73dlu43g","pricing_plan_id":"cebpf4jnsgd1na2vs0mg"},{"bike_id":"7b6d8a8b-d351-4282-bf84-c6e7865bd8af","system_id":"levelo_inurba_marseille","lat":43.24631,"lon":5.38899,"is_reserved":false,"is_disabled":false,"rental_uris":{"android":"levelo://app?vid=7b6d8a8b-d351-4282-bf84-c6e7865bd8af","ios":"levelo://app?vid=7b6d8a8b-d351-4282-bf84-c6e7865bd8af"},"vehicle_type_id":"4","last_reported":1769581290,"current_range_meters":11200,"station_id":"ce4bhg12rcd13ifvqf60","pricing_plan_id":"cebpf4jnsgd1na2vs0mg"},{"bike_id":"6c6890eb-05e5-44b7-8d4d-5528494830c4","system_id":"levelo_inurba_marseille","lat":43.289441,"lon":5.364027,"is_reserved":false,"is_disabled":true,"rental_uris":{"android":"levelo://app?vid=6c6890eb-05e5-44b7-8d4d-5528494830c4","ios":"levelo://app?vid=6c6890eb-05e5-44b7-8d4d-5528494830c4"},"vehicle_type_id":"4","last_reported":1769581290,"current_range_meters":11200,"station_id":"ce4bhc92rcd13ifvqetg","pricing_plan_id":"cebpf4jnsgd1na2vs0mg"},{"bike_id":"33e709e2-02c5-4963-b3ca-6d2e8a370c97","system_id":"levelo_inurba_marseille","lat":43.24953,"lon":5.40497,"is_reserved":false,"is_disabled":false,"rental_uris":{"android":"levelo://app?vid=33e709e2-02c5-4963-b3ca-6d2e8a370c97","ios":"levelo://app?vid=33e709e2-02c5-4963-b3ca-6d2e8a370c97"},"vehicle_type_id":"4","last_reported":1769581290,"current_range_meters":11200,"station_id":"st_d2ngiaodas8pm72gd1h0","pricing_plan_id":"cebpf4jnsgd1na2vs0mg"},{"bike_id":"1ea957b9-9175-4b85-8016-a64b1d81ef6c","system_id":"levelo_inurba_marseille","lat":43.28462,"lon":5.35884,"is_reserved":false,"is_disabled":true,"rental_uris":{"android":"levelo://app?vid=1ea957b9-9175-4b85-8016-a64b1d81ef6c","ios":"levelo://app?vid=1ea957b9-9175-4b85-8016-a64b1d81ef6c"},"vehicle_type_id":"4","last_reported":1769581290,"current_range_meters":11200,"station_id":"ce4bhah2rcd13ifvqei0","pricing_plan_id":"cebpf4jnsgd1na2vs0mg"},{"bike_id":"9ed7609a-cb80-435f-ad2f-eb10d300cd91","system_id":"levelo_inurba_marseille","lat":43.28101,"lon":5.37832,"is_reserved":false,"is_disabled":false,"rental_uris":{"android":"levelo://app?vid=9ed7609a-cb80-435f-ad2f-eb10d300cd91","ios":"levelo://app?vid=9ed7609a-cb80-435f-ad2f-eb10d300cd91"},"vehicle_type_id":"4","last_reported":1769581290,"current_range_meters":11200,"station_id":"ce4bha12rcd13ifvqee0","pricing_plan_id":"cebpf4jnsgd1na2vs0mg"},{"bike_id":"c498e4a5-1d02-424e-b684-c2aac26d4a1a","system_id":"levelo_inurba_marseille","lat":43.29019,"lon":5.3863,"is_reserved":false,"is_disabled":false,"rental_uris":{"android":"levelo://app?vid=c498e4a5-1d02-424e-b684-c2aac26d4a1a","ios":"levelo://app?vid=c498e4a5-1d02-424e-b684-c2aac26d4a1a"},"vehicle_type_id":"4","last_reported":1769581290,"current_range_meters":11200,"station_id":"ce4bh4p2rcd13ifvqe0g","pricing_plan_id":"cebpf4jnsgd1na2vs0mg"},{"bike_id":"5c0d0ff3-288b-4dc4-a72b-a58f014e20f9","system_id":"levelo_inurba_marseille","lat":43.33147,"lon":5.3769,"is_reserved":false,"is_disabled":false,"rental_uris":{"android":"levelo://app?vid=5c0d0ff3-288b-4dc4-a72b-a58f014e20f9","ios":"levelo://app?vid=5c0d0ff3-288b-4dc4-a72b-a58f014e20f9"},"vehicle_type_id":"4","last_reported":1769581290,"current_range_meters":11200,"station_id":"st_d46cu089ee8s73dldbu0","pricing_plan_id":"cebpf4jnsgd1na2vs0mg"},{"bike_id":"f4422633-6012-402e-bf53-eafc24ec8278","system_id":"levelo_inurba_marseille","lat":43.33353,"lon":5.41046,"is_reserved":false,"is_disabled":false,"rental_uris":{"android":"levelo://app?vid=f4422633-6012-402e-bf53-eafc24ec8278","ios":"levelo://app?vid=f4422633-6012-402e-bf53-eafc24ec8278"},"vehicle_type_id":"4","last_reported":1769581290,"current_range_meters":11200,"station_id":"","pricing_plan_id":"cebpf4jnsgd1na2vs0mg"},{"bike_id":"9e5e1692-a1e5-4ca0-bc5a-e7d3b2e0c966","system_id":"levelo_inurba_marseille","lat":43.33533,"lon":5.3746,"is_reserved":false,"is_disabled":false,"rental_uris":{"android":"levelo://app?vid=9e5e1692-a1e5-4ca0-bc5a-e7d3b2e0c966","ios":"levelo://app?vid=9e5e1692-a1e5-4ca0-bc5a-e7d3b2e0c966"},"vehicle_type_id":"4","last_reported":1769581290,"current_range_meters":11200,"station_id":"st_d46tts09ee8s73dlu43g","pricing_plan_id":"cebpf4jnsgd1na2vs0mg"},{"bike_id":"c085f8ab-8b40-4a17-b6cf-616cc45977d7","system_id":"levelo_inurba_marseille","lat":43.29874,"lon":5.38911,"is_reserved":false,"is_disabled":false,"rental_uris":{"android":"levelo://app?vid=c085f8ab-8b40-4a17-b6cf-616cc45977d7","ios":"levelo://app?vid=c085f8ab-8b40-4a17-b6cf-616cc45977d7"},"vehicle_type_id":"4","last_reported":1769581290,"current_range_meters":11200,"station_id":"ce4bh392rcd13ifvqdl0","pricing_plan_id":"cebpf4jnsgd1na2vs0mg"},{"bike_id":"bb6db0b0-a7e3-42a8-992e-e2e55dc89d52","system_id":"levelo_inurba_marseille","lat":43.33154,"lon":5.37688,"is_reserved":false,"is_disabled":false,"rental_uris":{"android":"levelo://app?vid=bb6db0b0-a7e3-42a8-992e-e2e55dc89d52","ios":"levelo://app?vid=bb6db0b0-a7e3-42a8-992e-e2e55dc89d52"},"vehicle_type_id":"4","last_reported":1769581290,"current_range_meters":11600,"station_id":"st_d46cu089ee8s73dldbu0","pricing_plan_id":"cebpf4jnsgd1na2vs0mg"},{"bike_id":"7c2c1930-9506-4e01-88e5-4f549cb27a3b","system_id":"levelo_inurba_marseille","lat":43.27169,"lon":5.40991,"is_reserved":false,"is_disabled":false,"rental_uris":{"android":"levelo://app?vid=7c2c1930-9506-4e01-88e5-4f549cb27a3b","ios":"levelo://app?vid=7c2c1930-9506-4e01-88e5-4f549cb27a3b"},"vehicle_type_id":"4","last_reported":1769581290,"current_range_meters":11600,"station_id":"ce4bhl12rcd13ifvqgf0","pricing_plan_id":"cebpf4jnsgd1na2vs0mg"},{"bike_id":"360bd922-c036-43fc-9f95-f2099189cf17","system_id":"levelo_inurba_marseille","lat":43.25012,"lon":5.38895,"is_reserved":false,"is_disabled":false,"rental_uris":{"android":"levelo://app?vid=360bd922-c036-43fc-9f95-f2099189cf17","ios":"levelo://app?vid=360bd922-c036-43fc-9f95-f2099189cf17"},