{"last_updated":1750514917,"ttl":60,"version":"2.2","data":{"bikes":[{"bike_id":"3da29fb8-fc97-44c6-b9ac-31dd456b2fd4","system_id":"levelo_inurba_marseille","lat":43.33771,"lon":5.37424,"is_reserved":false,"is_disabled":true,"rental_uris":{"android":"levelo://app?vid=3da29fb8-fc97-44c6-b9ac-31dd456b2fd4","ios":"levelo://app?vid=3da29fb8-fc97-44c6-b9ac-31dd456b2fd4"},"vehicle_type_id":"4","last_reported":1750514918,"current_range_meters":0,"station_id":"","pricing_plan_id":"cebpf4jnsgd1na2vs0mg"},{"bike_id":"01861ad8-a8d7-4be6-816e-651927c87584","system_id":"levelo_inurba_marseille","lat":43.33751,"lon":5.37456,"is_reserved":false,"is_disabled":true,"rental_uris":{"android":"levelo://app?vid=01861ad8-a8d7-4be6-816e-651927c87584","ios":"levelo://app?vid=01861ad8-a8d7-4be6-816e-651927c87584"},"vehicle_type_id":"4","last_reported":1750514918,"current_range_meters":0,"station_id":"","pricing_plan_id":"cebpf4jnsgd1na2vs0mg"},{"bike_id":"62a493c7-4534-4419-ad43-0582de34a72a","system_id":"levelo_inurba_marseille","lat":43.21366,"lon":5.355183,"is_reserved":false,"is_disabled":true,"rental_uris":{"android":"levelo://app?vid=62a493c7-4534-4419-ad43-0582de34a72a","ios":"levelo://app?vid=62a493c7-4534-4419-ad43-0582de34a72a"},"vehicle_type_id":"4","last_reported":1750514918,"current_range_meters":0,"station_id":"","pricing_plan_id":"cebpf4jnsgd1na2vs0mg"},{"bike_id":"ab9ebe50-6c2e-44ca-bb3c-0c48ea184be5","system_id":"levelo_inurba_marseille","lat":43.224989,"lon":5.347896,"is_reserved":false,"is_disabled":true,"rental_uris":{"android":"levelo://app?vid=ab9ebe50-6c2e-44ca-bb3c-0c48ea184be5","ios":"levelo://app?vid=ab9ebe50-6c2e-44ca-bb3c-0c48ea184be5"},"vehicle_type_id":"4","last_reported":1750514918,"current_range_meters":0,"station_id":"","pricing_plan_id":"cebpf4jnsgd1na2vs0mg"},{"bike_id":"3ada4f9a-3c76-4ff6-a6ca-d65d1d1156ec","system_id":"levelo_inurba_marseille","lat":43.305024,"lon":5.365663,"is_reserved":false,"is_disabled":true,"rental_uris":{"android":"levelo://app?vid=3ada4f9a-3c76-4ff6-a6ca-d65d1d1156ec","ios":"levelo://app?vid=3ada4f9a-3c76-4ff6-a6ca-d65d1d1156ec"},"vehicle_type_id":"4","last_reported":1750514918,"current_range_meters":0,"station_id":"","pricing_plan_id":"cebpf4jnsgd1na2vs0mg"},{"bike_id":"a8315c18-574e-4aa9-b81b-8a92eadf75d6","system_id":"levelo_inurba_marseille","lat":43.30133,"lon":5.37991,"is_reserved":false,"is_disabled":true,"rental_uris":{"android":"levelo://app?vid=a8315c18-574e-4aa9-b81b-8a92eadf75d6","ios":"levelo://app?vid=a8315c18-574e-4aa9-b81b-8a92eadf75d6"},"vehicle_type_id":"4","last_reported":1750514918,"current_range_meters":0,"station_id":"","pricing_plan_id":"cebpf4jnsgd1na2vs0mg"},{"bike_id":"d6609b4f-333b-43c1-9ebe-8726f5e76e88","system_id":"levelo_inurba_marseille","lat":43.337444,"lon":5.374475,"is_reserved":false,"is_disabled":true,"rental_uris":{"android":"levelo://app?vid=d6609b4f-333b-43c1-9ebe-8726f5e76e88","ios":"levelo://app?vid=d6609b4f-333b-43c1-9ebe-8726f5e76e88"},"vehicle_type_id":"4","last_reported":1750514918,"current_range_meters":0,"station_id":"","pricing_plan_id":"cebpf4jnsgd1na2vs0mg"},{"bike_id":"4cede4cf-7ca9-4e47-9559-f20c44cea124","system_id":"levelo_inurba_marseille","lat":43.25654,"lon":5.37652,"is_reserved":false,"is_disabled":true,"rental_uris":{"android":"levelo://app?vid=4cede4cf-7ca9-4e47-9559-f20c44cea124","ios":"levelo://app?vid=4cede4cf-7ca9-4e47-9559-f20c44cea124"},"vehicle_type_id":"4","last_reported":1750514918,"current_range_meters":0,"station_id":"","pricing_plan_id":"cebpf4jnsgd1na2vs0mg"},{"bike_id":"1e190073-e1d5-496b-93cb-87ed64004a39","system_id":"levelo_inurba_marseille","lat":43.29311,"lon":5.37464,"is_reserved":false,"is_disabled":true,"rental_uris":{"android":"levelo://app?vid=1e190073-e1d5-496b-93cb-87ed64004a39","ios":"levelo://app?vid=1e190073-e1d5-496b-93cb-87ed64004a39"},"vehicle_type_id":"4","last_reported":1750514918,"current_range_meters":0,"station_id":"ce4bgi12rcd13ifvqb70","pricing_plan_id":"cebpf4jnsgd1na2vs0mg"},{"bike_id":"45bbf0a9-fb71-4554-b265-a4213254df71","system_id":"levelo_inurba_marseille","lat":43.291958,"lon":5.357966,"is_reserved":false,"is_disabled":true,"rental_uris":{"android":"levelo://app?vid=45bbf0a9-fb71-4554-b265-a4213254df71","ios":"levelo://app?vid=45bbf0a9-fb71-4554-b265-a4213254df71"},"vehicle_type_id":"4","last_reported":1750514918,"current_range_meters":0,"station_id":"ce4bgip2rcd13ifvqbb0","pricing_plan_id":"cebpf4jnsgd1na2vs0mg"},{"bike_id":"707a4a61-6f4e-4b71-b85b-002199aa3dc8","system_id":"levelo_inurba_marseille","lat":43.29964,"lon":5.38501,"is_reserved":false,"is_disabled":true,"rental_uris":{"android":"levelo://app?vid=707a4a61-6f4e-4b71-b85b-002199aa3dc8","ios":"levelo://app?vid=707a4a61-6f4e-4b71-b85b-002199aa3dc8"},"vehicle_type_id":"4","last_reported":1750514918,"current_range_meters":0,"station_id":"ce4bgj92rcd13ifvqbd0","pricing_plan_id":"cebpf4jnsgd1na2vs0mg"},{"bike_id":"1b9711c0-a989-4afc-89f4-bb369c474e15","system_id":"levelo_inurba_marseille","lat":43.2992,"lon":5.37466,"is_reserved":false,"is_disabled":true,"rental_uris":{"android":"levelo://app?vid=1b9711c0-a989-4afc-89f4-bb369c474e15","ios":"levelo://app?vid=1b9711c0-a989-4afc-89f4-bb369c474e15"},"vehicle_type_id":"4","last_reported":1750514918,"current_range_meters":0,"station_id":"ce4bgjh2rcd13ifvqbg0","pricing_plan_id":"cebpf4jnsgd1na2vs0mg"},{"bike_id":"6c3a2131-6972-4246-9a57-3492b814e6df","system_id":"levelo_inurba_marseille","lat":43.30315,"lon":5.39199,"is_reserved":false,"is_disabled":true,"rental_uris":{"android":"levelo://app?vid=6c3a2131-6972-4246-9a57-3492b814e6df","ios":"levelo://app?vid=6c3a2131-6972-4246-9a57-3492b814e6df"},"vehicle_type_id":"4","last_reported":1750514918,"current_range_meters":0,"station_id":"ce4bgkh2rcd13ifvqbk0","pricing_plan_id":"cebpf4jnsgd1na2vs0mg"},{"bike_id":"d1bd4974-2b1b-4b6f-9899-0610b24fbd9f","system_id":"levelo_inurba_marseille","lat":43.30302,"lon":5.37723,"is_reserved":false,"is_disabled":true,"rental_uris":{"android":"levelo://app?vid=d1bd4974-2b1b-4b6f-9899-0610b24fbd9f","ios":"levelo://app?vid=d1bd4974-2b1b-4b6f-9899-0610b24fbd9f"},"vehicle_type_id":"4","last_reported":1750514918,"current_range_meters":0,"station_id":"ce4bguh2rcd13ifvqcj0","pricing_plan_id":"cebpf4jnsgd1na2vs0mg"},{"bike_id":"d0bed959-9ac4-4989-9291-0c06a8c7536f","system_id":"levelo_inurba_marseille","lat":43.31278,"lon":5.40172,"is_reserved":false,"is_disabled":true,"rental_uris":{"android":"levelo://app?vid=d0bed959-9ac4-4989-9291-0c06a8c7536f","ios":"levelo://app?vid=d0bed959-9ac4-4989-9291-0c06a8c7536f"},"vehicle_type_id":"4","last_reported":1750514918,"current_range_meters":0,"station_id":"ce4bh092rcd13ifvqd30","pricing_plan_id":"cebpf4jnsgd1na2vs0mg"},{"bike_id":"4628996c-e86b-49d6-b5ae-735a2a54a3b5","system_id":"levelo_inurba_marseille","lat":43.27373,"lon":5.36258,"is_reserved":false,"is_disabled":true,"rental_uris":{"android":"levelo://app?vid=4628996c-e86b-49d6-b5ae-735a2a54a3b5","ios":"levelo://app?vid=4628996c-e86b-49d6-b5ae-735a2a54a3b5"},"vehicle_type_id":"4","last_reported":1750514918,"current_range_meters":0,"station_id":"ce4bhbh2rcd13ifvqeo0","pricing_plan_id":"cebpf4jnsgd1na2vs0mg"},{"bike_id":"af123182-5949-4af4-b4b6-9bb162c8814c","system_id":"levelo_inurba_marseille","lat":43.27385,"lon":5.36264,"is_reserved":false,"is_disabled":true,"rental_uris":{"android":"levelo://app?vid=af123182-5949-4af4-b4b6-9bb162c8814c","ios":"levelo://app?vid=af123182-5949-4af4-b4b6-9bb162c8814c"},"vehicle_type_id":"4","last_reported":1750514918,"current_range_meters":0,"station_id":"ce4bhbh2rcd13ifvqeo0","pricing_plan_id":"cebpf4jnsgd1na2vs0mg"},{"bike_id":"54d72666-0f86-4141-a247-9e02187fd286","system_id":"levelo_inurba_marseille","lat":43.28422,"lon":5.34991,"is_reserved":false,"is_disabled":true,"rental_uris":{"android":"levelo://app?vid=54d72666-0f86-4141-a247-9e02187fd286","ios":"levelo://app?vid=54d72666-0f86-4141-a247-9e02187fd286"},"vehicle_type_id":"4","last_reported":1750514918,"current_range_meters":0,"station_id":"ce4bhbh2rcd13ifvqepg","pricing_plan_id":"cebpf4jnsgd1na2vs0mg"},{"bike_id":"cf8715a9-e863-46aa-bceb-27bc579154a5","system_id":"levelo_inurba_marseille","lat":43.26027,"lon":5.37556,"is_reserved":false,"is_disabled":true,"rental_uris":{"android":"levelo://app?vid=cf8715a9-e863-46aa-bceb-27bc579154a5","ios":"levelo://app?vid=cf8715a9-e863-46aa-bceb-27bc579154a5"},"vehicle_type_id":"4","last_reported":1750514918,"current_range_meters":0,"station_id":"ce4bhgh2rcd13ifvqfa0","pricing_plan_id":"cebpf4jnsgd1na2vs0mg"},{"bike_id":"8305c145-b0de-40d4-ab39-7a6d0510a6ab","system_id":"levelo_inurba_marseille","lat":43.25497,"lon":5.37648,"is_reserved":false,"is_disabled":true,"rental_uris":{"android":"levelo://app?vid=8305c145-b0de-40d4-ab39-7a6d0510a6ab","ios":"levelo://app?vid=8305c145-b0de-40d4-ab39-7a6d0510a6ab"},"vehicle_type_id":"4","last_reported":1750514918,"current_range_meters":0,"station_id":"ce4bhh12rcd13ifvqff0","pricing_plan_id":"cebpf4jnsgd1na2vs0mg"},{"bike_id":"da3f82fa-ed67-4962-bab5-611565b34ce0","system_id":"levelo_inurba_marseille","lat":43.251059,"lon":5.403191,"is_reserved":false,"is_disabled":true,"rental_uris":{"android":"levelo://app?vid=da3f82fa-ed67-4962-bab5-611565b34ce0","ios":"levelo://app?vid=da3f82fa-ed67-4962-bab5-611565b34ce0"},"vehicle_type_id":"4","last_reported":1750514918,"current_range_meters":0,"station_id":"ce4bhlh2rcd13ifvqgig","pricing_plan_id":"cebpf4jnsgd1na2vs0mg"},{"bike_id":"bee2fe36-afdd-4caa-884f-c389d569f954","system_id":"levelo_inurba_marseille","lat":43.24182,"lon":5.39731,"is_reserved":false,"is_disabled":true,"rental_uris":{"android":"levelo://app?vid=bee2fe36-afdd-4caa-884f-c389d569f954","ios":"levelo://app?vid=bee2fe36-afdd-4caa-884f-c389d569f954"},"vehicle_type_id":"4","last_reported":1750514918,"current_range_meters":0,"station_id":"ce4bhn12rcd13ifvqgpg","pricing_plan_id":"cebpf4jnsgd1na2vs0mg"},{"bike_id":"bb3cd202-6182-45cd-bebd-08969d47cf1c","system_id":"levelo_inurba_marseille","lat":43.27944,"lon":5.41046,"is_reserved":false,"is_disabled":true,"rental_uris":{"android":"levelo://app?vid=bb3cd202-6182-45cd-bebd-08969d47cf1c","ios":"levelo://app?vid=bb3cd202-6182-45cd-bebd-08969d47cf1c"},"vehicle_type_id":"4","last_reported":1750514918,"current_range_meters":0,"station_id":"ce4bhnp2rcd13ifvqh0g","pricing_plan_id":"cebpf4jnsgd1na2vs0mg"},{"bike_id":"07023714-168c-44ab-9797-74856f814d11","system_id":"levelo_inurba_marseille","lat":43.28697,"lon":5.39976,"is_reserved":false,"is_disabled":true,"rental_uris":{"android":"levelo://app?vid=07023714-168c-44ab-9797-74856f814d11","ios":"levelo://app?vid=07023714-168c-44ab-9797-74856f814d11"},"vehicle_type_id":"4","last_reported":1750514918,"current_range_meters":0,"station_id":"ce4bho92rcd13ifvqh3g","pricing_plan_id":"cebpf4jnsgd1na2vs0mg"},{"bike_id":"fcc0d248-6487-4fae-8ee7-f277a38f3302","system_id":"levelo_inurba_marseille","lat":43.21193,"lon":5.35079,"is_reserved":false,"is_disabled":true,"rental_uris":{"android":"levelo://app?vid=fcc0d248-6487-4fae-8ee7-f277a38f3302","ios":"levelo://app?vid=fcc0d248-6487-4fae-8ee7-f277a38f3302"},"vehicle_type_id":"4","last_reported":1750514918,"current_range_meters":0,"station_id":"st_cvj6sg6p6f1abm77japg","pricing_plan_id":"cebpf4jnsgd1na2vs0mg"},{"bike_id":"156717d9-5d82-4226-a389-e52555e7069b","system_id":"levelo_inurba_marseille","lat":43.30612,"lon":5.37638,"is_reserved":false,"is_disabled":true,"rental_uris":{"android":"levelo://app?vid=156717d9-5d82-4226-a389-e52555e7069b","ios":"levelo://app?vid=156717d9-5d82-4226-a389-e52555e7069b"},"vehicle_type_id":"4","last_reported":1750514918,"current_range_meters":400,"station_id":"","pricing_plan_id":"cebpf4jnsgd1na2vs0mg"},{"bike_id":"59168ec9-6ac3-4118-b64e-4bfdef781f1d","system_id":"levelo_inurba_marseille","lat":43.30302,"lon":5.39212,"is_reserved":false,"is_disabled":true,"rental_uris":{"android":"levelo://app?vid=59168ec9-6ac3-4118-b64e-4bfdef781f1d","ios":"levelo://app?vid=59168ec9-6ac3-4118-b64e-4bfdef781f1d"},"vehicle_type_id":"4","last_reported":1750514918,"current_range_meters":400,"station_id":"ce4bgkh2rcd13ifvqbk0","pricing_plan_id":"cebpf4jnsgd1na2vs0mg"},{"bike_id":"a72e051f-53ff-4dcc-acc2-50aef44075c5","system_id":"levelo_inurba_marseille","lat":43.29227,"lon":5.36033,"is_reserved":false,"is_disabled":true,"rental_uris":{"android":"levelo://app?vid=a72e051f-53ff-4dcc-acc2-50aef44075c5","ios":"levelo://app?vid=a72e051f-53ff-4dcc-acc2-50aef44075c5"},"vehicle_type_id":"4","last_reported":1750514918,"current_range_meters":400,"station_id":"ce4bhbh2rcd13ifvqeqg","pricing_plan_id":"cebpf4jnsgd1na2vs0mg"},{"bike_id":"56f31329-77af-4fd6-a394-e5ba7d8b3baa","system_id":"levelo_inurba_marseille","lat":43.25503,"lon":5.37651,"is_reserved":false,"is_disabled":true,"rental_uris":{"android":"levelo://app?vid=56f31329-77af-4fd6-a394-e5ba7d8b3baa","ios":"levelo://app?vid=56f31329-77af-4fd6-a394-e5ba7d8b3baa"},"vehicle_type_id":"4","last_reported":1750514918,"current_range_meters":400,"station_id":"ce4bhh12rcd13ifvqff0","pricing_plan_id":"cebpf4jnsgd1na2vs0mg"},{"bike_id":"ffdcc2e7-0e22-4256-9e78-b34d127d51b9","system_id":"levelo_inurba_marseille","lat":43.29955,"lon":5.38552,"is_reserved":false,"is_disabled":true,"rental_uris":{"android":"levelo://app?vid=ffdcc2e7-0e22-4256-9e78-b34d127d51b9","ios":"levelo://app?vid=ffdcc2e7-0e22-4256-9e78-b34d127d51b9"},"vehicle_type_id":"4","last_reported":1750514918,"current_range_meters":800,"station_id":"","pricing_plan_id":"cebpf4jnsgd1na2vs0mg"},{"bike_id":"df4ae7d7-fafc-4828-af07-436ae43bac5a","system_id":"levelo_inurba_marseille","lat":43.29346,"lon":5.37207,"is_reserved":false,"is_disabled":true,"rental_uris":{"android":"levelo://app?vid=df4ae7d7-fafc-4828-af07-436ae43bac5a","ios":"levelo://app?vid=df4ae7d7-fafc-4828-af07-436ae43bac5a"},"vehicle_type_id":"4","last_reported":1750514918,"current_range_meters":800,"station_id":"ce4bgh92rcd13ifvqb40","pricing_plan_id":"cebpf4jnsgd1na2vs0mg"},{"bike_id":"bb5f6eed-8e12-402d-ba6a-b9c1b19e2e0d","system_id":"levelo_inurba_marseille","lat":43.28926,"lon":5.384,"is_reserved":false,"is_disabled":true,"rental_uris":{"android":"levelo://app?vid=bb5f6eed-8e12-402d-ba6a-b9c1b19e2e0d","ios":"levelo://app?vid=bb5f6eed-8e12-402d-ba6a-b9c1b19e2e0d"},"vehicle_type_id":"4","last_reported":1750514918,"current_range_meters":800,"station_id":"ce4bh612rcd13ifvqe6g","pricing_plan_id":"cebpf4jnsgd1na2vs0mg"},{"bike_id":"05e51855-0442-479b-98e5-ba9c6499bab0","system_id":"levelo_inurba_marseille","lat":43.23161,"lon":5.43718,"is_reserved":false,"is_disabled":true,"rental_uris":{"android":"levelo://app?vid=05e51855-0442-479b-98e5-ba9c6499bab0","ios":"levelo://app?vid=05e51855-0442-479b-98e5-ba9c6499bab0"},"vehicle_type_id":"4","last_reported":1750514918,"current_range_meters":800,"station_id":"ce4bhmp2rcd13ifvqgog","pricing_plan_id":"cebpf4jnsgd1na2vs0mg"},{"bike_id":"c7c4a977-6eb4-4f02-b91b-1071c23f46c5","system_id":"levelo_inurba_marseille","lat":43.295682,"lon":5.375253,"is_reserved":false,"is_disabled":true,"rental_uris":{"android":"levelo://app?vid=c7c4a977-6eb4-4f02-b91b-1071c23f46c5","ios":"levelo://app?vid=c7c4a977-6eb4-4f02-b91b-1071c23f46c5"},"vehicle_type_id":"4","last_reported":1750514918,"current_range_meters":1200,"station_id":"ce4bgh92rcd13ifvqb50","pricing_plan_id":"cebpf4jnsgd1na2vs0mg"},{"bike_id":"2e850067-a0cb-4131-85b9-ffad6727a0e7","system_id":"levelo_inurba_marseille","lat":43.29786,"lon":5.37105,"is_reserved":false,"is_disabled":true,"rental_uris":{"android":"levelo://app?vid=2e850067-a0cb-4131-85b9-ffad6727a0e7","ios":"levelo://app?vid=2e850067-a0cb-4131-85b9-ffad6727a0e7"},"vehicle_type_id":"4","last_reported":1750514918,"current_range_meters":1200,"station_id":"ce4bgop2rcd13ifvqc1g","pricing_plan_id":"cebpf4jnsgd1na2vs0mg"},{"bike_id":"b2dda320-0fd3-4bfd-9230-5e8494fb3fd0","system_id":"levelo_inurba_marseille","lat":43.30209,"lon":5.39473,"is_reserved":false,"is_disabled":true,"rental_uris":{"android":"levelo://app?vid=b2dda320-0fd3-4bfd-9230-5e8494fb3fd0","ios":"levelo://app?vid=b2dda320-0fd3-4bfd-9230-5e8494fb3fd0"},"vehicle_type_id":"4","last_reported":1750514918,"current_range_meters":1200,"station_id":"ce4bh0p2rcd13ifvqd70","pricing_plan_id":"cebpf4jnsgd1na2vs0mg"},{"bike_id":"8f62137d-b316-4163-ab68-5002816528e7","system_id":"levelo_inurba_marseille","lat":43.29263,"lon":5.38442,"is_reserved":false,"is_disabled":true,"rental_uris":{"android":"levelo://app?vid=8f62137d-b316-4163-ab68-5002816528e7","ios":"levelo://app?vid=8f62137d-b316-4163-ab68-5002816528e7"},"vehicle_type_id":"4","last_reported":1750514918,"current_range_meters":1200,"station_id":"ce4bh692rcd13ifvqea0","pricing_plan_id":"cebpf4jnsgd1na2vs0mg"},{"bike_id":"177aad53-9090-424e-9c9c-9ebd7cbd9167","system_id":"levelo_inurba_marseille","lat":43.27308,"lon":5.39079,"is_reserved":false,"is_disabled":true,"rental_uris":{"android":"levelo://app?vid=177aad53-9090-424e-9c9c-9ebd7cbd9167","ios":"levelo://app?vid=177aad53-9090-424e-9c9c-9ebd7cbd9167"},"vehicle_type_id":"4","last_reported":1750514918,"current_range_meters":1200,"station_id":"ce4bhgp2rcd13ifvqfe0","pricing_plan_id":"cebpf4jnsgd1na2vs0mg"},{"bike_id":"d4143879-d384-4836-a36e-120b381f1e84","system_id":"levelo_inurba_marseille","lat":43.28724,"lon":5.3609,"is_reserved":false,"is_disabled":true,"rental_uris":{"android":"levelo://app?vid=d4143879-d384-4836-a36e-120b381f1e84","ios":"levelo://app?vid=d4143879-d384-4836-a36e-120b381f1e84"},"vehicle_type_id":"4","last_reported":1750514918,"current_range_meters":1200,"station_id":"cki0cbj6b192h4jlfktg","pricing_plan_id":"cebpf4jnsgd1na2vs0mg"},{"bike_id":"3c00cc14-5bad-486a-95ef-82ef935942ba","system_id":"levelo_inurba_marseille","lat":43.296323,"lon":5.37403,"is_reserved":false,"is_disabled":true,"rental_uris":{"android":"levelo://app?vid=3c00cc14-5bad-486a-95ef-82ef935942ba","ios":"levelo://app?vid=3c00cc14-5bad-486a-95ef-82ef935942ba"},"vehicle_type_id":"4","last_reported":1750514918,"current_range_meters":1600,"station_id":"","pricing_plan_id":"cebpf4jnsgd1na2vs0mg"},{"bike_id":"2dc26acb-faaf-4209-ab63-2ce79b1fc879","system_id":"levelo_inurba_marseille","lat":43.30442,"lon":5.3888,"is_reserved":false,"is_disabled":true,"rental_uris":{"android":"levelo://app?vid=2dc26acb-faaf-4209-ab63-2ce79b1fc879","ios":"levelo://app?vid=2dc26acb-faaf-4209-ab63-2ce79b1fc879"},"vehicle_type_id":"4","last_reported":1750514918,"current_range_meters":1600,"station_id":"ce4bgk12rcd13ifvqbi0","pricing_plan_id":"cebpf4jnsgd1na2vs0mg"},{"bike_id":"f924fae0-ea72-4e2a-83c2-70ad2edf427c","system_id":"levelo_inurba_marseille","lat":43.29866,"lon":5.39759,"is_reserved":false,"is_disabled":true,"rental_uris":{"android":"levelo://app?vid=f924fae0-ea72-4e2a-83c2-70ad2edf427c","ios":"levelo://app?vid=f924fae0-ea72-4e2a-83c2-70ad2edf427c"},"vehicle_type_id":"4","last_reported":1750514918,"current_range_meters":1600,"station_id":"ce4bh0h2rcd13ifvqd50","pricing_plan_id":"cebpf4jnsgd1na2vs0mg"},{"bike_id":"24d3d583-96bf-4b2a-8a83-8740ef0d58b4","system_id":"levelo_inurba_marseille","lat":43.23173,"lon":5.39999,"is_reserved":false,"is_disabled":true,"rental_uris":{"android":"levelo://app?vid=24d3d583-96bf-4b2a-8a83-8740ef0d58b4","ios":"levelo://app?vid=24d3d583-96bf-4b2a-8a83-8740ef0d58b4"},"vehicle_type_id":"4","last_reported":1750514918,"current_range_meters":1600,"station_id":"ce4bhn12rcd13ifvqgqg","pricing_plan_id":"cebpf4jnsgd1na2vs0mg"},{"bike_id":"0539cdf9-6a46-410a-86d6-8dc3331745aa","system_id":"levelo_inurba_marseille","lat":43.29732,"lon":5.37694,"is_reserved":false,"is_disabled":true,"rental_uris":{"android":"levelo://app?vid=0539cdf9-6a46-410a-86d6-8dc3331745aa","ios":"levelo://app?vid=0539cdf9-6a46-410a-86d6-8dc3331745aa"},"vehicle_type_id":"4","last_reported":1750514918,"current_range_meters":2000,"station_id":"ce4bgkh2rcd13ifvqbl0","pricing_plan_id":"cebpf4jnsgd1na2vs0mg"},{"bike_id":"54e891c0-99cb-4089-9c7a-b6c876af71d3","system_id":"levelo_inurba_marseille","lat":43.29016,"lon":5.38642,"is_reserved":false,"is_disabled":true,"rental_uris":{"android":"levelo://app?vid=54e891c0-99cb-4089-9c7a-b6c876af71d3","ios":"levelo://app?vid=54e891c0-99cb-4089-9c7a-b6c876af71d3"},"vehicle_type_id":"4","last_reported":1750514918,"current_range_meters":2000,"station_id":"ce4bh4p2rcd13ifvqe0g","pricing_plan_id":"cebpf4jnsgd1na2vs0mg"},{"bike_id":"18a7f31b-30ee-48e9-bd6f-90894af4ff0d","system_id":"levelo_inurba_marseille","lat":43.28271,"lon":5.3508,"is_reserved":false,"is_disabled":true,"rental_uris":{"android":"levelo://app?vid=18a7f31b-30ee-48e9-bd6f-90894af4ff0d","ios":"levelo://app?vid=18a7f31b-30ee-48e9-bd6f-90894af4ff0d"},"vehicle_type_id":"4","last_reported":1750514918,"current_range_meters":2000,"station_id":"ce4bhbp2rcd13ifvqerg","pricing_plan_id":"cebpf4jnsgd1na2vs0mg"},{"bike_id":"b8037ea3-a9ef-4c66-8648-13ad5606c7f4","system_id":"levelo_inurba_marseille","lat":43.31985,"lon":5.38151,"is_reserved":false,"is_disabled":true,"rental_uris":{"android":"levelo://app?vid=b8037ea3-a9ef-4c66-8648-13ad5606c7f4","ios":"levelo://app?vid=b8037ea3-a9ef-4c66-8648-13ad5606c7f4"},"vehicle_type_id":"4","last_reported":1750514918,"current_range_meters":2000,"station_id":"ce4bhr12rcd13ifvqhpg","pricing_plan_id":"cebpf4jnsgd1na2vs0mg"},{"bike_id":"df735c88-ae0a-4f8e-9723-d29eb27d80b9","system_id":"levelo_inurba_marseille","lat":43.29912,"lon":5.37632,"is_reserved":false,"is_disabled":false,"rental_uris":{"android":"levelo://app?vid=df735c88-ae0a-4f8e-9723-d29eb27d80b9","ios":"levelo://app?vid=df735c88-ae0a-4f8e-9723-d29eb27d80b9"},"vehicle_type_id":"4","last_reported":1750514918,"current_range_meters":2800,"station_id":"","pricing_plan_id":"cebpf4jnsgd1na2vs0mg"},{"bike_id":"e8b2899a-4211-4f31-b803-6ec5b4d26202","system_id":"levelo_inurba_marseille","lat":43.27573,"lon":5.39701,"is_reserved":false,"is_disabled":false,"rental_uris":{"android":"levelo://app?vid=e8b2899a-4211-4f31-b803-6ec5b4d26202","ios":"levelo://app?vid=e8b2899a-4211-4f31-b803-6ec5b4d26202"},"vehicle_type_id":"4","last_reported":1750514918,"current_range_meters":2800,"station_id":"","pricing_plan_id":"cebpf4jnsgd1na2vs0mg"},{"bike_id":"0abcf2dd-5aca-4c97-b128-2a43bcd19794","system_id":"levelo_inurba_marseille","lat":43.27613,"lon":5.36115,"is_reserved":false,"is_disabled":false,"rental_uris":{"android":"levelo://app?vid=0abcf2dd-5aca-4c97-b128-2a43bcd19794","ios":"levelo://app?vid=0abcf2dd-5aca-4c97-b128-2a43bcd19794"},"vehicle_type_id":"4","last_reported":1750514918,"current_range_meters":2800,"station_id":"ce4bgj92rcd13ifvqbe0","pricing_plan_id":"cebpf4jnsgd1na2vs0mg"},{"bike_id":"4b70d4e7-e853-4a75-a79d-eb6e362c9225","system_id":"levelo_inurba_marseille","lat":43.29787,"lon":5.39335,"is_reserved":false,"is_disabled":false,"rental_uris":{"android":"levelo://app?vid=4b70d4e7-e853-4a75-a79d-eb6e362c9225","ios":"levelo://app?vid=4b70d4e7-e853-4a75-a79d-eb6e362c9225"},"vehicle_type_id":"4","last_reported":1750514918,"current_range_meters":2800,"station_id":"chh1huq6cuj3fo74tm60","pricing_plan_id":"cebpf4jnsgd1na2vs0mg"},{"bike_id":"dd45b830-666c-4c76-b06e-9938bffa2cad","system_id":"levelo_inurba_marseille","lat":43.31956,"lon":5.3755,"is_reserved":false,"is_disabled":false,"rental_uris":{"android":"levelo://app?vid=dd45b830-666c-4c76-b06e-9938bffa2cad","ios":"levelo://app?vid=dd45b830-666c-4c76-b06e-9938bffa2cad"},"vehicle_type_id":"4","last_reported":1750514918,"current_range_meters":3200,"station_id":"","pricing_plan_id":"cebpf4jnsgd1na2vs0mg"},{"bike_id":"71273be8-e64a-4550-9f09-7df1f03a636d","system_id":"levelo_inurba_marseille","lat":43.29787,"lon":5.38116,"is_reserved":false,"is_disabled":false,"rental_uris":{"android":"levelo://app?vid=71273be8-e64a-4550-9f09-7df1f03a636d","ios":"levelo://app?vid=71273be8-e64a-4550-9f09-7df1f03a636d"},"vehicle_type_id":"4","last_reported":1750514918,"current_range_meters":3200,"station_id":"ce4bgip2rcd13ifvqbb0","pricing_plan_id":"cebpf4jnsgd1na2vs0mg"},{"bike_id":"8970ada2-f075-4617-af7b-25eb2166324a","system_id":"levelo_inurba_marseille","lat":43.28932,"lon":5.36631,"is_reserved":false,"is_disabled":false,"rental_uris":{"android":"levelo://app?vid=8970ada2-f075-4617-af7b-25eb2166324a","ios":"levelo://app?vid=8970ada2-f075-4617-af7b-25eb2166324a"},"vehicle_type_id":"4","last_reported":1750514918,"current_range_meters":3200,"station_id":"ce4bhap2rcd13ifvqek0","pricing_plan_id":"cebpf4jnsgd1na2vs0mg"},{"bike_id":"2808cc2d-64da-459e-b403-58ff63f79b39","system_id":"levelo_inurba_marseille","lat":43.26792,"lon":5.39416,"is_reserved":false,"is_disabled":false,"rental_uris":{"android":"levelo://app?vid=2808cc2d-64da-459e-b403-58ff63f79b39","ios":"levelo://app?vid=2808cc2d-64da-459e-b403-58ff63f79b39"},"vehicle_type_id":"4","last_reported":1750514918,"current_range_meters":3200,"station_id":"ce4bhh12rcd13ifvqfg0","pricing_plan_id":"cebpf4jnsgd1na2vs0mg"},{"bike_id":"4973d800-7bae-4e8a-9f82-8df13b8e6e30","system_id":"levelo_inurba_marseille","lat":43.23169,"lon":5.43721,"is_reserved":false,"is_disabled":false,"rental_uris":{"android":"levelo://app?vid=4973d800-7bae-4e8a-9f82-8df13b8e6e30","ios":"levelo://app?vid=4973d800-7bae-4e8a-9f82-8df13b8e6e30"},"vehicle_type_id":"4","last_reported":1750514918,"current_range_meters":3200,"station_id":"ce4bhmp2rcd13ifvqgog","pricing_plan_id":"cebpf4jnsgd1na2vs0mg"},{"bike_id":"a682a27c-c2fd-4206-a25a-d01dfbd9aee5","system_id":"levelo_inurba_marseille","lat":43.28446,"lon":5.392094,"is_reserved":false,"is_disabled":false,"rental_uris":{"android":"levelo://app?vid=a682a27c-c2fd-4206-a25a-d01dfbd9aee5","ios":"levelo://app?vid=a682a27c-c2fd-4206-a25a-d01dfbd9aee5"},"vehicle_type_id":"4","last_reported":1750514918,"current_range_meters":3200,"station_id":"ce4bhoh2rcd13ifvqh5g","pricing_plan_id":"cebpf4jnsgd1na2vs0mg"},{"bike_id":"b89de80f-127e-4446-a39a-f6a8d63b4ea2","system_id":"levelo_inurba_marseille","lat":43.29371,"lon":5.37295,"is_reserved":false,"is_disabled":false,"rental_uris":{"android":"levelo://app?vid=b89de80f-127e-4446-a39a-f6a8d63b4ea2","ios":"levelo://app?vid=b89de80f-127e-4446-a39a-f6a8d63b4ea2"},"vehicle_type_id":"4","last_reported":1750514918,"current_range_meters":3600,"station_id":"","pricing_plan_id":"cebpf4jnsgd1na2vs0mg"},{"bike_id":"4835c156-b0a3-482e-93ca-c13ac564be49","system_id":"levelo_inurba_marseille","lat":43.27618,"lon":5.36104,"is_reserved":false,"is_disabled":false,"rental_uris":{"android":"levelo://app?vid=4835c156-b0a3-482e-93ca-c13ac564be49","ios":"levelo://app?vid=4835c156-b0a3-482e-93ca-c13ac564be49"},"vehicle_type_id":"4","last_reported":1750514918,"current_range_meters":3600,"station_id":"ce4bgj92rcd13ifvqbe0","pricing_plan_id":"cebpf4jnsgd1na2vs0mg"},{"bike_id":"bc833dd8-cdc3-42f5-94e5-c577b166447e","system_id":"levelo_inurba_marseille","lat":43.31692,"lon":5.40471,"is_reserved":false,"is_disabled":false,"rental_uris":{"android":"levelo://app?vid=bc833dd8-cdc3-42f5-94e5-c577b166447e","ios":"levelo://app?vid=bc833dd8-cdc3-42f5-94e5-c577b166447e"},"vehicle_type_id":"4","last_reported":1750514918,"current_range_meters":3600,"station_id":"ce4bh012rcd13ifvqd00","pricing_plan_id":"cebpf4jnsgd1na2vs0mg"},{"bike_id":"53ab524f-9603-4a49-8ece-b785639474ee","system_id":"levelo_inurba_marseille","lat":43.2919,"lon":5.39315,"is_reserved":false,"is_disabled":false,"rental_uris":{"android":"levelo://app?vid=53ab524f-9603-4a49-8ece-b785639474ee","ios":"levelo://app?vid=53ab524f-9603-4a49-8ece-b785639474ee"},"vehicle_type_id":"4","last_reported":1750514918,"current_range_meters":3600,"station_id":"ce4bh192rcd13ifvqdd0","pricing_plan_id":"cebpf4jnsgd1na2vs0mg"},{"bike_id":"6144b298-4595-4fe0-960d-ccec4fe86f78","system_id":"levelo_inurba_marseille","lat":43.29269,"lon":5.38447,"is_reserved":false,"is_disabled":false,"rental_uris":{"android":"levelo://app?vid=6144b298-4595-4fe0-960d-ccec4fe86f78","ios":"levelo://app?vid=6144b298-4595-4fe0-960d-ccec4fe86f78"},"vehicle_type_id":"4","last_reported":1750514918,"current_range_meters":3600,"station_id":"ce4bh692rcd13ifvqea0","pricing_plan_id":"cebpf4jnsgd1na2vs0mg"},{"bike_id":"2efeef25-36d6-4590-bfeb-cbf74472c76a","system_id":"levelo_inurba_marseille","lat":43.28613,"lon":5.35106,"is_reserved":false,"is_disabled":false,"rental_uris":{"android":"levelo://app?vid=2efeef25-36d6-4590-bfeb-cbf74472c76a","ios":"levelo://app?vid=2efeef25-36d6-4590-bfeb-cbf74472c76a"},"vehicle_type_id":"4","last_reported":1750514918,"current_range_meters":3600,"station_id":"ce4bhch2rcd13ifvqeug","pricing_plan_id":"cebpf4jnsgd1na2vs0mg"},{"bike_id":"a5abeb0c-a7e1-4c67-a961-33e8f61f2fc8","system_id":"levelo_inurba_marseille","lat":43.28612,"lon":5.35105,"is_reserved":false,"is_disabled":false,"rental_uris":{"android":"levelo://app?vid=a5abeb0c-a7e1-4c67-a961-33e8f61f2fc8","ios":"levelo://app?vid=a5abeb0c-a7e1-4c67-a961-33e8f61f2fc8"},"vehicle_type_id":"4","last_reported":1750514918,"current_range_meters":3600,"station_id":"ce4bhch2rcd13ifvqeug","pricing_plan_id":"cebpf4jnsgd1na2vs0mg"},{"bike_id":"5fcdc553-bfb6-4a83-87bb-9cfceb2c2ea9","system_id":"levelo_inurba_marseille","lat":43.24544,"lon":5.39534,"is_reserved":false,"is_disabled":false,"rental_uris":{"android":"levelo://app?vid=5fcdc553-bfb6-4a83-87bb-9cfceb2c2ea9","ios":"levelo://app?vid=5fcdc553-bfb6-4a83-87bb-9cfceb2c2ea9"},"vehicle_type_id":"4","last_reported":1750514918,"current_range_meters":3600,"station_id":"ce4bhlp2rcd13ifvqgjg","pricing_plan_id":"cebpf4jnsgd1na2vs0mg"},{"bike_id":"06f85ae3-bad2-493a-b045-7863d4462ae6","system_id":"levelo_inurba_marseille","lat":43.26247,"lon":5.40462,"is_reserved":false,"is_disabled":false,"rental_uris":{"android":"levelo://app?vid=06f85ae3-bad2-493a-b045-7863d4462ae6","ios":"levelo://app?vid=06f85ae3-bad2-493a-b045-7863d4462ae6"},"vehicle_type_id":"4","last_reported":1750514918,"current_range_meters":4000,"station_id":"ce4bhmh2rcd13ifvqgmg","pricing_plan_id":"cebpf4jnsgd1na2vs0mg"},{"bike_id":"0686ec01-1260-416f-ab98-3684daa41dff","system_id":"levelo_inurba_marseille","lat":43.28156,"lon":5.42652,"is_reserved":false,"is_disabled":false,"rental_uris":{"android":"levelo://app?vid=0686ec01-1260-416f-ab98-3684daa41dff","ios":"levelo://app?vid=0686ec01-1260-416f-ab98-3684daa41dff"},"vehicle_type_id":"4","last_reported":1750514918,"current_range_meters":4000,"station_id":"ce4bhnh2rcd13ifvqgug","pricing_plan_id":"cebpf4jnsgd1na2vs0mg"},{"bike_id":"0ae0a5e2-4172-42fc-b67e-dcb70ad4d289","system_id":"levelo_inurba_marseille","lat":43.26751,"lon":5.42204,"is_reserved":false,"is_disabled":false,"rental_uris":{"android":"levelo://app?vid=0ae0a5e2-4172-42fc-b67e-dcb70ad4d289","ios":"levelo://app?vid=0ae0a5e2-4172-42fc-b67e-dcb70ad4d289"},"vehicle_type_id":"4","last_reported":1750514918,"current_range_meters":4400,"station_id":"","pricing_plan_id":"cebpf4jnsgd1na2vs0mg"},{"bike_id":"87d357a4-a72e-4d8d-bcf9-79e2d4e4156a","system_id":"levelo_inurba_marseille","lat":43.29907,"lon":5.38147,"is_reserved":false,"is_disabled":false,"rental_uris":{"android":"levelo://app?vid=87d357a4-a72e-4d8d-bcf9-79e2d4e4156a","ios":"levelo://app?vid=87d357a4-a72e-4d8d-bcf9-79e2d4e4156a"},"vehicle_type_id":"4","last_reported":1750514918,"current_range_meters":4400,"station_id":"ce4bgj12rcd13ifvqbc0","pricing_plan_id":"cebpf4jnsgd1na2vs0mg"},{"bike_id":"4996842c-f205-477f-bd0b-21e6e5fef852","system_id":"levelo_inurba_marseille","lat":43.30891,"lon":5.39664,"is_reserved":false,"is_disabled":false,"rental_uris":{"android":"levelo://app?vid=4996842c-f205-477f-bd0b-21e6e5fef852","ios":"levelo://app?vid=4996842c-f205-477f-bd0b-21e6e5fef852"},"vehicle_type_id":"4","last_reported":1750514918,"current_range_meters":4400,"station_id":"ce4bh012rcd13ifvqcv0","pricing_plan_id":"cebpf4jnsgd1na2vs0mg"},{"bike_id":"3896c743-335d-4f9d-8e5f-982b05bddacd","system_id":"levelo_inurba_marseille","lat":43.28102,"lon":5.37857,"is_reserved":false,"is_disabled":false,"rental_uris":{"android":"levelo://app?vid=3896c743-335d-4f9d-8e5f-982b05bddacd","ios":"levelo://app?vid=3896c743-335d-4f9d-8e5f-982b05bddacd"},"vehicle_type_id":"4","last_reported":1750514918,"current_range_meters":4400,"station_id":"ce4bha12rcd13ifvqee0","pricing_plan_id":"cebpf4jnsgd1na2vs0mg"},{"bike_id":"30bbcb45-fe95-4483-a596-a85ae63acbe1","system_id":"levelo_inurba_marseille","lat":43.28269,"lon":5.35061,"is_reserved":false,"is_disabled":false,"rental_uris":{"android":"levelo://app?vid=30bbcb45-fe95-4483-a596-a85ae63acbe1","ios":"levelo://app?vid=30bbcb45-fe95-4483-a596-a85ae63acbe1"},"vehicle_type_id":"4","last_reported":1750514918,"current_range_meters":4400,"station_id":"ce4bhbp2rcd13ifvqerg","pricing_plan_id":"cebpf4jnsgd1na2vs0mg"},{"bike_id":"9af9282d-795e-431f-8903-6eb68b9cd531","system_id":"levelo_inurba_marseille","lat":43.29027,"lon":5.38131,"is_reserved":false,"is_disabled":false,"rental_uris":{"android":"levelo://app?vid=9af9282d-795e-431f-8903-6eb68b9cd531","ios":"levelo://app?vid=9af9282d-795e-431f-8903-6eb68b9cd531"},"vehicle_type_id":"4","last_reported":1750514918,"current_range_meters":4800,"station_id":"ce4bh4p2rcd13ifvqe1g","pricing_plan_id":"cebpf4jnsgd1na2vs0mg"},{"bike_id":"4ecadb10-cccd-4178-a7d8-dd9fe7b6d391","system_id":"levelo_inurba_marseille","lat":43.29371,"lon":5.4018,"is_reserved":false,"is_disabled":false,"rental_uris":{"android":"levelo://app?vid=4ecadb10-cccd-4178-a7d8-dd9fe7b6d391","ios":"levelo://app?vid=4ecadb10-cccd-4178-a7d8-dd9fe7b6d391"},"vehicle_type_id":"4","last_reported":1750514918,"current_range_meters":5600,"station_id":"","pricing_plan_id":"cebpf4jnsgd1na2vs0mg"},{"bike_id":"5df0dfee-6e2c-481d-bff2-88c461064158","system_id":"levelo_inurba_marseille","lat":43.30206,"lon":5.39462,"is_reserved":false,"is_disabled":false,"rental_uris":{"android":"levelo://app?vid=5df0dfee-6e2c-481d-bff2-88c461064158","ios":"levelo://app?vid=5df0dfee-6e2c-481d-bff2-88c461064158"},"vehicle_type_id":"4","last_reported":1750514918,"current_range_meters":5600,"station_id":"ce4bh0p2rcd13ifvqd70","pricing_plan_id":"cebpf4jnsgd1na2vs0mg"},{"bike_id":"08deccec-7184-44c8-b444-89d2b750b2f2","system_id":"levelo_inurba_marseille","lat":43.28002,"lon":5.40015,"is_reserved":false,"is_disabled":false,"rental_uris":{"android":"levelo://app?vid=08deccec-7184-44c8-b444-89d2b750b2f2","ios":"levelo://app?vid=08deccec-7184-44c8-b444-89d2b750b2f2"},"vehicle_type_id":"4","last_reported":1750514918,"current_range_meters":5600,"station_id":"ce4bho92rcd13ifvqh4g","pricing_plan_id":"cebpf4jnsgd1na2vs0mg"},{"bike_id":"33893335-fbcb-43e3-9e2f-95cb467b1bcb","system_id":"levelo_inurba_marseille","lat":43.30619,"lon":5.37646,"is_reserved":false,"is_disabled":false,"rental_uris":{"android":"levelo://app?vid=33893335-fbcb-43e3-9e2f-95cb467b1bcb","ios":"levelo://app?vid=33893335-fbcb-43e3-9e2f-95cb467b1bcb"},"vehicle_type_id":"4","last_reported":1750514918,"current_range_meters":6000,"station_id":"","pricing_plan_id":"cebpf4jnsgd1na2vs0mg"},{"bike_id":"fbe532e7-2f52-46dc-822c-1466686be8c5","system_id":"levelo_inurba_marseille","lat":43.30089,"lon":5.40543,"is_reserved":false,"is_disabled":false,"rental_uris":{"android":"levelo://app?vid=fbe532e7-2f52-46dc-822c-1466686be8c5","ios":"levelo://app?vid=fbe532e7-2f52-46dc-822c-1466686be8c5"},"vehicle_type_id":"4","last_reported":1750514918,"current_range_meters":6000,"station_id":"","pricing_plan_id":"cebpf4jnsgd1na2vs0mg"},{"bike_id":"ede9b5c9-2106-47a2-8c94-9ebdaaf7ef72","system_id":"levelo_inurba_marseille","lat":43.2884,"lon":5.39308,"is_reserved":false,"is_disabled":false,"rental_uris":{"android":"levelo://app?vid=ede9b5c9-2106-47a2-8c94-9ebdaaf7ef72","ios":"levelo://app?vid=ede9b5c9-2106-47a2-8c94-9ebdaaf7ef72"},"vehicle_type_id":"4","last_reported":1750514918,"current_range_meters":6000,"station_id":"ce4bh2p2rcd13ifvqdi0","pricing_plan_id":"cebpf4jnsgd1na2vs0mg"},{"bike_id":"4f50b043-6cf3-4eb5-a4f2-5017fadf4d96","system_id":"levelo_inurba_marseille","lat":43.22483,"lon":5.34738,"is_reserved":false,"is_disabled":false,"rental_uris":{"android":"levelo://app?vid=4f50b043-6cf3-4eb5-a4f2-5017fadf4d96","ios":"levelo://app?vid=4f50b043-6cf3-4eb5-a4f2-5017fadf4d96"},"vehicle_type_id":"4","last_reported":1750514918,"current_range_meters":6000,"station_id":"st_cvj5dfep6f1abm77gieg","pricing_plan_id":"cebpf4jnsgd1na2vs0mg"},{"bike_id":"b4243f9a-20a4-434d-9326-6ceb6770f9c1","system_id":"levelo_inurba_marseille","lat":43.29041,"lon":5.39986,"is_reserved":false,"is_disabled":false,"rental_uris":{"android":"levelo://app?vid=b4243f9a-20a4-434d-9326-6ceb6770f9c1","ios":"levelo://app?vid=b4243f9a-20a4-434d-9326-6ceb6770f9c1"},"vehicle_type_id":"4","last_reported":1750514918,"current_range_meters":6400,"station_id":"ce4bh392rcd13ifvqdm0","pricing_plan_id":"cebpf4jnsgd1na2vs0mg"},{"bike_id":"8501938d-4d52-4e2b-8327-d9453b4a19d8","system_id":"levelo_inurba_marseille","lat":43.24167,"lon":5.36392,"is_reserved":false,"is_disabled":false,"rental_uris":{"android":"levelo://app?vid=8501938d-4d52-4e2b-8327-d9453b4a19d8","ios":"levelo://app?vid=8501938d-4d52-4e2b-8327-d9453b4a19d8"},"vehicle_type_id":"4","last_reported":1750514918,"current_range_meters":6400,"station_id":"cpo36qri1sfpv3e86is0","pricing_plan_id":"cebpf4jnsgd1na2vs0mg"},{"bike_id":"3e3629c3-44d4-4228-9231-2038037e2216","system_id":"levelo_inurba_marseille","lat":43.28412,"lon":5.35165,"is_reserved":false,"is_disabled":false,"rental_uris":{"android":"levelo://app?vid=3e3629c3-44d4-4228-9231-2038037e2216","ios":"levelo://app?vid=3e3629c3-44d4-4228-9231-2038037e2216"},"vehicle_type_id":"4","last_reported":1750514918,"current_range_meters":6800,"station_id":"","pricing_plan_id":"cebpf4jnsgd1na2vs0mg"},{"bike_id":"4a2db331-6a0b-448a-a250-7108145e1c5d","system_id":"levelo_inurba_marseille","lat":43.29866,"lon":5.39738,"is_reserved":false,"is_disabled":false,"rental_uris":{"android":"levelo://app?vid=4a2db331-6a0b-448a-a250-7108145e1c5d","ios":"levelo://app?vid=4a2db331-6a0b-448a-a250-7108145e1c5d"},"vehicle_type_id":"4","last_reported":1750514918,"current_range_meters":6800,"station_id":"ce4bh0h2rcd13ifvqd50","pricing_plan_id":"cebpf4jnsgd1na2vs0mg"},{"bike_id":"0383fc9e-8cf7-4fab-82a5-33cddbacf0bd","system_id":"levelo_inurba_marseille","lat":43.28418,"lon":5.34979,"is_reserved":false,"is_disabled":false,"rental_uris":{"android":"levelo://app?vid=0383fc9e-8cf7-4fab-82a5-33cddbacf0bd","ios":"levelo://app?vid=0383fc9e-8cf7-4fab-82a5-33cddbacf0bd"},"vehicle_type_id":"4","last_reported":1750514918,"current_range_meters":6800,"station_id":"ce4bhbh2rcd13ifvqepg","pricing_plan_id":"cebpf4jnsgd1na2vs0mg"},{"bike_id":"c540dbee-0877-400a-93c5-aa4a1365f2b5","system_id":"levelo_inurba_marseille","lat":43.28272,"lon":5.35076,"is_reserved":false,"is_disabled":false,"rental_uris":{"android":"levelo://app?vid=c540dbee-0877-400a-93c5-aa4a1365f2b5","ios":"levelo://app?vid=c540dbee-0877-400a-93c5-aa4a1365f2b5"},"vehicle_type_id":"4","last_reported":1750514918,"current_range_meters":6800,"station_id":"ce4bhbp2rcd13ifvqerg","pricing_plan_id":"cebpf4jnsgd1na2vs0mg"},{"bike_id":"fada634e-4f12-4d81-9d2e-67fd3505e0c0","system_id":"levelo_inurba_marseille","lat":43.24387,"lon":5.37056,"is_reserved":false,"is_disabled":false,"rental_uris":{"android":"levelo://app?vid=fada634e-4f12-4d81-9d2e-67fd3505e0c0","ios":"levelo://app?vid=fada634e-4f12-4d81-9d2e-67fd3505e0c0"},"vehicle_type_id":"4","last_reported":1750514918,"current_range_meters":6800,"station_id":"ce4bhhh2rcd13ifvqfk0","pricing_plan_id":"cebpf4jnsgd1na2vs0mg"},{"bike_id":"35cb0325-70f2-4890-bc7f-a374885a6065","system_id":"levelo_inurba_marseille","lat":43.25798,"lon":5.37609,"is_reserved":false,"is_disabled":false,"rental_uris":{"android":"levelo://app?vid=35cb0325-70f2-4890-bc7f-a374885a6065","ios":"levelo://app?vid=35cb0325-70f2-4890-bc7f-a374885a6065"},"vehicle_type_id":"4","last_reported":1750514918,"current_range_meters":7200,"station_id":"","pricing_plan_id":"cebpf4jnsgd1na2vs0mg"},{"bike_id":"d049e2b2-bb7c-456a-b000-a7cd8ccebbf6","system_id":"levelo_inurba_marseille","lat":43.30431,"lon":5.38886,"is_reserved":false,"is_disabled":false,"rental_uris":{"android":"levelo://app?vid=d049e2b2-bb7c-456a-b000-a7cd8ccebbf6","ios":"levelo://app?vid=d049e2b2-bb7c-456a-b000-a7cd8ccebbf6"},"vehicle_type_id":"4","last_reported":1750514918,"current_range_meters":7200,"station_id":"ce4bgk12rcd13ifvqbi0","pricing_plan_id":"cebpf4jnsgd1na2vs0mg"},{"bike_id":"8bb8ecf5-1f0a-4b9a-b237-f0551e93d0a5","system_id":"levelo_inurba_marseille","lat":43.29594,"lon":5.38109,"is_reserved":false,"is_disabled":false,"rental_uris":{"android":"levelo://app?vid=8bb8ecf5-1f0a-4b9a-b237-f0551e93d0a5","ios":"levelo://app?vid=8bb8ecf5-1f0a-4b9a-b237-f0551e93d0a5"},"vehicle_type_id":"4","last_reported":1750514918,"current_range_meters":7200,"station_id":"ce4bgl12rcd13ifvqbo0","pricing_plan_id":"cebpf4jnsgd1na2vs0mg"},{"bike_id":"06b7aec9-f930-4995-abc0-90d0137ea2c5","system_id":"levelo_inurba_marseille","lat":43.28104,"lon":5.37837,"is_reserved":false,"is_disabled":false,"rental_uris":{"android":"levelo://app?vid=06b7aec9-f930-4995-abc0-90d0137ea2c5","ios":"levelo://app?vid=06b7aec9-f930-4995-abc0-90d0137ea2c5"},"vehicle_type_id":"4","last_reported":1750514918,"current_range_meters":7200,"station_id":"ce4bha12rcd13ifvqee0","pricing_plan_id":"cebpf4jnsgd1na2vs0mg"},{"bike_id":"98989930-7259-46f7-bed7-d6c286117c8c","system_id":"levelo_inurba_marseille","lat":43.28612,"lon":5.35104,"is_reserved":false,"is_disabled":false,"rental_uris":{"android":"levelo://app?vid=98989930-7259-46f7-bed7-d6c286117c8c","ios":"levelo://app?vid=98989930-7259-46f7-bed7-d6c286117c8c"},"vehicle_type_id":"4","last_reported":1750514918,"current_range_meters":7200,"station_id":"ce4bhch2rcd13ifvqeug","pricing_plan_id":"cebpf4jnsgd1na2vs0mg"},{"bike_id":"a90a953b-b364-4e77-acd2-02244ebc50c6","system_id":"levelo_inurba_marseille","lat":43.284394,"lon":5.39205,"is_reserved":false,"is_disabled":false,"rental_uris":{"android":"levelo://app?vid=a90a953b-b364-4e77-acd2-02244ebc50c6","ios":"levelo://app?vid=a90a953b-b364-4e77-acd2-02244ebc50c6"},"vehicle_type_id":"4","last_reported":1750514918,"current_range_meters":7200,"station_id":"ce4bhoh2rcd13ifvqh5g","pricing_plan_id":"cebpf4jnsgd1na2vs0mg"},{"bike_id":"040977a8-13c0-45f8-878b-41dbebdc1a7e","system_id":"levelo_inurba_marseille","lat":43.29899,"lon":5.4366,"is_reserved":false,"is_disabled":false,"rental_uris":{"android":"levelo://app?vid=040977a8-13c0-45f8-878b-41dbebdc1a7e","ios":"levelo://app?vid=040977a8-13c0-45f8-878b-41dbebdc1a7e"},"vehicle_type_id":"4","last_reported":1750514918,"current_range_meters":7200,"station_id":"ce4bhpp2rcd13ifvqhfg","pricing_plan_id":"cebpf4jnsgd1na2vs0mg"},{"bike_id":"a790c610-6fd6-4bee-943a-272ac05a5089","system_id":"levelo_inurba_marseille","lat":43.23186,"lon":5.35563,"is_reserved":false,"is_disabled":false,"rental_uris":{"android":"levelo://app?vid=a790c610-6fd6-4bee-943a-272ac05a5089","ios":"levelo://app?vid=a790c610-6fd6-4bee-943a-272ac05a5089"},"vehicle_type_id":"4","last_reported":1750514918,"current_range_meters":7200,"station_id":"ce4bhu92rcd13ifvqi70","pricing_plan_id":"cebpf4jnsgd1na2vs0mg"},{"bike_id":"a4a210b7-0995-4db8-8f6a-3163dc5bfc8f","system_id":"levelo_inurba_marseille","lat":43.23185,"lon":5.35571,"is_reserved":false,"is_disabled":false,"rental_uris":{"android":"levelo://app?vid=a4a210b7-0995-4db8-8f6a-3163dc5bfc8f","ios":"levelo://app?vid=a4a210b7-0995-4db8-8f6a-3163dc5bfc8f"},"vehicle_type_id":"4","last_reported":1750514918,"current_range_meters":8000,"station_id":"ce4bhu92rcd13ifvqi70","pricing_plan_id":"cebpf4jnsgd1na2vs0mg"},{"bike_id":"eb708a20-d1b9-4d97-9e32-c1ba7d416bea","system_id":"levelo_inurba_marseille","lat":43.230673,"lon":5.354946,"is_reserved":false,"is_disabled":false,"rental_uris":{"android":"levelo://app?vid=eb708a20-d1b9-4d97-9e32-c1ba7d416bea","ios":"levelo://app?vid=eb708a20-d1b9-4d97-9e32-c1ba7d416bea"},"vehicle_type_id":"4","last_reported":1750514918,"current_range_meters":8000,"station_id":"cpo3342slgdg3j2ifvpg","pricing_plan_id":"cebpf4jnsgd1na2vs0mg"},{"bike_id":"8860dcee-e3d8-4b89-982d-9eae459857ac","system_id":"levelo_inurba_marseille","lat":43.24166,"lon":5.36398,"is_reserved":false,"is_disabled":false,"rental_uris":{"android":"levelo://app?vid=8860dcee-e3d8-4b89-982d-9eae459857ac","ios":"levelo://app?vid=8860dcee-e3d8-4b89-982d-9eae459857ac"},"vehicle_type_id":"4","last_reported":1750514918,"current_range_meters":8000,"station_id":"cpo36qri1sfpv3e86is0","pricing_plan_id":"cebpf4jnsgd1na2vs0mg"},{"bike_id":"b50ed994-fd88-4dd1-8846-dc2bf2666662","system_id":"levelo_inurba_marseille","lat":43.30568,"lon":5.40095,"is_reserved":false,"is_disabled":false,"rental_uris":{"android":"levelo://app?vid=b50ed994-fd88-4dd1-8846-dc2bf2666662","ios":"levelo://app?vid=b50ed994-fd88-4dd1-8846-dc2bf2666662"},"vehicle_type_id":"4","last_reported":1750514918,"current_range_meters":8400,"station_id":"","pricing_plan_id":"cebpf4jnsgd1na2vs0mg"},{"bike_id":"c595d0e1-c778-4abe-9c79-a9dd74f54e27","system_id":"levelo_inurba_marseille","lat":43.24469,"lon":5.37226,"is_reserved":false,"is_disabled":false,"rental_uris":{"android":"levelo://app?vid=c595d0e1-c778-4abe-9c79-a9dd74f54e27","ios":"levelo://app?vid=c595d0e1-c778-4abe-9c79-a9dd74f54e27"},"vehicle_type_id":"4","last_reported":1750514918,"current_range_meters":8400,"station_id":"","pricing_plan_id":"cebpf4jnsgd1na2vs0mg"},{"bike_id":"61ded6c3-8c28-4a13-b821-ba56c4d997b6","system_id":"levelo_inurba_marseille","lat":43.30949,"lon":5.39024,"is_reserved":false,"is_disabled":false,"rental_uris":{"android":"levelo://app?vid=61ded6c3-8c28-4a13-b821-ba56c4d997b6","ios":"levelo://app?vid=61ded6c3-8c28-4a13-b821-ba56c4d997b6"},"vehicle_type_id":"4","last_reported":1750514918,"current_range_meters":8400,"station_id":"ce4bgup2rcd13ifvqco0","pricing_plan_id":"cebpf4jnsgd1na2vs0mg"},{"bike_id":"b135cdcd-e995-4800-ab4e-b9241575ffc4","system_id":"levelo_inurba_marseille","lat":43.26682,"lon":5.38272,"is_reserved":false,"is_disabled":false,"rental_uris":{"android":"levelo://app?vid=b135cdcd-e995-4800-ab4e-b9241575ffc4","ios":"levelo://app?vid=b135cdcd-e995-4800-ab4e-b9241575ffc4"},"vehicle_type_id":"4","last_reported":1750514918,"current_range_meters":8400,"station_id":"ce4bhg92rcd13ifvqf90","pricing_plan_id":"cebpf4jnsgd1na2vs0mg"},{"bike_id":"bfb5813c-f2a6-4c90-8fc7-5ca0e4b24ddc","system_id":"levelo_inurba_marseille","lat":43.23149,"lon":5.43728,"is_reserved":false,"is_disabled":false,"rental_uris":{"android":"levelo://app?vid=bfb5813c-f2a6-4c90-8fc7-5ca0e4b24ddc","ios":"levelo://app?vid=bfb5813c-f2a6-4c90-8fc7-5ca0e4b24ddc"},"vehicle_type_id":"4","last_reported":1750514918,"current_range_meters":8400,"station_id":"ce4bhmp2rcd13ifvqgog","pricing_plan_id":"cebpf4jnsgd1na2vs0mg"},{"bike_id":"cc554f2f-8737-4971-881e-eff8120e96eb","system_id":"levelo_inurba_marseille","lat":43.32357,"lon":5.36754,"is_reserved":false,"is_disabled":false,"rental_uris":{"android":"levelo://app?vid=cc554f2f-8737-4971-881e-eff8120e96eb","ios":"levelo://app?vid=cc554f2f-8737-4971-881e-eff8120e96eb"},"vehicle_type_id":"4","last_reported":1750514918,"current_range_meters":8400,"station_id":"ce4bhsh2rcd13ifvqi2g","pricing_plan_id":"cebpf4jnsgd1na2vs0mg"},{"bike_id":"c646b072-2ebf-48ef-938d-86d8785b74ec","system_id":"levelo_inurba_marseille","lat":43.24163,"lon":5.36395,"is_reserved":false,"is_disabled":false,"rental_uris":{"android":"levelo://app?vid=c646b072-2ebf-48ef-938d-86d8785b74ec","ios":"levelo://app?vid=c646b072-2ebf-48ef-938d-86d8785b74ec"},"vehicle_type_id":"4","last_reported":1750514918,"current_range_meters":8400,"station_id":"cpo36qri1sfpv3e86is0","pricing_plan_id":"cebpf4jnsgd1na2vs0mg"},{"bike_id":"68b0a320-aa97-4c77-a84d-bdcdfc4e0ab5","system_id":"levelo_inurba_marseille","lat":43.24167,"lon":5.36402,"is_reserved":false,"is_disabled":false,"rental_uris":{"android":"levelo://app?vid=68b0a320-aa97-4c77-a84d-bdcdfc4e0ab5","ios":"levelo://app?vid=68b0a320-aa97-4c77-a84d-bdcdfc4e0ab5"},"vehicle_type_id":"4","last_reported":1750514918,"current_range_meters":8400,"station_id":"cpo36qri1sfpv3e86is0","pricing_plan_id":"cebpf4jnsgd1na2vs0mg"},{"bike_id":"a74a801d-e870-481e-bb5c-e987d14fea00","system_id":"levelo_inurba_marseille","lat":43.29908,"lon":5.38133,"is_reserved":false,"is_disabled":false,"rental_uris":{"android":"levelo://app?vid=a74a801d-e870-481e-bb5c-e987d14fea00","ios":"levelo://app?vid=a74a801d-e870-481e-bb5c-e987d14fea00"},"vehicle_type_id":"4","last_reported":1750514918,"current_range_meters":8800,"station_id":"ce4bgj12rcd13ifvqbc0","pricing_plan_id":"cebpf4jnsgd1na2vs0mg"},{"bike_id":"80d5cc72-cad5-4ded-9aa8-1e01b4b13e38","system_id":"levelo_inurba_marseille","lat":43.30273,"lon":5.37689,"is_reserved":false,"is_disabled":false,"rental_uris":{"android":"levelo://app?vid=80d5cc72-cad5-4ded-9aa8-1e01b4b13e38","ios":"levelo://app?vid=80d5cc72-cad5-4ded-9aa8-1e01b4b13e38"},"vehicle_type_id":"4","last_reported":1750514918,"current_range_meters":8800,"station_id":"ce4bguh2rcd13ifvqcj0","pricing_plan_id":"cebpf4jnsgd1na2vs0mg"},{"bike_id":"35aaa1b1-2368-46df-be4d-6d64179bb0d6","system_id":"levelo_inurba_marseille","lat":43.30924,"lon":5.40149,"is_reserved":false,"is_disabled":false,"rental_uris":{"android":"levelo://app?vid=35aaa1b1-2368-46df-be4d-6d64179bb0d6","ios":"levelo://app?vid=35aaa1b1-2368-46df-be4d-6d64179bb0d6"},"vehicle_type_id":"4","last_reported":1750514918,"current_range_meters":8800,"station_id":"ce4bgvp2rcd13ifvqct0","pricing_plan_id":"cebpf4jnsgd1na2vs0mg"},{"bike_id":"0716977c-1bfa-43d2-a9d8-dd3e8150e7e6","system_id":"levelo_inurba_marseille","lat":43.28945,"lon":5.39627,"is_reserved":false,"is_disabled":false,"rental_uris":{"android":"levelo://app?vid=0716977c-1bfa-43d2-a9d8-dd3e8150e7e6","ios":"levelo://app?vid=0716977c-1bfa-43d2-a9d8-dd3e8150e7e6"},"vehicle_type_id":"4","last_reported":1750514918,"current_range_meters":8800,"station_id":"ce4bh3h2rcd13ifvqdn0","pricing_plan_id":"cebpf4jnsgd1na2vs0mg"},{"bike_id":"9d1732bd-cd5c-49dc-a753-9b1f08ef90e0","system_id":"levelo_inurba_marseille","lat":43.26194,"lon":5.37476,"is_reserved":false,"is_disabled":false,"rental_uris":{"android":"levelo://app?vid=9d1732bd-cd5c-49dc-a753-9b1f08ef90e0","ios":"levelo://app?vid=9d1732bd-cd5c-49dc-a753-9b1f08ef90e0"},"vehicle_type_id":"4","last_reported":1750514918,"current_range_meters":8800,"station_id":"ce4bhgp2rcd13ifvqfc0","pricing_plan_id":"cebpf4jnsgd1na2vs0mg"},{"bike_id":"0af55865-2874-4c6f-81db-887253aa3f49","system_id":"levelo_inurba_marseille","lat":43.28441,"lon":5.39203,"is_reserved":false,"is_disabled":false,"rental_uris":{"android":"levelo://app?vid=0af55865-2874-4c6f-81db-887253aa3f49","ios":"levelo://app?vid=0af55865-2874-4c6f-81db-887253aa3f49"},"vehicle_type_id":"4","last_reported":1750514918,"current_range_meters":8800,"station_id":"ce4bhoh2rcd13ifvqh5g","pricing_plan_id":"cebpf4jnsgd1na2vs0mg"},{"bike_id":"c679fd72-06b6-4f0e-a502-2e9bea523cd9","system_id":"levelo_inurba_marseille","lat":43.24166,"lon":5.36398,"is_reserved":false,"is_disabled":false,"rental_uris":{"android":"levelo://app?vid=c679fd72-06b6-4f0e-a502-2e9bea523cd9","ios":"levelo://app?vid=c679fd72-06b6-4f0e-a502-2e9bea523cd9"},"vehicle_type_id":"4","last_reported":1750514918,"current_range_meters":8800,"station_id":"cpo36qri1sfpv3e86is0","pricing_plan_id":"cebpf4jnsgd1na2vs0mg"},{"bike_id":"199c2831-e081-4bc0-9b94-19503817091d","system_id":"levelo_inurba_marseille","lat":43.2492,"lon":5.40686,"is_reserved":false,"is_disabled":false,"rental_uris":{"android":"levelo://app?vid=199c2831-e081-4bc0-9b94-19503817091d","ios":"levelo://app?vid=199c2831-e081-4bc0-9b94-19503817091d"},"vehicle_type_id":"4","last_reported":1750514918,"current_range_meters":9200,"station_id":"","pricing_plan_id":"cebpf4jnsgd1na2vs0mg"},{"bike_id":"dff37769-2f7e-4130-8094-d58914144ce2","system_id":"levelo_inurba_marseille","lat":43.2621,"lon":5.37445,"is_reserved":false,"is_disabled":false,"rental_uris":{"android":"levelo://app?vid=dff37769-2f7e-4130-8094-d58914144ce2","ios":"levelo://app?vid=dff37769-2f7e-4130-8094-d58914144ce2"},"vehicle_type_id":"4","last_reported":1750514918,"current_range_meters":9200,"station_id":"ce4bhgp2rcd13ifvqfc0","pricing_plan_id":"cebpf4jnsgd1na2vs0mg"},{"bike_id":"83e0933c-f1d4-42c9-8da5-8ac14b7076b7","system_id":"levelo_inurba_marseille","lat":43.25577,"lon":5.38246,"is_reserved":false,"is_disabled":false,"rental_uris":{"android":"levelo://app?vid=83e0933c-f1d4-42c9-8da5-8ac14b7076b7","ios":"levelo://app?vid=83e0933c-f1d4-42c9-8da5-8ac14b7076b7"},"vehicle_type_id":"4","last_reported":1750514918,"current_range_meters":9200,"station_id":"ce4bhih2rcd13ifvqfs0","pricing_plan_id":"cebpf4jnsgd1na2vs0mg"},{"bike_id":"250078a3-98f0-4946-8fc6-5d0c039efeb1","system_id":"levelo_inurba_marseille","lat":43.24166,"lon":5.364,"is_reserved":false,"is_disabled":false,"rental_uris":{"android":"levelo://app?vid=250078a3-98f0-4946-8fc6-5d0c039efeb1","ios":"levelo://app?vid=250078a3-98f0-4946-8fc6-5d0c039efeb1"},"vehicle_type_id":"4","last_reported":1750514918,"current_range_meters":9200,"station_id":"cpo36qri1sfpv3e86is0","pricing_plan_id":"cebpf4jnsgd1na2vs0mg"},{"bike_id":"8300812b-c3f4-4460-a462-0c10590e5460","system_id":"levelo_inurba_marseille","lat":43.32975,"lon":5.40546,"is_reserved":false,"is_disabled":false,"rental_uris":{"android":"levelo://app?vid=8300812b-c3f4-4460-a462-0c10590e5460","ios":"levelo://app?vid=8300812b-c3f4-4460-a462-0c10590e5460"},"vehicle_type_id":"4","last_reported":1750514918,"current_range_meters":9600,"station_id":"","pricing_plan_id":"cebpf4jnsgd1na2vs0mg"},{"bike_id":"80446519-e877-4809-9114-1064a19d50ec","system_id":"levelo_inurba_marseille","lat":43.2803,"lon":5.3694,"is_reserved":false,"is_disabled":false,"rental_uris":{"android":"levelo://app?vid=80446519-e877-4809-9114-1064a19d50ec","ios":"levelo://app?vid=80446519-e877-4809-9114-1064a19d50ec"},"vehicle_type_id":"4","last_reported":1750514918,"current_range_meters":9600,"station_id":"ce4bha12rcd13ifvqef0","pricing_plan_id":"cebpf4jnsgd1na2vs0mg"},{"bike_id":"2180393f-c4cb-4b21-9fdb-2ed75badf7d5","system_id":"levelo_inurba_marseille","lat":43.28461,"lon":5.3588,"is_reserved":false,"is_disabled":false,"rental_uris":{"android":"levelo://app?vid=2180393f-c4cb-4b21-9fdb-2ed75badf7d5","ios":"levelo://app?vid=2180393f-c4cb-4b21-9fdb-2ed75badf7d5"},"vehicle_type_id":"4","last_reported":1750514918,"current_range_meters":9600,"station_id":"ce4bhah2rcd13ifvqei0","pricing_plan_id":"cebpf4jnsgd1na2vs0mg"},{"bike_id":"ce8a145b-bff5-4a40-807c-cf03ca770fae","system_id":"levelo_inurba_marseille","lat":43.27375,"lon":5.36259,"is_reserved":false,"is_disabled":false,"rental_uris":{"android":"levelo://app?vid=ce8a145b-bff5-4a40-807c-cf03ca770fae","ios":"levelo://app?vid=ce8a145b-bff5-4a40-807c-cf03ca770fae"},"vehicle_type_id":"4","last_reported":1750514918,"current_range_meters":9600,"station_id":"ce4bhbh2rcd13ifvqeo0","pricing_plan_id":"cebpf4jnsgd1na2vs0mg"},{"bike_id":"93f789f2-921a-4f1c-857b-2ea4ae07c349","system_id":"levelo_inurba_marseille","lat":43.27992,"lon":5.3999,"is_reserved":false,"is_disabled":false,"rental_uris":{"android":"levelo://app?vid=93f789f2-921a-4f1c-857b-2ea4ae07c349","ios":"levelo://app?vid=93f789f2-921a-4f1c-857b-2ea4ae07c349"},"vehicle_type_id":"4","last_reported":1750514918,"current_range_meters":9600,"station_id":"ce4bho92rcd13ifvqh4g","pricing_plan_id":"cebpf4jnsgd1na2vs0mg"},{"bike_id":"0bd6a582-8748-4764-af61-8a840af221e6","system_id":"levelo_inurba_marseille","lat":43.30467,"lon":5.37906,"is_reserved":false,"is_disabled":false,"rental_uris":{"android":"levelo://app?vid=0bd6a582-8748-4764-af61-8a840af221e6","ios":"levelo://app?vid=0bd6a582-8748-4764-af61-8a840af221e6"},"vehicle_type_id":"4","last_reported":1750514918,"current_range_meters":10000,"station_id":"ce4bgup2rcd13ifvqcn0","pricing_plan_id":"cebpf4jnsgd1na2vs0mg"},{"bike_id":"1750d39a-9e94-4219-b5ab-89f6ada42ee0","system_id":"levelo_inurba_marseille","lat":43.30884,"lon":5.39662,"is_reserved":false,"is_disabled":false,"rental_uris":{"android":"levelo://app?vid=1750d39a-9e94-4219-b5ab-89f6ada42ee0","ios":"levelo://app?vid=1750d39a-9e94-4219-b5ab-89f6ada42ee0"},"vehicle_type_id":"4","last_reported":1750514918,"current_range_meters":10000,"station_id":"ce4bh012rcd13ifvqcv0","pricing_plan_id":"cebpf4jnsgd1na2vs0mg"},{"bike_id":"b43dd87e-b296-4299-8374-eb747fb46bf2","system_id":"levelo_inurba_marseille","lat":43.26215,"lon":5.3745,"is_reserved":false,"is_disabled":false,"rental_uris":{"android":"levelo://app?vid=b43dd87e-b296-4299-8374-eb747fb46bf2","ios":"levelo://app?vid=b43dd87e-b296-4299-8374-eb747fb46bf2"},"vehicle_type_id":"4","last_reported":1750514918,"current_range_meters":10000,"station_id":"ce4bhgp2rcd13ifvqfc0","pricing_plan_id":"cebpf4jnsgd1na2vs0mg"},{"bike_id":"ecb522df-ce4a-4e07-bfb2-c7a0d2a31686","system_id":"levelo_inurba_marseille","lat":43.254986,"lon":5.376502,"is_reserved":false,"is_disabled":false,"rental_uris":{"android":"levelo://app?vid=ecb522df-ce4a-4e07-bfb2-c7a0d2a31686","ios":"levelo://app?vid=ecb522df-ce4a-4e07-bfb2-c7a0d2a31686"},"vehicle_type_id":"4","last_reported":1750514918,"current_range_meters":10000,"station_id":"ce4bhh12rcd13ifvqff0","pricing_plan_id":"cebpf4jnsgd1na2vs0mg"},{"bike_id":"c83d847e-d4d1-4dc2-b9d4-0cb0b089ce49","system_id":"levelo_inurba_marseille","lat":43.28153,"lon":5.42645,"is_reserved":false,"is_disabled":false,"rental_uris":{"android":"levelo://app?vid=c83d847e-d4d1-4dc2-b9d4-0cb0b089ce49","ios":"levelo://app?vid=c83d847e-d4d1-4dc2-b9d4-0cb0b089ce49"},"vehicle_type_id":"4","last_reported":1750514918,"current_range_meters":10000,"station_id":"ce4bhnh2rcd13ifvqgug","pricing_plan_id":"cebpf4jnsgd1na2vs0mg"},{"bike_id":"b4630ca5-8a26-4236-86e1-f79794d22922","system_id":"levelo_inurba_marseille","lat":43.284433,"lon":5.392006,"is_reserved":false,"is_disabled":false,"rental_uris":{"android":"levelo://app?vid=b4630ca5-8a26-4236-86e1-f79794d22922","ios":"levelo://app?vid=b4630ca5-8a26-4236-86e1-f79794d22922"},"vehicle_type_id":"4","last_reported":1750514918,"current_range_meters":10000,"station_id":"ce4bhoh2rcd13ifvqh5g","pricing_plan_id":"cebpf4jnsgd1na2vs0mg"},{"bike_id":"bd27fe72-6fbc-453f-8b77-bee10ab3b13c","system_id":"levelo_inurba_marseille","lat":43.29546,"lon":5.42321,"is_reserved":false,"is_disabled":false,"rental_uris":{"android":"levelo://app?vid=bd27fe72-6fbc-453f-8b77-bee10ab3b13c","ios":"levelo://app?vid=bd27fe72-6fbc-453f-8b77-bee10ab3b13c"},"vehicle_type_id":"4","last_reported":1750514918,"current_range_meters":10000,"station_id":"ce4bhph2rcd13ifvqhdg","pricing_plan_id":"cebpf4jnsgd1na2vs0mg"},{"bike_id":"dc540ba2-fb63-45eb-b83a-1826fb3d30b7","system_id":"levelo_inurba_marseille","lat":43.24595,"lon":5.39266,"is_reserved":false,"is_disabled":false,"rental_uris":{"android":"levelo://app?vid=dc540ba2-fb63-45eb-b83a-1826fb3d30b7","ios":"levelo://app?vid=dc540ba2-fb63-45eb-b83a-1826fb3d30b7"},"vehicle_type_id":"4","last_reported":1750514918,"current_range_meters":10800,"station_id":"","pricing_plan_id":"cebpf4jnsgd1na2vs0mg"},{"bike_id":"da57f2c8-7b87-4005-8c88-993a242b8dd1","system_id":"levelo_inurba_marseille","lat":43.30471,"lon":5.37916,"is_reserved":false,"is_disabled":false,"rental_uris":{"android":"levelo://app?vid=da57f2c8-7b87-4005-8c88-993a242b8dd1","ios":"levelo://app?vid=da57f2c8-7b87-4005-8c88-993a242b8dd1"},"vehicle_type_id":"4","last_reported":1750514918,"current_range_meters":10800,"station_id":"ce4bgup2rcd13ifvqcn0","pricing_plan_id":"cebpf4jnsgd1na2vs0mg"},{"bike_id":"12a07ae4-75d9-406a-9723-9b24348f3e3e","system_id":"levelo_inurba_marseille","lat":43.29257,"lon":5.40905,"is_reserved":false,"is_disabled":false,"rental_uris":{"android":"levelo://app?vid=12a07ae4-75d9-406a-9723-9b24348f3e3e","ios":"levelo://app?vid=12a07ae4-75d9-406a-9723-9b24348f3e3e"},"vehicle_type_id":"4","last_reported":1750514918,"current_range_meters":10800,"station_id":"ce4bh192rcd13ifvqdc0","pricing_plan_id":"cebpf4jnsgd1na2vs0mg"},{"bike_id":"3ca1ba4a-20d5-4180-9a59-aed2cccc2563","system_id":"levelo_inurba_marseille","lat":43.27374,"lon":5.36255,"is_reserved":false,"is_disabled":false,"rental_uris":{"android":"levelo://app?vid=3ca1ba4a-20d5-4180-9a59-aed2cccc2563","ios":"levelo://app?vid=3ca1ba4a-20d5-4180-9a59-aed2cccc2563"},"vehicle_type_id":"4","last_reported":1750514918,"current_range_meters":10800,"station_id":"ce4bhbh2rcd13ifvqeo0","pricing_plan_id":"cebpf4jnsgd1na2vs0mg"},{"bike_id":"357616f6-64ea-450f-ab98-ab25d770a481","system_id":"levelo_inurba_marseille","lat":43.28412,"lon":5.35008,"is_reserved":false,"is_disabled":false,"rental_uris":{"android":"levelo://app?vid=357616f6-64ea-450f-ab98-ab25d770a481","ios":"levelo://app?vid=357616f6-64ea-450f-ab98-ab25d770a481"},"vehicle_type_id":"4","last_reported":1750514918,"current_range_meters":10800,"station_id":"ce4bhbh2rcd13ifvqepg","pricing_plan_id":"cebpf4jnsgd1na2vs0mg"},{"bike_id":"7d7b289c-3a70-40bc-aaac-301b4149510e","system_id":"levelo_inurba_marseille","lat":43.247877,"lon":5.374247,"is_reserved":false,"is_disabled":false,"rental_uris":{"android":"levelo://app?vid=7d7b289c-3a70-40bc-aaac-301b4149510e","ios":"levelo://app?vid=7d7b289c-3a70-40bc-aaac-301b4149510e"},"vehicle_type_id":"4","last_reported":1750514918,"current_range_meters":10800,"station_id":"ce4bhgh2rcd13ifvqfb0","pricing_plan_id":"cebpf4jnsgd1na2vs0mg"},{"bike_id":"bae794a4-d206-4eaa-9888-7ffb89287003","system_id":"levelo_inurba_marseille","lat":43.24379,"lon":5.37041,"is_reserved":false,"is_disabled":false,"rental_uris":{"android":"levelo://app?vid=bae794a4-d206-4eaa-9888-7ffb89287003","ios":"levelo://app?vid=bae794a4-d206-4eaa-9888-7ffb89287003"},"vehicle_type_id":"4","last_reported":1750514918,"current_range_meters":10800,"station_id":"ce4bhhh2rcd13ifvqfk0","pricing_plan_id":"cebpf4jnsgd1na2vs0mg"},{"bike_id":"d280bc58-bdbe-4662-9eac-47f97937d70a","system_id":"levelo_inurba_marseille","lat":43.27654,"lon":5.38908,"is_reserved":false,"is_disabled":true,"rental_uris":{"android":"levelo://app?vid=d280bc58-bdbe-4662-9eac-47f97937d70a","ios":"levelo://app?vid=d280bc58-bdbe-4662-9eac-47f97937d70a"},"vehicle_type_id":"4","last_reported":1750514918,"current_range_meters":10800,"station_id":"ce4bhi12rcd13ifvqfo0","pricing_plan_id":"cebpf4jnsgd1na2vs0mg"},{"bike_id":"8d5eeb77-60a3-4d69-9687-b8e6b551b11c","system_id":"levelo_inurba_marseille","lat":43.27827,"lon":5.41447,"is_reserved":false,"is_disabled":false,"rental_uris":{"android":"levelo://app?vid=8d5eeb77-60a3-4d69-9687-b8e6b551b11c","ios":"levelo://app?vid=8d5eeb77-60a3-4d69-9687-b8e6b551b11c"},"vehicle_type_id":"4","last_reported":1750514918,"current_range_meters":11200,"station_id":"","pricing_plan_id":"cebpf4jnsgd1na2vs0mg"},{"bike_id":"959f0c62-9761-4a35-9c23-557e23ca2679","system_id":"levelo_inurba_marseille","lat":43.24666,"lon":5.38152,"is_reserved":false,"is_disabled":false,"rental_uris":{"android":"levelo://app?vid=959f0c62-9761-4a35-9c23-557e23ca2679","ios":"levelo://app?vid=959f0c62-9761-4a35-9c23-557e23ca2679"},"vehicle_type_id":"4","last_reported":1750514918,"current_range_meters":11200,"station_id":"ce4bhih2rcd13ifvqfr0","pricing_plan_id":"cebpf4jnsgd1na2vs0mg"},{"bike_id":"8fd94bfe-b0a3-4509-a3c9-0f6e3f8eed78","system_id":"levelo_inurba_marseille","lat":43.24185,"lon":5.36425,"is_reserved":false,"is_disabled":false,"rental_uris":{"android":"levelo://app?vid=8fd94bfe-b0a3-4509-a3c9-0f6e3f8eed78","ios":"levelo://app?vid=8fd94bfe-b0a3-4509-a3c9-0f6e3f8eed78"},"vehicle_type_id":"4","last_reported":1750514918,"current_range_meters":11200,"station_id":"cpo36qri1sfpv3e86is0","pricing_plan_id":"cebpf4jnsgd1na2vs0mg"},{"bike_id":"8ef11a45-504d-45b0-a2b5-97fef9594218","system_id":"levelo_inurba_marseille","lat":43.29535,"lon":5.38146,"is_reserved":false,"is_disabled":false,"rental_uris":{"android":"levelo://app?vid=8ef11a45-504d-45b0-a2b5-97fef9594218","ios":"levelo://app?vid=8ef11a45-504d-45b0-a2b5-97fef9594218"},"vehicle_type_id":"4","last_reported":1750514918,"current_range_meters":11600,"station_id":"","pricing_plan_id":"cebpf4jnsgd1na2vs0mg"},{"bike_id":"d042a4ac-fa6a-4fb7-8943-8517d7a80d93","system_id":"levelo_inurba_marseille","lat":43.28597,"lon":5.39534,"is_reserved":false,"is_disabled":false,"rental_uris":{"android":"levelo://app?vid=d042a4ac-fa6a-4fb7-8943-8517d7a80d93","ios":"levelo://app?vid=d042a4ac-fa6a-4fb7-8943-8517d7a80d93"},"vehicle_type_id":"4","last_reported":1750514918,"current_range_meters":11600,"station_id":"ce4bh292rcd13ifvqdg0","pricing_plan_id":"cebpf4jnsgd1na2vs0mg"},{"bike_id":"d40af265-11b5-43a6-9bb6-f910f57901ba","system_id":"levelo_inurba_marseille","lat":43.33033,"lon":5.38002,"is_reserved":false,"is_disabled":false,"rental_uris":{"android":"levelo://app?vid=d40af265-11b5-43a6-9bb6-f910f57901ba","ios":"levelo://app?vid=d40af265-11b5-43a6-9bb6-f910f57901ba"},"vehicle_type_id":"4","last_reported":1750514918,"current_range_meters":12000,"station_id":"","pricing_plan_id":"cebpf4jnsgd1na2vs0mg"},{"bike_id":"c8989e78-cb69-4bb0-a9ae-e06ed09c5f37","system_id":"levelo_inurba_marseille","lat":43.2862,"lon":5.35112,"is_reserved":false,"is_disabled":false,"rental_uris":{"android":"levelo://app?vid=c8989e78-cb69-4bb0-a9ae-e06ed09c5f37","ios":"levelo://app?vid=c8989e78-cb69-4bb0-a9ae-e06ed09c5f37"},"vehicle_type_id":"4","last_reported":1750514918,"current_range_meters":12000,"station_id":"ce4bhch2rcd13ifvqeug","pricing_plan_id":"cebpf4jnsgd1na2vs0mg"},{"bike_id":"caeb807f-02b5-43d7-be05-045c5ae013f7","system_id":"levelo_inurba_marseille","lat":43.2707,"lon":5.4028,"is_reserved":false,"is_disabled":false,"rental_uris":{"android":"levelo://app?vid=caeb807f-02b5-43d7-be05-045c5ae013f7","ios":"levelo://app?vid=caeb807f-02b5-43d7-be05-045c5ae013f7"},"vehicle_type_id":"4","last_reported":1750514918,"current_range_meters":12000,"station_id":"ce4bhk92rcd13ifvqgc0","pricing_plan_id":"cebpf4jnsgd1na2vs0mg"},{"bike_id":"027af9f3-a9ff-452e-acc1-f9b0e366f5f3","system_id":"levelo_inurba_marseille","lat":43.25726,"lon":5.41108,"is_reserved":false,"is_disabled":false,"rental_uris":{"android":"levelo://app?vid=027af9f3-a9ff-452e-acc1-f9b0e366f5f3","ios":"levelo://app?vid=027af9f3-a9ff-452e-acc1-f9b0e366f5f3"},"vehicle_type_id":"4","last_reported":1750514918,"current_range_meters":12000,"station_id":"ce4bhkp2rcd13ifvqgd0","pricing_plan_id":"cebpf4jnsgd1na2vs0mg"},{"bike_id":"4643bc90-1bac-4c4b-98b1-e2d500830573","system_id":"levelo_inurba_marseille","lat":43.31385,"lon":5.37633,"is_reserved":false,"is_disabled":false,"rental_uris":{"android":"levelo://app?vid=4643bc90-1bac-4c4b-98b1-e2d500830573","ios":"levelo://app?vid=4643bc90-1bac-4c4b-98b1-e2d500830573"},"vehicle_type_id":"4","last_reported":1750514918,"current_range_meters":12400,"station_id":"","pricing_plan_id":"cebpf4jnsgd1na2vs0mg"},{"bike_id":"5a01d9de-111c-4333-b57e-c22fa2ce6226","system_id":"levelo_inurba_marseille","lat":43.29964,"lon":5.38504,"is_reserved":false,"is_disabled":false,"rental_uris":{"android":"levelo://app?vid=5a01d9de-111c-4333-b57e-c22fa2ce6226","ios":"levelo://app?vid=5a01d9de-111c-4333-b57e-c22fa2ce6226"},"vehicle_type_id":"4","last_reported":1750514918,"current_range_meters":12400,"station_id":"ce4bgj92rcd13ifvqbd0","pricing_plan_id":"cebpf4jnsgd1na2vs0mg"},{"bike_id":"5728493f-68ba-470f-9c20-82b3e6418109","system_id":"levelo_inurba_marseille","lat":43.30287,"lon":5.37724,"is_reserved":false,"is_disabled":false,"rental_uris":{"android":"levelo://app?vid=5728493f-68ba-470f-9c20-82b3e6418109","ios":"levelo://app?vid=5728493f-68ba-470f-9c20-82b3e6418109"},"vehicle_type_id":"4","last_reported":1750514918,"current_range_meters":12400,"station_id":"ce4bguh2rcd13ifvqcj0","pricing_plan_id":"cebpf4jnsgd1na2vs0mg"},{"bike_id":"d60fba8d-efcd-4013-9e00-700f25f4ea12","system_id":"levelo_inurba_marseille","lat":43.31272,"lon":5.40168,"is_reserved":false,"is_disabled":false,"rental_uris":{"android":"levelo://app?vid=d60fba8d-efcd-4013-9e00-700f25f4ea12","ios":"levelo://app?vid=d60fba8d-efcd-4013-9e00-700f25f4ea12"},"vehicle_type_id":"4","last_reported":1750514918,"current_range_meters":12400,"station_id":"ce4bh092rcd13ifvqd30","pricing_plan_id":"cebpf4jnsgd1na2vs0mg"},{"bike_id":"b441ba3a-8e20-47ae-b80a-2d5a8495afcb","system_id":"levelo_inurba_marseille","lat":43.29518,"lon":5.39026,"is_reserved":false,"is_disabled":false,"rental_uris":{"android":"levelo://app?vid=b441ba3a-8e20-47ae-b80a-2d5a8495afcb","ios":"levelo://app?vid=b441ba3a-8e20-47ae-b80a-2d5a8495afcb"},"vehicle_type_id":"4","last_reported":1750514918,"current_range_meters":12400,"station_id":"ce4bh3p2rcd13ifvqdp0","pricing_plan_id":"cebpf4jnsgd1na2vs0mg"},{"bike_id":"bf93a642-8c90-4273-bcb8-2cec90750028","system_id":"levelo_inurba_marseille","lat":43.29271,"lon":5.38438,"is_reserved":false,"is_disabled":false,"rental_uris":{"android":"levelo://app?vid=bf93a642-8c90-4273-bcb8-2cec90750028","ios":"levelo://app?vid=bf93a642-8c90-4273-bcb8-2cec90750028"},"vehicle_type_id":"4","last_reported":1750514918,"current_range_meters":12400,"station_id":"ce4bh692rcd13ifvqea0","pricing_plan_id":"cebpf4jnsgd1na2vs0mg"},{"bike_id":"bf47e894-6e12-49e5-8375-f8f0ec5d2a2c","system_id":"levelo_inurba_marseille","lat":43.28039,"lon":5.36948,"is_reserved":false,"is_disabled":false,"rental_uris":{"android":"levelo://app?vid=bf47e894-6e12-49e5-8375-f8f0ec5d2a2c","ios":"levelo://app?vid=bf47e894-6e12-49e5-8375-f8f0ec5d2a2c"},"vehicle_type_id":"4","last_reported":1750514918,"current_range_meters":12400,"station_id":"ce4bha12rcd13ifvqef0","pricing_plan_id":"cebpf4jnsgd1na2vs0mg"},{"bike_id":"a652e2e5-3801-4215-a1af-db4e459723c6","system_id":"levelo_inurba_marseille","lat":43.27373,"lon":5.36256,"is_reserved":false,"is_disabled":false,"rental_uris":{"android":"levelo://app?vid=a652e2e5-3801-4215-a1af-db4e459723c6","ios":"levelo://app?vid=a652e2e5-3801-4215-a1af-db4e459723c6"},"vehicle_type_id":"4","last_reported":1750514918,"current_range_meters":12400,"station_id":"ce4bhbh2rcd13ifvqeo0","pricing_plan_id":"cebpf4jnsgd1na2vs0mg"},{"bike_id":"119a023f-42ec-4111-8112-532288e80ef3","system_id":"levelo_inurba_marseille","lat":43.26207,"lon":5.37461,"is_reserved":false,"is_disabled":false,"rental_uris":{"android":"levelo://app?vid=119a023f-42ec-4111-8112-532288e80ef3","ios":"levelo://app?vid=119a023f-42ec-4111-8112-532288e80ef3"},"vehicle_type_id":"4","last_reported":1750514918,"current_range_meters":12400,"station_id":"ce4bhgp2rcd13ifvqfc0","pricing_plan_id":"cebpf4jnsgd1na2vs0mg"},{"bike_id":"707865ed-dc12-417f-89f3-c46ea2eb348a","system_id":"levelo_inurba_marseille","lat":43.261937,"lon":5.374483,"is_reserved":false,"is_disabled":false,"rental_uris":{"android":"levelo://app?vid=707865ed-dc12-417f-89f3-c46ea2eb348a","ios":"levelo://app?vid=707865ed-dc12-417f-89f3-c46ea2eb348a"},"vehicle_type_id":"4","last_reported":1750514918,"current_range_meters":12400,"station_id":"ce4bhgp2rcd13ifvqfc0","pricing_plan_id":"cebpf4jnsgd1na2vs0mg"},{"bike_id":"d40dd85b-a7b6-438e-8ed8-cd4c0d9cf9e1","system_id":"levelo_inurba_marseille","lat":43.27998,"lon":5.40019,"is_reserved":false,"is_disabled":false,"rental_uris":{"android":"levelo://app?vid=d40dd85b-a7b6-438e-8ed8-cd4c0d9cf9e1","ios":"levelo://app?vid=d40dd85b-a7b6-438e-8ed8-cd4c0d9cf9e1"},"vehicle_type_id":"4","last_reported":1750514918,"current_range_meters":12400,"station_id":"ce4bho92rcd13ifvqh4g","pricing_plan_id":"cebpf4jnsgd1na2vs0mg"},{"bike_id":"eeef9969-f53e-4ed7-9f96-c096ad30132b","system_id":"levelo_inurba_marseille","lat":43.23201,"lon":5.35549,"is_reserved":false,"is_disabled":false,"rental_uris":{"android":"levelo://app?vid=eeef9969-f53e-4ed7-9f96-c096ad30132b","ios":"levelo://app?vid=eeef9969-f53e-4ed7-9f96-c096ad30132b"},"vehicle_type_id":"4","last_reported":1750514918,"current_range_meters":12400,"station_id":"ce4bhu92rcd13ifvqi70","pricing_plan_id":"cebpf4jnsgd1na2vs0mg"},{"bike_id":"a22aa312-0025-4f42-88e2-b1e95e79340f","system_id":"levelo_inurba_marseille","lat":43.31631,"lon":5.38352,"is_reserved":false,"is_disabled":false,"rental_uris":{"android":"levelo://app?vid=a22aa312-0025-4f42-88e2-b1e95e79340f","ios":"levelo://app?vid=a22aa312-0025-4f42-88e2-b1e95e79340f"},"vehicle_type_id":"4","last_reported":1750514918,"current_range_meters":12800,"station_id":"","pricing_plan_id":"cebpf4jnsgd1na2vs0mg"},{"bike_id":"79cc8d8d-e29f-4ca4-91b9-9a67284bd5f0","system_id":"levelo_inurba_marseille","lat":43.296906,"lon":5.366665,"is_reserved":false,"is_disabled":false,"rental_uris":{"android":"levelo://app?vid=79cc8d8d-e29f-4ca4-91b9-9a67284bd5f0","ios":"levelo://app?vid=79cc8d8d-e29f-4ca4-91b9-9a67284bd5f0"},"vehicle_type_id":"4","last_reported":1750514918,"current_range_meters":12800,"station_id":"ce4bgn12rcd13ifvqbt0","pricing_plan_id":"cebpf4jnsgd1na2vs0mg"},{"bike_id":"1d3f4a8c-e7ae-43d9-bde7-a8b9b2e230a1","system_id":"levelo_inurba_marseille","lat":43.31493,"lon":5.37308,"is_reserved":false,"is_disabled":false,"rental_uris":{"android":"levelo://app?vid=1d3f4a8c-e7ae-43d9-bde7-a8b9b2e230a1","ios":"levelo://app?vid=1d3f4a8c-e7ae-43d9-bde7-a8b9b2e230a1"},"vehicle_type_id":"4","last_reported":1750514918,"current_range_meters":12800,"station_id":"ce4bgt12rcd13ifvqcd0","pricing_plan_id":"cebpf4jnsgd1na2vs0mg"},{"bike_id":"07bf6f54-c822-49c8-9fef-344d5922155b","system_id":"levelo_inurba_marseille","lat":43.304657,"lon":5.379133,"is_reserved":false,"is_disabled":false,"rental_uris":{"android":"levelo://app?vid=07bf6f54-c822-49c8-9fef-344d5922155b","ios":"levelo://app?vid=07bf6f54-c822-49c8-9fef-344d5922155b"},"vehicle_type_id":"4","last_reported":1750514918,"current_range_meters":12800,"station_id":"ce4bgup2rcd13ifvqcn0","pricing_plan_id":"cebpf4jnsgd1na2vs0mg"},{"bike_id":"d85d8e8d-9579-4435-9046-40938d4f76a2","system_id":"levelo_inurba_marseille","lat":43.308838,"lon":5.396571,"is_reserved":false,"is_disabled":false,"rental_uris":{"android":"levelo://app?vid=d85d8e8d-9579-4435-9046-40938d4f76a2","ios":"levelo://app?vid=d85d8e8d-9579-4435-9046-40938d4f76a2"},"vehicle_type_id":"4","last_reported":1750514918,"current_range_meters":12800,"station_id":"ce4bh012rcd13ifvqcv0","pricing_plan_id":"cebpf4jnsgd1na2vs0mg"},{"bike_id":"247b80b7-10fe-40f5-848b-d8ff192ca5b8","system_id":"levelo_inurba_marseille","lat":43.280285,"lon":5.369475,"is_reserved":false,"is_disabled":false,"rental_uris":{"android":"levelo://app?vid=247b80b7-10fe-40f5-848b-d8ff192ca5b8","ios":"levelo://app?vid=247b80b7-10fe-40f5-848b-d8ff192ca5b8"},"vehicle_type_id":"4","last_reported":1750514918,"current_range_meters":12800,"station_id":"ce4bha12rcd13ifvqef0","pricing_plan_id":"cebpf4jnsgd1na2vs0mg"},{"bike_id":"e23a109e-c8cf-4bc0-97ba-18d5254b2b7c","system_id":"levelo_inurba_marseille","lat":43.27373,"lon":5.36256,"is_reserved":false,"is_disabled":false,"rental_uris":{"android":"levelo://app?vid=e23a109e-c8cf-4bc0-97ba-18d5254b2b7c","ios":"levelo://app?vid=e23a109e-c8cf-4bc0-97ba-18d5254b2b7c"},"vehicle_type_id":"4","last_reported":1750514918,"current_range_meters":12800,"station_id":"ce4bhbh2rcd13ifvqeo0","pricing_plan_id":"cebpf4jnsgd1na2vs0mg"},{"bike_id":"97375870-d454-48f8-b3d9-993018e311d0","system_id":"levelo_inurba_marseille","lat":43.27377,"lon":5.36275,"is_reserved":false,"is_disabled":false,"rental_uris":{"android":"levelo://app?vid=97375870-d454-48f8-b3d9-993018e311d0","ios":"levelo://app?vid=97375870-d454-48f8-b3d9-993018e311d0"},"vehicle_type_id":"4","last_reported":1750514918,"current_range_meters":13600,"station_id":"ce4bhbh2rcd13ifvqeo0","pricing_plan_id":"cebpf4jnsgd1na2vs0mg"},{"bike_id":"c0447421-8ca1-4a86-895c-87c86dfcb0db","system_id":"levelo_inurba_marseille","lat":43.24662,"lon":5.38167,"is_reserved":false,"is_disabled":false,"rental_uris":{"android":"levelo://app?vid=c0447421-8ca1-4a86-895c-87c86dfcb0db","ios":"levelo://app?vid=c0447421-8ca1-4a86-895c-87c86dfcb0db"},"vehicle_type_id":"4","last_reported":1750514918,"current_range_meters":13600,"station_id":"ce4bhih2rcd13ifvqfr0","pricing_plan_id":"cebpf4jnsgd1na2vs0mg"},{"bike_id":"88bf09e4-3a7d-4ae6-9054-21701bd604b0","system_id":"levelo_inurba_marseille","lat":43.26941,"lon":5.40253,"is_reserved":false,"is_disabled":false,"rental_uris":{"android":"levelo://app?vid=88bf09e4-3a7d-4ae6-9054-21701bd604b0","ios":"levelo://app?vid=88bf09e4-3a7d-4ae6-9054-21701bd604b0"},"vehicle_type_id":"4","last_reported":1750514918,"current_range_meters":13600,"station_id":"cjm6bp8fraef2m0cb0m0","pricing_plan_id":"cebpf4jnsgd1na2vs0mg"},{"bike_id":"3e58649e-5c00-425c-8b29-6224f6474a33","system_id":"levelo_inurba_marseille","lat":43.24959,"lon":5.37513,"is_reserved":false,"is_disabled":false,"rental_uris":{"android":"levelo://app?vid=3e58649e-5c00-425c-8b29-6224f6474a33","ios":"levelo://app?vid=3e58649e-5c00-425c-8b29-6224f6474a33"},"vehicle_type_id":"4","last_reported":1750514918,"current_range_meters":14000,"station_id":"","pricing_plan_id":"cebpf4jnsgd1na2vs0mg"},{"bike_id":"bdb0cb32-2ed8-424e-b675-5cce1278ae53","system_id":"levelo_inurba_marseille","lat":43.29536,"lon":5.38551,"is_reserved":false,"is_disabled":false,"rental_uris":{"android":"levelo://app?vid=bdb0cb32-2ed8-424e-b675-5cce1278ae53","ios":"levelo://app?vid=bdb0cb32-2ed8-424e-b675-5cce1278ae53"},"vehicle_type_id":"4","last_reported":1750514918,"current_range_meters":14000,"station_id":"ce4bgih2rcd13ifvqba0","pricing_plan_id":"cebpf4jnsgd1na2vs0mg"},{"bike_id":"9332b8f9-e075-4c30-92ab-1f3c4eac6270","system_id":"levelo_inurba_marseille","lat":43.3093,"lon":5.4014,"is_reserved":false,"is_disabled":false,"rental_uris":{"android":"levelo://app?vid=9332b8f9-e075-4c30-92ab-1f3c4eac6270","ios":"levelo://app?vid=9332b8f9-e075-4c30-92ab-1f3c4eac6270"},"vehicle_type_id":"4","last_reported":1750514918,"current_range_meters":14000,"station_id":"ce4bgvp2rcd13ifvqct0","pricing_plan_id":"cebpf4jnsgd1na2vs0mg"},{"bike_id":"47b0e8ed-1505-41e8-9bb6-271f11e0cd62","system_id":"levelo_inurba_marseille","lat":43.28044,"lon":5.3695,"is_reserved":false,"is_disabled":false,"rental_uris":{"android":"levelo://app?vid=47b0e8ed-1505-41e8-9bb6-271f11e0cd62","ios":"levelo://app?vid=47b0e8ed-1505-41e8-9bb6-271f11e0cd62"},"vehicle_type_id":"4","last_reported":1750514918,"current_range_meters":14000,"station_id":"ce4bha12rcd13ifvqef0","pricing_plan_id":"cebpf4jnsgd1na2vs0mg"},{"bike_id":"ec758334-cc17-4d40-b7be-d2cb1cb6f9a7","system_id":"levelo_inurba_marseille","lat":43.27357,"lon":5.36249,"is_reserved":false,"is_disabled":false,"rental_uris":{"android":"levelo://app?vid=ec758334-cc17-4d40-b7be-d2cb1cb6f9a7","ios":"levelo://app?vid=ec758334-cc17-4d40-b7be-d2cb1cb6f9a7"},"vehicle_type_id":"4","last_reported":1750514918,"current_range_meters":14000,"station_id":"ce4bhbh2rcd13ifvqeo0","pricing_plan_id":"cebpf4jnsgd1na2vs0mg"},{"bike_id":"f9b1345d-4ee3-4daf-9089-439edca807ac","system_id":"levelo_inurba_marseille","lat":43.26228,"lon":5.40451,"is_reserved":false,"is_disabled":false,"rental_uris":{"android":"levelo://app?vid=f9b1345d-4ee3-4daf-9089-439edca807ac","ios":"levelo://app?vid=f9b1345d-4ee3-4daf-9089-439edca807ac"},"vehicle_type_id":"4","last_reported":1750514918,"current_range_meters":14000,"station_id":"ce4bhmh2rcd13ifvqgmg","pricing_plan_id":"cebpf4jnsgd1na2vs0mg"},{"bike_id":"ef119b9f-74f5-4323-bd7b-10725bc86e56","system_id":"levelo_inurba_marseille","lat":43.24174,"lon":5.36396,"is_reserved":false,"is_disabled":false,"rental_uris":{"android":"levelo://app?vid=ef119b9f-74f5-4323-bd7b-10725bc86e56","ios":"levelo://app?vid=ef119b9f-74f5-4323-bd7b-10725bc86e56"},"vehicle_type_id":"4","last_reported":1750514918,"current_range_meters":14000,"station_id":"cpo36qri1sfpv3e86is0","pricing_plan_id":"cebpf4jnsgd1na2vs0mg"},{"bike_id":"c3876aa1-dd68-43d0-b9db-a282101c86bb","system_id":"levelo_inurba_marseille","lat":43.2417,"lon":5.36397,"is_reserved":false,"is_disabled":false,"rental_uris":{"android":"levelo://app?vid=c3876aa1-dd68-43d0-b9db-a282101c86bb","ios":"levelo://app?vid=c3876aa1-dd68-43d0-b9db-a282101c86bb"},"vehicle_type_id":"4","last_reported":1750514918,"current_range_meters":14000,"station_id":"cpo36qri1sfpv3e86is0","pricing_plan_id":"cebpf4jnsgd1na2vs0mg"},{"bike_id":"e24ca17e-1ea7-4942-b38f-fcd13a458761","system_id":"levelo_inurba_marseille","lat":43.28422,"lon":5.34983,"is_reserved":false,"is_disabled":false,"rental_uris":{"android":"levelo://app?vid=e24ca17e-1ea7-4942-b38f-fcd13a458761","ios":"levelo://app?vid=e24ca17e-1ea7-4942-b38f-fcd13a458761"},"vehicle_type_id":"4","last_reported":1750514918,"current_range_meters":14400,"station_id":"","pricing_plan_id":"cebpf4jnsgd1na2vs0mg"},{"bike_id":"2da61fa8-d81a-4145-848a-fb66e3371c57","system_id":"levelo_inurba_marseille","lat":43.29794,"lon":5.38113,"is_reserved":false,"is_disabled":false,"rental_uris":{"android":"levelo://app?vid=2da61fa8-d81a-4145-848a-fb66e3371c57","ios":"levelo://app?vid=2da61fa8-d81a-4145-848a-fb66e3371c57"},"vehicle_type_id":"4","last_reported":1750514918,"current_range_meters":14400,"station_id":"ce4bgip2rcd13ifvqbb0","pricing_plan_id":"cebpf4jnsgd1na2vs0mg"},{"bike_id":"28a4bf82-307c-4ee8-93b3-56b47921be98","system_id":"levelo_inurba_marseille","lat":43.29924,"lon":5.37457,"is_reserved":false,"is_disabled":false,"rental_uris":{"android":"levelo://app?vid=28a4bf82-307c-4ee8-93b3-56b47921be98","ios":"levelo://app?vid=28a4bf82-307c-4ee8-93b3-56b47921be98"},"vehicle_type_id":"4","last_reported":1750514918,"current_range_meters":14400,"station_id":"ce4bgjh2rcd13ifvqbg0","pricing_plan_id":"cebpf4jnsgd1na2vs0mg"},{"bike_id":"9d8cea9e-5dc3-4979-89db-1e9a7449f475","system_id":"levelo_inurba_marseille","lat":43.23159,"lon":5.43734,"is_reserved":false,"is_disabled":false,"rental_uris":{"android":"levelo://app?vid=9d8cea9e-5dc3-4979-89db-1e9a7449f475","ios":"levelo://app?vid=9d8cea9e-5dc3-4979-89db-1e9a7449f475"},"vehicle_type_id":"4","last_reported":1750514918,"current_range_meters":14400,"station_id":"ce4bhmp2rcd13ifvqgog","pricing_plan_id":"cebpf4jnsgd1na2vs0mg"},{"bike_id":"14e5a118-9329-49b0-9f0b-29d4986d8e88","system_id":"levelo_inurba_marseille","lat":43.32371,"lon":5.36749,"is_reserved":false,"is_disabled":false,"rental_uris":{"android":"levelo://app?vid=14e5a118-9329-49b0-9f0b-29d4986d8e88","ios":"levelo://app?vid=14e5a118-9329-49b0-9f0b-29d4986d8e88"},"vehicle_type_id":"4","last_reported":1750514918,"current_range_meters":14400,"station_id":"ce4bhsh2rcd13ifvqi2g","pricing_plan_id":"cebpf4jnsgd1na2vs0mg"},{"bike_id":"b935579a-e9d3-4ccf-a111-a22b8dbf997d","system_id":"levelo_inurba_marseille","lat":43.211943,"lon":5.350736,"is_reserved":false,"is_disabled":false,"rental_uris":{"android":"levelo://app?vid=b935579a-e9d3-4ccf-a111-a22b8dbf997d","ios":"levelo://app?vid=b935579a-e9d3-4ccf-a111-a22b8dbf997d"},"vehicle_type_id":"4","last_reported":1750514918,"current_range_meters":14800,"station_id":"","pricing_plan_id":"cebpf4jnsgd1na2vs0mg"},{"bike_id":"f38ef57e-11f9-4cb1-9db4-9576a7eb665f","system_id":"levelo_inurba_marseille","lat":43.30277,"lon":5.37694,"is_reserved":false,"is_disabled":false,"rental_uris":{"android":"levelo://app?vid=f38ef57e-11f9-4cb1-9db4-9576a7eb665f","ios":"levelo://app?vid=f38ef57e-11f9-4cb1-9db4-9576a7eb665f"},"vehicle_type_id":"4","last_reported":1750514918,"current_range_meters":14800,"station_id":"ce4bguh2rcd13ifvqcj0","pricing_plan_id":"cebpf4jnsgd1na2vs0mg"},{"bike_id":"e86c0d22-2e19-4aa5-98cb-31836f03cb2e","system_id":"levelo_inurba_marseille","lat":43.289316,"lon":5.366398,"is_reserved":false,"is_disabled":false,"rental_uris":{"android":"levelo://app?vid=e86c0d22-2e19-4aa5-98cb-31836f03cb2e","ios":"levelo://app?vid=e86c0d22-2e19-4aa5-98cb-31836f03cb2e"},"vehicle_type_id":"4","last_reported":1750514918,"current_range_meters":14800,"station_id":"ce4bhap2rcd13ifvqek0","pricing_plan_id":"cebpf4jnsgd1na2vs0mg"},{"bike_id":"77786128-ddd2-4b7f-93e0-a37100fbfd5f","system_id":"levelo_inurba_marseille","lat":43.24828,"lon":5.37464,"is_reserved":false,"is_disabled":false,"rental_uris":{"android":"levelo://app?vid=77786128-ddd2-4b7f-93e0-a37100fbfd5f","ios":"levelo://app?vid=77786128-ddd2-4b7f-93e0-a37100fbfd5f"},"vehicle_type_id":"4","last_reported":1750514918,"current_range_meters":14800,"station_id":"ce4bhgh2rcd13ifvqfb0","pricing_plan_id":"cebpf4jnsgd1na2vs0mg"},{"bike_id":"baa2dd37-e48c-4250-8e62-f78ff9ceea7a","system_id":"levelo_inurba_marseille","lat":43.25019,"lon":5.38904,"is_reserved":false,"is_disabled":false,"rental_uris":{"android":"levelo://app?vid=baa2dd37-e48c-4250-8e62-f78ff9ceea7a","ios":"levelo://app?vid=baa2dd37-e48c-4250-8e62-f78ff9ceea7a"},"vehicle_type_id":"4","last_reported":1750514918,"current_range_meters":14800,"station_id":"ce4bhgp2rcd13ifvqfd0","pricing_plan_id":"cebpf4jnsgd1na2vs0mg"},{"bike_id":"0d709c2e-2e16-48a3-aefa-743d14460132","system_id":"levelo_inurba_marseille","lat":43.35451,"lon":5.33336,"is_reserved":false,"is_disabled":false,"rental_uris":{"android":"levelo://app?vid=0d709c2e-2e16-48a3-aefa-743d14460132","ios":"levelo://app?vid=0d709c2e-2e16-48a3-aefa-743d14460132"},"vehicle_type_id":"4","last_reported":1750514918,"current_range_meters":15200,"station_id":"","pricing_plan_id":"cebpf4jnsgd1na2vs0mg"},{"bike_id":"8645c86b-eb30-453f-8eb7-b39a32e0562c","system_id":"levelo_inurba_marseille","lat":43.30468,"lon":5.37909,"is_reserved":false,"is_disabled":false,"rental_uris":{"android":"levelo://app?vid=8645c86b-eb30-453f-8eb7-b39a32e0562c","ios":"levelo://app?vid=8645c86b-eb30-453f-8eb7-b39a32e0562c"},"vehicle_type_id":"4","last_reported":1750514918,"current_range_meters":15200,"station_id":"ce4bgup2rcd13ifvqcn0","pricing_plan_id":"cebpf4jnsgd1na2vs0mg"},{"bike_id":"138e36bb-aca2-4604-9e15-ae015bf802b5","system_id":"levelo_inurba_marseille","lat":43.31327,"lon":5.39691,"is_reserved":false,"is_disabled":false,"rental_uris":{"android":"levelo://app?vid=138e36bb-aca2-4604-9e15-ae015bf802b5","ios":"levelo://app?vid=138e36bb-aca2-4604-9e15-ae015bf802b5"},"vehicle_type_id":"4","last_reported":1750514918,"current_range_meters":15200,"station_id":"ce4bgvp2rcd13ifvqcu0","pricing_plan_id":"cebpf4jnsgd1na2vs0mg"},{"bike_id":"f7332243-06cd-4124-a46a-d91fdb3362e2","system_id":"levelo_inurba_marseille","lat":43.28033,"lon":5.36948,"is_reserved":false,"is_disabled":false,"rental_uris":{"android":"levelo://app?vid=f7332243-06cd-4124-a46a-d91fdb3362e2","ios":"levelo://app?vid=f7332243-06cd-4124-a46a-d91fdb3362e2"},"vehicle_type_id":"4","last_reported":1750514918,"current_range_meters":15200,"station_id":"ce4bha12rcd13ifvqef0","pricing_plan_id":"cebpf4jnsgd1na2vs0mg"},{"bike_id":"8b499c04-8dde-4c05-8dcf-01ce074f9af5","system_id":"levelo_inurba_marseille","lat":43.261923,"lon":5.374615,"is_reserved":false,"is_disabled":false,"rental_uris":{"android":"levelo://app?vid=8b499c04-8dde-4c05-8dcf-01ce074f9af5","ios":"levelo://app?vid=8b499c04-8dde-4c05-8dcf-01ce074f9af5"},"vehicle_type_id":"4","last_reported":1750514918,"current_range_meters":15200,"station_id":"ce4bhgp2rcd13ifvqfc0","pricing_plan_id":"cebpf4jnsgd1na2vs0mg"},{"bike_id":"db420bab-27cd-471a-9c76-32e77b8a1980","system_id":"levelo_inurba_marseille","lat":43.26213,"lon":5.37441,"is_reserved":false,"is_disabled":false,"rental_uris":{"android":"levelo://app?vid=db420bab-27cd-471a-9c76-32e77b8a1980","ios":"levelo://app?vid=db420bab-27cd-471a-9c76-32e77b8a1980"},"vehicle_type_id":"4","last_reported":1750514918,"current_range_meters":15200,"station_id":"ce4bhgp2rcd13ifvqfc0","pricing_plan_id":"cebpf4jnsgd1na2vs0mg"},{"bike_id":"db76ccd8-7907-4d3d-8ebd-ea0cdadbca52","system_id":"levelo_inurba_marseille","lat":43.27302,"lon":5.39151,"is_reserved":false,"is_disabled":false,"rental_uris":{"android":"levelo://app?vid=db76ccd8-7907-4d3d-8ebd-ea0cdadbca52","ios":"levelo://app?vid=db76ccd8-7907-4d3d-8ebd-ea0cdadbca52"},"vehicle_type_id":"4","last_reported":1750514918,"current_range_meters":16000,"station_id":"","pricing_plan_id":"cebpf4jnsgd1na2vs0mg"},{"bike_id":"1fbc0fef-8f0f-43d6-9e64-d7e4bd812fa1","system_id":"levelo_inurba_marseille","lat":43.27614,"lon":5.36086,"is_reserved":false,"is_disabled":false,"rental_uris":{"android":"levelo://app?vid=1fbc0fef-8f0f-43d6-9e64-d7e4bd812fa1","ios":"levelo://app?vid=1fbc0fef-8f0f-43d6-9e64-d7e4bd812fa1"},"vehicle_type_id":"4","last_reported":1750514918,"current_range_meters":16000,"station_id":"ce4bgj92rcd13ifvqbe0","pricing_plan_id":"cebpf4jnsgd1na2vs0mg"},{"bike_id":"abeef298-4406-4f54-ab5b-4c2d52650c0d","system_id":"levelo_inurba_marseille","lat":43.30933,"lon":5.40143,"is_reserved":false,"is_disabled":false,"rental_uris":{"android":"levelo://app?vid=abeef298-4406-4f54-ab5b-4c2d52650c0d","ios":"levelo://app?vid=abeef298-4406-4f54-ab5b-4c2d52650c0d"},"vehicle_type_id":"4","last_reported":1750514918,"current_range_meters":16000,"station_id":"ce4bgvp2rcd13ifvqct0","pricing_plan_id":"cebpf4jnsgd1na2vs0mg"},{"bike_id":"372b9032-4944-465c-a981-dcb3fb800a04","system_id":"levelo_inurba_marseille","lat":43.2892,"lon":5.38392,"is_reserved":false,"is_disabled":false,"rental_uris":{"android":"levelo://app?vid=372b9032-4944-465c-a981-dcb3fb800a04","ios":"levelo://app?vid=372b9032-4944-465c-a981-dcb3fb800a04"},"vehicle_type_id":"4","last_reported":1750514918,"current_range_meters":16000,"station_id":"ce4bh612rcd13ifvqe6g","pricing_plan_id":"cebpf4jnsgd1na2vs0mg"},{"bike_id":"e14b58f0-232a-4ce0-8eab-2ae42de935ff","system_id":"levelo_inurba_marseille","lat":43.26191,"lon":5.37451,"is_reserved":false,"is_disabled":false,"rental_uris":{"android":"levelo://app?vid=e14b58f0-232a-4ce0-8eab-2ae42de935ff","ios":"levelo://app?vid=e14b58f0-232a-4ce0-8eab-2ae42de935ff"},"vehicle_type_id":"4","last_reported":1750514918,"current_range_meters":16000,"station_id":"ce4bhgp2rcd13ifvqfc0","pricing_plan_id":"cebpf4jnsgd1na2vs0mg"},{"bike_id":"f88f66c2-a73e-4c0b-90f9-8ebddb3e3b73","system_id":"levelo_inurba_marseille","lat":43.26198,"lon":5.37457,"is_reserved":false,"is_disabled":false,"rental_uris":{"android":"levelo://app?vid=f88f66c2-a73e-4c0b-90f9-8ebddb3e3b73","ios":"levelo://app?vid=f88f66c2-a73e-4c0b-90f9-8ebddb3e3b73"},"vehicle_type_id":"4","last_reported":1750514918,"current_range_meters":16000,"station_id":"ce4bhgp2rcd13ifvqfc0","pricing_plan_id":"cebpf4jnsgd1na2vs0mg"},{"bike_id":"32ce7720-880c-469d-8048-027c8631c176","system_id":"levelo_inurba_marseille","lat":43.255008,"lon":5.376476,"is_reserved":false,"is_disabled":false,"rental_uris":{"android":"levelo://app?vid=32ce7720-880c-469d-8048-027c8631c176","ios":"levelo://app?vid=32ce7720-880c-469d-8048-027c8631c176"},"vehicle_type_id":"4","last_reported":1750514918,"current_range_meters":16000,"station_id":"ce4bhh12rcd13ifvqff0","pricing_plan_id":"cebpf4jnsgd1na2vs0mg"},{"bike_id":"5d50dcc4-dee7-47fa-9f68-fa3ac796a367","system_id":"levelo_inurba_marseille","lat":43.22509,"lon":5.34778,"is_reserved":false,"is_disabled":false,"rental_uris":{"android":"levelo://app?vid=5d50dcc4-dee7-47fa-9f68-fa3ac796a367","ios":"levelo://app?vid=5d50dcc4-dee7-47fa-9f68-fa3ac796a367"},"vehicle_type_id":"4","last_reported":1750514918,"current_range_meters":16000,"station_id":"st_cvj5dfep6f1abm77gieg","pricing_plan_id":"cebpf4jnsgd1na2vs0mg"},{"bike_id":"b4b9f165-9b30-462c-875b-bb8dde06fcb2","system_id":"levelo_inurba_marseille","lat":43.21735,"lon":5.34607,"is_reserved":false,"is_disabled":false,"rental_uris":{"android":"levelo://app?vid=b4b9f165-9b30-462c-875b-bb8dde06fcb2","ios":"levelo://app?vid=b4b9f165-9b30-462c-875b-bb8dde06fcb2"},"vehicle_type_id":"4","last_reported":1750514918,"current_range_meters":16000,"station_id":"st_cvj6r9ubvosntc0bgbag","pricing_plan_id":"cebpf4jnsgd1na2vs0mg"},{"bike_id":"5a444312-ea58-41ad-8601-9a326005dcb0","system_id":"levelo_inurba_marseille","lat":43.21751,"lon":5.346,"is_reserved":false,"is_disabled":false,"rental_uris":{"android":"levelo://app?vid=5a444312-ea58-41ad-8601-9a326005dcb0","ios":"levelo://app?vid=5a444312-ea58-41ad-8601-9a326005dcb0"},"vehicle_type_id":"4","last_reported":1750514918,"current_range_meters":16000,"station_id":"st_cvj6r9ubvosntc0bgbag","pricing_plan_id":"cebpf4jnsgd1na2vs0mg"},{"bike_id":"38b4578b-d322-4ae7-86ef-2a7e9839b4fd","system_id":"levelo_inurba_marseille","lat":43.21177,"lon":5.35085,"is_reserved":false,"is_disabled":false,"rental_uris":{"android":"levelo://app?vid=38b4578b-d322-4ae7-86ef-2a7e9839b4fd","ios":"levelo://app?vid=38b4578b-d322-4ae7-86ef-2a7e9839b4fd"},"vehicle_type_id":"4","last_reported":1750514918,"current_range_meters":16000,"station_id":"st_cvj6sg6p6f1abm77japg","pricing_plan_id":"cebpf4jnsgd1na2vs0mg"},{"bike_id":"6a4b59b0-64b7-4950-ae73-2324ba55dcce","system_id":"levelo_inurba_marseille","lat":43.330198,"lon":5.381522,"is_reserved":false,"is_disabled":false,"rental_uris":{"android":"levelo://app?vid=6a4b59b0-64b7-4950-ae73-2324ba55dcce","ios":"levelo://app?vid=6a4b59b0-64b7-4950-ae73-2324ba55dcce"},"vehicle_type_id":"4","last_reported":1750514918,"current_range_meters":16400,"station_id":"","pricing_plan_id":"cebpf4jnsgd1na2vs0mg"},{"bike_id":"49b0e5c0-3408-4c7d-854b-13d83b70a065","system_id":"levelo_inurba_marseille","lat":43.30223,"lon":5.39469,"is_reserved":false,"is_disabled":false,"rental_uris":{"android":"levelo://app?vid=49b0e5c0-3408-4c7d-854b-13d83b70a065","ios":"levelo://app?vid=49b0e5c0-3408-4c7d-854b-13d83b70a065"},"vehicle_type_id":"4","last_reported":1750514918,"current_range_meters":16400,"station_id":"ce4bh0p2rcd13ifvqd70","pricing_plan_id":"cebpf4jnsgd1na2vs0mg"},{"bike_id":"6161e164-0b64-4278-9807-36680058d80a","system_id":"levelo_inurba_marseille","lat":43.30207,"lon":5.3947,"is_reserved":false,"is_disabled":false,"rental_uris":{"android":"levelo://app?vid=6161e164-0b64-4278-9807-36680058d80a","ios":"levelo://app?vid=6161e164-0b64-4278-9807-36680058d80a"},"vehicle_type_id":"4","last_reported":1750514918,"current_range_meters":16400,"station_id":"ce4bh0p2rcd13ifvqd70","pricing_plan_id":"cebpf4jnsgd1na2vs0mg"},{"bike_id":"2dafd505-42c8-4a7d-8e16-892b7a858a49","system_id":"levelo_inurba_marseille","lat":43.28856,"lon":5.39325,"is_reserved":false,"is_disabled":false,"rental_uris":{"android":"levelo://app?vid=2dafd505-42c8-4a7d-8e16-892b7a858a49","ios":"levelo://app?vid=2dafd505-42c8-4a7d-8e16-892b7a858a49"},"vehicle_type_id":"4","last_reported":1750514918,"current_range_meters":16400,"station_id":"ce4bh2p2rcd13ifvqdi0","pricing_plan_id":"cebpf4jnsgd1na2vs0mg"},{"bike_id":"a5a387ef-82d3-4953-b1bb-cf86aafffc28","system_id":"levelo_inurba_marseille","lat":43.28614,"lon":5.35105,"is_reserved":false,"is_disabled":false,"rental_uris":{"android":"levelo://app?vid=a5a387ef-82d3-4953-b1bb-cf86aafffc28","ios":"levelo://app?vid=a5a387ef-82d3-4953-b1bb-cf86aafffc28"},"vehicle_type_id":"4","last_reported":1750514918,"current_range_meters":16400,"station_id":"ce4bhch2rcd13ifvqeug","pricing_plan_id":"cebpf4jnsgd1na2vs0mg"},{"bike_id":"d580f51c-9c0b-4360-af03-44d51cbc1727","system_id":"levelo_inurba_marseille","lat":43.2439,"lon":5.37078,"is_reserved":false,"is_disabled":false,"rental_uris":{"android":"levelo://app?vid=d580f51c-9c0b-4360-af03-44d51cbc1727","ios":"levelo://app?vid=d580f51c-9c0b-4360-af03-44d51cbc1727"},"vehicle_type_id":"4","last_reported":1750514918,"current_range_meters":16400,"station_id":"ce4bhhh2rcd13ifvqfk0","pricing_plan_id":"cebpf4jnsgd1na2vs0mg"},{"bike_id":"bf3c6c8e-cfd2-46e2-945d-bf5baf8ff86e","system_id":"levelo_inurba_marseille","lat":43.264592,"lon":5.395811,"is_reserved":false,"is_disabled":false,"rental_uris":{"android":"levelo://app?vid=bf3c6c8e-cfd2-46e2-945d-bf5baf8ff86e","ios":"levelo://app?vid=bf3c6c8e-cfd2-46e2-945d-bf5baf8ff86e"},"vehicle_type_id":"4","last_reported":1750514918,"current_range_meters":16400,"station_id":"ce4bhlh2rcd13ifvqgig","pricing_plan_id":"cebpf4jnsgd1na2vs0mg"},{"bike_id":"0c483017-d5e6-45c6-b121-108a4955fcc0","system_id":"levelo_inurba_marseille","lat":43.231785,"lon":5.39987,"is_reserved":false,"is_disabled":false,"rental_uris":{"android":"levelo://app?vid=0c483017-d5e6-45c6-b121-108a4955fcc0","ios":"levelo://app?vid=0c483017-d5e6-45c6-b121-108a4955fcc0"},"vehicle_type_id":"4","last_reported":1750514918,"current_range_meters":16400,"station_id":"ce4bhn12rcd13ifvqgqg","pricing_plan_id":"cebpf4jnsgd1na2vs0mg"},{"bike_id":"c704195b-d6e4-4094-a818-ff1ea068d72f","system_id":"levelo_inurba_marseille","lat":43.3042,"lon":5.41287,"is_reserved":false,"is_disabled":false,"rental_uris":{"android":"levelo://app?vid=c704195b-d6e4-4094-a818-ff1ea068d72f","ios":"levelo://app?vid=c704195b-d6e4-4094-a818-ff1ea068d72f"},"vehicle_type_id":"4","last_reported":1750514918,"current_range_meters":16400,"station_id":"ce4bhop2rcd13ifvqh8g","pricing_plan_id":"cebpf4jnsgd1na2vs0mg"},{"bike_id":"51924496-d375-43d1-9f3c-2086be022a83","system_id":"levelo_inurba_marseille","lat":43.25993,"lon":5.38702,"is_reserved":false,"is_disabled":false,"rental_uris":{"android":"levelo://app?vid=51924496-d375-43d1-9f3c-2086be022a83","ios":"levelo://app?vid=51924496-d375-43d1-9f3c-2086be022a83"},"vehicle_type_id":"4","last_reported":1750514918,"current_range_meters":16800,"station_id":"","pricing_plan_id":"cebpf4jnsgd1na2vs0mg"},{"bike_id":"8b878130-8255-4f3a-afed-2701f3c4f473","system_id":"levelo_inurba_marseille","lat":43.21761,"lon":5.34629,"is_reserved":false,"is_disabled":false,"rental_uris":{"android":"levelo://app?vid=8b878130-8255-4f3a-afed-2701f3c4f473","ios":"levelo://app?vid=8b878130-8255-4f3a-afed-2701f3c4f473"},"vehicle_type_id":"4","last_reported":1750514918,"current_range_meters":16800,"station_id":"","pricing_plan_id":"cebpf4jnsgd1na2vs0mg"},{"bike_id":"f6069a5d-a2bc-44cc-bc6f-f26f79591d92","system_id":"levelo_inurba_marseille","lat":43.30773,"lon":5.37374,"is_reserved":false,"is_disabled":false,"rental_uris":{"android":"levelo://app?vid=f6069a5d-a2bc-44cc-bc6f-f26f79591d92","ios":"levelo://app?vid=f6069a5d-a2bc-44cc-bc6f-f26f79591d92"},"vehicle_type_id":"4","last_reported":1750514918,"current_range_meters":16800,"station_id":"","pricing_plan_id":"cebpf4jnsgd1na2vs0mg"},{"bike_id":"41b8da94-4253-4876-9c48-4e6835d4d50f","system_id":"levelo_inurba_marseille","lat":43.26565,"lon":5.37367,"is_reserved":false,"is_disabled":false,"rental_uris":{"android":"levelo://app?vid=41b8da94-4253-4876-9c48-4e6835d4d50f","ios":"levelo://app?vid=41b8da94-4253-4876-9c48-4e6835d4d50f"},"vehicle_type_id":"4","last_reported":1750514918,"current_range_meters":16800,"station_id":"ce4bhg12rcd13ifvqf70","pricing_plan_id":"cebpf4jnsgd1na2vs0mg"},{"bike_id":"9c1a509a-07fd-4db4-a432-a49c5321e572","system_id":"levelo_inurba_marseille","lat":43.2656,"lon":5.37298,"is_reserved":false,"is_disabled":false,"rental_uris":{"android":"levelo://app?vid=9c1a509a-07fd-4db4-a432-a49c5321e572","ios":"levelo://app?vid=9c1a509a-07fd-4db4-a432-a49c5321e572"},"vehicle_type_id":"4","last_reported":1750514918,"current_range_meters":16800,"station_id":"ce4bhg12rcd13ifvqf70","pricing_plan_id":"cebpf4jnsgd1na2vs0mg"},{"bike_id":"cf077cfc-8295-4c86-b208-4d8963e12e17","system_id":"levelo_inurba_marseille","lat":43.27071,"lon":5.42297,"is_reserved":false,"is_disabled":false,"rental_uris":{"android":"levelo://app?vid=cf077cfc-8295-4c86-b208-4d8963e12e17","ios":"levelo://app?vid=cf077cfc-8295-4c86-b208-4d8963e12e17"},"vehicle_type_id":"4","last_reported":1750514918,"current_range_meters":16800,"station_id":"ce4bhk92rcd13ifvqgb0","pricing_plan_id":"cebpf4jnsgd1na2vs0mg"},{"bike_id":"1c6eee43-889f-4cff-bc8c-307447a31830","system_id":"levelo_inurba_marseille","lat":43.30794,"lon":5.43518,"is_reserved":false,"is_disabled":false,"rental_uris":{"android":"levelo://app?vid=1c6eee43-889f-4cff-bc8c-307447a31830","ios":"levelo://app?vid=1c6eee43-889f-4cff-bc8c-307447a31830"},"vehicle_type_id":"4","last_reported":1750514918,"current_range_meters":16800,"station_id":"ce4bhph2rcd13ifvqheg","pricing_plan_id":"cebpf4jnsgd1na2vs0mg"},{"bike_id":"7c3434e7-ecd7-4565-9a0f-952b018128a9","system_id":"levelo_inurba_marseille","lat":43.21206,"lon":5.35106,"is_reserved":false,"is_disabled":false,"rental_uris":{"android":"levelo://app?vid=7c3434e7-ecd7-4565-9a0f-952b018128a9","ios":"levelo://app?vid=7c3434e7-ecd7-4565-9a0f-952b018128a9"},"vehicle_type_id":"4","last_reported":1750514918,"current_range_meters":16800,"station_id":"st_cvj6sg6p6f1abm77japg","pricing_plan_id":"cebpf4jnsgd1na2vs0mg"},{"bike_id":"a08d8572-1df9-48a5-8826-d23cf54d995d","system_id":"levelo_inurba_marseille","lat":43.273796,"lon":5.362545,"is_reserved":false,"is_disabled":false,"rental_uris":{"android":"levelo://app?vid=a08d8572-1df9-48a5-8826-d23cf54d995d","ios":"levelo://app?vid=a08d8572-1df9-48a5-8826-d23cf54d995d"},