{"last_updated":1762376996,"ttl":60,"version":"2.2","data":{"bikes":[{"bike_id":"b7c5e96f-2666-418c-b8cc-36dfc613348c","system_id":"levelo_inurba_marseille","lat":43.337444,"lon":5.374475,"is_reserved":false,"is_disabled":false,"rental_uris":{"android":"levelo://app?vid=b7c5e96f-2666-418c-b8cc-36dfc613348c","ios":"levelo://app?vid=b7c5e96f-2666-418c-b8cc-36dfc613348c"},"vehicle_type_id":"4","last_reported":1762376996,"current_range_meters":0,"station_id":"","pricing_plan_id":"cebpf4jnsgd1na2vs0mg"},{"bike_id":"9c46a9f5-39cb-461a-ac28-286dc216524b","system_id":"levelo_inurba_marseille","lat":43.337444,"lon":5.374475,"is_reserved":false,"is_disabled":false,"rental_uris":{"android":"levelo://app?vid=9c46a9f5-39cb-461a-ac28-286dc216524b","ios":"levelo://app?vid=9c46a9f5-39cb-461a-ac28-286dc216524b"},"vehicle_type_id":"4","last_reported":1762376996,"current_range_meters":0,"station_id":"","pricing_plan_id":"cebpf4jnsgd1na2vs0mg"},{"bike_id":"2aa95e42-5a8c-4825-81d0-40d356e0168e","system_id":"levelo_inurba_marseille","lat":43.337444,"lon":5.374475,"is_reserved":false,"is_disabled":false,"rental_uris":{"android":"levelo://app?vid=2aa95e42-5a8c-4825-81d0-40d356e0168e","ios":"levelo://app?vid=2aa95e42-5a8c-4825-81d0-40d356e0168e"},"vehicle_type_id":"4","last_reported":1762376996,"current_range_meters":0,"station_id":"","pricing_plan_id":"cebpf4jnsgd1na2vs0mg"},{"bike_id":"23f7c00c-abd3-4b9e-b454-b625ef68ddce","system_id":"levelo_inurba_marseille","lat":43.337444,"lon":5.374475,"is_reserved":false,"is_disabled":false,"rental_uris":{"android":"levelo://app?vid=23f7c00c-abd3-4b9e-b454-b625ef68ddce","ios":"levelo://app?vid=23f7c00c-abd3-4b9e-b454-b625ef68ddce"},"vehicle_type_id":"4","last_reported":1762376996,"current_range_meters":0,"station_id":"","pricing_plan_id":"cebpf4jnsgd1na2vs0mg"},{"bike_id":"a3451d83-9c80-4ffa-96f9-a14c25634465","system_id":"levelo_inurba_marseille","lat":43.337444,"lon":5.374475,"is_reserved":false,"is_disabled":false,"rental_uris":{"android":"levelo://app?vid=a3451d83-9c80-4ffa-96f9-a14c25634465","ios":"levelo://app?vid=a3451d83-9c80-4ffa-96f9-a14c25634465"},"vehicle_type_id":"4","last_reported":1762376996,"current_range_meters":0,"station_id":"","pricing_plan_id":"cebpf4jnsgd1na2vs0mg"},{"bike_id":"19649598-fd0f-4237-a302-8b748132eb30","system_id":"levelo_inurba_marseille","lat":43.337444,"lon":5.374475,"is_reserved":false,"is_disabled":false,"rental_uris":{"android":"levelo://app?vid=19649598-fd0f-4237-a302-8b748132eb30","ios":"levelo://app?vid=19649598-fd0f-4237-a302-8b748132eb30"},"vehicle_type_id":"4","last_reported":1762376996,"current_range_meters":0,"station_id":"","pricing_plan_id":"cebpf4jnsgd1na2vs0mg"},{"bike_id":"79f0199f-1fbb-40b2-9337-191d82b520a7","system_id":"levelo_inurba_marseille","lat":43.337444,"lon":5.374475,"is_reserved":false,"is_disabled":false,"rental_uris":{"android":"levelo://app?vid=79f0199f-1fbb-40b2-9337-191d82b520a7","ios":"levelo://app?vid=79f0199f-1fbb-40b2-9337-191d82b520a7"},"vehicle_type_id":"4","last_reported":1762376996,"current_range_meters":0,"station_id":"","pricing_plan_id":"cebpf4jnsgd1na2vs0mg"},{"bike_id":"34a0d96e-bbf5-4ab6-8de8-a56cc767fd57","system_id":"levelo_inurba_marseille","lat":43.337444,"lon":5.374475,"is_reserved":false,"is_disabled":false,"rental_uris":{"android":"levelo://app?vid=34a0d96e-bbf5-4ab6-8de8-a56cc767fd57","ios":"levelo://app?vid=34a0d96e-bbf5-4ab6-8de8-a56cc767fd57"},"vehicle_type_id":"4","last_reported":1762376996,"current_range_meters":0,"station_id":"","pricing_plan_id":"cebpf4jnsgd1na2vs0mg"},{"bike_id":"30c4756b-2e3a-4ac9-b1fb-aa08283eecaa","system_id":"levelo_inurba_marseille","lat":43.337444,"lon":5.374475,"is_reserved":false,"is_disabled":false,"rental_uris":{"android":"levelo://app?vid=30c4756b-2e3a-4ac9-b1fb-aa08283eecaa","ios":"levelo://app?vid=30c4756b-2e3a-4ac9-b1fb-aa08283eecaa"},"vehicle_type_id":"4","last_reported":1762376996,"current_range_meters":0,"station_id":"","pricing_plan_id":"cebpf4jnsgd1na2vs0mg"},{"bike_id":"cb5b6ee7-3ef8-4299-a38d-cc32f035098b","system_id":"levelo_inurba_marseille","lat":43.337444,"lon":5.374475,"is_reserved":false,"is_disabled":false,"rental_uris":{"android":"levelo://app?vid=cb5b6ee7-3ef8-4299-a38d-cc32f035098b","ios":"levelo://app?vid=cb5b6ee7-3ef8-4299-a38d-cc32f035098b"},"vehicle_type_id":"4","last_reported":1762376996,"current_range_meters":0,"station_id":"","pricing_plan_id":"cebpf4jnsgd1na2vs0mg"},{"bike_id":"0dbf8834-1963-4427-879a-60d5139a1252","system_id":"levelo_inurba_marseille","lat":43.337444,"lon":5.374475,"is_reserved":false,"is_disabled":false,"rental_uris":{"android":"levelo://app?vid=0dbf8834-1963-4427-879a-60d5139a1252","ios":"levelo://app?vid=0dbf8834-1963-4427-879a-60d5139a1252"},"vehicle_type_id":"4","last_reported":1762376996,"current_range_meters":0,"station_id":"","pricing_plan_id":"cebpf4jnsgd1na2vs0mg"},{"bike_id":"c3d3ce5c-8075-4b42-9455-beadd1468f17","system_id":"levelo_inurba_marseille","lat":43.337444,"lon":5.374475,"is_reserved":false,"is_disabled":false,"rental_uris":{"android":"levelo://app?vid=c3d3ce5c-8075-4b42-9455-beadd1468f17","ios":"levelo://app?vid=c3d3ce5c-8075-4b42-9455-beadd1468f17"},"vehicle_type_id":"4","last_reported":1762376996,"current_range_meters":0,"station_id":"","pricing_plan_id":"cebpf4jnsgd1na2vs0mg"},{"bike_id":"2177a091-7ad7-4fcd-ad08-e78406d1a8ef","system_id":"levelo_inurba_marseille","lat":43.337444,"lon":5.374475,"is_reserved":false,"is_disabled":false,"rental_uris":{"android":"levelo://app?vid=2177a091-7ad7-4fcd-ad08-e78406d1a8ef","ios":"levelo://app?vid=2177a091-7ad7-4fcd-ad08-e78406d1a8ef"},"vehicle_type_id":"4","last_reported":1762376996,"current_range_meters":0,"station_id":"","pricing_plan_id":"cebpf4jnsgd1na2vs0mg"},{"bike_id":"ed2dc6ad-7a96-47d2-b4d0-3deee38fd62c","system_id":"levelo_inurba_marseille","lat":43.337444,"lon":5.374475,"is_reserved":false,"is_disabled":false,"rental_uris":{"android":"levelo://app?vid=ed2dc6ad-7a96-47d2-b4d0-3deee38fd62c","ios":"levelo://app?vid=ed2dc6ad-7a96-47d2-b4d0-3deee38fd62c"},"vehicle_type_id":"4","last_reported":1762376996,"current_range_meters":0,"station_id":"","pricing_plan_id":"cebpf4jnsgd1na2vs0mg"},{"bike_id":"42735ee1-244b-4d96-8480-f9806199924f","system_id":"levelo_inurba_marseille","lat":43.337444,"lon":5.374475,"is_reserved":false,"is_disabled":false,"rental_uris":{"android":"levelo://app?vid=42735ee1-244b-4d96-8480-f9806199924f","ios":"levelo://app?vid=42735ee1-244b-4d96-8480-f9806199924f"},"vehicle_type_id":"4","last_reported":1762376996,"current_range_meters":0,"station_id":"","pricing_plan_id":"cebpf4jnsgd1na2vs0mg"},{"bike_id":"0d7ab61a-02ec-456f-ab23-ba92f34594d5","system_id":"levelo_inurba_marseille","lat":43.337444,"lon":5.374475,"is_reserved":false,"is_disabled":false,"rental_uris":{"android":"levelo://app?vid=0d7ab61a-02ec-456f-ab23-ba92f34594d5","ios":"levelo://app?vid=0d7ab61a-02ec-456f-ab23-ba92f34594d5"},"vehicle_type_id":"4","last_reported":1762376996,"current_range_meters":0,"station_id":"","pricing_plan_id":"cebpf4jnsgd1na2vs0mg"},{"bike_id":"f68022fa-eb0a-4aac-8aea-6f2e14d0afb9","system_id":"levelo_inurba_marseille","lat":43.337444,"lon":5.374475,"is_reserved":false,"is_disabled":false,"rental_uris":{"android":"levelo://app?vid=f68022fa-eb0a-4aac-8aea-6f2e14d0afb9","ios":"levelo://app?vid=f68022fa-eb0a-4aac-8aea-6f2e14d0afb9"},"vehicle_type_id":"4","last_reported":1762376996,"current_range_meters":0,"station_id":"","pricing_plan_id":"cebpf4jnsgd1na2vs0mg"},{"bike_id":"386a9781-f1f4-4d33-8679-4d1163c3b9de","system_id":"levelo_inurba_marseille","lat":43.337444,"lon":5.374475,"is_reserved":false,"is_disabled":false,"rental_uris":{"android":"levelo://app?vid=386a9781-f1f4-4d33-8679-4d1163c3b9de","ios":"levelo://app?vid=386a9781-f1f4-4d33-8679-4d1163c3b9de"},"vehicle_type_id":"4","last_reported":1762376996,"current_range_meters":0,"station_id":"","pricing_plan_id":"cebpf4jnsgd1na2vs0mg"},{"bike_id":"4692d694-8a80-47c7-a7c6-1264ca94c6df","system_id":"levelo_inurba_marseille","lat":43.337444,"lon":5.374475,"is_reserved":false,"is_disabled":false,"rental_uris":{"android":"levelo://app?vid=4692d694-8a80-47c7-a7c6-1264ca94c6df","ios":"levelo://app?vid=4692d694-8a80-47c7-a7c6-1264ca94c6df"},"vehicle_type_id":"4","last_reported":1762376996,"current_range_meters":0,"station_id":"","pricing_plan_id":"cebpf4jnsgd1na2vs0mg"},{"bike_id":"4706d18d-408c-4dc1-a44f-b0f99f27bdf0","system_id":"levelo_inurba_marseille","lat":43.337444,"lon":5.374475,"is_reserved":false,"is_disabled":false,"rental_uris":{"android":"levelo://app?vid=4706d18d-408c-4dc1-a44f-b0f99f27bdf0","ios":"levelo://app?vid=4706d18d-408c-4dc1-a44f-b0f99f27bdf0"},"vehicle_type_id":"4","last_reported":1762376996,"current_range_meters":0,"station_id":"","pricing_plan_id":"cebpf4jnsgd1na2vs0mg"},{"bike_id":"abb77335-fe7b-4b75-9b2f-be4bb45cbb0d","system_id":"levelo_inurba_marseille","lat":43.337444,"lon":5.374475,"is_reserved":false,"is_disabled":false,"rental_uris":{"android":"levelo://app?vid=abb77335-fe7b-4b75-9b2f-be4bb45cbb0d","ios":"levelo://app?vid=abb77335-fe7b-4b75-9b2f-be4bb45cbb0d"},"vehicle_type_id":"4","last_reported":1762376996,"current_range_meters":0,"station_id":"","pricing_plan_id":"cebpf4jnsgd1na2vs0mg"},{"bike_id":"4bde9393-6919-41f3-8fef-f4b40f375cc0","system_id":"levelo_inurba_marseille","lat":43.337444,"lon":5.374475,"is_reserved":false,"is_disabled":false,"rental_uris":{"android":"levelo://app?vid=4bde9393-6919-41f3-8fef-f4b40f375cc0","ios":"levelo://app?vid=4bde9393-6919-41f3-8fef-f4b40f375cc0"},"vehicle_type_id":"4","last_reported":1762376996,"current_range_meters":0,"station_id":"","pricing_plan_id":"cebpf4jnsgd1na2vs0mg"},{"bike_id":"51f4e824-5009-4c5b-9283-cfda2d34404c","system_id":"levelo_inurba_marseille","lat":43.337444,"lon":5.374475,"is_reserved":false,"is_disabled":false,"rental_uris":{"android":"levelo://app?vid=51f4e824-5009-4c5b-9283-cfda2d34404c","ios":"levelo://app?vid=51f4e824-5009-4c5b-9283-cfda2d34404c"},"vehicle_type_id":"4","last_reported":1762376996,"current_range_meters":0,"station_id":"","pricing_plan_id":"cebpf4jnsgd1na2vs0mg"},{"bike_id":"d155d58c-f50a-4469-b126-b5af1b8d3f8a","system_id":"levelo_inurba_marseille","lat":43.337444,"lon":5.374475,"is_reserved":false,"is_disabled":false,"rental_uris":{"android":"levelo://app?vid=d155d58c-f50a-4469-b126-b5af1b8d3f8a","ios":"levelo://app?vid=d155d58c-f50a-4469-b126-b5af1b8d3f8a"},"vehicle_type_id":"4","last_reported":1762376996,"current_range_meters":0,"station_id":"","pricing_plan_id":"cebpf4jnsgd1na2vs0mg"},{"bike_id":"16f471c2-a8ed-4e61-ba2a-d83085a9c284","system_id":"levelo_inurba_marseille","lat":43.337444,"lon":5.374475,"is_reserved":false,"is_disabled":false,"rental_uris":{"android":"levelo://app?vid=16f471c2-a8ed-4e61-ba2a-d83085a9c284","ios":"levelo://app?vid=16f471c2-a8ed-4e61-ba2a-d83085a9c284"},"vehicle_type_id":"4","last_reported":1762376996,"current_range_meters":0,"station_id":"","pricing_plan_id":"cebpf4jnsgd1na2vs0mg"},{"bike_id":"b8bd4cc4-f519-43de-b194-2cc2cf75483c","system_id":"levelo_inurba_marseille","lat":43.337444,"lon":5.374475,"is_reserved":false,"is_disabled":false,"rental_uris":{"android":"levelo://app?vid=b8bd4cc4-f519-43de-b194-2cc2cf75483c","ios":"levelo://app?vid=b8bd4cc4-f519-43de-b194-2cc2cf75483c"},"vehicle_type_id":"4","last_reported":1762376996,"current_range_meters":0,"station_id":"","pricing_plan_id":"cebpf4jnsgd1na2vs0mg"},{"bike_id":"591b062c-0423-40a0-9120-f7c30f97e98f","system_id":"levelo_inurba_marseille","lat":43.337444,"lon":5.374475,"is_reserved":false,"is_disabled":false,"rental_uris":{"android":"levelo://app?vid=591b062c-0423-40a0-9120-f7c30f97e98f","ios":"levelo://app?vid=591b062c-0423-40a0-9120-f7c30f97e98f"},"vehicle_type_id":"4","last_reported":1762376996,"current_range_meters":0,"station_id":"","pricing_plan_id":"cebpf4jnsgd1na2vs0mg"},{"bike_id":"8fbb8d57-565e-4232-a867-846a316b3375","system_id":"levelo_inurba_marseille","lat":43.337444,"lon":5.374475,"is_reserved":false,"is_disabled":false,"rental_uris":{"android":"levelo://app?vid=8fbb8d57-565e-4232-a867-846a316b3375","ios":"levelo://app?vid=8fbb8d57-565e-4232-a867-846a316b3375"},"vehicle_type_id":"4","last_reported":1762376996,"current_range_meters":0,"station_id":"","pricing_plan_id":"cebpf4jnsgd1na2vs0mg"},{"bike_id":"e6134458-396f-46c5-87ab-a79cf2b6424c","system_id":"levelo_inurba_marseille","lat":43.337444,"lon":5.374475,"is_reserved":false,"is_disabled":false,"rental_uris":{"android":"levelo://app?vid=e6134458-396f-46c5-87ab-a79cf2b6424c","ios":"levelo://app?vid=e6134458-396f-46c5-87ab-a79cf2b6424c"},"vehicle_type_id":"4","last_reported":1762376996,"current_range_meters":0,"station_id":"","pricing_plan_id":"cebpf4jnsgd1na2vs0mg"},{"bike_id":"0a0d4295-fe5b-4614-b2ca-f5579d5190b0","system_id":"levelo_inurba_marseille","lat":43.337444,"lon":5.374475,"is_reserved":false,"is_disabled":false,"rental_uris":{"android":"levelo://app?vid=0a0d4295-fe5b-4614-b2ca-f5579d5190b0","ios":"levelo://app?vid=0a0d4295-fe5b-4614-b2ca-f5579d5190b0"},"vehicle_type_id":"4","last_reported":1762376996,"current_range_meters":0,"station_id":"","pricing_plan_id":"cebpf4jnsgd1na2vs0mg"},{"bike_id":"df901744-052b-4596-be21-45d27cbc1916","system_id":"levelo_inurba_marseille","lat":43.28516,"lon":5.44087,"is_reserved":false,"is_disabled":false,"rental_uris":{"android":"levelo://app?vid=df901744-052b-4596-be21-45d27cbc1916","ios":"levelo://app?vid=df901744-052b-4596-be21-45d27cbc1916"},"vehicle_type_id":"4","last_reported":1762376996,"current_range_meters":2800,"station_id":"st_d3j3df2ikq2c7380ej80","pricing_plan_id":"cebpf4jnsgd1na2vs0mg"},{"bike_id":"0afba7bd-6d65-490e-a669-b53c195eb27d","system_id":"levelo_inurba_marseille","lat":43.301295,"lon":5.398641,"is_reserved":false,"is_disabled":false,"rental_uris":{"android":"levelo://app?vid=0afba7bd-6d65-490e-a669-b53c195eb27d","ios":"levelo://app?vid=0afba7bd-6d65-490e-a669-b53c195eb27d"},"vehicle_type_id":"4","last_reported":1762376996,"current_range_meters":2800,"station_id":"ce4bh0h2rcd13ifvqd40","pricing_plan_id":"cebpf4jnsgd1na2vs0mg"},{"bike_id":"c07c4a6d-a154-40db-afca-28e1a9409f17","system_id":"levelo_inurba_marseille","lat":43.29558,"lon":5.4227,"is_reserved":false,"is_disabled":false,"rental_uris":{"android":"levelo://app?vid=c07c4a6d-a154-40db-afca-28e1a9409f17","ios":"levelo://app?vid=c07c4a6d-a154-40db-afca-28e1a9409f17"},"vehicle_type_id":"4","last_reported":1762376996,"current_range_meters":3200,"station_id":"ce4bhph2rcd13ifvqhdg","pricing_plan_id":"cebpf4jnsgd1na2vs0mg"},{"bike_id":"12a8f7a0-c11a-4d1a-9629-e82a8892f7f6","system_id":"levelo_inurba_marseille","lat":43.297972,"lon":5.404011,"is_reserved":false,"is_disabled":false,"rental_uris":{"android":"levelo://app?vid=12a8f7a0-c11a-4d1a-9629-e82a8892f7f6","ios":"levelo://app?vid=12a8f7a0-c11a-4d1a-9629-e82a8892f7f6"},"vehicle_type_id":"4","last_reported":1762376996,"current_range_meters":3200,"station_id":"ce4bh112rcd13ifvqd90","pricing_plan_id":"cebpf4jnsgd1na2vs0mg"},{"bike_id":"28b85111-1e3c-4e94-9d4a-5a837507bfee","system_id":"levelo_inurba_marseille","lat":43.29713,"lon":5.42641,"is_reserved":false,"is_disabled":false,"rental_uris":{"android":"levelo://app?vid=28b85111-1e3c-4e94-9d4a-5a837507bfee","ios":"levelo://app?vid=28b85111-1e3c-4e94-9d4a-5a837507bfee"},"vehicle_type_id":"4","last_reported":1762376996,"current_range_meters":3600,"station_id":"","pricing_plan_id":"cebpf4jnsgd1na2vs0mg"},{"bike_id":"ebddb370-d644-4dfb-a2c2-26834be21211","system_id":"levelo_inurba_marseille","lat":43.26919,"lon":5.39281,"is_reserved":false,"is_disabled":false,"rental_uris":{"android":"levelo://app?vid=ebddb370-d644-4dfb-a2c2-26834be21211","ios":"levelo://app?vid=ebddb370-d644-4dfb-a2c2-26834be21211"},"vehicle_type_id":"4","last_reported":1762376996,"current_range_meters":3600,"station_id":"","pricing_plan_id":"cebpf4jnsgd1na2vs0mg"},{"bike_id":"c76b2c5b-16e9-4c55-870e-400171fa768d","system_id":"levelo_inurba_marseille","lat":43.29549,"lon":5.42268,"is_reserved":false,"is_disabled":false,"rental_uris":{"android":"levelo://app?vid=c76b2c5b-16e9-4c55-870e-400171fa768d","ios":"levelo://app?vid=c76b2c5b-16e9-4c55-870e-400171fa768d"},"vehicle_type_id":"4","last_reported":1762376996,"current_range_meters":4000,"station_id":"ce4bhph2rcd13ifvqhdg","pricing_plan_id":"cebpf4jnsgd1na2vs0mg"},{"bike_id":"d5b1be03-2517-4255-bb10-9975e1ce4a6f","system_id":"levelo_inurba_marseille","lat":43.28723,"lon":5.37952,"is_reserved":false,"is_disabled":false,"rental_uris":{"android":"levelo://app?vid=d5b1be03-2517-4255-bb10-9975e1ce4a6f","ios":"levelo://app?vid=d5b1be03-2517-4255-bb10-9975e1ce4a6f"},"vehicle_type_id":"4","last_reported":1762376996,"current_range_meters":4000,"station_id":"ce4bh9p2rcd13ifvqec0","pricing_plan_id":"cebpf4jnsgd1na2vs0mg"},{"bike_id":"620cd075-2d5a-49da-b7d8-2c0f6892bc65","system_id":"levelo_inurba_marseille","lat":43.272046,"lon":5.391829,"is_reserved":false,"is_disabled":false,"rental_uris":{"android":"levelo://app?vid=620cd075-2d5a-49da-b7d8-2c0f6892bc65","ios":"levelo://app?vid=620cd075-2d5a-49da-b7d8-2c0f6892bc65"},"vehicle_type_id":"4","last_reported":1762376996,"current_range_meters":4000,"station_id":"","pricing_plan_id":"cebpf4jnsgd1na2vs0mg"},{"bike_id":"48608151-5c9d-422b-96c0-57ce6bf670a9","system_id":"levelo_inurba_marseille","lat":43.27995,"lon":5.40006,"is_reserved":false,"is_disabled":false,"rental_uris":{"android":"levelo://app?vid=48608151-5c9d-422b-96c0-57ce6bf670a9","ios":"levelo://app?vid=48608151-5c9d-422b-96c0-57ce6bf670a9"},"vehicle_type_id":"4","last_reported":1762376996,"current_range_meters":4800,"station_id":"ce4bho92rcd13ifvqh4g","pricing_plan_id":"cebpf4jnsgd1na2vs0mg"},{"bike_id":"dc94cbf0-a7dc-49d0-af22-8056548a33b8","system_id":"levelo_inurba_marseille","lat":43.28534,"lon":5.44076,"is_reserved":false,"is_disabled":false,"rental_uris":{"android":"levelo://app?vid=dc94cbf0-a7dc-49d0-af22-8056548a33b8","ios":"levelo://app?vid=dc94cbf0-a7dc-49d0-af22-8056548a33b8"},"vehicle_type_id":"4","last_reported":1762376996,"current_range_meters":5600,"station_id":"st_d3j3df2ikq2c7380ej80","pricing_plan_id":"cebpf4jnsgd1na2vs0mg"},{"bike_id":"900c5f85-0ef9-41e6-b8d9-dad22dd2eca7","system_id":"levelo_inurba_marseille","lat":43.30415,"lon":5.41288,"is_reserved":false,"is_disabled":false,"rental_uris":{"android":"levelo://app?vid=900c5f85-0ef9-41e6-b8d9-dad22dd2eca7","ios":"levelo://app?vid=900c5f85-0ef9-41e6-b8d9-dad22dd2eca7"},"vehicle_type_id":"4","last_reported":1762376996,"current_range_meters":6000,"station_id":"ce4bhop2rcd13ifvqh8g","pricing_plan_id":"cebpf4jnsgd1na2vs0mg"},{"bike_id":"ded0da8d-52ea-457f-8a27-8341ef703417","system_id":"levelo_inurba_marseille","lat":43.299792,"lon":5.396986,"is_reserved":false,"is_disabled":false,"rental_uris":{"android":"levelo://app?vid=ded0da8d-52ea-457f-8a27-8341ef703417","ios":"levelo://app?vid=ded0da8d-52ea-457f-8a27-8341ef703417"},"vehicle_type_id":"4","last_reported":1762376996,"current_range_meters":6000,"station_id":"ce4bh0h2rcd13ifvqd50","pricing_plan_id":"cebpf4jnsgd1na2vs0mg"},{"bike_id":"08a2fbf4-8501-4a94-b47d-6bae82d2ec7c","system_id":"levelo_inurba_marseille","lat":43.28105,"lon":5.37835,"is_reserved":false,"is_disabled":false,"rental_uris":{"android":"levelo://app?vid=08a2fbf4-8501-4a94-b47d-6bae82d2ec7c","ios":"levelo://app?vid=08a2fbf4-8501-4a94-b47d-6bae82d2ec7c"},"vehicle_type_id":"4","last_reported":1762376996,"current_range_meters":6000,"station_id":"ce4bha12rcd13ifvqee0","pricing_plan_id":"cebpf4jnsgd1na2vs0mg"},{"bike_id":"ca027186-72c6-4358-8d7a-70b219e6273a","system_id":"levelo_inurba_marseille","lat":43.35122,"lon":5.38083,"is_reserved":false,"is_disabled":false,"rental_uris":{"android":"levelo://app?vid=ca027186-72c6-4358-8d7a-70b219e6273a","ios":"levelo://app?vid=ca027186-72c6-4358-8d7a-70b219e6273a"},"vehicle_type_id":"4","last_reported":1762376996,"current_range_meters":6400,"station_id":"","pricing_plan_id":"cebpf4jnsgd1na2vs0mg"},{"bike_id":"654dc482-8458-4686-a09b-a5e21a822232","system_id":"levelo_inurba_marseille","lat":43.23211,"lon":5.3553,"is_reserved":false,"is_disabled":true,"rental_uris":{"android":"levelo://app?vid=654dc482-8458-4686-a09b-a5e21a822232","ios":"levelo://app?vid=654dc482-8458-4686-a09b-a5e21a822232"},"vehicle_type_id":"4","last_reported":1762376996,"current_range_meters":6400,"station_id":"ce4bhu92rcd13ifvqi70","pricing_plan_id":"cebpf4jnsgd1na2vs0mg"},{"bike_id":"d12af199-4e50-48ce-b5e7-40fd678dce02","system_id":"levelo_inurba_marseille","lat":43.29892,"lon":5.43672,"is_reserved":false,"is_disabled":false,"rental_uris":{"android":"levelo://app?vid=d12af199-4e50-48ce-b5e7-40fd678dce02","ios":"levelo://app?vid=d12af199-4e50-48ce-b5e7-40fd678dce02"},"vehicle_type_id":"4","last_reported":1762376996,"current_range_meters":6400,"station_id":"ce4bhpp2rcd13ifvqhfg","pricing_plan_id":"cebpf4jnsgd1na2vs0mg"},{"bike_id":"a28ee5cb-cb37-4196-8687-eb0f8cad2aa4","system_id":"levelo_inurba_marseille","lat":43.2845,"lon":5.39209,"is_reserved":false,"is_disabled":false,"rental_uris":{"android":"levelo://app?vid=a28ee5cb-cb37-4196-8687-eb0f8cad2aa4","ios":"levelo://app?vid=a28ee5cb-cb37-4196-8687-eb0f8cad2aa4"},"vehicle_type_id":"4","last_reported":1762376996,"current_range_meters":6400,"station_id":"ce4bhoh2rcd13ifvqh5g","pricing_plan_id":"cebpf4jnsgd1na2vs0mg"},{"bike_id":"ff420896-190c-4469-a623-7541d4f33707","system_id":"levelo_inurba_marseille","lat":43.27824,"lon":5.39205,"is_reserved":false,"is_disabled":false,"rental_uris":{"android":"levelo://app?vid=ff420896-190c-4469-a623-7541d4f33707","ios":"levelo://app?vid=ff420896-190c-4469-a623-7541d4f33707"},"vehicle_type_id":"4","last_reported":1762376996,"current_range_meters":6800,"station_id":"ce4bhjp2rcd13ifvqga0","pricing_plan_id":"cebpf4jnsgd1na2vs0mg"},{"bike_id":"7c572724-d246-444c-a818-2550f93cae1a","system_id":"levelo_inurba_marseille","lat":43.28823,"lon":5.38619,"is_reserved":false,"is_disabled":false,"rental_uris":{"android":"levelo://app?vid=7c572724-d246-444c-a818-2550f93cae1a","ios":"levelo://app?vid=7c572724-d246-444c-a818-2550f93cae1a"},"vehicle_type_id":"4","last_reported":1762376996,"current_range_meters":6800,"station_id":"","pricing_plan_id":"cebpf4jnsgd1na2vs0mg"},{"bike_id":"dbe83fc1-5783-48c3-91aa-350328eabbc6","system_id":"levelo_inurba_marseille","lat":43.279944,"lon":5.400108,"is_reserved":false,"is_disabled":false,"rental_uris":{"android":"levelo://app?vid=dbe83fc1-5783-48c3-91aa-350328eabbc6","ios":"levelo://app?vid=dbe83fc1-5783-48c3-91aa-350328eabbc6"},"vehicle_type_id":"4","last_reported":1762376996,"current_range_meters":6800,"station_id":"ce4bhdp2rcd13ifvqf20","pricing_plan_id":"cebpf4jnsgd1na2vs0mg"},{"bike_id":"ba9dd343-3a8b-4c29-ac26-d37d82c60f11","system_id":"levelo_inurba_marseille","lat":43.28836,"lon":5.3932,"is_reserved":false,"is_disabled":true,"rental_uris":{"android":"levelo://app?vid=ba9dd343-3a8b-4c29-ac26-d37d82c60f11","ios":"levelo://app?vid=ba9dd343-3a8b-4c29-ac26-d37d82c60f11"},"vehicle_type_id":"4","last_reported":1762376996,"current_range_meters":7200,"station_id":"ce4bh2p2rcd13ifvqdi0","pricing_plan_id":"cebpf4jnsgd1na2vs0mg"},{"bike_id":"5e6b5e6b-9f8a-43ab-9eb8-b69e41a6c1e6","system_id":"levelo_inurba_marseille","lat":43.225298,"lon":5.348365,"is_reserved":false,"is_disabled":false,"rental_uris":{"android":"levelo://app?vid=5e6b5e6b-9f8a-43ab-9eb8-b69e41a6c1e6","ios":"levelo://app?vid=5e6b5e6b-9f8a-43ab-9eb8-b69e41a6c1e6"},"vehicle_type_id":"4","last_reported":1762376996,"current_range_meters":7200,"station_id":"","pricing_plan_id":"cebpf4jnsgd1na2vs0mg"},{"bike_id":"bb4e9bf7-affa-4dba-bfe2-68a05a0332e3","system_id":"levelo_inurba_marseille","lat":43.25573,"lon":5.38241,"is_reserved":false,"is_disabled":false,"rental_uris":{"android":"levelo://app?vid=bb4e9bf7-affa-4dba-bfe2-68a05a0332e3","ios":"levelo://app?vid=bb4e9bf7-affa-4dba-bfe2-68a05a0332e3"},"vehicle_type_id":"4","last_reported":1762376996,"current_range_meters":7200,"station_id":"ce4bhih2rcd13ifvqfs0","pricing_plan_id":"cebpf4jnsgd1na2vs0mg"},{"bike_id":"ad483091-7411-4e16-8cc4-09042e8161f5","system_id":"levelo_inurba_marseille","lat":43.273468,"lon":5.385179,"is_reserved":false,"is_disabled":true,"rental_uris":{"android":"levelo://app?vid=ad483091-7411-4e16-8cc4-09042e8161f5","ios":"levelo://app?vid=ad483091-7411-4e16-8cc4-09042e8161f5"},"vehicle_type_id":"4","last_reported":1762376996,"current_range_meters":7200,"station_id":"","pricing_plan_id":"cebpf4jnsgd1na2vs0mg"},{"bike_id":"43241b2a-4cb5-4e4c-8865-8a8693625499","system_id":"levelo_inurba_marseille","lat":43.31249,"lon":5.37873,"is_reserved":false,"is_disabled":false,"rental_uris":{"android":"levelo://app?vid=43241b2a-4cb5-4e4c-8865-8a8693625499","ios":"levelo://app?vid=43241b2a-4cb5-4e4c-8865-8a8693625499"},"vehicle_type_id":"4","last_reported":1762376996,"current_range_meters":7200,"station_id":"","pricing_plan_id":"cebpf4jnsgd1na2vs0mg"},{"bike_id":"70cb578b-b109-4b39-bffa-8ea3228aa29c","system_id":"levelo_inurba_marseille","lat":43.27996,"lon":5.41663,"is_reserved":false,"is_disabled":false,"rental_uris":{"android":"levelo://app?vid=70cb578b-b109-4b39-bffa-8ea3228aa29c","ios":"levelo://app?vid=70cb578b-b109-4b39-bffa-8ea3228aa29c"},"vehicle_type_id":"4","last_reported":1762376996,"current_range_meters":7200,"station_id":"","pricing_plan_id":"cebpf4jnsgd1na2vs0mg"},{"bike_id":"b3b3fcde-ef29-4ae9-9661-53fb5ec40466","system_id":"levelo_inurba_marseille","lat":43.31115,"lon":5.3937,"is_reserved":false,"is_disabled":false,"rental_uris":{"android":"levelo://app?vid=b3b3fcde-ef29-4ae9-9661-53fb5ec40466","ios":"levelo://app?vid=b3b3fcde-ef29-4ae9-9661-53fb5ec40466"},"vehicle_type_id":"4","last_reported":1762376996,"current_range_meters":8000,"station_id":"","pricing_plan_id":"cebpf4jnsgd1na2vs0mg"},{"bike_id":"2ff4e5c1-72e3-46ac-b47f-7d507bf191b8","system_id":"levelo_inurba_marseille","lat":43.26551,"lon":5.37279,"is_reserved":false,"is_disabled":false,"rental_uris":{"android":"levelo://app?vid=2ff4e5c1-72e3-46ac-b47f-7d507bf191b8","ios":"levelo://app?vid=2ff4e5c1-72e3-46ac-b47f-7d507bf191b8"},"vehicle_type_id":"4","last_reported":1762376996,"current_range_meters":8000,"station_id":"ce4bhg12rcd13ifvqf70","pricing_plan_id":"cebpf4jnsgd1na2vs0mg"},{"bike_id":"f7a192fe-ecfa-451f-8d3a-3c4f39209fc4","system_id":"levelo_inurba_marseille","lat":43.32368,"lon":5.38886,"is_reserved":false,"is_disabled":false,"rental_uris":{"android":"levelo://app?vid=f7a192fe-ecfa-451f-8d3a-3c4f39209fc4","ios":"levelo://app?vid=f7a192fe-ecfa-451f-8d3a-3c4f39209fc4"},"vehicle_type_id":"4","last_reported":1762376996,"current_range_meters":8000,"station_id":"ce4bhqp2rcd13ifvqhog","pricing_plan_id":"cebpf4jnsgd1na2vs0mg"},{"bike_id":"f92a4c54-97d6-43bc-b8be-b7d9858ec53f","system_id":"levelo_inurba_marseille","lat":43.25336,"lon":5.42162,"is_reserved":false,"is_disabled":false,"rental_uris":{"android":"levelo://app?vid=f92a4c54-97d6-43bc-b8be-b7d9858ec53f","ios":"levelo://app?vid=f92a4c54-97d6-43bc-b8be-b7d9858ec53f"},"vehicle_type_id":"4","last_reported":1762376996,"current_range_meters":8000,"station_id":"","pricing_plan_id":"cebpf4jnsgd1na2vs0mg"},{"bike_id":"4cf44486-2376-4f12-babe-579cfb41acec","system_id":"levelo_inurba_marseille","lat":43.26061,"lon":5.394,"is_reserved":false,"is_disabled":false,"rental_uris":{"android":"levelo://app?vid=4cf44486-2376-4f12-babe-579cfb41acec","ios":"levelo://app?vid=4cf44486-2376-4f12-babe-579cfb41acec"},"vehicle_type_id":"4","last_reported":1762376996,"current_range_meters":8400,"station_id":"ce4bhh92rcd13ifvqfj0","pricing_plan_id":"cebpf4jnsgd1na2vs0mg"},{"bike_id":"b579db75-ebf7-4998-afc1-09fa40e4fa10","system_id":"levelo_inurba_marseille","lat":43.268064,"lon":5.402702,"is_reserved":false,"is_disabled":false,"rental_uris":{"android":"levelo://app?vid=b579db75-ebf7-4998-afc1-09fa40e4fa10","ios":"levelo://app?vid=b579db75-ebf7-4998-afc1-09fa40e4fa10"},"vehicle_type_id":"4","last_reported":1762376996,"current_range_meters":8400,"station_id":"ce501612rcd8frsf0b60","pricing_plan_id":"cebpf4jnsgd1na2vs0mg"},{"bike_id":"cd9c6c8f-813a-4b2c-b0c7-7a3265cb2fa0","system_id":"levelo_inurba_marseille","lat":43.24236,"lon":5.39324,"is_reserved":false,"is_disabled":false,"rental_uris":{"android":"levelo://app?vid=cd9c6c8f-813a-4b2c-b0c7-7a3265cb2fa0","ios":"levelo://app?vid=cd9c6c8f-813a-4b2c-b0c7-7a3265cb2fa0"},"vehicle_type_id":"4","last_reported":1762376996,"current_range_meters":8400,"station_id":"","pricing_plan_id":"cebpf4jnsgd1na2vs0mg"},{"bike_id":"6963bbcf-10e1-4c1c-9f62-f9a65d370418","system_id":"levelo_inurba_marseille","lat":43.285297,"lon":5.441003,"is_reserved":false,"is_disabled":false,"rental_uris":{"android":"levelo://app?vid=6963bbcf-10e1-4c1c-9f62-f9a65d370418","ios":"levelo://app?vid=6963bbcf-10e1-4c1c-9f62-f9a65d370418"},"vehicle_type_id":"4","last_reported":1762376996,"current_range_meters":8400,"station_id":"st_d3j3df2ikq2c7380ej80","pricing_plan_id":"cebpf4jnsgd1na2vs0mg"},{"bike_id":"28b54568-250f-48ad-b030-25d760bf4abc","system_id":"levelo_inurba_marseille","lat":43.32108,"lon":5.36767,"is_reserved":false,"is_disabled":false,"rental_uris":{"android":"levelo://app?vid=28b54568-250f-48ad-b030-25d760bf4abc","ios":"levelo://app?vid=28b54568-250f-48ad-b030-25d760bf4abc"},"vehicle_type_id":"4","last_reported":1762376996,"current_range_meters":8400,"station_id":"ce4bhrh2rcd13ifvqhug","pricing_plan_id":"cebpf4jnsgd1na2vs0mg"},{"bike_id":"adbcc620-7ee6-4893-82c8-b40faad39569","system_id":"levelo_inurba_marseille","lat":43.30207,"lon":5.39459,"is_reserved":false,"is_disabled":false,"rental_uris":{"android":"levelo://app?vid=adbcc620-7ee6-4893-82c8-b40faad39569","ios":"levelo://app?vid=adbcc620-7ee6-4893-82c8-b40faad39569"},"vehicle_type_id":"4","last_reported":1762376996,"current_range_meters":8400,"station_id":"","pricing_plan_id":"cebpf4jnsgd1na2vs0mg"},{"bike_id":"36dadbf7-a228-4f6f-8b08-391008b68693","system_id":"levelo_inurba_marseille","lat":43.345521,"lon":5.368392,"is_reserved":false,"is_disabled":false,"rental_uris":{"android":"levelo://app?vid=36dadbf7-a228-4f6f-8b08-391008b68693","ios":"levelo://app?vid=36dadbf7-a228-4f6f-8b08-391008b68693"},"vehicle_type_id":"4","last_reported":1762376996,"current_range_meters":8800,"station_id":"","pricing_plan_id":"cebpf4jnsgd1na2vs0mg"},{"bike_id":"9465d862-db38-45cb-98a3-e49ecdfda4db","system_id":"levelo_inurba_marseille","lat":43.29495,"lon":5.43295,"is_reserved":false,"is_disabled":true,"rental_uris":{"android":"levelo://app?vid=9465d862-db38-45cb-98a3-e49ecdfda4db","ios":"levelo://app?vid=9465d862-db38-45cb-98a3-e49ecdfda4db"},"vehicle_type_id":"4","last_reported":1762376996,"current_range_meters":8800,"station_id":"st_d3j5ugp08ojc73fj9d10","pricing_plan_id":"cebpf4jnsgd1na2vs0mg"},{"bike_id":"ea4f4b84-78b0-4180-a7f8-ecb8c6182713","system_id":"levelo_inurba_marseille","lat":43.2953,"lon":5.36104,"is_reserved":false,"is_disabled":true,"rental_uris":{"android":"levelo://app?vid=ea4f4b84-78b0-4180-a7f8-ecb8c6182713","ios":"levelo://app?vid=ea4f4b84-78b0-4180-a7f8-ecb8c6182713"},"vehicle_type_id":"4","last_reported":1762376996,"current_range_meters":8800,"station_id":"","pricing_plan_id":"cebpf4jnsgd1na2vs0mg"},{"bike_id":"789bd4b5-3590-4f7d-b1f7-4343592c3171","system_id":"levelo_inurba_marseille","lat":43.283426,"lon":5.381165,"is_reserved":false,"is_disabled":false,"rental_uris":{"android":"levelo://app?vid=789bd4b5-3590-4f7d-b1f7-4343592c3171","ios":"levelo://app?vid=789bd4b5-3590-4f7d-b1f7-4343592c3171"},"vehicle_type_id":"4","last_reported":1762376996,"current_range_meters":8800,"station_id":"ce4bh412rcd13ifvqdr0","pricing_plan_id":"cebpf4jnsgd1na2vs0mg"},{"bike_id":"62b81545-2e0a-4d4a-95eb-e01d27043401","system_id":"levelo_inurba_marseille","lat":43.27678,"lon":5.38889,"is_reserved":false,"is_disabled":false,"rental_uris":{"android":"levelo://app?vid=62b81545-2e0a-4d4a-95eb-e01d27043401","ios":"levelo://app?vid=62b81545-2e0a-4d4a-95eb-e01d27043401"},"vehicle_type_id":"4","last_reported":1762376996,"current_range_meters":8800,"station_id":"ce4bhi12rcd13ifvqfo0","pricing_plan_id":"cebpf4jnsgd1na2vs0mg"},{"bike_id":"0f8ff35c-743d-4d54-a7f7-e5cc108ffd8a","system_id":"levelo_inurba_marseille","lat":43.29982,"lon":5.39887,"is_reserved":false,"is_disabled":false,"rental_uris":{"android":"levelo://app?vid=0f8ff35c-743d-4d54-a7f7-e5cc108ffd8a","ios":"levelo://app?vid=0f8ff35c-743d-4d54-a7f7-e5cc108ffd8a"},"vehicle_type_id":"4","last_reported":1762376996,"current_range_meters":9200,"station_id":"","pricing_plan_id":"cebpf4jnsgd1na2vs0mg"},{"bike_id":"3e66935d-ecc8-4c73-847d-e6b815bbbaf6","system_id":"levelo_inurba_marseille","lat":43.30882,"lon":5.39646,"is_reserved":false,"is_disabled":false,"rental_uris":{"android":"levelo://app?vid=3e66935d-ecc8-4c73-847d-e6b815bbbaf6","ios":"levelo://app?vid=3e66935d-ecc8-4c73-847d-e6b815bbbaf6"},"vehicle_type_id":"4","last_reported":1762376996,"current_range_meters":9200,"station_id":"ce4bh012rcd13ifvqcv0","pricing_plan_id":"cebpf4jnsgd1na2vs0mg"},{"bike_id":"1f16b7e5-1eee-40b0-bef9-f1c4c100dfde","system_id":"levelo_inurba_marseille","lat":43.32368,"lon":5.38868,"is_reserved":false,"is_disabled":false,"rental_uris":{"android":"levelo://app?vid=1f16b7e5-1eee-40b0-bef9-f1c4c100dfde","ios":"levelo://app?vid=1f16b7e5-1eee-40b0-bef9-f1c4c100dfde"},"vehicle_type_id":"4","last_reported":1762376996,"current_range_meters":9600,"station_id":"ce4bhqp2rcd13ifvqhog","pricing_plan_id":"cebpf4jnsgd1na2vs0mg"},{"bike_id":"b6ca4410-31f2-4bfa-a6d3-2f0a4f6b5118","system_id":"levelo_inurba_marseille","lat":43.29242,"lon":5.38442,"is_reserved":false,"is_disabled":true,"rental_uris":{"android":"levelo://app?vid=b6ca4410-31f2-4bfa-a6d3-2f0a4f6b5118","ios":"levelo://app?vid=b6ca4410-31f2-4bfa-a6d3-2f0a4f6b5118"},"vehicle_type_id":"4","last_reported":1762376996,"current_range_meters":9600,"station_id":"ce4bh692rcd13ifvqea0","pricing_plan_id":"cebpf4jnsgd1na2vs0mg"},{"bike_id":"765b9661-2b24-4c0f-a9fb-732d7409b10c","system_id":"levelo_inurba_marseille","lat":43.21617,"lon":5.34431,"is_reserved":false,"is_disabled":false,"rental_uris":{"android":"levelo://app?vid=765b9661-2b24-4c0f-a9fb-732d7409b10c","ios":"levelo://app?vid=765b9661-2b24-4c0f-a9fb-732d7409b10c"},"vehicle_type_id":"4","last_reported":1762376996,"current_range_meters":9600,"station_id":"","pricing_plan_id":"cebpf4jnsgd1na2vs0mg"},{"bike_id":"375d4385-154f-487a-9593-87d7356f2ca3","system_id":"levelo_inurba_marseille","lat":43.289274,"lon":5.384048,"is_reserved":false,"is_disabled":false,"rental_uris":{"android":"levelo://app?vid=375d4385-154f-487a-9593-87d7356f2ca3","ios":"levelo://app?vid=375d4385-154f-487a-9593-87d7356f2ca3"},"vehicle_type_id":"4","last_reported":1762376996,"current_range_meters":9600,"station_id":"ce4bh612rcd13ifvqe6g","pricing_plan_id":"cebpf4jnsgd1na2vs0mg"},{"bike_id":"d4dd6511-4dd4-439e-b285-f9df54431fe8","system_id":"levelo_inurba_marseille","lat":43.28533,"lon":5.44091,"is_reserved":false,"is_disabled":false,"rental_uris":{"android":"levelo://app?vid=d4dd6511-4dd4-439e-b285-f9df54431fe8","ios":"levelo://app?vid=d4dd6511-4dd4-439e-b285-f9df54431fe8"},"vehicle_type_id":"4","last_reported":1762376996,"current_range_meters":9600,"station_id":"st_d3j3df2ikq2c7380ej80","pricing_plan_id":"cebpf4jnsgd1na2vs0mg"},{"bike_id":"0ff958d9-090b-4bf1-8151-6715fcc1ff0a","system_id":"levelo_inurba_marseille","lat":43.32286,"lon":5.38262,"is_reserved":false,"is_disabled":false,"rental_uris":{"android":"levelo://app?vid=0ff958d9-090b-4bf1-8151-6715fcc1ff0a","ios":"levelo://app?vid=0ff958d9-090b-4bf1-8151-6715fcc1ff0a"},"vehicle_type_id":"4","last_reported":1762376996,"current_range_meters":9600,"station_id":"ce4bhr12rcd13ifvqhqg","pricing_plan_id":"cebpf4jnsgd1na2vs0mg"},{"bike_id":"4b24dbba-41a5-4ecf-ade9-ac15d69f3a39","system_id":"levelo_inurba_marseille","lat":43.30277,"lon":5.37689,"is_reserved":false,"is_disabled":false,"rental_uris":{"android":"levelo://app?vid=4b24dbba-41a5-4ecf-ade9-ac15d69f3a39","ios":"levelo://app?vid=4b24dbba-41a5-4ecf-ade9-ac15d69f3a39"},"vehicle_type_id":"4","last_reported":1762376996,"current_range_meters":10000,"station_id":"ce4bguh2rcd13ifvqcj0","pricing_plan_id":"cebpf4jnsgd1na2vs0mg"},{"bike_id":"75a0e7d0-a4d6-4f7c-adce-b5f633c7cb4f","system_id":"levelo_inurba_marseille","lat":43.3061,"lon":5.37234,"is_reserved":false,"is_disabled":true,"rental_uris":{"android":"levelo://app?vid=75a0e7d0-a4d6-4f7c-adce-b5f633c7cb4f","ios":"levelo://app?vid=75a0e7d0-a4d6-4f7c-adce-b5f633c7cb4f"},"vehicle_type_id":"4","last_reported":1762376996,"current_range_meters":10000,"station_id":"ce4bgqh2rcd13ifvqc4g","pricing_plan_id":"cebpf4jnsgd1na2vs0mg"},{"bike_id":"02c565c9-e1be-4475-b1a9-b37751cdb830","system_id":"levelo_inurba_marseille","lat":43.34376,"lon":5.34885,"is_reserved":false,"is_disabled":false,"rental_uris":{"android":"levelo://app?vid=02c565c9-e1be-4475-b1a9-b37751cdb830","ios":"levelo://app?vid=02c565c9-e1be-4475-b1a9-b37751cdb830"},"vehicle_type_id":"4","last_reported":1762376996,"current_range_meters":10000,"station_id":"","pricing_plan_id":"cebpf4jnsgd1na2vs0mg"},{"bike_id":"dceb4beb-6bb5-4225-ae7e-d3c4b9815bbe","system_id":"levelo_inurba_marseille","lat":43.28472,"lon":5.48397,"is_reserved":false,"is_disabled":false,"rental_uris":{"android":"levelo://app?vid=dceb4beb-6bb5-4225-ae7e-d3c4b9815bbe","ios":"levelo://app?vid=dceb4beb-6bb5-4225-ae7e-d3c4b9815bbe"},"vehicle_type_id":"4","last_reported":1762376996,"current_range_meters":10000,"station_id":"st_d3svhcjqgbts73a3dn0g","pricing_plan_id":"cebpf4jnsgd1na2vs0mg"},{"bike_id":"0efcd18a-8960-4933-9d9f-cf775ef41afd","system_id":"levelo_inurba_marseille","lat":43.30032,"lon":5.38878,"is_reserved":false,"is_disabled":false,"rental_uris":{"android":"levelo://app?vid=0efcd18a-8960-4933-9d9f-cf775ef41afd","ios":"levelo://app?vid=0efcd18a-8960-4933-9d9f-cf775ef41afd"},"vehicle_type_id":"4","last_reported":1762376996,"current_range_meters":10000,"station_id":"","pricing_plan_id":"cebpf4jnsgd1na2vs0mg"},{"bike_id":"7c8c77e6-611f-4f5e-8374-da326e1729a3","system_id":"levelo_inurba_marseille","lat":43.29813,"lon":5.44076,"is_reserved":false,"is_disabled":false,"rental_uris":{"android":"levelo://app?vid=7c8c77e6-611f-4f5e-8374-da326e1729a3","ios":"levelo://app?vid=7c8c77e6-611f-4f5e-8374-da326e1729a3"},"vehicle_type_id":"4","last_reported":1762376996,"current_range_meters":10000,"station_id":"st_d3jp68qikq2c7381ktn0","pricing_plan_id":"cebpf4jnsgd1na2vs0mg"},{"bike_id":"ff148061-322f-43c2-a7d1-74292dd7e26f","system_id":"levelo_inurba_marseille","lat":43.3012,"lon":5.39889,"is_reserved":false,"is_disabled":false,"rental_uris":{"android":"levelo://app?vid=ff148061-322f-43c2-a7d1-74292dd7e26f","ios":"levelo://app?vid=ff148061-322f-43c2-a7d1-74292dd7e26f"},"vehicle_type_id":"4","last_reported":1762376996,"current_range_meters":10000,"station_id":"ce4bh0h2rcd13ifvqd40","pricing_plan_id":"cebpf4jnsgd1na2vs0mg"},{"bike_id":"e7002296-a724-4792-9c77-9aa7da662e7d","system_id":"levelo_inurba_marseille","lat":43.29752,"lon":5.36248,"is_reserved":false,"is_disabled":false,"rental_uris":{"android":"levelo://app?vid=e7002296-a724-4792-9c77-9aa7da662e7d","ios":"levelo://app?vid=e7002296-a724-4792-9c77-9aa7da662e7d"},"vehicle_type_id":"4","last_reported":1762376996,"current_range_meters":10000,"station_id":"","pricing_plan_id":"cebpf4jnsgd1na2vs0mg"},{"bike_id":"ac3661dd-248f-4b92-ad04-1fbf8e5c6660","system_id":"levelo_inurba_marseille","lat":43.28032,"lon":5.36944,"is_reserved":false,"is_disabled":true,"rental_uris":{"android":"levelo://app?vid=ac3661dd-248f-4b92-ad04-1fbf8e5c6660","ios":"levelo://app?vid=ac3661dd-248f-4b92-ad04-1fbf8e5c6660"},"vehicle_type_id":"4","last_reported":1762376996,"current_range_meters":10000,"station_id":"ce4bha12rcd13ifvqef0","pricing_plan_id":"cebpf4jnsgd1na2vs0mg"},{"bike_id":"cbf56b2a-2fe7-49c7-b629-bc93f74b7393","system_id":"levelo_inurba_marseille","lat":43.24559,"lon":5.41542,"is_reserved":false,"is_disabled":false,"rental_uris":{"android":"levelo://app?vid=cbf56b2a-2fe7-49c7-b629-bc93f74b7393","ios":"levelo://app?vid=cbf56b2a-2fe7-49c7-b629-bc93f74b7393"},"vehicle_type_id":"4","last_reported":1762376996,"current_range_meters":10800,"station_id":"","pricing_plan_id":"cebpf4jnsgd1na2vs0mg"},{"bike_id":"938ae5fb-5b23-40dc-ba73-521b659073f5","system_id":"levelo_inurba_marseille","lat":43.26783,"lon":5.39409,"is_reserved":false,"is_disabled":false,"rental_uris":{"android":"levelo://app?vid=938ae5fb-5b23-40dc-ba73-521b659073f5","ios":"levelo://app?vid=938ae5fb-5b23-40dc-ba73-521b659073f5"},"vehicle_type_id":"4","last_reported":1762376996,"current_range_meters":10800,"station_id":"ce4bhh12rcd13ifvqfg0","pricing_plan_id":"cebpf4jnsgd1na2vs0mg"},{"bike_id":"7479cfee-6f68-4a59-afc8-ceca6b83dba4","system_id":"levelo_inurba_marseille","lat":43.25574,"lon":5.38232,"is_reserved":false,"is_disabled":false,"rental_uris":{"android":"levelo://app?vid=7479cfee-6f68-4a59-afc8-ceca6b83dba4","ios":"levelo://app?vid=7479cfee-6f68-4a59-afc8-ceca6b83dba4"},"vehicle_type_id":"4","last_reported":1762376996,"current_range_meters":10800,"station_id":"ce4bhih2rcd13ifvqfs0","pricing_plan_id":"cebpf4jnsgd1na2vs0mg"},{"bike_id":"0d327ae3-711d-4467-b91f-37a67f29b852","system_id":"levelo_inurba_marseille","lat":43.30883,"lon":5.39641,"is_reserved":false,"is_disabled":false,"rental_uris":{"android":"levelo://app?vid=0d327ae3-711d-4467-b91f-37a67f29b852","ios":"levelo://app?vid=0d327ae3-711d-4467-b91f-37a67f29b852"},"vehicle_type_id":"4","last_reported":1762376996,"current_range_meters":10800,"station_id":"ce4bh012rcd13ifvqcv0","pricing_plan_id":"cebpf4jnsgd1na2vs0mg"},{"bike_id":"314d042b-6140-4168-b45f-b61dda8c5056","system_id":"levelo_inurba_marseille","lat":43.29036,"lon":5.37565,"is_reserved":false,"is_disabled":false,"rental_uris":{"android":"levelo://app?vid=314d042b-6140-4168-b45f-b61dda8c5056","ios":"levelo://app?vid=314d042b-6140-4168-b45f-b61dda8c5056"},"vehicle_type_id":"4","last_reported":1762376996,"current_range_meters":10800,"station_id":"ce4bh692rcd13ifvqe90","pricing_plan_id":"cebpf4jnsgd1na2vs0mg"},{"bike_id":"e2104b6a-7e12-4a20-ae1b-cf4b446d5e26","system_id":"levelo_inurba_marseille","lat":43.28466,"lon":5.48422,"is_reserved":false,"is_disabled":false,"rental_uris":{"android":"levelo://app?vid=e2104b6a-7e12-4a20-ae1b-cf4b446d5e26","ios":"levelo://app?vid=e2104b6a-7e12-4a20-ae1b-cf4b446d5e26"},"vehicle_type_id":"4","last_reported":1762376996,"current_range_meters":10800,"station_id":"st_d3svhcjqgbts73a3dn0g","pricing_plan_id":"cebpf4jnsgd1na2vs0mg"},{"bike_id":"3ca5c5ea-86f9-4eb0-82b8-2904b75f9ee3","system_id":"levelo_inurba_marseille","lat":43.2792,"lon":5.39574,"is_reserved":false,"is_disabled":false,"rental_uris":{"android":"levelo://app?vid=3ca5c5ea-86f9-4eb0-82b8-2904b75f9ee3","ios":"levelo://app?vid=3ca5c5ea-86f9-4eb0-82b8-2904b75f9ee3"},"vehicle_type_id":"4","last_reported":1762376996,"current_range_meters":10800,"station_id":"ce4bhf92rcd13ifvqf40","pricing_plan_id":"cebpf4jnsgd1na2vs0mg"},{"bike_id":"a68232b8-0460-4943-9e59-aee4437433bc","system_id":"levelo_inurba_marseille","lat":43.22933,"lon":5.35376,"is_reserved":false,"is_disabled":false,"rental_uris":{"android":"levelo://app?vid=a68232b8-0460-4943-9e59-aee4437433bc","ios":"levelo://app?vid=a68232b8-0460-4943-9e59-aee4437433bc"},"vehicle_type_id":"4","last_reported":1762376996,"current_range_meters":11200,"station_id":"cpo3532slgdg3j2ikp40","pricing_plan_id":"cebpf4jnsgd1na2vs0mg"},{"bike_id":"8f5c5e28-dca5-4cf0-8947-a5cfbda88464","system_id":"levelo_inurba_marseille","lat":43.23186,"lon":5.39989,"is_reserved":false,"is_disabled":false,"rental_uris":{"android":"levelo://app?vid=8f5c5e28-dca5-4cf0-8947-a5cfbda88464","ios":"levelo://app?vid=8f5c5e28-dca5-4cf0-8947-a5cfbda88464"},"vehicle_type_id":"4","last_reported":1762376996,"current_range_meters":11200,"station_id":"ce4bhn12rcd13ifvqgqg","pricing_plan_id":"cebpf4jnsgd1na2vs0mg"},{"bike_id":"359c0f3a-4e42-42b5-8ca9-4a59256db590","system_id":"levelo_inurba_marseille","lat":43.29282,"lon":5.38436,"is_reserved":false,"is_disabled":false,"rental_uris":{"android":"levelo://app?vid=359c0f3a-4e42-42b5-8ca9-4a59256db590","ios":"levelo://app?vid=359c0f3a-4e42-42b5-8ca9-4a59256db590"},"vehicle_type_id":"4","last_reported":1762376996,"current_range_meters":11200,"station_id":"ce4bh692rcd13ifvqea0","pricing_plan_id":"cebpf4jnsgd1na2vs0mg"},{"bike_id":"7d3970d1-867f-475a-9a45-df4ed15d4122","system_id":"levelo_inurba_marseille","lat":43.309264,"lon":5.401492,"is_reserved":false,"is_disabled":false,"rental_uris":{"android":"levelo://app?vid=7d3970d1-867f-475a-9a45-df4ed15d4122","ios":"levelo://app?vid=7d3970d1-867f-475a-9a45-df4ed15d4122"},"vehicle_type_id":"4","last_reported":1762376996,"current_range_meters":11200,"station_id":"ce4bgvp2rcd13ifvqct0","pricing_plan_id":"cebpf4jnsgd1na2vs0mg"},{"bike_id":"d3f934d8-97cb-4416-93fd-f748c8c54459","system_id":"levelo_inurba_marseille","lat":43.24391,"lon":5.37044,"is_reserved":false,"is_disabled":false,"rental_uris":{"android":"levelo://app?vid=d3f934d8-97cb-4416-93fd-f748c8c54459","ios":"levelo://app?vid=d3f934d8-97cb-4416-93fd-f748c8c54459"},"vehicle_type_id":"4","last_reported":1762376996,"current_range_meters":11200,"station_id":"ce4bhhh2rcd13ifvqfk0","pricing_plan_id":"cebpf4jnsgd1na2vs0mg"},{"bike_id":"3ea0857b-7a8f-4f15-afce-1bc91a63b9f9","system_id":"levelo_inurba_marseille","lat":43.29026,"lon":5.38634,"is_reserved":false,"is_disabled":false,"rental_uris":{"android":"levelo://app?vid=3ea0857b-7a8f-4f15-afce-1bc91a63b9f9","ios":"levelo://app?vid=3ea0857b-7a8f-4f15-afce-1bc91a63b9f9"},"vehicle_type_id":"4","last_reported":1762376996,"current_range_meters":11200,"station_id":"ce4bh4p2rcd13ifvqe0g","pricing_plan_id":"cebpf4jnsgd1na2vs0mg"},{"bike_id":"f0b05c3c-8d11-4b5c-a3f5-12ecc6a0d47b","system_id":"levelo_inurba_marseille","lat":43.24075,"lon":5.37755,"is_reserved":false,"is_disabled":false,"rental_uris":{"android":"levelo://app?vid=f0b05c3c-8d11-4b5c-a3f5-12ecc6a0d47b","ios":"levelo://app?vid=f0b05c3c-8d11-4b5c-a3f5-12ecc6a0d47b"},"vehicle_type_id":"4","last_reported":1762376996,"current_range_meters":11200,"station_id":"ce4bhnp2rcd13ifvqgvg","pricing_plan_id":"cebpf4jnsgd1na2vs0mg"},{"bike_id":"571bd3a6-912b-44a3-9841-50c558a61481","system_id":"levelo_inurba_marseille","lat":43.28126,"lon":5.40559,"is_reserved":false,"is_disabled":false,"rental_uris":{"android":"levelo://app?vid=571bd3a6-912b-44a3-9841-50c558a61481","ios":"levelo://app?vid=571bd3a6-912b-44a3-9841-50c558a61481"},"vehicle_type_id":"4","last_reported":1762376996,"current_range_meters":11600,"station_id":"","pricing_plan_id":"cebpf4jnsgd1na2vs0mg"},{"bike_id":"6037d43c-99b4-4aee-b7d4-8c97c1b1ae0b","system_id":"levelo_inurba_marseille","lat":43.29262,"lon":5.38432,"is_reserved":false,"is_disabled":false,"rental_uris":{"android":"levelo://app?vid=6037d43c-99b4-4aee-b7d4-8c97c1b1ae0b","ios":"levelo://app?vid=6037d43c-99b4-4aee-b7d4-8c97c1b1ae0b"},"vehicle_type_id":"4","last_reported":1762376996,"current_range_meters":11600,"station_id":"ce4bh692rcd13ifvqea0","pricing_plan_id":"cebpf4jnsgd1na2vs0mg"},{"bike_id":"547244af-9811-43f3-89a5-463f758e281f","system_id":"levelo_inurba_marseille","lat":43.322843,"lon":5.382724,"is_reserved":false,"is_disabled":false,"rental_uris":{"android":"levelo://app?vid=547244af-9811-43f3-89a5-463f758e281f","ios":"levelo://app?vid=547244af-9811-43f3-89a5-463f758e281f"},"vehicle_type_id":"4","last_reported":1762376996,"current_range_meters":11600,"station_id":"ce4bhr12rcd13ifvqhqg","pricing_plan_id":"cebpf4jnsgd1na2vs0mg"},{"bike_id":"aa82f1ce-de3a-44f1-b71c-e2edd10cd370","system_id":"levelo_inurba_marseille","lat":43.27316,"lon":5.39082,"is_reserved":false,"is_disabled":false,"rental_uris":{"android":"levelo://app?vid=aa82f1ce-de3a-44f1-b71c-e2edd10cd370","ios":"levelo://app?vid=aa82f1ce-de3a-44f1-b71c-e2edd10cd370"},"vehicle_type_id":"4","last_reported":1762376996,"current_range_meters":11600,"station_id":"ce4bhgp2rcd13ifvqfe0","pricing_plan_id":"cebpf4jnsgd1na2vs0mg"},{"bike_id":"7dd0a1b1-116d-4fee-bfcb-0eb5c293dfac","system_id":"levelo_inurba_marseille","lat":43.25811,"lon":5.39429,"is_reserved":false,"is_disabled":false,"rental_uris":{"android":"levelo://app?vid=7dd0a1b1-116d-4fee-bfcb-0eb5c293dfac","ios":"levelo://app?vid=7dd0a1b1-116d-4fee-bfcb-0eb5c293dfac"},"vehicle_type_id":"4","last_reported":1762376996,"current_range_meters":11600,"station_id":"ce4bhip2rcd13ifvqft0","pricing_plan_id":"cebpf4jnsgd1na2vs0mg"},{"bike_id":"2d07d582-2fb3-48f9-b27d-8c24c71a7dda","system_id":"levelo_inurba_marseille","lat":43.307981,"lon":5.381527,"is_reserved":false,"is_disabled":false,"rental_uris":{"android":"levelo://app?vid=2d07d582-2fb3-48f9-b27d-8c24c71a7dda","ios":"levelo://app?vid=2d07d582-2fb3-48f9-b27d-8c24c71a7dda"},"vehicle_type_id":"4","last_reported":1762376996,"current_range_meters":12000,"station_id":"ce4bgt12rcd13ifvqce0","pricing_plan_id":"cebpf4jnsgd1na2vs0mg"},{"bike_id":"ab9b2bcc-ea75-449d-adbb-4add292d38c4","system_id":"levelo_inurba_marseille","lat":43.34083,"lon":5.38018,"is_reserved":false,"is_disabled":false,"rental_uris":{"android":"levelo://app?vid=ab9b2bcc-ea75-449d-adbb-4add292d38c4","ios":"levelo://app?vid=ab9b2bcc-ea75-449d-adbb-4add292d38c4"},"vehicle_type_id":"4","last_reported":1762376996,"current_range_meters":12000,"station_id":"","pricing_plan_id":"cebpf4jnsgd1na2vs0mg"},{"bike_id":"4d9b445e-b2f1-4caa-9a1e-bae0beaf3a29","system_id":"levelo_inurba_marseille","lat":43.27067,"lon":5.40258,"is_reserved":false,"is_disabled":false,"rental_uris":{"android":"levelo://app?vid=4d9b445e-b2f1-4caa-9a1e-bae0beaf3a29","ios":"levelo://app?vid=4d9b445e-b2f1-4caa-9a1e-bae0beaf3a29"},"vehicle_type_id":"4","last_reported":1762376996,"current_range_meters":12000,"station_id":"ce4bhk92rcd13ifvqgc0","pricing_plan_id":"cebpf4jnsgd1na2vs0mg"},{"bike_id":"a14c5624-7741-4b9c-8eee-ee3bd63c1df9","system_id":"levelo_inurba_marseille","lat":43.31702,"lon":5.40461,"is_reserved":false,"is_disabled":false,"rental_uris":{"android":"levelo://app?vid=a14c5624-7741-4b9c-8eee-ee3bd63c1df9","ios":"levelo://app?vid=a14c5624-7741-4b9c-8eee-ee3bd63c1df9"},"vehicle_type_id":"4","last_reported":1762376996,"current_range_meters":12400,"station_id":"ce4bh012rcd13ifvqd00","pricing_plan_id":"cebpf4jnsgd1na2vs0mg"},{"bike_id":"ffcfec55-cdea-4496-aac0-fe79e5250c70","system_id":"levelo_inurba_marseille","lat":43.2953,"lon":5.38547,"is_reserved":false,"is_disabled":false,"rental_uris":{"android":"levelo://app?vid=ffcfec55-cdea-4496-aac0-fe79e5250c70","ios":"levelo://app?vid=ffcfec55-cdea-4496-aac0-fe79e5250c70"},"vehicle_type_id":"4","last_reported":1762376996,"current_range_meters":12400,"station_id":"ce4bgih2rcd13ifvqba0","pricing_plan_id":"cebpf4jnsgd1na2vs0mg"},{"bike_id":"48746525-044c-4cab-bf65-562ba4671484","system_id":"levelo_inurba_marseille","lat":43.29779,"lon":5.3934,"is_reserved":false,"is_disabled":false,"rental_uris":{"android":"levelo://app?vid=48746525-044c-4cab-bf65-562ba4671484","ios":"levelo://app?vid=48746525-044c-4cab-bf65-562ba4671484"},"vehicle_type_id":"4","last_reported":1762376996,"current_range_meters":12400,"station_id":"chh1huq6cuj3fo74tm60","pricing_plan_id":"cebpf4jnsgd1na2vs0mg"},{"bike_id":"b8bf2799-1db9-47dd-b7c3-5c4dffca3ddf","system_id":"levelo_inurba_marseille","lat":43.23777,"lon":5.36637,"is_reserved":false,"is_disabled":false,"rental_uris":{"android":"levelo://app?vid=b8bf2799-1db9-47dd-b7c3-5c4dffca3ddf","ios":"levelo://app?vid=b8bf2799-1db9-47dd-b7c3-5c4dffca3ddf"},"vehicle_type_id":"4","last_reported":1762376996,"current_range_meters":12400,"station_id":"st_d3nk18o9ro0c73en2l3g","pricing_plan_id":"cebpf4jnsgd1na2vs0mg"},{"bike_id":"23704d21-dcb4-4524-a0e7-782c68706e98","system_id":"levelo_inurba_marseille","lat":43.2794,"lon":5.41022,"is_reserved":false,"is_disabled":false,"rental_uris":{"android":"levelo://app?vid=23704d21-dcb4-4524-a0e7-782c68706e98","ios":"levelo://app?vid=23704d21-dcb4-4524-a0e7-782c68706e98"},"vehicle_type_id":"4","last_reported":1762376996,"current_range_meters":12400,"station_id":"ce4bhnp2rcd13ifvqh0g","pricing_plan_id":"cebpf4jnsgd1na2vs0mg"},{"bike_id":"709ac22e-2e97-49bc-8ecd-b53546fa35d2","system_id":"levelo_inurba_marseille","lat":43.24661,"lon":5.38146,"is_reserved":false,"is_disabled":false,"rental_uris":{"android":"levelo://app?vid=709ac22e-2e97-49bc-8ecd-b53546fa35d2","ios":"levelo://app?vid=709ac22e-2e97-49bc-8ecd-b53546fa35d2"},"vehicle_type_id":"4","last_reported":1762376996,"current_range_meters":12400,"station_id":"ce4bhih2rcd13ifvqfr0","pricing_plan_id":"cebpf4jnsgd1na2vs0mg"},{"bike_id":"dae30738-204c-4787-a9b5-e056fa94e0c9","system_id":"levelo_inurba_marseille","lat":43.22562,"lon":5.41651,"is_reserved":false,"is_disabled":false,"rental_uris":{"android":"levelo://app?vid=dae30738-204c-4787-a9b5-e056fa94e0c9","ios":"levelo://app?vid=dae30738-204c-4787-a9b5-e056fa94e0c9"},"vehicle_type_id":"4","last_reported":1762376996,"current_range_meters":12400,"station_id":"st_d2o4gvlbi1j2169b742g","pricing_plan_id":"cebpf4jnsgd1na2vs0mg"},{"bike_id":"b78a3f58-aa58-46ec-81b6-5811d8a0dc36","system_id":"levelo_inurba_marseille","lat":43.28943,"lon":5.38377,"is_reserved":false,"is_disabled":false,"rental_uris":{"android":"levelo://app?vid=b78a3f58-aa58-46ec-81b6-5811d8a0dc36","ios":"levelo://app?vid=b78a3f58-aa58-46ec-81b6-5811d8a0dc36"},"vehicle_type_id":"4","last_reported":1762376996,"current_range_meters":12400,"station_id":"ce4bh612rcd13ifvqe6g","pricing_plan_id":"cebpf4jnsgd1na2vs0mg"},{"bike_id":"8db420a7-407a-4cd3-9095-5a8e96625979","system_id":"levelo_inurba_marseille","lat":43.22928,"lon":5.35371,"is_reserved":false,"is_disabled":false,"rental_uris":{"android":"levelo://app?vid=8db420a7-407a-4cd3-9095-5a8e96625979","ios":"levelo://app?vid=8db420a7-407a-4cd3-9095-5a8e96625979"},"vehicle_type_id":"4","last_reported":1762376996,"current_range_meters":12400,"station_id":"cpo3532slgdg3j2ikp40","pricing_plan_id":"cebpf4jnsgd1na2vs0mg"},{"bike_id":"0facae63-4c4b-45e6-ab9c-734ad38e14ce","system_id":"levelo_inurba_marseille","lat":43.28847,"lon":5.35855,"is_reserved":false,"is_disabled":false,"rental_uris":{"android":"levelo://app?vid=0facae63-4c4b-45e6-ab9c-734ad38e14ce","ios":"levelo://app?vid=0facae63-4c4b-45e6-ab9c-734ad38e14ce"},"vehicle_type_id":"4","last_reported":1762376996,"current_range_meters":12400,"station_id":"ce4bhb12rcd13ifvqem0","pricing_plan_id":"cebpf4jnsgd1na2vs0mg"},{"bike_id":"fbb0e081-4435-4da5-b9a4-8d34addaa707","system_id":"levelo_inurba_marseille","lat":43.28492,"lon":5.38416,"is_reserved":false,"is_disabled":false,"rental_uris":{"android":"levelo://app?vid=fbb0e081-4435-4da5-b9a4-8d34addaa707","ios":"levelo://app?vid=fbb0e081-4435-4da5-b9a4-8d34addaa707"},"vehicle_type_id":"4","last_reported":1762376996,"current_range_meters":12800,"station_id":"ce4bh512rcd13ifvqe3g","pricing_plan_id":"cebpf4jnsgd1na2vs0mg"},{"bike_id":"813d84df-d28e-442a-86a4-2693a3f1117d","system_id":"levelo_inurba_marseille","lat":43.23053,"lon":5.35492,"is_reserved":false,"is_disabled":false,"rental_uris":{"android":"levelo://app?vid=813d84df-d28e-442a-86a4-2693a3f1117d","ios":"levelo://app?vid=813d84df-d28e-442a-86a4-2693a3f1117d"},"vehicle_type_id":"4","last_reported":1762376996,"current_range_meters":12800,"station_id":"cpo3342slgdg3j2ifvpg","pricing_plan_id":"cebpf4jnsgd1na2vs0mg"},{"bike_id":"c6d2dafc-fb2c-4b82-8b78-f3d7d347211b","system_id":"levelo_inurba_marseille","lat":43.32351,"lon":5.36706,"is_reserved":false,"is_disabled":false,"rental_uris":{"android":"levelo://app?vid=c6d2dafc-fb2c-4b82-8b78-f3d7d347211b","ios":"levelo://app?vid=c6d2dafc-fb2c-4b82-8b78-f3d7d347211b"},"vehicle_type_id":"4","last_reported":1762376996,"current_range_meters":12800,"station_id":"ce4bhsh2rcd13ifvqi2g","pricing_plan_id":"cebpf4jnsgd1na2vs0mg"},{"bike_id":"13d984c8-48d8-4dfc-aa86-5f78c707cacf","system_id":"levelo_inurba_marseille","lat":43.28034,"lon":5.36929,"is_reserved":false,"is_disabled":true,"rental_uris":{"android":"levelo://app?vid=13d984c8-48d8-4dfc-aa86-5f78c707cacf","ios":"levelo://app?vid=13d984c8-48d8-4dfc-aa86-5f78c707cacf"},"vehicle_type_id":"4","last_reported":1762376996,"current_range_meters":12800,"station_id":"ce4bha12rcd13ifvqef0","pricing_plan_id":"cebpf4jnsgd1na2vs0mg"},{"bike_id":"9985289f-9550-4d33-81df-5625e1f25a02","system_id":"levelo_inurba_marseille","lat":43.24959,"lon":5.40457,"is_reserved":false,"is_disabled":false,"rental_uris":{"android":"levelo://app?vid=9985289f-9550-4d33-81df-5625e1f25a02","ios":"levelo://app?vid=9985289f-9550-4d33-81df-5625e1f25a02"},"vehicle_type_id":"4","last_reported":1762376996,"current_range_meters":12800,"station_id":"st_d2ngiaodas8pm72gd1h0","pricing_plan_id":"cebpf4jnsgd1na2vs0mg"},{"bike_id":"c14b70b2-98d4-4848-a2d9-32722b8d1daf","system_id":"levelo_inurba_marseille","lat":43.318,"lon":5.36816,"is_reserved":false,"is_disabled":false,"rental_uris":{"android":"levelo://app?vid=c14b70b2-98d4-4848-a2d9-32722b8d1daf","ios":"levelo://app?vid=c14b70b2-98d4-4848-a2d9-32722b8d1daf"},"vehicle_type_id":"4","last_reported":1762376996,"current_range_meters":12800,"station_id":"","pricing_plan_id":"cebpf4jnsgd1na2vs0mg"},{"bike_id":"42d2792a-88bd-48e5-afe0-4b6400cd337a","system_id":"levelo_inurba_marseille","lat":43.31676,"lon":5.38207,"is_reserved":false,"is_disabled":false,"rental_uris":{"android":"levelo://app?vid=42d2792a-88bd-48e5-afe0-4b6400cd337a","ios":"levelo://app?vid=42d2792a-88bd-48e5-afe0-4b6400cd337a"},"vehicle_type_id":"4","last_reported":1762376996,"current_range_meters":12800,"station_id":"","pricing_plan_id":"cebpf4jnsgd1na2vs0mg"},{"bike_id":"27346f7c-aaa4-4baa-ad09-fca665d79d4e","system_id":"levelo_inurba_marseille","lat":43.29632,"lon":5.40595,"is_reserved":false,"is_disabled":false,"rental_uris":{"android":"levelo://app?vid=27346f7c-aaa4-4baa-ad09-fca665d79d4e","ios":"levelo://app?vid=27346f7c-aaa4-4baa-ad09-fca665d79d4e"},"vehicle_type_id":"4","last_reported":1762376996,"current_range_meters":12800,"station_id":"ce4bh0h2rcd13ifvqd60","pricing_plan_id":"cebpf4jnsgd1na2vs0mg"},{"bike_id":"8f66d37b-14d2-4b98-a82d-3df5be6e6cb7","system_id":"levelo_inurba_marseille","lat":43.26948,"lon":5.40247,"is_reserved":false,"is_disabled":false,"rental_uris":{"android":"levelo://app?vid=8f66d37b-14d2-4b98-a82d-3df5be6e6cb7","ios":"levelo://app?vid=8f66d37b-14d2-4b98-a82d-3df5be6e6cb7"},"vehicle_type_id":"4","last_reported":1762376996,"current_range_meters":12800,"station_id":"cjm6bp8fraef2m0cb0m0","pricing_plan_id":"cebpf4jnsgd1na2vs0mg"},{"bike_id":"7f3de945-cb50-48c2-bc7a-5328ab329653","system_id":"levelo_inurba_marseille","lat":43.30883,"lon":5.39642,"is_reserved":false,"is_disabled":false,"rental_uris":{"android":"levelo://app?vid=7f3de945-cb50-48c2-bc7a-5328ab329653","ios":"levelo://app?vid=7f3de945-cb50-48c2-bc7a-5328ab329653"},"vehicle_type_id":"4","last_reported":1762376996,"current_range_meters":13600,"station_id":"ce4bh012rcd13ifvqcv0","pricing_plan_id":"cebpf4jnsgd1na2vs0mg"},{"bike_id":"94b06f3e-9c43-404e-899a-d1e48d6d7a76","system_id":"levelo_inurba_marseille","lat":43.287102,"lon":5.399967,"is_reserved":false,"is_disabled":false,"rental_uris":{"android":"levelo://app?vid=94b06f3e-9c43-404e-899a-d1e48d6d7a76","ios":"levelo://app?vid=94b06f3e-9c43-404e-899a-d1e48d6d7a76"},"vehicle_type_id":"4","last_reported":1762376996,"current_range_meters":13600,"station_id":"ce4bho92rcd13ifvqh3g","pricing_plan_id":"cebpf4jnsgd1na2vs0mg"},{"bike_id":"bcb3c39b-ec48-48ef-9eac-eb8b71840959","system_id":"levelo_inurba_marseille","lat":43.33757,"lon":5.37464,"is_reserved":false,"is_disabled":false,"rental_uris":{"android":"levelo://app?vid=bcb3c39b-ec48-48ef-9eac-eb8b71840959","ios":"levelo://app?vid=bcb3c39b-ec48-48ef-9eac-eb8b71840959"},"vehicle_type_id":"4","last_reported":1762376996,"current_range_meters":13600,"station_id":"","pricing_plan_id":"cebpf4jnsgd1na2vs0mg"},{"bike_id":"6ccf1364-0e0e-4337-b02f-1c3739e9a0b1","system_id":"levelo_inurba_marseille","lat":43.29797,"lon":5.40406,"is_reserved":false,"is_disabled":false,"rental_uris":{"android":"levelo://app?vid=6ccf1364-0e0e-4337-b02f-1c3739e9a0b1","ios":"levelo://app?vid=6ccf1364-0e0e-4337-b02f-1c3739e9a0b1"},"vehicle_type_id":"4","last_reported":1762376996,"current_range_meters":13600,"station_id":"ce4bh112rcd13ifvqd90","pricing_plan_id":"cebpf4jnsgd1na2vs0mg"},{"bike_id":"cff64f4e-5f37-43ea-ae7e-1ca574864a38","system_id":"levelo_inurba_marseille","lat":43.32444,"lon":5.42762,"is_reserved":false,"is_disabled":false,"rental_uris":{"android":"levelo://app?vid=cff64f4e-5f37-43ea-ae7e-1ca574864a38","ios":"levelo://app?vid=cff64f4e-5f37-43ea-ae7e-1ca574864a38"},"vehicle_type_id":"4","last_reported":1762376996,"current_range_meters":13600,"station_id":"","pricing_plan_id":"cebpf4jnsgd1na2vs0mg"},{"bike_id":"8d9583f5-13d4-4bd8-9fd0-8797edcf3040","system_id":"levelo_inurba_marseille","lat":43.24387,"lon":5.3707,"is_reserved":false,"is_disabled":false,"rental_uris":{"android":"levelo://app?vid=8d9583f5-13d4-4bd8-9fd0-8797edcf3040","ios":"levelo://app?vid=8d9583f5-13d4-4bd8-9fd0-8797edcf3040"},"vehicle_type_id":"4","last_reported":1762376996,"current_range_meters":13600,"station_id":"ce4bhhh2rcd13ifvqfk0","pricing_plan_id":"cebpf4jnsgd1na2vs0mg"},{"bike_id":"89668189-b95b-43c4-a0b4-cad5f1f90638","system_id":"levelo_inurba_marseille","lat":43.30154,"lon":5.38104,"is_reserved":false,"is_disabled":true,"rental_uris":{"android":"levelo://app?vid=89668189-b95b-43c4-a0b4-cad5f1f90638","ios":"levelo://app?vid=89668189-b95b-43c4-a0b4-cad5f1f90638"},"vehicle_type_id":"4","last_reported":1762376996,"current_range_meters":13600,"station_id":"ce4bgjp2rcd13ifvqbh0","pricing_plan_id":"cebpf4jnsgd1na2vs0mg"},{"bike_id":"d20752a4-2f69-4b65-918b-c3d4244cda15","system_id":"levelo_inurba_marseille","lat":43.29443,"lon":5.39743,"is_reserved":false,"is_disabled":false,"rental_uris":{"android":"levelo://app?vid=d20752a4-2f69-4b65-918b-c3d4244cda15","ios":"levelo://app?vid=d20752a4-2f69-4b65-918b-c3d4244cda15"},"vehicle_type_id":"4","last_reported":1762376996,"current_range_meters":13600,"station_id":"ce4bh3h2rcd13ifvqdo0","pricing_plan_id":"cebpf4jnsgd1na2vs0mg"},{"bike_id":"05494d81-4a86-4ffa-98b4-159d396ed055","system_id":"levelo_inurba_marseille","lat":43.31318,"lon":5.39705,"is_reserved":false,"is_disabled":false,"rental_uris":{"android":"levelo://app?vid=05494d81-4a86-4ffa-98b4-159d396ed055","ios":"levelo://app?vid=05494d81-4a86-4ffa-98b4-159d396ed055"},"vehicle_type_id":"4","last_reported":1762376996,"current_range_meters":13600,"station_id":"ce4bgvp2rcd13ifvqcu0","pricing_plan_id":"cebpf4jnsgd1na2vs0mg"},{"bike_id":"81dcc136-dea2-46c0-98af-42dbdee92b54","system_id":"levelo_inurba_marseille","lat":43.28477,"lon":5.48398,"is_reserved":false,"is_disabled":false,"rental_uris":{"android":"levelo://app?vid=81dcc136-dea2-46c0-98af-42dbdee92b54","ios":"levelo://app?vid=81dcc136-dea2-46c0-98af-42dbdee92b54"},"vehicle_type_id":"4","last_reported":1762376996,"current_range_meters":13600,"station_id":"st_d3svhcjqgbts73a3dn0g","pricing_plan_id":"cebpf4jnsgd1na2vs0mg"},{"bike_id":"a8b22caa-f9d6-41d9-aabf-5c9b8a03f511","system_id":"levelo_inurba_marseille","lat":43.30308,"lon":5.36893,"is_reserved":false,"is_disabled":false,"rental_uris":{"android":"levelo://app?vid=a8b22caa-f9d6-41d9-aabf-5c9b8a03f511","ios":"levelo://app?vid=a8b22caa-f9d6-41d9-aabf-5c9b8a03f511"},"vehicle_type_id":"4","last_reported":1762376996,"current_range_meters":13600,"station_id":"ce4bgqh2rcd13ifvqc5g","pricing_plan_id":"cebpf4jnsgd1na2vs0mg"},{"bike_id":"3c96401f-d3c3-49df-bdca-2c73cef328cb","system_id":"levelo_inurba_marseille","lat":43.27066,"lon":5.40244,"is_reserved":false,"is_disabled":false,"rental_uris":{"android":"levelo://app?vid=3c96401f-d3c3-49df-bdca-2c73cef328cb","ios":"levelo://app?vid=3c96401f-d3c3-49df-bdca-2c73cef328cb"},"vehicle_type_id":"4","last_reported":1762376996,"current_range_meters":13600,"station_id":"ce4bhk92rcd13ifvqgc0","pricing_plan_id":"cebpf4jnsgd1na2vs0mg"},{"bike_id":"d05e3da8-8106-4f59-8bbd-be54a04dadf0","system_id":"levelo_inurba_marseille","lat":43.292582,"lon":5.409119,"is_reserved":false,"is_disabled":false,"rental_uris":{"android":"levelo://app?vid=d05e3da8-8106-4f59-8bbd-be54a04dadf0","ios":"levelo://app?vid=d05e3da8-8106-4f59-8bbd-be54a04dadf0"},"vehicle_type_id":"4","last_reported":1762376996,"current_range_meters":13600,"station_id":"ce4bhih2rcd13ifvqfs0","pricing_plan_id":"cebpf4jnsgd1na2vs0mg"},{"bike_id":"8cf54d33-efb5-4166-8509-df2cb57488b1","system_id":"levelo_inurba_marseille","lat":43.33422,"lon":5.40041,"is_reserved":false,"is_disabled":false,"rental_uris":{"android":"levelo://app?vid=8cf54d33-efb5-4166-8509-df2cb57488b1","ios":"levelo://app?vid=8cf54d33-efb5-4166-8509-df2cb57488b1"},"vehicle_type_id":"4","last_reported":1762376996,"current_range_meters":13600,"station_id":"","pricing_plan_id":"cebpf4jnsgd1na2vs0mg"},{"bike_id":"f85cea3a-16db-4f19-81d2-30ec5c591db6","system_id":"levelo_inurba_marseille","lat":43.29248,"lon":5.38445,"is_reserved":false,"is_disabled":false,"rental_uris":{"android":"levelo://app?vid=f85cea3a-16db-4f19-81d2-30ec5c591db6","ios":"levelo://app?vid=f85cea3a-16db-4f19-81d2-30ec5c591db6"},"vehicle_type_id":"4","last_reported":1762376996,"current_range_meters":14000,"station_id":"ce4bh692rcd13ifvqea0","pricing_plan_id":"cebpf4jnsgd1na2vs0mg"},{"bike_id":"a6010974-670e-49c0-b408-8e5fee4c2775","system_id":"levelo_inurba_marseille","lat":43.241665,"lon":5.363978,"is_reserved":false,"is_disabled":false,"rental_uris":{"android":"levelo://app?vid=a6010974-670e-49c0-b408-8e5fee4c2775","ios":"levelo://app?vid=a6010974-670e-49c0-b408-8e5fee4c2775"},"vehicle_type_id":"4","last_reported":1762376996,"current_range_meters":14000,"station_id":"cpo36qri1sfpv3e86is0","pricing_plan_id":"cebpf4jnsgd1na2vs0mg"},{"bike_id":"045bb8f4-ec8b-4a89-8ce6-2b9d6662460f","system_id":"levelo_inurba_marseille","lat":43.29725,"lon":5.36614,"is_reserved":false,"is_disabled":false,"rental_uris":{"android":"levelo://app?vid=045bb8f4-ec8b-4a89-8ce6-2b9d6662460f","ios":"levelo://app?vid=045bb8f4-ec8b-4a89-8ce6-2b9d6662460f"},"vehicle_type_id":"4","last_reported":1762376996,"current_range_meters":14000,"station_id":"ce4bgn12rcd13ifvqbt0","pricing_plan_id":"cebpf4jnsgd1na2vs0mg"},{"bike_id":"d1dda1a3-56ec-411a-af14-ce9e6583b8d3","system_id":"levelo_inurba_marseille","lat":43.24675,"lon":5.3815,"is_reserved":false,"is_disabled":false,"rental_uris":{"android":"levelo://app?vid=d1dda1a3-56ec-411a-af14-ce9e6583b8d3","ios":"levelo://app?vid=d1dda1a3-56ec-411a-af14-ce9e6583b8d3"},"vehicle_type_id":"4","last_reported":1762376996,"current_range_meters":14000,"station_id":"ce4bhih2rcd13ifvqfr0","pricing_plan_id":"cebpf4jnsgd1na2vs0mg"},{"bike_id":"945e96b7-fc8b-4042-b636-1cb46e8c6c47","system_id":"levelo_inurba_marseille","lat":43.309022,"lon":5.371692,"is_reserved":false,"is_disabled":false,"rental_uris":{"android":"levelo://app?vid=945e96b7-fc8b-4042-b636-1cb46e8c6c47","ios":"levelo://app?vid=945e96b7-fc8b-4042-b636-1cb46e8c6c47"},"vehicle_type_id":"4","last_reported":1762376996,"current_range_meters":14000,"station_id":"ce4bguh2rcd13ifvqckg","pricing_plan_id":"cebpf4jnsgd1na2vs0mg"},{"bike_id":"3e81bf36-faf4-4e92-a298-59ad03e189f4","system_id":"levelo_inurba_marseille","lat":43.27995,"lon":5.41674,"is_reserved":false,"is_disabled":false,"rental_uris":{"android":"levelo://app?vid=3e81bf36-faf4-4e92-a298-59ad03e189f4","ios":"levelo://app?vid=3e81bf36-faf4-4e92-a298-59ad03e189f4"},"vehicle_type_id":"4","last_reported":1762376996,"current_range_meters":14000,"station_id":"ce4bho12rcd13ifvqh1g","pricing_plan_id":"cebpf4jnsgd1na2vs0mg"},{"bike_id":"c259e04f-30ae-4004-813c-bfcf3bba2dbc","system_id":"levelo_inurba_marseille","lat":43.28192,"lon":5.39057,"is_reserved":false,"is_disabled":false,"rental_uris":{"android":"levelo://app?vid=c259e04f-30ae-4004-813c-bfcf3bba2dbc","ios":"levelo://app?vid=c259e04f-30ae-4004-813c-bfcf3bba2dbc"},"vehicle_type_id":"4","last_reported":1762376996,"current_range_meters":14000,"station_id":"ce4bhn92rcd13ifvqgsg","pricing_plan_id":"cebpf4jnsgd1na2vs0mg"},{"bike_id":"27aefe03-bbd2-43d3-8d72-3a7105da9194","system_id":"levelo_inurba_marseille","lat":43.31356,"lon":5.37911,"is_reserved":false,"is_disabled":false,"rental_uris":{"android":"levelo://app?vid=27aefe03-bbd2-43d3-8d72-3a7105da9194","ios":"levelo://app?vid=27aefe03-bbd2-43d3-8d72-3a7105da9194"},"vehicle_type_id":"4","last_reported":1762376996,"current_range_meters":14000,"station_id":"","pricing_plan_id":"cebpf4jnsgd1na2vs0mg"},{"bike_id":"ef63b2c1-0567-468a-bace-e953912673fa","system_id":"levelo_inurba_marseille","lat":43.28465,"lon":5.35883,"is_reserved":false,"is_disabled":false,"rental_uris":{"android":"levelo://app?vid=ef63b2c1-0567-468a-bace-e953912673fa","ios":"levelo://app?vid=ef63b2c1-0567-468a-bace-e953912673fa"},"vehicle_type_id":"4","last_reported":1762376996,"current_range_meters":14000,"station_id":"ce4bhah2rcd13ifvqei0","pricing_plan_id":"cebpf4jnsgd1na2vs0mg"},{"bike_id":"96b4cd95-0798-4658-a16e-53e5a0fbc980","system_id":"levelo_inurba_marseille","lat":43.23154,"lon":5.43708,"is_reserved":false,"is_disabled":false,"rental_uris":{"android":"levelo://app?vid=96b4cd95-0798-4658-a16e-53e5a0fbc980","ios":"levelo://app?vid=96b4cd95-0798-4658-a16e-53e5a0fbc980"},"vehicle_type_id":"4","last_reported":1762376996,"current_range_meters":14000,"station_id":"ce4bhmp2rcd13ifvqgog","pricing_plan_id":"cebpf4jnsgd1na2vs0mg"},{"bike_id":"dcd7cc05-09ca-451c-b5c3-aec30ed844a3","system_id":"levelo_inurba_marseille","lat":43.29381,"lon":5.39868,"is_reserved":false,"is_disabled":false,"rental_uris":{"android":"levelo://app?vid=dcd7cc05-09ca-451c-b5c3-aec30ed844a3","ios":"levelo://app?vid=dcd7cc05-09ca-451c-b5c3-aec30ed844a3"},"vehicle_type_id":"4","last_reported":1762376996,"current_range_meters":14400,"station_id":"","pricing_plan_id":"cebpf4jnsgd1na2vs0mg"},{"bike_id":"4d1966fe-6fb3-4ba6-8a4d-b7b6cbb644e5","system_id":"levelo_inurba_marseille","lat":43.27425,"lon":5.39429,"is_reserved":false,"is_disabled":false,"rental_uris":{"android":"levelo://app?vid=4d1966fe-6fb3-4ba6-8a4d-b7b6cbb644e5","ios":"levelo://app?vid=4d1966fe-6fb3-4ba6-8a4d-b7b6cbb644e5"},"vehicle_type_id":"4","last_reported":1762376996,"current_range_meters":14400,"station_id":"ce4bhdp2rcd13ifvqf20","pricing_plan_id":"cebpf4jnsgd1na2vs0mg"},{"bike_id":"72d6d1aa-ee60-4366-a03f-3d0244ccfd08","system_id":"levelo_inurba_marseille","lat":43.28838,"lon":5.39326,"is_reserved":false,"is_disabled":true,"rental_uris":{"android":"levelo://app?vid=72d6d1aa-ee60-4366-a03f-3d0244ccfd08","ios":"levelo://app?vid=72d6d1aa-ee60-4366-a03f-3d0244ccfd08"},"vehicle_type_id":"4","last_reported":1762376996,"current_range_meters":14400,"station_id":"ce4bh2p2rcd13ifvqdi0","pricing_plan_id":"cebpf4jnsgd1na2vs0mg"},{"bike_id":"07f5d945-0a2b-4d3e-8d40-c91ebaa88b83","system_id":"levelo_inurba_marseille","lat":43.29269,"lon":5.37629,"is_reserved":false,"is_disabled":false,"rental_uris":{"android":"levelo://app?vid=07f5d945-0a2b-4d3e-8d40-c91ebaa88b83","ios":"levelo://app?vid=07f5d945-0a2b-4d3e-8d40-c91ebaa88b83"},"vehicle_type_id":"4","last_reported":1762376996,"current_range_meters":14400,"station_id":"ce4bgi12rcd13ifvqb80","pricing_plan_id":"cebpf4jnsgd1na2vs0mg"},{"bike_id":"c0462bdf-2858-4914-a377-421987398d1e","system_id":"levelo_inurba_marseille","lat":43.30107,"lon":5.43103,"is_reserved":false,"is_disabled":false,"rental_uris":{"android":"levelo://app?vid=c0462bdf-2858-4914-a377-421987398d1e","ios":"levelo://app?vid=c0462bdf-2858-4914-a377-421987398d1e"},"vehicle_type_id":"4","last_reported":1762376996,"current_range_meters":14400,"station_id":"st_d3js3co5814s73ftftug","pricing_plan_id":"cebpf4jnsgd1na2vs0mg"},{"bike_id":"eae235d5-3e68-4694-9a71-cfe15ffb411b","system_id":"levelo_inurba_marseille","lat":43.26951,"lon":5.38635,"is_reserved":false,"is_disabled":false,"rental_uris":{"android":"levelo://app?vid=eae235d5-3e68-4694-9a71-cfe15ffb411b","ios":"levelo://app?vid=eae235d5-3e68-4694-9a71-cfe15ffb411b"},"vehicle_type_id":"4","last_reported":1762376996,"current_range_meters":14400,"station_id":"ce4bhh92rcd13ifvqfh0","pricing_plan_id":"cebpf4jnsgd1na2vs0mg"},{"bike_id":"bda62a0d-e285-4468-a90a-40c415b7cc05","system_id":"levelo_inurba_marseille","lat":43.27318,"lon":5.39073,"is_reserved":false,"is_disabled":false,"rental_uris":{"android":"levelo://app?vid=bda62a0d-e285-4468-a90a-40c415b7cc05","ios":"levelo://app?vid=bda62a0d-e285-4468-a90a-40c415b7cc05"},"vehicle_type_id":"4","last_reported":1762376996,"current_range_meters":14400,"station_id":"ce4bhgp2rcd13ifvqfe0","pricing_plan_id":"cebpf4jnsgd1na2vs0mg"},{"bike_id":"4e79c522-f4bd-46f8-8386-5e0b44276970","system_id":"levelo_inurba_marseille","lat":43.28653,"lon":5.3635,"is_reserved":false,"is_disabled":false,"rental_uris":{"android":"levelo://app?vid=4e79c522-f4bd-46f8-8386-5e0b44276970","ios":"levelo://app?vid=4e79c522-f4bd-46f8-8386-5e0b44276970"},"vehicle_type_id":"4","last_reported":1762376996,"current_range_meters":14800,"station_id":"ce4bhah2rcd13ifvqej0","pricing_plan_id":"cebpf4jnsgd1na2vs0mg"},{"bike_id":"5f5834f2-63a4-4ccd-a67d-e11f0dbffac2","system_id":"levelo_inurba_marseille","lat":43.23177,"lon":5.39988,"is_reserved":false,"is_disabled":false,"rental_uris":{"android":"levelo://app?vid=5f5834f2-63a4-4ccd-a67d-e11f0dbffac2","ios":"levelo://app?vid=5f5834f2-63a4-4ccd-a67d-e11f0dbffac2"},"vehicle_type_id":"4","last_reported":1762376996,"current_range_meters":14800,"station_id":"ce4bhn12rcd13ifvqgqg","pricing_plan_id":"cebpf4jnsgd1na2vs0mg"},{"bike_id":"34766c65-aa4c-4509-be73-0e560cece71b","system_id":"levelo_inurba_marseille","lat":43.269294,"lon":5.40261,"is_reserved":false,"is_disabled":false,"rental_uris":{"android":"levelo://app?vid=34766c65-aa4c-4509-be73-0e560cece71b","ios":"levelo://app?vid=34766c65-aa4c-4509-be73-0e560cece71b"},"vehicle_type_id":"4","last_reported":1762376996,"current_range_meters":14800,"station_id":"cjm6bp8fraef2m0cb0m0","pricing_plan_id":"cebpf4jnsgd1na2vs0mg"},{"bike_id":"8cbfebfc-6d68-4b68-8270-d866ef29a005","system_id":"levelo_inurba_marseille","lat":43.295288,"lon":5.385316,"is_reserved":false,"is_disabled":false,"rental_uris":{"android":"levelo://app?vid=8cbfebfc-6d68-4b68-8270-d866ef29a005","ios":"levelo://app?vid=8cbfebfc-6d68-4b68-8270-d866ef29a005"},"vehicle_type_id":"4","last_reported":1762376996,"current_range_meters":14800,"station_id":"ce4bgih2rcd13ifvqba0","pricing_plan_id":"cebpf4jnsgd1na2vs0mg"},{"bike_id":"d003dd43-341c-4d5c-a6f7-c9637153b2a6","system_id":"levelo_inurba_marseille","lat":43.29532,"lon":5.38529,"is_reserved":false,"is_disabled":false,"rental_uris":{"android":"levelo://app?vid=d003dd43-341c-4d5c-a6f7-c9637153b2a6","ios":"levelo://app?vid=d003dd43-341c-4d5c-a6f7-c9637153b2a6"},"vehicle_type_id":"4","last_reported":1762376996,"current_range_meters":14800,"station_id":"ce4bgih2rcd13ifvqba0","pricing_plan_id":"cebpf4jnsgd1na2vs0mg"},{"bike_id":"d77a88e5-20b9-4fe1-89df-69baec122738","system_id":"levelo_inurba_marseille","lat":43.29748,"lon":5.38075,"is_reserved":false,"is_disabled":false,"rental_uris":{"android":"levelo://app?vid=d77a88e5-20b9-4fe1-89df-69baec122738","ios":"levelo://app?vid=d77a88e5-20b9-4fe1-89df-69baec122738"},"vehicle_type_id":"4","last_reported":1762376996,"current_range_meters":15200,"station_id":"","pricing_plan_id":"cebpf4jnsgd1na2vs0mg"},{"bike_id":"929999a6-b071-4278-81b4-e68a96607eec","system_id":"levelo_inurba_marseille","lat":43.24075,"lon":5.3775,"is_reserved":false,"is_disabled":false,"rental_uris":{"android":"levelo://app?vid=929999a6-b071-4278-81b4-e68a96607eec","ios":"levelo://app?vid=929999a6-b071-4278-81b4-e68a96607eec"},"vehicle_type_id":"4","last_reported":1762376996,"current_range_meters":15200,"station_id":"ce4bhnp2rcd13ifvqgvg","pricing_plan_id":"cebpf4jnsgd1na2vs0mg"},{"bike_id":"3cf19423-4f24-4709-adcb-e1ca70cf4cef","system_id":"levelo_inurba_marseille","lat":43.317,"lon":5.40454,"is_reserved":false,"is_disabled":true,"rental_uris":{"android":"levelo://app?vid=3cf19423-4f24-4709-adcb-e1ca70cf4cef","ios":"levelo://app?vid=3cf19423-4f24-4709-adcb-e1ca70cf4cef"},"vehicle_type_id":"4","last_reported":1762376996,"current_range_meters":16000,"station_id":"ce4bh012rcd13ifvqd00","pricing_plan_id":"cebpf4jnsgd1na2vs0mg"},{"bike_id":"376d879c-b18b-4d8c-8432-51ed24b99976","system_id":"levelo_inurba_marseille","lat":43.268053,"lon":5.402702,"is_reserved":false,"is_disabled":false,"rental_uris":{"android":"levelo://app?vid=376d879c-b18b-4d8c-8432-51ed24b99976","ios":"levelo://app?vid=376d879c-b18b-4d8c-8432-51ed24b99976"},"vehicle_type_id":"4","last_reported":1762376996,"current_range_meters":16000,"station_id":"ce501612rcd8frsf0b60","pricing_plan_id":"cebpf4jnsgd1na2vs0mg"},{"bike_id":"f2485a7b-3f7a-46b5-9ff2-5f7822ffb6d4","system_id":"levelo_inurba_marseille","lat":43.29618,"lon":5.38109,"is_reserved":false,"is_disabled":false,"rental_uris":{"android":"levelo://app?vid=f2485a7b-3f7a-46b5-9ff2-5f7822ffb6d4","ios":"levelo://app?vid=f2485a7b-3f7a-46b5-9ff2-5f7822ffb6d4"},"vehicle_type_id":"4","last_reported":1762376996,"current_range_meters":16000,"station_id":"ce4bgl12rcd13ifvqbo0","pricing_plan_id":"cebpf4jnsgd1na2vs0mg"},{"bike_id":"332ea5f8-d8ad-4878-bba6-2a32605882e6","system_id":"levelo_inurba_marseille","lat":43.32096,"lon":5.36765,"is_reserved":false,"is_disabled":false,"rental_uris":{"android":"levelo://app?vid=332ea5f8-d8ad-4878-bba6-2a32605882e6","ios":"levelo://app?vid=332ea5f8-d8ad-4878-bba6-2a32605882e6"},"vehicle_type_id":"4","last_reported":1762376996,"current_range_meters":16000,"station_id":"ce4bhrh2rcd13ifvqhug","pricing_plan_id":"cebpf4jnsgd1na2vs0mg"},{"bike_id":"8034a879-28b4-4b55-ad1e-4954b7ceb79c","system_id":"levelo_inurba_marseille","lat":43.27327,"lon":5.39097,"is_reserved":false,"is_disabled":false,"rental_uris":{"android":"levelo://app?vid=8034a879-28b4-4b55-ad1e-4954b7ceb79c","ios":"levelo://app?vid=8034a879-28b4-4b55-ad1e-4954b7ceb79c"},"vehicle_type_id":"4","last_reported":1762376996,"current_range_meters":16000,"station_id":"ce4bhgp2rcd13ifvqfe0","pricing_plan_id":"cebpf4jnsgd1na2vs0mg"},{"bike_id":"4fc2fb31-b8cd-4689-8fe0-13a150d676c2","system_id":"levelo_inurba_marseille","lat":43.30135,"lon":5.37407,"is_reserved":false,"is_disabled":false,"rental_uris":{"android":"levelo://app?vid=4fc2fb31-b8cd-4689-8fe0-13a150d676c2","ios":"levelo://app?vid=4fc2fb31-b8cd-4689-8fe0-13a150d676c2"},"vehicle_type_id":"4","last_reported":1762376996,"current_range_meters":16000,"station_id":"ce4bgs92rcd13ifvqcc0","pricing_plan_id":"cebpf4jnsgd1na2vs0mg"},{"bike_id":"f64bf7d2-5fd8-4fa3-b324-dc5fa9e2df5d","system_id":"levelo_inurba_marseille","lat":43.29593,"lon":5.385,"is_reserved":false,"is_disabled":false,"rental_uris":{"android":"levelo://app?vid=f64bf7d2-5fd8-4fa3-b324-dc5fa9e2df5d","ios":"levelo://app?vid=f64bf7d2-5fd8-4fa3-b324-dc5fa9e2df5d"},"vehicle_type_id":"4","last_reported":1762376996,"current_range_meters":16000,"station_id":"","pricing_plan_id":"cebpf4jnsgd1na2vs0mg"},{"bike_id":"3ffe2c7b-f27f-49bd-95c3-0ecfbf0880d2","system_id":"levelo_inurba_marseille","lat":43.30702,"lon":5.38427,"is_reserved":false,"is_disabled":false,"rental_uris":{"android":"levelo://app?vid=3ffe2c7b-f27f-49bd-95c3-0ecfbf0880d2","ios":"levelo://app?vid=3ffe2c7b-f27f-49bd-95c3-0ecfbf0880d2"},"vehicle_type_id":"4","last_reported":1762376996,"current_range_meters":16000,"station_id":"","pricing_plan_id":"cebpf4jnsgd1na2vs0mg"},{"bike_id":"ddeaa719-beea-4500-8aff-3836fff83949","system_id":"levelo_inurba_marseille","lat":43.3127,"lon":5.46751,"is_reserved":false,"is_disabled":false,"rental_uris":{"android":"levelo://app?vid=ddeaa719-beea-4500-8aff-3836fff83949","ios":"levelo://app?vid=ddeaa719-beea-4500-8aff-3836fff83949"},"vehicle_type_id":"4","last_reported":1762376996,"current_range_meters":16000,"station_id":"","pricing_plan_id":"cebpf4jnsgd1na2vs0mg"},{"bike_id":"875a3665-be66-4c3b-858e-c3a0556abb6f","system_id":"levelo_inurba_marseille","lat":43.28726,"lon":5.36089,"is_reserved":false,"is_disabled":false,"rental_uris":{"android":"levelo://app?vid=875a3665-be66-4c3b-858e-c3a0556abb6f","ios":"levelo://app?vid=875a3665-be66-4c3b-858e-c3a0556abb6f"},"vehicle_type_id":"4","last_reported":1762376996,"current_range_meters":16000,"station_id":"cki0cbj6b192h4jlfktg","pricing_plan_id":"cebpf4jnsgd1na2vs0mg"},{"bike_id":"1408f0a7-7481-4aea-8107-d2ac14019497","system_id":"levelo_inurba_marseille","lat":43.29538,"lon":5.38537,"is_reserved":false,"is_disabled":false,"rental_uris":{"android":"levelo://app?vid=1408f0a7-7481-4aea-8107-d2ac14019497","ios":"levelo://app?vid=1408f0a7-7481-4aea-8107-d2ac14019497"},"vehicle_type_id":"4","last_reported":1762376996,"current_range_meters":16000,"station_id":"ce4bgih2rcd13ifvqba0","pricing_plan_id":"cebpf4jnsgd1na2vs0mg"},{"bike_id":"f771dd9e-6987-4a39-b9db-c59062bb4690","system_id":"levelo_inurba_marseille","lat":43.28104,"lon":5.37843,"is_reserved":false,"is_disabled":false,"rental_uris":{"android":"levelo://app?vid=f771dd9e-6987-4a39-b9db-c59062bb4690","ios":"levelo://app?vid=f771dd9e-6987-4a39-b9db-c59062bb4690"},"vehicle_type_id":"4","last_reported":1762376996,"current_range_meters":16400,"station_id":"ce4bha12rcd13ifvqee0","pricing_plan_id":"cebpf4jnsgd1na2vs0mg"},{"bike_id":"5ab85982-349e-46bb-839e-acd0acd5e9fd","system_id":"levelo_inurba_marseille","lat":43.30457,"lon":5.37909,"is_reserved":false,"is_disabled":false,"rental_uris":{"android":"levelo://app?vid=5ab85982-349e-46bb-839e-acd0acd5e9fd","ios":"levelo://app?vid=5ab85982-349e-46bb-839e-acd0acd5e9fd"},"vehicle_type_id":"4","last_reported":1762376996,"current_range_meters":16400,"station_id":"ce4bgup2rcd13ifvqcn0","pricing_plan_id":"cebpf4jnsgd1na2vs0mg"},{"bike_id":"ccd2d4ad-b89e-4185-a70c-2c3d93f76466","system_id":"levelo_inurba_marseille","lat":43.28263,"lon":5.35066,"is_reserved":false,"is_disabled":false,"rental_uris":{"android":"levelo://app?vid=ccd2d4ad-b89e-4185-a70c-2c3d93f76466","ios":"levelo://app?vid=ccd2d4ad-b89e-4185-a70c-2c3d93f76466"},"vehicle_type_id":"4","last_reported":1762376996,"current_range_meters":16400,"station_id":"ce4bhbp2rcd13ifvqerg","pricing_plan_id":"cebpf4jnsgd1na2vs0mg"},{"bike_id":"1630b2ec-950a-417d-ae10-91104c051d51","system_id":"levelo_inurba_marseille","lat":43.27818,"lon":5.40714,"is_reserved":false,"is_disabled":false,"rental_uris":{"android":"levelo://app?vid=1630b2ec-950a-417d-ae10-91104c051d51","ios":"levelo://app?vid=1630b2ec-950a-417d-ae10-91104c051d51"},"vehicle_type_id":"4","last_reported":1762376996,"current_range_meters":16400,"station_id":"ce4bhnh2rcd13ifvqgtg","pricing_plan_id":"cebpf4jnsgd1na2vs0mg"},{"bike_id":"6dd7766c-38c3-45a4-b565-eeac613cc87d","system_id":"levelo_inurba_marseille","lat":43.26918,"lon":5.40267,"is_reserved":false,"is_disabled":false,"rental_uris":{"android":"levelo://app?vid=6dd7766c-38c3-45a4-b565-eeac613cc87d","ios":"levelo://app?vid=6dd7766c-38c3-45a4-b565-eeac613cc87d"},"vehicle_type_id":"4","last_reported":1762376996,"current_range_meters":16400,"station_id":"cjm6bp8fraef2m0cb0m0","pricing_plan_id":"cebpf4jnsgd1na2vs0mg"},{"bike_id":"797d9df9-6718-446b-a0b8-c309a8c856d3","system_id":"levelo_inurba_marseille","lat":43.27331,"lon":5.39116,"is_reserved":false,"is_disabled":false,"rental_uris":{"android":"levelo://app?vid=797d9df9-6718-446b-a0b8-c309a8c856d3","ios":"levelo://app?vid=797d9df9-6718-446b-a0b8-c309a8c856d3"},"vehicle_type_id":"4","last_reported":1762376996,"current_range_meters":16400,"station_id":"ce4bhgp2rcd13ifvqfe0","pricing_plan_id":"cebpf4jnsgd1na2vs0mg"},{"bike_id":"c174055a-5793-4272-ab43-bc9c47647071","system_id":"levelo_inurba_marseille","lat":43.29021,"lon":5.38615,"is_reserved":false,"is_disabled":false,"rental_uris":{"android":"levelo://app?vid=c174055a-5793-4272-ab43-bc9c47647071","ios":"levelo://app?vid=c174055a-5793-4272-ab43-bc9c47647071"},"vehicle_type_id":"4","last_reported":1762376996,"current_range_meters":16400,"station_id":"ce4bh4p2rcd13ifvqe0g","pricing_plan_id":"cebpf4jnsgd1na2vs0mg"},{"bike_id":"72d9b066-8204-4a93-ab30-ec5ee4ecbda0","system_id":"levelo_inurba_marseille","lat":43.26511,"lon":5.39549,"is_reserved":false,"is_disabled":false,"rental_uris":{"android":"levelo://app?vid=72d9b066-8204-4a93-ab30-ec5ee4ecbda0","ios":"levelo://app?vid=72d9b066-8204-4a93-ab30-ec5ee4ecbda0"},"vehicle_type_id":"4","last_reported":1762376996,"current_range_meters":16400,"station_id":"ce4bhi12rcd13ifvqfq0","pricing_plan_id":"cebpf4jnsgd1na2vs0mg"},{"bike_id":"395fb6c2-4762-4e6f-ad69-14a5e669129c","system_id":"levelo_inurba_marseille","lat":43.29529,"lon":5.38537,"is_reserved":false,"is_disabled":false,"rental_uris":{"android":"levelo://app?vid=395fb6c2-4762-4e6f-ad69-14a5e669129c","ios":"levelo://app?vid=395fb6c2-4762-4e6f-ad69-14a5e669129c"},"vehicle_type_id":"4","last_reported":1762376996,"current_range_meters":16400,"station_id":"ce4bgih2rcd13ifvqba0","pricing_plan_id":"cebpf4jnsgd1na2vs0mg"},{"bike_id":"fb6bee9e-dff2-4e66-b653-8280ae7aa37e","system_id":"levelo_inurba_marseille","lat":43.27939,"lon":5.38692,"is_reserved":false,"is_disabled":false,"rental_uris":{"android":"levelo://app?vid=fb6bee9e-dff2-4e66-b653-8280ae7aa37e","ios":"levelo://app?vid=fb6bee9e-dff2-4e66-b653-8280ae7aa37e"},"vehicle_type_id":"4","last_reported":1762376996,"current_range_meters":16400,"station_id":"ce4bhg12rcd13ifvqf80","pricing_plan_id":"cebpf4jnsgd1na2vs0mg"},{"bike_id":"ca2b7fb0-6095-44a0-b632-f707e4bdd9f1","system_id":"levelo_inurba_marseille","lat":43.26194,"lon":5.37451,"is_reserved":false,"is_disabled":false,"rental_uris":{"android":"levelo://app?vid=ca2b7fb0-6095-44a0-b632-f707e4bdd9f1","ios":"levelo://app?vid=ca2b7fb0-6095-44a0-b632-f707e4bdd9f1"},"vehicle_type_id":"4","last_reported":1762376996,"current_range_meters":16400,"station_id":"ce4bhgp2rcd13ifvqfc0","pricing_plan_id":"cebpf4jnsgd1na2vs0mg"},{"bike_id":"16e016b5-b049-4c6d-872a-b0101fa02820","system_id":"levelo_inurba_marseille","lat":43.27313,"lon":5.39133,"is_reserved":false,"is_disabled":false,"rental_uris":{"android":"levelo://app?vid=16e016b5-b049-4c6d-872a-b0101fa02820","ios":"levelo://app?vid=16e016b5-b049-4c6d-872a-b0101fa02820"},"vehicle_type_id":"4","last_reported":1762376996,"current_range_meters":16400,"station_id":"","pricing_plan_id":"cebpf4jnsgd1na2vs0mg"},{"bike_id":"f49c496b-13b0-4a34-a95f-399924b97a9b","system_id":"levelo_inurba_marseille","lat":43.29521,"lon":5.38539,"is_reserved":false,"is_disabled":false,"rental_uris":{"android":"levelo://app?vid=f49c496b-13b0-4a34-a95f-399924b97a9b","ios":"levelo://app?vid=f49c496b-13b0-4a34-a95f-399924b97a9b"},"vehicle_type_id":"4","last_reported":1762376996,"current_range_meters":16800,"station_id":"ce4bgih2rcd13ifvqba0","pricing_plan_id":"cebpf4jnsgd1na2vs0mg"},{"bike_id":"4d4b8b96-a912-406c-9e11-78bbaf181b71","system_id":"levelo_inurba_marseille","lat":43.24194,"lon":5.39724,"is_reserved":false,"is_disabled":false,"rental_uris":{"android":"levelo://app?vid=4d4b8b96-a912-406c-9e11-78bbaf181b71","ios":"levelo://app?vid=4d4b8b96-a912-406c-9e11-78bbaf181b71"},"vehicle_type_id":"4","last_reported":1762376996,"current_range_meters":16800,"station_id":"ce4bhn12rcd13ifvqgpg","pricing_plan_id":"cebpf4jnsgd1na2vs0mg"},{"bike_id":"4ecf475d-a1f1-4e6a-a935-7d391575be45","system_id":"levelo_inurba_marseille","lat":43.30799,"lon":5.38176,"is_reserved":false,"is_disabled":false,"rental_uris":{"android":"levelo://app?vid=4ecf475d-a1f1-4e6a-a935-7d391575be45","ios":"levelo://app?vid=4ecf475d-a1f1-4e6a-a935-7d391575be45"},"vehicle_type_id":"4","last_reported":1762376996,"current_range_meters":16800,"station_id":"ce4bgt12rcd13ifvqce0","pricing_plan_id":"cebpf4jnsgd1na2vs0mg"},{"bike_id":"4409e8e6-e2b1-45fd-ac80-4ccdb4f82c11","system_id":"levelo_inurba_marseille","lat":43.31096,"lon":5.42416,"is_reserved":false,"is_disabled":false,"rental_uris":{"android":"levelo://app?vid=4409e8e6-e2b1-45fd-ac80-4ccdb4f82c11","ios":"levelo://app?vid=4409e8e6-e2b1-45fd-ac80-4ccdb4f82c11"},"vehicle_type_id":"4","last_reported":1762376996,"current_range_meters":16800,"station_id":"ce4bhp92rcd13ifvqhag","pricing_plan_id":"cebpf4jnsgd1na2vs0mg"},{"bike_id":"a715c0ef-3857-414c-967a-b5d1a542eb13","system_id":"levelo_inurba_marseille","lat":43.224571,"lon":5.347186,"is_reserved":false,"is_disabled":false,"rental_uris":{"android":"levelo://app?vid=a715c0ef-3857-414c-967a-b5d1a542eb13","ios":"levelo://app?vid=a715c0ef-3857-414c-967a-b5d1a542eb13"},"vehicle_type_id":"4","last_reported":1762376996,"current_range_meters":16800,"station_id":"","pricing_plan_id":"cebpf4jnsgd1na2vs0mg"},{"bike_id":"68c0e971-221a-4fdb-9405-e66c64612e18","system_id":"levelo_inurba_marseille","lat":43.29269,"lon":5.38431,"is_reserved":false,"is_disabled":false,"rental_uris":{"android":"levelo://app?vid=68c0e971-221a-4fdb-9405-e66c64612e18","ios":"levelo://app?vid=68c0e971-221a-4fdb-9405-e66c64612e18"},"vehicle_type_id":"4","last_reported":1762376996,"current_range_meters":16800,"station_id":"ce4bh692rcd13ifvqea0","pricing_plan_id":"cebpf4jnsgd1na2vs0mg"},{"bike_id":"815f6c5e-c259-40bc-a2f0-13fb20795193","system_id":"levelo_inurba_marseille","lat":43.24057,"lon":5.37769,"is_reserved":false,"is_disabled":false,"rental_uris":{"android":"levelo://app?vid=815f6c5e-c259-40bc-a2f0-13fb20795193","ios":"levelo://app?vid=815f6c5e-c259-40bc-a2f0-13fb20795193"},"vehicle_type_id":"4","last_reported":1762376996,"current_range_meters":16800,"station_id":"ce4bhnp2rcd13ifvqgvg","pricing_plan_id":"cebpf4jnsgd1na2vs0mg"},{"bike_id":"59b31ef2-3fe3-46e5-b5a5-685f264695ce","system_id":"levelo_inurba_marseille","lat":43.28478,"lon":5.48386,"is_reserved":false,"is_disabled":false,"rental_uris":{"android":"levelo://app?vid=59b31ef2-3fe3-46e5-b5a5-685f264695ce","ios":"levelo://app?vid=59b31ef2-3fe3-46e5-b5a5-685f264695ce"},"vehicle_type_id":"4","last_reported":1762376996,"current_range_meters":16800,"station_id":"st_d3svhcjqgbts73a3dn0g","pricing_plan_id":"cebpf4jnsgd1na2vs0mg"},{"bike_id":"8c8245c6-a05e-4d5c-b901-53333eca16fc","system_id":"levelo_inurba_marseille","lat":43.22571,"lon":5.41622,"is_reserved":false,"is_disabled":false,"rental_uris":{"android":"levelo://app?vid=8c8245c6-a05e-4d5c-b901-53333eca16fc","ios":"levelo://app?vid=8c8245c6-a05e-4d5c-b901-53333eca16fc"},"vehicle_type_id":"4","last_reported":1762376996,"current_range_meters":16800,"station_id":"st_d2o4gvlbi1j2169b742g","pricing_plan_id":"cebpf4jnsgd1na2vs0mg"},{"bike_id":"65d83eaf-428a-43cd-a356-ecaed95948ff","system_id":"levelo_inurba_marseille","lat":43.24846,"lon":5.39775,"is_reserved":false,"is_disabled":false,"rental_uris":{"android":"levelo://app?vid=65d83eaf-428a-43cd-a356-ecaed95948ff","ios":"levelo://app?vid=65d83eaf-428a-43cd-a356-ecaed95948ff"},"vehicle_type_id":"4","last_reported":1762376996,"current_range_meters":17200,"station_id":"","pricing_plan_id":"cebpf4jnsgd1na2vs0mg"},{"bike_id":"641f3606-c8bf-4bd0-8cb0-a02cda6c9e1a","system_id":"levelo_inurba_marseille","lat":43.268395,"lon":5.402834,"is_reserved":false,"is_disabled":false,"rental_uris":{"android":"levelo://app?vid=641f3606-c8bf-4bd0-8cb0-a02cda6c9e1a","ios":"levelo://app?vid=641f3606-c8bf-4bd0-8cb0-a02cda6c9e1a"},"vehicle_type_id":"4","last_reported":1762376996,"current_range_meters":17200,"station_id":"ce501612rcd8frsf0b60","pricing_plan_id":"cebpf4jnsgd1na2vs0mg"},{"bike_id":"e9a6c145-4b69-4844-9637-8b56ad9858c6","system_id":"levelo_inurba_marseille","lat":43.2954,"lon":5.38543,"is_reserved":false,"is_disabled":false,"rental_uris":{"android":"levelo://app?vid=e9a6c145-4b69-4844-9637-8b56ad9858c6","ios":"levelo://app?vid=e9a6c145-4b69-4844-9637-8b56ad9858c6"},"vehicle_type_id":"4","last_reported":1762376996,"current_range_meters":17200,"station_id":"ce4bgih2rcd13ifvqba0","pricing_plan_id":"cebpf4jnsgd1na2vs0mg"},{"bike_id":"b311b2f6-735e-444b-9f9c-f00dfe7c9f6f","system_id":"levelo_inurba_marseille","lat":43.22941,"lon":5.3537,"is_reserved":false,"is_disabled":false,"rental_uris":{"android":"levelo://app?vid=b311b2f6-735e-444b-9f9c-f00dfe7c9f6f","ios":"levelo://app?vid=b311b2f6-735e-444b-9f9c-f00dfe7c9f6f"},"vehicle_type_id":"4","last_reported":1762376996,"current_range_meters":17200,"station_id":"cpo3532slgdg3j2ikp40","pricing_plan_id":"cebpf4jnsgd1na2vs0mg"},{"bike_id":"6e80a341-c176-4673-b911-473ef36bc229","system_id":"levelo_inurba_marseille","lat":43.27048,"lon":5.40266,"is_reserved":false,"is_disabled":false,"rental_uris":{"android":"levelo://app?vid=6e80a341-c176-4673-b911-473ef36bc229","ios":"levelo://app?vid=6e80a341-c176-4673-b911-473ef36bc229"},"vehicle_type_id":"4","last_reported":1762376996,"current_range_meters":17200,"station_id":"ce4bhk92rcd13ifvqgc0","pricing_plan_id":"cebpf4jnsgd1na2vs0mg"},{"bike_id":"0d7db708-3004-4c5b-b11b-27003898eadd","system_id":"levelo_inurba_marseille","lat":43.286934,"lon":5.35184,"is_reserved":false,"is_disabled":false,"rental_uris":{"android":"levelo://app?vid=0d7db708-3004-4c5b-b11b-27003898eadd","ios":"levelo://app?vid=0d7db708-3004-4c5b-b11b-27003898eadd"},"vehicle_type_id":"4","last_reported":1762376996,"current_range_meters":17200,"station_id":"","pricing_plan_id":"cebpf4jnsgd1na2vs0mg"},{"bike_id":"71967476-752a-4f5e-b222-99c0eea95f39","system_id":"levelo_inurba_marseille","lat":43.32326,"lon":5.38409,"is_reserved":false,"is_disabled":false,"rental_uris":{"android":"levelo://app?vid=71967476-752a-4f5e-b222-99c0eea95f39","ios":"levelo://app?vid=71967476-752a-4f5e-b222-99c0eea95f39"},"vehicle_type_id":"4","last_reported":1762376996,"current_range_meters":17200,"station_id":"","pricing_plan_id":"cebpf4jnsgd1na2vs0mg"},{"bike_id":"db1d36f7-7f8c-435b-b99f-f67f4a5b7a41","system_id":"levelo_inurba_marseille","lat":43.29533,"lon":5.38541,"is_reserved":false,"is_disabled":false,"rental_uris":{"android":"levelo://app?vid=db1d36f7-7f8c-435b-b99f-f67f4a5b7a41","ios":"levelo://app?vid=db1d36f7-7f8c-435b-b99f-f67f4a5b7a41"},"vehicle_type_id":"4","last_reported":1762376996,"current_range_meters":17200,"station_id":"ce4bgih2rcd13ifvqba0","pricing_plan_id":"cebpf4jnsgd1na2vs0mg"},{"bike_id":"e6386c74-bd9b-47a1-8cd6-cfff4be1db56","system_id":"levelo_inurba_marseille","lat":43.279491,"lon":5.436408,"is_reserved":false,"is_disabled":false,"rental_uris":{"android":"levelo://app?vid=e6386c74-bd9b-47a1-8cd6-cfff4be1db56","ios":"levelo://app?vid=e6386c74-bd9b-47a1-8cd6-cfff4be1db56"},"vehicle_type_id":"4","last_reported":1762376996,"current_range_meters":17200,"station_id":"","pricing_plan_id":"cebpf4jnsgd1na2vs0mg"},{"bike_id":"c8e90996-a66e-4382-b138-d87d1a958203","system_id":"levelo_inurba_marseille","lat":43.303543,"lon":5.41872,"is_reserved":false,"is_disabled":false,"rental_uris":{"android":"levelo://app?vid=c8e90996-a66e-4382-b138-d87d1a958203","ios":"levelo://app?vid=c8e90996-a66e-4382-b138-d87d1a958203"},"vehicle_type_id":"4","last_reported":1762376996,"current_range_meters":17600,"station_id":"ce4bhop2rcd13ifvqh7g","pricing_plan_id":"cebpf4jnsgd1na2vs0mg"},{"bike_id":"02931a4f-41ca-4d63-991e-b78142ffd2df","system_id":"levelo_inurba_marseille","lat":43.32475,"lon":5.36562,"is_reserved":false,"is_disabled":true,"rental_uris":{"android":"levelo://app?vid=02931a4f-41ca-4d63-991e-b78142ffd2df","ios":"levelo://app?vid=02931a4f-41ca-4d63-991e-b78142ffd2df"},"vehicle_type_id":"4","last_reported":1762376996,"current_range_meters":17600,"station_id":"ce4bhs12rcd13ifvqhvg","pricing_plan_id":"cebpf4jnsgd1na2vs0mg"},{"bike_id":"7a2f2a6b-85e0-408b-9008-d883cf8a7bd7","system_id":"levelo_inurba_marseille","lat":43.24629,"lon":5.4314,"is_reserved":false,"is_disabled":false,"rental_uris":{"android":"levelo://app?vid=7a2f2a6b-85e0-408b-9008-d883cf8a7bd7","ios":"levelo://app?vid=7a2f2a6b-85e0-408b-9008-d883cf8a7bd7"},"vehicle_type_id":"4","last_reported":1762376996,"current_range_meters":17600,"station_id":"st_d2m6c4gdas8pm72e190g","pricing_plan_id":"cebpf4jnsgd1na2vs0mg"},{"bike_id":"1d9df1f2-e349-4d9d-9ca1-5bd6b1126ee9","system_id":"levelo_inurba_marseille","lat":43.23196,"lon":5.35547,"is_reserved":false,"is_disabled":false,"rental_uris":{"android":"levelo://app?vid=1d9df1f2-e349-4d9d-9ca1-5bd6b1126ee9","ios":"levelo://app?vid=1d9df1f2-e349-4d9d-9ca1-5bd6b1126ee9"},"vehicle_type_id":"4","last_reported":1762376996,"current_range_meters":17600,"station_id":"ce4bhu92rcd13ifvqi70","pricing_plan_id":"cebpf4jnsgd1na2vs0mg"},{"bike_id":"9947732c-daf0-4f3a-8f2b-89ca946fbbea","system_id":"levelo_inurba_marseille","lat":43.27926,"lon":5.39547,"is_reserved":false,"is_disabled":false,"rental_uris":{"android":"levelo://app?vid=9947732c-daf0-4f3a-8f2b-89ca946fbbea","ios":"levelo://app?vid=9947732c-daf0-4f3a-8f2b-89ca946fbbea"},"vehicle_type_id":"4","last_reported":1762376996,"current_range_meters":17600,"station_id":"ce4bhf92rcd13ifvqf40","pricing_plan_id":"cebpf4jnsgd1na2vs0mg"},{"bike_id":"9f2da96b-e073-41e9-9cb6-b8c289d4a763","system_id":"levelo_inurba_marseille","lat":43.23185,"lon":5.39977,"is_reserved":false,"is_disabled":false,"rental_uris":{"android":"levelo://app?vid=9f2da96b-e073-41e9-9cb6-b8c289d4a763","ios":"levelo://app?vid=9f2da96b-e073-41e9-9cb6-b8c289d4a763"},"vehicle_type_id":"4","last_reported":1762376996,"current_range_meters":17600,"station_id":"ce4bhn12rcd13ifvqgqg","pricing_plan_id":"cebpf4jnsgd1na2vs0mg"},{"bike_id":"360927de-7cb0-4e8d-87fd-ae15ab62b6d0","system_id":"levelo_inurba_marseille","lat":43.2926,"lon":5.38438,"is_reserved":false,"is_disabled":false,"rental_uris":{"android":"levelo://app?vid=360927de-7cb0-4e8d-87fd-ae15ab62b6d0","ios":"levelo://app?vid=360927de-7cb0-4e8d-87fd-ae15ab62b6d0"},"vehicle_type_id":"4","last_reported":1762376996,"current_range_meters":17600,"station_id":"ce4bh692rcd13ifvqea0","pricing_plan_id":"cebpf4jnsgd1na2vs0mg"},{"bike_id":"d2991a60-dcfa-4252-8f9d-bfff4b1dc433","system_id":"levelo_inurba_marseille","lat":43.31047,"lon":5.371,"is_reserved":false,"is_disabled":false,"rental_uris":{"android":"levelo://app?vid=d2991a60-dcfa-4252-8f9d-bfff4b1dc433","ios":"levelo://app?vid=d2991a60-dcfa-4252-8f9d-bfff4b1dc433"},"vehicle_type_id":"4","last_reported":1762376996,"current_range_meters":17600,"station_id":"","pricing_plan_id":"cebpf4jnsgd1na2vs0mg"},{"bike_id":"e22b345d-4f89-4072-adbf-98664e18b0de","system_id":"levelo_inurba_marseille","lat":43.21195,"lon":5.35083,"is_reserved":false,"is_disabled":false,"rental_uris":{"android":"levelo://app?vid=e22b345d-4f89-4072-adbf-98664e18b0de","ios":"levelo://app?vid=e22b345d-4f89-4072-adbf-98664e18b0de"},"vehicle_type_id":"4","last_reported":1762376996,"current_range_meters":17600,"station_id":"st_cvj6sg6p6f1abm77japg","pricing_plan_id":"cebpf4jnsgd1na2vs0mg"},{"bike_id":"3aef97ee-c77f-40ee-b513-0ec274555b26","system_id":"levelo_inurba_marseille","lat":43.258647,"lon":5.399018,"is_reserved":false,"is_disabled":false,"rental_uris":{"android":"levelo://app?vid=3aef97ee-c77f-40ee-b513-0ec274555b26","ios":"levelo://app?vid=3aef97ee-c77f-40ee-b513-0ec274555b26"},"vehicle_type_id":"4","last_reported":1762376996,"current_range_meters":18000,"station_id":"","pricing_plan_id":"cebpf4jnsgd1na2vs0mg"},{"bike_id":"16ef74b7-1203-4a9a-8afd-2d12a6594735","system_id":"levelo_inurba_marseille","lat":43.25823,"lon":5.39443,"is_reserved":false,"is_disabled":false,"rental_uris":{"android":"levelo://app?vid=16ef74b7-1203-4a9a-8afd-2d12a6594735","ios":"levelo://app?vid=16ef74b7-1203-4a9a-8afd-2d12a6594735"},"vehicle_type_id":"4","last_reported":1762376996,"current_range_meters":18000,"station_id":"ce4bhip2rcd13ifvqft0","pricing_plan_id":"cebpf4jnsgd1na2vs0mg"},{"bike_id":"5f433812-4992-4556-8bea-3ef019818e9b","system_id":"levelo_inurba_marseille","lat":43.30054,"lon":5.36539,"is_reserved":false,"is_disabled":false,"rental_uris":{"android":"levelo://app?vid=5f433812-4992-4556-8bea-3ef019818e9b","ios":"levelo://app?vid=5f433812-4992-4556-8bea-3ef019818e9b"},"vehicle_type_id":"4","last_reported":1762376996,"current_range_meters":18000,"station_id":"","pricing_plan_id":"cebpf4jnsgd1na2vs0mg"},{"bike_id":"2a56320a-0ebb-4a50-92bc-218516def051","system_id":"levelo_inurba_marseille","lat":43.31991,"lon":5.38168,"is_reserved":false,"is_disabled":false,"rental_uris":{"android":"levelo://app?vid=2a56320a-0ebb-4a50-92bc-218516def051","ios":"levelo://app?vid=2a56320a-0ebb-4a50-92bc-218516def051"},