{"last_updated":1738246115,"ttl":60,"version":"2.2","data":{"bikes":[{"bike_id":"f2c1f467-7b88-482f-9f6b-981783c270d7","system_id":"levelo_inurba_marseille","lat":43.29051,"lon":5.37159,"is_reserved":false,"is_disabled":false,"rental_uris":{"android":"levelo://app?vid=f2c1f467-7b88-482f-9f6b-981783c270d7","ios":"levelo://app?vid=f2c1f467-7b88-482f-9f6b-981783c270d7"},"vehicle_type_id":"4","last_reported":1738246115,"current_range_meters":36000,"station_id":"ce4bh5p2rcd13ifvqe4g","pricing_plan_id":"cebpf4jnsgd1na2vs0mg"},{"bike_id":"0d72069c-12f4-4000-a8ca-84be6d2ccbcd","system_id":"levelo_inurba_marseille","lat":43.29836,"lon":5.36254,"is_reserved":false,"is_disabled":false,"rental_uris":{"android":"levelo://app?vid=0d72069c-12f4-4000-a8ca-84be6d2ccbcd","ios":"levelo://app?vid=0d72069c-12f4-4000-a8ca-84be6d2ccbcd"},"vehicle_type_id":"4","last_reported":1738246115,"current_range_meters":38400,"station_id":"ce4bgpp2rcd13ifvqc3g","pricing_plan_id":"cebpf4jnsgd1na2vs0mg"},{"bike_id":"30e126ec-fb31-47ef-b1b1-36f92db82904","system_id":"levelo_inurba_marseille","lat":43.31293,"lon":5.40171,"is_reserved":false,"is_disabled":false,"rental_uris":{"android":"levelo://app?vid=30e126ec-fb31-47ef-b1b1-36f92db82904","ios":"levelo://app?vid=30e126ec-fb31-47ef-b1b1-36f92db82904"},"vehicle_type_id":"4","last_reported":1738246115,"current_range_meters":36000,"station_id":"ce4bh092rcd13ifvqd30","pricing_plan_id":"cebpf4jnsgd1na2vs0mg"},{"bike_id":"be681a8e-98f8-493a-a01c-789b40477a69","system_id":"levelo_inurba_marseille","lat":43.29185,"lon":5.35803,"is_reserved":false,"is_disabled":false,"rental_uris":{"android":"levelo://app?vid=be681a8e-98f8-493a-a01c-789b40477a69","ios":"levelo://app?vid=be681a8e-98f8-493a-a01c-789b40477a69"},"vehicle_type_id":"4","last_reported":1738246115,"current_range_meters":33600,"station_id":"ce4bhb12rcd13ifvqel0","pricing_plan_id":"cebpf4jnsgd1na2vs0mg"},{"bike_id":"88f9db99-0526-496c-8402-9aa74821f04e","system_id":"levelo_inurba_marseille","lat":43.298,"lon":5.39349,"is_reserved":false,"is_disabled":false,"rental_uris":{"android":"levelo://app?vid=88f9db99-0526-496c-8402-9aa74821f04e","ios":"levelo://app?vid=88f9db99-0526-496c-8402-9aa74821f04e"},"vehicle_type_id":"4","last_reported":1738246115,"current_range_meters":34000,"station_id":"chh1huq6cuj3fo74tm60","pricing_plan_id":"cebpf4jnsgd1na2vs0mg"},{"bike_id":"2d4740cb-6a71-4b1b-b8cc-957d982cc81f","system_id":"levelo_inurba_marseille","lat":43.27991,"lon":5.41662,"is_reserved":false,"is_disabled":false,"rental_uris":{"android":"levelo://app?vid=2d4740cb-6a71-4b1b-b8cc-957d982cc81f","ios":"levelo://app?vid=2d4740cb-6a71-4b1b-b8cc-957d982cc81f"},"vehicle_type_id":"4","last_reported":1738246115,"current_range_meters":10800,"station_id":"ce4bho12rcd13ifvqh1g","pricing_plan_id":"cebpf4jnsgd1na2vs0mg"},{"bike_id":"3cda397d-8701-45d8-a98c-154e352bab34","system_id":"levelo_inurba_marseille","lat":43.30153,"lon":5.3811,"is_reserved":false,"is_disabled":false,"rental_uris":{"android":"levelo://app?vid=3cda397d-8701-45d8-a98c-154e352bab34","ios":"levelo://app?vid=3cda397d-8701-45d8-a98c-154e352bab34"},"vehicle_type_id":"4","last_reported":1738246115,"current_range_meters":36000,"station_id":"ce4bgjp2rcd13ifvqbh0","pricing_plan_id":"cebpf4jnsgd1na2vs0mg"},{"bike_id":"f7f8117f-03ef-415e-85c6-2eeaf165e4f2","system_id":"levelo_inurba_marseille","lat":43.26222,"lon":5.4043,"is_reserved":false,"is_disabled":true,"rental_uris":{"android":"levelo://app?vid=f7f8117f-03ef-415e-85c6-2eeaf165e4f2","ios":"levelo://app?vid=f7f8117f-03ef-415e-85c6-2eeaf165e4f2"},"vehicle_type_id":"4","last_reported":1738246115,"current_range_meters":25600,"station_id":"ce4bhmh2rcd13ifvqgmg","pricing_plan_id":"cebpf4jnsgd1na2vs0mg"},{"bike_id":"76b57816-ff84-4ecb-88e6-16904dfc9a1a","system_id":"levelo_inurba_marseille","lat":43.29885,"lon":5.3971,"is_reserved":false,"is_disabled":false,"rental_uris":{"android":"levelo://app?vid=76b57816-ff84-4ecb-88e6-16904dfc9a1a","ios":"levelo://app?vid=76b57816-ff84-4ecb-88e6-16904dfc9a1a"},"vehicle_type_id":"4","last_reported":1738246115,"current_range_meters":39200,"station_id":"ce4bh0h2rcd13ifvqd50","pricing_plan_id":"cebpf4jnsgd1na2vs0mg"},{"bike_id":"c638a1eb-b4d3-4a47-88f5-4ffd2e894e36","system_id":"levelo_inurba_marseille","lat":43.28112,"lon":5.37859,"is_reserved":false,"is_disabled":false,"rental_uris":{"android":"levelo://app?vid=c638a1eb-b4d3-4a47-88f5-4ffd2e894e36","ios":"levelo://app?vid=c638a1eb-b4d3-4a47-88f5-4ffd2e894e36"},"vehicle_type_id":"4","last_reported":1738246115,"current_range_meters":36800,"station_id":"ce4bha12rcd13ifvqee0","pricing_plan_id":"cebpf4jnsgd1na2vs0mg"},{"bike_id":"0baa1483-1bd9-4e02-ab05-61cbf4d9e6e6","system_id":"levelo_inurba_marseille","lat":43.29034,"lon":5.37144,"is_reserved":false,"is_disabled":true,"rental_uris":{"android":"levelo://app?vid=0baa1483-1bd9-4e02-ab05-61cbf4d9e6e6","ios":"levelo://app?vid=0baa1483-1bd9-4e02-ab05-61cbf4d9e6e6"},"vehicle_type_id":"4","last_reported":1738246115,"current_range_meters":18000,"station_id":"ce4bh5p2rcd13ifvqe4g","pricing_plan_id":"cebpf4jnsgd1na2vs0mg"},{"bike_id":"9ebdc35e-1568-45ff-aa52-2363402d7b82","system_id":"levelo_inurba_marseille","lat":43.29327,"lon":5.3719,"is_reserved":false,"is_disabled":false,"rental_uris":{"android":"levelo://app?vid=9ebdc35e-1568-45ff-aa52-2363402d7b82","ios":"levelo://app?vid=9ebdc35e-1568-45ff-aa52-2363402d7b82"},"vehicle_type_id":"4","last_reported":1738246115,"current_range_meters":33200,"station_id":"ce4bgh92rcd13ifvqb40","pricing_plan_id":"cebpf4jnsgd1na2vs0mg"},{"bike_id":"0a96291e-3f69-4026-b126-beb2973fffec","system_id":"levelo_inurba_marseille","lat":43.30954,"lon":5.40155,"is_reserved":false,"is_disabled":true,"rental_uris":{"android":"levelo://app?vid=0a96291e-3f69-4026-b126-beb2973fffec","ios":"levelo://app?vid=0a96291e-3f69-4026-b126-beb2973fffec"},"vehicle_type_id":"4","last_reported":1738246115,"current_range_meters":0,"station_id":"ce4bgvp2rcd13ifvqct0","pricing_plan_id":"cebpf4jnsgd1na2vs0mg"},{"bike_id":"42f94e8e-5705-4e60-b41a-33529ea101d4","system_id":"levelo_inurba_marseille","lat":43.26947,"lon":5.38631,"is_reserved":false,"is_disabled":false,"rental_uris":{"android":"levelo://app?vid=42f94e8e-5705-4e60-b41a-33529ea101d4","ios":"levelo://app?vid=42f94e8e-5705-4e60-b41a-33529ea101d4"},"vehicle_type_id":"4","last_reported":1738246115,"current_range_meters":26000,"station_id":"ce4bhh92rcd13ifvqfh0","pricing_plan_id":"cebpf4jnsgd1na2vs0mg"},{"bike_id":"ca2fce3d-df4e-4367-b9ef-43ae3724ace7","system_id":"levelo_inurba_marseille","lat":43.25124,"lon":5.40327,"is_reserved":false,"is_disabled":false,"rental_uris":{"android":"levelo://app?vid=ca2fce3d-df4e-4367-b9ef-43ae3724ace7","ios":"levelo://app?vid=ca2fce3d-df4e-4367-b9ef-43ae3724ace7"},"vehicle_type_id":"4","last_reported":1738246115,"current_range_meters":28800,"station_id":"ce4bhlh2rcd13ifvqgig","pricing_plan_id":"cebpf4jnsgd1na2vs0mg"},{"bike_id":"2647b0a0-d74b-4d97-9b33-39a7f96ed5a8","system_id":"levelo_inurba_marseille","lat":43.29987,"lon":5.37175,"is_reserved":false,"is_disabled":false,"rental_uris":{"android":"levelo://app?vid=2647b0a0-d74b-4d97-9b33-39a7f96ed5a8","ios":"levelo://app?vid=2647b0a0-d74b-4d97-9b33-39a7f96ed5a8"},"vehicle_type_id":"4","last_reported":1738246115,"current_range_meters":36400,"station_id":"ce4bgr92rcd13ifvqc7g","pricing_plan_id":"cebpf4jnsgd1na2vs0mg"},{"bike_id":"2414cde6-40b1-43a8-8f48-5d57ea55d3d2","system_id":"levelo_inurba_marseille","lat":43.26768,"lon":5.39417,"is_reserved":false,"is_disabled":false,"rental_uris":{"android":"levelo://app?vid=2414cde6-40b1-43a8-8f48-5d57ea55d3d2","ios":"levelo://app?vid=2414cde6-40b1-43a8-8f48-5d57ea55d3d2"},"vehicle_type_id":"4","last_reported":1738246115,"current_range_meters":39200,"station_id":"ce4bhh12rcd13ifvqfg0","pricing_plan_id":"cebpf4jnsgd1na2vs0mg"},{"bike_id":"20becd8d-154d-4971-b3d5-b5efb13f35fa","system_id":"levelo_inurba_marseille","lat":43.27972,"lon":5.38737,"is_reserved":false,"is_disabled":false,"rental_uris":{"android":"levelo://app?vid=20becd8d-154d-4971-b3d5-b5efb13f35fa","ios":"levelo://app?vid=20becd8d-154d-4971-b3d5-b5efb13f35fa"},"vehicle_type_id":"4","last_reported":1738246115,"current_range_meters":28400,"station_id":"ce4bhg12rcd13ifvqf80","pricing_plan_id":"cebpf4jnsgd1na2vs0mg"},{"bike_id":"dc71ee2b-bb7e-4248-aad2-5a4617bf84fd","system_id":"levelo_inurba_marseille","lat":43.28576,"lon":5.39492,"is_reserved":false,"is_disabled":false,"rental_uris":{"android":"levelo://app?vid=dc71ee2b-bb7e-4248-aad2-5a4617bf84fd","ios":"levelo://app?vid=dc71ee2b-bb7e-4248-aad2-5a4617bf84fd"},"vehicle_type_id":"4","last_reported":1738246115,"current_range_meters":37600,"station_id":"ce4bh292rcd13ifvqdg0","pricing_plan_id":"cebpf4jnsgd1na2vs0mg"},{"bike_id":"a9a12b57-7eb7-49fb-ba95-6c00f1b23d00","system_id":"levelo_inurba_marseille","lat":43.28108,"lon":5.37832,"is_reserved":false,"is_disabled":false,"rental_uris":{"android":"levelo://app?vid=a9a12b57-7eb7-49fb-ba95-6c00f1b23d00","ios":"levelo://app?vid=a9a12b57-7eb7-49fb-ba95-6c00f1b23d00"},"vehicle_type_id":"4","last_reported":1738246115,"current_range_meters":20800,"station_id":"ce4bha12rcd13ifvqee0","pricing_plan_id":"cebpf4jnsgd1na2vs0mg"},{"bike_id":"9a9c3eb4-cc53-457e-9daf-faee2133c523","system_id":"levelo_inurba_marseille","lat":43.29952,"lon":5.41314,"is_reserved":false,"is_disabled":false,"rental_uris":{"android":"levelo://app?vid=9a9c3eb4-cc53-457e-9daf-faee2133c523","ios":"levelo://app?vid=9a9c3eb4-cc53-457e-9daf-faee2133c523"},"vehicle_type_id":"4","last_reported":1738246115,"current_range_meters":30000,"station_id":"ce4bhp12rcd13ifvqh9g","pricing_plan_id":"cebpf4jnsgd1na2vs0mg"},{"bike_id":"3e3f8379-5f44-49ef-a35c-6bbdb88175c8","system_id":"levelo_inurba_marseille","lat":43.29817,"lon":5.38094,"is_reserved":false,"is_disabled":false,"rental_uris":{"android":"levelo://app?vid=3e3f8379-5f44-49ef-a35c-6bbdb88175c8","ios":"levelo://app?vid=3e3f8379-5f44-49ef-a35c-6bbdb88175c8"},"vehicle_type_id":"4","last_reported":1738246115,"current_range_meters":39200,"station_id":"ce4bgip2rcd13ifvqbb0","pricing_plan_id":"cebpf4jnsgd1na2vs0mg"},{"bike_id":"de289e16-4738-4bbc-892a-6fb55ade8656","system_id":"levelo_inurba_marseille","lat":43.27864,"lon":5.40669,"is_reserved":false,"is_disabled":false,"rental_uris":{"android":"levelo://app?vid=de289e16-4738-4bbc-892a-6fb55ade8656","ios":"levelo://app?vid=de289e16-4738-4bbc-892a-6fb55ade8656"},"vehicle_type_id":"4","last_reported":1738246115,"current_range_meters":30000,"station_id":"","pricing_plan_id":"cebpf4jnsgd1na2vs0mg"},{"bike_id":"4ef314d0-7db1-45d3-922b-9a5237f9612d","system_id":"levelo_inurba_marseille","lat":43.28359,"lon":5.38111,"is_reserved":false,"is_disabled":false,"rental_uris":{"android":"levelo://app?vid=4ef314d0-7db1-45d3-922b-9a5237f9612d","ios":"levelo://app?vid=4ef314d0-7db1-45d3-922b-9a5237f9612d"},"vehicle_type_id":"4","last_reported":1738246115,"current_range_meters":28400,"station_id":"ce4bh412rcd13ifvqdr0","pricing_plan_id":"cebpf4jnsgd1na2vs0mg"},{"bike_id":"15d0d989-ae97-422d-ab9e-c8056bb959f7","system_id":"levelo_inurba_marseille","lat":43.278414,"lon":5.392269,"is_reserved":false,"is_disabled":false,"rental_uris":{"android":"levelo://app?vid=15d0d989-ae97-422d-ab9e-c8056bb959f7","ios":"levelo://app?vid=15d0d989-ae97-422d-ab9e-c8056bb959f7"},"vehicle_type_id":"4","last_reported":1738246115,"current_range_meters":36400,"station_id":"ce4bhjp2rcd13ifvqga0","pricing_plan_id":"cebpf4jnsgd1na2vs0mg"},{"bike_id":"226a7bac-de2e-446f-900f-05600bd270d9","system_id":"levelo_inurba_marseille","lat":43.29268,"lon":5.40109,"is_reserved":false,"is_disabled":false,"rental_uris":{"android":"levelo://app?vid=226a7bac-de2e-446f-900f-05600bd270d9","ios":"levelo://app?vid=226a7bac-de2e-446f-900f-05600bd270d9"},"vehicle_type_id":"4","last_reported":1738246115,"current_range_meters":21600,"station_id":"ce4bh312rcd13ifvqdk0","pricing_plan_id":"cebpf4jnsgd1na2vs0mg"},{"bike_id":"76c2febc-0eb9-4f83-8334-5c6af9958ba0","system_id":"levelo_inurba_marseille","lat":43.29047,"lon":5.39976,"is_reserved":false,"is_disabled":false,"rental_uris":{"android":"levelo://app?vid=76c2febc-0eb9-4f83-8334-5c6af9958ba0","ios":"levelo://app?vid=76c2febc-0eb9-4f83-8334-5c6af9958ba0"},"vehicle_type_id":"4","last_reported":1738246115,"current_range_meters":33600,"station_id":"ce4bh392rcd13ifvqdm0","pricing_plan_id":"cebpf4jnsgd1na2vs0mg"},{"bike_id":"a4996102-f702-4d1e-923d-c8b14152160a","system_id":"levelo_inurba_marseille","lat":43.26954,"lon":5.3864,"is_reserved":false,"is_disabled":false,"rental_uris":{"android":"levelo://app?vid=a4996102-f702-4d1e-923d-c8b14152160a","ios":"levelo://app?vid=a4996102-f702-4d1e-923d-c8b14152160a"},"vehicle_type_id":"4","last_reported":1738246115,"current_range_meters":38000,"station_id":"ce4bhh92rcd13ifvqfh0","pricing_plan_id":"cebpf4jnsgd1na2vs0mg"},{"bike_id":"1c63fa7b-8bb3-4da5-8267-9c40ab75cc0b","system_id":"levelo_inurba_marseille","lat":43.33728,"lon":5.39179,"is_reserved":false,"is_disabled":false,"rental_uris":{"android":"levelo://app?vid=1c63fa7b-8bb3-4da5-8267-9c40ab75cc0b","ios":"levelo://app?vid=1c63fa7b-8bb3-4da5-8267-9c40ab75cc0b"},"vehicle_type_id":"4","last_reported":1738246115,"current_range_meters":39200,"station_id":"ce4bhr92rcd13ifvqhsg","pricing_plan_id":"cebpf4jnsgd1na2vs0mg"},{"bike_id":"e99c90aa-e079-42e2-a963-1534829ba9c7","system_id":"levelo_inurba_marseille","lat":43.26212,"lon":5.37441,"is_reserved":false,"is_disabled":false,"rental_uris":{"android":"levelo://app?vid=e99c90aa-e079-42e2-a963-1534829ba9c7","ios":"levelo://app?vid=e99c90aa-e079-42e2-a963-1534829ba9c7"},"vehicle_type_id":"4","last_reported":1738246115,"current_range_meters":35600,"station_id":"ce4bhgp2rcd13ifvqfc0","pricing_plan_id":"cebpf4jnsgd1na2vs0mg"},{"bike_id":"5ab5d72b-c74c-49ef-9e11-0bce1933dab3","system_id":"levelo_inurba_marseille","lat":43.2835,"lon":5.38093,"is_reserved":false,"is_disabled":false,"rental_uris":{"android":"levelo://app?vid=5ab5d72b-c74c-49ef-9e11-0bce1933dab3","ios":"levelo://app?vid=5ab5d72b-c74c-49ef-9e11-0bce1933dab3"},"vehicle_type_id":"4","last_reported":1738246115,"current_range_meters":39200,"station_id":"ce4bh412rcd13ifvqdr0","pricing_plan_id":"cebpf4jnsgd1na2vs0mg"},{"bike_id":"537a974f-6aa4-4446-8d01-3c9314a0b685","system_id":"levelo_inurba_marseille","lat":43.29883,"lon":5.3973,"is_reserved":false,"is_disabled":false,"rental_uris":{"android":"levelo://app?vid=537a974f-6aa4-4446-8d01-3c9314a0b685","ios":"levelo://app?vid=537a974f-6aa4-4446-8d01-3c9314a0b685"},"vehicle_type_id":"4","last_reported":1738246115,"current_range_meters":20400,"station_id":"ce4bh0h2rcd13ifvqd50","pricing_plan_id":"cebpf4jnsgd1na2vs0mg"},{"bike_id":"cc47836a-b908-432f-8e0e-2f793407f141","system_id":"levelo_inurba_marseille","lat":43.22932,"lon":5.35379,"is_reserved":false,"is_disabled":false,"rental_uris":{"android":"levelo://app?vid=cc47836a-b908-432f-8e0e-2f793407f141","ios":"levelo://app?vid=cc47836a-b908-432f-8e0e-2f793407f141"},"vehicle_type_id":"4","last_reported":1738246115,"current_range_meters":16400,"station_id":"cpo3532slgdg3j2ikp40","pricing_plan_id":"cebpf4jnsgd1na2vs0mg"},{"bike_id":"2c31868c-0d8c-4f98-bf29-54c39c890da5","system_id":"levelo_inurba_marseille","lat":43.27679,"lon":5.38891,"is_reserved":false,"is_disabled":false,"rental_uris":{"android":"levelo://app?vid=2c31868c-0d8c-4f98-bf29-54c39c890da5","ios":"levelo://app?vid=2c31868c-0d8c-4f98-bf29-54c39c890da5"},"vehicle_type_id":"4","last_reported":1738246115,"current_range_meters":39200,"station_id":"ce4bhi12rcd13ifvqfo0","pricing_plan_id":"cebpf4jnsgd1na2vs0mg"},{"bike_id":"178eccb2-27f9-4188-927f-3655a34e76f0","system_id":"levelo_inurba_marseille","lat":43.29097,"lon":5.381379,"is_reserved":false,"is_disabled":false,"rental_uris":{"android":"levelo://app?vid=178eccb2-27f9-4188-927f-3655a34e76f0","ios":"levelo://app?vid=178eccb2-27f9-4188-927f-3655a34e76f0"},"vehicle_type_id":"4","last_reported":1738246115,"current_range_meters":22000,"station_id":"ce4bgup2rcd13ifvqcn0","pricing_plan_id":"cebpf4jnsgd1na2vs0mg"},{"bike_id":"7c3bf8f7-ea08-4399-9011-4efb98054e18","system_id":"levelo_inurba_marseille","lat":43.30479,"lon":5.37903,"is_reserved":false,"is_disabled":false,"rental_uris":{"android":"levelo://app?vid=7c3bf8f7-ea08-4399-9011-4efb98054e18","ios":"levelo://app?vid=7c3bf8f7-ea08-4399-9011-4efb98054e18"},"vehicle_type_id":"4","last_reported":1738246115,"current_range_meters":20400,"station_id":"ce4bgup2rcd13ifvqcn0","pricing_plan_id":"cebpf4jnsgd1na2vs0mg"},{"bike_id":"2d0a96f7-94ce-44e8-ad9e-f1679fd5dc01","system_id":"levelo_inurba_marseille","lat":43.28711,"lon":5.37936,"is_reserved":false,"is_disabled":false,"rental_uris":{"android":"levelo://app?vid=2d0a96f7-94ce-44e8-ad9e-f1679fd5dc01","ios":"levelo://app?vid=2d0a96f7-94ce-44e8-ad9e-f1679fd5dc01"},"vehicle_type_id":"4","last_reported":1738246115,"current_range_meters":7200,"station_id":"ce4bh9p2rcd13ifvqec0","pricing_plan_id":"cebpf4jnsgd1na2vs0mg"},{"bike_id":"72e3f5db-3724-48cd-9368-0a99fb62d116","system_id":"levelo_inurba_marseille","lat":43.286635,"lon":5.363525,"is_reserved":false,"is_disabled":false,"rental_uris":{"android":"levelo://app?vid=72e3f5db-3724-48cd-9368-0a99fb62d116","ios":"levelo://app?vid=72e3f5db-3724-48cd-9368-0a99fb62d116"},"vehicle_type_id":"4","last_reported":1738246115,"current_range_meters":38000,"station_id":"ce4bhah2rcd13ifvqej0","pricing_plan_id":"cebpf4jnsgd1na2vs0mg"},{"bike_id":"ddb32047-44a3-4f83-8011-904b3cd64d9e","system_id":"levelo_inurba_marseille","lat":43.32103,"lon":5.36774,"is_reserved":false,"is_disabled":false,"rental_uris":{"android":"levelo://app?vid=ddb32047-44a3-4f83-8011-904b3cd64d9e","ios":"levelo://app?vid=ddb32047-44a3-4f83-8011-904b3cd64d9e"},"vehicle_type_id":"4","last_reported":1738246115,"current_range_meters":26800,"station_id":"ce4bhrh2rcd13ifvqhug","pricing_plan_id":"cebpf4jnsgd1na2vs0mg"},{"bike_id":"7fbc607b-e12b-47bd-a53f-1c18ac62adfd","system_id":"levelo_inurba_marseille","lat":43.27841,"lon":5.40735,"is_reserved":false,"is_disabled":false,"rental_uris":{"android":"levelo://app?vid=7fbc607b-e12b-47bd-a53f-1c18ac62adfd","ios":"levelo://app?vid=7fbc607b-e12b-47bd-a53f-1c18ac62adfd"},"vehicle_type_id":"4","last_reported":1738246115,"current_range_meters":37600,"station_id":"ce4bhnh2rcd13ifvqgtg","pricing_plan_id":"cebpf4jnsgd1na2vs0mg"},{"bike_id":"f34fcd93-0f66-400a-8f07-aa08bfa23861","system_id":"levelo_inurba_marseille","lat":43.25963,"lon":5.40925,"is_reserved":false,"is_disabled":true,"rental_uris":{"android":"levelo://app?vid=f34fcd93-0f66-400a-8f07-aa08bfa23861","ios":"levelo://app?vid=f34fcd93-0f66-400a-8f07-aa08bfa23861"},"vehicle_type_id":"4","last_reported":1738246115,"current_range_meters":2000,"station_id":"ce4bhm92rcd13ifvqglg","pricing_plan_id":"cebpf4jnsgd1na2vs0mg"},{"bike_id":"606053f9-3da2-4594-b4df-8e24b5fa812c","system_id":"levelo_inurba_marseille","lat":43.2693,"lon":5.402617,"is_reserved":false,"is_disabled":false,"rental_uris":{"android":"levelo://app?vid=606053f9-3da2-4594-b4df-8e24b5fa812c","ios":"levelo://app?vid=606053f9-3da2-4594-b4df-8e24b5fa812c"},"vehicle_type_id":"4","last_reported":1738246115,"current_range_meters":38800,"station_id":"cjm6bp8fraef2m0cb0m0","pricing_plan_id":"cebpf4jnsgd1na2vs0mg"},{"bike_id":"c5f64e1a-eac8-422f-96c0-6a19bf461b5c","system_id":"levelo_inurba_marseille","lat":43.2808,"lon":5.39658,"is_reserved":false,"is_disabled":false,"rental_uris":{"android":"levelo://app?vid=c5f64e1a-eac8-422f-96c0-6a19bf461b5c","ios":"levelo://app?vid=c5f64e1a-eac8-422f-96c0-6a19bf461b5c"},"vehicle_type_id":"4","last_reported":1738246115,"current_range_meters":28800,"station_id":"ce4bho12rcd13ifvqh2g","pricing_plan_id":"cebpf4jnsgd1na2vs0mg"},{"bike_id":"f0cceb4f-04ef-4fe9-ac5b-3de122386d86","system_id":"levelo_inurba_marseille","lat":43.24388,"lon":5.37056,"is_reserved":false,"is_disabled":false,"rental_uris":{"android":"levelo://app?vid=f0cceb4f-04ef-4fe9-ac5b-3de122386d86","ios":"levelo://app?vid=f0cceb4f-04ef-4fe9-ac5b-3de122386d86"},"vehicle_type_id":"4","last_reported":1738246115,"current_range_meters":20800,"station_id":"ce4bhhh2rcd13ifvqfk0","pricing_plan_id":"cebpf4jnsgd1na2vs0mg"},{"bike_id":"c52ee0d8-fc14-4a91-ad24-eeec1e8e0625","system_id":"levelo_inurba_marseille","lat":43.26239,"lon":5.37445,"is_reserved":false,"is_disabled":false,"rental_uris":{"android":"levelo://app?vid=c52ee0d8-fc14-4a91-ad24-eeec1e8e0625","ios":"levelo://app?vid=c52ee0d8-fc14-4a91-ad24-eeec1e8e0625"},"vehicle_type_id":"4","last_reported":1738246115,"current_range_meters":39200,"station_id":"ce4bhgp2rcd13ifvqfc0","pricing_plan_id":"cebpf4jnsgd1na2vs0mg"},{"bike_id":"db14cd8a-5ba9-45f6-b197-f717b13b5230","system_id":"levelo_inurba_marseille","lat":43.2984,"lon":5.36261,"is_reserved":false,"is_disabled":false,"rental_uris":{"android":"levelo://app?vid=db14cd8a-5ba9-45f6-b197-f717b13b5230","ios":"levelo://app?vid=db14cd8a-5ba9-45f6-b197-f717b13b5230"},"vehicle_type_id":"4","last_reported":1738246115,"current_range_meters":38000,"station_id":"ce4bgpp2rcd13ifvqc3g","pricing_plan_id":"cebpf4jnsgd1na2vs0mg"},{"bike_id":"310564dc-7ed1-4ec7-bf04-ccc9f94ca695","system_id":"levelo_inurba_marseille","lat":43.28349,"lon":5.38098,"is_reserved":false,"is_disabled":false,"rental_uris":{"android":"levelo://app?vid=310564dc-7ed1-4ec7-bf04-ccc9f94ca695","ios":"levelo://app?vid=310564dc-7ed1-4ec7-bf04-ccc9f94ca695"},"vehicle_type_id":"4","last_reported":1738246115,"current_range_meters":37600,"station_id":"ce4bh412rcd13ifvqdr0","pricing_plan_id":"cebpf4jnsgd1na2vs0mg"},{"bike_id":"720742d2-419d-457a-ab4d-f4f9f5327356","system_id":"levelo_inurba_marseille","lat":43.2792,"lon":5.39581,"is_reserved":false,"is_disabled":false,"rental_uris":{"android":"levelo://app?vid=720742d2-419d-457a-ab4d-f4f9f5327356","ios":"levelo://app?vid=720742d2-419d-457a-ab4d-f4f9f5327356"},"vehicle_type_id":"4","last_reported":1738246115,"current_range_meters":38400,"station_id":"ce4bhf92rcd13ifvqf40","pricing_plan_id":"cebpf4jnsgd1na2vs0mg"},{"bike_id":"ec1ca40e-791f-4792-befe-7898ee1de422","system_id":"levelo_inurba_marseille","lat":43.27494,"lon":5.42446,"is_reserved":false,"is_disabled":false,"rental_uris":{"android":"levelo://app?vid=ec1ca40e-791f-4792-befe-7898ee1de422","ios":"levelo://app?vid=ec1ca40e-791f-4792-befe-7898ee1de422"},"vehicle_type_id":"4","last_reported":1738246115,"current_range_meters":4400,"station_id":"ce4bhn92rcd13ifvqgrg","pricing_plan_id":"cebpf4jnsgd1na2vs0mg"},{"bike_id":"63dab48d-6bd1-4b4f-88f7-b4fea737e488","system_id":"levelo_inurba_marseille","lat":43.32451,"lon":5.36544,"is_reserved":false,"is_disabled":false,"rental_uris":{"android":"levelo://app?vid=63dab48d-6bd1-4b4f-88f7-b4fea737e488","ios":"levelo://app?vid=63dab48d-6bd1-4b4f-88f7-b4fea737e488"},"vehicle_type_id":"4","last_reported":1738246115,"current_range_meters":34800,"station_id":"ce4bhs12rcd13ifvqhvg","pricing_plan_id":"cebpf4jnsgd1na2vs0mg"},{"bike_id":"9f7cbc3c-6e0b-4442-8c70-64c0b2a1452e","system_id":"levelo_inurba_marseille","lat":43.2307,"lon":5.35519,"is_reserved":false,"is_disabled":false,"rental_uris":{"android":"levelo://app?vid=9f7cbc3c-6e0b-4442-8c70-64c0b2a1452e","ios":"levelo://app?vid=9f7cbc3c-6e0b-4442-8c70-64c0b2a1452e"},"vehicle_type_id":"4","last_reported":1738246115,"current_range_meters":11600,"station_id":"cpo3342slgdg3j2ifvpg","pricing_plan_id":"cebpf4jnsgd1na2vs0mg"},{"bike_id":"c8a3a0ed-dff2-4f3c-87dc-2e6b47b1ad28","system_id":"levelo_inurba_marseille","lat":43.337444,"lon":5.374475,"is_reserved":false,"is_disabled":true,"rental_uris":{"android":"levelo://app?vid=c8a3a0ed-dff2-4f3c-87dc-2e6b47b1ad28","ios":"levelo://app?vid=c8a3a0ed-dff2-4f3c-87dc-2e6b47b1ad28"},"vehicle_type_id":"4","last_reported":1738246115,"current_range_meters":0,"station_id":"","pricing_plan_id":"cebpf4jnsgd1na2vs0mg"},{"bike_id":"9816b1f2-b169-4bdc-a304-4b2a511c7d2e","system_id":"levelo_inurba_marseille","lat":43.29858,"lon":5.36273,"is_reserved":false,"is_disabled":false,"rental_uris":{"android":"levelo://app?vid=9816b1f2-b169-4bdc-a304-4b2a511c7d2e","ios":"levelo://app?vid=9816b1f2-b169-4bdc-a304-4b2a511c7d2e"},"vehicle_type_id":"4","last_reported":1738246115,"current_range_meters":30000,"station_id":"ce4bgpp2rcd13ifvqc3g","pricing_plan_id":"cebpf4jnsgd1na2vs0mg"},{"bike_id":"02ad5e65-8e2d-4089-98e9-5d190adb7054","system_id":"levelo_inurba_marseille","lat":43.2834,"lon":5.38093,"is_reserved":false,"is_disabled":false,"rental_uris":{"android":"levelo://app?vid=02ad5e65-8e2d-4089-98e9-5d190adb7054","ios":"levelo://app?vid=02ad5e65-8e2d-4089-98e9-5d190adb7054"},"vehicle_type_id":"4","last_reported":1738246115,"current_range_meters":30000,"station_id":"ce4bh412rcd13ifvqdr0","pricing_plan_id":"cebpf4jnsgd1na2vs0mg"},{"bike_id":"7247902a-635d-4f06-9cf7-f11e089c2d38","system_id":"levelo_inurba_marseille","lat":43.269411,"lon":5.402581,"is_reserved":false,"is_disabled":false,"rental_uris":{"android":"levelo://app?vid=7247902a-635d-4f06-9cf7-f11e089c2d38","ios":"levelo://app?vid=7247902a-635d-4f06-9cf7-f11e089c2d38"},"vehicle_type_id":"4","last_reported":1738246115,"current_range_meters":38800,"station_id":"cjm6bp8fraef2m0cb0m0","pricing_plan_id":"cebpf4jnsgd1na2vs0mg"},{"bike_id":"b55d5c87-d733-4603-88ce-2f908f24af92","system_id":"levelo_inurba_marseille","lat":43.289333,"lon":5.383953,"is_reserved":false,"is_disabled":false,"rental_uris":{"android":"levelo://app?vid=b55d5c87-d733-4603-88ce-2f908f24af92","ios":"levelo://app?vid=b55d5c87-d733-4603-88ce-2f908f24af92"},"vehicle_type_id":"4","last_reported":1738246115,"current_range_meters":38800,"station_id":"ce4bh612rcd13ifvqe6g","pricing_plan_id":"cebpf4jnsgd1na2vs0mg"},{"bike_id":"6a3cab35-4e4c-4228-9090-2389d829f024","system_id":"levelo_inurba_marseille","lat":43.31385,"lon":5.38501,"is_reserved":false,"is_disabled":false,"rental_uris":{"android":"levelo://app?vid=6a3cab35-4e4c-4228-9090-2389d829f024","ios":"levelo://app?vid=6a3cab35-4e4c-4228-9090-2389d829f024"},"vehicle_type_id":"4","last_reported":1738246115,"current_range_meters":32800,"station_id":"ce4bgt92rcd13ifvqcf0","pricing_plan_id":"cebpf4jnsgd1na2vs0mg"},{"bike_id":"2e1db198-f2d0-495d-a181-e940c0bb8367","system_id":"levelo_inurba_marseille","lat":43.29792,"lon":5.39351,"is_reserved":false,"is_disabled":false,"rental_uris":{"android":"levelo://app?vid=2e1db198-f2d0-495d-a181-e940c0bb8367","ios":"levelo://app?vid=2e1db198-f2d0-495d-a181-e940c0bb8367"},"vehicle_type_id":"4","last_reported":1738246115,"current_range_meters":39200,"station_id":"chh1huq6cuj3fo74tm60","pricing_plan_id":"cebpf4jnsgd1na2vs0mg"},{"bike_id":"ecc7d736-8dcc-4521-8ca5-10a9af95cf48","system_id":"levelo_inurba_marseille","lat":43.25938,"lon":5.40914,"is_reserved":false,"is_disabled":false,"rental_uris":{"android":"levelo://app?vid=ecc7d736-8dcc-4521-8ca5-10a9af95cf48","ios":"levelo://app?vid=ecc7d736-8dcc-4521-8ca5-10a9af95cf48"},"vehicle_type_id":"4","last_reported":1738246115,"current_range_meters":26000,"station_id":"ce4bhm92rcd13ifvqglg","pricing_plan_id":"cebpf4jnsgd1na2vs0mg"},{"bike_id":"05e57a95-2c98-4ceb-9388-74d754669e55","system_id":"levelo_inurba_marseille","lat":43.25874,"lon":5.39906,"is_reserved":false,"is_disabled":false,"rental_uris":{"android":"levelo://app?vid=05e57a95-2c98-4ceb-9388-74d754669e55","ios":"levelo://app?vid=05e57a95-2c98-4ceb-9388-74d754669e55"},"vehicle_type_id":"4","last_reported":1738246115,"current_range_meters":22000,"station_id":"ce4bhl92rcd13ifvqghg","pricing_plan_id":"cebpf4jnsgd1na2vs0mg"},{"bike_id":"32802d31-82e5-49aa-928e-45336ddb5e58","system_id":"levelo_inurba_marseille","lat":43.24999,"lon":5.38925,"is_reserved":false,"is_disabled":false,"rental_uris":{"android":"levelo://app?vid=32802d31-82e5-49aa-928e-45336ddb5e58","ios":"levelo://app?vid=32802d31-82e5-49aa-928e-45336ddb5e58"},"vehicle_type_id":"4","last_reported":1738246115,"current_range_meters":38800,"station_id":"ce4bhgp2rcd13ifvqfd0","pricing_plan_id":"cebpf4jnsgd1na2vs0mg"},{"bike_id":"d06240a3-8895-42e8-9212-5c068d44e9d2","system_id":"levelo_inurba_marseille","lat":43.28613,"lon":5.35108,"is_reserved":false,"is_disabled":false,"rental_uris":{"android":"levelo://app?vid=d06240a3-8895-42e8-9212-5c068d44e9d2","ios":"levelo://app?vid=d06240a3-8895-42e8-9212-5c068d44e9d2"},"vehicle_type_id":"4","last_reported":1738246115,"current_range_meters":29600,"station_id":"ce4bhch2rcd13ifvqeug","pricing_plan_id":"cebpf4jnsgd1na2vs0mg"},{"bike_id":"119a0ace-2413-496b-84f3-db8a6a6c260c","system_id":"levelo_inurba_marseille","lat":43.30567,"lon":5.36548,"is_reserved":false,"is_disabled":false,"rental_uris":{"android":"levelo://app?vid=119a0ace-2413-496b-84f3-db8a6a6c260c","ios":"levelo://app?vid=119a0ace-2413-496b-84f3-db8a6a6c260c"},"vehicle_type_id":"4","last_reported":1738246115,"current_range_meters":30800,"station_id":"ce4bgs12rcd13ifvqcag","pricing_plan_id":"cebpf4jnsgd1na2vs0mg"},{"bike_id":"4ba3b19f-1b1a-4673-8b8c-2619676f90bd","system_id":"levelo_inurba_marseille","lat":43.25925,"lon":5.40878,"is_reserved":false,"is_disabled":false,"rental_uris":{"android":"levelo://app?vid=4ba3b19f-1b1a-4673-8b8c-2619676f90bd","ios":"levelo://app?vid=4ba3b19f-1b1a-4673-8b8c-2619676f90bd"},"vehicle_type_id":"4","last_reported":1738246115,"current_range_meters":5600,"station_id":"ce4bhm92rcd13ifvqglg","pricing_plan_id":"cebpf4jnsgd1na2vs0mg"},{"bike_id":"6e96a0c1-42d4-438c-8703-2e5b8e3a3ca1","system_id":"levelo_inurba_marseille","lat":43.28616,"lon":5.35102,"is_reserved":false,"is_disabled":false,"rental_uris":{"android":"levelo://app?vid=6e96a0c1-42d4-438c-8703-2e5b8e3a3ca1","ios":"levelo://app?vid=6e96a0c1-42d4-438c-8703-2e5b8e3a3ca1"},"vehicle_type_id":"4","last_reported":1738246115,"current_range_meters":36800,"station_id":"ce4bhch2rcd13ifvqeug","pricing_plan_id":"cebpf4jnsgd1na2vs0mg"},{"bike_id":"3356b1bd-7984-4c06-8cdb-d85ceabf072a","system_id":"levelo_inurba_marseille","lat":43.31258,"lon":5.36908,"is_reserved":false,"is_disabled":false,"rental_uris":{"android":"levelo://app?vid=3356b1bd-7984-4c06-8cdb-d85ceabf072a","ios":"levelo://app?vid=3356b1bd-7984-4c06-8cdb-d85ceabf072a"},"vehicle_type_id":"4","last_reported":1738246115,"current_range_meters":25600,"station_id":"","pricing_plan_id":"cebpf4jnsgd1na2vs0mg"},{"bike_id":"a36de8bd-2e3e-4fb2-8780-295adcb078f0","system_id":"levelo_inurba_marseille","lat":43.26558,"lon":5.37282,"is_reserved":false,"is_disabled":false,"rental_uris":{"android":"levelo://app?vid=a36de8bd-2e3e-4fb2-8780-295adcb078f0","ios":"levelo://app?vid=a36de8bd-2e3e-4fb2-8780-295adcb078f0"},"vehicle_type_id":"4","last_reported":1738246115,"current_range_meters":36800,"station_id":"ce4bhg12rcd13ifvqf70","pricing_plan_id":"cebpf4jnsgd1na2vs0mg"},{"bike_id":"9838cc78-2b53-49d3-ae13-82df62c4fd64","system_id":"levelo_inurba_marseille","lat":43.28412,"lon":5.40934,"is_reserved":false,"is_disabled":true,"rental_uris":{"android":"levelo://app?vid=9838cc78-2b53-49d3-ae13-82df62c4fd64","ios":"levelo://app?vid=9838cc78-2b53-49d3-ae13-82df62c4fd64"},"vehicle_type_id":"4","last_reported":1738246115,"current_range_meters":0,"station_id":"","pricing_plan_id":"cebpf4jnsgd1na2vs0mg"},{"bike_id":"048860aa-be71-4929-84ff-ea59f6149e62","system_id":"levelo_inurba_marseille","lat":43.28346,"lon":5.38108,"is_reserved":false,"is_disabled":false,"rental_uris":{"android":"levelo://app?vid=048860aa-be71-4929-84ff-ea59f6149e62","ios":"levelo://app?vid=048860aa-be71-4929-84ff-ea59f6149e62"},"vehicle_type_id":"4","last_reported":1738246115,"current_range_meters":18800,"station_id":"ce4bh412rcd13ifvqdr0","pricing_plan_id":"cebpf4jnsgd1na2vs0mg"},{"bike_id":"88cbcd2b-b7cb-4a42-b1e9-83abbe928275","system_id":"levelo_inurba_marseille","lat":43.30804,"lon":5.38143,"is_reserved":false,"is_disabled":false,"rental_uris":{"android":"levelo://app?vid=88cbcd2b-b7cb-4a42-b1e9-83abbe928275","ios":"levelo://app?vid=88cbcd2b-b7cb-4a42-b1e9-83abbe928275"},"vehicle_type_id":"4","last_reported":1738246115,"current_range_meters":36400,"station_id":"ce4bgt12rcd13ifvqce0","pricing_plan_id":"cebpf4jnsgd1na2vs0mg"},{"bike_id":"0b1f4817-4c30-44b7-9201-5f8be66aeb19","system_id":"levelo_inurba_marseille","lat":43.28031,"lon":5.36943,"is_reserved":false,"is_disabled":false,"rental_uris":{"android":"levelo://app?vid=0b1f4817-4c30-44b7-9201-5f8be66aeb19","ios":"levelo://app?vid=0b1f4817-4c30-44b7-9201-5f8be66aeb19"},"vehicle_type_id":"4","last_reported":1738246115,"current_range_meters":38800,"station_id":"ce4bha12rcd13ifvqef0","pricing_plan_id":"cebpf4jnsgd1na2vs0mg"},{"bike_id":"3f506122-7e1b-475c-b307-ffbf7a380821","system_id":"levelo_inurba_marseille","lat":43.2621,"lon":5.3744,"is_reserved":false,"is_disabled":false,"rental_uris":{"android":"levelo://app?vid=3f506122-7e1b-475c-b307-ffbf7a380821","ios":"levelo://app?vid=3f506122-7e1b-475c-b307-ffbf7a380821"},"vehicle_type_id":"4","last_reported":1738246115,"current_range_meters":22400,"station_id":"ce4bhgp2rcd13ifvqfc0","pricing_plan_id":"cebpf4jnsgd1na2vs0mg"},{"bike_id":"a6b336c6-34d6-4b26-bccf-abefa3771ff1","system_id":"levelo_inurba_marseille","lat":43.23154,"lon":5.43712,"is_reserved":false,"is_disabled":false,"rental_uris":{"android":"levelo://app?vid=a6b336c6-34d6-4b26-bccf-abefa3771ff1","ios":"levelo://app?vid=a6b336c6-34d6-4b26-bccf-abefa3771ff1"},"vehicle_type_id":"4","last_reported":1738246115,"current_range_meters":38800,"station_id":"ce4bhmp2rcd13ifvqgog","pricing_plan_id":"cebpf4jnsgd1na2vs0mg"},{"bike_id":"9f6c79b2-892b-47dd-b852-741b9f20e95f","system_id":"levelo_inurba_marseille","lat":43.25084,"lon":5.39521,"is_reserved":false,"is_disabled":false,"rental_uris":{"android":"levelo://app?vid=9f6c79b2-892b-47dd-b852-741b9f20e95f","ios":"levelo://app?vid=9f6c79b2-892b-47dd-b852-741b9f20e95f"},"vehicle_type_id":"4","last_reported":1738246115,"current_range_meters":24800,"station_id":"ce4bhm12rcd13ifvqgkg","pricing_plan_id":"cebpf4jnsgd1na2vs0mg"},{"bike_id":"bde4000e-3bfe-415e-b990-93fcc3a5a8ad","system_id":"levelo_inurba_marseille","lat":43.28705,"lon":5.37375,"is_reserved":false,"is_disabled":false,"rental_uris":{"android":"levelo://app?vid=bde4000e-3bfe-415e-b990-93fcc3a5a8ad","ios":"levelo://app?vid=bde4000e-3bfe-415e-b990-93fcc3a5a8ad"},"vehicle_type_id":"4","last_reported":1738246115,"current_range_meters":38400,"station_id":"ce4bh3p2rcd13ifvqdq0","pricing_plan_id":"cebpf4jnsgd1na2vs0mg"},{"bike_id":"3d3683d0-6fa2-4625-8b79-882bbb185c30","system_id":"levelo_inurba_marseille","lat":43.32272,"lon":5.38276,"is_reserved":false,"is_disabled":false,"rental_uris":{"android":"levelo://app?vid=3d3683d0-6fa2-4625-8b79-882bbb185c30","ios":"levelo://app?vid=3d3683d0-6fa2-4625-8b79-882bbb185c30"},"vehicle_type_id":"4","last_reported":1738246115,"current_range_meters":31200,"station_id":"ce4bhr12rcd13ifvqhqg","pricing_plan_id":"cebpf4jnsgd1na2vs0mg"},{"bike_id":"4487981e-35de-45fa-89dc-c9471979b027","system_id":"levelo_inurba_marseille","lat":43.24652,"lon":5.38894,"is_reserved":false,"is_disabled":false,"rental_uris":{"android":"levelo://app?vid=4487981e-35de-45fa-89dc-c9471979b027","ios":"levelo://app?vid=4487981e-35de-45fa-89dc-c9471979b027"},"vehicle_type_id":"4","last_reported":1738246115,"current_range_meters":38800,"station_id":"ce4bhg12rcd13ifvqf60","pricing_plan_id":"cebpf4jnsgd1na2vs0mg"},{"bike_id":"8316cb10-023d-4bec-a7d1-c688e60191c8","system_id":"levelo_inurba_marseille","lat":43.28131,"lon":5.42582,"is_reserved":false,"is_disabled":false,"rental_uris":{"android":"levelo://app?vid=8316cb10-023d-4bec-a7d1-c688e60191c8","ios":"levelo://app?vid=8316cb10-023d-4bec-a7d1-c688e60191c8"},"vehicle_type_id":"4","last_reported":1738246115,"current_range_meters":10000,"station_id":"","pricing_plan_id":"cebpf4jnsgd1na2vs0mg"},{"bike_id":"33e6fd4a-27d7-4212-babb-f1fdc13abd7e","system_id":"levelo_inurba_marseille","lat":43.24377,"lon":5.37017,"is_reserved":false,"is_disabled":false,"rental_uris":{"android":"levelo://app?vid=33e6fd4a-27d7-4212-babb-f1fdc13abd7e","ios":"levelo://app?vid=33e6fd4a-27d7-4212-babb-f1fdc13abd7e"},"vehicle_type_id":"4","last_reported":1738246115,"current_range_meters":34800,"station_id":"ce4bhhh2rcd13ifvqfk0","pricing_plan_id":"cebpf4jnsgd1na2vs0mg"},{"bike_id":"43cda217-14ed-4801-819f-f1965303a677","system_id":"levelo_inurba_marseille","lat":43.29548,"lon":5.42283,"is_reserved":false,"is_disabled":false,"rental_uris":{"android":"levelo://app?vid=43cda217-14ed-4801-819f-f1965303a677","ios":"levelo://app?vid=43cda217-14ed-4801-819f-f1965303a677"},"vehicle_type_id":"4","last_reported":1738246115,"current_range_meters":14800,"station_id":"ce4bhph2rcd13ifvqhdg","pricing_plan_id":"cebpf4jnsgd1na2vs0mg"},{"bike_id":"2a180ede-2df6-4234-81d1-0820a74e8b66","system_id":"levelo_inurba_marseille","lat":43.2993,"lon":5.37484,"is_reserved":false,"is_disabled":false,"rental_uris":{"android":"levelo://app?vid=2a180ede-2df6-4234-81d1-0820a74e8b66","ios":"levelo://app?vid=2a180ede-2df6-4234-81d1-0820a74e8b66"},"vehicle_type_id":"4","last_reported":1738246115,"current_range_meters":38400,"station_id":"ce4bgjh2rcd13ifvqbg0","pricing_plan_id":"cebpf4jnsgd1na2vs0mg"},{"bike_id":"a0e9467e-a6ce-485e-a39f-0e7292f7d41f","system_id":"levelo_inurba_marseille","lat":43.31717,"lon":5.43712,"is_reserved":false,"is_disabled":false,"rental_uris":{"android":"levelo://app?vid=a0e9467e-a6ce-485e-a39f-0e7292f7d41f","ios":"levelo://app?vid=a0e9467e-a6ce-485e-a39f-0e7292f7d41f"},"vehicle_type_id":"4","last_reported":1738246115,"current_range_meters":12000,"station_id":"ce4bhp92rcd13ifvqhcg","pricing_plan_id":"cebpf4jnsgd1na2vs0mg"},{"bike_id":"d979d8d2-ec65-47af-9229-e4270aab279a","system_id":"levelo_inurba_marseille","lat":43.23062,"lon":5.35475,"is_reserved":false,"is_disabled":false,"rental_uris":{"android":"levelo://app?vid=d979d8d2-ec65-47af-9229-e4270aab279a","ios":"levelo://app?vid=d979d8d2-ec65-47af-9229-e4270aab279a"},"vehicle_type_id":"4","last_reported":1738246115,"current_range_meters":14000,"station_id":"cpo3342slgdg3j2ifvpg","pricing_plan_id":"cebpf4jnsgd1na2vs0mg"},{"bike_id":"6d794ab4-8a41-420e-9684-1f49d9f4dedb","system_id":"levelo_inurba_marseille","lat":43.26215,"lon":5.3746,"is_reserved":false,"is_disabled":false,"rental_uris":{"android":"levelo://app?vid=6d794ab4-8a41-420e-9684-1f49d9f4dedb","ios":"levelo://app?vid=6d794ab4-8a41-420e-9684-1f49d9f4dedb"},"vehicle_type_id":"4","last_reported":1738246115,"current_range_meters":39200,"station_id":"ce4bhgp2rcd13ifvqfc0","pricing_plan_id":"cebpf4jnsgd1na2vs0mg"},{"bike_id":"f10d9b40-8520-41ee-b039-cd6e7d066065","system_id":"levelo_inurba_marseille","lat":43.2622,"lon":5.37451,"is_reserved":false,"is_disabled":false,"rental_uris":{"android":"levelo://app?vid=f10d9b40-8520-41ee-b039-cd6e7d066065","ios":"levelo://app?vid=f10d9b40-8520-41ee-b039-cd6e7d066065"},"vehicle_type_id":"4","last_reported":1738246115,"current_range_meters":36800,"station_id":"ce4bhgp2rcd13ifvqfc0","pricing_plan_id":"cebpf4jnsgd1na2vs0mg"},{"bike_id":"4a06f9c3-32a0-4c6f-86c7-ad99d0332fe6","system_id":"levelo_inurba_marseille","lat":43.3236,"lon":5.38881,"is_reserved":false,"is_disabled":false,"rental_uris":{"android":"levelo://app?vid=4a06f9c3-32a0-4c6f-86c7-ad99d0332fe6","ios":"levelo://app?vid=4a06f9c3-32a0-4c6f-86c7-ad99d0332fe6"},"vehicle_type_id":"4","last_reported":1738246115,"current_range_meters":19200,"station_id":"ce4bhqp2rcd13ifvqhog","pricing_plan_id":"cebpf4jnsgd1na2vs0mg"},{"bike_id":"2a4dadad-ee26-46b0-a55f-2dc5fd419499","system_id":"levelo_inurba_marseille","lat":43.29098,"lon":5.3814,"is_reserved":false,"is_disabled":false,"rental_uris":{"android":"levelo://app?vid=2a4dadad-ee26-46b0-a55f-2dc5fd419499","ios":"levelo://app?vid=2a4dadad-ee26-46b0-a55f-2dc5fd419499"},"vehicle_type_id":"4","last_reported":1738246115,"current_range_meters":26000,"station_id":"ce4bh512rcd13ifvqe2g","pricing_plan_id":"cebpf4jnsgd1na2vs0mg"},{"bike_id":"4103f9ea-dc49-40ff-a855-96e33d24e922","system_id":"levelo_inurba_marseille","lat":43.26943,"lon":5.40252,"is_reserved":false,"is_disabled":false,"rental_uris":{"android":"levelo://app?vid=4103f9ea-dc49-40ff-a855-96e33d24e922","ios":"levelo://app?vid=4103f9ea-dc49-40ff-a855-96e33d24e922"},"vehicle_type_id":"4","last_reported":1738246115,"current_range_meters":39200,"station_id":"cjm6bp8fraef2m0cb0m0","pricing_plan_id":"cebpf4jnsgd1na2vs0mg"},{"bike_id":"b569e717-c102-4a04-9eb3-f7a8c47ab76b","system_id":"levelo_inurba_marseille","lat":43.26951,"lon":5.38634,"is_reserved":false,"is_disabled":false,"rental_uris":{"android":"levelo://app?vid=b569e717-c102-4a04-9eb3-f7a8c47ab76b","ios":"levelo://app?vid=b569e717-c102-4a04-9eb3-f7a8c47ab76b"},"vehicle_type_id":"4","last_reported":1738246115,"current_range_meters":38800,"station_id":"ce4bhh92rcd13ifvqfh0","pricing_plan_id":"cebpf4jnsgd1na2vs0mg"},{"bike_id":"7d6260ec-6d8c-4d5b-8950-1a493871014c","system_id":"levelo_inurba_marseille","lat":43.2987,"lon":5.43633,"is_reserved":false,"is_disabled":false,"rental_uris":{"android":"levelo://app?vid=7d6260ec-6d8c-4d5b-8950-1a493871014c","ios":"levelo://app?vid=7d6260ec-6d8c-4d5b-8950-1a493871014c"},"vehicle_type_id":"4","last_reported":1738246115,"current_range_meters":34000,"station_id":"ce4bhpp2rcd13ifvqhfg","pricing_plan_id":"cebpf4jnsgd1na2vs0mg"},{"bike_id":"4b9caf7c-f87f-4a67-87ec-7ed626a6b8df","system_id":"levelo_inurba_marseille","lat":43.27229,"lon":5.39213,"is_reserved":false,"is_disabled":false,"rental_uris":{"android":"levelo://app?vid=4b9caf7c-f87f-4a67-87ec-7ed626a6b8df","ios":"levelo://app?vid=4b9caf7c-f87f-4a67-87ec-7ed626a6b8df"},"vehicle_type_id":"4","last_reported":1738246115,"current_range_meters":28400,"station_id":"ce4bhhp2rcd13ifvqfm0","pricing_plan_id":"cebpf4jnsgd1na2vs0mg"},{"bike_id":"1b6fd190-21fa-4758-93db-00b7057d89a9","system_id":"levelo_inurba_marseille","lat":43.257523,"lon":5.411013,"is_reserved":false,"is_disabled":false,"rental_uris":{"android":"levelo://app?vid=1b6fd190-21fa-4758-93db-00b7057d89a9","ios":"levelo://app?vid=1b6fd190-21fa-4758-93db-00b7057d89a9"},"vehicle_type_id":"4","last_reported":1738246115,"current_range_meters":37600,"station_id":"ce4bhkp2rcd13ifvqgd0","pricing_plan_id":"cebpf4jnsgd1na2vs0mg"},{"bike_id":"6c230d95-dca4-469c-87a0-b1ea99b8637b","system_id":"levelo_inurba_marseille","lat":43.30533,"lon":5.36718,"is_reserved":false,"is_disabled":false,"rental_uris":{"android":"levelo://app?vid=6c230d95-dca4-469c-87a0-b1ea99b8637b","ios":"levelo://app?vid=6c230d95-dca4-469c-87a0-b1ea99b8637b"},"vehicle_type_id":"4","last_reported":1738246115,"current_range_meters":7200,"station_id":"ce4bgrp2rcd13ifvqc9g","pricing_plan_id":"cebpf4jnsgd1na2vs0mg"},{"bike_id":"585bc90c-4429-45fc-a98d-be96cbedf2ff","system_id":"levelo_inurba_marseille","lat":43.29802,"lon":5.38095,"is_reserved":false,"is_disabled":false,"rental_uris":{"android":"levelo://app?vid=585bc90c-4429-45fc-a98d-be96cbedf2ff","ios":"levelo://app?vid=585bc90c-4429-45fc-a98d-be96cbedf2ff"},"vehicle_type_id":"4","last_reported":1738246115,"current_range_meters":24000,"station_id":"ce4bgip2rcd13ifvqbb0","pricing_plan_id":"cebpf4jnsgd1na2vs0mg"},{"bike_id":"d8b1c3f9-ff6e-4179-8423-4ba0d2a2af0e","system_id":"levelo_inurba_marseille","lat":43.33734,"lon":5.39171,"is_reserved":false,"is_disabled":false,"rental_uris":{"android":"levelo://app?vid=d8b1c3f9-ff6e-4179-8423-4ba0d2a2af0e","ios":"levelo://app?vid=d8b1c3f9-ff6e-4179-8423-4ba0d2a2af0e"},"vehicle_type_id":"4","last_reported":1738246115,"current_range_meters":39200,"station_id":"ce4bhr92rcd13ifvqhsg","pricing_plan_id":"cebpf4jnsgd1na2vs0mg"},{"bike_id":"8fbfaa87-4997-43f3-8d71-b30fc64a490f","system_id":"levelo_inurba_marseille","lat":43.33724,"lon":5.39179,"is_reserved":false,"is_disabled":false,"rental_uris":{"android":"levelo://app?vid=8fbfaa87-4997-43f3-8d71-b30fc64a490f","ios":"levelo://app?vid=8fbfaa87-4997-43f3-8d71-b30fc64a490f"},"vehicle_type_id":"4","last_reported":1738246115,"current_range_meters":39200,"station_id":"ce4bhr92rcd13ifvqhsg","pricing_plan_id":"cebpf4jnsgd1na2vs0mg"},{"bike_id":"a33d7e5c-38ac-4232-a621-0fba8d588092","system_id":"levelo_inurba_marseille","lat":43.3079,"lon":5.38158,"is_reserved":false,"is_disabled":false,"rental_uris":{"android":"levelo://app?vid=a33d7e5c-38ac-4232-a621-0fba8d588092","ios":"levelo://app?vid=a33d7e5c-38ac-4232-a621-0fba8d588092"},"vehicle_type_id":"4","last_reported":1738246115,"current_range_meters":31200,"station_id":"ce4bgt12rcd13ifvqce0","pricing_plan_id":"cebpf4jnsgd1na2vs0mg"},{"bike_id":"7cd6617d-ef37-4b9a-9114-490e143ce3ab","system_id":"levelo_inurba_marseille","lat":43.31893,"lon":5.40724,"is_reserved":false,"is_disabled":false,"rental_uris":{"android":"levelo://app?vid=7cd6617d-ef37-4b9a-9114-490e143ce3ab","ios":"levelo://app?vid=7cd6617d-ef37-4b9a-9114-490e143ce3ab"},"vehicle_type_id":"4","last_reported":1738246115,"current_range_meters":38800,"station_id":"ce4bhq12rcd13ifvqhig","pricing_plan_id":"cebpf4jnsgd1na2vs0mg"},{"bike_id":"ccb6318c-6994-46f1-b382-d420e97e4a87","system_id":"levelo_inurba_marseille","lat":43.27219,"lon":5.39199,"is_reserved":false,"is_disabled":false,"rental_uris":{"android":"levelo://app?vid=ccb6318c-6994-46f1-b382-d420e97e4a87","ios":"levelo://app?vid=ccb6318c-6994-46f1-b382-d420e97e4a87"},"vehicle_type_id":"4","last_reported":1738246115,"current_range_meters":33600,"station_id":"ce4bhhp2rcd13ifvqfm0","pricing_plan_id":"cebpf4jnsgd1na2vs0mg"},{"bike_id":"f46bb6d5-cca8-4a87-b3fd-9e47555382a7","system_id":"levelo_inurba_marseille","lat":43.24667,"lon":5.38169,"is_reserved":false,"is_disabled":false,"rental_uris":{"android":"levelo://app?vid=f46bb6d5-cca8-4a87-b3fd-9e47555382a7","ios":"levelo://app?vid=f46bb6d5-cca8-4a87-b3fd-9e47555382a7"},"vehicle_type_id":"4","last_reported":1738246115,"current_range_meters":20800,"station_id":"ce4bhih2rcd13ifvqfr0","pricing_plan_id":"cebpf4jnsgd1na2vs0mg"},{"bike_id":"0080d4d2-33ec-4edc-ab48-c4e7cb99e838","system_id":"levelo_inurba_marseille","lat":43.33599,"lon":5.41029,"is_reserved":false,"is_disabled":false,"rental_uris":{"android":"levelo://app?vid=0080d4d2-33ec-4edc-ab48-c4e7cb99e838","ios":"levelo://app?vid=0080d4d2-33ec-4edc-ab48-c4e7cb99e838"},"vehicle_type_id":"4","last_reported":1738246115,"current_range_meters":32000,"station_id":"ce4bhqh2rcd13ifvqhmg","pricing_plan_id":"cebpf4jnsgd1na2vs0mg"},{"bike_id":"b56534f8-577f-4250-914f-e0db70a64414","system_id":"levelo_inurba_marseille","lat":43.32478,"lon":5.3656,"is_reserved":false,"is_disabled":false,"rental_uris":{"android":"levelo://app?vid=b56534f8-577f-4250-914f-e0db70a64414","ios":"levelo://app?vid=b56534f8-577f-4250-914f-e0db70a64414"},"vehicle_type_id":"4","last_reported":1738246115,"current_range_meters":15200,"station_id":"ce4bhs12rcd13ifvqhvg","pricing_plan_id":"cebpf4jnsgd1na2vs0mg"},{"bike_id":"5b9dcc5d-6c59-495e-b2f6-f8d55d55a751","system_id":"levelo_inurba_marseille","lat":43.28071,"lon":5.39649,"is_reserved":false,"is_disabled":false,"rental_uris":{"android":"levelo://app?vid=5b9dcc5d-6c59-495e-b2f6-f8d55d55a751","ios":"levelo://app?vid=5b9dcc5d-6c59-495e-b2f6-f8d55d55a751"},"vehicle_type_id":"4","last_reported":1738246115,"current_range_meters":38800,"station_id":"ce4bho12rcd13ifvqh2g","pricing_plan_id":"cebpf4jnsgd1na2vs0mg"},{"bike_id":"94f0f4ac-77b1-4120-af30-8bc25df8b6a4","system_id":"levelo_inurba_marseille","lat":43.28936,"lon":5.39633,"is_reserved":false,"is_disabled":false,"rental_uris":{"android":"levelo://app?vid=94f0f4ac-77b1-4120-af30-8bc25df8b6a4","ios":"levelo://app?vid=94f0f4ac-77b1-4120-af30-8bc25df8b6a4"},"vehicle_type_id":"4","last_reported":1738246115,"current_range_meters":15200,"station_id":"ce4bh3h2rcd13ifvqdn0","pricing_plan_id":"cebpf4jnsgd1na2vs0mg"},{"bike_id":"9a6334c1-2529-46f5-9be3-482365ba227d","system_id":"levelo_inurba_marseille","lat":43.30174,"lon":5.38082,"is_reserved":false,"is_disabled":false,"rental_uris":{"android":"levelo://app?vid=9a6334c1-2529-46f5-9be3-482365ba227d","ios":"levelo://app?vid=9a6334c1-2529-46f5-9be3-482365ba227d"},"vehicle_type_id":"4","last_reported":1738246115,"current_range_meters":30000,"station_id":"ce4bgjp2rcd13ifvqbh0","pricing_plan_id":"cebpf4jnsgd1na2vs0mg"},{"bike_id":"fa2f1c21-3bfc-46ef-bcba-588774df180a","system_id":"levelo_inurba_marseille","lat":43.25862,"lon":5.39894,"is_reserved":false,"is_disabled":false,"rental_uris":{"android":"levelo://app?vid=fa2f1c21-3bfc-46ef-bcba-588774df180a","ios":"levelo://app?vid=fa2f1c21-3bfc-46ef-bcba-588774df180a"},"vehicle_type_id":"4","last_reported":1738246115,"current_range_meters":39200,"station_id":"ce4bhl92rcd13ifvqghg","pricing_plan_id":"cebpf4jnsgd1na2vs0mg"},{"bike_id":"f0f16a0a-9ada-4b40-8b05-8689a3b127be","system_id":"levelo_inurba_marseille","lat":43.30022,"lon":5.3736,"is_reserved":false,"is_disabled":true,"rental_uris":{"android":"levelo://app?vid=f0f16a0a-9ada-4b40-8b05-8689a3b127be","ios":"levelo://app?vid=f0f16a0a-9ada-4b40-8b05-8689a3b127be"},"vehicle_type_id":"4","last_reported":1738246115,"current_range_meters":2000,"station_id":"","pricing_plan_id":"cebpf4jnsgd1na2vs0mg"},{"bike_id":"0775cbde-21a5-4552-b992-9eb0a972d277","system_id":"levelo_inurba_marseille","lat":43.24076,"lon":5.37754,"is_reserved":false,"is_disabled":false,"rental_uris":{"android":"levelo://app?vid=0775cbde-21a5-4552-b992-9eb0a972d277","ios":"levelo://app?vid=0775cbde-21a5-4552-b992-9eb0a972d277"},"vehicle_type_id":"4","last_reported":1738246115,"current_range_meters":28400,"station_id":"ce4bhnp2rcd13ifvqgvg","pricing_plan_id":"cebpf4jnsgd1na2vs0mg"},{"bike_id":"8e55ca69-5b53-43f9-bbef-ecdaf989c6da","system_id":"levelo_inurba_marseille","lat":43.31687,"lon":5.40472,"is_reserved":false,"is_disabled":false,"rental_uris":{"android":"levelo://app?vid=8e55ca69-5b53-43f9-bbef-ecdaf989c6da","ios":"levelo://app?vid=8e55ca69-5b53-43f9-bbef-ecdaf989c6da"},"vehicle_type_id":"4","last_reported":1738246115,"current_range_meters":29600,"station_id":"ce4bh012rcd13ifvqd00","pricing_plan_id":"cebpf4jnsgd1na2vs0mg"},{"bike_id":"e74f24e1-add2-4635-a51d-5692fff267ad","system_id":"levelo_inurba_marseille","lat":43.30275,"lon":5.37687,"is_reserved":false,"is_disabled":false,"rental_uris":{"android":"levelo://app?vid=e74f24e1-add2-4635-a51d-5692fff267ad","ios":"levelo://app?vid=e74f24e1-add2-4635-a51d-5692fff267ad"},"vehicle_type_id":"4","last_reported":1738246115,"current_range_meters":32400,"station_id":"ce4bguh2rcd13ifvqcj0","pricing_plan_id":"cebpf4jnsgd1na2vs0mg"},{"bike_id":"0028c9a1-5997-48c9-bdd6-d2672fb1d0e7","system_id":"levelo_inurba_marseille","lat":43.29603,"lon":5.38087,"is_reserved":false,"is_disabled":false,"rental_uris":{"android":"levelo://app?vid=0028c9a1-5997-48c9-bdd6-d2672fb1d0e7","ios":"levelo://app?vid=0028c9a1-5997-48c9-bdd6-d2672fb1d0e7"},"vehicle_type_id":"4","last_reported":1738246115,"current_range_meters":38800,"station_id":"ce4bgl12rcd13ifvqbo0","pricing_plan_id":"cebpf4jnsgd1na2vs0mg"},{"bike_id":"5eb22329-ff09-4a9e-b799-f89a32a3f708","system_id":"levelo_inurba_marseille","lat":43.30136,"lon":5.37425,"is_reserved":false,"is_disabled":false,"rental_uris":{"android":"levelo://app?vid=5eb22329-ff09-4a9e-b799-f89a32a3f708","ios":"levelo://app?vid=5eb22329-ff09-4a9e-b799-f89a32a3f708"},"vehicle_type_id":"4","last_reported":1738246115,"current_range_meters":15200,"station_id":"ce4bgs92rcd13ifvqcc0","pricing_plan_id":"cebpf4jnsgd1na2vs0mg"},{"bike_id":"6ab142fe-9a4c-4e57-a5de-1e1e6100679e","system_id":"levelo_inurba_marseille","lat":43.28105,"lon":5.37848,"is_reserved":false,"is_disabled":false,"rental_uris":{"android":"levelo://app?vid=6ab142fe-9a4c-4e57-a5de-1e1e6100679e","ios":"levelo://app?vid=6ab142fe-9a4c-4e57-a5de-1e1e6100679e"},"vehicle_type_id":"4","last_reported":1738246115,"current_range_meters":8800,"station_id":"ce4bha12rcd13ifvqee0","pricing_plan_id":"cebpf4jnsgd1na2vs0mg"},{"bike_id":"e80fac75-0703-438b-9cb4-cf7aa615d978","system_id":"levelo_inurba_marseille","lat":43.28159,"lon":5.42652,"is_reserved":false,"is_disabled":false,"rental_uris":{"android":"levelo://app?vid=e80fac75-0703-438b-9cb4-cf7aa615d978","ios":"levelo://app?vid=e80fac75-0703-438b-9cb4-cf7aa615d978"},"vehicle_type_id":"4","last_reported":1738246115,"current_range_meters":4000,"station_id":"ce4bhnh2rcd13ifvqgug","pricing_plan_id":"cebpf4jnsgd1na2vs0mg"},{"bike_id":"ed2de8b2-bceb-4115-9fd4-6f4cd5bdef1c","system_id":"levelo_inurba_marseille","lat":43.292734,"lon":5.368523,"is_reserved":false,"is_disabled":false,"rental_uris":{"android":"levelo://app?vid=ed2de8b2-bceb-4115-9fd4-6f4cd5bdef1c","ios":"levelo://app?vid=ed2de8b2-bceb-4115-9fd4-6f4cd5bdef1c"},"vehicle_type_id":"4","last_reported":1738246115,"current_range_meters":38800,"station_id":"ce4bhbp2rcd13ifvqesg","pricing_plan_id":"cebpf4jnsgd1na2vs0mg"},{"bike_id":"146e1d2a-a85d-41e8-b665-fe6ede9dc7fc","system_id":"levelo_inurba_marseille","lat":43.30163,"lon":5.38088,"is_reserved":false,"is_disabled":false,"rental_uris":{"android":"levelo://app?vid=146e1d2a-a85d-41e8-b665-fe6ede9dc7fc","ios":"levelo://app?vid=146e1d2a-a85d-41e8-b665-fe6ede9dc7fc"},"vehicle_type_id":"4","last_reported":1738246115,"current_range_meters":38400,"station_id":"ce4bgjp2rcd13ifvqbh0","pricing_plan_id":"cebpf4jnsgd1na2vs0mg"},{"bike_id":"5e995bf7-c9ed-4dac-99cc-dd1f81921bd9","system_id":"levelo_inurba_marseille","lat":43.26871,"lon":5.4032,"is_reserved":false,"is_disabled":false,"rental_uris":{"android":"levelo://app?vid=5e995bf7-c9ed-4dac-99cc-dd1f81921bd9","ios":"levelo://app?vid=5e995bf7-c9ed-4dac-99cc-dd1f81921bd9"},"vehicle_type_id":"4","last_reported":1738246115,"current_range_meters":38800,"station_id":"cjm6bp8fraef2m0cb0m0","pricing_plan_id":"cebpf4jnsgd1na2vs0mg"},{"bike_id":"cd6b353a-d9ae-47b8-9eb1-cf960e9a39fe","system_id":"levelo_inurba_marseille","lat":43.29272,"lon":5.36832,"is_reserved":false,"is_disabled":false,"rental_uris":{"android":"levelo://app?vid=cd6b353a-d9ae-47b8-9eb1-cf960e9a39fe","ios":"levelo://app?vid=cd6b353a-d9ae-47b8-9eb1-cf960e9a39fe"},"vehicle_type_id":"4","last_reported":1738246115,"current_range_meters":14800,"station_id":"ce4bhbp2rcd13ifvqesg","pricing_plan_id":"cebpf4jnsgd1na2vs0mg"},{"bike_id":"9061c30b-f0f7-46e3-8477-d3c2c36b1f53","system_id":"levelo_inurba_marseille","lat":43.2805,"lon":5.3696,"is_reserved":false,"is_disabled":true,"rental_uris":{"android":"levelo://app?vid=9061c30b-f0f7-46e3-8477-d3c2c36b1f53","ios":"levelo://app?vid=9061c30b-f0f7-46e3-8477-d3c2c36b1f53"},"vehicle_type_id":"4","last_reported":1738246115,"current_range_meters":36800,"station_id":"ce4bha12rcd13ifvqef0","pricing_plan_id":"cebpf4jnsgd1na2vs0mg"},{"bike_id":"fba05ad0-85c5-4e7a-a917-4b9c8e256fa2","system_id":"levelo_inurba_marseille","lat":43.31255,"lon":5.36845,"is_reserved":false,"is_disabled":false,"rental_uris":{"android":"levelo://app?vid=fba05ad0-85c5-4e7a-a917-4b9c8e256fa2","ios":"levelo://app?vid=fba05ad0-85c5-4e7a-a917-4b9c8e256fa2"},"vehicle_type_id":"4","last_reported":1738246115,"current_range_meters":37600,"station_id":"ce4bgl92rcd13ifvqbq0","pricing_plan_id":"cebpf4jnsgd1na2vs0mg"},{"bike_id":"fb33688a-5a97-4fea-8144-a4bf6b0cf308","system_id":"levelo_inurba_marseille","lat":43.30144,"lon":5.37419,"is_reserved":false,"is_disabled":false,"rental_uris":{"android":"levelo://app?vid=fb33688a-5a97-4fea-8144-a4bf6b0cf308","ios":"levelo://app?vid=fb33688a-5a97-4fea-8144-a4bf6b0cf308"},"vehicle_type_id":"4","last_reported":1738246115,"current_range_meters":38000,"station_id":"ce4bgs92rcd13ifvqcc0","pricing_plan_id":"cebpf4jnsgd1na2vs0mg"},{"bike_id":"ab2c796a-c23b-4a3a-9534-777b873d6a05","system_id":"levelo_inurba_marseille","lat":43.2416,"lon":5.36412,"is_reserved":false,"is_disabled":false,"rental_uris":{"android":"levelo://app?vid=ab2c796a-c23b-4a3a-9534-777b873d6a05","ios":"levelo://app?vid=ab2c796a-c23b-4a3a-9534-777b873d6a05"},"vehicle_type_id":"4","last_reported":1738246115,"current_range_meters":38800,"station_id":"cpo36qri1sfpv3e86is0","pricing_plan_id":"cebpf4jnsgd1na2vs0mg"},{"bike_id":"5df326be-ed0a-4aa4-a915-2ce5ecc93551","system_id":"levelo_inurba_marseille","lat":43.29072,"lon":5.37173,"is_reserved":false,"is_disabled":false,"rental_uris":{"android":"levelo://app?vid=5df326be-ed0a-4aa4-a915-2ce5ecc93551","ios":"levelo://app?vid=5df326be-ed0a-4aa4-a915-2ce5ecc93551"},"vehicle_type_id":"4","last_reported":1738246115,"current_range_meters":23200,"station_id":"ce4bh5p2rcd13ifvqe4g","pricing_plan_id":"cebpf4jnsgd1na2vs0mg"},{"bike_id":"7c8c1958-cb52-4d71-8e09-0431a5d07dd8","system_id":"levelo_inurba_marseille","lat":43.28715,"lon":5.37927,"is_reserved":false,"is_disabled":false,"rental_uris":{"android":"levelo://app?vid=7c8c1958-cb52-4d71-8e09-0431a5d07dd8","ios":"levelo://app?vid=7c8c1958-cb52-4d71-8e09-0431a5d07dd8"},"vehicle_type_id":"4","last_reported":1738246115,"current_range_meters":34000,"station_id":"ce4bh9p2rcd13ifvqec0","pricing_plan_id":"cebpf4jnsgd1na2vs0mg"},{"bike_id":"3441e8db-3853-4f3e-baf2-d7fc68ee345c","system_id":"levelo_inurba_marseille","lat":43.30169,"lon":5.3808,"is_reserved":false,"is_disabled":false,"rental_uris":{"android":"levelo://app?vid=3441e8db-3853-4f3e-baf2-d7fc68ee345c","ios":"levelo://app?vid=3441e8db-3853-4f3e-baf2-d7fc68ee345c"},"vehicle_type_id":"4","last_reported":1738246115,"current_range_meters":11600,"station_id":"ce4bgjp2rcd13ifvqbh0","pricing_plan_id":"cebpf4jnsgd1na2vs0mg"},{"bike_id":"3f3de0e8-ee30-4340-ad16-97c288bf4a8f","system_id":"levelo_inurba_marseille","lat":43.31117,"lon":5.37773,"is_reserved":false,"is_disabled":false,"rental_uris":{"android":"levelo://app?vid=3f3de0e8-ee30-4340-ad16-97c288bf4a8f","ios":"levelo://app?vid=3f3de0e8-ee30-4340-ad16-97c288bf4a8f"},"vehicle_type_id":"4","last_reported":1738246115,"current_range_meters":37600,"station_id":"ce4bgt92rcd13ifvqcg0","pricing_plan_id":"cebpf4jnsgd1na2vs0mg"},{"bike_id":"05a5cf5c-515b-4fa1-979d-1bd1d8b088e3","system_id":"levelo_inurba_marseille","lat":43.24395,"lon":5.37066,"is_reserved":false,"is_disabled":false,"rental_uris":{"android":"levelo://app?vid=05a5cf5c-515b-4fa1-979d-1bd1d8b088e3","ios":"levelo://app?vid=05a5cf5c-515b-4fa1-979d-1bd1d8b088e3"},"vehicle_type_id":"4","last_reported":1738246115,"current_range_meters":26800,"station_id":"ce4bhhh2rcd13ifvqfk0","pricing_plan_id":"cebpf4jnsgd1na2vs0mg"},{"bike_id":"7179c923-1759-47b0-ad11-f724b9a142ea","system_id":"levelo_inurba_marseille","lat":43.28949,"lon":5.39605,"is_reserved":false,"is_disabled":false,"rental_uris":{"android":"levelo://app?vid=7179c923-1759-47b0-ad11-f724b9a142ea","ios":"levelo://app?vid=7179c923-1759-47b0-ad11-f724b9a142ea"},"vehicle_type_id":"4","last_reported":1738246115,"current_range_meters":32400,"station_id":"ce4bh3h2rcd13ifvqdn0","pricing_plan_id":"cebpf4jnsgd1na2vs0mg"},{"bike_id":"b3f9d40e-c6c3-4e70-a1cf-be32056d433c","system_id":"levelo_inurba_marseille","lat":43.24399,"lon":5.37063,"is_reserved":false,"is_disabled":true,"rental_uris":{"android":"levelo://app?vid=b3f9d40e-c6c3-4e70-a1cf-be32056d433c","ios":"levelo://app?vid=b3f9d40e-c6c3-4e70-a1cf-be32056d433c"},"vehicle_type_id":"4","last_reported":1738246115,"current_range_meters":0,"station_id":"ce4bhhh2rcd13ifvqfk0","pricing_plan_id":"cebpf4jnsgd1na2vs0mg"},{"bike_id":"c2cf120a-c6eb-4fdd-a373-943473eea38d","system_id":"levelo_inurba_marseille","lat":43.24541,"lon":5.39516,"is_reserved":false,"is_disabled":false,"rental_uris":{"android":"levelo://app?vid=c2cf120a-c6eb-4fdd-a373-943473eea38d","ios":"levelo://app?vid=c2cf120a-c6eb-4fdd-a373-943473eea38d"},"vehicle_type_id":"4","last_reported":1738246115,"current_range_meters":38800,"station_id":"ce4bhlp2rcd13ifvqgjg","pricing_plan_id":"cebpf4jnsgd1na2vs0mg"},{"bike_id":"fc2dee61-6a5e-41ce-a75c-e2029dcb39bc","system_id":"levelo_inurba_marseille","lat":43.26579,"lon":5.37311,"is_reserved":false,"is_disabled":false,"rental_uris":{"android":"levelo://app?vid=fc2dee61-6a5e-41ce-a75c-e2029dcb39bc","ios":"levelo://app?vid=fc2dee61-6a5e-41ce-a75c-e2029dcb39bc"},"vehicle_type_id":"4","last_reported":1738246115,"current_range_meters":18800,"station_id":"ce4bhg12rcd13ifvqf70","pricing_plan_id":"cebpf4jnsgd1na2vs0mg"},{"bike_id":"940d189d-6721-4f82-bae1-5a9e9e8ab03b","system_id":"levelo_inurba_marseille","lat":43.30938,"lon":5.37512,"is_reserved":false,"is_disabled":false,"rental_uris":{"android":"levelo://app?vid=940d189d-6721-4f82-bae1-5a9e9e8ab03b","ios":"levelo://app?vid=940d189d-6721-4f82-bae1-5a9e9e8ab03b"},"vehicle_type_id":"4","last_reported":1738246115,"current_range_meters":18800,"station_id":"","pricing_plan_id":"cebpf4jnsgd1na2vs0mg"},{"bike_id":"16fa5204-bd30-401c-bb03-ec120239401b","system_id":"levelo_inurba_marseille","lat":43.27682,"lon":5.38862,"is_reserved":false,"is_disabled":true,"rental_uris":{"android":"levelo://app?vid=16fa5204-bd30-401c-bb03-ec120239401b","ios":"levelo://app?vid=16fa5204-bd30-401c-bb03-ec120239401b"},"vehicle_type_id":"4","last_reported":1738246115,"current_range_meters":2000,"station_id":"ce4bhi12rcd13ifvqfo0","pricing_plan_id":"cebpf4jnsgd1na2vs0mg"},{"bike_id":"3afe2907-14fe-40b0-8ce8-247215ed16c8","system_id":"levelo_inurba_marseille","lat":43.26922,"lon":5.38894,"is_reserved":false,"is_disabled":true,"rental_uris":{"android":"levelo://app?vid=3afe2907-14fe-40b0-8ce8-247215ed16c8","ios":"levelo://app?vid=3afe2907-14fe-40b0-8ce8-247215ed16c8"},"vehicle_type_id":"4","last_reported":1738246115,"current_range_meters":0,"station_id":"ce4bhhh2rcd13ifvqfl0","pricing_plan_id":"cebpf4jnsgd1na2vs0mg"},{"bike_id":"e8e1f7c6-d773-4c38-bfcc-4a6d773355ce","system_id":"levelo_inurba_marseille","lat":43.22946,"lon":5.35351,"is_reserved":false,"is_disabled":false,"rental_uris":{"android":"levelo://app?vid=e8e1f7c6-d773-4c38-bfcc-4a6d773355ce","ios":"levelo://app?vid=e8e1f7c6-d773-4c38-bfcc-4a6d773355ce"},"vehicle_type_id":"4","last_reported":1738246115,"current_range_meters":38800,"station_id":"cpo3532slgdg3j2ikp40","pricing_plan_id":"cebpf4jnsgd1na2vs0mg"},{"bike_id":"a001b90a-52eb-4b91-bcfa-c901dc6cdf81","system_id":"levelo_inurba_marseille","lat":43.27998,"lon":5.40009,"is_reserved":false,"is_disabled":false,"rental_uris":{"android":"levelo://app?vid=a001b90a-52eb-4b91-bcfa-c901dc6cdf81","ios":"levelo://app?vid=a001b90a-52eb-4b91-bcfa-c901dc6cdf81"},"vehicle_type_id":"4","last_reported":1738246115,"current_range_meters":25200,"station_id":"ce4bho92rcd13ifvqh4g","pricing_plan_id":"cebpf4jnsgd1na2vs0mg"},{"bike_id":"53437eb2-94d6-4366-99aa-c458a391e6a5","system_id":"levelo_inurba_marseille","lat":43.29637,"lon":5.36747,"is_reserved":false,"is_disabled":false,"rental_uris":{"android":"levelo://app?vid=53437eb2-94d6-4366-99aa-c458a391e6a5","ios":"levelo://app?vid=53437eb2-94d6-4366-99aa-c458a391e6a5"},"vehicle_type_id":"4","last_reported":1738246115,"current_range_meters":33600,"station_id":"","pricing_plan_id":"cebpf4jnsgd1na2vs0mg"},{"bike_id":"1d1bc79e-5a7a-435e-91f3-73234fa7b584","system_id":"levelo_inurba_marseille","lat":43.29298,"lon":5.37441,"is_reserved":false,"is_disabled":false,"rental_uris":{"android":"levelo://app?vid=1d1bc79e-5a7a-435e-91f3-73234fa7b584","ios":"levelo://app?vid=1d1bc79e-5a7a-435e-91f3-73234fa7b584"},"vehicle_type_id":"4","last_reported":1738246115,"current_range_meters":30800,"station_id":"ce4bgi12rcd13ifvqb70","pricing_plan_id":"cebpf4jnsgd1na2vs0mg"},{"bike_id":"7b6d01c3-b9c6-4cae-b2e7-64fcc0baeeaa","system_id":"levelo_inurba_marseille","lat":43.25619,"lon":5.38255,"is_reserved":false,"is_disabled":false,"rental_uris":{"android":"levelo://app?vid=7b6d01c3-b9c6-4cae-b2e7-64fcc0baeeaa","ios":"levelo://app?vid=7b6d01c3-b9c6-4cae-b2e7-64fcc0baeeaa"},"vehicle_type_id":"4","last_reported":1738246115,"current_range_meters":16800,"station_id":"","pricing_plan_id":"cebpf4jnsgd1na2vs0mg"},{"bike_id":"260c3224-c3e5-4a9a-a5e4-8a6ee28f69e2","system_id":"levelo_inurba_marseille","lat":43.28117,"lon":5.37854,"is_reserved":false,"is_disabled":false,"rental_uris":{"android":"levelo://app?vid=260c3224-c3e5-4a9a-a5e4-8a6ee28f69e2","ios":"levelo://app?vid=260c3224-c3e5-4a9a-a5e4-8a6ee28f69e2"},"vehicle_type_id":"4","last_reported":1738246115,"current_range_meters":29600,"station_id":"ce4bha12rcd13ifvqee0","pricing_plan_id":"cebpf4jnsgd1na2vs0mg"},{"bike_id":"56bc0d53-42f7-43f0-947b-78b397d1687c","system_id":"levelo_inurba_marseille","lat":43.29298,"lon":5.37433,"is_reserved":false,"is_disabled":false,"rental_uris":{"android":"levelo://app?vid=56bc0d53-42f7-43f0-947b-78b397d1687c","ios":"levelo://app?vid=56bc0d53-42f7-43f0-947b-78b397d1687c"},"vehicle_type_id":"4","last_reported":1738246115,"current_range_meters":20800,"station_id":"ce4bgi12rcd13ifvqb70","pricing_plan_id":"cebpf4jnsgd1na2vs0mg"},{"bike_id":"8ccf8982-826a-4a66-ae2f-a581997827d9","system_id":"levelo_inurba_marseille","lat":43.31884,"lon":5.40732,"is_reserved":false,"is_disabled":false,"rental_uris":{"android":"levelo://app?vid=8ccf8982-826a-4a66-ae2f-a581997827d9","ios":"levelo://app?vid=8ccf8982-826a-4a66-ae2f-a581997827d9"},"vehicle_type_id":"4","last_reported":1738246115,"current_range_meters":38400,"station_id":"ce4bhq12rcd13ifvqhig","pricing_plan_id":"cebpf4jnsgd1na2vs0mg"},{"bike_id":"1ff16b94-89e8-4062-999e-69e5d720ef95","system_id":"levelo_inurba_marseille","lat":43.31325,"lon":5.39699,"is_reserved":false,"is_disabled":false,"rental_uris":{"android":"levelo://app?vid=1ff16b94-89e8-4062-999e-69e5d720ef95","ios":"levelo://app?vid=1ff16b94-89e8-4062-999e-69e5d720ef95"},"vehicle_type_id":"4","last_reported":1738246115,"current_range_meters":38800,"station_id":"ce4bgvp2rcd13ifvqcu0","pricing_plan_id":"cebpf4jnsgd1na2vs0mg"},{"bike_id":"6050eb68-b8ec-4751-bde6-20fce5d68379","system_id":"levelo_inurba_marseille","lat":43.28352,"lon":5.38627,"is_reserved":false,"is_disabled":false,"rental_uris":{"android":"levelo://app?vid=6050eb68-b8ec-4751-bde6-20fce5d68379","ios":"levelo://app?vid=6050eb68-b8ec-4751-bde6-20fce5d68379"},"vehicle_type_id":"4","last_reported":1738246115,"current_range_meters":16400,"station_id":"ce4bh492rcd13ifvqdvg","pricing_plan_id":"cebpf4jnsgd1na2vs0mg"},{"bike_id":"45940ced-19e0-4ced-9363-787d82261412","system_id":"levelo_inurba_marseille","lat":43.2895,"lon":5.36632,"is_reserved":false,"is_disabled":false,"rental_uris":{"android":"levelo://app?vid=45940ced-19e0-4ced-9363-787d82261412","ios":"levelo://app?vid=45940ced-19e0-4ced-9363-787d82261412"},"vehicle_type_id":"4","last_reported":1738246115,"current_range_meters":26000,"station_id":"ce4bhap2rcd13ifvqek0","pricing_plan_id":"cebpf4jnsgd1na2vs0mg"},{"bike_id":"ad872279-fd22-44ec-8d52-80184c65bc1d","system_id":"levelo_inurba_marseille","lat":43.29019,"lon":5.37561,"is_reserved":false,"is_disabled":false,"rental_uris":{"android":"levelo://app?vid=ad872279-fd22-44ec-8d52-80184c65bc1d","ios":"levelo://app?vid=ad872279-fd22-44ec-8d52-80184c65bc1d"},"vehicle_type_id":"4","last_reported":1738246115,"current_range_meters":37600,"station_id":"ce4bh692rcd13ifvqe90","pricing_plan_id":"cebpf4jnsgd1na2vs0mg"},{"bike_id":"e9ec24da-025a-4dfc-8c71-776f8271cad7","system_id":"levelo_inurba_marseille","lat":43.29591,"lon":5.36746,"is_reserved":false,"is_disabled":true,"rental_uris":{"android":"levelo://app?vid=e9ec24da-025a-4dfc-8c71-776f8271cad7","ios":"levelo://app?vid=e9ec24da-025a-4dfc-8c71-776f8271cad7"},"vehicle_type_id":"4","last_reported":1738246115,"current_range_meters":2000,"station_id":"ce4bgph2rcd13ifvqc2g","pricing_plan_id":"cebpf4jnsgd1na2vs0mg"},{"bike_id":"1c7a384f-10e8-4fbc-9897-df5823efdac1","system_id":"levelo_inurba_marseille","lat":43.26951,"lon":5.38651,"is_reserved":false,"is_disabled":false,"rental_uris":{"android":"levelo://app?vid=1c7a384f-10e8-4fbc-9897-df5823efdac1","ios":"levelo://app?vid=1c7a384f-10e8-4fbc-9897-df5823efdac1"},"vehicle_type_id":"4","last_reported":1738246115,"current_range_meters":22400,"station_id":"ce4bhh92rcd13ifvqfh0","pricing_plan_id":"cebpf4jnsgd1na2vs0mg"},{"bike_id":"c1d1ce73-8f8f-42c4-8303-66858ad4f592","system_id":"levelo_inurba_marseille","lat":43.27487,"lon":5.42457,"is_reserved":false,"is_disabled":false,"rental_uris":{"android":"levelo://app?vid=c1d1ce73-8f8f-42c4-8303-66858ad4f592","ios":"levelo://app?vid=c1d1ce73-8f8f-42c4-8303-66858ad4f592"},"vehicle_type_id":"4","last_reported":1738246115,"current_range_meters":24000,"station_id":"ce4bhn92rcd13ifvqgrg","pricing_plan_id":"cebpf4jnsgd1na2vs0mg"},{"bike_id":"e82e1fea-52f4-40a7-b5e2-a85856d5e1ee","system_id":"levelo_inurba_marseille","lat":43.23151,"lon":5.43725,"is_reserved":false,"is_disabled":false,"rental_uris":{"android":"levelo://app?vid=e82e1fea-52f4-40a7-b5e2-a85856d5e1ee","ios":"levelo://app?vid=e82e1fea-52f4-40a7-b5e2-a85856d5e1ee"},"vehicle_type_id":"4","last_reported":1738246115,"current_range_meters":12000,"station_id":"ce4bhmp2rcd13ifvqgog","pricing_plan_id":"cebpf4jnsgd1na2vs0mg"},{"bike_id":"71f34f72-d3b7-46a5-9bd4-1fe057b3152f","system_id":"levelo_inurba_marseille","lat":43.22935,"lon":5.35377,"is_reserved":false,"is_disabled":false,"rental_uris":{"android":"levelo://app?vid=71f34f72-d3b7-46a5-9bd4-1fe057b3152f","ios":"levelo://app?vid=71f34f72-d3b7-46a5-9bd4-1fe057b3152f"},"vehicle_type_id":"4","last_reported":1738246115,"current_range_meters":38800,"station_id":"cpo3532slgdg3j2ikp40","pricing_plan_id":"cebpf4jnsgd1na2vs0mg"},{"bike_id":"66c12baa-9477-443c-ad62-ceeda86c1e58","system_id":"levelo_inurba_marseille","lat":43.25853,"lon":5.39904,"is_reserved":false,"is_disabled":false,"rental_uris":{"android":"levelo://app?vid=66c12baa-9477-443c-ad62-ceeda86c1e58","ios":"levelo://app?vid=66c12baa-9477-443c-ad62-ceeda86c1e58"},"vehicle_type_id":"4","last_reported":1738246115,"current_range_meters":38800,"station_id":"ce4bhl92rcd13ifvqghg","pricing_plan_id":"cebpf4jnsgd1na2vs0mg"},{"bike_id":"20029bdd-9f9c-4ff9-86e4-5ba6ed30f46a","system_id":"levelo_inurba_marseille","lat":43.23148,"lon":5.43705,"is_reserved":false,"is_disabled":true,"rental_uris":{"android":"levelo://app?vid=20029bdd-9f9c-4ff9-86e4-5ba6ed30f46a","ios":"levelo://app?vid=20029bdd-9f9c-4ff9-86e4-5ba6ed30f46a"},"vehicle_type_id":"4","last_reported":1738246115,"current_range_meters":0,"station_id":"ce4bhmp2rcd13ifvqgog","pricing_plan_id":"cebpf4jnsgd1na2vs0mg"},{"bike_id":"bed6ef6e-8b96-4e18-8b3f-d3b3f6c98556","system_id":"levelo_inurba_marseille","lat":43.24072,"lon":5.37758,"is_reserved":false,"is_disabled":false,"rental_uris":{"android":"levelo://app?vid=bed6ef6e-8b96-4e18-8b3f-d3b3f6c98556","ios":"levelo://app?vid=bed6ef6e-8b96-4e18-8b3f-d3b3f6c98556"},"vehicle_type_id":"4","last_reported":1738246115,"current_range_meters":32800,"station_id":"ce4bhnp2rcd13ifvqgvg","pricing_plan_id":"cebpf4jnsgd1na2vs0mg"},{"bike_id":"a335131c-b12c-433f-9f2c-1edb5549eb18","system_id":"levelo_inurba_marseille","lat":43.30167,"lon":5.38072,"is_reserved":false,"is_disabled":false,"rental_uris":{"android":"levelo://app?vid=a335131c-b12c-433f-9f2c-1edb5549eb18","ios":"levelo://app?vid=a335131c-b12c-433f-9f2c-1edb5549eb18"},"vehicle_type_id":"4","last_reported":1738246115,"current_range_meters":22800,"station_id":"ce4bgjp2rcd13ifvqbh0","pricing_plan_id":"cebpf4jnsgd1na2vs0mg"},{"bike_id":"279becec-4a79-4c20-8a99-f00d2ae395c1","system_id":"levelo_inurba_marseille","lat":43.31077,"lon":5.38352,"is_reserved":false,"is_disabled":false,"rental_uris":{"android":"levelo://app?vid=279becec-4a79-4c20-8a99-f00d2ae395c1","ios":"levelo://app?vid=279becec-4a79-4c20-8a99-f00d2ae395c1"},"vehicle_type_id":"4","last_reported":1738246115,"current_range_meters":12000,"station_id":"ce4bgv92rcd13ifvqcr0","pricing_plan_id":"cebpf4jnsgd1na2vs0mg"},{"bike_id":"c6f604a9-cc74-4819-a2f2-6c80c9bed708","system_id":"levelo_inurba_marseille","lat":43.2696,"lon":5.38632,"is_reserved":false,"is_disabled":false,"rental_uris":{"android":"levelo://app?vid=c6f604a9-cc74-4819-a2f2-6c80c9bed708","ios":"levelo://app?vid=c6f604a9-cc74-4819-a2f2-6c80c9bed708"},"vehicle_type_id":"4","last_reported":1738246115,"current_range_meters":10000,"station_id":"ce4bhh92rcd13ifvqfh0","pricing_plan_id":"cebpf4jnsgd1na2vs0mg"},{"bike_id":"8ea2773f-53e7-443e-b3d6-dc8c2e0abe7a","system_id":"levelo_inurba_marseille","lat":43.28714,"lon":5.37929,"is_reserved":false,"is_disabled":false,"rental_uris":{"android":"levelo://app?vid=8ea2773f-53e7-443e-b3d6-dc8c2e0abe7a","ios":"levelo://app?vid=8ea2773f-53e7-443e-b3d6-dc8c2e0abe7a"},"vehicle_type_id":"4","last_reported":1738246115,"current_range_meters":39200,"station_id":"ce4bh9p2rcd13ifvqec0","pricing_plan_id":"cebpf4jnsgd1na2vs0mg"},{"bike_id":"6296e8be-394f-4f7d-b2c2-a93deb90ea08","system_id":"levelo_inurba_marseille","lat":43.28338,"lon":5.3812,"is_reserved":false,"is_disabled":false,"rental_uris":{"android":"levelo://app?vid=6296e8be-394f-4f7d-b2c2-a93deb90ea08","ios":"levelo://app?vid=6296e8be-394f-4f7d-b2c2-a93deb90ea08"},"vehicle_type_id":"4","last_reported":1738246115,"current_range_meters":35600,"station_id":"ce4bh412rcd13ifvqdr0","pricing_plan_id":"cebpf4jnsgd1na2vs0mg"},{"bike_id":"45fd4a2a-a5dc-4b7e-962f-4641aedb60dd","system_id":"levelo_inurba_marseille","lat":43.27997,"lon":5.41667,"is_reserved":false,"is_disabled":true,"rental_uris":{"android":"levelo://app?vid=45fd4a2a-a5dc-4b7e-962f-4641aedb60dd","ios":"levelo://app?vid=45fd4a2a-a5dc-4b7e-962f-4641aedb60dd"},"vehicle_type_id":"4","last_reported":1738246115,"current_range_meters":37600,"station_id":"ce4bho12rcd13ifvqh1g","pricing_plan_id":"cebpf4jnsgd1na2vs0mg"},{"bike_id":"bbd37f25-b511-4ba3-9ad8-9c3bb19bb776","system_id":"levelo_inurba_marseille","lat":43.30297,"lon":5.36903,"is_reserved":false,"is_disabled":false,"rental_uris":{"android":"levelo://app?vid=bbd37f25-b511-4ba3-9ad8-9c3bb19bb776","ios":"levelo://app?vid=bbd37f25-b511-4ba3-9ad8-9c3bb19bb776"},"vehicle_type_id":"4","last_reported":1738246115,"current_range_meters":24000,"station_id":"ce4bgqh2rcd13ifvqc5g","pricing_plan_id":"cebpf4jnsgd1na2vs0mg"},{"bike_id":"32865afa-f4c8-47fc-8db7-f02f6e4aa1cf","system_id":"levelo_inurba_marseille","lat":43.31708,"lon":5.40464,"is_reserved":false,"is_disabled":false,"rental_uris":{"android":"levelo://app?vid=32865afa-f4c8-47fc-8db7-f02f6e4aa1cf","ios":"levelo://app?vid=32865afa-f4c8-47fc-8db7-f02f6e4aa1cf"},"vehicle_type_id":"4","last_reported":1738246115,"current_range_meters":10000,"station_id":"ce4bh012rcd13ifvqd00","pricing_plan_id":"cebpf4jnsgd1na2vs0mg"},{"bike_id":"8d6f866c-b36b-4bc1-bd19-72682fac4efa","system_id":"levelo_inurba_marseille","lat":43.28703,"lon":5.37395,"is_reserved":false,"is_disabled":false,"rental_uris":{"android":"levelo://app?vid=8d6f866c-b36b-4bc1-bd19-72682fac4efa","ios":"levelo://app?vid=8d6f866c-b36b-4bc1-bd19-72682fac4efa"},"vehicle_type_id":"4","last_reported":1738246115,"current_range_meters":38400,"station_id":"ce4bh3p2rcd13ifvqdq0","pricing_plan_id":"cebpf4jnsgd1na2vs0mg"},{"bike_id":"4d213e19-460b-4ffc-abf2-31a900d6c917","system_id":"levelo_inurba_marseille","lat":43.27629,"lon":5.36122,"is_reserved":false,"is_disabled":false,"rental_uris":{"android":"levelo://app?vid=4d213e19-460b-4ffc-abf2-31a900d6c917","ios":"levelo://app?vid=4d213e19-460b-4ffc-abf2-31a900d6c917"},"vehicle_type_id":"4","last_reported":1738246115,"current_range_meters":7200,"station_id":"ce4bgj92rcd13ifvqbe0","pricing_plan_id":"cebpf4jnsgd1na2vs0mg"},{"bike_id":"52df7174-7471-45d7-b8cf-914da197d411","system_id":"levelo_inurba_marseille","lat":43.28484,"lon":5.38548,"is_reserved":false,"is_disabled":false,"rental_uris":{"android":"levelo://app?vid=52df7174-7471-45d7-b8cf-914da197d411","ios":"levelo://app?vid=52df7174-7471-45d7-b8cf-914da197d411"},"vehicle_type_id":"4","last_reported":1738246115,"current_range_meters":38400,"station_id":"ce4bh8p2rcd13ifvqeb0","pricing_plan_id":"cebpf4jnsgd1na2vs0mg"},{"bike_id":"ec184c8f-729e-40bc-b163-773aef833942","system_id":"levelo_inurba_marseille","lat":43.30536,"lon":5.36555,"is_reserved":false,"is_disabled":false,"rental_uris":{"android":"levelo://app?vid=ec184c8f-729e-40bc-b163-773aef833942","ios":"levelo://app?vid=ec184c8f-729e-40bc-b163-773aef833942"},"vehicle_type_id":"4","last_reported":1738246115,"current_range_meters":38800,"station_id":"ce4bgs12rcd13ifvqcag","pricing_plan_id":"cebpf4jnsgd1na2vs0mg"},{"bike_id":"7d86ff93-47b4-4533-baa5-7077123573a5","system_id":"levelo_inurba_marseille","lat":43.28759,"lon":5.3828,"is_reserved":false,"is_disabled":false,"rental_uris":{"android":"levelo://app?vid=7d86ff93-47b4-4533-baa5-7077123573a5","ios":"levelo://app?vid=7d86ff93-47b4-4533-baa5-7077123573a5"},"vehicle_type_id":"4","last_reported":1738246115,"current_range_meters":22000,"station_id":"","pricing_plan_id":"cebpf4jnsgd1na2vs0mg"},{"bike_id":"01ec46d8-93d3-4495-8c47-385093de8227","system_id":"levelo_inurba_marseille","lat":43.29299,"lon":5.37428,"is_reserved":false,"is_disabled":false,"rental_uris":{"android":"levelo://app?vid=01ec46d8-93d3-4495-8c47-385093de8227","ios":"levelo://app?vid=01ec46d8-93d3-4495-8c47-385093de8227"},"vehicle_type_id":"4","last_reported":1738246115,"current_range_meters":39200,"station_id":"ce4bgi12rcd13ifvqb70","pricing_plan_id":"cebpf4jnsgd1na2vs0mg"},{"bike_id":"a577e4ef-f00c-49ce-960a-aa4c6d2a6062","system_id":"levelo_inurba_marseille","lat":43.27174,"lon":5.41001,"is_reserved":false,"is_disabled":false,"rental_uris":{"android":"levelo://app?vid=a577e4ef-f00c-49ce-960a-aa4c6d2a6062","ios":"levelo://app?vid=a577e4ef-f00c-49ce-960a-aa4c6d2a6062"},"vehicle_type_id":"4","last_reported":1738246115,"current_range_meters":14400,"station_id":"ce4bhl12rcd13ifvqgf0","pricing_plan_id":"cebpf4jnsgd1na2vs0mg"},{"bike_id":"0883b683-1c58-4a5a-b73f-ff864686958e","system_id":"levelo_inurba_marseille","lat":43.26063,"lon":5.39397,"is_reserved":false,"is_disabled":false,"rental_uris":{"android":"levelo://app?vid=0883b683-1c58-4a5a-b73f-ff864686958e","ios":"levelo://app?vid=0883b683-1c58-4a5a-b73f-ff864686958e"},"vehicle_type_id":"4","last_reported":1738246115,"current_range_meters":38800,"station_id":"ce4bhh92rcd13ifvqfj0","pricing_plan_id":"cebpf4jnsgd1na2vs0mg"},{"bike_id":"30396820-7f9b-4b6b-b147-5049f986d97d","system_id":"levelo_inurba_marseille","lat":43.30962,"lon":5.39074,"is_reserved":false,"is_disabled":false,"rental_uris":{"android":"levelo://app?vid=30396820-7f9b-4b6b-b147-5049f986d97d","ios":"levelo://app?vid=30396820-7f9b-4b6b-b147-5049f986d97d"},"vehicle_type_id":"4","last_reported":1738246115,"current_range_meters":27600,"station_id":"ce4bgup2rcd13ifvqco0","pricing_plan_id":"cebpf4jnsgd1na2vs0mg"},{"bike_id":"88e70110-2177-4775-bb67-b77045f0580f","system_id":"levelo_inurba_marseille","lat":43.31799,"lon":5.3778,"is_reserved":false,"is_disabled":false,"rental_uris":{"android":"levelo://app?vid=88e70110-2177-4775-bb67-b77045f0580f","ios":"levelo://app?vid=88e70110-2177-4775-bb67-b77045f0580f"},"vehicle_type_id":"4","last_reported":1738246115,"current_range_meters":25600,"station_id":"ce4bgth2rcd13ifvqch0","pricing_plan_id":"cebpf4jnsgd1na2vs0mg"},{"bike_id":"6c6aee42-b35f-474d-8e8e-3e2db6e8b420","system_id":"levelo_inurba_marseille","lat":43.2619,"lon":5.37447,"is_reserved":false,"is_disabled":false,"rental_uris":{"android":"levelo://app?vid=6c6aee42-b35f-474d-8e8e-3e2db6e8b420","ios":"levelo://app?vid=6c6aee42-b35f-474d-8e8e-3e2db6e8b420"},"vehicle_type_id":"4","last_reported":1738246115,"current_range_meters":30000,"station_id":"ce4bhgp2rcd13ifvqfc0","pricing_plan_id":"cebpf4jnsgd1na2vs0mg"},{"bike_id":"1af203ab-771e-4433-8937-d15f0f9964af","system_id":"levelo_inurba_marseille","lat":43.28699,"lon":5.39984,"is_reserved":false,"is_disabled":false,"rental_uris":{"android":"levelo://app?vid=1af203ab-771e-4433-8937-d15f0f9964af","ios":"levelo://app?vid=1af203ab-771e-4433-8937-d15f0f9964af"},"vehicle_type_id":"4","last_reported":1738246115,"current_range_meters":30800,"station_id":"ce4bho92rcd13ifvqh3g","pricing_plan_id":"cebpf4jnsgd1na2vs0mg"},{"bike_id":"717a3c36-620c-4aa9-aa56-b29e9c9ce1b7","system_id":"levelo_inurba_marseille","lat":43.28342,"lon":5.38104,"is_reserved":false,"is_disabled":false,"rental_uris":{"android":"levelo://app?vid=717a3c36-620c-4aa9-aa56-b29e9c9ce1b7","ios":"levelo://app?vid=717a3c36-620c-4aa9-aa56-b29e9c9ce1b7"},"vehicle_type_id":"4","last_reported":1738246115,"current_range_meters":30000,"station_id":"ce4bh412rcd13ifvqdr0","pricing_plan_id":"cebpf4jnsgd1na2vs0mg"},{"bike_id":"981f07f8-b5c6-4543-852c-32578c0e6ad6","system_id":"levelo_inurba_marseille","lat":43.304165,"lon":5.388823,"is_reserved":false,"is_disabled":false,"rental_uris":{"android":"levelo://app?vid=981f07f8-b5c6-4543-852c-32578c0e6ad6","ios":"levelo://app?vid=981f07f8-b5c6-4543-852c-32578c0e6ad6"},"vehicle_type_id":"4","last_reported":1738246115,"current_range_meters":27200,"station_id":"ce4bgk12rcd13ifvqbi0","pricing_plan_id":"cebpf4jnsgd1na2vs0mg"},{"bike_id":"b85acd52-7afe-42a6-a0c7-8f8819191a5a","system_id":"levelo_inurba_marseille","lat":43.25872,"lon":5.39902,"is_reserved":false,"is_disabled":false,"rental_uris":{"android":"levelo://app?vid=b85acd52-7afe-42a6-a0c7-8f8819191a5a","ios":"levelo://app?vid=b85acd52-7afe-42a6-a0c7-8f8819191a5a"},"vehicle_type_id":"4","last_reported":1738246115,"current_range_meters":35600,"station_id":"ce4bhl92rcd13ifvqghg","pricing_plan_id":"cebpf4jnsgd1na2vs0mg"},{"bike_id":"f9d35a32-65b2-4842-bd83-8cbe10324274","system_id":"levelo_inurba_marseille","lat":43.28632,"lon":5.35106,"is_reserved":false,"is_disabled":false,"rental_uris":{"android":"levelo://app?vid=f9d35a32-65b2-4842-bd83-8cbe10324274","ios":"levelo://app?vid=f9d35a32-65b2-4842-bd83-8cbe10324274"},"vehicle_type_id":"4","last_reported":1738246115,"current_range_meters":17200,"station_id":"ce4bhch2rcd13ifvqeug","pricing_plan_id":"cebpf4jnsgd1na2vs0mg"},{"bike_id":"57ea5f77-abf9-41ff-8ffe-e281a2630bfe","system_id":"levelo_inurba_marseille","lat":43.28076,"lon":5.39664,"is_reserved":false,"is_disabled":true,"rental_uris":{"android":"levelo://app?vid=57ea5f77-abf9-41ff-8ffe-e281a2630bfe","ios":"levelo://app?vid=57ea5f77-abf9-41ff-8ffe-e281a2630bfe"},"vehicle_type_id":"4","last_reported":1738246115,"current_range_meters":38800,"station_id":"ce4bho12rcd13ifvqh2g","pricing_plan_id":"cebpf4jnsgd1na2vs0mg"},{"bike_id":"520bc3b8-9430-4df6-a092-483238bde66f","system_id":"levelo_inurba_marseille","lat":43.24543,"lon":5.39518,"is_reserved":false,"is_disabled":true,"rental_uris":{"android":"levelo://app?vid=520bc3b8-9430-4df6-a092-483238bde66f","ios":"levelo://app?vid=520bc3b8-9430-4df6-a092-483238bde66f"},"vehicle_type_id":"4","last_reported":1738246115,"current_range_meters":0,"station_id":"ce4bhlp2rcd13ifvqgjg","pricing_plan_id":"cebpf4jnsgd1na2vs0mg"},{"bike_id":"16c1b0db-4a92-4323-92fa-e4bdc5a3f061","system_id":"levelo_inurba_marseille","lat":43.30532,"lon":5.36717,"is_reserved":false,"is_disabled":false,"rental_uris":{"android":"levelo://app?vid=16c1b0db-4a92-4323-92fa-e4bdc5a3f061","ios":"levelo://app?vid=16c1b0db-4a92-4323-92fa-e4bdc5a3f061"},"vehicle_type_id":"4","last_reported":1738246115,"current_range_meters":29600,"station_id":"ce4bgrp2rcd13ifvqc9g","pricing_plan_id":"cebpf4jnsgd1na2vs0mg"},{"bike_id":"88f6e943-379d-4bc6-94a3-a5a74cae73fb","system_id":"levelo_inurba_marseille","lat":43.27842,"lon":5.39553,"is_reserved":false,"is_disabled":false,"rental_uris":{"android":"levelo://app?vid=88f6e943-379d-4bc6-94a3-a5a74cae73fb","ios":"levelo://app?vid=88f6e943-379d-4bc6-94a3-a5a74cae73fb"},"vehicle_type_id":"4","last_reported":1738246115,"current_range_meters":32800,"station_id":"ce4bhf92rcd13ifvqf40","pricing_plan_id":"cebpf4jnsgd1na2vs0mg"},{"bike_id":"18d26c27-693e-457e-88ef-9a5abffffdc3","system_id":"levelo_inurba_marseille","lat":43.30927,"lon":5.40145,"is_reserved":false,"is_disabled":false,"rental_uris":{"android":"levelo://app?vid=18d26c27-693e-457e-88ef-9a5abffffdc3","ios":"levelo://app?vid=18d26c27-693e-457e-88ef-9a5abffffdc3"},"vehicle_type_id":"4","last_reported":1738246115,"current_range_meters":33200,"station_id":"ce4bgvp2rcd13ifvqct0","pricing_plan_id":"cebpf4jnsgd1na2vs0mg"},{"bike_id":"e77089f1-a4a8-41fc-b80d-bc23034d7af5","system_id":"levelo_inurba_marseille","lat":43.29579,"lon":5.39969,"is_reserved":false,"is_disabled":false,"rental_uris":{"android":"levelo://app?vid=e77089f1-a4a8-41fc-b80d-bc23034d7af5","ios":"levelo://app?vid=e77089f1-a4a8-41fc-b80d-bc23034d7af5"},"vehicle_type_id":"4","last_reported":1738246115,"current_range_meters":38800,"station_id":"ce4bh312rcd13ifvqdj0","pricing_plan_id":"cebpf4jnsgd1na2vs0mg"},{"bike_id":"56d6b97f-30a2-4c2a-8be6-a12a9fc19507","system_id":"levelo_inurba_marseille","lat":43.317555,"lon":5.390222,"is_reserved":false,"is_disabled":false,"rental_uris":{"android":"levelo://app?vid=56d6b97f-30a2-4c2a-8be6-a12a9fc19507","ios":"levelo://app?vid=56d6b97f-30a2-4c2a-8be6-a12a9fc19507"},"vehicle_type_id":"4","last_reported":1738246115,"current_range_meters":18000,"station_id":"ce4bhqp2rcd13ifvqhng","pricing_plan_id":"cebpf4jnsgd1na2vs0mg"},{"bike_id":"ea6c0ce2-7b8c-4536-b944-0ca1a95ad160","system_id":"levelo_inurba_marseille","lat":43.29029,"lon":5.38134,"is_reserved":false,"is_disabled":false,"rental_uris":{"android":"levelo://app?vid=ea6c0ce2-7b8c-4536-b944-0ca1a95ad160","ios":"levelo://app?vid=ea6c0ce2-7b8c-4536-b944-0ca1a95ad160"},"vehicle_type_id":"4","last_reported":1738246115,"current_range_meters":28800,"station_id":"ce4bh4p2rcd13ifvqe1g","pricing_plan_id":"cebpf4jnsgd1na2vs0mg"},{"bike_id":"e65197ba-8b5c-497e-9df1-a9727c5c7ce0","system_id":"levelo_inurba_marseille","lat":43.25021,"lon":5.38929,"is_reserved":false,"is_disabled":false,"rental_uris":{"android":"levelo://app?vid=e65197ba-8b5c-497e-9df1-a9727c5c7ce0","ios":"levelo://app?vid=e65197ba-8b5c-497e-9df1-a9727c5c7ce0"},"vehicle_type_id":"4","last_reported":1738246115,"current_range_meters":23200,"station_id":"ce4bhgp2rcd13ifvqfd0","pricing_plan_id":"cebpf4jnsgd1na2vs0mg"},{"bike_id":"c7af95c3-5ddf-4254-9144-4e4cd31a7d15","system_id":"levelo_inurba_marseille","lat":43.27985,"lon":5.4166,"is_reserved":false,"is_disabled":false,"rental_uris":{"android":"levelo://app?vid=c7af95c3-5ddf-4254-9144-4e4cd31a7d15","ios":"levelo://app?vid=c7af95c3-5ddf-4254-9144-4e4cd31a7d15"},"vehicle_type_id":"4","last_reported":1738246115,"current_range_meters":25600,"station_id":"ce4bho12rcd13ifvqh1g","pricing_plan_id":"cebpf4jnsgd1na2vs0mg"},{"bike_id":"e17848b0-f3c1-4ee5-ab17-291796faf114","system_id":"levelo_inurba_marseille","lat":43.29938,"lon":5.36538,"is_reserved":false,"is_disabled":false,"rental_uris":{"android":"levelo://app?vid=e17848b0-f3c1-4ee5-ab17-291796faf114","ios":"levelo://app?vid=e17848b0-f3c1-4ee5-ab17-291796faf114"},"vehicle_type_id":"4","last_reported":1738246115,"current_range_meters":38800,"station_id":"ce4bgm92rcd13ifvqbr0","pricing_plan_id":"cebpf4jnsgd1na2vs0mg"},{"bike_id":"fec86086-2574-4e89-ab87-cfab1224becf","system_id":"levelo_inurba_marseille","lat":43.30141,"lon":5.38068,"is_reserved":false,"is_disabled":false,"rental_uris":{"android":"levelo://app?vid=fec86086-2574-4e89-ab87-cfab1224becf","ios":"levelo://app?vid=fec86086-2574-4e89-ab87-cfab1224becf"},"vehicle_type_id":"4","last_reported":1738246115,"current_range_meters":36000,"station_id":"ce4bgjp2rcd13ifvqbh0","pricing_plan_id":"cebpf4jnsgd1na2vs0mg"},{"bike_id":"0e203b51-79e5-4572-98e9-903e63feafc3","system_id":"levelo_inurba_marseille","lat":43.27982,"lon":5.41658,"is_reserved":false,"is_disabled":false,"rental_uris":{"android":"levelo://app?vid=0e203b51-79e5-4572-98e9-903e63feafc3","ios":"levelo://app?vid=0e203b51-79e5-4572-98e9-903e63feafc3"},"vehicle_type_id":"4","last_reported":1738246115,"current_range_meters":24000,"station_id":"ce4bho12rcd13ifvqh1g","pricing_plan_id":"cebpf4jnsgd1na2vs0mg"},{"bike_id":"c2beb6c7-b602-4824-b9c6-ecc029890712","system_id":"levelo_inurba_marseille","lat":43.29803,"lon":5.38089,"is_reserved":false,"is_disabled":false,"rental_uris":{"android":"levelo://app?vid=c2beb6c7-b602-4824-b9c6-ecc029890712","ios":"levelo://app?vid=c2beb6c7-b602-4824-b9c6-ecc029890712"},"vehicle_type_id":"4","last_reported":1738246115,"current_range_meters":36400,"station_id":"ce4bgip2rcd13ifvqbb0","pricing_plan_id":"cebpf4jnsgd1na2vs0mg"},{"bike_id":"8382186f-0d25-40e6-beca-2632cc8590f2","system_id":"levelo_inurba_marseille","lat":43.29556,"lon":5.4228,"is_reserved":false,"is_disabled":true,"rental_uris":{"android":"levelo://app?vid=8382186f-0d25-40e6-beca-2632cc8590f2","ios":"levelo://app?vid=8382186f-0d25-40e6-beca-2632cc8590f2"},"vehicle_type_id":"4","last_reported":1738246115,"current_range_meters":8800,"station_id":"ce4bhph2rcd13ifvqhdg","pricing_plan_id":"cebpf4jnsgd1na2vs0mg"},{"bike_id":"983f36c8-c77d-41f5-913a-1c3638437530","system_id":"levelo_inurba_marseille","lat":43.29881,"lon":5.3892,"is_reserved":false,"is_disabled":false,"rental_uris":{"android":"levelo://app?vid=983f36c8-c77d-41f5-913a-1c3638437530","ios":"levelo://app?vid=983f36c8-c77d-41f5-913a-1c3638437530"},"vehicle_type_id":"4","last_reported":1738246115,"current_range_meters":38800,"station_id":"ce4bh392rcd13ifvqdl0","pricing_plan_id":"cebpf4jnsgd1na2vs0mg"},{"bike_id":"748210c8-b014-4bb9-bf28-ece938344327","system_id":"levelo_inurba_marseille","lat":43.33041,"lon":5.39041,"is_reserved":false,"is_disabled":false,"rental_uris":{"android":"levelo://app?vid=748210c8-b014-4bb9-bf28-ece938344327","ios":"levelo://app?vid=748210c8-b014-4bb9-bf28-ece938344327"},"vehicle_type_id":"4","last_reported":1738246115,"current_range_meters":24400,"station_id":"ce4bhr92rcd13ifvqhrg","pricing_plan_id":"cebpf4jnsgd1na2vs0mg"},{"bike_id":"166b551e-3b45-4d87-8569-1e06e4130c7c","system_id":"levelo_inurba_marseille","lat":43.29363,"lon":5.37836,"is_reserved":false,"is_disabled":false,"rental_uris":{"android":"levelo://app?vid=166b551e-3b45-4d87-8569-1e06e4130c7c","ios":"levelo://app?vid=166b551e-3b45-4d87-8569-1e06e4130c7c"},"vehicle_type_id":"4","last_reported":1738246115,"current_range_meters":38000,"station_id":"ce4bgjh2rcd13ifvqbf0","pricing_plan_id":"cebpf4jnsgd1na2vs0mg"},{"bike_id":"93a33668-15df-4538-beb2-ecfbfeb0f9dc","system_id":"levelo_inurba_marseille","lat":43.30352,"lon":5.41876,"is_reserved":false,"is_disabled":false,"rental_uris":{"android":"levelo://app?vid=93a33668-15df-4538-beb2-ecfbfeb0f9dc","ios":"levelo://app?vid=93a33668-15df-4538-beb2-ecfbfeb0f9dc"},"vehicle_type_id":"4","last_reported":1738246115,"current_range_meters":38800,"station_id":"ce4bhop2rcd13ifvqh7g","pricing_plan_id":"cebpf4jnsgd1na2vs0mg"},{"bike_id":"f1540f58-2d60-4092-a7ab-5c0a8b61f2a8","system_id":"levelo_inurba_marseille","lat":43.29429,"lon":5.39753,"is_reserved":false,"is_disabled":false,"rental_uris":{"android":"levelo://app?vid=f1540f58-2d60-4092-a7ab-5c0a8b61f2a8","ios":"levelo://app?vid=f1540f58-2d60-4092-a7ab-5c0a8b61f2a8"},"vehicle_type_id":"4","last_reported":1738246115,"current_range_meters":8800,"station_id":"ce4bh3h2rcd13ifvqdo0","pricing_plan_id":"cebpf4jnsgd1na2vs0mg"},{"bike_id":"ccfbd024-ae69-4c2e-848c-a8428e5be0c6","system_id":"levelo_inurba_marseille","lat":43.29314,"lon":5.37168,"is_reserved":false,"is_disabled":false,"rental_uris":{"android":"levelo://app?vid=ccfbd024-ae69-4c2e-848c-a8428e5be0c6","ios":"levelo://app?vid=ccfbd024-ae69-4c2e-848c-a8428e5be0c6"},"vehicle_type_id":"4","last_reported":1738246115,"current_range_meters":39200,"station_id":"ce4bgh92rcd13ifvqb40","pricing_plan_id":"cebpf4jnsgd1na2vs0mg"},{"bike_id":"c4804f52-68b7-4a7f-b819-d50d9b5d1ef9","system_id":"levelo_inurba_marseille","lat":43.27222,"lon":5.39211,"is_reserved":false,"is_disabled":true,"rental_uris":{"android":"levelo://app?vid=c4804f52-68b7-4a7f-b819-d50d9b5d1ef9","ios":"levelo://app?vid=c4804f52-68b7-4a7f-b819-d50d9b5d1ef9"},"vehicle_type_id":"4","last_reported":1738246115,"current_range_meters":1200,"station_id":"ce4bhhp2rcd13ifvqfm0","pricing_plan_id":"cebpf4jnsgd1na2vs0mg"},{"bike_id":"2653550d-3c3f-4d81-af8f-8432ddb6892a","system_id":"levelo_inurba_marseille","lat":43.29078,"lon":5.37172,"is_reserved":false,"is_disabled":false,"rental_uris":{"android":"levelo://app?vid=2653550d-3c3f-4d81-af8f-8432ddb6892a","ios":"levelo://app?vid=2653550d-3c3f-4d81-af8f-8432ddb6892a"},"vehicle_type_id":"4","last_reported":1738246115,"current_range_meters":2800,"station_id":"ce4bh5p2rcd13ifvqe4g","pricing_plan_id":"cebpf4jnsgd1na2vs0mg"},{"bike_id":"32d9a329-7366-4eb8-8d55-73b5c99c70c3","system_id":"levelo_inurba_marseille","lat":43.23188,"lon":5.35537,"is_reserved":false,"is_disabled":false,"rental_uris":{"android":"levelo://app?vid=32d9a329-7366-4eb8-8d55-73b5c99c70c3","ios":"levelo://app?vid=32d9a329-7366-4eb8-8d55-73b5c99c70c3"},"vehicle_type_id":"4","last_reported":1738246115,"current_range_meters":39200,"station_id":"ce4bhu92rcd13ifvqi70","pricing_plan_id":"cebpf4jnsgd1na2vs0mg"},{"bike_id":"e9e12897-6b7d-4c9d-b500-907d28471123","system_id":"levelo_inurba_marseille","lat":43.30555,"lon":5.36692,"is_reserved":false,"is_disabled":false,"rental_uris":{"android":"levelo://app?vid=e9e12897-6b7d-4c9d-b500-907d28471123","ios":"levelo://app?vid=e9e12897-6b7d-4c9d-b500-907d28471123"},"vehicle_type_id":"4","last_reported":1738246115,"current_range_meters":11200,"station_id":"ce4bgrp2rcd13ifvqc9g","pricing_plan_id":"cebpf4jnsgd1na2vs0mg"},{"bike_id":"f2cd1694-cbcf-4b6f-9463-8b28ee8d6f4b","system_id":"levelo_inurba_marseille","lat":43.23057,"lon":5.35497,"is_reserved":false,"is_disabled":false,"rental_uris":{"android":"levelo://app?vid=f2cd1694-cbcf-4b6f-9463-8b28ee8d6f4b","ios":"levelo://app?vid=f2cd1694-cbcf-4b6f-9463-8b28ee8d6f4b"},"vehicle_type_id":"4","last_reported":1738246115,"current_range_meters":17600,"station_id":"cpo3342slgdg3j2ifvpg","pricing_plan_id":"cebpf4jnsgd1na2vs0mg"},{"bike_id":"0a2fd205-d616-4064-aa75-d4d529957d90","system_id":"levelo_inurba_marseille","lat":43.23066,"lon":5.35489,"is_reserved":false,"is_disabled":false,"rental_uris":{"android":"levelo://app?vid=0a2fd205-d616-4064-aa75-d4d529957d90","ios":"levelo://app?vid=0a2fd205-d616-4064-aa75-d4d529957d90"},"vehicle_type_id":"4","last_reported":1738246115,"current_range_meters":24800,"station_id":"cpo3342slgdg3j2ifvpg","pricing_plan_id":"cebpf4jnsgd1na2vs0mg"},{"bike_id":"5e24f654-ec71-4dc3-bf02-4393f1adbb8a","system_id":"levelo_inurba_marseille","lat":43.29027,"lon":5.38104,"is_reserved":false,"is_disabled":false,"rental_uris":{"android":"levelo://app?vid=5e24f654-ec71-4dc3-bf02-4393f1adbb8a","ios":"levelo://app?vid=5e24f654-ec71-4dc3-bf02-4393f1adbb8a"},"vehicle_type_id":"4","last_reported":1738246115,"current_range_meters":38400,"station_id":"ce4bh4p2rcd13ifvqe1g","pricing_plan_id":"cebpf4jnsgd1na2vs0mg"},{"bike_id":"cdc2a678-4903-4402-a2ac-d185c88b6b9d","system_id":"levelo_inurba_marseille","lat":43.30156,"lon":5.38781,"is_reserved":false,"is_disabled":false,"rental_uris":{"android":"levelo://app?vid=cdc2a678-4903-4402-a2ac-d185c88b6b9d","ios":"levelo://app?vid=cdc2a678-4903-4402-a2ac-d185c88b6b9d"},"vehicle_type_id":"4","last_reported":1738246115,"current_range_meters":18800,"station_id":"ce4bghh2rcd13ifvqb60","pricing_plan_id":"cebpf4jnsgd1na2vs0mg"},{"bike_id":"851692c4-6ece-4a71-ba19-f442921d2278","system_id":"levelo_inurba_marseille","lat":43.29898,"lon":5.43661,"is_reserved":false,"is_disabled":false,"rental_uris":{"android":"levelo://app?vid=851692c4-6ece-4a71-ba19-f442921d2278","ios":"levelo://app?vid=851692c4-6ece-4a71-ba19-f442921d2278"},"vehicle_type_id":"4","last_reported":1738246115,"current_range_meters":38800,"station_id":"ce4bhpp2rcd13ifvqhfg","pricing_plan_id":"cebpf4jnsgd1na2vs0mg"},{"bike_id":"ae2f94e5-5a3c-4740-a9ac-bbe3d3086feb","system_id":"levelo_inurba_marseille","lat":43.27059,"lon":5.40255,"is_reserved":false,"is_disabled":false,"rental_uris":{"android":"levelo://app?vid=ae2f94e5-5a3c-4740-a9ac-bbe3d3086feb","ios":"levelo://app?vid=ae2f94e5-5a3c-4740-a9ac-bbe3d3086feb"},"vehicle_type_id":"4","last_reported":1738246115,"current_range_meters":32400,"station_id":"ce4bhk92rcd13ifvqgc0","pricing_plan_id":"cebpf4jnsgd1na2vs0mg"},{"bike_id":"e5f3ff7c-37f7-4994-9de9-70e4101a66f2","system_id":"levelo_inurba_marseille","lat":43.28115,"lon":5.37862,"is_reserved":false,"is_disabled":false,"rental_uris":{"android":"levelo://app?vid=e5f3ff7c-37f7-4994-9de9-70e4101a66f2","ios":"levelo://app?vid=e5f3ff7c-37f7-4994-9de9-70e4101a66f2"},"vehicle_type_id":"4","last_reported":1738246115,"current_range_meters":36000,"station_id":"ce4bha12rcd13ifvqee0","pricing_plan_id":"cebpf4jnsgd1na2vs0mg"},{"bike_id":"da356978-beb5-48b9-8dff-1c9f1529e01a","system_id":"levelo_inurba_marseille","lat":43.25712,"lon":5.41076,"is_reserved":false,"is_disabled":false,"rental_uris":{"android":"levelo://app?vid=da356978-beb5-48b9-8dff-1c9f1529e01a","ios":"levelo://app?vid=da356978-beb5-48b9-8dff-1c9f1529e01a"},"vehicle_type_id":"4","last_reported":1738246115,"current_range_meters":14800,"station_id":"ce4bhkp2rcd13ifvqgd0","pricing_plan_id":"cebpf4jnsgd1na2vs0mg"},{"bike_id":"803e03d8-7d2e-4feb-ac46-774902d16dee","system_id":"levelo_inurba_marseille","lat":43.33731,"lon":5.37442,"is_reserved":false,"is_disabled":true,"rental_uris":{"android":"levelo://app?vid=803e03d8-7d2e-4feb-ac46-774902d16dee","ios":"levelo://app?vid=803e03d8-7d2e-4feb-ac46-774902d16dee"},"vehicle_type_id":"4","last_reported":1738246115,"current_range_meters":28800,"station_id":"","pricing_plan_id":"cebpf4jnsgd1na2vs0mg"},{"bike_id":"baa29b07-c929-4791-93f4-403cf3c9ae74","system_id":"levelo_inurba_marseille","lat":43.29887,"lon":5.37471,"is_reserved":false,"is_disabled":false,"rental_uris":{"android":"levelo://app?vid=baa29b07-c929-4791-93f4-403cf3c9ae74","ios":"levelo://app?vid=baa29b07-c929-4791-93f4-403cf3c9ae74"},"vehicle_type_id":"4","last_reported":1738246115,"current_range_meters":23200,"station_id":"ce4bgjh2rcd13ifvqbg0","pricing_plan_id":"cebpf4jnsgd1na2vs0mg"},{"bike_id":"bc6caab0-381b-4cff-85cc-4b280eaeec74","system_id":"levelo_inurba_marseille","lat":43.28095,"lon":5.37843,"is_reserved":false,"is_disabled":false,"rental_uris":{"android":"levelo://app?vid=bc6caab0-381b-4cff-85cc-4b280eaeec74","ios":"levelo://app?vid=bc6caab0-381b-4cff-85cc-4b280eaeec74"},"vehicle_type_id":"4","last_reported":1738246115,"current_range_meters":28800,"station_id":"ce4bha12rcd13ifvqee0","pricing_plan_id":"cebpf4jnsgd1na2vs0mg"},{"bike_id":"a36ccd67-b3e6-4965-93ca-6a71039203e7","system_id":"levelo_inurba_marseille","lat":43.27832,"lon":5.39212,"is_reserved":false,"is_disabled":false,"rental_uris":{"android":"levelo://app?vid=a36ccd67-b3e6-4965-93ca-6a71039203e7","ios":"levelo://app?vid=a36ccd67-b3e6-4965-93ca-6a71039203e7"},"vehicle_type_id":"4","last_reported":1738246115,"current_range_meters":18000,"station_id":"ce4bhjp2rcd13ifvqga0","pricing_plan_id":"cebpf4jnsgd1na2vs0mg"},{"bike_id":"ebb75821-cd68-4590-8bc8-33f23202908b","system_id":"levelo_inurba_marseille","lat":43.30261,"lon":5.37687,"is_reserved":false,"is_disabled":false,"rental_uris":{"android":"levelo://app?vid=ebb75821-cd68-4590-8bc8-33f23202908b","ios":"levelo://app?vid=ebb75821-cd68-4590-8bc8-33f23202908b"},"vehicle_type_id":"4","last_reported":1738246115,"current_range_meters":37600,"station_id":"ce4bguh2rcd13ifvqcj0","pricing_plan_id":"cebpf4jnsgd1na2vs0mg"},{"bike_id":"c0c452d8-492a-4198-93da-b2b07af460b9","system_id":"levelo_inurba_marseille","lat":43.27692,"lon":5.38914,"is_reserved":false,"is_disabled":false,"rental_uris":{"android":"levelo://app?vid=c0c452d8-492a-4198-93da-b2b07af460b9","ios":"levelo://app?vid=c0c452d8-492a-4198-93da-b2b07af460b9"},"vehicle_type_id":"4","last_reported":1738246115,"current_range_meters":39200,"station_id":"ce4bhi12rcd13ifvqfo0","pricing_plan_id":"cebpf4jnsgd1na2vs0mg"},{"bike_id":"c6e8c185-7651-41da-bdbb-dd9a8d524cf5","system_id":"levelo_inurba_marseille","lat":43.29929,"lon":5.37462,"is_reserved":false,"is_disabled":false,"rental_uris":{"android":"levelo://app?vid=c6e8c185-7651-41da-bdbb-dd9a8d524cf5","ios":"levelo://app?vid=c6e8c185-7651-41da-bdbb-dd9a8d524cf5"},"vehicle_type_id":"4","last_reported":1738246115,"current_range_meters":28000,"station_id":"ce4bgjh2rcd13ifvqbg0","pricing_plan_id":"cebpf4jnsgd1na2vs0mg"},{"bike_id":"b343acfe-d54f-4063-bee9-460788e7b15f","system_id":"levelo_inurba_marseille","lat":43.31533,"lon":5.38033,"is_reserved":false,"is_disabled":false,"rental_uris":{"android":"levelo://app?vid=b343acfe-d54f-4063-bee9-460788e7b15f","ios":"levelo://app?vid=b343acfe-d54f-4063-bee9-460788e7b15f"},"vehicle_type_id":"4","last_reported":1738246115,"current_range_meters":6800,"station_id":"ce4bhsp2rcd13ifvqi50","pricing_plan_id":"cebpf4jnsgd1na2vs0mg"},