{"last_updated":1743498689,"ttl":60,"version":"2.2","data":{"bikes":[{"bike_id":"f28a2132-9d11-411c-a599-c4352a550e43","system_id":"levelo_inurba_marseille","lat":43.249,"lon":5.3938,"is_reserved":false,"is_disabled":true,"rental_uris":{"android":"levelo://app?vid=f28a2132-9d11-411c-a599-c4352a550e43","ios":"levelo://app?vid=f28a2132-9d11-411c-a599-c4352a550e43"},"vehicle_type_id":"4","last_reported":1743498690,"current_range_meters":0,"station_id":"","pricing_plan_id":"cebpf4jnsgd1na2vs0mg"},{"bike_id":"e4023b76-3b3e-4e0a-83d8-f1f2c86a9a1a","system_id":"levelo_inurba_marseille","lat":43.26078,"lon":5.38639,"is_reserved":false,"is_disabled":true,"rental_uris":{"android":"levelo://app?vid=e4023b76-3b3e-4e0a-83d8-f1f2c86a9a1a","ios":"levelo://app?vid=e4023b76-3b3e-4e0a-83d8-f1f2c86a9a1a"},"vehicle_type_id":"4","last_reported":1743498690,"current_range_meters":0,"station_id":"","pricing_plan_id":"cebpf4jnsgd1na2vs0mg"},{"bike_id":"92afdbcf-6ec7-4b66-bca9-8d842f5bbee7","system_id":"levelo_inurba_marseille","lat":43.28188,"lon":5.42938,"is_reserved":false,"is_disabled":true,"rental_uris":{"android":"levelo://app?vid=92afdbcf-6ec7-4b66-bca9-8d842f5bbee7","ios":"levelo://app?vid=92afdbcf-6ec7-4b66-bca9-8d842f5bbee7"},"vehicle_type_id":"4","last_reported":1743498690,"current_range_meters":0,"station_id":"","pricing_plan_id":"cebpf4jnsgd1na2vs0mg"},{"bike_id":"04d84667-80d2-430a-a2ab-b0adb0b8c9ad","system_id":"levelo_inurba_marseille","lat":43.337444,"lon":5.374475,"is_reserved":false,"is_disabled":true,"rental_uris":{"android":"levelo://app?vid=04d84667-80d2-430a-a2ab-b0adb0b8c9ad","ios":"levelo://app?vid=04d84667-80d2-430a-a2ab-b0adb0b8c9ad"},"vehicle_type_id":"4","last_reported":1743498690,"current_range_meters":0,"station_id":"","pricing_plan_id":"cebpf4jnsgd1na2vs0mg"},{"bike_id":"288bb5a4-8592-4715-9f1c-af47147cb3c6","system_id":"levelo_inurba_marseille","lat":43.26151,"lon":5.41629,"is_reserved":false,"is_disabled":true,"rental_uris":{"android":"levelo://app?vid=288bb5a4-8592-4715-9f1c-af47147cb3c6","ios":"levelo://app?vid=288bb5a4-8592-4715-9f1c-af47147cb3c6"},"vehicle_type_id":"4","last_reported":1743498690,"current_range_meters":0,"station_id":"","pricing_plan_id":"cebpf4jnsgd1na2vs0mg"},{"bike_id":"24aa08c5-17b4-4c84-8f99-d2c0dc95a325","system_id":"levelo_inurba_marseille","lat":43.3134,"lon":5.36709,"is_reserved":false,"is_disabled":true,"rental_uris":{"android":"levelo://app?vid=24aa08c5-17b4-4c84-8f99-d2c0dc95a325","ios":"levelo://app?vid=24aa08c5-17b4-4c84-8f99-d2c0dc95a325"},"vehicle_type_id":"4","last_reported":1743498690,"current_range_meters":0,"station_id":"ce4bgr92rcd13ifvqc6g","pricing_plan_id":"cebpf4jnsgd1na2vs0mg"},{"bike_id":"96613aa3-10a0-4439-b0f2-2c437bcf535a","system_id":"levelo_inurba_marseille","lat":43.26569,"lon":5.39043,"is_reserved":false,"is_disabled":true,"rental_uris":{"android":"levelo://app?vid=96613aa3-10a0-4439-b0f2-2c437bcf535a","ios":"levelo://app?vid=96613aa3-10a0-4439-b0f2-2c437bcf535a"},"vehicle_type_id":"4","last_reported":1743498690,"current_range_meters":0,"station_id":"ce4bhe12rcd13ifvqf30","pricing_plan_id":"cebpf4jnsgd1na2vs0mg"},{"bike_id":"421a04d3-fba2-404a-bff6-06d24ebdfc9c","system_id":"levelo_inurba_marseille","lat":43.24803,"lon":5.3746,"is_reserved":false,"is_disabled":true,"rental_uris":{"android":"levelo://app?vid=421a04d3-fba2-404a-bff6-06d24ebdfc9c","ios":"levelo://app?vid=421a04d3-fba2-404a-bff6-06d24ebdfc9c"},"vehicle_type_id":"4","last_reported":1743498690,"current_range_meters":0,"station_id":"ce4bhgh2rcd13ifvqfb0","pricing_plan_id":"cebpf4jnsgd1na2vs0mg"},{"bike_id":"6e228972-d4d2-42bc-bac0-8cabb361f502","system_id":"levelo_inurba_marseille","lat":43.24811,"lon":5.3746,"is_reserved":false,"is_disabled":true,"rental_uris":{"android":"levelo://app?vid=6e228972-d4d2-42bc-bac0-8cabb361f502","ios":"levelo://app?vid=6e228972-d4d2-42bc-bac0-8cabb361f502"},"vehicle_type_id":"4","last_reported":1743498690,"current_range_meters":0,"station_id":"ce4bhgh2rcd13ifvqfb0","pricing_plan_id":"cebpf4jnsgd1na2vs0mg"},{"bike_id":"008b18fd-057f-41a0-a64b-88e5ec72d6dd","system_id":"levelo_inurba_marseille","lat":43.24827,"lon":5.37446,"is_reserved":false,"is_disabled":true,"rental_uris":{"android":"levelo://app?vid=008b18fd-057f-41a0-a64b-88e5ec72d6dd","ios":"levelo://app?vid=008b18fd-057f-41a0-a64b-88e5ec72d6dd"},"vehicle_type_id":"4","last_reported":1743498690,"current_range_meters":0,"station_id":"ce4bhgh2rcd13ifvqfb0","pricing_plan_id":"cebpf4jnsgd1na2vs0mg"},{"bike_id":"2f11266e-421f-4291-86a1-dc7010c4ae42","system_id":"levelo_inurba_marseille","lat":43.24403,"lon":5.37049,"is_reserved":false,"is_disabled":true,"rental_uris":{"android":"levelo://app?vid=2f11266e-421f-4291-86a1-dc7010c4ae42","ios":"levelo://app?vid=2f11266e-421f-4291-86a1-dc7010c4ae42"},"vehicle_type_id":"4","last_reported":1743498690,"current_range_meters":0,"station_id":"ce4bhhh2rcd13ifvqfk0","pricing_plan_id":"cebpf4jnsgd1na2vs0mg"},{"bike_id":"c15b96cd-2a89-4f83-a2fe-1f7fdf417a25","system_id":"levelo_inurba_marseille","lat":43.25571,"lon":5.38217,"is_reserved":false,"is_disabled":true,"rental_uris":{"android":"levelo://app?vid=c15b96cd-2a89-4f83-a2fe-1f7fdf417a25","ios":"levelo://app?vid=c15b96cd-2a89-4f83-a2fe-1f7fdf417a25"},"vehicle_type_id":"4","last_reported":1743498690,"current_range_meters":0,"station_id":"ce4bhih2rcd13ifvqfs0","pricing_plan_id":"cebpf4jnsgd1na2vs0mg"},{"bike_id":"564dd5eb-5594-4a5b-8252-4fd7a2cdd1a3","system_id":"levelo_inurba_marseille","lat":43.251099,"lon":5.403215,"is_reserved":false,"is_disabled":true,"rental_uris":{"android":"levelo://app?vid=564dd5eb-5594-4a5b-8252-4fd7a2cdd1a3","ios":"levelo://app?vid=564dd5eb-5594-4a5b-8252-4fd7a2cdd1a3"},"vehicle_type_id":"4","last_reported":1743498690,"current_range_meters":0,"station_id":"ce4bhlh2rcd13ifvqgig","pricing_plan_id":"cebpf4jnsgd1na2vs0mg"},{"bike_id":"384b53be-0dd1-4ff6-96b3-76e22c52ec3c","system_id":"levelo_inurba_marseille","lat":43.276558,"lon":5.418809,"is_reserved":false,"is_disabled":true,"rental_uris":{"android":"levelo://app?vid=384b53be-0dd1-4ff6-96b3-76e22c52ec3c","ios":"levelo://app?vid=384b53be-0dd1-4ff6-96b3-76e22c52ec3c"},"vehicle_type_id":"4","last_reported":1743498690,"current_range_meters":400,"station_id":"","pricing_plan_id":"cebpf4jnsgd1na2vs0mg"},{"bike_id":"3f89caee-d928-44fe-85e1-5a1ac069930e","system_id":"levelo_inurba_marseille","lat":43.30069,"lon":5.39093,"is_reserved":false,"is_disabled":true,"rental_uris":{"android":"levelo://app?vid=3f89caee-d928-44fe-85e1-5a1ac069930e","ios":"levelo://app?vid=3f89caee-d928-44fe-85e1-5a1ac069930e"},"vehicle_type_id":"4","last_reported":1743498690,"current_range_meters":400,"station_id":"ce4bh192rcd13ifvqdb0","pricing_plan_id":"cebpf4jnsgd1na2vs0mg"},{"bike_id":"c6201554-e4d1-4da1-a021-30355f6fe9fb","system_id":"levelo_inurba_marseille","lat":43.26955,"lon":5.38638,"is_reserved":false,"is_disabled":true,"rental_uris":{"android":"levelo://app?vid=c6201554-e4d1-4da1-a021-30355f6fe9fb","ios":"levelo://app?vid=c6201554-e4d1-4da1-a021-30355f6fe9fb"},"vehicle_type_id":"4","last_reported":1743498690,"current_range_meters":800,"station_id":"ce4bhh92rcd13ifvqfh0","pricing_plan_id":"cebpf4jnsgd1na2vs0mg"},{"bike_id":"0a81bfab-9a56-47b0-a8c2-108d5a62dd6a","system_id":"levelo_inurba_marseille","lat":43.25939,"lon":5.40902,"is_reserved":false,"is_disabled":true,"rental_uris":{"android":"levelo://app?vid=0a81bfab-9a56-47b0-a8c2-108d5a62dd6a","ios":"levelo://app?vid=0a81bfab-9a56-47b0-a8c2-108d5a62dd6a"},"vehicle_type_id":"4","last_reported":1743498690,"current_range_meters":800,"station_id":"ce4bhm92rcd13ifvqglg","pricing_plan_id":"cebpf4jnsgd1na2vs0mg"},{"bike_id":"311443aa-9cee-4d9f-bf71-7e143c264071","system_id":"levelo_inurba_marseille","lat":43.29018,"lon":5.38128,"is_reserved":false,"is_disabled":true,"rental_uris":{"android":"levelo://app?vid=311443aa-9cee-4d9f-bf71-7e143c264071","ios":"levelo://app?vid=311443aa-9cee-4d9f-bf71-7e143c264071"},"vehicle_type_id":"4","last_reported":1743498690,"current_range_meters":1200,"station_id":"ce4bh4p2rcd13ifvqe1g","pricing_plan_id":"cebpf4jnsgd1na2vs0mg"},{"bike_id":"60f2c1d0-6f74-4669-9e8b-65b7793536c4","system_id":"levelo_inurba_marseille","lat":43.26553,"lon":5.37295,"is_reserved":false,"is_disabled":true,"rental_uris":{"android":"levelo://app?vid=60f2c1d0-6f74-4669-9e8b-65b7793536c4","ios":"levelo://app?vid=60f2c1d0-6f74-4669-9e8b-65b7793536c4"},"vehicle_type_id":"4","last_reported":1743498690,"current_range_meters":1200,"station_id":"ce4bhg12rcd13ifvqf70","pricing_plan_id":"cebpf4jnsgd1na2vs0mg"},{"bike_id":"e41cff70-c737-4bd6-bc96-2d3be618a7d8","system_id":"levelo_inurba_marseille","lat":43.25949,"lon":5.4089,"is_reserved":false,"is_disabled":true,"rental_uris":{"android":"levelo://app?vid=e41cff70-c737-4bd6-bc96-2d3be618a7d8","ios":"levelo://app?vid=e41cff70-c737-4bd6-bc96-2d3be618a7d8"},"vehicle_type_id":"4","last_reported":1743498690,"current_range_meters":1200,"station_id":"ce4bhm92rcd13ifvqglg","pricing_plan_id":"cebpf4jnsgd1na2vs0mg"},{"bike_id":"ba0f8447-4ee8-4f0e-8c53-e6c21cfc5c4d","system_id":"levelo_inurba_marseille","lat":43.23148,"lon":5.43688,"is_reserved":false,"is_disabled":true,"rental_uris":{"android":"levelo://app?vid=ba0f8447-4ee8-4f0e-8c53-e6c21cfc5c4d","ios":"levelo://app?vid=ba0f8447-4ee8-4f0e-8c53-e6c21cfc5c4d"},"vehicle_type_id":"4","last_reported":1743498690,"current_range_meters":1200,"station_id":"ce4bhmp2rcd13ifvqgog","pricing_plan_id":"cebpf4jnsgd1na2vs0mg"},{"bike_id":"b59d34a6-f9ee-42bf-b24e-a53eafb499a5","system_id":"levelo_inurba_marseille","lat":43.26783,"lon":5.40266,"is_reserved":false,"is_disabled":true,"rental_uris":{"android":"levelo://app?vid=b59d34a6-f9ee-42bf-b24e-a53eafb499a5","ios":"levelo://app?vid=b59d34a6-f9ee-42bf-b24e-a53eafb499a5"},"vehicle_type_id":"4","last_reported":1743498690,"current_range_meters":1200,"station_id":"ce501612rcd8frsf0b60","pricing_plan_id":"cebpf4jnsgd1na2vs0mg"},{"bike_id":"883f48d7-9075-416f-85dd-00699f4cdc39","system_id":"levelo_inurba_marseille","lat":43.267,"lon":5.38244,"is_reserved":false,"is_disabled":true,"rental_uris":{"android":"levelo://app?vid=883f48d7-9075-416f-85dd-00699f4cdc39","ios":"levelo://app?vid=883f48d7-9075-416f-85dd-00699f4cdc39"},"vehicle_type_id":"4","last_reported":1743498690,"current_range_meters":1600,"station_id":"ce4bhg92rcd13ifvqf90","pricing_plan_id":"cebpf4jnsgd1na2vs0mg"},{"bike_id":"3967a101-c376-4976-892c-3d7e9937c436","system_id":"levelo_inurba_marseille","lat":43.29087,"lon":5.38127,"is_reserved":false,"is_disabled":true,"rental_uris":{"android":"levelo://app?vid=3967a101-c376-4976-892c-3d7e9937c436","ios":"levelo://app?vid=3967a101-c376-4976-892c-3d7e9937c436"},"vehicle_type_id":"4","last_reported":1743498690,"current_range_meters":2000,"station_id":"ce4bh512rcd13ifvqe2g","pricing_plan_id":"cebpf4jnsgd1na2vs0mg"},{"bike_id":"dd83c443-49cf-4502-8f87-831710c358c0","system_id":"levelo_inurba_marseille","lat":43.27375,"lon":5.36257,"is_reserved":false,"is_disabled":true,"rental_uris":{"android":"levelo://app?vid=dd83c443-49cf-4502-8f87-831710c358c0","ios":"levelo://app?vid=dd83c443-49cf-4502-8f87-831710c358c0"},"vehicle_type_id":"4","last_reported":1743498690,"current_range_meters":2000,"station_id":"ce4bhbh2rcd13ifvqeo0","pricing_plan_id":"cebpf4jnsgd1na2vs0mg"},{"bike_id":"2c35b933-c5c9-4614-acbc-15da89c0978d","system_id":"levelo_inurba_marseille","lat":43.27916,"lon":5.39583,"is_reserved":false,"is_disabled":true,"rental_uris":{"android":"levelo://app?vid=2c35b933-c5c9-4614-acbc-15da89c0978d","ios":"levelo://app?vid=2c35b933-c5c9-4614-acbc-15da89c0978d"},"vehicle_type_id":"4","last_reported":1743498690,"current_range_meters":2000,"station_id":"ce4bhf92rcd13ifvqf40","pricing_plan_id":"cebpf4jnsgd1na2vs0mg"},{"bike_id":"817e511e-8dd1-453d-b473-58de5d5b609c","system_id":"levelo_inurba_marseille","lat":43.31223,"lon":5.36855,"is_reserved":false,"is_disabled":false,"rental_uris":{"android":"levelo://app?vid=817e511e-8dd1-453d-b473-58de5d5b609c","ios":"levelo://app?vid=817e511e-8dd1-453d-b473-58de5d5b609c"},"vehicle_type_id":"4","last_reported":1743498690,"current_range_meters":2800,"station_id":"ce4bgl92rcd13ifvqbq0","pricing_plan_id":"cebpf4jnsgd1na2vs0mg"},{"bike_id":"33c55660-0541-469b-a476-383fff04337f","system_id":"levelo_inurba_marseille","lat":43.22932,"lon":5.35378,"is_reserved":false,"is_disabled":false,"rental_uris":{"android":"levelo://app?vid=33c55660-0541-469b-a476-383fff04337f","ios":"levelo://app?vid=33c55660-0541-469b-a476-383fff04337f"},"vehicle_type_id":"4","last_reported":1743498690,"current_range_meters":3200,"station_id":"cpo3532slgdg3j2ikp40","pricing_plan_id":"cebpf4jnsgd1na2vs0mg"},{"bike_id":"49476a2a-4dab-495c-ba91-942304be4944","system_id":"levelo_inurba_marseille","lat":43.29066,"lon":5.3717,"is_reserved":false,"is_disabled":false,"rental_uris":{"android":"levelo://app?vid=49476a2a-4dab-495c-ba91-942304be4944","ios":"levelo://app?vid=49476a2a-4dab-495c-ba91-942304be4944"},"vehicle_type_id":"4","last_reported":1743498690,"current_range_meters":3600,"station_id":"ce4bh5p2rcd13ifvqe4g","pricing_plan_id":"cebpf4jnsgd1na2vs0mg"},{"bike_id":"17a541b3-b097-4771-a674-7ed85b0e8b8f","system_id":"levelo_inurba_marseille","lat":43.27829,"lon":5.39212,"is_reserved":false,"is_disabled":false,"rental_uris":{"android":"levelo://app?vid=17a541b3-b097-4771-a674-7ed85b0e8b8f","ios":"levelo://app?vid=17a541b3-b097-4771-a674-7ed85b0e8b8f"},"vehicle_type_id":"4","last_reported":1743498690,"current_range_meters":3600,"station_id":"ce4bhjp2rcd13ifvqga0","pricing_plan_id":"cebpf4jnsgd1na2vs0mg"},{"bike_id":"b3593ea0-f10f-4d2d-8fd4-ca8847ced39c","system_id":"levelo_inurba_marseille","lat":43.33604,"lon":5.41033,"is_reserved":false,"is_disabled":false,"rental_uris":{"android":"levelo://app?vid=b3593ea0-f10f-4d2d-8fd4-ca8847ced39c","ios":"levelo://app?vid=b3593ea0-f10f-4d2d-8fd4-ca8847ced39c"},"vehicle_type_id":"4","last_reported":1743498690,"current_range_meters":3600,"station_id":"ce4bhqh2rcd13ifvqhmg","pricing_plan_id":"cebpf4jnsgd1na2vs0mg"},{"bike_id":"876597f4-5dfd-4524-8d81-c007630226e7","system_id":"levelo_inurba_marseille","lat":43.27318,"lon":5.39077,"is_reserved":false,"is_disabled":false,"rental_uris":{"android":"levelo://app?vid=876597f4-5dfd-4524-8d81-c007630226e7","ios":"levelo://app?vid=876597f4-5dfd-4524-8d81-c007630226e7"},"vehicle_type_id":"4","last_reported":1743498690,"current_range_meters":4000,"station_id":"ce4bhgp2rcd13ifvqfe0","pricing_plan_id":"cebpf4jnsgd1na2vs0mg"},{"bike_id":"01ebc392-ad04-4770-a9e4-e7ddd8e73dc2","system_id":"levelo_inurba_marseille","lat":43.28486,"lon":5.38416,"is_reserved":false,"is_disabled":false,"rental_uris":{"android":"levelo://app?vid=01ebc392-ad04-4770-a9e4-e7ddd8e73dc2","ios":"levelo://app?vid=01ebc392-ad04-4770-a9e4-e7ddd8e73dc2"},"vehicle_type_id":"4","last_reported":1743498690,"current_range_meters":4400,"station_id":"ce4bh512rcd13ifvqe3g","pricing_plan_id":"cebpf4jnsgd1na2vs0mg"},{"bike_id":"ac96d8aa-a87a-4cbe-ac2a-4cf10cbcc69b","system_id":"levelo_inurba_marseille","lat":43.24082,"lon":5.37766,"is_reserved":false,"is_disabled":false,"rental_uris":{"android":"levelo://app?vid=ac96d8aa-a87a-4cbe-ac2a-4cf10cbcc69b","ios":"levelo://app?vid=ac96d8aa-a87a-4cbe-ac2a-4cf10cbcc69b"},"vehicle_type_id":"4","last_reported":1743498690,"current_range_meters":4400,"station_id":"ce4bhnp2rcd13ifvqgvg","pricing_plan_id":"cebpf4jnsgd1na2vs0mg"},{"bike_id":"95814e80-ef45-4414-8396-d2cf5a678315","system_id":"levelo_inurba_marseille","lat":43.29223,"lon":5.36073,"is_reserved":false,"is_disabled":false,"rental_uris":{"android":"levelo://app?vid=95814e80-ef45-4414-8396-d2cf5a678315","ios":"levelo://app?vid=95814e80-ef45-4414-8396-d2cf5a678315"},"vehicle_type_id":"4","last_reported":1743498690,"current_range_meters":4800,"station_id":"ce4bhbh2rcd13ifvqeqg","pricing_plan_id":"cebpf4jnsgd1na2vs0mg"},{"bike_id":"af3cfe8c-ba88-488e-950b-915dc1379ac0","system_id":"levelo_inurba_marseille","lat":43.2737,"lon":5.36247,"is_reserved":false,"is_disabled":false,"rental_uris":{"android":"levelo://app?vid=af3cfe8c-ba88-488e-950b-915dc1379ac0","ios":"levelo://app?vid=af3cfe8c-ba88-488e-950b-915dc1379ac0"},"vehicle_type_id":"4","last_reported":1743498690,"current_range_meters":5600,"station_id":"ce4bhbh2rcd13ifvqeo0","pricing_plan_id":"cebpf4jnsgd1na2vs0mg"},{"bike_id":"d00ad744-127d-4a46-a16e-67b202b8581c","system_id":"levelo_inurba_marseille","lat":43.25001,"lon":5.38923,"is_reserved":false,"is_disabled":false,"rental_uris":{"android":"levelo://app?vid=d00ad744-127d-4a46-a16e-67b202b8581c","ios":"levelo://app?vid=d00ad744-127d-4a46-a16e-67b202b8581c"},"vehicle_type_id":"4","last_reported":1743498690,"current_range_meters":5600,"station_id":"ce4bhgp2rcd13ifvqfd0","pricing_plan_id":"cebpf4jnsgd1na2vs0mg"},{"bike_id":"ea26cff1-876d-4050-af3f-349fed32531f","system_id":"levelo_inurba_marseille","lat":43.2315,"lon":5.43715,"is_reserved":false,"is_disabled":false,"rental_uris":{"android":"levelo://app?vid=ea26cff1-876d-4050-af3f-349fed32531f","ios":"levelo://app?vid=ea26cff1-876d-4050-af3f-349fed32531f"},"vehicle_type_id":"4","last_reported":1743498690,"current_range_meters":5600,"station_id":"ce4bhmp2rcd13ifvqgog","pricing_plan_id":"cebpf4jnsgd1na2vs0mg"},{"bike_id":"2bf31f9f-c5c0-434c-ab3b-b017d7dc966d","system_id":"levelo_inurba_marseille","lat":43.23054,"lon":5.35505,"is_reserved":false,"is_disabled":false,"rental_uris":{"android":"levelo://app?vid=2bf31f9f-c5c0-434c-ab3b-b017d7dc966d","ios":"levelo://app?vid=2bf31f9f-c5c0-434c-ab3b-b017d7dc966d"},"vehicle_type_id":"4","last_reported":1743498690,"current_range_meters":5600,"station_id":"cpo3342slgdg3j2ifvpg","pricing_plan_id":"cebpf4jnsgd1na2vs0mg"},{"bike_id":"d1a4d67b-c4f6-4c82-b90e-ac279dc5003d","system_id":"levelo_inurba_marseille","lat":43.26672,"lon":5.38264,"is_reserved":false,"is_disabled":false,"rental_uris":{"android":"levelo://app?vid=d1a4d67b-c4f6-4c82-b90e-ac279dc5003d","ios":"levelo://app?vid=d1a4d67b-c4f6-4c82-b90e-ac279dc5003d"},"vehicle_type_id":"4","last_reported":1743498690,"current_range_meters":6400,"station_id":"ce4bhg92rcd13ifvqf90","pricing_plan_id":"cebpf4jnsgd1na2vs0mg"},{"bike_id":"f50dd1be-9ee4-480d-920f-0721f0997798","system_id":"levelo_inurba_marseille","lat":43.23182,"lon":5.39988,"is_reserved":false,"is_disabled":false,"rental_uris":{"android":"levelo://app?vid=f50dd1be-9ee4-480d-920f-0721f0997798","ios":"levelo://app?vid=f50dd1be-9ee4-480d-920f-0721f0997798"},"vehicle_type_id":"4","last_reported":1743498690,"current_range_meters":6400,"station_id":"ce4bhn12rcd13ifvqgqg","pricing_plan_id":"cebpf4jnsgd1na2vs0mg"},{"bike_id":"2a7bdf2e-66f7-44f8-b4f8-1631b1f76e6d","system_id":"levelo_inurba_marseille","lat":43.2952,"lon":5.39403,"is_reserved":false,"is_disabled":false,"rental_uris":{"android":"levelo://app?vid=2a7bdf2e-66f7-44f8-b4f8-1631b1f76e6d","ios":"levelo://app?vid=2a7bdf2e-66f7-44f8-b4f8-1631b1f76e6d"},"vehicle_type_id":"4","last_reported":1743498690,"current_range_meters":6800,"station_id":"ce4bh292rcd13ifvqdf0","pricing_plan_id":"cebpf4jnsgd1na2vs0mg"},{"bike_id":"aa476af2-34c7-4434-94db-f9e6af53a4a0","system_id":"levelo_inurba_marseille","lat":43.26175,"lon":5.374514,"is_reserved":false,"is_disabled":false,"rental_uris":{"android":"levelo://app?vid=aa476af2-34c7-4434-94db-f9e6af53a4a0","ios":"levelo://app?vid=aa476af2-34c7-4434-94db-f9e6af53a4a0"},"vehicle_type_id":"4","last_reported":1743498690,"current_range_meters":6800,"station_id":"ce4bhgp2rcd13ifvqfc0","pricing_plan_id":"cebpf4jnsgd1na2vs0mg"},{"bike_id":"1842b946-b20f-4197-b890-ec6a2faa3002","system_id":"levelo_inurba_marseille","lat":43.25929,"lon":5.40915,"is_reserved":false,"is_disabled":false,"rental_uris":{"android":"levelo://app?vid=1842b946-b20f-4197-b890-ec6a2faa3002","ios":"levelo://app?vid=1842b946-b20f-4197-b890-ec6a2faa3002"},"vehicle_type_id":"4","last_reported":1743498690,"current_range_meters":6800,"station_id":"ce4bhm92rcd13ifvqglg","pricing_plan_id":"cebpf4jnsgd1na2vs0mg"},{"bike_id":"323c49b1-0c8f-495c-899a-003c84f7cf30","system_id":"levelo_inurba_marseille","lat":43.25961,"lon":5.40884,"is_reserved":false,"is_disabled":false,"rental_uris":{"android":"levelo://app?vid=323c49b1-0c8f-495c-899a-003c84f7cf30","ios":"levelo://app?vid=323c49b1-0c8f-495c-899a-003c84f7cf30"},"vehicle_type_id":"4","last_reported":1743498690,"current_range_meters":6800,"station_id":"ce4bhm92rcd13ifvqglg","pricing_plan_id":"cebpf4jnsgd1na2vs0mg"},{"bike_id":"121010d1-d0ea-475b-97a6-f9054736109c","system_id":"levelo_inurba_marseille","lat":43.23177,"lon":5.39984,"is_reserved":false,"is_disabled":false,"rental_uris":{"android":"levelo://app?vid=121010d1-d0ea-475b-97a6-f9054736109c","ios":"levelo://app?vid=121010d1-d0ea-475b-97a6-f9054736109c"},"vehicle_type_id":"4","last_reported":1743498690,"current_range_meters":6800,"station_id":"ce4bhn12rcd13ifvqgqg","pricing_plan_id":"cebpf4jnsgd1na2vs0mg"},{"bike_id":"4d742506-2870-472c-a53e-89bcddcd114d","system_id":"levelo_inurba_marseille","lat":43.33611,"lon":5.41034,"is_reserved":false,"is_disabled":false,"rental_uris":{"android":"levelo://app?vid=4d742506-2870-472c-a53e-89bcddcd114d","ios":"levelo://app?vid=4d742506-2870-472c-a53e-89bcddcd114d"},"vehicle_type_id":"4","last_reported":1743498690,"current_range_meters":6800,"station_id":"ce4bhqh2rcd13ifvqhmg","pricing_plan_id":"cebpf4jnsgd1na2vs0mg"},{"bike_id":"ad143c57-46b9-4ed1-adee-0be403a502ee","system_id":"levelo_inurba_marseille","lat":43.30901,"lon":5.37203,"is_reserved":false,"is_disabled":false,"rental_uris":{"android":"levelo://app?vid=ad143c57-46b9-4ed1-adee-0be403a502ee","ios":"levelo://app?vid=ad143c57-46b9-4ed1-adee-0be403a502ee"},"vehicle_type_id":"4","last_reported":1743498690,"current_range_meters":7200,"station_id":"ce4bguh2rcd13ifvqckg","pricing_plan_id":"cebpf4jnsgd1na2vs0mg"},{"bike_id":"a903119c-a8bc-476d-a731-01a2c52d19cc","system_id":"levelo_inurba_marseille","lat":43.30882,"lon":5.37193,"is_reserved":false,"is_disabled":false,"rental_uris":{"android":"levelo://app?vid=a903119c-a8bc-476d-a731-01a2c52d19cc","ios":"levelo://app?vid=a903119c-a8bc-476d-a731-01a2c52d19cc"},"vehicle_type_id":"4","last_reported":1743498690,"current_range_meters":7200,"station_id":"ce4bguh2rcd13ifvqckg","pricing_plan_id":"cebpf4jnsgd1na2vs0mg"},{"bike_id":"5203ccbe-ce3c-4351-a8e9-f9ee5ad38a9c","system_id":"levelo_inurba_marseille","lat":43.23167,"lon":5.39987,"is_reserved":false,"is_disabled":false,"rental_uris":{"android":"levelo://app?vid=5203ccbe-ce3c-4351-a8e9-f9ee5ad38a9c","ios":"levelo://app?vid=5203ccbe-ce3c-4351-a8e9-f9ee5ad38a9c"},"vehicle_type_id":"4","last_reported":1743498690,"current_range_meters":7200,"station_id":"ce4bhn12rcd13ifvqgqg","pricing_plan_id":"cebpf4jnsgd1na2vs0mg"},{"bike_id":"5ccae3de-58e9-4c46-ab98-3dfbadba33ff","system_id":"levelo_inurba_marseille","lat":43.29918,"lon":5.37471,"is_reserved":false,"is_disabled":false,"rental_uris":{"android":"levelo://app?vid=5ccae3de-58e9-4c46-ab98-3dfbadba33ff","ios":"levelo://app?vid=5ccae3de-58e9-4c46-ab98-3dfbadba33ff"},"vehicle_type_id":"4","last_reported":1743498690,"current_range_meters":8000,"station_id":"ce4bgjh2rcd13ifvqbg0","pricing_plan_id":"cebpf4jnsgd1na2vs0mg"},{"bike_id":"c9968b65-f81d-41ec-8c2f-403679233fff","system_id":"levelo_inurba_marseille","lat":43.30292,"lon":5.37708,"is_reserved":false,"is_disabled":false,"rental_uris":{"android":"levelo://app?vid=c9968b65-f81d-41ec-8c2f-403679233fff","ios":"levelo://app?vid=c9968b65-f81d-41ec-8c2f-403679233fff"},"vehicle_type_id":"4","last_reported":1743498690,"current_range_meters":8000,"station_id":"ce4bguh2rcd13ifvqcj0","pricing_plan_id":"cebpf4jnsgd1na2vs0mg"},{"bike_id":"f51eb7fe-e1e7-489d-9936-764c3b91b0bd","system_id":"levelo_inurba_marseille","lat":43.27377,"lon":5.36252,"is_reserved":false,"is_disabled":false,"rental_uris":{"android":"levelo://app?vid=f51eb7fe-e1e7-489d-9936-764c3b91b0bd","ios":"levelo://app?vid=f51eb7fe-e1e7-489d-9936-764c3b91b0bd"},"vehicle_type_id":"4","last_reported":1743498690,"current_range_meters":8000,"station_id":"ce4bhbh2rcd13ifvqeo0","pricing_plan_id":"cebpf4jnsgd1na2vs0mg"},{"bike_id":"47e8be51-97ef-4865-a7d3-8794dda5ac8f","system_id":"levelo_inurba_marseille","lat":43.2792,"lon":5.39582,"is_reserved":false,"is_disabled":false,"rental_uris":{"android":"levelo://app?vid=47e8be51-97ef-4865-a7d3-8794dda5ac8f","ios":"levelo://app?vid=47e8be51-97ef-4865-a7d3-8794dda5ac8f"},"vehicle_type_id":"4","last_reported":1743498690,"current_range_meters":8000,"station_id":"ce4bhf92rcd13ifvqf40","pricing_plan_id":"cebpf4jnsgd1na2vs0mg"},{"bike_id":"7e5b4f8b-5831-4add-ac41-6a17bdee50ce","system_id":"levelo_inurba_marseille","lat":43.25934,"lon":5.40906,"is_reserved":false,"is_disabled":false,"rental_uris":{"android":"levelo://app?vid=7e5b4f8b-5831-4add-ac41-6a17bdee50ce","ios":"levelo://app?vid=7e5b4f8b-5831-4add-ac41-6a17bdee50ce"},"vehicle_type_id":"4","last_reported":1743498690,"current_range_meters":8000,"station_id":"ce4bhm92rcd13ifvqglg","pricing_plan_id":"cebpf4jnsgd1na2vs0mg"},{"bike_id":"74d792f7-408a-4b2d-9182-fdc09d0345a0","system_id":"levelo_inurba_marseille","lat":43.27005,"lon":5.40275,"is_reserved":false,"is_disabled":false,"rental_uris":{"android":"levelo://app?vid=74d792f7-408a-4b2d-9182-fdc09d0345a0","ios":"levelo://app?vid=74d792f7-408a-4b2d-9182-fdc09d0345a0"},"vehicle_type_id":"4","last_reported":1743498690,"current_range_meters":8000,"station_id":"cjm6bp8fraef2m0cb0m0","pricing_plan_id":"cebpf4jnsgd1na2vs0mg"},{"bike_id":"c5275afe-4294-4e5c-8b31-7f61846f76af","system_id":"levelo_inurba_marseille","lat":43.301375,"lon":5.380818,"is_reserved":false,"is_disabled":false,"rental_uris":{"android":"levelo://app?vid=c5275afe-4294-4e5c-8b31-7f61846f76af","ios":"levelo://app?vid=c5275afe-4294-4e5c-8b31-7f61846f76af"},"vehicle_type_id":"4","last_reported":1743498690,"current_range_meters":8400,"station_id":"ce4bgop2rcd13ifvqc1g","pricing_plan_id":"cebpf4jnsgd1na2vs0mg"},{"bike_id":"bca387f4-85a3-4e2e-90de-cd9f2ee29451","system_id":"levelo_inurba_marseille","lat":43.30308,"lon":5.37697,"is_reserved":false,"is_disabled":false,"rental_uris":{"android":"levelo://app?vid=bca387f4-85a3-4e2e-90de-cd9f2ee29451","ios":"levelo://app?vid=bca387f4-85a3-4e2e-90de-cd9f2ee29451"},"vehicle_type_id":"4","last_reported":1743498690,"current_range_meters":8400,"station_id":"ce4bguh2rcd13ifvqcj0","pricing_plan_id":"cebpf4jnsgd1na2vs0mg"},{"bike_id":"98116208-f0d9-448e-914d-e1f5219f8c07","system_id":"levelo_inurba_marseille","lat":43.30954,"lon":5.39044,"is_reserved":false,"is_disabled":false,"rental_uris":{"android":"levelo://app?vid=98116208-f0d9-448e-914d-e1f5219f8c07","ios":"levelo://app?vid=98116208-f0d9-448e-914d-e1f5219f8c07"},"vehicle_type_id":"4","last_reported":1743498690,"current_range_meters":8400,"station_id":"ce4bgup2rcd13ifvqco0","pricing_plan_id":"cebpf4jnsgd1na2vs0mg"},{"bike_id":"3ca424a7-e0ca-4df5-8439-9f714ad26ba4","system_id":"levelo_inurba_marseille","lat":43.27912,"lon":5.39577,"is_reserved":false,"is_disabled":false,"rental_uris":{"android":"levelo://app?vid=3ca424a7-e0ca-4df5-8439-9f714ad26ba4","ios":"levelo://app?vid=3ca424a7-e0ca-4df5-8439-9f714ad26ba4"},"vehicle_type_id":"4","last_reported":1743498690,"current_range_meters":8400,"station_id":"ce4bhf92rcd13ifvqf40","pricing_plan_id":"cebpf4jnsgd1na2vs0mg"},{"bike_id":"32c689bc-72a5-4d13-9a31-3f2e1f4fb44e","system_id":"levelo_inurba_marseille","lat":43.26683,"lon":5.38256,"is_reserved":false,"is_disabled":false,"rental_uris":{"android":"levelo://app?vid=32c689bc-72a5-4d13-9a31-3f2e1f4fb44e","ios":"levelo://app?vid=32c689bc-72a5-4d13-9a31-3f2e1f4fb44e"},"vehicle_type_id":"4","last_reported":1743498690,"current_range_meters":8400,"station_id":"ce4bhg92rcd13ifvqf90","pricing_plan_id":"cebpf4jnsgd1na2vs0mg"},{"bike_id":"3adc3ad1-1dd6-4a4c-af81-9e6df341c6ce","system_id":"levelo_inurba_marseille","lat":43.25922,"lon":5.40883,"is_reserved":false,"is_disabled":false,"rental_uris":{"android":"levelo://app?vid=3adc3ad1-1dd6-4a4c-af81-9e6df341c6ce","ios":"levelo://app?vid=3adc3ad1-1dd6-4a4c-af81-9e6df341c6ce"},"vehicle_type_id":"4","last_reported":1743498690,"current_range_meters":8400,"station_id":"ce4bhm92rcd13ifvqglg","pricing_plan_id":"cebpf4jnsgd1na2vs0mg"},{"bike_id":"14924ecf-ceed-4dd0-b673-ed4f520a5cbc","system_id":"levelo_inurba_marseille","lat":43.24073,"lon":5.37755,"is_reserved":false,"is_disabled":false,"rental_uris":{"android":"levelo://app?vid=14924ecf-ceed-4dd0-b673-ed4f520a5cbc","ios":"levelo://app?vid=14924ecf-ceed-4dd0-b673-ed4f520a5cbc"},"vehicle_type_id":"4","last_reported":1743498690,"current_range_meters":8400,"station_id":"ce4bhnp2rcd13ifvqgvg","pricing_plan_id":"cebpf4jnsgd1na2vs0mg"},{"bike_id":"fdad0d4a-6871-46bb-9383-a94ccabf3e34","system_id":"levelo_inurba_marseille","lat":43.29917,"lon":5.37463,"is_reserved":false,"is_disabled":false,"rental_uris":{"android":"levelo://app?vid=fdad0d4a-6871-46bb-9383-a94ccabf3e34","ios":"levelo://app?vid=fdad0d4a-6871-46bb-9383-a94ccabf3e34"},"vehicle_type_id":"4","last_reported":1743498690,"current_range_meters":8800,"station_id":"ce4bgjh2rcd13ifvqbg0","pricing_plan_id":"cebpf4jnsgd1na2vs0mg"},{"bike_id":"26dc95b4-f72c-4ae5-8d75-dd27438fff6b","system_id":"levelo_inurba_marseille","lat":43.305455,"lon":5.365605,"is_reserved":false,"is_disabled":false,"rental_uris":{"android":"levelo://app?vid=26dc95b4-f72c-4ae5-8d75-dd27438fff6b","ios":"levelo://app?vid=26dc95b4-f72c-4ae5-8d75-dd27438fff6b"},"vehicle_type_id":"4","last_reported":1743498690,"current_range_meters":8800,"station_id":"ce4bgs12rcd13ifvqcag","pricing_plan_id":"cebpf4jnsgd1na2vs0mg"},{"bike_id":"a4fbffc1-fb68-46f7-9ba4-456c1553dc03","system_id":"levelo_inurba_marseille","lat":43.30305,"lon":5.40458,"is_reserved":false,"is_disabled":false,"rental_uris":{"android":"levelo://app?vid=a4fbffc1-fb68-46f7-9ba4-456c1553dc03","ios":"levelo://app?vid=a4fbffc1-fb68-46f7-9ba4-456c1553dc03"},"vehicle_type_id":"4","last_reported":1743498690,"current_range_meters":8800,"station_id":"ce4bh012rcd13ifvqd10","pricing_plan_id":"cebpf4jnsgd1na2vs0mg"},{"bike_id":"e9e48b3d-2271-471a-8113-049ee405c50e","system_id":"levelo_inurba_marseille","lat":43.23153,"lon":5.43717,"is_reserved":false,"is_disabled":false,"rental_uris":{"android":"levelo://app?vid=e9e48b3d-2271-471a-8113-049ee405c50e","ios":"levelo://app?vid=e9e48b3d-2271-471a-8113-049ee405c50e"},"vehicle_type_id":"4","last_reported":1743498690,"current_range_meters":8800,"station_id":"ce4bhmp2rcd13ifvqgog","pricing_plan_id":"cebpf4jnsgd1na2vs0mg"},{"bike_id":"2165df71-d107-4015-b07d-8ad70fb5a68a","system_id":"levelo_inurba_marseille","lat":43.2749,"lon":5.42453,"is_reserved":false,"is_disabled":false,"rental_uris":{"android":"levelo://app?vid=2165df71-d107-4015-b07d-8ad70fb5a68a","ios":"levelo://app?vid=2165df71-d107-4015-b07d-8ad70fb5a68a"},"vehicle_type_id":"4","last_reported":1743498690,"current_range_meters":8800,"station_id":"ce4bhn92rcd13ifvqgrg","pricing_plan_id":"cebpf4jnsgd1na2vs0mg"},{"bike_id":"68dbaf4e-4b4a-43f6-a58c-921a9b9402c0","system_id":"levelo_inurba_marseille","lat":43.30949,"lon":5.39042,"is_reserved":false,"is_disabled":false,"rental_uris":{"android":"levelo://app?vid=68dbaf4e-4b4a-43f6-a58c-921a9b9402c0","ios":"levelo://app?vid=68dbaf4e-4b4a-43f6-a58c-921a9b9402c0"},"vehicle_type_id":"4","last_reported":1743498690,"current_range_meters":9200,"station_id":"ce4bgup2rcd13ifvqco0","pricing_plan_id":"cebpf4jnsgd1na2vs0mg"},{"bike_id":"16aa4fe4-9d30-4877-bcef-f8167e7d6923","system_id":"levelo_inurba_marseille","lat":43.292052,"lon":5.39325,"is_reserved":false,"is_disabled":false,"rental_uris":{"android":"levelo://app?vid=16aa4fe4-9d30-4877-bcef-f8167e7d6923","ios":"levelo://app?vid=16aa4fe4-9d30-4877-bcef-f8167e7d6923"},"vehicle_type_id":"4","last_reported":1743498690,"current_range_meters":9200,"station_id":"ce4bh192rcd13ifvqdd0","pricing_plan_id":"cebpf4jnsgd1na2vs0mg"},{"bike_id":"b934f38c-c53e-4fe6-bfe2-7a3b505971c3","system_id":"levelo_inurba_marseille","lat":43.27905,"lon":5.38011,"is_reserved":false,"is_disabled":false,"rental_uris":{"android":"levelo://app?vid=b934f38c-c53e-4fe6-bfe2-7a3b505971c3","ios":"levelo://app?vid=b934f38c-c53e-4fe6-bfe2-7a3b505971c3"},"vehicle_type_id":"4","last_reported":1743498690,"current_range_meters":9200,"station_id":"ce4bhf92rcd13ifvqf50","pricing_plan_id":"cebpf4jnsgd1na2vs0mg"},{"bike_id":"c89c3622-a163-47e2-af38-8a2916d858b1","system_id":"levelo_inurba_marseille","lat":43.25921,"lon":5.40898,"is_reserved":false,"is_disabled":false,"rental_uris":{"android":"levelo://app?vid=c89c3622-a163-47e2-af38-8a2916d858b1","ios":"levelo://app?vid=c89c3622-a163-47e2-af38-8a2916d858b1"},"vehicle_type_id":"4","last_reported":1743498690,"current_range_meters":9200,"station_id":"ce4bhm92rcd13ifvqglg","pricing_plan_id":"cebpf4jnsgd1na2vs0mg"},{"bike_id":"c5f908d3-4610-4cae-8aeb-e89ca0e64cc1","system_id":"levelo_inurba_marseille","lat":43.33609,"lon":5.41037,"is_reserved":false,"is_disabled":false,"rental_uris":{"android":"levelo://app?vid=c5f908d3-4610-4cae-8aeb-e89ca0e64cc1","ios":"levelo://app?vid=c5f908d3-4610-4cae-8aeb-e89ca0e64cc1"},"vehicle_type_id":"4","last_reported":1743498690,"current_range_meters":9200,"station_id":"ce4bhqh2rcd13ifvqhmg","pricing_plan_id":"cebpf4jnsgd1na2vs0mg"},{"bike_id":"47f5b21d-a327-4601-b659-015a64e5754a","system_id":"levelo_inurba_marseille","lat":43.30269,"lon":5.37687,"is_reserved":false,"is_disabled":false,"rental_uris":{"android":"levelo://app?vid=47f5b21d-a327-4601-b659-015a64e5754a","ios":"levelo://app?vid=47f5b21d-a327-4601-b659-015a64e5754a"},"vehicle_type_id":"4","last_reported":1743498690,"current_range_meters":9600,"station_id":"ce4bguh2rcd13ifvqcj0","pricing_plan_id":"cebpf4jnsgd1na2vs0mg"},{"bike_id":"e851c1ec-c16a-4739-8b7b-18c569e6c182","system_id":"levelo_inurba_marseille","lat":43.29002,"lon":5.35606,"is_reserved":false,"is_disabled":false,"rental_uris":{"android":"levelo://app?vid=e851c1ec-c16a-4739-8b7b-18c569e6c182","ios":"levelo://app?vid=e851c1ec-c16a-4739-8b7b-18c569e6c182"},"vehicle_type_id":"4","last_reported":1743498690,"current_range_meters":9600,"station_id":"ce4bhb92rcd13ifvqen0","pricing_plan_id":"cebpf4jnsgd1na2vs0mg"},{"bike_id":"2005ecc7-15bd-40c7-abeb-09bd81917a4a","system_id":"levelo_inurba_marseille","lat":43.25935,"lon":5.40897,"is_reserved":false,"is_disabled":false,"rental_uris":{"android":"levelo://app?vid=2005ecc7-15bd-40c7-abeb-09bd81917a4a","ios":"levelo://app?vid=2005ecc7-15bd-40c7-abeb-09bd81917a4a"},"vehicle_type_id":"4","last_reported":1743498690,"current_range_meters":9600,"station_id":"ce4bhm92rcd13ifvqglg","pricing_plan_id":"cebpf4jnsgd1na2vs0mg"},{"bike_id":"27592d10-ee10-47a1-a39e-f30b79fbd85f","system_id":"levelo_inurba_marseille","lat":43.23156,"lon":5.43708,"is_reserved":false,"is_disabled":false,"rental_uris":{"android":"levelo://app?vid=27592d10-ee10-47a1-a39e-f30b79fbd85f","ios":"levelo://app?vid=27592d10-ee10-47a1-a39e-f30b79fbd85f"},"vehicle_type_id":"4","last_reported":1743498690,"current_range_meters":9600,"station_id":"ce4bhmp2rcd13ifvqgog","pricing_plan_id":"cebpf4jnsgd1na2vs0mg"},{"bike_id":"ab44caac-d617-4c4f-baa7-23d68173bc1b","system_id":"levelo_inurba_marseille","lat":43.24181,"lon":5.39719,"is_reserved":false,"is_disabled":false,"rental_uris":{"android":"levelo://app?vid=ab44caac-d617-4c4f-baa7-23d68173bc1b","ios":"levelo://app?vid=ab44caac-d617-4c4f-baa7-23d68173bc1b"},"vehicle_type_id":"4","last_reported":1743498690,"current_range_meters":9600,"station_id":"ce4bhn12rcd13ifvqgpg","pricing_plan_id":"cebpf4jnsgd1na2vs0mg"},{"bike_id":"2286499e-afb3-42f0-be29-239621d5e7b7","system_id":"levelo_inurba_marseille","lat":43.24176,"lon":5.3971,"is_reserved":false,"is_disabled":false,"rental_uris":{"android":"levelo://app?vid=2286499e-afb3-42f0-be29-239621d5e7b7","ios":"levelo://app?vid=2286499e-afb3-42f0-be29-239621d5e7b7"},"vehicle_type_id":"4","last_reported":1743498690,"current_range_meters":9600,"station_id":"ce4bhn12rcd13ifvqgpg","pricing_plan_id":"cebpf4jnsgd1na2vs0mg"},{"bike_id":"604d04be-c028-4ab1-8834-f33df09c2f76","system_id":"levelo_inurba_marseille","lat":43.30904,"lon":5.36865,"is_reserved":false,"is_disabled":false,"rental_uris":{"android":"levelo://app?vid=604d04be-c028-4ab1-8834-f33df09c2f76","ios":"levelo://app?vid=604d04be-c028-4ab1-8834-f33df09c2f76"},"vehicle_type_id":"4","last_reported":1743498690,"current_range_meters":10000,"station_id":"ce4bgn92rcd13ifvqbvg","pricing_plan_id":"cebpf4jnsgd1na2vs0mg"},{"bike_id":"a41cce1f-4998-4aa8-9a69-b971d8852a5b","system_id":"levelo_inurba_marseille","lat":43.30157,"lon":5.37414,"is_reserved":false,"is_disabled":false,"rental_uris":{"android":"levelo://app?vid=a41cce1f-4998-4aa8-9a69-b971d8852a5b","ios":"levelo://app?vid=a41cce1f-4998-4aa8-9a69-b971d8852a5b"},"vehicle_type_id":"4","last_reported":1743498690,"current_range_meters":10000,"station_id":"ce4bgs92rcd13ifvqcc0","pricing_plan_id":"cebpf4jnsgd1na2vs0mg"},{"bike_id":"065f7a43-d610-4dd9-9dfe-5c4882ed24f1","system_id":"levelo_inurba_marseille","lat":43.29026,"lon":5.38616,"is_reserved":false,"is_disabled":false,"rental_uris":{"android":"levelo://app?vid=065f7a43-d610-4dd9-9dfe-5c4882ed24f1","ios":"levelo://app?vid=065f7a43-d610-4dd9-9dfe-5c4882ed24f1"},"vehicle_type_id":"4","last_reported":1743498690,"current_range_meters":10000,"station_id":"ce4bh4p2rcd13ifvqe0g","pricing_plan_id":"cebpf4jnsgd1na2vs0mg"},{"bike_id":"7f4bd8e4-b62d-40a5-b517-c876a2773d61","system_id":"levelo_inurba_marseille","lat":43.27893,"lon":5.38031,"is_reserved":false,"is_disabled":false,"rental_uris":{"android":"levelo://app?vid=7f4bd8e4-b62d-40a5-b517-c876a2773d61","ios":"levelo://app?vid=7f4bd8e4-b62d-40a5-b517-c876a2773d61"},"vehicle_type_id":"4","last_reported":1743498690,"current_range_meters":10000,"station_id":"ce4bhf92rcd13ifvqf50","pricing_plan_id":"cebpf4jnsgd1na2vs0mg"},{"bike_id":"41f4ee23-fe8c-441e-bf4f-74aef989cbb6","system_id":"levelo_inurba_marseille","lat":43.27325,"lon":5.39084,"is_reserved":false,"is_disabled":false,"rental_uris":{"android":"levelo://app?vid=41f4ee23-fe8c-441e-bf4f-74aef989cbb6","ios":"levelo://app?vid=41f4ee23-fe8c-441e-bf4f-74aef989cbb6"},"vehicle_type_id":"4","last_reported":1743498690,"current_range_meters":10000,"station_id":"ce4bhgp2rcd13ifvqfe0","pricing_plan_id":"cebpf4jnsgd1na2vs0mg"},{"bike_id":"c86f3dd7-4af6-4e32-832d-8c711682ef46","system_id":"levelo_inurba_marseille","lat":43.25927,"lon":5.40908,"is_reserved":false,"is_disabled":false,"rental_uris":{"android":"levelo://app?vid=c86f3dd7-4af6-4e32-832d-8c711682ef46","ios":"levelo://app?vid=c86f3dd7-4af6-4e32-832d-8c711682ef46"},"vehicle_type_id":"4","last_reported":1743498690,"current_range_meters":10000,"station_id":"ce4bhm92rcd13ifvqglg","pricing_plan_id":"cebpf4jnsgd1na2vs0mg"},{"bike_id":"a65c60d0-9838-4fce-ab82-173f64a7b595","system_id":"levelo_inurba_marseille","lat":43.2416,"lon":5.39704,"is_reserved":false,"is_disabled":false,"rental_uris":{"android":"levelo://app?vid=a65c60d0-9838-4fce-ab82-173f64a7b595","ios":"levelo://app?vid=a65c60d0-9838-4fce-ab82-173f64a7b595"},"vehicle_type_id":"4","last_reported":1743498690,"current_range_meters":10000,"station_id":"ce4bhn12rcd13ifvqgpg","pricing_plan_id":"cebpf4jnsgd1na2vs0mg"},{"bike_id":"649b5ad5-62ac-4bfd-a6cd-60fc43d8fef1","system_id":"levelo_inurba_marseille","lat":43.29251,"lon":5.39838,"is_reserved":false,"is_disabled":false,"rental_uris":{"android":"levelo://app?vid=649b5ad5-62ac-4bfd-a6cd-60fc43d8fef1","ios":"levelo://app?vid=649b5ad5-62ac-4bfd-a6cd-60fc43d8fef1"},"vehicle_type_id":"4","last_reported":1743498690,"current_range_meters":10800,"station_id":"","pricing_plan_id":"cebpf4jnsgd1na2vs0mg"},{"bike_id":"1c59fe5f-5cbc-4102-a05f-1a86adcf12e5","system_id":"levelo_inurba_marseille","lat":43.29962,"lon":5.37148,"is_reserved":false,"is_disabled":false,"rental_uris":{"android":"levelo://app?vid=1c59fe5f-5cbc-4102-a05f-1a86adcf12e5","ios":"levelo://app?vid=1c59fe5f-5cbc-4102-a05f-1a86adcf12e5"},"vehicle_type_id":"4","last_reported":1743498690,"current_range_meters":10800,"station_id":"ce4bgr92rcd13ifvqc7g","pricing_plan_id":"cebpf4jnsgd1na2vs0mg"},{"bike_id":"af08ed73-ce09-4c15-af8b-4ac506f7a8bf","system_id":"levelo_inurba_marseille","lat":43.30302,"lon":5.3769,"is_reserved":false,"is_disabled":false,"rental_uris":{"android":"levelo://app?vid=af08ed73-ce09-4c15-af8b-4ac506f7a8bf","ios":"levelo://app?vid=af08ed73-ce09-4c15-af8b-4ac506f7a8bf"},"vehicle_type_id":"4","last_reported":1743498690,"current_range_meters":10800,"station_id":"ce4bguh2rcd13ifvqcj0","pricing_plan_id":"cebpf4jnsgd1na2vs0mg"},{"bike_id":"dda55021-4ac7-4e75-8db4-f00d00a7fd57","system_id":"levelo_inurba_marseille","lat":43.28493,"lon":5.38553,"is_reserved":false,"is_disabled":false,"rental_uris":{"android":"levelo://app?vid=dda55021-4ac7-4e75-8db4-f00d00a7fd57","ios":"levelo://app?vid=dda55021-4ac7-4e75-8db4-f00d00a7fd57"},"vehicle_type_id":"4","last_reported":1743498690,"current_range_meters":10800,"station_id":"ce4bh8p2rcd13ifvqeb0","pricing_plan_id":"cebpf4jnsgd1na2vs0mg"},{"bike_id":"cdb2e7a3-c999-497e-a9de-b43472b97dae","system_id":"levelo_inurba_marseille","lat":43.28714,"lon":5.3795,"is_reserved":false,"is_disabled":false,"rental_uris":{"android":"levelo://app?vid=cdb2e7a3-c999-497e-a9de-b43472b97dae","ios":"levelo://app?vid=cdb2e7a3-c999-497e-a9de-b43472b97dae"},"vehicle_type_id":"4","last_reported":1743498690,"current_range_meters":10800,"station_id":"ce4bh9p2rcd13ifvqec0","pricing_plan_id":"cebpf4jnsgd1na2vs0mg"},{"bike_id":"a61d69b6-c682-4e51-b65c-90e9332cb9b6","system_id":"levelo_inurba_marseille","lat":43.29259,"lon":5.3762,"is_reserved":false,"is_disabled":false,"rental_uris":{"android":"levelo://app?vid=a61d69b6-c682-4e51-b65c-90e9332cb9b6","ios":"levelo://app?vid=a61d69b6-c682-4e51-b65c-90e9332cb9b6"},"vehicle_type_id":"4","last_reported":1743498690,"current_range_meters":11200,"station_id":"ce4bgi12rcd13ifvqb80","pricing_plan_id":"cebpf4jnsgd1na2vs0mg"},{"bike_id":"78b998b0-62dd-4ef7-97b1-18248a4a82b5","system_id":"levelo_inurba_marseille","lat":43.29514,"lon":5.39403,"is_reserved":false,"is_disabled":false,"rental_uris":{"android":"levelo://app?vid=78b998b0-62dd-4ef7-97b1-18248a4a82b5","ios":"levelo://app?vid=78b998b0-62dd-4ef7-97b1-18248a4a82b5"},"vehicle_type_id":"4","last_reported":1743498690,"current_range_meters":11200,"station_id":"ce4bh292rcd13ifvqdf0","pricing_plan_id":"cebpf4jnsgd1na2vs0mg"},{"bike_id":"af8c818b-f7fe-47e2-828d-b358fed904c1","system_id":"levelo_inurba_marseille","lat":43.33604,"lon":5.41008,"is_reserved":false,"is_disabled":false,"rental_uris":{"android":"levelo://app?vid=af8c818b-f7fe-47e2-828d-b358fed904c1","ios":"levelo://app?vid=af8c818b-f7fe-47e2-828d-b358fed904c1"},"vehicle_type_id":"4","last_reported":1743498690,"current_range_meters":11200,"station_id":"ce4bhqh2rcd13ifvqhmg","pricing_plan_id":"cebpf4jnsgd1na2vs0mg"},{"bike_id":"7574d47f-265f-4acf-89b3-e2918cb325d0","system_id":"levelo_inurba_marseille","lat":43.24163,"lon":5.36397,"is_reserved":false,"is_disabled":false,"rental_uris":{"android":"levelo://app?vid=7574d47f-265f-4acf-89b3-e2918cb325d0","ios":"levelo://app?vid=7574d47f-265f-4acf-89b3-e2918cb325d0"},"vehicle_type_id":"4","last_reported":1743498690,"current_range_meters":11200,"station_id":"cpo36qri1sfpv3e86is0","pricing_plan_id":"cebpf4jnsgd1na2vs0mg"},{"bike_id":"e47bc61d-df2d-41b3-b26b-dd94e6e5e301","system_id":"levelo_inurba_marseille","lat":43.26237,"lon":5.42129,"is_reserved":false,"is_disabled":false,"rental_uris":{"android":"levelo://app?vid=e47bc61d-df2d-41b3-b26b-dd94e6e5e301","ios":"levelo://app?vid=e47bc61d-df2d-41b3-b26b-dd94e6e5e301"},"vehicle_type_id":"4","last_reported":1743498690,"current_range_meters":11600,"station_id":"","pricing_plan_id":"cebpf4jnsgd1na2vs0mg"},{"bike_id":"6821443d-8835-4f1b-b131-8bd3f5c087eb","system_id":"levelo_inurba_marseille","lat":43.3097,"lon":5.39063,"is_reserved":false,"is_disabled":false,"rental_uris":{"android":"levelo://app?vid=6821443d-8835-4f1b-b131-8bd3f5c087eb","ios":"levelo://app?vid=6821443d-8835-4f1b-b131-8bd3f5c087eb"},"vehicle_type_id":"4","last_reported":1743498690,"current_range_meters":11600,"station_id":"ce4bgup2rcd13ifvqco0","pricing_plan_id":"cebpf4jnsgd1na2vs0mg"},{"bike_id":"3590ed08-b28d-4d5f-b0bd-77374f3a0ab1","system_id":"levelo_inurba_marseille","lat":43.28474,"lon":5.38421,"is_reserved":false,"is_disabled":false,"rental_uris":{"android":"levelo://app?vid=3590ed08-b28d-4d5f-b0bd-77374f3a0ab1","ios":"levelo://app?vid=3590ed08-b28d-4d5f-b0bd-77374f3a0ab1"},"vehicle_type_id":"4","last_reported":1743498690,"current_range_meters":11600,"station_id":"ce4bh512rcd13ifvqe3g","pricing_plan_id":"cebpf4jnsgd1na2vs0mg"},{"bike_id":"f8ecd24c-0240-4bc0-8da2-a3139d10e2c0","system_id":"levelo_inurba_marseille","lat":43.28474,"lon":5.38538,"is_reserved":false,"is_disabled":false,"rental_uris":{"android":"levelo://app?vid=f8ecd24c-0240-4bc0-8da2-a3139d10e2c0","ios":"levelo://app?vid=f8ecd24c-0240-4bc0-8da2-a3139d10e2c0"},"vehicle_type_id":"4","last_reported":1743498690,"current_range_meters":11600,"station_id":"ce4bh8p2rcd13ifvqeb0","pricing_plan_id":"cebpf4jnsgd1na2vs0mg"},{"bike_id":"85a25ab7-cd0b-4f44-adf9-e5bd20038e15","system_id":"levelo_inurba_marseille","lat":43.25593,"lon":5.38239,"is_reserved":false,"is_disabled":false,"rental_uris":{"android":"levelo://app?vid=85a25ab7-cd0b-4f44-adf9-e5bd20038e15","ios":"levelo://app?vid=85a25ab7-cd0b-4f44-adf9-e5bd20038e15"},"vehicle_type_id":"4","last_reported":1743498690,"current_range_meters":11600,"station_id":"ce4bhih2rcd13ifvqfs0","pricing_plan_id":"cebpf4jnsgd1na2vs0mg"},{"bike_id":"451a91b8-f7d7-4b0a-958f-b5014d2086b2","system_id":"levelo_inurba_marseille","lat":43.27072,"lon":5.4228,"is_reserved":false,"is_disabled":false,"rental_uris":{"android":"levelo://app?vid=451a91b8-f7d7-4b0a-958f-b5014d2086b2","ios":"levelo://app?vid=451a91b8-f7d7-4b0a-958f-b5014d2086b2"},"vehicle_type_id":"4","last_reported":1743498690,"current_range_meters":11600,"station_id":"ce4bhk92rcd13ifvqgb0","pricing_plan_id":"cebpf4jnsgd1na2vs0mg"},{"bike_id":"d3cbc392-b01a-4cda-85e5-5d0b1c362186","system_id":"levelo_inurba_marseille","lat":43.32655,"lon":5.40987,"is_reserved":false,"is_disabled":false,"rental_uris":{"android":"levelo://app?vid=d3cbc392-b01a-4cda-85e5-5d0b1c362186","ios":"levelo://app?vid=d3cbc392-b01a-4cda-85e5-5d0b1c362186"},"vehicle_type_id":"4","last_reported":1743498690,"current_range_meters":11600,"station_id":"ce4bhpp2rcd13ifvqhgg","pricing_plan_id":"cebpf4jnsgd1na2vs0mg"},{"bike_id":"1b63ccb2-1298-4d96-b7f3-6ad6cace00e9","system_id":"levelo_inurba_marseille","lat":43.26126,"lon":5.4012,"is_reserved":false,"is_disabled":false,"rental_uris":{"android":"levelo://app?vid=1b63ccb2-1298-4d96-b7f3-6ad6cace00e9","ios":"levelo://app?vid=1b63ccb2-1298-4d96-b7f3-6ad6cace00e9"},"vehicle_type_id":"4","last_reported":1743498690,"current_range_meters":12000,"station_id":"","pricing_plan_id":"cebpf4jnsgd1na2vs0mg"},{"bike_id":"63787e54-f221-4ea1-8389-764ca0fe0b19","system_id":"levelo_inurba_marseille","lat":43.27498,"lon":5.42449,"is_reserved":false,"is_disabled":false,"rental_uris":{"android":"levelo://app?vid=63787e54-f221-4ea1-8389-764ca0fe0b19","ios":"levelo://app?vid=63787e54-f221-4ea1-8389-764ca0fe0b19"},"vehicle_type_id":"4","last_reported":1743498690,"current_range_meters":12000,"station_id":"ce4bhn92rcd13ifvqgrg","pricing_plan_id":"cebpf4jnsgd1na2vs0mg"},{"bike_id":"27773214-4312-4127-aa54-e74cba3d6d07","system_id":"levelo_inurba_marseille","lat":43.27815,"lon":5.40742,"is_reserved":false,"is_disabled":false,"rental_uris":{"android":"levelo://app?vid=27773214-4312-4127-aa54-e74cba3d6d07","ios":"levelo://app?vid=27773214-4312-4127-aa54-e74cba3d6d07"},"vehicle_type_id":"4","last_reported":1743498690,"current_range_meters":12000,"station_id":"ce4bhnh2rcd13ifvqgtg","pricing_plan_id":"cebpf4jnsgd1na2vs0mg"},{"bike_id":"5471e7f4-e576-46b9-82eb-667434d7af4a","system_id":"levelo_inurba_marseille","lat":43.30567,"lon":5.36519,"is_reserved":false,"is_disabled":false,"rental_uris":{"android":"levelo://app?vid=5471e7f4-e576-46b9-82eb-667434d7af4a","ios":"levelo://app?vid=5471e7f4-e576-46b9-82eb-667434d7af4a"},"vehicle_type_id":"4","last_reported":1743498690,"current_range_meters":12400,"station_id":"ce4bgs12rcd13ifvqcag","pricing_plan_id":"cebpf4jnsgd1na2vs0mg"},{"bike_id":"52db33d3-1a03-464b-8b77-c86d2d48f85d","system_id":"levelo_inurba_marseille","lat":43.30542,"lon":5.36556,"is_reserved":false,"is_disabled":false,"rental_uris":{"android":"levelo://app?vid=52db33d3-1a03-464b-8b77-c86d2d48f85d","ios":"levelo://app?vid=52db33d3-1a03-464b-8b77-c86d2d48f85d"},"vehicle_type_id":"4","last_reported":1743498690,"current_range_meters":12400,"station_id":"ce4bgs12rcd13ifvqcag","pricing_plan_id":"cebpf4jnsgd1na2vs0mg"},{"bike_id":"c6013c34-0f6f-4dbc-a7a6-ff5eff5457af","system_id":"levelo_inurba_marseille","lat":43.30136,"lon":5.37423,"is_reserved":false,"is_disabled":false,"rental_uris":{"android":"levelo://app?vid=c6013c34-0f6f-4dbc-a7a6-ff5eff5457af","ios":"levelo://app?vid=c6013c34-0f6f-4dbc-a7a6-ff5eff5457af"},"vehicle_type_id":"4","last_reported":1743498690,"current_range_meters":12400,"station_id":"ce4bgs92rcd13ifvqcc0","pricing_plan_id":"cebpf4jnsgd1na2vs0mg"},{"bike_id":"5407c893-0953-4cb3-9e62-cf5a5379fa8f","system_id":"levelo_inurba_marseille","lat":43.26923,"lon":5.38627,"is_reserved":false,"is_disabled":false,"rental_uris":{"android":"levelo://app?vid=5407c893-0953-4cb3-9e62-cf5a5379fa8f","ios":"levelo://app?vid=5407c893-0953-4cb3-9e62-cf5a5379fa8f"},"vehicle_type_id":"4","last_reported":1743498690,"current_range_meters":12400,"station_id":"ce4bhh92rcd13ifvqfh0","pricing_plan_id":"cebpf4jnsgd1na2vs0mg"},{"bike_id":"398ca055-084d-42d0-8ca9-ed591e77e956","system_id":"levelo_inurba_marseille","lat":43.23161,"lon":5.43708,"is_reserved":false,"is_disabled":false,"rental_uris":{"android":"levelo://app?vid=398ca055-084d-42d0-8ca9-ed591e77e956","ios":"levelo://app?vid=398ca055-084d-42d0-8ca9-ed591e77e956"},"vehicle_type_id":"4","last_reported":1743498690,"current_range_meters":12400,"station_id":"ce4bhmp2rcd13ifvqgog","pricing_plan_id":"cebpf4jnsgd1na2vs0mg"},{"bike_id":"2ce3d3e1-c9d8-42a8-914d-6a6afcd4d550","system_id":"levelo_inurba_marseille","lat":43.29181,"lon":5.358,"is_reserved":false,"is_disabled":false,"rental_uris":{"android":"levelo://app?vid=2ce3d3e1-c9d8-42a8-914d-6a6afcd4d550","ios":"levelo://app?vid=2ce3d3e1-c9d8-42a8-914d-6a6afcd4d550"},"vehicle_type_id":"4","last_reported":1743498690,"current_range_meters":12800,"station_id":"ce4bhb12rcd13ifvqel0","pricing_plan_id":"cebpf4jnsgd1na2vs0mg"},{"bike_id":"773481c1-6173-4ead-8994-dbe75293529d","system_id":"levelo_inurba_marseille","lat":43.25583,"lon":5.38242,"is_reserved":false,"is_disabled":false,"rental_uris":{"android":"levelo://app?vid=773481c1-6173-4ead-8994-dbe75293529d","ios":"levelo://app?vid=773481c1-6173-4ead-8994-dbe75293529d"},"vehicle_type_id":"4","last_reported":1743498690,"current_range_meters":12800,"station_id":"ce4bhih2rcd13ifvqfs0","pricing_plan_id":"cebpf4jnsgd1na2vs0mg"},{"bike_id":"f9556671-f8e9-4ef6-b997-21a30e85c7b2","system_id":"levelo_inurba_marseille","lat":43.23152,"lon":5.43727,"is_reserved":false,"is_disabled":false,"rental_uris":{"android":"levelo://app?vid=f9556671-f8e9-4ef6-b997-21a30e85c7b2","ios":"levelo://app?vid=f9556671-f8e9-4ef6-b997-21a30e85c7b2"},"vehicle_type_id":"4","last_reported":1743498690,"current_range_meters":12800,"station_id":"ce4bhmp2rcd13ifvqgog","pricing_plan_id":"cebpf4jnsgd1na2vs0mg"},{"bike_id":"4220d26d-272d-4b23-9cec-a79c1d919b49","system_id":"levelo_inurba_marseille","lat":43.30593,"lon":5.37129,"is_reserved":false,"is_disabled":false,"rental_uris":{"android":"levelo://app?vid=4220d26d-272d-4b23-9cec-a79c1d919b49","ios":"levelo://app?vid=4220d26d-272d-4b23-9cec-a79c1d919b49"},"vehicle_type_id":"4","last_reported":1743498690,"current_range_meters":13600,"station_id":"","pricing_plan_id":"cebpf4jnsgd1na2vs0mg"},{"bike_id":"4339c8c7-7e8f-4c3b-9382-262393a1a731","system_id":"levelo_inurba_marseille","lat":43.30189,"lon":5.36616,"is_reserved":false,"is_disabled":false,"rental_uris":{"android":"levelo://app?vid=4339c8c7-7e8f-4c3b-9382-262393a1a731","ios":"levelo://app?vid=4339c8c7-7e8f-4c3b-9382-262393a1a731"},"vehicle_type_id":"4","last_reported":1743498690,"current_range_meters":13600,"station_id":"ce4bgrh2rcd13ifvqc8g","pricing_plan_id":"cebpf4jnsgd1na2vs0mg"},{"bike_id":"53123769-e713-4fec-b603-1be5835dfa61","system_id":"levelo_inurba_marseille","lat":43.28698,"lon":5.37376,"is_reserved":false,"is_disabled":false,"rental_uris":{"android":"levelo://app?vid=53123769-e713-4fec-b603-1be5835dfa61","ios":"levelo://app?vid=53123769-e713-4fec-b603-1be5835dfa61"},"vehicle_type_id":"4","last_reported":1743498690,"current_range_meters":13600,"station_id":"ce4bh3p2rcd13ifvqdq0","pricing_plan_id":"cebpf4jnsgd1na2vs0mg"},{"bike_id":"bb55a4d6-1b57-47c4-a403-e587b2ffed5f","system_id":"levelo_inurba_marseille","lat":43.25588,"lon":5.38246,"is_reserved":false,"is_disabled":false,"rental_uris":{"android":"levelo://app?vid=bb55a4d6-1b57-47c4-a403-e587b2ffed5f","ios":"levelo://app?vid=bb55a4d6-1b57-47c4-a403-e587b2ffed5f"},"vehicle_type_id":"4","last_reported":1743498690,"current_range_meters":13600,"station_id":"ce4bhih2rcd13ifvqfs0","pricing_plan_id":"cebpf4jnsgd1na2vs0mg"},{"bike_id":"01ecd9b0-693f-4a01-9f41-dde53fd482f2","system_id":"levelo_inurba_marseille","lat":43.24186,"lon":5.39722,"is_reserved":false,"is_disabled":false,"rental_uris":{"android":"levelo://app?vid=01ecd9b0-693f-4a01-9f41-dde53fd482f2","ios":"levelo://app?vid=01ecd9b0-693f-4a01-9f41-dde53fd482f2"},"vehicle_type_id":"4","last_reported":1743498690,"current_range_meters":13600,"station_id":"ce4bhn12rcd13ifvqgpg","pricing_plan_id":"cebpf4jnsgd1na2vs0mg"},{"bike_id":"65f9fdad-31a8-4fb3-87a1-c4fa64c86ebe","system_id":"levelo_inurba_marseille","lat":43.324792,"lon":5.365772,"is_reserved":false,"is_disabled":false,"rental_uris":{"android":"levelo://app?vid=65f9fdad-31a8-4fb3-87a1-c4fa64c86ebe","ios":"levelo://app?vid=65f9fdad-31a8-4fb3-87a1-c4fa64c86ebe"},"vehicle_type_id":"4","last_reported":1743498690,"current_range_meters":13600,"station_id":"ce4bhs12rcd13ifvqhvg","pricing_plan_id":"cebpf4jnsgd1na2vs0mg"},{"bike_id":"6e6a66e5-58ca-4db1-9695-b46ed5c28827","system_id":"levelo_inurba_marseille","lat":43.31615,"lon":5.36368,"is_reserved":false,"is_disabled":false,"rental_uris":{"android":"levelo://app?vid=6e6a66e5-58ca-4db1-9695-b46ed5c28827","ios":"levelo://app?vid=6e6a66e5-58ca-4db1-9695-b46ed5c28827"},"vehicle_type_id":"4","last_reported":1743498690,"current_range_meters":14000,"station_id":"","pricing_plan_id":"cebpf4jnsgd1na2vs0mg"},{"bike_id":"e9a39c5d-4ab6-492a-8fcb-a51f4af1dcbc","system_id":"levelo_inurba_marseille","lat":43.30543,"lon":5.36713,"is_reserved":false,"is_disabled":false,"rental_uris":{"android":"levelo://app?vid=e9a39c5d-4ab6-492a-8fcb-a51f4af1dcbc","ios":"levelo://app?vid=e9a39c5d-4ab6-492a-8fcb-a51f4af1dcbc"},"vehicle_type_id":"4","last_reported":1743498690,"current_range_meters":14000,"station_id":"ce4bgrp2rcd13ifvqc9g","pricing_plan_id":"cebpf4jnsgd1na2vs0mg"},{"bike_id":"86354ae6-2ad3-4c03-a340-c661e15634b2","system_id":"levelo_inurba_marseille","lat":43.30164,"lon":5.37401,"is_reserved":false,"is_disabled":false,"rental_uris":{"android":"levelo://app?vid=86354ae6-2ad3-4c03-a340-c661e15634b2","ios":"levelo://app?vid=86354ae6-2ad3-4c03-a340-c661e15634b2"},"vehicle_type_id":"4","last_reported":1743498690,"current_range_meters":14000,"station_id":"ce4bgs92rcd13ifvqcc0","pricing_plan_id":"cebpf4jnsgd1na2vs0mg"},{"bike_id":"34194c9d-6827-4f62-9af8-e1670200a482","system_id":"levelo_inurba_marseille","lat":43.26561,"lon":5.373135,"is_reserved":false,"is_disabled":false,"rental_uris":{"android":"levelo://app?vid=34194c9d-6827-4f62-9af8-e1670200a482","ios":"levelo://app?vid=34194c9d-6827-4f62-9af8-e1670200a482"},"vehicle_type_id":"4","last_reported":1743498690,"current_range_meters":14000,"station_id":"ce4bhg12rcd13ifvqf70","pricing_plan_id":"cebpf4jnsgd1na2vs0mg"},{"bike_id":"717d162c-3ca4-45dd-b0c2-b24f37daa8ba","system_id":"levelo_inurba_marseille","lat":43.25929,"lon":5.40908,"is_reserved":false,"is_disabled":false,"rental_uris":{"android":"levelo://app?vid=717d162c-3ca4-45dd-b0c2-b24f37daa8ba","ios":"levelo://app?vid=717d162c-3ca4-45dd-b0c2-b24f37daa8ba"},"vehicle_type_id":"4","last_reported":1743498690,"current_range_meters":14000,"station_id":"ce4bhm92rcd13ifvqglg","pricing_plan_id":"cebpf4jnsgd1na2vs0mg"},{"bike_id":"61a4fd99-60e4-4dac-a1f8-40b75079bd68","system_id":"levelo_inurba_marseille","lat":43.25904,"lon":5.40904,"is_reserved":false,"is_disabled":false,"rental_uris":{"android":"levelo://app?vid=61a4fd99-60e4-4dac-a1f8-40b75079bd68","ios":"levelo://app?vid=61a4fd99-60e4-4dac-a1f8-40b75079bd68"},"vehicle_type_id":"4","last_reported":1743498690,"current_range_meters":14000,"station_id":"ce4bhm92rcd13ifvqglg","pricing_plan_id":"cebpf4jnsgd1na2vs0mg"},{"bike_id":"4474f66b-3eb6-4aea-af7b-d43fdaacf384","system_id":"levelo_inurba_marseille","lat":43.28002,"lon":5.40597,"is_reserved":false,"is_disabled":false,"rental_uris":{"android":"levelo://app?vid=4474f66b-3eb6-4aea-af7b-d43fdaacf384","ios":"levelo://app?vid=4474f66b-3eb6-4aea-af7b-d43fdaacf384"},"vehicle_type_id":"4","last_reported":1743498690,"current_range_meters":14400,"station_id":"","pricing_plan_id":"cebpf4jnsgd1na2vs0mg"},{"bike_id":"e9216065-d539-4cfe-a5fe-6e09c69e5432","system_id":"levelo_inurba_marseille","lat":43.25586,"lon":5.38238,"is_reserved":false,"is_disabled":false,"rental_uris":{"android":"levelo://app?vid=e9216065-d539-4cfe-a5fe-6e09c69e5432","ios":"levelo://app?vid=e9216065-d539-4cfe-a5fe-6e09c69e5432"},"vehicle_type_id":"4","last_reported":1743498690,"current_range_meters":14400,"station_id":"ce4bhih2rcd13ifvqfs0","pricing_plan_id":"cebpf4jnsgd1na2vs0mg"},{"bike_id":"a1a57c84-8deb-42b4-a54d-154987635bc8","system_id":"levelo_inurba_marseille","lat":43.29028,"lon":5.3864,"is_reserved":false,"is_disabled":false,"rental_uris":{"android":"levelo://app?vid=a1a57c84-8deb-42b4-a54d-154987635bc8","ios":"levelo://app?vid=a1a57c84-8deb-42b4-a54d-154987635bc8"},"vehicle_type_id":"4","last_reported":1743498690,"current_range_meters":14800,"station_id":"ce4bh4p2rcd13ifvqe0g","pricing_plan_id":"cebpf4jnsgd1na2vs0mg"},{"bike_id":"0ea3c931-5a17-44b4-b2ef-c8b9e672acd3","system_id":"levelo_inurba_marseille","lat":43.23153,"lon":5.43711,"is_reserved":false,"is_disabled":false,"rental_uris":{"android":"levelo://app?vid=0ea3c931-5a17-44b4-b2ef-c8b9e672acd3","ios":"levelo://app?vid=0ea3c931-5a17-44b4-b2ef-c8b9e672acd3"},"vehicle_type_id":"4","last_reported":1743498690,"current_range_meters":14800,"station_id":"ce4bhmp2rcd13ifvqgog","pricing_plan_id":"cebpf4jnsgd1na2vs0mg"},{"bike_id":"4c564b34-6817-415a-8489-26db1ea03ff9","system_id":"levelo_inurba_marseille","lat":43.23148,"lon":5.43713,"is_reserved":false,"is_disabled":false,"rental_uris":{"android":"levelo://app?vid=4c564b34-6817-415a-8489-26db1ea03ff9","ios":"levelo://app?vid=4c564b34-6817-415a-8489-26db1ea03ff9"},"vehicle_type_id":"4","last_reported":1743498690,"current_range_meters":14800,"station_id":"ce4bhmp2rcd13ifvqgog","pricing_plan_id":"cebpf4jnsgd1na2vs0mg"},{"bike_id":"8dc01da3-5fa2-4009-813a-58b44a415568","system_id":"levelo_inurba_marseille","lat":43.24199,"lon":5.39712,"is_reserved":false,"is_disabled":false,"rental_uris":{"android":"levelo://app?vid=8dc01da3-5fa2-4009-813a-58b44a415568","ios":"levelo://app?vid=8dc01da3-5fa2-4009-813a-58b44a415568"},"vehicle_type_id":"4","last_reported":1743498690,"current_range_meters":14800,"station_id":"ce4bhn12rcd13ifvqgpg","pricing_plan_id":"cebpf4jnsgd1na2vs0mg"},{"bike_id":"7c900f8d-ab84-4400-a7b6-72af82fcab07","system_id":"levelo_inurba_marseille","lat":43.31261,"lon":5.36886,"is_reserved":false,"is_disabled":false,"rental_uris":{"android":"levelo://app?vid=7c900f8d-ab84-4400-a7b6-72af82fcab07","ios":"levelo://app?vid=7c900f8d-ab84-4400-a7b6-72af82fcab07"},"vehicle_type_id":"4","last_reported":1743498690,"current_range_meters":15200,"station_id":"ce4bgl92rcd13ifvqbq0","pricing_plan_id":"cebpf4jnsgd1na2vs0mg"},{"bike_id":"5f6ce697-4e60-4410-9fdb-c4eaa3187c73","system_id":"levelo_inurba_marseille","lat":43.30943,"lon":5.39058,"is_reserved":false,"is_disabled":false,"rental_uris":{"android":"levelo://app?vid=5f6ce697-4e60-4410-9fdb-c4eaa3187c73","ios":"levelo://app?vid=5f6ce697-4e60-4410-9fdb-c4eaa3187c73"},"vehicle_type_id":"4","last_reported":1743498690,"current_range_meters":15200,"station_id":"ce4bgup2rcd13ifvqco0","pricing_plan_id":"cebpf4jnsgd1na2vs0mg"},{"bike_id":"1fcc0aca-4152-4aeb-9c63-f83514b38dc7","system_id":"levelo_inurba_marseille","lat":43.31156,"lon":5.38721,"is_reserved":false,"is_disabled":false,"rental_uris":{"android":"levelo://app?vid=1fcc0aca-4152-4aeb-9c63-f83514b38dc7","ios":"levelo://app?vid=1fcc0aca-4152-4aeb-9c63-f83514b38dc7"},"vehicle_type_id":"4","last_reported":1743498690,"current_range_meters":15200,"station_id":"ce4bgv12rcd13ifvqcp0","pricing_plan_id":"cebpf4jnsgd1na2vs0mg"},{"bike_id":"efd1dee4-505c-47ef-b864-09ddcbd1b424","system_id":"levelo_inurba_marseille","lat":43.26957,"lon":5.38624,"is_reserved":false,"is_disabled":false,"rental_uris":{"android":"levelo://app?vid=efd1dee4-505c-47ef-b864-09ddcbd1b424","ios":"levelo://app?vid=efd1dee4-505c-47ef-b864-09ddcbd1b424"},"vehicle_type_id":"4","last_reported":1743498690,"current_range_meters":15200,"station_id":"ce4bhh92rcd13ifvqfh0","pricing_plan_id":"cebpf4jnsgd1na2vs0mg"},{"bike_id":"bad8b686-d4b1-4fd1-a906-eeff21f737a2","system_id":"levelo_inurba_marseille","lat":43.24191,"lon":5.39726,"is_reserved":false,"is_disabled":false,"rental_uris":{"android":"levelo://app?vid=bad8b686-d4b1-4fd1-a906-eeff21f737a2","ios":"levelo://app?vid=bad8b686-d4b1-4fd1-a906-eeff21f737a2"},"vehicle_type_id":"4","last_reported":1743498690,"current_range_meters":15200,"station_id":"ce4bhn12rcd13ifvqgpg","pricing_plan_id":"cebpf4jnsgd1na2vs0mg"},{"bike_id":"7990dee0-3845-4924-a10e-d8eed309bb76","system_id":"levelo_inurba_marseille","lat":43.30919,"lon":5.36833,"is_reserved":false,"is_disabled":false,"rental_uris":{"android":"levelo://app?vid=7990dee0-3845-4924-a10e-d8eed309bb76","ios":"levelo://app?vid=7990dee0-3845-4924-a10e-d8eed309bb76"},"vehicle_type_id":"4","last_reported":1743498690,"current_range_meters":16000,"station_id":"ce4bgn92rcd13ifvqbvg","pricing_plan_id":"cebpf4jnsgd1na2vs0mg"},{"bike_id":"159b1a57-d33a-4c4e-9de5-425002d00e96","system_id":"levelo_inurba_marseille","lat":43.25935,"lon":5.40892,"is_reserved":false,"is_disabled":false,"rental_uris":{"android":"levelo://app?vid=159b1a57-d33a-4c4e-9de5-425002d00e96","ios":"levelo://app?vid=159b1a57-d33a-4c4e-9de5-425002d00e96"},"vehicle_type_id":"4","last_reported":1743498690,"current_range_meters":16000,"station_id":"ce4bhm92rcd13ifvqglg","pricing_plan_id":"cebpf4jnsgd1na2vs0mg"},{"bike_id":"1c375b4e-02ef-4769-865c-a09ae41762b3","system_id":"levelo_inurba_marseille","lat":43.25951,"lon":5.40886,"is_reserved":false,"is_disabled":false,"rental_uris":{"android":"levelo://app?vid=1c375b4e-02ef-4769-865c-a09ae41762b3","ios":"levelo://app?vid=1c375b4e-02ef-4769-865c-a09ae41762b3"},"vehicle_type_id":"4","last_reported":1743498690,"current_range_meters":16000,"station_id":"ce4bhm92rcd13ifvqglg","pricing_plan_id":"cebpf4jnsgd1na2vs0mg"},{"bike_id":"5f03972a-1610-46b1-8fa7-a8a1290d4bd2","system_id":"levelo_inurba_marseille","lat":43.26225,"lon":5.40451,"is_reserved":false,"is_disabled":false,"rental_uris":{"android":"levelo://app?vid=5f03972a-1610-46b1-8fa7-a8a1290d4bd2","ios":"levelo://app?vid=5f03972a-1610-46b1-8fa7-a8a1290d4bd2"},"vehicle_type_id":"4","last_reported":1743498690,"current_range_meters":16000,"station_id":"ce4bhmh2rcd13ifvqgmg","pricing_plan_id":"cebpf4jnsgd1na2vs0mg"},{"bike_id":"fcefd603-4cea-4a5a-b73e-076ae58dd139","system_id":"levelo_inurba_marseille","lat":43.23162,"lon":5.43702,"is_reserved":false,"is_disabled":false,"rental_uris":{"android":"levelo://app?vid=fcefd603-4cea-4a5a-b73e-076ae58dd139","ios":"levelo://app?vid=fcefd603-4cea-4a5a-b73e-076ae58dd139"},"vehicle_type_id":"4","last_reported":1743498690,"current_range_meters":16000,"station_id":"ce4bhmp2rcd13ifvqgog","pricing_plan_id":"cebpf4jnsgd1na2vs0mg"},{"bike_id":"dd3db03f-0f43-4986-9ec8-2a76818fb28c","system_id":"levelo_inurba_marseille","lat":43.23199,"lon":5.35548,"is_reserved":false,"is_disabled":false,"rental_uris":{"android":"levelo://app?vid=dd3db03f-0f43-4986-9ec8-2a76818fb28c","ios":"levelo://app?vid=dd3db03f-0f43-4986-9ec8-2a76818fb28c"},"vehicle_type_id":"4","last_reported":1743498690,"current_range_meters":16000,"station_id":"ce4bhu92rcd13ifvqi70","pricing_plan_id":"cebpf4jnsgd1na2vs0mg"},{"bike_id":"75dae32f-059a-4b5b-a5e8-963c6eda2f66","system_id":"levelo_inurba_marseille","lat":43.27526,"lon":5.41064,"is_reserved":false,"is_disabled":false,"rental_uris":{"android":"levelo://app?vid=75dae32f-059a-4b5b-a5e8-963c6eda2f66","ios":"levelo://app?vid=75dae32f-059a-4b5b-a5e8-963c6eda2f66"},"vehicle_type_id":"4","last_reported":1743498690,"current_range_meters":16400,"station_id":"","pricing_plan_id":"cebpf4jnsgd1na2vs0mg"},{"bike_id":"c5582ea9-e4db-4033-969d-b17cba54189e","system_id":"levelo_inurba_marseille","lat":43.31274,"lon":5.36864,"is_reserved":false,"is_disabled":false,"rental_uris":{"android":"levelo://app?vid=c5582ea9-e4db-4033-969d-b17cba54189e","ios":"levelo://app?vid=c5582ea9-e4db-4033-969d-b17cba54189e"},"vehicle_type_id":"4","last_reported":1743498690,"current_range_meters":16400,"station_id":"ce4bgl92rcd13ifvqbq0","pricing_plan_id":"cebpf4jnsgd1na2vs0mg"},{"bike_id":"dd8eb8ef-4e76-4e50-a068-19aab2791b35","system_id":"levelo_inurba_marseille","lat":43.30541,"lon":5.36531,"is_reserved":false,"is_disabled":false,"rental_uris":{"android":"levelo://app?vid=dd8eb8ef-4e76-4e50-a068-19aab2791b35","ios":"levelo://app?vid=dd8eb8ef-4e76-4e50-a068-19aab2791b35"},"vehicle_type_id":"4","last_reported":1743498690,"current_range_meters":16400,"station_id":"ce4bgs12rcd13ifvqcag","pricing_plan_id":"cebpf4jnsgd1na2vs0mg"},{"bike_id":"ff22fa16-c474-442d-811e-5b282ab6026f","system_id":"levelo_inurba_marseille","lat":43.30958,"lon":5.39049,"is_reserved":false,"is_disabled":false,"rental_uris":{"android":"levelo://app?vid=ff22fa16-c474-442d-811e-5b282ab6026f","ios":"levelo://app?vid=ff22fa16-c474-442d-811e-5b282ab6026f"},"vehicle_type_id":"4","last_reported":1743498690,"current_range_meters":16400,"station_id":"ce4bgup2rcd13ifvqco0","pricing_plan_id":"cebpf4jnsgd1na2vs0mg"},{"bike_id":"cf917976-ce2b-4cf2-b429-125b2e82816f","system_id":"levelo_inurba_marseille","lat":43.30949,"lon":5.39053,"is_reserved":false,"is_disabled":false,"rental_uris":{"android":"levelo://app?vid=cf917976-ce2b-4cf2-b429-125b2e82816f","ios":"levelo://app?vid=cf917976-ce2b-4cf2-b429-125b2e82816f"},"vehicle_type_id":"4","last_reported":1743498690,"current_range_meters":16400,"station_id":"ce4bgup2rcd13ifvqco0","pricing_plan_id":"cebpf4jnsgd1na2vs0mg"},{"bike_id":"434987e0-df1f-45ff-808d-0acdfb6bb1a1","system_id":"levelo_inurba_marseille","lat":43.25499,"lon":5.37654,"is_reserved":false,"is_disabled":false,"rental_uris":{"android":"levelo://app?vid=434987e0-df1f-45ff-808d-0acdfb6bb1a1","ios":"levelo://app?vid=434987e0-df1f-45ff-808d-0acdfb6bb1a1"},"vehicle_type_id":"4","last_reported":1743498690,"current_range_meters":16400,"station_id":"ce4bhh12rcd13ifvqff0","pricing_plan_id":"cebpf4jnsgd1na2vs0mg"},{"bike_id":"4d1ced39-90a5-4da4-a460-7d25936c5531","system_id":"levelo_inurba_marseille","lat":43.26924,"lon":5.38919,"is_reserved":false,"is_disabled":false,"rental_uris":{"android":"levelo://app?vid=4d1ced39-90a5-4da4-a460-7d25936c5531","ios":"levelo://app?vid=4d1ced39-90a5-4da4-a460-7d25936c5531"},"vehicle_type_id":"4","last_reported":1743498690,"current_range_meters":16400,"station_id":"ce4bhhh2rcd13ifvqfl0","pricing_plan_id":"cebpf4jnsgd1na2vs0mg"},{"bike_id":"cdd751d6-f2e0-41b6-ae7f-f6402eaaba99","system_id":"levelo_inurba_marseille","lat":43.231901,"lon":5.399725,"is_reserved":false,"is_disabled":false,"rental_uris":{"android":"levelo://app?vid=cdd751d6-f2e0-41b6-ae7f-f6402eaaba99","ios":"levelo://app?vid=cdd751d6-f2e0-41b6-ae7f-f6402eaaba99"},"vehicle_type_id":"4","last_reported":1743498690,"current_range_meters":16400,"station_id":"ce4bhn12rcd13ifvqgqg","pricing_plan_id":"cebpf4jnsgd1na2vs0mg"},{"bike_id":"6fce09fe-1feb-4e0a-9631-756a8acc6413","system_id":"levelo_inurba_marseille","lat":43.33613,"lon":5.41022,"is_reserved":false,"is_disabled":false,"rental_uris":{"android":"levelo://app?vid=6fce09fe-1feb-4e0a-9631-756a8acc6413","ios":"levelo://app?vid=6fce09fe-1feb-4e0a-9631-756a8acc6413"},"vehicle_type_id":"4","last_reported":1743498690,"current_range_meters":16400,"station_id":"ce4bhqh2rcd13ifvqhmg","pricing_plan_id":"cebpf4jnsgd1na2vs0mg"},{"bike_id":"b80ee275-2592-4659-b2e9-175feb839700","system_id":"levelo_inurba_marseille","lat":43.23171,"lon":5.35527,"is_reserved":false,"is_disabled":false,"rental_uris":{"android":"levelo://app?vid=b80ee275-2592-4659-b2e9-175feb839700","ios":"levelo://app?vid=b80ee275-2592-4659-b2e9-175feb839700"},"vehicle_type_id":"4","last_reported":1743498690,"current_range_meters":16400,"station_id":"ce4bhu92rcd13ifvqi70","pricing_plan_id":"cebpf4jnsgd1na2vs0mg"},{"bike_id":"c5d70e6e-bb30-4ebb-bba0-a1bbbccc596d","system_id":"levelo_inurba_marseille","lat":43.29157,"lon":5.35806,"is_reserved":false,"is_disabled":false,"rental_uris":{"android":"levelo://app?vid=c5d70e6e-bb30-4ebb-bba0-a1bbbccc596d","ios":"levelo://app?vid=c5d70e6e-bb30-4ebb-bba0-a1bbbccc596d"},"vehicle_type_id":"4","last_reported":1743498690,"current_range_meters":16800,"station_id":"","pricing_plan_id":"cebpf4jnsgd1na2vs0mg"},{"bike_id":"71da8d53-2a4c-47bc-a174-8d4710aa1c90","system_id":"levelo_inurba_marseille","lat":43.30165,"lon":5.3808,"is_reserved":false,"is_disabled":false,"rental_uris":{"android":"levelo://app?vid=71da8d53-2a4c-47bc-a174-8d4710aa1c90","ios":"levelo://app?vid=71da8d53-2a4c-47bc-a174-8d4710aa1c90"},"vehicle_type_id":"4","last_reported":1743498690,"current_range_meters":16800,"station_id":"ce4bgjp2rcd13ifvqbh0","pricing_plan_id":"cebpf4jnsgd1na2vs0mg"},{"bike_id":"40c2e3f3-3910-48a4-b7c4-c65a06534d9a","system_id":"levelo_inurba_marseille","lat":43.3018,"lon":5.36606,"is_reserved":false,"is_disabled":false,"rental_uris":{"android":"levelo://app?vid=40c2e3f3-3910-48a4-b7c4-c65a06534d9a","ios":"levelo://app?vid=40c2e3f3-3910-48a4-b7c4-c65a06534d9a"},"vehicle_type_id":"4","last_reported":1743498690,"current_range_meters":16800,"station_id":"ce4bgrh2rcd13ifvqc8g","pricing_plan_id":"cebpf4jnsgd1na2vs0mg"},{"bike_id":"ff546b52-3d1d-4eba-b4ca-4426f132528a","system_id":"levelo_inurba_marseille","lat":43.33619,"lon":5.41031,"is_reserved":false,"is_disabled":false,"rental_uris":{"android":"levelo://app?vid=ff546b52-3d1d-4eba-b4ca-4426f132528a","ios":"levelo://app?vid=ff546b52-3d1d-4eba-b4ca-4426f132528a"},"vehicle_type_id":"4","last_reported":1743498690,"current_range_meters":16800,"station_id":"ce4bhqh2rcd13ifvqhmg","pricing_plan_id":"cebpf4jnsgd1na2vs0mg"},{"bike_id":"31f04408-1e99-445b-820e-14607a13eafc","system_id":"levelo_inurba_marseille","lat":43.32024,"lon":5.38161,"is_reserved":false,"is_disabled":false,"rental_uris":{"android":"levelo://app?vid=31f04408-1e99-445b-820e-14607a13eafc","ios":"levelo://app?vid=31f04408-1e99-445b-820e-14607a13eafc"},"vehicle_type_id":"4","last_reported":1743498690,"current_range_meters":16800,"station_id":"ce4bhr12rcd13ifvqhpg","pricing_plan_id":"cebpf4jnsgd1na2vs0mg"},{"bike_id":"475345c0-5fc9-4583-8b3c-e6b2970bcc53","system_id":"levelo_inurba_marseille","lat":43.29339,"lon":5.37857,"is_reserved":false,"is_disabled":false,"rental_uris":{"android":"levelo://app?vid=475345c0-5fc9-4583-8b3c-e6b2970bcc53","ios":"levelo://app?vid=475345c0-5fc9-4583-8b3c-e6b2970bcc53"},"vehicle_type_id":"4","last_reported":1743498690,"current_range_meters":17200,"station_id":"ce4bgjh2rcd13ifvqbf0","pricing_plan_id":"cebpf4jnsgd1na2vs0mg"},{"bike_id":"ff4e32fc-ac74-484e-a3ad-7952f7e1c675","system_id":"levelo_inurba_marseille","lat":43.30159,"lon":5.3739,"is_reserved":false,"is_disabled":false,"rental_uris":{"android":"levelo://app?vid=ff4e32fc-ac74-484e-a3ad-7952f7e1c675","ios":"levelo://app?vid=ff4e32fc-ac74-484e-a3ad-7952f7e1c675"},"vehicle_type_id":"4","last_reported":1743498690,"current_range_meters":17200,"station_id":"ce4bgs92rcd13ifvqcc0","pricing_plan_id":"cebpf4jnsgd1na2vs0mg"},{"bike_id":"6ed20b51-7d2d-4b11-829b-25a07abb6f89","system_id":"levelo_inurba_marseille","lat":43.31109,"lon":5.37763,"is_reserved":false,"is_disabled":false,"rental_uris":{"android":"levelo://app?vid=6ed20b51-7d2d-4b11-829b-25a07abb6f89","ios":"levelo://app?vid=6ed20b51-7d2d-4b11-829b-25a07abb6f89"},"vehicle_type_id":"4","last_reported":1743498690,"current_range_meters":17200,"station_id":"ce4bgt92rcd13ifvqcg0","pricing_plan_id":"cebpf4jnsgd1na2vs0mg"},{"bike_id":"e3484ff6-0c78-47d6-bcb7-9351ad345ded","system_id":"levelo_inurba_marseille","lat":43.29103,"lon":5.381325,"is_reserved":false,"is_disabled":false,"rental_uris":{"android":"levelo://app?vid=e3484ff6-0c78-47d6-bcb7-9351ad345ded","ios":"levelo://app?vid=e3484ff6-0c78-47d6-bcb7-9351ad345ded"},"vehicle_type_id":"4","last_reported":1743498690,"current_range_meters":17200,"station_id":"ce4bhbp2rcd13ifvqerg","pricing_plan_id":"cebpf4jnsgd1na2vs0mg"},{"bike_id":"94488e02-1c29-4ee2-afab-32fb200cf02b","system_id":"levelo_inurba_marseille","lat":43.2606,"lon":5.39401,"is_reserved":false,"is_disabled":false,"rental_uris":{"android":"levelo://app?vid=94488e02-1c29-4ee2-afab-32fb200cf02b","ios":"levelo://app?vid=94488e02-1c29-4ee2-afab-32fb200cf02b"},"vehicle_type_id":"4","last_reported":1743498690,"current_range_meters":17200,"station_id":"ce4bhh92rcd13ifvqfj0","pricing_plan_id":"cebpf4jnsgd1na2vs0mg"},{"bike_id":"63f15d78-52b9-4fdb-b91d-1a12d0e39c0c","system_id":"levelo_inurba_marseille","lat":43.2312,"lon":5.43709,"is_reserved":false,"is_disabled":false,"rental_uris":{"android":"levelo://app?vid=63f15d78-52b9-4fdb-b91d-1a12d0e39c0c","ios":"levelo://app?vid=63f15d78-52b9-4fdb-b91d-1a12d0e39c0c"},"vehicle_type_id":"4","last_reported":1743498690,"current_range_meters":17200,"station_id":"ce4bhmp2rcd13ifvqgog","pricing_plan_id":"cebpf4jnsgd1na2vs0mg"},{"bike_id":"7b869cea-1d61-42d2-b04b-29df5bd7497f","system_id":"levelo_inurba_marseille","lat":43.32117,"lon":5.36798,"is_reserved":false,"is_disabled":false,"rental_uris":{"android":"levelo://app?vid=7b869cea-1d61-42d2-b04b-29df5bd7497f","ios":"levelo://app?vid=7b869cea-1d61-42d2-b04b-29df5bd7497f"},"vehicle_type_id":"4","last_reported":1743498690,"current_range_meters":17200,"station_id":"ce4bhrh2rcd13ifvqhug","pricing_plan_id":"cebpf4jnsgd1na2vs0mg"},{"bike_id":"d157a8ac-f1ea-480a-a1ee-9ac00962bb01","system_id":"levelo_inurba_marseille","lat":43.29553,"lon":5.42288,"is_reserved":false,"is_disabled":false,"rental_uris":{"android":"levelo://app?vid=d157a8ac-f1ea-480a-a1ee-9ac00962bb01","ios":"levelo://app?vid=d157a8ac-f1ea-480a-a1ee-9ac00962bb01"},"vehicle_type_id":"4","last_reported":1743498690,"current_range_meters":17600,"station_id":"ce4bhph2rcd13ifvqhdg","pricing_plan_id":"cebpf4jnsgd1na2vs0mg"},{"bike_id":"aaebae6d-25a3-4868-83c8-038802182a47","system_id":"levelo_inurba_marseille","lat":43.29565,"lon":5.375,"is_reserved":false,"is_disabled":false,"rental_uris":{"android":"levelo://app?vid=aaebae6d-25a3-4868-83c8-038802182a47","ios":"levelo://app?vid=aaebae6d-25a3-4868-83c8-038802182a47"},"vehicle_type_id":"4","last_reported":1743498690,"current_range_meters":18000,"station_id":"ce4bgh92rcd13ifvqb50","pricing_plan_id":"cebpf4jnsgd1na2vs0mg"},{"bike_id":"ffe98ff6-89e3-4183-8fd4-99df34973b51","system_id":"levelo_inurba_marseille","lat":43.30953,"lon":5.39041,"is_reserved":false,"is_disabled":false,"rental_uris":{"android":"levelo://app?vid=ffe98ff6-89e3-4183-8fd4-99df34973b51","ios":"levelo://app?vid=ffe98ff6-89e3-4183-8fd4-99df34973b51"},"vehicle_type_id":"4","last_reported":1743498690,"current_range_meters":18000,"station_id":"ce4bgup2rcd13ifvqco0","pricing_plan_id":"cebpf4jnsgd1na2vs0mg"},{"bike_id":"7988dc37-d331-4a13-97ae-2c8fb7b47899","system_id":"levelo_inurba_marseille","lat":43.30898,"lon":5.36848,"is_reserved":false,"is_disabled":false,"rental_uris":{"android":"levelo://app?vid=7988dc37-d331-4a13-97ae-2c8fb7b47899","ios":"levelo://app?vid=7988dc37-d331-4a13-97ae-2c8fb7b47899"},"vehicle_type_id":"4","last_reported":1743498690,"current_range_meters":18800,"station_id":"ce4bgn92rcd13ifvqbvg","pricing_plan_id":"cebpf4jnsgd1na2vs0mg"},{"bike_id":"b58fc692-1a7e-4a38-ae09-22b808ef760f","system_id":"levelo_inurba_marseille","lat":43.30953,"lon":5.39057,"is_reserved":false,"is_disabled":false,"rental_uris":{"android":"levelo://app?vid=b58fc692-1a7e-4a38-ae09-22b808ef760f","ios":"levelo://app?vid=b58fc692-1a7e-4a38-ae09-22b808ef760f"},"vehicle_type_id":"4","last_reported":1743498690,"current_range_meters":18800,"station_id":"ce4bgup2rcd13ifvqco0","pricing_plan_id":"cebpf4jnsgd1na2vs0mg"},{"bike_id":"7535e578-fedb-4902-bdd7-dfee7b51d90f","system_id":"levelo_inurba_marseille","lat":43.27494,"lon":5.4245,"is_reserved":false,"is_disabled":false,"rental_uris":{"android":"levelo://app?vid=7535e578-fedb-4902-bdd7-dfee7b51d90f","ios":"levelo://app?vid=7535e578-fedb-4902-bdd7-dfee7b51d90f"},"vehicle_type_id":"4","last_reported":1743498690,"current_range_meters":18800,"station_id":"ce4bhn92rcd13ifvqgrg","pricing_plan_id":"cebpf4jnsgd1na2vs0mg"},{"bike_id":"679e2358-4e97-4858-84d3-2d5398ed6de0","system_id":"levelo_inurba_marseille","lat":43.32541,"lon":5.41448,"is_reserved":false,"is_disabled":false,"rental_uris":{"android":"levelo://app?vid=679e2358-4e97-4858-84d3-2d5398ed6de0","ios":"levelo://app?vid=679e2358-4e97-4858-84d3-2d5398ed6de0"},"vehicle_type_id":"4","last_reported":1743498690,"current_range_meters":18800,"station_id":"ce4bhq12rcd13ifvqhhg","pricing_plan_id":"cebpf4jnsgd1na2vs0mg"},{"bike_id":"cd83c8ac-ed09-4369-9279-b6f36f2bbd3c","system_id":"levelo_inurba_marseille","lat":43.30776,"lon":5.38248,"is_reserved":false,"is_disabled":false,"rental_uris":{"android":"levelo://app?vid=cd83c8ac-ed09-4369-9279-b6f36f2bbd3c","ios":"levelo://app?vid=cd83c8ac-ed09-4369-9279-b6f36f2bbd3c"},"vehicle_type_id":"4","last_reported":1743498690,"current_range_meters":19200,"station_id":"","pricing_plan_id":"cebpf4jnsgd1na2vs0mg"},{"bike_id":"49b6946c-d5d9-4f7b-9e2a-1a24703cbfb9","system_id":"levelo_inurba_marseille","lat":43.30548,"lon":5.36707,"is_reserved":false,"is_disabled":false,"rental_uris":{"android":"levelo://app?vid=49b6946c-d5d9-4f7b-9e2a-1a24703cbfb9","ios":"levelo://app?vid=49b6946c-d5d9-4f7b-9e2a-1a24703cbfb9"},"vehicle_type_id":"4","last_reported":1743498690,"current_range_meters":19200,"station_id":"ce4bgrp2rcd13ifvqc9g","pricing_plan_id":"cebpf4jnsgd1na2vs0mg"},{"bike_id":"ccb14cda-6c4e-496c-8fc5-e1bfb96cf863","system_id":"levelo_inurba_marseille","lat":43.27503,"lon":5.4246,"is_reserved":false,"is_disabled":false,"rental_uris":{"android":"levelo://app?vid=ccb14cda-6c4e-496c-8fc5-e1bfb96cf863","ios":"levelo://app?vid=ccb14cda-6c4e-496c-8fc5-e1bfb96cf863"},"vehicle_type_id":"4","last_reported":1743498690,"current_range_meters":19200,"station_id":"ce4bhn92rcd13ifvqgrg","pricing_plan_id":"cebpf4jnsgd1na2vs0mg"},{"bike_id":"d8ef3617-eb64-479b-aa4f-347d68ee30d1","system_id":"levelo_inurba_marseille","lat":43.29557,"lon":5.42266,"is_reserved":false,"is_disabled":false,"rental_uris":{"android":"levelo://app?vid=d8ef3617-eb64-479b-aa4f-347d68ee30d1","ios":"levelo://app?vid=d8ef3617-eb64-479b-aa4f-347d68ee30d1"},"vehicle_type_id":"4","last_reported":1743498690,"current_range_meters":19200,"station_id":"ce4bhph2rcd13ifvqhdg","pricing_plan_id":"cebpf4jnsgd1na2vs0mg"},{"bike_id":"0dc1fce0-04ea-48e8-933e-6e04b9ce367a","system_id":"levelo_inurba_marseille","lat":43.29615,"lon":5.37153,"is_reserved":false,"is_disabled":false,"rental_uris":{"android":"levelo://app?vid=0dc1fce0-04ea-48e8-933e-6e04b9ce367a","ios":"levelo://app?vid=0dc1fce0-04ea-48e8-933e-6e04b9ce367a"},"vehicle_type_id":"4","last_reported":1743498690,"current_range_meters":19600,"station_id":"ce4bgnh2rcd13ifvqc0g","pricing_plan_id":"cebpf4jnsgd1na2vs0mg"},{"bike_id":"8f81da06-6b5c-436b-890e-3ccdfa97cc01","system_id":"levelo_inurba_marseille","lat":43.3014,"lon":5.37424,"is_reserved":false,"is_disabled":false,"rental_uris":{"android":"levelo://app?vid=8f81da06-6b5c-436b-890e-3ccdfa97cc01","ios":"levelo://app?vid=8f81da06-6b5c-436b-890e-3ccdfa97cc01"},"vehicle_type_id":"4","last_reported":1743498690,"current_range_meters":19600,"station_id":"ce4bgs92rcd13ifvqcc0","pricing_plan_id":"cebpf4jnsgd1na2vs0mg"},{"bike_id":"c0eb2aff-b472-4e86-8e45-9559437d43ea","system_id":"levelo_inurba_marseille","lat":43.30892,"lon":5.37198,"is_reserved":false,"is_disabled":false,"rental_uris":{"android":"levelo://app?vid=c0eb2aff-b472-4e86-8e45-9559437d43ea","ios":"levelo://app?vid=c0eb2aff-b472-4e86-8e45-9559437d43ea"},"vehicle_type_id":"4","last_reported":1743498690,"current_range_meters":19600,"station_id":"ce4bguh2rcd13ifvqckg","pricing_plan_id":"cebpf4jnsgd1na2vs0mg"},{"bike_id":"69edb4ae-8d85-407c-abf3-3a8c5e507c14","system_id":"levelo_inurba_marseille","lat":43.29008,"lon":5.38605,"is_reserved":false,"is_disabled":false,"rental_uris":{"android":"levelo://app?vid=69edb4ae-8d85-407c-abf3-3a8c5e507c14","ios":"levelo://app?vid=69edb4ae-8d85-407c-abf3-3a8c5e507c14"},"vehicle_type_id":"4","last_reported":1743498690,"current_range_meters":19600,"station_id":"ce4bh4p2rcd13ifvqe0g","pricing_plan_id":"cebpf4jnsgd1na2vs0mg"},{"bike_id":"ee58a8cc-a166-46a5-a2f1-94f1578f207b","system_id":"levelo_inurba_marseille","lat":43.2595,"lon":5.4089,"is_reserved":false,"is_disabled":false,"rental_uris":{"android":"levelo://app?vid=ee58a8cc-a166-46a5-a2f1-94f1578f207b","ios":"levelo://app?vid=ee58a8cc-a166-46a5-a2f1-94f1578f207b"},"vehicle_type_id":"4","last_reported":1743498690,"current_range_meters":19600,"station_id":"ce4bhm92rcd13ifvqglg","pricing_plan_id":"cebpf4jnsgd1na2vs0mg"},{"bike_id":"962fd783-90c8-4086-89fb-970de35df336","system_id":"levelo_inurba_marseille","lat":43.24177,"lon":5.39736,"is_reserved":false,"is_disabled":false,"rental_uris":{"android":"levelo://app?vid=962fd783-90c8-4086-89fb-970de35df336","ios":"levelo://app?vid=962fd783-90c8-4086-89fb-970de35df336"},"vehicle_type_id":"4","last_reported":1743498690,"current_range_meters":19600,"station_id":"ce4bhn12rcd13ifvqgpg","pricing_plan_id":"cebpf4jnsgd1na2vs0mg"},{"bike_id":"259a8b09-c996-49f9-9fd9-2d8c92aa78ff","system_id":"levelo_inurba_marseille","lat":43.2845,"lon":5.39204,"is_reserved":false,"is_disabled":false,"rental_uris":{"android":"levelo://app?vid=259a8b09-c996-49f9-9fd9-2d8c92aa78ff","ios":"levelo://app?vid=259a8b09-c996-49f9-9fd9-2d8c92aa78ff"},"vehicle_type_id":"4","last_reported":1743498690,"current_range_meters":19600,"station_id":"ce4bhoh2rcd13ifvqh5g","pricing_plan_id":"cebpf4jnsgd1na2vs0mg"},{"bike_id":"e5bc20a0-e833-4ce8-89e7-2f32f07b77d3","system_id":"levelo_inurba_marseille","lat":43.29779,"lon":5.37104,"is_reserved":false,"is_disabled":false,"rental_uris":{"android":"levelo://app?vid=e5bc20a0-e833-4ce8-89e7-2f32f07b77d3","ios":"levelo://app?vid=e5bc20a0-e833-4ce8-89e7-2f32f07b77d3"},"vehicle_type_id":"4","last_reported":1743498690,"current_range_meters":20000,"station_id":"ce4bgop2rcd13ifvqc1g","pricing_plan_id":"cebpf4jnsgd1na2vs0mg"},{"bike_id":"9c9137b0-6693-49a6-bedc-f2ea63e283a3","system_id":"levelo_inurba_marseille","lat":43.30327,"lon":5.36852,"is_reserved":false,"is_disabled":false,"rental_uris":{"android":"levelo://app?vid=9c9137b0-6693-49a6-bedc-f2ea63e283a3","ios":"levelo://app?vid=9c9137b0-6693-49a6-bedc-f2ea63e283a3"},"vehicle_type_id":"4","last_reported":1743498690,"current_range_meters":20000,"station_id":"ce4bgqh2rcd13ifvqc5g","pricing_plan_id":"cebpf4jnsgd1na2vs0mg"},{"bike_id":"96ae54f5-274d-4b8b-9afe-915db6f99793","system_id":"levelo_inurba_marseille","lat":43.30324,"lon":5.37705,"is_reserved":false,"is_disabled":false,"rental_uris":{"android":"levelo://app?vid=96ae54f5-274d-4b8b-9afe-915db6f99793","ios":"levelo://app?vid=96ae54f5-274d-4b8b-9afe-915db6f99793"},"vehicle_type_id":"4","last_reported":1743498690,"current_range_meters":20000,"station_id":"ce4bguh2rcd13ifvqcj0","pricing_plan_id":"cebpf4jnsgd1na2vs0mg"},{"bike_id":"afca25a4-6504-43b2-ad24-93020efecf25","system_id":"levelo_inurba_marseille","lat":43.30466,"lon":5.379,"is_reserved":false,"is_disabled":false,"rental_uris":{"android":"levelo://app?vid=afca25a4-6504-43b2-ad24-93020efecf25","ios":"levelo://app?vid=afca25a4-6504-43b2-ad24-93020efecf25"},"vehicle_type_id":"4","last_reported":1743498690,"current_range_meters":20000,"station_id":"ce4bgup2rcd13ifvqcn0","pricing_plan_id":"cebpf4jnsgd1na2vs0mg"},{"bike_id":"6e05811e-06e7-4304-8ce9-6c25e6bc01dd","system_id":"levelo_inurba_marseille","lat":43.32126,"lon":5.36783,"is_reserved":false,"is_disabled":false,"rental_uris":{"android":"levelo://app?vid=6e05811e-06e7-4304-8ce9-6c25e6bc01dd","ios":"levelo://app?vid=6e05811e-06e7-4304-8ce9-6c25e6bc01dd"},"vehicle_type_id":"4","last_reported":1743498690,"current_range_meters":20000,"station_id":"ce4bhrh2rcd13ifvqhug","pricing_plan_id":"cebpf4jnsgd1na2vs0mg"},{"bike_id":"b6416827-25f9-459d-ad40-23ddebd4f4d3","system_id":"levelo_inurba_marseille","lat":43.3345,"lon":5.40055,"is_reserved":false,"is_disabled":false,"rental_uris":{"android":"levelo://app?vid=b6416827-25f9-459d-ad40-23ddebd4f4d3","ios":"levelo://app?vid=b6416827-25f9-459d-ad40-23ddebd4f4d3"},"vehicle_type_id":"4","last_reported":1743498690,"current_range_meters":20400,"station_id":"","pricing_plan_id":"cebpf4jnsgd1na2vs0mg"},{"bike_id":"28435e9e-8c07-4324-b343-9ee7640f1233","system_id":"levelo_inurba_marseille","lat":43.30563,"lon":5.36571,"is_reserved":false,"is_disabled":false,"rental_uris":{"android":"levelo://app?vid=28435e9e-8c07-4324-b343-9ee7640f1233","ios":"levelo://app?vid=28435e9e-8c07-4324-b343-9ee7640f1233"},"vehicle_type_id":"4","last_reported":1743498690,"current_range_meters":20400,"station_id":"ce4bgs12rcd13ifvqcag","pricing_plan_id":"cebpf4jnsgd1na2vs0mg"},{"bike_id":"c6b5ddd1-b9b5-4a9a-9742-d793c2465069","system_id":"levelo_inurba_marseille","lat":43.30288,"lon":5.37694,"is_reserved":false,"is_disabled":false,"rental_uris":{"android":"levelo://app?vid=c6b5ddd1-b9b5-4a9a-9742-d793c2465069","ios":"levelo://app?vid=c6b5ddd1-b9b5-4a9a-9742-d793c2465069"},"vehicle_type_id":"4","last_reported":1743498690,"current_range_meters":20400,"station_id":"ce4bguh2rcd13ifvqcj0","pricing_plan_id":"cebpf4jnsgd1na2vs0mg"},{"bike_id":"14b0adaf-bf82-4ef9-a43c-ef7fe5a2e9fc","system_id":"levelo_inurba_marseille","lat":43.292564,"lon":5.384471,"is_reserved":false,"is_disabled":false,"rental_uris":{"android":"levelo://app?vid=14b0adaf-bf82-4ef9-a43c-ef7fe5a2e9fc","ios":"levelo://app?vid=14b0adaf-bf82-4ef9-a43c-ef7fe5a2e9fc"},"vehicle_type_id":"4","last_reported":1743498690,"current_range_meters":20400,"station_id":"ce4bh692rcd13ifvqea0","pricing_plan_id":"cebpf4jnsgd1na2vs0mg"},{"bike_id":"40f73f77-f997-403b-8c33-c4230967933b","system_id":"levelo_inurba_marseille","lat":43.26192,"lon":5.3745,"is_reserved":false,"is_disabled":false,"rental_uris":{"android":"levelo://app?vid=40f73f77-f997-403b-8c33-c4230967933b","ios":"levelo://app?vid=40f73f77-f997-403b-8c33-c4230967933b"},"vehicle_type_id":"4","last_reported":1743498690,"current_range_meters":20400,"station_id":"ce4bhgp2rcd13ifvqfc0","pricing_plan_id":"cebpf4jnsgd1na2vs0mg"},{"bike_id":"05dbdeee-31d1-4c12-95ad-95abc8f314f0","system_id":"levelo_inurba_marseille","lat":43.26077,"lon":5.39406,"is_reserved":false,"is_disabled":false,"rental_uris":{"android":"levelo://app?vid=05dbdeee-31d1-4c12-95ad-95abc8f314f0","ios":"levelo://app?vid=05dbdeee-31d1-4c12-95ad-95abc8f314f0"},"vehicle_type_id":"4","last_reported":1743498690,"current_range_meters":20400,"station_id":"ce4bhh92rcd13ifvqfj0","pricing_plan_id":"cebpf4jnsgd1na2vs0mg"},{"bike_id":"30ee17b9-353e-4ac5-935e-9edf94cd9e29","system_id":"levelo_inurba_marseille","lat":43.23156,"lon":5.43716,"is_reserved":false,"is_disabled":false,"rental_uris":{"android":"levelo://app?vid=30ee17b9-353e-4ac5-935e-9edf94cd9e29","ios":"levelo://app?vid=30ee17b9-353e-4ac5-935e-9edf94cd9e29"},"vehicle_type_id":"4","last_reported":1743498690,"current_range_meters":20400,"station_id":"ce4bhmp2rcd13ifvqgog","pricing_plan_id":"cebpf4jnsgd1na2vs0mg"},{"bike_id":"71996c96-7333-478f-9c15-77ad7b41bbe2","system_id":"levelo_inurba_marseille","lat":43.30867,"lon":5.3667,"is_reserved":false,"is_disabled":false,"rental_uris":{"android":"levelo://app?vid=71996c96-7333-478f-9c15-77ad7b41bbe2","ios":"levelo://app?vid=71996c96-7333-478f-9c15-77ad7b41bbe2"},"vehicle_type_id":"4","last_reported":1743498690,"current_range_meters":20800,"station_id":"","pricing_plan_id":"cebpf4jnsgd1na2vs0mg"},{"bike_id":"41516295-5634-4711-99a7-66f239ec9330","system_id":"levelo_inurba_marseille","lat":43.23161,"lon":5.43708,"is_reserved":false,"is_disabled":false,"rental_uris":{"android":"levelo://app?vid=41516295-5634-4711-99a7-66f239ec9330","ios":"levelo://app?vid=41516295-5634-4711-99a7-66f239ec9330"},"vehicle_type_id":"4","last_reported":1743498690,"current_range_meters":20800,"station_id":"ce4bhmp2rcd13ifvqgog","pricing_plan_id":"cebpf4jnsgd1na2vs0mg"},{"bike_id":"202b6520-a72b-491d-8c09-df57e87e916e","system_id":"levelo_inurba_marseille","lat":43.23159,"lon":5.43702,"is_reserved":false,"is_disabled":false,"rental_uris":{"android":"levelo://app?vid=202b6520-a72b-491d-8c09-df57e87e916e","ios":"levelo://app?vid=202b6520-a72b-491d-8c09-df57e87e916e"},"vehicle_type_id":"4","last_reported":1743498690,"current_range_meters":20800,"station_id":"ce4bhmp2rcd13ifvqgog","pricing_plan_id":"cebpf4jnsgd1na2vs0mg"},{"bike_id":"474547b1-acbf-4c00-85ca-69a6f1332238","system_id":"levelo_inurba_marseille","lat":43.27506,"lon":5.42444,"is_reserved":false,"is_disabled":false,"rental_uris":{"android":"levelo://app?vid=474547b1-acbf-4c00-85ca-69a6f1332238","ios":"levelo://app?vid=474547b1-acbf-4c00-85ca-69a6f1332238"},"vehicle_type_id":"4","last_reported":1743498690,"current_range_meters":20800,"station_id":"ce4bhn92rcd13ifvqgrg","pricing_plan_id":"cebpf4jnsgd1na2vs0mg"},{"bike_id":"3db21f2b-48b7-4462-96a6-d5e76276365b","system_id":"levelo_inurba_marseille","lat":43.33671,"lon":5.40977,"is_reserved":false,"is_disabled":false,"rental_uris":{"android":"levelo://app?vid=3db21f2b-48b7-4462-96a6-d5e76276365b","ios":"levelo://app?vid=3db21f2b-48b7-4462-96a6-d5e76276365b"},"vehicle_type_id":"4","last_reported":1743498690,"current_range_meters":20800,"station_id":"ce4bhqh2rcd13ifvqhmg","pricing_plan_id":"cebpf4jnsgd1na2vs0mg"},{"bike_id":"b5564709-6c7a-47f2-8dc0-e96f59136515","system_id":"levelo_inurba_marseille","lat":43.25084,"lon":5.39522,"is_reserved":false,"is_disabled":false,"rental_uris":{"android":"levelo://app?vid=b5564709-6c7a-47f2-8dc0-e96f59136515","ios":"levelo://app?vid=b5564709-6c7a-47f2-8dc0-e96f59136515"},"vehicle_type_id":"4","last_reported":1743498690,"current_range_meters":21600,"station_id":"","pricing_plan_id":"cebpf4jnsgd1na2vs0mg"},{"bike_id":"a0f0c14e-d0a6-47b7-baf8-7523b26f576b","system_id":"levelo_inurba_marseille","lat":43.29948,"lon":5.37191,"is_reserved":false,"is_disabled":false,"rental_uris":{"android":"levelo://app?vid=a0f0c14e-d0a6-47b7-baf8-7523b26f576b","ios":"levelo://app?vid=a0f0c14e-d0a6-47b7-baf8-7523b26f576b"},"vehicle_type_id":"4","last_reported":1743498690,"current_range_meters":21600,"station_id":"ce4bgr92rcd13ifvqc7g","pricing_plan_id":"cebpf4jnsgd1na2vs0mg"},{"bike_id":"6eb65947-1794-4ce6-a0b6-f047c8055813","system_id":"levelo_inurba_marseille","lat":43.28668,"lon":5.38661,"is_reserved":false,"is_disabled":false,"rental_uris":{"android":"levelo://app?vid=6eb65947-1794-4ce6-a0b6-f047c8055813","ios":"levelo://app?vid=6eb65947-1794-4ce6-a0b6-f047c8055813"},"vehicle_type_id":"4","last_reported":1743498690,"current_range_meters":21600,"station_id":"ce4bh492rcd13ifvqdug","pricing_plan_id":"cebpf4jnsgd1na2vs0mg"},{"bike_id":"686c45ce-c868-4bf0-b6c7-dc411322cdce","system_id":"levelo_inurba_marseille","lat":43.26565,"lon":5.39012,"is_reserved":false,"is_disabled":false,"rental_uris":{"android":"levelo://app?vid=686c45ce-c868-4bf0-b6c7-dc411322cdce","ios":"levelo://app?vid=686c45ce-c868-4bf0-b6c7-dc411322cdce"},"vehicle_type_id":"4","last_reported":1743498690,"current_range_meters":21600,"station_id":"ce4bhe12rcd13ifvqf30","pricing_plan_id":"cebpf4jnsgd1na2vs0mg"},{"bike_id":"b29e37a9-658e-4013-8758-390e2ec4d6ca","system_id":"levelo_inurba_marseille","lat":43.27318,"lon":5.3907,"is_reserved":false,"is_disabled":false,"rental_uris":{"android":"levelo://app?vid=b29e37a9-658e-4013-8758-390e2ec4d6ca","ios":"levelo://app?vid=b29e37a9-658e-4013-8758-390e2ec4d6ca"},"vehicle_type_id":"4","last_reported":1743498690,"current_range_meters":21600,"station_id":"ce4bhgp2rcd13ifvqfe0","pricing_plan_id":"cebpf4jnsgd1na2vs0mg"},{"bike_id":"91364510-c597-41ac-93bf-2a749c10a805","system_id":"levelo_inurba_marseille","lat":43.2466,"lon":5.38171,"is_reserved":false,"is_disabled":false,"rental_uris":{"android":"levelo://app?vid=91364510-c597-41ac-93bf-2a749c10a805","ios":"levelo://app?vid=91364510-c597-41ac-93bf-2a749c10a805"},"vehicle_type_id":"4","last_reported":1743498690,"current_range_meters":21600,"station_id":"ce4bhih2rcd13ifvqfr0","pricing_plan_id":"cebpf4jnsgd1na2vs0mg"},{"bike_id":"03bda7d6-774e-4f5a-a56c-0b00e6aa53f1","system_id":"levelo_inurba_marseille","lat":43.23129,"lon":5.43733,"is_reserved":false,"is_disabled":false,"rental_uris":{"android":"levelo://app?vid=03bda7d6-774e-4f5a-a56c-0b00e6aa53f1","ios":"levelo://app?vid=03bda7d6-774e-4f5a-a56c-0b00e6aa53f1"},"vehicle_type_id":"4","last_reported":1743498690,"current_range_meters":21600,"station_id":"ce4bhmp2rcd13ifvqgog","pricing_plan_id":"cebpf4jnsgd1na2vs0mg"},{"bike_id":"d83bbe43-4e2b-4675-9435-ff0ff802a84d","system_id":"levelo_inurba_marseille","lat":43.24178,"lon":5.39724,"is_reserved":false,"is_disabled":false,"rental_uris":{"android":"levelo://app?vid=d83bbe43-4e2b-4675-9435-ff0ff802a84d","ios":"levelo://app?vid=d83bbe43-4e2b-4675-9435-ff0ff802a84d"},"vehicle_type_id":"4","last_reported":1743498690,"current_range_meters":21600,"station_id":"ce4bhn12rcd13ifvqgpg","pricing_plan_id":"cebpf4jnsgd1na2vs0mg"},{"bike_id":"ca4618f7-2e1b-48c8-a7c2-9314560a1d02","system_id":"levelo_inurba_marseille","lat":43.33637,"lon":5.40998,"is_reserved":false,"is_disabled":false,"rental_uris":{"android":"levelo://app?vid=ca4618f7-2e1b-48c8-a7c2-9314560a1d02","ios":"levelo://app?vid=ca4618f7-2e1b-48c8-a7c2-9314560a1d02"},"vehicle_type_id":"4","last_reported":1743498690,"current_range_meters":21600,"station_id":"ce4bhqh2rcd13ifvqhmg","pricing_plan_id":"cebpf4jnsgd1na2vs0mg"},{"bike_id":"46c7dc79-c0c6-4c4c-958d-c42d930393d5","system_id":"levelo_inurba_marseille","lat":43.3212,"lon":5.36788,"is_reserved":false,"is_disabled":false,"rental_uris":{"android":"levelo://app?vid=46c7dc79-c0c6-4c4c-958d-c42d930393d5","ios":"levelo://app?vid=46c7dc79-c0c6-4c4c-958d-c42d930393d5"},"vehicle_type_id":"4","last_reported":1743498690,"current_range_meters":21600,"station_id":"ce4bhrh2rcd13ifvqhug","pricing_plan_id":"cebpf4jnsgd1na2vs0mg"},{"bike_id":"fbf0fd09-9dde-4219-8b43-a4e35d582a99","system_id":"levelo_inurba_marseille","lat":43.24073,"lon":5.37755,"is_reserved":false,"is_disabled":false,"rental_uris":{"android":"levelo://app?vid=fbf0fd09-9dde-4219-8b43-a4e35d582a99","ios":"levelo://app?vid=fbf0fd09-9dde-4219-8b43-a4e35d582a99"},"vehicle_type_id":"4","last_reported":1743498690,"current_range_meters":22000,"station_id":"","pricing_plan_id":"cebpf4jnsgd1na2vs0mg"},{"bike_id":"d8fca211-60fb-4285-9cb7-34b2ec70b471","system_id":"levelo_inurba_marseille","lat":43.30578,"lon":5.36511,"is_reserved":false,"is_disabled":false,"rental_uris":{"android":"levelo://app?vid=d8fca211-60fb-4285-9cb7-34b2ec70b471","ios":"levelo://app?vid=d8fca211-60fb-4285-9cb7-34b2ec70b471"},"vehicle_type_id":"4","last_reported":1743498690,"current_range_meters":22000,"station_id":"ce4bgs12rcd13ifvqcag","pricing_plan_id":"cebpf4jnsgd1na2vs0mg"},{"bike_id":"4a6c3a59-47ab-4738-93d5-08ace309765f","system_id":"levelo_inurba_marseille","lat":43.30945,"lon":5.39045,"is_reserved":false,"is_disabled":false,"rental_uris":{"android":"levelo://app?vid=4a6c3a59-47ab-4738-93d5-08ace309765f","ios":"levelo://app?vid=4a6c3a59-47ab-4738-93d5-08ace309765f"},"vehicle_type_id":"4","last_reported":1743498690,"current_range_meters":22000,"station_id":"ce4bgup2rcd13ifvqco0","pricing_plan_id":"cebpf4jnsgd1na2vs0mg"},{"bike_id":"c0b33e9a-45dc-4b1e-a93f-68e2c94a3b23","system_id":"levelo_inurba_marseille","lat":43.277591,"lon":5.362226,"is_reserved":false,"is_disabled":false,"rental_uris":{"android":"levelo://app?vid=c0b33e9a-45dc-4b1e-a93f-68e2c94a3b23","ios":"levelo://app?vid=c0b33e9a-45dc-4b1e-a93f-68e2c94a3b23"},"vehicle_type_id":"4","last_reported":1743498690,"current_range_meters":22000,"station_id":"ce4bh412rcd13ifvqds0","pricing_plan_id":"cebpf4jnsgd1na2vs0mg"},{"bike_id":"a0e1ca41-2c0d-4ddb-9fa9-63cbe9a3f17a","system_id":"levelo_inurba_marseille","lat":43.27391,"lon":5.36244,"is_reserved":false,"is_disabled":false,"rental_uris":{"android":"levelo://app?vid=a0e1ca41-2c0d-4ddb-9fa9-63cbe9a3f17a","ios":"levelo://app?vid=a0e1ca41-2c0d-4ddb-9fa9-63cbe9a3f17a"},"vehicle_type_id":"4","last_reported":1743498690,"current_range_meters":22000,"station_id":"ce4bhbh2rcd13ifvqeo0","pricing_plan_id":"cebpf4jnsgd1na2vs0mg"},{"bike_id":"b922f068-03b0-4f4d-ba31-1d7cad063737","system_id":"levelo_inurba_marseille","lat":43.26184,"lon":5.3746,"is_reserved":false,"is_disabled":false,"rental_uris":{"android":"levelo://app?vid=b922f068-03b0-4f4d-ba31-1d7cad063737","ios":"levelo://app?vid=b922f068-03b0-4f4d-ba31-1d7cad063737"},"vehicle_type_id":"4","last_reported":1743498690,"current_range_meters":22000,"station_id":"ce4bhgp2rcd13ifvqfc0","pricing_plan_id":"cebpf4jnsgd1na2vs0mg"},{"bike_id":"850672dc-b2fe-4aef-9295-41ddbd01b718","system_id":"levelo_inurba_marseille","lat":43.25934,"lon":5.40899,"is_reserved":false,"is_disabled":false,"rental_uris":{"android":"levelo://app?vid=850672dc-b2fe-4aef-9295-41ddbd01b718","ios":"levelo://app?vid=850672dc-b2fe-4aef-9295-41ddbd01b718"},"vehicle_type_id":"4","last_reported":1743498690,"current_range_meters":22000,"station_id":"ce4bhm92rcd13ifvqglg","pricing_plan_id":"cebpf4jnsgd1na2vs0mg"},{"bike_id":"8d0e37b9-ed24-426c-9ae3-207e0387f4e8","system_id":"levelo_inurba_marseille","lat":43.27488,"lon":5.42456,"is_reserved":false,"is_disabled":false,"rental_uris":{"android":"levelo://app?vid=8d0e37b9-ed24-426c-9ae3-207e0387f4e8","ios":"levelo://app?vid=8d0e37b9-ed24-426c-9ae3-207e0387f4e8"},"vehicle_type_id":"4","last_reported":1743498690,"current_range_meters":22000,"station_id":"ce4bhn92rcd13ifvqgrg","pricing_plan_id":"cebpf4jnsgd1na2vs0mg"},{"bike_id":"4ef8de21-81ae-41c1-8da8-af6c83441849","system_id":"levelo_inurba_marseille","lat":43.27496,"lon":5.42452,"is_reserved":false,"is_disabled":false,"rental_uris":{"android":"levelo://app?vid=4ef8de21-81ae-41c1-8da8-af6c83441849","ios":"levelo://app?vid=4ef8de21-81ae-41c1-8da8-af6c83441849"},"vehicle_type_id":"4","last_reported":1743498690,"current_range_meters":22000,"station_id":"ce4bhn92rcd13ifvqgrg","pricing_plan_id":"cebpf4jnsgd1na2vs0mg"},{"bike_id":"3d099367-9866-4f5c-84de-2f1d242b575a","system_id":"levelo_inurba_marseille","lat":43.27522,"lon":5.42476,"is_reserved":false,"is_disabled":false,"rental_uris":{"android":"levelo://app?vid=3d099367-9866-4f5c-84de-2f1d242b575a","ios":"levelo://app?vid=3d099367-9866-4f5c-84de-2f1d242b575a"},"vehicle_type_id":"4","last_reported":1743498690,"current_range_meters":22000,"station_id":"ce4bhn92rcd13ifvqgrg","pricing_plan_id":"cebpf4jnsgd1na2vs0mg"},{"bike_id":"cb37d7ab-8495-474d-b48b-7d636f00aa21","system_id":"levelo_inurba_marseille","lat":43.3414,"lon":5.40902,"is_reserved":false,"is_disabled":false,"rental_uris":{"android":"levelo://app?vid=cb37d7ab-8495-474d-b48b-7d636f00aa21","ios":"levelo://app?vid=cb37d7ab-8495-474d-b48b-7d636f00aa21"},