{"last_updated":1730963299,"ttl":60,"version":"2.2","data":{"bikes":[{"bike_id":"5e89496f-7131-4633-ad8c-10a7e2afc839","system_id":"levelo_inurba_marseille","lat":43.2408,"lon":5.37754,"is_reserved":false,"is_disabled":false,"rental_uris":{"android":"levelo://app?vid=5e89496f-7131-4633-ad8c-10a7e2afc839","ios":"levelo://app?vid=5e89496f-7131-4633-ad8c-10a7e2afc839"},"vehicle_type_id":"4","last_reported":1730963299,"current_range_meters":24000,"station_id":"ce4bhnp2rcd13ifvqgvg","pricing_plan_id":"cebpf4jnsgd1na2vs0mg"},{"bike_id":"4aa4d601-05d8-438b-bd77-808078432dd9","system_id":"levelo_inurba_marseille","lat":43.30597,"lon":5.3938,"is_reserved":false,"is_disabled":false,"rental_uris":{"android":"levelo://app?vid=4aa4d601-05d8-438b-bd77-808078432dd9","ios":"levelo://app?vid=4aa4d601-05d8-438b-bd77-808078432dd9"},"vehicle_type_id":"4","last_reported":1730963299,"current_range_meters":25200,"station_id":"ce4bh0p2rcd13ifvqd80","pricing_plan_id":"cebpf4jnsgd1na2vs0mg"},{"bike_id":"9fc02c53-055a-440d-a952-05755c2d8906","system_id":"levelo_inurba_marseille","lat":43.28539,"lon":5.39501,"is_reserved":false,"is_disabled":false,"rental_uris":{"android":"levelo://app?vid=9fc02c53-055a-440d-a952-05755c2d8906","ios":"levelo://app?vid=9fc02c53-055a-440d-a952-05755c2d8906"},"vehicle_type_id":"4","last_reported":1730963299,"current_range_meters":16800,"station_id":"ce4bh292rcd13ifvqdg0","pricing_plan_id":"cebpf4jnsgd1na2vs0mg"},{"bike_id":"1b0c34b7-cab0-4838-9a3f-9b01be74f404","system_id":"levelo_inurba_marseille","lat":43.28725,"lon":5.37945,"is_reserved":false,"is_disabled":false,"rental_uris":{"android":"levelo://app?vid=1b0c34b7-cab0-4838-9a3f-9b01be74f404","ios":"levelo://app?vid=1b0c34b7-cab0-4838-9a3f-9b01be74f404"},"vehicle_type_id":"4","last_reported":1730963299,"current_range_meters":37600,"station_id":"ce4bh9p2rcd13ifvqec0","pricing_plan_id":"cebpf4jnsgd1na2vs0mg"},{"bike_id":"b79739f5-aaa0-49a4-a53d-2b13f632e303","system_id":"levelo_inurba_marseille","lat":43.31712,"lon":5.4045,"is_reserved":false,"is_disabled":false,"rental_uris":{"android":"levelo://app?vid=b79739f5-aaa0-49a4-a53d-2b13f632e303","ios":"levelo://app?vid=b79739f5-aaa0-49a4-a53d-2b13f632e303"},"vehicle_type_id":"4","last_reported":1730963299,"current_range_meters":10000,"station_id":"ce4bh012rcd13ifvqd00","pricing_plan_id":"cebpf4jnsgd1na2vs0mg"},{"bike_id":"29885d2f-5a2c-4beb-8d24-3b02a53d2e3c","system_id":"levelo_inurba_marseille","lat":43.28457,"lon":5.38584,"is_reserved":false,"is_disabled":false,"rental_uris":{"android":"levelo://app?vid=29885d2f-5a2c-4beb-8d24-3b02a53d2e3c","ios":"levelo://app?vid=29885d2f-5a2c-4beb-8d24-3b02a53d2e3c"},"vehicle_type_id":"4","last_reported":1730963299,"current_range_meters":38800,"station_id":"ce4bh8p2rcd13ifvqeb0","pricing_plan_id":"cebpf4jnsgd1na2vs0mg"},{"bike_id":"2733e471-976e-4976-b6ea-9ba3fb923a85","system_id":"levelo_inurba_marseille","lat":43.27207,"lon":5.39182,"is_reserved":false,"is_disabled":false,"rental_uris":{"android":"levelo://app?vid=2733e471-976e-4976-b6ea-9ba3fb923a85","ios":"levelo://app?vid=2733e471-976e-4976-b6ea-9ba3fb923a85"},"vehicle_type_id":"4","last_reported":1730963299,"current_range_meters":27600,"station_id":"ce4bhhp2rcd13ifvqfm0","pricing_plan_id":"cebpf4jnsgd1na2vs0mg"},{"bike_id":"ac90283c-0038-4945-b73e-dc4d0c4abe46","system_id":"levelo_inurba_marseille","lat":43.30211,"lon":5.39466,"is_reserved":false,"is_disabled":false,"rental_uris":{"android":"levelo://app?vid=ac90283c-0038-4945-b73e-dc4d0c4abe46","ios":"levelo://app?vid=ac90283c-0038-4945-b73e-dc4d0c4abe46"},"vehicle_type_id":"4","last_reported":1730963299,"current_range_meters":15200,"station_id":"ce4bh0p2rcd13ifvqd70","pricing_plan_id":"cebpf4jnsgd1na2vs0mg"},{"bike_id":"eda0a170-5c98-4d21-8989-f3724f9aeca9","system_id":"levelo_inurba_marseille","lat":43.27836,"lon":5.39193,"is_reserved":false,"is_disabled":false,"rental_uris":{"android":"levelo://app?vid=eda0a170-5c98-4d21-8989-f3724f9aeca9","ios":"levelo://app?vid=eda0a170-5c98-4d21-8989-f3724f9aeca9"},"vehicle_type_id":"4","last_reported":1730963299,"current_range_meters":26000,"station_id":"ce4bhjp2rcd13ifvqga0","pricing_plan_id":"cebpf4jnsgd1na2vs0mg"},{"bike_id":"d05f4868-23cb-41be-b0a5-eef83a05a342","system_id":"levelo_inurba_marseille","lat":43.29632,"lon":5.40592,"is_reserved":false,"is_disabled":false,"rental_uris":{"android":"levelo://app?vid=d05f4868-23cb-41be-b0a5-eef83a05a342","ios":"levelo://app?vid=d05f4868-23cb-41be-b0a5-eef83a05a342"},"vehicle_type_id":"4","last_reported":1730963299,"current_range_meters":38800,"station_id":"ce4bh0h2rcd13ifvqd60","pricing_plan_id":"cebpf4jnsgd1na2vs0mg"},{"bike_id":"aaf896be-23fc-4cde-b212-d643c208e7c1","system_id":"levelo_inurba_marseille","lat":43.30419,"lon":5.41283,"is_reserved":false,"is_disabled":false,"rental_uris":{"android":"levelo://app?vid=aaf896be-23fc-4cde-b212-d643c208e7c1","ios":"levelo://app?vid=aaf896be-23fc-4cde-b212-d643c208e7c1"},"vehicle_type_id":"4","last_reported":1730963299,"current_range_meters":34800,"station_id":"ce4bhop2rcd13ifvqh8g","pricing_plan_id":"cebpf4jnsgd1na2vs0mg"},{"bike_id":"171c996e-af3a-4f37-a956-55d56c1c1adb","system_id":"levelo_inurba_marseille","lat":43.29035,"lon":5.39958,"is_reserved":false,"is_disabled":false,"rental_uris":{"android":"levelo://app?vid=171c996e-af3a-4f37-a956-55d56c1c1adb","ios":"levelo://app?vid=171c996e-af3a-4f37-a956-55d56c1c1adb"},"vehicle_type_id":"4","last_reported":1730963299,"current_range_meters":39200,"station_id":"ce4bh392rcd13ifvqdm0","pricing_plan_id":"cebpf4jnsgd1na2vs0mg"},{"bike_id":"a5775912-3c02-4faa-9f66-3c24f15fb141","system_id":"levelo_inurba_marseille","lat":43.312683,"lon":5.40171,"is_reserved":false,"is_disabled":false,"rental_uris":{"android":"levelo://app?vid=a5775912-3c02-4faa-9f66-3c24f15fb141","ios":"levelo://app?vid=a5775912-3c02-4faa-9f66-3c24f15fb141"},"vehicle_type_id":"4","last_reported":1730963299,"current_range_meters":24000,"station_id":"ce4bh092rcd13ifvqd30","pricing_plan_id":"cebpf4jnsgd1na2vs0mg"},{"bike_id":"bf13221f-402c-4c17-8e10-fe5c92f1606c","system_id":"levelo_inurba_marseille","lat":43.28488,"lon":5.3794,"is_reserved":false,"is_disabled":false,"rental_uris":{"android":"levelo://app?vid=bf13221f-402c-4c17-8e10-fe5c92f1606c","ios":"levelo://app?vid=bf13221f-402c-4c17-8e10-fe5c92f1606c"},"vehicle_type_id":"4","last_reported":1730963299,"current_range_meters":12000,"station_id":"ce4bh412rcd13ifvqds0","pricing_plan_id":"cebpf4jnsgd1na2vs0mg"},{"bike_id":"f76ca3d1-7479-4f54-a458-de8a62d3c3f9","system_id":"levelo_inurba_marseille","lat":43.26952,"lon":5.38627,"is_reserved":false,"is_disabled":false,"rental_uris":{"android":"levelo://app?vid=f76ca3d1-7479-4f54-a458-de8a62d3c3f9","ios":"levelo://app?vid=f76ca3d1-7479-4f54-a458-de8a62d3c3f9"},"vehicle_type_id":"4","last_reported":1730963299,"current_range_meters":28000,"station_id":"ce4bhh92rcd13ifvqfh0","pricing_plan_id":"cebpf4jnsgd1na2vs0mg"},{"bike_id":"8af378d1-5bc4-457f-9470-74e88c52bda7","system_id":"levelo_inurba_marseille","lat":43.31995,"lon":5.38147,"is_reserved":false,"is_disabled":false,"rental_uris":{"android":"levelo://app?vid=8af378d1-5bc4-457f-9470-74e88c52bda7","ios":"levelo://app?vid=8af378d1-5bc4-457f-9470-74e88c52bda7"},"vehicle_type_id":"4","last_reported":1730963299,"current_range_meters":38000,"station_id":"ce4bhr12rcd13ifvqhpg","pricing_plan_id":"cebpf4jnsgd1na2vs0mg"},{"bike_id":"553d3183-6e63-447d-8d3a-c42750abef42","system_id":"levelo_inurba_marseille","lat":43.28727,"lon":5.37941,"is_reserved":false,"is_disabled":false,"rental_uris":{"android":"levelo://app?vid=553d3183-6e63-447d-8d3a-c42750abef42","ios":"levelo://app?vid=553d3183-6e63-447d-8d3a-c42750abef42"},"vehicle_type_id":"4","last_reported":1730963299,"current_range_meters":20000,"station_id":"ce4bh9p2rcd13ifvqec0","pricing_plan_id":"cebpf4jnsgd1na2vs0mg"},{"bike_id":"44135612-fabe-4db6-b769-98ffa02d00e4","system_id":"levelo_inurba_marseille","lat":43.32286,"lon":5.3828,"is_reserved":false,"is_disabled":false,"rental_uris":{"android":"levelo://app?vid=44135612-fabe-4db6-b769-98ffa02d00e4","ios":"levelo://app?vid=44135612-fabe-4db6-b769-98ffa02d00e4"},"vehicle_type_id":"4","last_reported":1730963299,"current_range_meters":39200,"station_id":"ce4bhr12rcd13ifvqhqg","pricing_plan_id":"cebpf4jnsgd1na2vs0mg"},{"bike_id":"bf07d0a6-4650-48f4-a5bb-d3d27c2149e5","system_id":"levelo_inurba_marseille","lat":43.29421,"lon":5.3861,"is_reserved":false,"is_disabled":false,"rental_uris":{"android":"levelo://app?vid=bf07d0a6-4650-48f4-a5bb-d3d27c2149e5","ios":"levelo://app?vid=bf07d0a6-4650-48f4-a5bb-d3d27c2149e5"},"vehicle_type_id":"4","last_reported":1730963299,"current_range_meters":25600,"station_id":"ce4bh2h2rcd13ifvqdh0","pricing_plan_id":"cebpf4jnsgd1na2vs0mg"},{"bike_id":"5cab89ce-c16c-4cdc-acb8-2122899f974c","system_id":"levelo_inurba_marseille","lat":43.3149,"lon":5.37308,"is_reserved":false,"is_disabled":false,"rental_uris":{"android":"levelo://app?vid=5cab89ce-c16c-4cdc-acb8-2122899f974c","ios":"levelo://app?vid=5cab89ce-c16c-4cdc-acb8-2122899f974c"},"vehicle_type_id":"4","last_reported":1730963299,"current_range_meters":6800,"station_id":"ce4bgt12rcd13ifvqcd0","pricing_plan_id":"cebpf4jnsgd1na2vs0mg"},{"bike_id":"9df40977-722d-4bcd-9976-77c82f010fd6","system_id":"levelo_inurba_marseille","lat":43.31494,"lon":5.37304,"is_reserved":false,"is_disabled":false,"rental_uris":{"android":"levelo://app?vid=9df40977-722d-4bcd-9976-77c82f010fd6","ios":"levelo://app?vid=9df40977-722d-4bcd-9976-77c82f010fd6"},"vehicle_type_id":"4","last_reported":1730963299,"current_range_meters":24800,"station_id":"ce4bgt12rcd13ifvqcd0","pricing_plan_id":"cebpf4jnsgd1na2vs0mg"},{"bike_id":"81a73e1e-df8e-4923-a10d-61f139a542d3","system_id":"levelo_inurba_marseille","lat":43.28035,"lon":5.36938,"is_reserved":false,"is_disabled":false,"rental_uris":{"android":"levelo://app?vid=81a73e1e-df8e-4923-a10d-61f139a542d3","ios":"levelo://app?vid=81a73e1e-df8e-4923-a10d-61f139a542d3"},"vehicle_type_id":"4","last_reported":1730963299,"current_range_meters":9600,"station_id":"ce4bha12rcd13ifvqef0","pricing_plan_id":"cebpf4jnsgd1na2vs0mg"},{"bike_id":"b28caf33-3a19-4ad0-a838-784dcbb9ea26","system_id":"levelo_inurba_marseille","lat":43.27494,"lon":5.42448,"is_reserved":false,"is_disabled":false,"rental_uris":{"android":"levelo://app?vid=b28caf33-3a19-4ad0-a838-784dcbb9ea26","ios":"levelo://app?vid=b28caf33-3a19-4ad0-a838-784dcbb9ea26"},"vehicle_type_id":"4","last_reported":1730963299,"current_range_meters":23200,"station_id":"ce4bhn92rcd13ifvqgrg","pricing_plan_id":"cebpf4jnsgd1na2vs0mg"},{"bike_id":"5b4d4990-1d75-4881-84e6-c0e64a21149a","system_id":"levelo_inurba_marseille","lat":43.30419,"lon":5.39751,"is_reserved":false,"is_disabled":false,"rental_uris":{"android":"levelo://app?vid=5b4d4990-1d75-4881-84e6-c0e64a21149a","ios":"levelo://app?vid=5b4d4990-1d75-4881-84e6-c0e64a21149a"},"vehicle_type_id":"4","last_reported":1730963299,"current_range_meters":32800,"station_id":"ce4bh092rcd13ifvqd20","pricing_plan_id":"cebpf4jnsgd1na2vs0mg"},{"bike_id":"a06b4532-64ef-4104-a6e2-2f1dac9ac2c3","system_id":"levelo_inurba_marseille","lat":43.28347,"lon":5.38105,"is_reserved":false,"is_disabled":false,"rental_uris":{"android":"levelo://app?vid=a06b4532-64ef-4104-a6e2-2f1dac9ac2c3","ios":"levelo://app?vid=a06b4532-64ef-4104-a6e2-2f1dac9ac2c3"},"vehicle_type_id":"4","last_reported":1730963299,"current_range_meters":22000,"station_id":"ce4bh412rcd13ifvqdr0","pricing_plan_id":"cebpf4jnsgd1na2vs0mg"},{"bike_id":"7a6a242f-0a0d-488e-8aaf-ee82d34f2990","system_id":"levelo_inurba_marseille","lat":43.27659,"lon":5.38868,"is_reserved":false,"is_disabled":false,"rental_uris":{"android":"levelo://app?vid=7a6a242f-0a0d-488e-8aaf-ee82d34f2990","ios":"levelo://app?vid=7a6a242f-0a0d-488e-8aaf-ee82d34f2990"},"vehicle_type_id":"4","last_reported":1730963299,"current_range_meters":37600,"station_id":"ce4bhi12rcd13ifvqfo0","pricing_plan_id":"cebpf4jnsgd1na2vs0mg"},{"bike_id":"80e35d0e-ab2d-45c3-b993-0c96f4f95018","system_id":"levelo_inurba_marseille","lat":43.29278,"lon":5.40118,"is_reserved":false,"is_disabled":false,"rental_uris":{"android":"levelo://app?vid=80e35d0e-ab2d-45c3-b993-0c96f4f95018","ios":"levelo://app?vid=80e35d0e-ab2d-45c3-b993-0c96f4f95018"},"vehicle_type_id":"4","last_reported":1730963299,"current_range_meters":38000,"station_id":"ce4bh312rcd13ifvqdk0","pricing_plan_id":"cebpf4jnsgd1na2vs0mg"},{"bike_id":"4df27c33-5d2b-4c1c-a7b3-9c8543269d96","system_id":"levelo_inurba_marseille","lat":43.30454,"lon":5.3791,"is_reserved":false,"is_disabled":false,"rental_uris":{"android":"levelo://app?vid=4df27c33-5d2b-4c1c-a7b3-9c8543269d96","ios":"levelo://app?vid=4df27c33-5d2b-4c1c-a7b3-9c8543269d96"},"vehicle_type_id":"4","last_reported":1730963299,"current_range_meters":30400,"station_id":"ce4bgup2rcd13ifvqcn0","pricing_plan_id":"cebpf4jnsgd1na2vs0mg"},{"bike_id":"b3a780aa-eced-42c7-aa0f-ab93e922353e","system_id":"levelo_inurba_marseille","lat":43.255767,"lon":5.382362,"is_reserved":false,"is_disabled":false,"rental_uris":{"android":"levelo://app?vid=b3a780aa-eced-42c7-aa0f-ab93e922353e","ios":"levelo://app?vid=b3a780aa-eced-42c7-aa0f-ab93e922353e"},"vehicle_type_id":"4","last_reported":1730963299,"current_range_meters":22400,"station_id":"ce4bhih2rcd13ifvqfs0","pricing_plan_id":"cebpf4jnsgd1na2vs0mg"},{"bike_id":"db613083-dba8-4ca4-a666-c9b9af4662fc","system_id":"levelo_inurba_marseille","lat":43.26054,"lon":5.39397,"is_reserved":false,"is_disabled":false,"rental_uris":{"android":"levelo://app?vid=db613083-dba8-4ca4-a666-c9b9af4662fc","ios":"levelo://app?vid=db613083-dba8-4ca4-a666-c9b9af4662fc"},"vehicle_type_id":"4","last_reported":1730963299,"current_range_meters":3600,"station_id":"ce4bhh92rcd13ifvqfj0","pricing_plan_id":"cebpf4jnsgd1na2vs0mg"},{"bike_id":"8a401a8a-30f9-4643-ad63-74116d1b600f","system_id":"levelo_inurba_marseille","lat":43.32482,"lon":5.36573,"is_reserved":false,"is_disabled":false,"rental_uris":{"android":"levelo://app?vid=8a401a8a-30f9-4643-ad63-74116d1b600f","ios":"levelo://app?vid=8a401a8a-30f9-4643-ad63-74116d1b600f"},"vehicle_type_id":"4","last_reported":1730963299,"current_range_meters":37600,"station_id":"ce4bhs12rcd13ifvqhvg","pricing_plan_id":"cebpf4jnsgd1na2vs0mg"},{"bike_id":"2cf50ee6-c66a-4267-9fd6-b9a974f597f3","system_id":"levelo_inurba_marseille","lat":43.28724,"lon":5.37938,"is_reserved":false,"is_disabled":false,"rental_uris":{"android":"levelo://app?vid=2cf50ee6-c66a-4267-9fd6-b9a974f597f3","ios":"levelo://app?vid=2cf50ee6-c66a-4267-9fd6-b9a974f597f3"},"vehicle_type_id":"4","last_reported":1730963299,"current_range_meters":30000,"station_id":"ce4bh9p2rcd13ifvqec0","pricing_plan_id":"cebpf4jnsgd1na2vs0mg"},{"bike_id":"794a1fbc-76c9-44ea-be95-9d6403ad7232","system_id":"levelo_inurba_marseille","lat":43.30592,"lon":5.39353,"is_reserved":false,"is_disabled":false,"rental_uris":{"android":"levelo://app?vid=794a1fbc-76c9-44ea-be95-9d6403ad7232","ios":"levelo://app?vid=794a1fbc-76c9-44ea-be95-9d6403ad7232"},"vehicle_type_id":"4","last_reported":1730963299,"current_range_meters":36800,"station_id":"ce4bh0p2rcd13ifvqd80","pricing_plan_id":"cebpf4jnsgd1na2vs0mg"},{"bike_id":"2067f8d4-ccca-4eea-974d-a7b54b836ba8","system_id":"levelo_inurba_marseille","lat":43.30453,"lon":5.37906,"is_reserved":false,"is_disabled":false,"rental_uris":{"android":"levelo://app?vid=2067f8d4-ccca-4eea-974d-a7b54b836ba8","ios":"levelo://app?vid=2067f8d4-ccca-4eea-974d-a7b54b836ba8"},"vehicle_type_id":"4","last_reported":1730963299,"current_range_meters":2800,"station_id":"ce4bgup2rcd13ifvqcn0","pricing_plan_id":"cebpf4jnsgd1na2vs0mg"},{"bike_id":"5735612a-22cb-4e0c-9a43-a576e907c1d8","system_id":"levelo_inurba_marseille","lat":43.231829,"lon":5.39984,"is_reserved":false,"is_disabled":false,"rental_uris":{"android":"levelo://app?vid=5735612a-22cb-4e0c-9a43-a576e907c1d8","ios":"levelo://app?vid=5735612a-22cb-4e0c-9a43-a576e907c1d8"},"vehicle_type_id":"4","last_reported":1730963299,"current_range_meters":4000,"station_id":"ce4bhn12rcd13ifvqgqg","pricing_plan_id":"cebpf4jnsgd1na2vs0mg"},{"bike_id":"56becf86-9a1d-48db-a78d-99be3efcd096","system_id":"levelo_inurba_marseille","lat":43.29632,"lon":5.40598,"is_reserved":false,"is_disabled":false,"rental_uris":{"android":"levelo://app?vid=56becf86-9a1d-48db-a78d-99be3efcd096","ios":"levelo://app?vid=56becf86-9a1d-48db-a78d-99be3efcd096"},"vehicle_type_id":"4","last_reported":1730963299,"current_range_meters":16400,"station_id":"ce4bh0h2rcd13ifvqd60","pricing_plan_id":"cebpf4jnsgd1na2vs0mg"},{"bike_id":"d3746875-e429-4304-9985-53f81e70b56a","system_id":"levelo_inurba_marseille","lat":43.25575,"lon":5.38227,"is_reserved":false,"is_disabled":false,"rental_uris":{"android":"levelo://app?vid=d3746875-e429-4304-9985-53f81e70b56a","ios":"levelo://app?vid=d3746875-e429-4304-9985-53f81e70b56a"},"vehicle_type_id":"4","last_reported":1730963299,"current_range_meters":38400,"station_id":"ce4bhih2rcd13ifvqfs0","pricing_plan_id":"cebpf4jnsgd1na2vs0mg"},{"bike_id":"88ca0bb0-c46d-4142-a8a2-e879d4b2d209","system_id":"levelo_inurba_marseille","lat":43.3047,"lon":5.40103,"is_reserved":false,"is_disabled":false,"rental_uris":{"android":"levelo://app?vid=88ca0bb0-c46d-4142-a8a2-e879d4b2d209","ios":"levelo://app?vid=88ca0bb0-c46d-4142-a8a2-e879d4b2d209"},"vehicle_type_id":"4","last_reported":1730963299,"current_range_meters":30800,"station_id":"","pricing_plan_id":"cebpf4jnsgd1na2vs0mg"},{"bike_id":"d5e91622-e3dd-4f31-acce-52cf3f312cf4","system_id":"levelo_inurba_marseille","lat":43.2439,"lon":5.37061,"is_reserved":false,"is_disabled":false,"rental_uris":{"android":"levelo://app?vid=d5e91622-e3dd-4f31-acce-52cf3f312cf4","ios":"levelo://app?vid=d5e91622-e3dd-4f31-acce-52cf3f312cf4"},"vehicle_type_id":"4","last_reported":1730963299,"current_range_meters":8000,"station_id":"ce4bhhh2rcd13ifvqfk0","pricing_plan_id":"cebpf4jnsgd1na2vs0mg"},{"bike_id":"9f7102e3-8302-495c-ac97-16ef18b601a6","system_id":"levelo_inurba_marseille","lat":43.314857,"lon":5.3731,"is_reserved":false,"is_disabled":false,"rental_uris":{"android":"levelo://app?vid=9f7102e3-8302-495c-ac97-16ef18b601a6","ios":"levelo://app?vid=9f7102e3-8302-495c-ac97-16ef18b601a6"},"vehicle_type_id":"4","last_reported":1730963299,"current_range_meters":32000,"station_id":"ce4bgt12rcd13ifvqcd0","pricing_plan_id":"cebpf4jnsgd1na2vs0mg"},{"bike_id":"396a9a9c-144b-4091-bde1-a8caae5f9db9","system_id":"levelo_inurba_marseille","lat":43.289355,"lon":5.363889,"is_reserved":false,"is_disabled":false,"rental_uris":{"android":"levelo://app?vid=396a9a9c-144b-4091-bde1-a8caae5f9db9","ios":"levelo://app?vid=396a9a9c-144b-4091-bde1-a8caae5f9db9"},"vehicle_type_id":"4","last_reported":1730963299,"current_range_meters":25200,"station_id":"ce4bhc92rcd13ifvqetg","pricing_plan_id":"cebpf4jnsgd1na2vs0mg"},{"bike_id":"ba69f78a-a17a-42d7-accc-00b6b8c15a12","system_id":"levelo_inurba_marseille","lat":43.29874,"lon":5.38153,"is_reserved":false,"is_disabled":false,"rental_uris":{"android":"levelo://app?vid=ba69f78a-a17a-42d7-accc-00b6b8c15a12","ios":"levelo://app?vid=ba69f78a-a17a-42d7-accc-00b6b8c15a12"},"vehicle_type_id":"4","last_reported":1730963299,"current_range_meters":38400,"station_id":"ce4bgj12rcd13ifvqbc0","pricing_plan_id":"cebpf4jnsgd1na2vs0mg"},{"bike_id":"5f70e16d-28d7-4630-92d8-90c2b506d253","system_id":"levelo_inurba_marseille","lat":43.28705,"lon":5.39984,"is_reserved":false,"is_disabled":false,"rental_uris":{"android":"levelo://app?vid=5f70e16d-28d7-4630-92d8-90c2b506d253","ios":"levelo://app?vid=5f70e16d-28d7-4630-92d8-90c2b506d253"},"vehicle_type_id":"4","last_reported":1730963299,"current_range_meters":30800,"station_id":"ce4bho92rcd13ifvqh3g","pricing_plan_id":"cebpf4jnsgd1na2vs0mg"},{"bike_id":"c43dad3d-fd23-45c4-a717-3eb076a3e486","system_id":"levelo_inurba_marseille","lat":43.31497,"lon":5.37304,"is_reserved":false,"is_disabled":false,"rental_uris":{"android":"levelo://app?vid=c43dad3d-fd23-45c4-a717-3eb076a3e486","ios":"levelo://app?vid=c43dad3d-fd23-45c4-a717-3eb076a3e486"},"vehicle_type_id":"4","last_reported":1730963299,"current_range_meters":38000,"station_id":"ce4bgt12rcd13ifvqcd0","pricing_plan_id":"cebpf4jnsgd1na2vs0mg"},{"bike_id":"b4acb205-fefb-4ff0-a0f5-e0b7a0a1fe0d","system_id":"levelo_inurba_marseille","lat":43.279931,"lon":5.416566,"is_reserved":false,"is_disabled":false,"rental_uris":{"android":"levelo://app?vid=b4acb205-fefb-4ff0-a0f5-e0b7a0a1fe0d","ios":"levelo://app?vid=b4acb205-fefb-4ff0-a0f5-e0b7a0a1fe0d"},"vehicle_type_id":"4","last_reported":1730963299,"current_range_meters":30800,"station_id":"ce4bho12rcd13ifvqh1g","pricing_plan_id":"cebpf4jnsgd1na2vs0mg"},{"bike_id":"3a265529-f2df-4840-bbc7-a2d699d588fb","system_id":"levelo_inurba_marseille","lat":43.24394,"lon":5.37055,"is_reserved":false,"is_disabled":false,"rental_uris":{"android":"levelo://app?vid=3a265529-f2df-4840-bbc7-a2d699d588fb","ios":"levelo://app?vid=3a265529-f2df-4840-bbc7-a2d699d588fb"},"vehicle_type_id":"4","last_reported":1730963299,"current_range_meters":17600,"station_id":"ce4bhhh2rcd13ifvqfk0","pricing_plan_id":"cebpf4jnsgd1na2vs0mg"},{"bike_id":"148a05b0-5e9b-4a2d-af89-c42d1ba92550","system_id":"levelo_inurba_marseille","lat":43.28035,"lon":5.3695,"is_reserved":false,"is_disabled":false,"rental_uris":{"android":"levelo://app?vid=148a05b0-5e9b-4a2d-af89-c42d1ba92550","ios":"levelo://app?vid=148a05b0-5e9b-4a2d-af89-c42d1ba92550"},"vehicle_type_id":"4","last_reported":1730963299,"current_range_meters":28400,"station_id":"ce4bha12rcd13ifvqef0","pricing_plan_id":"cebpf4jnsgd1na2vs0mg"},{"bike_id":"dc17e306-8ad0-4f72-be8a-86e1adf7c59d","system_id":"levelo_inurba_marseille","lat":43.28668,"lon":5.3636,"is_reserved":false,"is_disabled":false,"rental_uris":{"android":"levelo://app?vid=dc17e306-8ad0-4f72-be8a-86e1adf7c59d","ios":"levelo://app?vid=dc17e306-8ad0-4f72-be8a-86e1adf7c59d"},"vehicle_type_id":"4","last_reported":1730963299,"current_range_meters":39200,"station_id":"ce4bhah2rcd13ifvqej0","pricing_plan_id":"cebpf4jnsgd1na2vs0mg"},{"bike_id":"933271ee-c87c-49ba-af4e-414a76ba1f14","system_id":"levelo_inurba_marseille","lat":43.29545,"lon":5.42278,"is_reserved":false,"is_disabled":false,"rental_uris":{"android":"levelo://app?vid=933271ee-c87c-49ba-af4e-414a76ba1f14","ios":"levelo://app?vid=933271ee-c87c-49ba-af4e-414a76ba1f14"},"vehicle_type_id":"4","last_reported":1730963299,"current_range_meters":9600,"station_id":"ce4bhph2rcd13ifvqhdg","pricing_plan_id":"cebpf4jnsgd1na2vs0mg"},{"bike_id":"f55f0c98-2549-445c-b383-54cea0fda68e","system_id":"levelo_inurba_marseille","lat":43.29623,"lon":5.37723,"is_reserved":false,"is_disabled":false,"rental_uris":{"android":"levelo://app?vid=f55f0c98-2549-445c-b383-54cea0fda68e","ios":"levelo://app?vid=f55f0c98-2549-445c-b383-54cea0fda68e"},"vehicle_type_id":"4","last_reported":1730963299,"current_range_meters":30800,"station_id":"ce4bgi92rcd13ifvqb90","pricing_plan_id":"cebpf4jnsgd1na2vs0mg"},{"bike_id":"66cadc2f-87dc-4b78-bb91-c6d6eee1cfce","system_id":"levelo_inurba_marseille","lat":43.30126,"lon":5.39867,"is_reserved":false,"is_disabled":false,"rental_uris":{"android":"levelo://app?vid=66cadc2f-87dc-4b78-bb91-c6d6eee1cfce","ios":"levelo://app?vid=66cadc2f-87dc-4b78-bb91-c6d6eee1cfce"},"vehicle_type_id":"4","last_reported":1730963299,"current_range_meters":14400,"station_id":"ce4bh0h2rcd13ifvqd40","pricing_plan_id":"cebpf4jnsgd1na2vs0mg"},{"bike_id":"4586eee4-c5dc-4955-a2ed-387cfd203fdd","system_id":"levelo_inurba_marseille","lat":43.2667,"lon":5.40289,"is_reserved":false,"is_disabled":false,"rental_uris":{"android":"levelo://app?vid=4586eee4-c5dc-4955-a2ed-387cfd203fdd","ios":"levelo://app?vid=4586eee4-c5dc-4955-a2ed-387cfd203fdd"},"vehicle_type_id":"4","last_reported":1730963299,"current_range_meters":17200,"station_id":"","pricing_plan_id":"cebpf4jnsgd1na2vs0mg"},{"bike_id":"12f43057-c73c-4bbf-a5b5-882bbc351d02","system_id":"levelo_inurba_marseille","lat":43.24073,"lon":5.37758,"is_reserved":false,"is_disabled":false,"rental_uris":{"android":"levelo://app?vid=12f43057-c73c-4bbf-a5b5-882bbc351d02","ios":"levelo://app?vid=12f43057-c73c-4bbf-a5b5-882bbc351d02"},"vehicle_type_id":"4","last_reported":1730963299,"current_range_meters":28800,"station_id":"ce4bhnp2rcd13ifvqgvg","pricing_plan_id":"cebpf4jnsgd1na2vs0mg"},{"bike_id":"057607b0-118a-40fc-bfa8-79b5a80627be","system_id":"levelo_inurba_marseille","lat":43.29891,"lon":5.38154,"is_reserved":false,"is_disabled":false,"rental_uris":{"android":"levelo://app?vid=057607b0-118a-40fc-bfa8-79b5a80627be","ios":"levelo://app?vid=057607b0-118a-40fc-bfa8-79b5a80627be"},"vehicle_type_id":"4","last_reported":1730963299,"current_range_meters":20400,"station_id":"ce4bgj12rcd13ifvqbc0","pricing_plan_id":"cebpf4jnsgd1na2vs0mg"},{"bike_id":"30c028cc-3202-4139-8a9b-650c2082f5ac","system_id":"levelo_inurba_marseille","lat":43.28348,"lon":5.38105,"is_reserved":false,"is_disabled":false,"rental_uris":{"android":"levelo://app?vid=30c028cc-3202-4139-8a9b-650c2082f5ac","ios":"levelo://app?vid=30c028cc-3202-4139-8a9b-650c2082f5ac"},"vehicle_type_id":"4","last_reported":1730963299,"current_range_meters":20800,"station_id":"ce4bh412rcd13ifvqdr0","pricing_plan_id":"cebpf4jnsgd1na2vs0mg"},{"bike_id":"fa0b7a65-cee1-4d2a-a04c-01c31bf50672","system_id":"levelo_inurba_marseille","lat":43.241669,"lon":5.363918,"is_reserved":false,"is_disabled":false,"rental_uris":{"android":"levelo://app?vid=fa0b7a65-cee1-4d2a-a04c-01c31bf50672","ios":"levelo://app?vid=fa0b7a65-cee1-4d2a-a04c-01c31bf50672"},"vehicle_type_id":"4","last_reported":1730963299,"current_range_meters":30400,"station_id":"cpo36qri1sfpv3e86is0","pricing_plan_id":"cebpf4jnsgd1na2vs0mg"},{"bike_id":"6d39b78b-f75d-457f-82c4-bed17651dc53","system_id":"levelo_inurba_marseille","lat":43.30462,"lon":5.37913,"is_reserved":false,"is_disabled":false,"rental_uris":{"android":"levelo://app?vid=6d39b78b-f75d-457f-82c4-bed17651dc53","ios":"levelo://app?vid=6d39b78b-f75d-457f-82c4-bed17651dc53"},"vehicle_type_id":"4","last_reported":1730963299,"current_range_meters":20800,"station_id":"ce4bgup2rcd13ifvqcn0","pricing_plan_id":"cebpf4jnsgd1na2vs0mg"},{"bike_id":"836697de-ac3b-4edb-8d4d-c21d55bd1edf","system_id":"levelo_inurba_marseille","lat":43.24541,"lon":5.39524,"is_reserved":false,"is_disabled":false,"rental_uris":{"android":"levelo://app?vid=836697de-ac3b-4edb-8d4d-c21d55bd1edf","ios":"levelo://app?vid=836697de-ac3b-4edb-8d4d-c21d55bd1edf"},"vehicle_type_id":"4","last_reported":1730963299,"current_range_meters":18800,"station_id":"ce4bhlp2rcd13ifvqgjg","pricing_plan_id":"cebpf4jnsgd1na2vs0mg"},{"bike_id":"2cf471a0-6b36-4655-beec-9a8ec9fa65d0","system_id":"levelo_inurba_marseille","lat":43.29029,"lon":5.3996,"is_reserved":false,"is_disabled":false,"rental_uris":{"android":"levelo://app?vid=2cf471a0-6b36-4655-beec-9a8ec9fa65d0","ios":"levelo://app?vid=2cf471a0-6b36-4655-beec-9a8ec9fa65d0"},"vehicle_type_id":"4","last_reported":1730963299,"current_range_meters":31200,"station_id":"ce4bh392rcd13ifvqdm0","pricing_plan_id":"cebpf4jnsgd1na2vs0mg"},{"bike_id":"66f19576-170e-4bdc-8ddf-aa1c58792fe4","system_id":"levelo_inurba_marseille","lat":43.306395,"lon":5.400936,"is_reserved":false,"is_disabled":false,"rental_uris":{"android":"levelo://app?vid=66f19576-170e-4bdc-8ddf-aa1c58792fe4","ios":"levelo://app?vid=66f19576-170e-4bdc-8ddf-aa1c58792fe4"},"vehicle_type_id":"4","last_reported":1730963299,"current_range_meters":37600,"station_id":"ce4bh112rcd13ifvqda0","pricing_plan_id":"cebpf4jnsgd1na2vs0mg"},{"bike_id":"5f71bbbc-b440-48b7-a743-bb6bda19f0ba","system_id":"levelo_inurba_marseille","lat":43.27494,"lon":5.42457,"is_reserved":false,"is_disabled":false,"rental_uris":{"android":"levelo://app?vid=5f71bbbc-b440-48b7-a743-bb6bda19f0ba","ios":"levelo://app?vid=5f71bbbc-b440-48b7-a743-bb6bda19f0ba"},"vehicle_type_id":"4","last_reported":1730963299,"current_range_meters":12000,"station_id":"ce4bhn92rcd13ifvqgrg","pricing_plan_id":"cebpf4jnsgd1na2vs0mg"},{"bike_id":"f213d2df-9c93-4348-930e-c905d6e760da","system_id":"levelo_inurba_marseille","lat":43.31484,"lon":5.37292,"is_reserved":false,"is_disabled":false,"rental_uris":{"android":"levelo://app?vid=f213d2df-9c93-4348-930e-c905d6e760da","ios":"levelo://app?vid=f213d2df-9c93-4348-930e-c905d6e760da"},"vehicle_type_id":"4","last_reported":1730963299,"current_range_meters":39200,"station_id":"ce4bgt12rcd13ifvqcd0","pricing_plan_id":"cebpf4jnsgd1na2vs0mg"},{"bike_id":"c6727440-35b6-4afa-af66-8fd477ed4457","system_id":"levelo_inurba_marseille","lat":43.28355,"lon":5.38109,"is_reserved":false,"is_disabled":false,"rental_uris":{"android":"levelo://app?vid=c6727440-35b6-4afa-af66-8fd477ed4457","ios":"levelo://app?vid=c6727440-35b6-4afa-af66-8fd477ed4457"},"vehicle_type_id":"4","last_reported":1730963299,"current_range_meters":38800,"station_id":"ce4bh412rcd13ifvqdr0","pricing_plan_id":"cebpf4jnsgd1na2vs0mg"},{"bike_id":"317e22fd-8472-4da8-8656-66e026a126d6","system_id":"levelo_inurba_marseille","lat":43.231842,"lon":5.399884,"is_reserved":false,"is_disabled":false,"rental_uris":{"android":"levelo://app?vid=317e22fd-8472-4da8-8656-66e026a126d6","ios":"levelo://app?vid=317e22fd-8472-4da8-8656-66e026a126d6"},"vehicle_type_id":"4","last_reported":1730963299,"current_range_meters":36000,"station_id":"ce4bhnp2rcd13ifvqgvg","pricing_plan_id":"cebpf4jnsgd1na2vs0mg"},{"bike_id":"7a83cd4c-23ba-4123-9cfc-59c61dd6b8bd","system_id":"levelo_inurba_marseille","lat":43.29794,"lon":5.38105,"is_reserved":false,"is_disabled":false,"rental_uris":{"android":"levelo://app?vid=7a83cd4c-23ba-4123-9cfc-59c61dd6b8bd","ios":"levelo://app?vid=7a83cd4c-23ba-4123-9cfc-59c61dd6b8bd"},"vehicle_type_id":"4","last_reported":1730963299,"current_range_meters":36800,"station_id":"ce4bgip2rcd13ifvqbb0","pricing_plan_id":"cebpf4jnsgd1na2vs0mg"},{"bike_id":"a0db1695-32d8-4d9c-9829-ab1da773a69e","system_id":"levelo_inurba_marseille","lat":43.301429,"lon":5.398736,"is_reserved":false,"is_disabled":false,"rental_uris":{"android":"levelo://app?vid=a0db1695-32d8-4d9c-9829-ab1da773a69e","ios":"levelo://app?vid=a0db1695-32d8-4d9c-9829-ab1da773a69e"},"vehicle_type_id":"4","last_reported":1730963299,"current_range_meters":34000,"station_id":"ce4bh0h2rcd13ifvqd40","pricing_plan_id":"cebpf4jnsgd1na2vs0mg"},{"bike_id":"98e4f743-fc71-4c1a-966c-70daa7951023","system_id":"levelo_inurba_marseille","lat":43.29631,"lon":5.40595,"is_reserved":false,"is_disabled":false,"rental_uris":{"android":"levelo://app?vid=98e4f743-fc71-4c1a-966c-70daa7951023","ios":"levelo://app?vid=98e4f743-fc71-4c1a-966c-70daa7951023"},"vehicle_type_id":"4","last_reported":1730963299,"current_range_meters":37600,"station_id":"ce4bh0h2rcd13ifvqd60","pricing_plan_id":"cebpf4jnsgd1na2vs0mg"},{"bike_id":"73ddab19-f3bf-49d8-9a14-da51e0ed8f6c","system_id":"levelo_inurba_marseille","lat":43.23152,"lon":5.43716,"is_reserved":false,"is_disabled":false,"rental_uris":{"android":"levelo://app?vid=73ddab19-f3bf-49d8-9a14-da51e0ed8f6c","ios":"levelo://app?vid=73ddab19-f3bf-49d8-9a14-da51e0ed8f6c"},"vehicle_type_id":"4","last_reported":1730963299,"current_range_meters":34800,"station_id":"ce4bhmp2rcd13ifvqgog","pricing_plan_id":"cebpf4jnsgd1na2vs0mg"},{"bike_id":"d1eef8ed-8492-4f33-b593-cbb9c4965d77","system_id":"levelo_inurba_marseille","lat":43.274865,"lon":5.424495,"is_reserved":false,"is_disabled":false,"rental_uris":{"android":"levelo://app?vid=d1eef8ed-8492-4f33-b593-cbb9c4965d77","ios":"levelo://app?vid=d1eef8ed-8492-4f33-b593-cbb9c4965d77"},"vehicle_type_id":"4","last_reported":1730963299,"current_range_meters":32000,"station_id":"ce4bhn92rcd13ifvqgrg","pricing_plan_id":"cebpf4jnsgd1na2vs0mg"},{"bike_id":"916c1227-a089-47f0-b184-7006a96e3a45","system_id":"levelo_inurba_marseille","lat":43.28927,"lon":5.36381,"is_reserved":false,"is_disabled":false,"rental_uris":{"android":"levelo://app?vid=916c1227-a089-47f0-b184-7006a96e3a45","ios":"levelo://app?vid=916c1227-a089-47f0-b184-7006a96e3a45"},"vehicle_type_id":"4","last_reported":1730963299,"current_range_meters":16400,"station_id":"ce4bhc92rcd13ifvqetg","pricing_plan_id":"cebpf4jnsgd1na2vs0mg"},{"bike_id":"b3cfe5b9-3e84-4f44-9e4e-ba4fa07f2071","system_id":"levelo_inurba_marseille","lat":43.24071,"lon":5.37762,"is_reserved":false,"is_disabled":false,"rental_uris":{"android":"levelo://app?vid=b3cfe5b9-3e84-4f44-9e4e-ba4fa07f2071","ios":"levelo://app?vid=b3cfe5b9-3e84-4f44-9e4e-ba4fa07f2071"},"vehicle_type_id":"4","last_reported":1730963299,"current_range_meters":37600,"station_id":"ce4bhnp2rcd13ifvqgvg","pricing_plan_id":"cebpf4jnsgd1na2vs0mg"},{"bike_id":"56fd86e1-addf-4a40-9b55-99e8651e81ab","system_id":"levelo_inurba_marseille","lat":43.30196,"lon":5.4377,"is_reserved":false,"is_disabled":false,"rental_uris":{"android":"levelo://app?vid=56fd86e1-addf-4a40-9b55-99e8651e81ab","ios":"levelo://app?vid=56fd86e1-addf-4a40-9b55-99e8651e81ab"},"vehicle_type_id":"4","last_reported":1730963299,"current_range_meters":12400,"station_id":"ce4bhop2rcd13ifvqh7g","pricing_plan_id":"cebpf4jnsgd1na2vs0mg"},{"bike_id":"6648ef17-3082-4729-9252-7b0bafb502be","system_id":"levelo_inurba_marseille","lat":43.23191,"lon":5.35556,"is_reserved":false,"is_disabled":false,"rental_uris":{"android":"levelo://app?vid=6648ef17-3082-4729-9252-7b0bafb502be","ios":"levelo://app?vid=6648ef17-3082-4729-9252-7b0bafb502be"},"vehicle_type_id":"4","last_reported":1730963299,"current_range_meters":39200,"station_id":"ce4bhu92rcd13ifvqi70","pricing_plan_id":"cebpf4jnsgd1na2vs0mg"},{"bike_id":"19645b45-8dc5-44dd-9eea-afb63875c101","system_id":"levelo_inurba_marseille","lat":43.31656,"lon":5.37786,"is_reserved":false,"is_disabled":false,"rental_uris":{"android":"levelo://app?vid=19645b45-8dc5-44dd-9eea-afb63875c101","ios":"levelo://app?vid=19645b45-8dc5-44dd-9eea-afb63875c101"},"vehicle_type_id":"4","last_reported":1730963299,"current_range_meters":11200,"station_id":"","pricing_plan_id":"cebpf4jnsgd1na2vs0mg"},{"bike_id":"ee687a72-7b1a-4ae4-a14e-458bcfdf26fa","system_id":"levelo_inurba_marseille","lat":43.288896,"lon":5.392895,"is_reserved":false,"is_disabled":false,"rental_uris":{"android":"levelo://app?vid=ee687a72-7b1a-4ae4-a14e-458bcfdf26fa","ios":"levelo://app?vid=ee687a72-7b1a-4ae4-a14e-458bcfdf26fa"},"vehicle_type_id":"4","last_reported":1730963299,"current_range_meters":8000,"station_id":"ce4bh2p2rcd13ifvqdi0","pricing_plan_id":"cebpf4jnsgd1na2vs0mg"},{"bike_id":"605d4e9e-fbdb-4b92-83ae-fd538c3fa3db","system_id":"levelo_inurba_marseille","lat":43.24073,"lon":5.37758,"is_reserved":false,"is_disabled":false,"rental_uris":{"android":"levelo://app?vid=605d4e9e-fbdb-4b92-83ae-fd538c3fa3db","ios":"levelo://app?vid=605d4e9e-fbdb-4b92-83ae-fd538c3fa3db"},"vehicle_type_id":"4","last_reported":1730963299,"current_range_meters":14800,"station_id":"ce4bhnp2rcd13ifvqgvg","pricing_plan_id":"cebpf4jnsgd1na2vs0mg"},{"bike_id":"b6658a98-6f83-4f5a-8cca-9ddffa328bd2","system_id":"levelo_inurba_marseille","lat":43.29509,"lon":5.375,"is_reserved":false,"is_disabled":false,"rental_uris":{"android":"levelo://app?vid=b6658a98-6f83-4f5a-8cca-9ddffa328bd2","ios":"levelo://app?vid=b6658a98-6f83-4f5a-8cca-9ddffa328bd2"},"vehicle_type_id":"4","last_reported":1730963299,"current_range_meters":26000,"station_id":"ce4bgkp2rcd13ifvqbmg","pricing_plan_id":"cebpf4jnsgd1na2vs0mg"},{"bike_id":"deaf0c78-2653-47a3-a84b-1a36720bb08e","system_id":"levelo_inurba_marseille","lat":43.28613,"lon":5.37064,"is_reserved":false,"is_disabled":false,"rental_uris":{"android":"levelo://app?vid=deaf0c78-2653-47a3-a84b-1a36720bb08e","ios":"levelo://app?vid=deaf0c78-2653-47a3-a84b-1a36720bb08e"},"vehicle_type_id":"4","last_reported":1730963299,"current_range_meters":35200,"station_id":"ce4bht12rcd13ifvqi60","pricing_plan_id":"cebpf4jnsgd1na2vs0mg"},{"bike_id":"c5b7820d-78fe-4750-89b8-a0efef8e5b8b","system_id":"levelo_inurba_marseille","lat":43.24668,"lon":5.3815,"is_reserved":false,"is_disabled":false,"rental_uris":{"android":"levelo://app?vid=c5b7820d-78fe-4750-89b8-a0efef8e5b8b","ios":"levelo://app?vid=c5b7820d-78fe-4750-89b8-a0efef8e5b8b"},"vehicle_type_id":"4","last_reported":1730963299,"current_range_meters":24000,"station_id":"ce4bhih2rcd13ifvqfr0","pricing_plan_id":"cebpf4jnsgd1na2vs0mg"},{"bike_id":"44fcf395-545c-4374-bb35-4ab3d378aa17","system_id":"levelo_inurba_marseille","lat":43.31072,"lon":5.38352,"is_reserved":false,"is_disabled":false,"rental_uris":{"android":"levelo://app?vid=44fcf395-545c-4374-bb35-4ab3d378aa17","ios":"levelo://app?vid=44fcf395-545c-4374-bb35-4ab3d378aa17"},"vehicle_type_id":"4","last_reported":1730963299,"current_range_meters":37600,"station_id":"ce4bgv92rcd13ifvqcr0","pricing_plan_id":"cebpf4jnsgd1na2vs0mg"},{"bike_id":"310b3dc2-7d0c-45e8-8fb4-4e8c2ad193e8","system_id":"levelo_inurba_marseille","lat":43.28932,"lon":5.39627,"is_reserved":false,"is_disabled":false,"rental_uris":{"android":"levelo://app?vid=310b3dc2-7d0c-45e8-8fb4-4e8c2ad193e8","ios":"levelo://app?vid=310b3dc2-7d0c-45e8-8fb4-4e8c2ad193e8"},"vehicle_type_id":"4","last_reported":1730963299,"current_range_meters":14000,"station_id":"ce4bh3h2rcd13ifvqdn0","pricing_plan_id":"cebpf4jnsgd1na2vs0mg"},{"bike_id":"77cbd3d7-f87c-41c7-9ee2-ce007afab03c","system_id":"levelo_inurba_marseille","lat":43.31086,"lon":5.42446,"is_reserved":false,"is_disabled":false,"rental_uris":{"android":"levelo://app?vid=77cbd3d7-f87c-41c7-9ee2-ce007afab03c","ios":"levelo://app?vid=77cbd3d7-f87c-41c7-9ee2-ce007afab03c"},"vehicle_type_id":"4","last_reported":1730963299,"current_range_meters":28400,"station_id":"ce4bhp92rcd13ifvqhag","pricing_plan_id":"cebpf4jnsgd1na2vs0mg"},{"bike_id":"b0a90dc9-62f4-4afc-a7f7-e2037fc95ad6","system_id":"levelo_inurba_marseille","lat":43.27493,"lon":5.42452,"is_reserved":false,"is_disabled":false,"rental_uris":{"android":"levelo://app?vid=b0a90dc9-62f4-4afc-a7f7-e2037fc95ad6","ios":"levelo://app?vid=b0a90dc9-62f4-4afc-a7f7-e2037fc95ad6"},"vehicle_type_id":"4","last_reported":1730963299,"current_range_meters":6400,"station_id":"ce4bhn92rcd13ifvqgrg","pricing_plan_id":"cebpf4jnsgd1na2vs0mg"},{"bike_id":"f91947fc-1f75-4590-87c4-6ad3aab5b8a0","system_id":"levelo_inurba_marseille","lat":43.29098,"lon":5.38116,"is_reserved":false,"is_disabled":false,"rental_uris":{"android":"levelo://app?vid=f91947fc-1f75-4590-87c4-6ad3aab5b8a0","ios":"levelo://app?vid=f91947fc-1f75-4590-87c4-6ad3aab5b8a0"},"vehicle_type_id":"4","last_reported":1730963299,"current_range_meters":38800,"station_id":"ce4bh512rcd13ifvqe2g","pricing_plan_id":"cebpf4jnsgd1na2vs0mg"},{"bike_id":"1f605dcf-489a-46c5-8ec0-74217c529382","system_id":"levelo_inurba_marseille","lat":43.24391,"lon":5.37053,"is_reserved":false,"is_disabled":false,"rental_uris":{"android":"levelo://app?vid=1f605dcf-489a-46c5-8ec0-74217c529382","ios":"levelo://app?vid=1f605dcf-489a-46c5-8ec0-74217c529382"},"vehicle_type_id":"4","last_reported":1730963299,"current_range_meters":9200,"station_id":"ce4bhhh2rcd13ifvqfk0","pricing_plan_id":"cebpf4jnsgd1na2vs0mg"},{"bike_id":"65a46825-f6b3-454c-9386-31aaccfa400f","system_id":"levelo_inurba_marseille","lat":43.25725,"lon":5.41106,"is_reserved":false,"is_disabled":false,"rental_uris":{"android":"levelo://app?vid=65a46825-f6b3-454c-9386-31aaccfa400f","ios":"levelo://app?vid=65a46825-f6b3-454c-9386-31aaccfa400f"},"vehicle_type_id":"4","last_reported":1730963299,"current_range_meters":20800,"station_id":"ce4bhkp2rcd13ifvqgd0","pricing_plan_id":"cebpf4jnsgd1na2vs0mg"},{"bike_id":"ee4e2628-0066-4f92-9883-aac3787b9751","system_id":"levelo_inurba_marseille","lat":43.30781,"lon":5.37655,"is_reserved":false,"is_disabled":false,"rental_uris":{"android":"levelo://app?vid=ee4e2628-0066-4f92-9883-aac3787b9751","ios":"levelo://app?vid=ee4e2628-0066-4f92-9883-aac3787b9751"},"vehicle_type_id":"4","last_reported":1730963299,"current_range_meters":38800,"station_id":"ce4bgv92rcd13ifvqcq0","pricing_plan_id":"cebpf4jnsgd1na2vs0mg"},{"bike_id":"9094defa-3c48-47d1-864e-b8ee2f1f0d2c","system_id":"levelo_inurba_marseille","lat":43.23195,"lon":5.35543,"is_reserved":false,"is_disabled":false,"rental_uris":{"android":"levelo://app?vid=9094defa-3c48-47d1-864e-b8ee2f1f0d2c","ios":"levelo://app?vid=9094defa-3c48-47d1-864e-b8ee2f1f0d2c"},"vehicle_type_id":"4","last_reported":1730963299,"current_range_meters":12000,"station_id":"ce4bhu92rcd13ifvqi70","pricing_plan_id":"cebpf4jnsgd1na2vs0mg"},{"bike_id":"138edf40-8b55-4b5b-8ebd-2a9cd72069a9","system_id":"levelo_inurba_marseille","lat":43.24678,"lon":5.38155,"is_reserved":false,"is_disabled":false,"rental_uris":{"android":"levelo://app?vid=138edf40-8b55-4b5b-8ebd-2a9cd72069a9","ios":"levelo://app?vid=138edf40-8b55-4b5b-8ebd-2a9cd72069a9"},"vehicle_type_id":"4","last_reported":1730963299,"current_range_meters":12000,"station_id":"ce4bhih2rcd13ifvqfr0","pricing_plan_id":"cebpf4jnsgd1na2vs0mg"},{"bike_id":"5e66ed1f-1941-4126-8356-0561f9da9461","system_id":"levelo_inurba_marseille","lat":43.27487,"lon":5.42456,"is_reserved":false,"is_disabled":false,"rental_uris":{"android":"levelo://app?vid=5e66ed1f-1941-4126-8356-0561f9da9461","ios":"levelo://app?vid=5e66ed1f-1941-4126-8356-0561f9da9461"},"vehicle_type_id":"4","last_reported":1730963299,"current_range_meters":25200,"station_id":"ce4bhn92rcd13ifvqgrg","pricing_plan_id":"cebpf4jnsgd1na2vs0mg"},{"bike_id":"2133dfbe-49e8-4189-a0e7-2637129ed1cc","system_id":"levelo_inurba_marseille","lat":43.30152,"lon":5.38083,"is_reserved":false,"is_disabled":false,"rental_uris":{"android":"levelo://app?vid=2133dfbe-49e8-4189-a0e7-2637129ed1cc","ios":"levelo://app?vid=2133dfbe-49e8-4189-a0e7-2637129ed1cc"},"vehicle_type_id":"4","last_reported":1730963299,"current_range_meters":15200,"station_id":"ce4bgjp2rcd13ifvqbh0","pricing_plan_id":"cebpf4jnsgd1na2vs0mg"},{"bike_id":"cde33d01-4fdf-4588-9993-50576e545d63","system_id":"levelo_inurba_marseille","lat":43.299,"lon":5.4367,"is_reserved":false,"is_disabled":false,"rental_uris":{"android":"levelo://app?vid=cde33d01-4fdf-4588-9993-50576e545d63","ios":"levelo://app?vid=cde33d01-4fdf-4588-9993-50576e545d63"},"vehicle_type_id":"4","last_reported":1730963299,"current_range_meters":35200,"station_id":"ce4bhpp2rcd13ifvqhfg","pricing_plan_id":"cebpf4jnsgd1na2vs0mg"},{"bike_id":"5bd69e96-0bbb-4df2-bb8d-f6c4304e78d5","system_id":"levelo_inurba_marseille","lat":43.30211,"lon":5.39466,"is_reserved":false,"is_disabled":false,"rental_uris":{"android":"levelo://app?vid=5bd69e96-0bbb-4df2-bb8d-f6c4304e78d5","ios":"levelo://app?vid=5bd69e96-0bbb-4df2-bb8d-f6c4304e78d5"},"vehicle_type_id":"4","last_reported":1730963299,"current_range_meters":7200,"station_id":"ce4bh0p2rcd13ifvqd70","pricing_plan_id":"cebpf4jnsgd1na2vs0mg"},{"bike_id":"5d12a22f-fcb6-4b7e-9573-e76f1f41893b","system_id":"levelo_inurba_marseille","lat":43.29789,"lon":5.38115,"is_reserved":false,"is_disabled":false,"rental_uris":{"android":"levelo://app?vid=5d12a22f-fcb6-4b7e-9573-e76f1f41893b","ios":"levelo://app?vid=5d12a22f-fcb6-4b7e-9573-e76f1f41893b"},"vehicle_type_id":"4","last_reported":1730963299,"current_range_meters":38800,"station_id":"ce4bgip2rcd13ifvqbb0","pricing_plan_id":"cebpf4jnsgd1na2vs0mg"},{"bike_id":"d442268a-596d-4e91-9f32-376475084e28","system_id":"levelo_inurba_marseille","lat":43.258588,"lon":5.398937,"is_reserved":false,"is_disabled":false,"rental_uris":{"android":"levelo://app?vid=d442268a-596d-4e91-9f32-376475084e28","ios":"levelo://app?vid=d442268a-596d-4e91-9f32-376475084e28"},"vehicle_type_id":"4","last_reported":1730963299,"current_range_meters":35600,"station_id":"ce4bhl92rcd13ifvqghg","pricing_plan_id":"cebpf4jnsgd1na2vs0mg"},{"bike_id":"34634ce2-f8c9-4afd-9d91-a815c55201fd","system_id":"levelo_inurba_marseille","lat":43.28419,"lon":5.40933,"is_reserved":false,"is_disabled":false,"rental_uris":{"android":"levelo://app?vid=34634ce2-f8c9-4afd-9d91-a815c55201fd","ios":"levelo://app?vid=34634ce2-f8c9-4afd-9d91-a815c55201fd"},"vehicle_type_id":"4","last_reported":1730963299,"current_range_meters":26800,"station_id":"","pricing_plan_id":"cebpf4jnsgd1na2vs0mg"},{"bike_id":"5eed7c4f-166a-423f-b11f-87a3edace396","system_id":"levelo_inurba_marseille","lat":43.25939,"lon":5.40903,"is_reserved":false,"is_disabled":false,"rental_uris":{"android":"levelo://app?vid=5eed7c4f-166a-423f-b11f-87a3edace396","ios":"levelo://app?vid=5eed7c4f-166a-423f-b11f-87a3edace396"},"vehicle_type_id":"4","last_reported":1730963299,"current_range_meters":12800,"station_id":"ce4bhm92rcd13ifvqglg","pricing_plan_id":"cebpf4jnsgd1na2vs0mg"},{"bike_id":"89366d32-f18f-41cc-add5-a8ca219fef86","system_id":"levelo_inurba_marseille","lat":43.28713,"lon":5.3608,"is_reserved":false,"is_disabled":false,"rental_uris":{"android":"levelo://app?vid=89366d32-f18f-41cc-add5-a8ca219fef86","ios":"levelo://app?vid=89366d32-f18f-41cc-add5-a8ca219fef86"},"vehicle_type_id":"4","last_reported":1730963299,"current_range_meters":38000,"station_id":"cki0cbj6b192h4jlfktg","pricing_plan_id":"cebpf4jnsgd1na2vs0mg"},{"bike_id":"4d5c7a22-d19c-4236-a779-a4172c7a5d21","system_id":"levelo_inurba_marseille","lat":43.28927,"lon":5.36629,"is_reserved":false,"is_disabled":false,"rental_uris":{"android":"levelo://app?vid=4d5c7a22-d19c-4236-a779-a4172c7a5d21","ios":"levelo://app?vid=4d5c7a22-d19c-4236-a779-a4172c7a5d21"},"vehicle_type_id":"4","last_reported":1730963299,"current_range_meters":6400,"station_id":"ce4bhap2rcd13ifvqek0","pricing_plan_id":"cebpf4jnsgd1na2vs0mg"},{"bike_id":"c8fe4e30-b3c6-483e-8cac-a69280835fbc","system_id":"levelo_inurba_marseille","lat":43.29203,"lon":5.39315,"is_reserved":false,"is_disabled":false,"rental_uris":{"android":"levelo://app?vid=c8fe4e30-b3c6-483e-8cac-a69280835fbc","ios":"levelo://app?vid=c8fe4e30-b3c6-483e-8cac-a69280835fbc"},"vehicle_type_id":"4","last_reported":1730963299,"current_range_meters":31200,"station_id":"ce4bh192rcd13ifvqdd0","pricing_plan_id":"cebpf4jnsgd1na2vs0mg"},{"bike_id":"5174ae6b-73b7-4eb9-b82e-9c61c1f78ce8","system_id":"levelo_inurba_marseille","lat":43.31233,"lon":5.40612,"is_reserved":false,"is_disabled":false,"rental_uris":{"android":"levelo://app?vid=5174ae6b-73b7-4eb9-b82e-9c61c1f78ce8","ios":"levelo://app?vid=5174ae6b-73b7-4eb9-b82e-9c61c1f78ce8"},"vehicle_type_id":"4","last_reported":1730963299,"current_range_meters":18000,"station_id":"","pricing_plan_id":"cebpf4jnsgd1na2vs0mg"},{"bike_id":"dfc57c68-6159-4eed-8ead-767ef843bf95","system_id":"levelo_inurba_marseille","lat":43.28864,"lon":5.35842,"is_reserved":false,"is_disabled":false,"rental_uris":{"android":"levelo://app?vid=dfc57c68-6159-4eed-8ead-767ef843bf95","ios":"levelo://app?vid=dfc57c68-6159-4eed-8ead-767ef843bf95"},"vehicle_type_id":"4","last_reported":1730963299,"current_range_meters":38400,"station_id":"ce4bhb12rcd13ifvqem0","pricing_plan_id":"cebpf4jnsgd1na2vs0mg"},{"bike_id":"17167fb9-dfb7-41e0-a5b1-f040d614e7ff","system_id":"levelo_inurba_marseille","lat":43.30586,"lon":5.39355,"is_reserved":false,"is_disabled":false,"rental_uris":{"android":"levelo://app?vid=17167fb9-dfb7-41e0-a5b1-f040d614e7ff","ios":"levelo://app?vid=17167fb9-dfb7-41e0-a5b1-f040d614e7ff"},"vehicle_type_id":"4","last_reported":1730963299,"current_range_meters":36000,"station_id":"ce4bh0p2rcd13ifvqd80","pricing_plan_id":"cebpf4jnsgd1na2vs0mg"},{"bike_id":"6c6067c7-81ca-4cfd-98d1-3c4aa468815b","system_id":"levelo_inurba_marseille","lat":43.31754,"lon":5.39025,"is_reserved":false,"is_disabled":false,"rental_uris":{"android":"levelo://app?vid=6c6067c7-81ca-4cfd-98d1-3c4aa468815b","ios":"levelo://app?vid=6c6067c7-81ca-4cfd-98d1-3c4aa468815b"},"vehicle_type_id":"4","last_reported":1730963299,"current_range_meters":38400,"station_id":"ce4bhqp2rcd13ifvqhng","pricing_plan_id":"cebpf4jnsgd1na2vs0mg"},{"bike_id":"9c6afc33-ad2d-4d82-9acf-8c53e02a8636","system_id":"levelo_inurba_marseille","lat":43.31516,"lon":5.38956,"is_reserved":false,"is_disabled":false,"rental_uris":{"android":"levelo://app?vid=9c6afc33-ad2d-4d82-9acf-8c53e02a8636","ios":"levelo://app?vid=9c6afc33-ad2d-4d82-9acf-8c53e02a8636"},"vehicle_type_id":"4","last_reported":1730963299,"current_range_meters":38400,"station_id":"","pricing_plan_id":"cebpf4jnsgd1na2vs0mg"},{"bike_id":"8eb0faab-14ad-4fa3-8f15-fe60f5bf7bd4","system_id":"levelo_inurba_marseille","lat":43.30462,"lon":5.3791,"is_reserved":false,"is_disabled":false,"rental_uris":{"android":"levelo://app?vid=8eb0faab-14ad-4fa3-8f15-fe60f5bf7bd4","ios":"levelo://app?vid=8eb0faab-14ad-4fa3-8f15-fe60f5bf7bd4"},"vehicle_type_id":"4","last_reported":1730963299,"current_range_meters":30000,"station_id":"ce4bgup2rcd13ifvqcn0","pricing_plan_id":"cebpf4jnsgd1na2vs0mg"},{"bike_id":"999a8cc1-ec7c-4f47-86af-2948501d1efc","system_id":"levelo_inurba_marseille","lat":43.25198,"lon":5.39467,"is_reserved":false,"is_disabled":false,"rental_uris":{"android":"levelo://app?vid=999a8cc1-ec7c-4f47-86af-2948501d1efc","ios":"levelo://app?vid=999a8cc1-ec7c-4f47-86af-2948501d1efc"},"vehicle_type_id":"4","last_reported":1730963299,"current_range_meters":11600,"station_id":"ce4bhm12rcd13ifvqgkg","pricing_plan_id":"cebpf4jnsgd1na2vs0mg"},{"bike_id":"76733292-6685-4127-a6aa-dc0a61b373d8","system_id":"levelo_inurba_marseille","lat":43.23155,"lon":5.43713,"is_reserved":false,"is_disabled":false,"rental_uris":{"android":"levelo://app?vid=76733292-6685-4127-a6aa-dc0a61b373d8","ios":"levelo://app?vid=76733292-6685-4127-a6aa-dc0a61b373d8"},"vehicle_type_id":"4","last_reported":1730963299,"current_range_meters":38000,"station_id":"ce4bhmp2rcd13ifvqgog","pricing_plan_id":"cebpf4jnsgd1na2vs0mg"},{"bike_id":"0997e0f4-4290-4e2c-a3bf-253b7bbdd77f","system_id":"levelo_inurba_marseille","lat":43.32542,"lon":5.41422,"is_reserved":false,"is_disabled":false,"rental_uris":{"android":"levelo://app?vid=0997e0f4-4290-4e2c-a3bf-253b7bbdd77f","ios":"levelo://app?vid=0997e0f4-4290-4e2c-a3bf-253b7bbdd77f"},"vehicle_type_id":"4","last_reported":1730963299,"current_range_meters":39200,"station_id":"ce4bhq12rcd13ifvqhhg","pricing_plan_id":"cebpf4jnsgd1na2vs0mg"},{"bike_id":"4425573e-d73c-4468-ae36-c95cd2911915","system_id":"levelo_inurba_marseille","lat":43.30161,"lon":5.38074,"is_reserved":false,"is_disabled":false,"rental_uris":{"android":"levelo://app?vid=4425573e-d73c-4468-ae36-c95cd2911915","ios":"levelo://app?vid=4425573e-d73c-4468-ae36-c95cd2911915"},"vehicle_type_id":"4","last_reported":1730963299,"current_range_meters":32400,"station_id":"ce4bgjp2rcd13ifvqbh0","pricing_plan_id":"cebpf4jnsgd1na2vs0mg"},{"bike_id":"63bad226-bdd7-454b-930e-9c9faa16a96d","system_id":"levelo_inurba_marseille","lat":43.29805,"lon":5.38089,"is_reserved":false,"is_disabled":false,"rental_uris":{"android":"levelo://app?vid=63bad226-bdd7-454b-930e-9c9faa16a96d","ios":"levelo://app?vid=63bad226-bdd7-454b-930e-9c9faa16a96d"},"vehicle_type_id":"4","last_reported":1730963299,"current_range_meters":36800,"station_id":"ce4bgip2rcd13ifvqbb0","pricing_plan_id":"cebpf4jnsgd1na2vs0mg"},{"bike_id":"ee8a3550-0001-4fcc-bd31-4beeb6d76621","system_id":"levelo_inurba_marseille","lat":43.310738,"lon":5.383491,"is_reserved":false,"is_disabled":false,"rental_uris":{"android":"levelo://app?vid=ee8a3550-0001-4fcc-bd31-4beeb6d76621","ios":"levelo://app?vid=ee8a3550-0001-4fcc-bd31-4beeb6d76621"},"vehicle_type_id":"4","last_reported":1730963299,"current_range_meters":9600,"station_id":"ce4bgv92rcd13ifvqcr0","pricing_plan_id":"cebpf4jnsgd1na2vs0mg"},{"bike_id":"0cd17c10-d65a-4ac8-8ed6-24e276d755ed","system_id":"levelo_inurba_marseille","lat":43.24068,"lon":5.37762,"is_reserved":false,"is_disabled":false,"rental_uris":{"android":"levelo://app?vid=0cd17c10-d65a-4ac8-8ed6-24e276d755ed","ios":"levelo://app?vid=0cd17c10-d65a-4ac8-8ed6-24e276d755ed"},"vehicle_type_id":"4","last_reported":1730963299,"current_range_meters":22400,"station_id":"ce4bhnp2rcd13ifvqgvg","pricing_plan_id":"cebpf4jnsgd1na2vs0mg"},{"bike_id":"aa5beb3b-05aa-44a0-a596-0c657512b876","system_id":"levelo_inurba_marseille","lat":43.24675,"lon":5.38157,"is_reserved":false,"is_disabled":false,"rental_uris":{"android":"levelo://app?vid=aa5beb3b-05aa-44a0-a596-0c657512b876","ios":"levelo://app?vid=aa5beb3b-05aa-44a0-a596-0c657512b876"},"vehicle_type_id":"4","last_reported":1730963299,"current_range_meters":16400,"station_id":"ce4bhih2rcd13ifvqfr0","pricing_plan_id":"cebpf4jnsgd1na2vs0mg"},{"bike_id":"cd7e837a-d819-4233-bdd4-d5eee0f92772","system_id":"levelo_inurba_marseille","lat":43.260785,"lon":5.393813,"is_reserved":false,"is_disabled":false,"rental_uris":{"android":"levelo://app?vid=cd7e837a-d819-4233-bdd4-d5eee0f92772","ios":"levelo://app?vid=cd7e837a-d819-4233-bdd4-d5eee0f92772"},"vehicle_type_id":"4","last_reported":1730963299,"current_range_meters":38000,"station_id":"ce4bhh92rcd13ifvqfj0","pricing_plan_id":"cebpf4jnsgd1na2vs0mg"},{"bike_id":"c819360e-bead-4d00-96c1-0cc47dde28e3","system_id":"levelo_inurba_marseille","lat":43.29551,"lon":5.42283,"is_reserved":false,"is_disabled":false,"rental_uris":{"android":"levelo://app?vid=c819360e-bead-4d00-96c1-0cc47dde28e3","ios":"levelo://app?vid=c819360e-bead-4d00-96c1-0cc47dde28e3"},"vehicle_type_id":"4","last_reported":1730963299,"current_range_meters":38000,"station_id":"ce4bhph2rcd13ifvqhdg","pricing_plan_id":"cebpf4jnsgd1na2vs0mg"},{"bike_id":"ed9d7a87-b2a5-4493-8ad8-420f1b483592","system_id":"levelo_inurba_marseille","lat":43.3088,"lon":5.39639,"is_reserved":false,"is_disabled":false,"rental_uris":{"android":"levelo://app?vid=ed9d7a87-b2a5-4493-8ad8-420f1b483592","ios":"levelo://app?vid=ed9d7a87-b2a5-4493-8ad8-420f1b483592"},"vehicle_type_id":"4","last_reported":1730963299,"current_range_meters":39200,"station_id":"ce4bh012rcd13ifvqcv0","pricing_plan_id":"cebpf4jnsgd1na2vs0mg"},{"bike_id":"d1e30271-cd2c-4770-9843-e1d5713bd908","system_id":"levelo_inurba_marseille","lat":43.29019,"lon":5.39973,"is_reserved":false,"is_disabled":false,"rental_uris":{"android":"levelo://app?vid=d1e30271-cd2c-4770-9843-e1d5713bd908","ios":"levelo://app?vid=d1e30271-cd2c-4770-9843-e1d5713bd908"},"vehicle_type_id":"4","last_reported":1730963299,"current_range_meters":35200,"station_id":"ce4bh392rcd13ifvqdm0","pricing_plan_id":"cebpf4jnsgd1na2vs0mg"},{"bike_id":"5b0f60c7-ef1f-4634-8bc2-02af8f6e9225","system_id":"levelo_inurba_marseille","lat":43.29546,"lon":5.42285,"is_reserved":false,"is_disabled":false,"rental_uris":{"android":"levelo://app?vid=5b0f60c7-ef1f-4634-8bc2-02af8f6e9225","ios":"levelo://app?vid=5b0f60c7-ef1f-4634-8bc2-02af8f6e9225"},"vehicle_type_id":"4","last_reported":1730963299,"current_range_meters":20800,"station_id":"ce4bhph2rcd13ifvqhdg","pricing_plan_id":"cebpf4jnsgd1na2vs0mg"},{"bike_id":"5ef60e84-94ba-479a-98e7-771430248b8c","system_id":"levelo_inurba_marseille","lat":43.29929,"lon":5.36553,"is_reserved":false,"is_disabled":false,"rental_uris":{"android":"levelo://app?vid=5ef60e84-94ba-479a-98e7-771430248b8c","ios":"levelo://app?vid=5ef60e84-94ba-479a-98e7-771430248b8c"},"vehicle_type_id":"4","last_reported":1730963299,"current_range_meters":7200,"station_id":"ce4bgm92rcd13ifvqbr0","pricing_plan_id":"cebpf4jnsgd1na2vs0mg"},{"bike_id":"786dca10-1e08-4efd-b3ba-972c6c8e8a40","system_id":"levelo_inurba_marseille","lat":43.28944,"lon":5.39615,"is_reserved":false,"is_disabled":false,"rental_uris":{"android":"levelo://app?vid=786dca10-1e08-4efd-b3ba-972c6c8e8a40","ios":"levelo://app?vid=786dca10-1e08-4efd-b3ba-972c6c8e8a40"},"vehicle_type_id":"4","last_reported":1730963299,"current_range_meters":40000,"station_id":"ce4bh3h2rcd13ifvqdn0","pricing_plan_id":"cebpf4jnsgd1na2vs0mg"},{"bike_id":"6a7a64f2-b059-42ba-a50c-6f32d003a2aa","system_id":"levelo_inurba_marseille","lat":43.27221,"lon":5.39178,"is_reserved":false,"is_disabled":false,"rental_uris":{"android":"levelo://app?vid=6a7a64f2-b059-42ba-a50c-6f32d003a2aa","ios":"levelo://app?vid=6a7a64f2-b059-42ba-a50c-6f32d003a2aa"},"vehicle_type_id":"4","last_reported":1730963299,"current_range_meters":38800,"station_id":"","pricing_plan_id":"cebpf4jnsgd1na2vs0mg"},{"bike_id":"df4b0ae0-fb1c-490e-892a-5f3e0709b894","system_id":"levelo_inurba_marseille","lat":43.28347,"lon":5.38099,"is_reserved":false,"is_disabled":false,"rental_uris":{"android":"levelo://app?vid=df4b0ae0-fb1c-490e-892a-5f3e0709b894","ios":"levelo://app?vid=df4b0ae0-fb1c-490e-892a-5f3e0709b894"},"vehicle_type_id":"4","last_reported":1730963299,"current_range_meters":24800,"station_id":"ce4bh412rcd13ifvqdr0","pricing_plan_id":"cebpf4jnsgd1na2vs0mg"},{"bike_id":"f4e37ef4-d22b-473c-affa-b7e5883bbb9c","system_id":"levelo_inurba_marseille","lat":43.30242,"lon":5.40056,"is_reserved":false,"is_disabled":false,"rental_uris":{"android":"levelo://app?vid=f4e37ef4-d22b-473c-affa-b7e5883bbb9c","ios":"levelo://app?vid=f4e37ef4-d22b-473c-affa-b7e5883bbb9c"},"vehicle_type_id":"4","last_reported":1730963299,"current_range_meters":32800,"station_id":"ce4bgvh2rcd13ifvqcs0","pricing_plan_id":"cebpf4jnsgd1na2vs0mg"},{"bike_id":"6569d6c7-31c7-4317-bdb5-2a1aaf450494","system_id":"levelo_inurba_marseille","lat":43.28345,"lon":5.38105,"is_reserved":false,"is_disabled":false,"rental_uris":{"android":"levelo://app?vid=6569d6c7-31c7-4317-bdb5-2a1aaf450494","ios":"levelo://app?vid=6569d6c7-31c7-4317-bdb5-2a1aaf450494"},"vehicle_type_id":"4","last_reported":1730963299,"current_range_meters":3600,"station_id":"ce4bh412rcd13ifvqdr0","pricing_plan_id":"cebpf4jnsgd1na2vs0mg"},{"bike_id":"e3236391-a0e6-40e1-97e1-7033a7de6d23","system_id":"levelo_inurba_marseille","lat":43.30235,"lon":5.40054,"is_reserved":false,"is_disabled":false,"rental_uris":{"android":"levelo://app?vid=e3236391-a0e6-40e1-97e1-7033a7de6d23","ios":"levelo://app?vid=e3236391-a0e6-40e1-97e1-7033a7de6d23"},"vehicle_type_id":"4","last_reported":1730963299,"current_range_meters":36800,"station_id":"ce4bgvh2rcd13ifvqcs0","pricing_plan_id":"cebpf4jnsgd1na2vs0mg"},{"bike_id":"548ff934-b9ca-4c68-8833-702be63d535a","system_id":"levelo_inurba_marseille","lat":43.29273,"lon":5.40126,"is_reserved":false,"is_disabled":false,"rental_uris":{"android":"levelo://app?vid=548ff934-b9ca-4c68-8833-702be63d535a","ios":"levelo://app?vid=548ff934-b9ca-4c68-8833-702be63d535a"},"vehicle_type_id":"4","last_reported":1730963299,"current_range_meters":29600,"station_id":"ce4bh312rcd13ifvqdk0","pricing_plan_id":"cebpf4jnsgd1na2vs0mg"},{"bike_id":"8596a87d-bde6-4a5a-a36c-7472ade19640","system_id":"levelo_inurba_marseille","lat":43.24078,"lon":5.37753,"is_reserved":false,"is_disabled":false,"rental_uris":{"android":"levelo://app?vid=8596a87d-bde6-4a5a-a36c-7472ade19640","ios":"levelo://app?vid=8596a87d-bde6-4a5a-a36c-7472ade19640"},"vehicle_type_id":"4","last_reported":1730963299,"current_range_meters":26800,"station_id":"ce4bhnp2rcd13ifvqgvg","pricing_plan_id":"cebpf4jnsgd1na2vs0mg"},{"bike_id":"6e5bb042-f0b5-471d-9711-9d10414d087e","system_id":"levelo_inurba_marseille","lat":43.28566,"lon":5.39503,"is_reserved":false,"is_disabled":false,"rental_uris":{"android":"levelo://app?vid=6e5bb042-f0b5-471d-9711-9d10414d087e","ios":"levelo://app?vid=6e5bb042-f0b5-471d-9711-9d10414d087e"},"vehicle_type_id":"4","last_reported":1730963299,"current_range_meters":38800,"station_id":"ce4bh292rcd13ifvqdg0","pricing_plan_id":"cebpf4jnsgd1na2vs0mg"},{"bike_id":"90ae85e5-266a-4789-9814-68ebbf599784","system_id":"levelo_inurba_marseille","lat":43.27489,"lon":5.42457,"is_reserved":false,"is_disabled":false,"rental_uris":{"android":"levelo://app?vid=90ae85e5-266a-4789-9814-68ebbf599784","ios":"levelo://app?vid=90ae85e5-266a-4789-9814-68ebbf599784"},"vehicle_type_id":"4","last_reported":1730963299,"current_range_meters":37600,"station_id":"ce4bhn92rcd13ifvqgrg","pricing_plan_id":"cebpf4jnsgd1na2vs0mg"},{"bike_id":"82936875-1ea7-487a-b91d-269c45689e96","system_id":"levelo_inurba_marseille","lat":43.31514,"lon":5.40356,"is_reserved":false,"is_disabled":false,"rental_uris":{"android":"levelo://app?vid=82936875-1ea7-487a-b91d-269c45689e96","ios":"levelo://app?vid=82936875-1ea7-487a-b91d-269c45689e96"},"vehicle_type_id":"4","last_reported":1730963299,"current_range_meters":22800,"station_id":"ce4bhr92rcd13ifvqhsg","pricing_plan_id":"cebpf4jnsgd1na2vs0mg"},{"bike_id":"1d492e31-e70d-4db0-97bb-12a5b47ba842","system_id":"levelo_inurba_marseille","lat":43.30551,"lon":5.3841,"is_reserved":false,"is_disabled":false,"rental_uris":{"android":"levelo://app?vid=1d492e31-e70d-4db0-97bb-12a5b47ba842","ios":"levelo://app?vid=1d492e31-e70d-4db0-97bb-12a5b47ba842"},"vehicle_type_id":"4","last_reported":1730963299,"current_range_meters":24800,"station_id":"ce4bgg92rcd13ifvqb30","pricing_plan_id":"cebpf4jnsgd1na2vs0mg"},{"bike_id":"21b37299-84e4-4b5b-8bf6-49ee4ecf921e","system_id":"levelo_inurba_marseille","lat":43.23965,"lon":5.36638,"is_reserved":false,"is_disabled":false,"rental_uris":{"android":"levelo://app?vid=21b37299-84e4-4b5b-8bf6-49ee4ecf921e","ios":"levelo://app?vid=21b37299-84e4-4b5b-8bf6-49ee4ecf921e"},"vehicle_type_id":"4","last_reported":1730963299,"current_range_meters":35600,"station_id":"ce4bhi12rcd13ifvqfp0","pricing_plan_id":"cebpf4jnsgd1na2vs0mg"},{"bike_id":"4e5d727a-7c34-44b8-af94-45a54b88c1cc","system_id":"levelo_inurba_marseille","lat":43.33726,"lon":5.39172,"is_reserved":false,"is_disabled":false,"rental_uris":{"android":"levelo://app?vid=4e5d727a-7c34-44b8-af94-45a54b88c1cc","ios":"levelo://app?vid=4e5d727a-7c34-44b8-af94-45a54b88c1cc"},"vehicle_type_id":"4","last_reported":1730963299,"current_range_meters":39200,"station_id":"ce4bhr92rcd13ifvqhsg","pricing_plan_id":"cebpf4jnsgd1na2vs0mg"},{"bike_id":"4d3b85b2-074c-4592-ac59-ac28cff03ca1","system_id":"levelo_inurba_marseille","lat":43.27907,"lon":5.38013,"is_reserved":false,"is_disabled":false,"rental_uris":{"android":"levelo://app?vid=4d3b85b2-074c-4592-ac59-ac28cff03ca1","ios":"levelo://app?vid=4d3b85b2-074c-4592-ac59-ac28cff03ca1"},"vehicle_type_id":"4","last_reported":1730963299,"current_range_meters":39200,"station_id":"ce4bhf92rcd13ifvqf50","pricing_plan_id":"cebpf4jnsgd1na2vs0mg"},{"bike_id":"a73f2c18-748a-4c22-a832-965c5bb5951f","system_id":"levelo_inurba_marseille","lat":43.24647,"lon":5.38888,"is_reserved":false,"is_disabled":false,"rental_uris":{"android":"levelo://app?vid=a73f2c18-748a-4c22-a832-965c5bb5951f","ios":"levelo://app?vid=a73f2c18-748a-4c22-a832-965c5bb5951f"},"vehicle_type_id":"4","last_reported":1730963299,"current_range_meters":7200,"station_id":"ce4bhg12rcd13ifvqf60","pricing_plan_id":"cebpf4jnsgd1na2vs0mg"},{"bike_id":"c75b9b52-b430-4c81-b723-a17bcc7311fb","system_id":"levelo_inurba_marseille","lat":43.28918,"lon":5.36399,"is_reserved":false,"is_disabled":false,"rental_uris":{"android":"levelo://app?vid=c75b9b52-b430-4c81-b723-a17bcc7311fb","ios":"levelo://app?vid=c75b9b52-b430-4c81-b723-a17bcc7311fb"},"vehicle_type_id":"4","last_reported":1730963299,"current_range_meters":38800,"station_id":"ce4bhc92rcd13ifvqetg","pricing_plan_id":"cebpf4jnsgd1na2vs0mg"},{"bike_id":"5063d9ae-a48b-495d-a1b3-6fba6ad945ff","system_id":"levelo_inurba_marseille","lat":43.24075,"lon":5.37756,"is_reserved":false,"is_disabled":false,"rental_uris":{"android":"levelo://app?vid=5063d9ae-a48b-495d-a1b3-6fba6ad945ff","ios":"levelo://app?vid=5063d9ae-a48b-495d-a1b3-6fba6ad945ff"},"vehicle_type_id":"4","last_reported":1730963299,"current_range_meters":23200,"station_id":"ce4bhnp2rcd13ifvqgvg","pricing_plan_id":"cebpf4jnsgd1na2vs0mg"},{"bike_id":"2ac59b30-95ad-4d41-84cd-66b709f67fc4","system_id":"levelo_inurba_marseille","lat":43.33749,"lon":5.37459,"is_reserved":false,"is_disabled":false,"rental_uris":{"android":"levelo://app?vid=2ac59b30-95ad-4d41-84cd-66b709f67fc4","ios":"levelo://app?vid=2ac59b30-95ad-4d41-84cd-66b709f67fc4"},"vehicle_type_id":"4","last_reported":1730963299,"current_range_meters":38800,"station_id":"","pricing_plan_id":"cebpf4jnsgd1na2vs0mg"},{"bike_id":"a51ceb26-dd84-485b-b975-2a140c8acd61","system_id":"levelo_inurba_marseille","lat":43.29595,"lon":5.381,"is_reserved":false,"is_disabled":false,"rental_uris":{"android":"levelo://app?vid=a51ceb26-dd84-485b-b975-2a140c8acd61","ios":"levelo://app?vid=a51ceb26-dd84-485b-b975-2a140c8acd61"},"vehicle_type_id":"4","last_reported":1730963299,"current_range_meters":31200,"station_id":"ce4bgl12rcd13ifvqbo0","pricing_plan_id":"cebpf4jnsgd1na2vs0mg"},{"bike_id":"a429d417-ae34-4edf-87c8-05ac18f72a29","system_id":"levelo_inurba_marseille","lat":43.31075,"lon":5.3835,"is_reserved":false,"is_disabled":false,"rental_uris":{"android":"levelo://app?vid=a429d417-ae34-4edf-87c8-05ac18f72a29","ios":"levelo://app?vid=a429d417-ae34-4edf-87c8-05ac18f72a29"},"vehicle_type_id":"4","last_reported":1730963299,"current_range_meters":5600,"station_id":"ce4bgv92rcd13ifvqcr0","pricing_plan_id":"cebpf4jnsgd1na2vs0mg"},{"bike_id":"25902ba6-6d35-42f4-b385-916a195b4207","system_id":"levelo_inurba_marseille","lat":43.31697,"lon":5.40471,"is_reserved":false,"is_disabled":false,"rental_uris":{"android":"levelo://app?vid=25902ba6-6d35-42f4-b385-916a195b4207","ios":"levelo://app?vid=25902ba6-6d35-42f4-b385-916a195b4207"},"vehicle_type_id":"4","last_reported":1730963299,"current_range_meters":36800,"station_id":"ce4bh012rcd13ifvqd00","pricing_plan_id":"cebpf4jnsgd1na2vs0mg"},{"bike_id":"ee1b6ab5-d7fc-462d-a9ab-21cc944d4d68","system_id":"levelo_inurba_marseille","lat":43.30181,"lon":5.36631,"is_reserved":false,"is_disabled":false,"rental_uris":{"android":"levelo://app?vid=ee1b6ab5-d7fc-462d-a9ab-21cc944d4d68","ios":"levelo://app?vid=ee1b6ab5-d7fc-462d-a9ab-21cc944d4d68"},"vehicle_type_id":"4","last_reported":1730963299,"current_range_meters":21600,"station_id":"ce4bgrh2rcd13ifvqc8g","pricing_plan_id":"cebpf4jnsgd1na2vs0mg"},{"bike_id":"3640d17d-7f43-4cbe-b49b-99bd73e40457","system_id":"levelo_inurba_marseille","lat":43.2981,"lon":5.38088,"is_reserved":false,"is_disabled":false,"rental_uris":{"android":"levelo://app?vid=3640d17d-7f43-4cbe-b49b-99bd73e40457","ios":"levelo://app?vid=3640d17d-7f43-4cbe-b49b-99bd73e40457"},"vehicle_type_id":"4","last_reported":1730963299,"current_range_meters":33200,"station_id":"ce4bgip2rcd13ifvqbb0","pricing_plan_id":"cebpf4jnsgd1na2vs0mg"},{"bike_id":"87b95e7e-e341-47d0-a0b5-f8b5d667bb4f","system_id":"levelo_inurba_marseille","lat":43.24076,"lon":5.37757,"is_reserved":false,"is_disabled":false,"rental_uris":{"android":"levelo://app?vid=87b95e7e-e341-47d0-a0b5-f8b5d667bb4f","ios":"levelo://app?vid=87b95e7e-e341-47d0-a0b5-f8b5d667bb4f"},"vehicle_type_id":"4","last_reported":1730963299,"current_range_meters":37600,"station_id":"ce4bhnp2rcd13ifvqgvg","pricing_plan_id":"cebpf4jnsgd1na2vs0mg"},{"bike_id":"7bc8a9cf-2630-4810-8426-8350b0caf020","system_id":"levelo_inurba_marseille","lat":43.28724,"lon":5.37945,"is_reserved":false,"is_disabled":false,"rental_uris":{"android":"levelo://app?vid=7bc8a9cf-2630-4810-8426-8350b0caf020","ios":"levelo://app?vid=7bc8a9cf-2630-4810-8426-8350b0caf020"},"vehicle_type_id":"4","last_reported":1730963299,"current_range_meters":33200,"station_id":"ce4bh9p2rcd13ifvqec0","pricing_plan_id":"cebpf4jnsgd1na2vs0mg"},{"bike_id":"1087f887-e632-4220-b28b-5649f8a81025","system_id":"levelo_inurba_marseille","lat":43.24081,"lon":5.37743,"is_reserved":false,"is_disabled":false,"rental_uris":{"android":"levelo://app?vid=1087f887-e632-4220-b28b-5649f8a81025","ios":"levelo://app?vid=1087f887-e632-4220-b28b-5649f8a81025"},"vehicle_type_id":"4","last_reported":1730963299,"current_range_meters":38400,"station_id":"ce4bhnp2rcd13ifvqgvg","pricing_plan_id":"cebpf4jnsgd1na2vs0mg"},{"bike_id":"2c60acb4-a5e8-417a-a16c-e61e3028b03b","system_id":"levelo_inurba_marseille","lat":43.30598,"lon":5.39367,"is_reserved":false,"is_disabled":false,"rental_uris":{"android":"levelo://app?vid=2c60acb4-a5e8-417a-a16c-e61e3028b03b","ios":"levelo://app?vid=2c60acb4-a5e8-417a-a16c-e61e3028b03b"},"vehicle_type_id":"4","last_reported":1730963299,"current_range_meters":32000,"station_id":"ce4bh0p2rcd13ifvqd80","pricing_plan_id":"cebpf4jnsgd1na2vs0mg"},{"bike_id":"b3efa261-435a-4d71-be02-67992b1c969c","system_id":"levelo_inurba_marseille","lat":43.30157,"lon":5.38079,"is_reserved":false,"is_disabled":false,"rental_uris":{"android":"levelo://app?vid=b3efa261-435a-4d71-be02-67992b1c969c","ios":"levelo://app?vid=b3efa261-435a-4d71-be02-67992b1c969c"},"vehicle_type_id":"4","last_reported":1730963299,"current_range_meters":13600,"station_id":"ce4bgjp2rcd13ifvqbh0","pricing_plan_id":"cebpf4jnsgd1na2vs0mg"},{"bike_id":"96bbe4b9-c3df-4eb3-8e8f-0dd163426af7","system_id":"levelo_inurba_marseille","lat":43.27494,"lon":5.4245,"is_reserved":false,"is_disabled":false,"rental_uris":{"android":"levelo://app?vid=96bbe4b9-c3df-4eb3-8e8f-0dd163426af7","ios":"levelo://app?vid=96bbe4b9-c3df-4eb3-8e8f-0dd163426af7"},"vehicle_type_id":"4","last_reported":1730963299,"current_range_meters":33600,"station_id":"ce4bhn92rcd13ifvqgrg","pricing_plan_id":"cebpf4jnsgd1na2vs0mg"},{"bike_id":"ecc2597c-73b2-4662-b036-f015722a8a69","system_id":"levelo_inurba_marseille","lat":43.22934,"lon":5.35379,"is_reserved":false,"is_disabled":false,"rental_uris":{"android":"levelo://app?vid=ecc2597c-73b2-4662-b036-f015722a8a69","ios":"levelo://app?vid=ecc2597c-73b2-4662-b036-f015722a8a69"},"vehicle_type_id":"4","last_reported":1730963299,"current_range_meters":39200,"station_id":"cpo3532slgdg3j2ikp40","pricing_plan_id":"cebpf4jnsgd1na2vs0mg"},{"bike_id":"52af7a3b-ddda-465a-a3b9-5cc6f08e1552","system_id":"levelo_inurba_marseille","lat":43.24164,"lon":5.36398,"is_reserved":false,"is_disabled":false,"rental_uris":{"android":"levelo://app?vid=52af7a3b-ddda-465a-a3b9-5cc6f08e1552","ios":"levelo://app?vid=52af7a3b-ddda-465a-a3b9-5cc6f08e1552"},"vehicle_type_id":"4","last_reported":1730963299,"current_range_meters":16400,"station_id":"cpo36qri1sfpv3e86is0","pricing_plan_id":"cebpf4jnsgd1na2vs0mg"},{"bike_id":"c8908898-597c-4769-9a3c-a8548f4da9f2","system_id":"levelo_inurba_marseille","lat":43.312781,"lon":5.401699,"is_reserved":false,"is_disabled":false,"rental_uris":{"android":"levelo://app?vid=c8908898-597c-4769-9a3c-a8548f4da9f2","ios":"levelo://app?vid=c8908898-597c-4769-9a3c-a8548f4da9f2"},"vehicle_type_id":"4","last_reported":1730963299,"current_range_meters":17200,"station_id":"ce4bh092rcd13ifvqd30","pricing_plan_id":"cebpf4jnsgd1na2vs0mg"},{"bike_id":"be06f586-7806-4770-a536-5e917b8770bd","system_id":"levelo_inurba_marseille","lat":43.3171,"lon":5.43696,"is_reserved":false,"is_disabled":false,"rental_uris":{"android":"levelo://app?vid=be06f586-7806-4770-a536-5e917b8770bd","ios":"levelo://app?vid=be06f586-7806-4770-a536-5e917b8770bd"},"vehicle_type_id":"4","last_reported":1730963299,"current_range_meters":27600,"station_id":"ce4bhp92rcd13ifvqhcg","pricing_plan_id":"cebpf4jnsgd1na2vs0mg"},{"bike_id":"60ea4415-857a-4205-92ba-f9e0eb08870c","system_id":"levelo_inurba_marseille","lat":43.31355,"lon":5.38503,"is_reserved":false,"is_disabled":false,"rental_uris":{"android":"levelo://app?vid=60ea4415-857a-4205-92ba-f9e0eb08870c","ios":"levelo://app?vid=60ea4415-857a-4205-92ba-f9e0eb08870c"},"vehicle_type_id":"4","last_reported":1730963299,"current_range_meters":18800,"station_id":"ce4bgt92rcd13ifvqcf0","pricing_plan_id":"cebpf4jnsgd1na2vs0mg"},{"bike_id":"b7a35989-9b81-4551-822d-79fff4150d45","system_id":"levelo_inurba_marseille","lat":43.304199,"lon":5.412851,"is_reserved":false,"is_disabled":false,"rental_uris":{"android":"levelo://app?vid=b7a35989-9b81-4551-822d-79fff4150d45","ios":"levelo://app?vid=b7a35989-9b81-4551-822d-79fff4150d45"},"vehicle_type_id":"4","last_reported":1730963299,"current_range_meters":38400,"station_id":"ce4bhop2rcd13ifvqh7g","pricing_plan_id":"cebpf4jnsgd1na2vs0mg"},{"bike_id":"794600ec-2477-4e54-a8fe-5020afd93e42","system_id":"levelo_inurba_marseille","lat":43.28475,"lon":5.38411,"is_reserved":false,"is_disabled":false,"rental_uris":{"android":"levelo://app?vid=794600ec-2477-4e54-a8fe-5020afd93e42","ios":"levelo://app?vid=794600ec-2477-4e54-a8fe-5020afd93e42"},"vehicle_type_id":"4","last_reported":1730963299,"current_range_meters":2000,"station_id":"ce4bh512rcd13ifvqe3g","pricing_plan_id":"cebpf4jnsgd1na2vs0mg"},{"bike_id":"3f4fc512-c09e-425c-8600-f50abb41362b","system_id":"levelo_inurba_marseille","lat":43.27494,"lon":5.42452,"is_reserved":false,"is_disabled":false,"rental_uris":{"android":"levelo://app?vid=3f4fc512-c09e-425c-8600-f50abb41362b","ios":"levelo://app?vid=3f4fc512-c09e-425c-8600-f50abb41362b"},"vehicle_type_id":"4","last_reported":1730963299,"current_range_meters":32800,"station_id":"ce4bhn92rcd13ifvqgrg","pricing_plan_id":"cebpf4jnsgd1na2vs0mg"},{"bike_id":"7fc3f24c-0827-4449-a68e-c39fff8a4899","system_id":"levelo_inurba_marseille","lat":43.2319,"lon":5.3998,"is_reserved":false,"is_disabled":false,"rental_uris":{"android":"levelo://app?vid=7fc3f24c-0827-4449-a68e-c39fff8a4899","ios":"levelo://app?vid=7fc3f24c-0827-4449-a68e-c39fff8a4899"},"vehicle_type_id":"4","last_reported":1730963299,"current_range_meters":2800,"station_id":"ce4bhn12rcd13ifvqgqg","pricing_plan_id":"cebpf4jnsgd1na2vs0mg"},{"bike_id":"bb017bc9-c270-4adf-9073-adf578799d78","system_id":"levelo_inurba_marseille","lat":43.31715,"lon":5.40454,"is_reserved":false,"is_disabled":false,"rental_uris":{"android":"levelo://app?vid=bb017bc9-c270-4adf-9073-adf578799d78","ios":"levelo://app?vid=bb017bc9-c270-4adf-9073-adf578799d78"},"vehicle_type_id":"4","last_reported":1730963299,"current_range_meters":6800,"station_id":"ce4bh012rcd13ifvqd00","pricing_plan_id":"cebpf4jnsgd1na2vs0mg"},{"bike_id":"82dcf687-2814-4f35-a6b5-3cdfdf897df5","system_id":"levelo_inurba_marseille","lat":43.28269,"lon":5.35074,"is_reserved":false,"is_disabled":false,"rental_uris":{"android":"levelo://app?vid=82dcf687-2814-4f35-a6b5-3cdfdf897df5","ios":"levelo://app?vid=82dcf687-2814-4f35-a6b5-3cdfdf897df5"},"vehicle_type_id":"4","last_reported":1730963299,"current_range_meters":13600,"station_id":"ce4bhbp2rcd13ifvqerg","pricing_plan_id":"cebpf4jnsgd1na2vs0mg"},{"bike_id":"78f9f14c-62a4-42cd-b0c9-4efcd79fca42","system_id":"levelo_inurba_marseille","lat":43.25818,"lon":5.39438,"is_reserved":false,"is_disabled":false,"rental_uris":{"android":"levelo://app?vid=78f9f14c-62a4-42cd-b0c9-4efcd79fca42","ios":"levelo://app?vid=78f9f14c-62a4-42cd-b0c9-4efcd79fca42"},"vehicle_type_id":"4","last_reported":1730963299,"current_range_meters":28800,"station_id":"ce4bhip2rcd13ifvqft0","pricing_plan_id":"cebpf4jnsgd1na2vs0mg"},{"bike_id":"38780a4c-9535-4968-b1c7-71a04802861b","system_id":"levelo_inurba_marseille","lat":43.29778,"lon":5.37119,"is_reserved":false,"is_disabled":false,"rental_uris":{"android":"levelo://app?vid=38780a4c-9535-4968-b1c7-71a04802861b","ios":"levelo://app?vid=38780a4c-9535-4968-b1c7-71a04802861b"},"vehicle_type_id":"4","last_reported":1730963299,"current_range_meters":17600,"station_id":"ce4bgop2rcd13ifvqc1g","pricing_plan_id":"cebpf4jnsgd1na2vs0mg"},{"bike_id":"22b5768f-1b65-4e9d-9c4a-033c2af45c58","system_id":"levelo_inurba_marseille","lat":43.3253,"lon":5.41434,"is_reserved":false,"is_disabled":false,"rental_uris":{"android":"levelo://app?vid=22b5768f-1b65-4e9d-9c4a-033c2af45c58","ios":"levelo://app?vid=22b5768f-1b65-4e9d-9c4a-033c2af45c58"},"vehicle_type_id":"4","last_reported":1730963299,"current_range_meters":28000,"station_id":"ce4bhq12rcd13ifvqhhg","pricing_plan_id":"cebpf4jnsgd1na2vs0mg"},{"bike_id":"50062052-2117-416a-b9a0-ef567ae2ce94","system_id":"levelo_inurba_marseille","lat":43.26063,"lon":5.38042,"is_reserved":false,"is_disabled":false,"rental_uris":{"android":"levelo://app?vid=50062052-2117-416a-b9a0-ef567ae2ce94","ios":"levelo://app?vid=50062052-2117-416a-b9a0-ef567ae2ce94"},"vehicle_type_id":"4","last_reported":1730963299,"current_range_meters":36400,"station_id":"ce4bhgp2rcd13ifvqfd0","pricing_plan_id":"cebpf4jnsgd1na2vs0mg"},{"bike_id":"b7af5fe1-1ffc-4983-a28e-5e881777edc3","system_id":"levelo_inurba_marseille","lat":43.25929,"lon":5.40904,"is_reserved":false,"is_disabled":false,"rental_uris":{"android":"levelo://app?vid=b7af5fe1-1ffc-4983-a28e-5e881777edc3","ios":"levelo://app?vid=b7af5fe1-1ffc-4983-a28e-5e881777edc3"},"vehicle_type_id":"4","last_reported":1730963299,"current_range_meters":27600,"station_id":"ce4bhm92rcd13ifvqglg","pricing_plan_id":"cebpf4jnsgd1na2vs0mg"},{"bike_id":"26ee007d-c521-4271-a726-fe0c9aeca07e","system_id":"levelo_inurba_marseille","lat":43.33109,"lon":5.38214,"is_reserved":false,"is_disabled":false,"rental_uris":{"android":"levelo://app?vid=26ee007d-c521-4271-a726-fe0c9aeca07e","ios":"levelo://app?vid=26ee007d-c521-4271-a726-fe0c9aeca07e"},"vehicle_type_id":"4","last_reported":1730963299,"current_range_meters":9200,"station_id":"","pricing_plan_id":"cebpf4jnsgd1na2vs0mg"},{"bike_id":"7b03e489-e38f-490f-b482-ed7db3c26bb0","system_id":"levelo_inurba_marseille","lat":43.29872,"lon":5.39738,"is_reserved":false,"is_disabled":false,"rental_uris":{"android":"levelo://app?vid=7b03e489-e38f-490f-b482-ed7db3c26bb0","ios":"levelo://app?vid=7b03e489-e38f-490f-b482-ed7db3c26bb0"},"vehicle_type_id":"4","last_reported":1730963299,"current_range_meters":28000,"station_id":"ce4bh0h2rcd13ifvqd50","pricing_plan_id":"cebpf4jnsgd1na2vs0mg"},{"bike_id":"6f1df30c-620d-4e2c-9b75-e12563e20c85","system_id":"levelo_inurba_marseille","lat":43.30356,"lon":5.41875,"is_reserved":false,"is_disabled":false,"rental_uris":{"android":"levelo://app?vid=6f1df30c-620d-4e2c-9b75-e12563e20c85","ios":"levelo://app?vid=6f1df30c-620d-4e2c-9b75-e12563e20c85"},"vehicle_type_id":"4","last_reported":1730963299,"current_range_meters":39200,"station_id":"ce4bhop2rcd13ifvqh7g","pricing_plan_id":"cebpf4jnsgd1na2vs0mg"},{"bike_id":"4a72173c-5b5c-469e-92c8-c8911c7bde93","system_id":"levelo_inurba_marseille","lat":43.28871,"lon":5.35823,"is_reserved":false,"is_disabled":false,"rental_uris":{"android":"levelo://app?vid=4a72173c-5b5c-469e-92c8-c8911c7bde93","ios":"levelo://app?vid=4a72173c-5b5c-469e-92c8-c8911c7bde93"},"vehicle_type_id":"4","last_reported":1730963299,"current_range_meters":15200,"station_id":"ce4bhb12rcd13ifvqem0","pricing_plan_id":"cebpf4jnsgd1na2vs0mg"},{"bike_id":"4daaa6c1-6244-49cc-8a0f-87de41d13c71","system_id":"levelo_inurba_marseille","lat":43.3093,"lon":5.40143,"is_reserved":false,"is_disabled":false,"rental_uris":{"android":"levelo://app?vid=4daaa6c1-6244-49cc-8a0f-87de41d13c71","ios":"levelo://app?vid=4daaa6c1-6244-49cc-8a0f-87de41d13c71"},"vehicle_type_id":"4","last_reported":1730963299,"current_range_meters":38000,"station_id":"ce4bgvp2rcd13ifvqct0","pricing_plan_id":"cebpf4jnsgd1na2vs0mg"},{"bike_id":"f7580a0d-9afe-4cc1-8e42-f3683f9d2ed1","system_id":"levelo_inurba_marseille","lat":43.27904,"lon":5.38001,"is_reserved":false,"is_disabled":false,"rental_uris":{"android":"levelo://app?vid=f7580a0d-9afe-4cc1-8e42-f3683f9d2ed1","ios":"levelo://app?vid=f7580a0d-9afe-4cc1-8e42-f3683f9d2ed1"},"vehicle_type_id":"4","last_reported":1730963299,"current_range_meters":9600,"station_id":"ce4bhf92rcd13ifvqf50","pricing_plan_id":"cebpf4jnsgd1na2vs0mg"},{"bike_id":"6b7d448c-9d10-46df-8577-3920f7b7ac72","system_id":"levelo_inurba_marseille","lat":43.29772,"lon":5.38109,"is_reserved":false,"is_disabled":false,"rental_uris":{"android":"levelo://app?vid=6b7d448c-9d10-46df-8577-3920f7b7ac72","ios":"levelo://app?vid=6b7d448c-9d10-46df-8577-3920f7b7ac72"},"vehicle_type_id":"4","last_reported":1730963299,"current_range_meters":20400,"station_id":"ce4bgip2rcd13ifvqbb0","pricing_plan_id":"cebpf4jnsgd1na2vs0mg"},{"bike_id":"1b6656c3-0183-448d-ac15-9ecf8f5c9338","system_id":"levelo_inurba_marseille","lat":43.29033,"lon":5.39966,"is_reserved":false,"is_disabled":false,"rental_uris":{"android":"levelo://app?vid=1b6656c3-0183-448d-ac15-9ecf8f5c9338","ios":"levelo://app?vid=1b6656c3-0183-448d-ac15-9ecf8f5c9338"},"vehicle_type_id":"4","last_reported":1730963299,"current_range_meters":24800,"station_id":"ce4bh392rcd13ifvqdm0","pricing_plan_id":"cebpf4jnsgd1na2vs0mg"},{"bike_id":"63679012-d0a0-44a9-a805-20815a46a99d","system_id":"levelo_inurba_marseille","lat":43.30762,"lon":5.40002,"is_reserved":false,"is_disabled":false,"rental_uris":{"android":"levelo://app?vid=63679012-d0a0-44a9-a805-20815a46a99d","ios":"levelo://app?vid=63679012-d0a0-44a9-a805-20815a46a99d"},"vehicle_type_id":"4","last_reported":1730963299,"current_range_meters":8800,"station_id":"","pricing_plan_id":"cebpf4jnsgd1na2vs0mg"},{"bike_id":"b5738913-2886-4b79-9515-3dd20595a79d","system_id":"levelo_inurba_marseille","lat":43.27379,"lon":5.36259,"is_reserved":false,"is_disabled":false,"rental_uris":{"android":"levelo://app?vid=b5738913-2886-4b79-9515-3dd20595a79d","ios":"levelo://app?vid=b5738913-2886-4b79-9515-3dd20595a79d"},"vehicle_type_id":"4","last_reported":1730963299,"current_range_meters":38800,"station_id":"ce4bhbh2rcd13ifvqeo0","pricing_plan_id":"cebpf4jnsgd1na2vs0mg"},{"bike_id":"f925eb75-218d-484a-a646-106ad56690a9","system_id":"levelo_inurba_marseille","lat":43.30595,"lon":5.39359,"is_reserved":false,"is_disabled":false,"rental_uris":{"android":"levelo://app?vid=f925eb75-218d-484a-a646-106ad56690a9","ios":"levelo://app?vid=f925eb75-218d-484a-a646-106ad56690a9"},"vehicle_type_id":"4","last_reported":1730963299,"current_range_meters":33600,"station_id":"ce4bh0p2rcd13ifvqd80","pricing_plan_id":"cebpf4jnsgd1na2vs0mg"},{"bike_id":"777b3eaa-30f9-4a1e-a4ff-060381cb7f7c","system_id":"levelo_inurba_marseille","lat":43.29041,"lon":5.39971,"is_reserved":false,"is_disabled":false,"rental_uris":{"android":"levelo://app?vid=777b3eaa-30f9-4a1e-a4ff-060381cb7f7c","ios":"levelo://app?vid=777b3eaa-30f9-4a1e-a4ff-060381cb7f7c"},"vehicle_type_id":"4","last_reported":1730963299,"current_range_meters":28400,"station_id":"ce4bh392rcd13ifvqdm0","pricing_plan_id":"cebpf4jnsgd1na2vs0mg"},{"bike_id":"250456d8-8281-463a-b832-040560d88517","system_id":"levelo_inurba_marseille","lat":43.31486,"lon":5.37277,"is_reserved":false,"is_disabled":false,"rental_uris":{"android":"levelo://app?vid=250456d8-8281-463a-b832-040560d88517","ios":"levelo://app?vid=250456d8-8281-463a-b832-040560d88517"},"vehicle_type_id":"4","last_reported":1730963299,"current_range_meters":10000,"station_id":"ce4bgt12rcd13ifvqcd0","pricing_plan_id":"cebpf4jnsgd1na2vs0mg"},{"bike_id":"a712286f-45d8-4761-9921-4b4d06939c93","system_id":"levelo_inurba_marseille","lat":43.25726,"lon":5.41105,"is_reserved":false,"is_disabled":false,"rental_uris":{"android":"levelo://app?vid=a712286f-45d8-4761-9921-4b4d06939c93","ios":"levelo://app?vid=a712286f-45d8-4761-9921-4b4d06939c93"},"vehicle_type_id":"4","last_reported":1730963299,"current_range_meters":38800,"station_id":"ce4bhkp2rcd13ifvqgd0","pricing_plan_id":"cebpf4jnsgd1na2vs0mg"},{"bike_id":"35157b21-5c79-4034-925a-c42c1f251a68","system_id":"levelo_inurba_marseille","lat":43.29228,"lon":5.36074,"is_reserved":false,"is_disabled":false,"rental_uris":{"android":"levelo://app?vid=35157b21-5c79-4034-925a-c42c1f251a68","ios":"levelo://app?vid=35157b21-5c79-4034-925a-c42c1f251a68"},"vehicle_type_id":"4","last_reported":1730963299,"current_range_meters":36400,"station_id":"ce4bhbh2rcd13ifvqeqg","pricing_plan_id":"cebpf4jnsgd1na2vs0mg"},{"bike_id":"08ea0481-773d-4f98-aecd-294cbb3bff31","system_id":"levelo_inurba_marseille","lat":43.3172,"lon":5.42404,"is_reserved":false,"is_disabled":false,"rental_uris":{"android":"levelo://app?vid=08ea0481-773d-4f98-aecd-294cbb3bff31","ios":"levelo://app?vid=08ea0481-773d-4f98-aecd-294cbb3bff31"},"vehicle_type_id":"4","last_reported":1730963299,"current_range_meters":37600,"station_id":"ce4bhp92rcd13ifvqhbg","pricing_plan_id":"cebpf4jnsgd1na2vs0mg"},{"bike_id":"782cf688-0edd-441e-87bb-00023420b992","system_id":"levelo_inurba_marseille","lat":43.28709,"lon":5.37929,"is_reserved":false,"is_disabled":false,"rental_uris":{"android":"levelo://app?vid=782cf688-0edd-441e-87bb-00023420b992","ios":"levelo://app?vid=782cf688-0edd-441e-87bb-00023420b992"},"vehicle_type_id":"4","last_reported":1730963299,"current_range_meters":2000,"station_id":"ce4bh9p2rcd13ifvqec0","pricing_plan_id":"cebpf4jnsgd1na2vs0mg"},{"bike_id":"5fa7c919-a684-488b-8940-2890b7fc4f25","system_id":"levelo_inurba_marseille","lat":43.24652,"lon":5.38886,"is_reserved":false,"is_disabled":false,"rental_uris":{"android":"levelo://app?vid=5fa7c919-a684-488b-8940-2890b7fc4f25","ios":"levelo://app?vid=5fa7c919-a684-488b-8940-2890b7fc4f25"},"vehicle_type_id":"4","last_reported":1730963299,"current_range_meters":39200,"station_id":"ce4bhg12rcd13ifvqf60","pricing_plan_id":"cebpf4jnsgd1na2vs0mg"},{"bike_id":"193f3aff-1d81-4432-a603-f1d6f9e9c33e","system_id":"levelo_inurba_marseille","lat":43.27973,"lon":5.38747,"is_reserved":false,"is_disabled":false,"rental_uris":{"android":"levelo://app?vid=193f3aff-1d81-4432-a603-f1d6f9e9c33e","ios":"levelo://app?vid=193f3aff-1d81-4432-a603-f1d6f9e9c33e"},"vehicle_type_id":"4","last_reported":1730963299,"current_range_meters":11200,"station_id":"ce4bhg12rcd13ifvqf80","pricing_plan_id":"cebpf4jnsgd1na2vs0mg"},{"bike_id":"9c3169c5-7306-4ddc-9f15-d6bb8c9cdea4","system_id":"levelo_inurba_marseille","lat":43.27492,"lon":5.4245,"is_reserved":false,"is_disabled":false,"rental_uris":{"android":"levelo://app?vid=9c3169c5-7306-4ddc-9f15-d6bb8c9cdea4","ios":"levelo://app?vid=9c3169c5-7306-4ddc-9f15-d6bb8c9cdea4"},"vehicle_type_id":"4","last_reported":1730963299,"current_range_meters":28800,"station_id":"ce4bhn92rcd13ifvqgrg","pricing_plan_id":"cebpf4jnsgd1na2vs0mg"},{"bike_id":"bf189f87-8f3b-4678-ba5e-3fa7320fcfc6","system_id":"levelo_inurba_marseille","lat":43.283663,"lon":5.386299,"is_reserved":false,"is_disabled":false,"rental_uris":{"android":"levelo://app?vid=bf189f87-8f3b-4678-ba5e-3fa7320fcfc6","ios":"levelo://app?vid=bf189f87-8f3b-4678-ba5e-3fa7320fcfc6"},"vehicle_type_id":"4","last_reported":1730963299,"current_range_meters":30800,"station_id":"ce4bh492rcd13ifvqdvg","pricing_plan_id":"cebpf4jnsgd1na2vs0mg"},{"bike_id":"f2505e30-345e-484e-b2e1-ae1a32d61553","system_id":"levelo_inurba_marseille","lat":43.24813,"lon":5.37456,"is_reserved":false,"is_disabled":false,"rental_uris":{"android":"levelo://app?vid=f2505e30-345e-484e-b2e1-ae1a32d61553","ios":"levelo://app?vid=f2505e30-345e-484e-b2e1-ae1a32d61553"},"vehicle_type_id":"4","last_reported":1730963299,"current_range_meters":38800,"station_id":"ce4bhgh2rcd13ifvqfb0","pricing_plan_id":"cebpf4jnsgd1na2vs0mg"},{"bike_id":"2f232e17-caa8-4763-88d4-ba452830fd53","system_id":"levelo_inurba_marseille","lat":43.31485,"lon":5.3729,"is_reserved":false,"is_disabled":false,"rental_uris":{"android":"levelo://app?vid=2f232e17-caa8-4763-88d4-ba452830fd53","ios":"levelo://app?vid=2f232e17-caa8-4763-88d4-ba452830fd53"},"vehicle_type_id":"4","last_reported":1730963299,"current_range_meters":39200,"station_id":"ce4bgt12rcd13ifvqcd0","pricing_plan_id":"cebpf4jnsgd1na2vs0mg"},{"bike_id":"4450272b-34bc-4703-ac02-8e79cf5992c2","system_id":"levelo_inurba_marseille","lat":43.3015,"lon":5.37408,"is_reserved":false,"is_disabled":false,"rental_uris":{"android":"levelo://app?vid=4450272b-34bc-4703-ac02-8e79cf5992c2","ios":"levelo://app?vid=4450272b-34bc-4703-ac02-8e79cf5992c2"},"vehicle_type_id":"4","last_reported":1730963299,"current_range_meters":25200,"station_id":"ce4bgs92rcd13ifvqcc0","pricing_plan_id":"cebpf4jnsgd1na2vs0mg"},{"bike_id":"a731dd33-10c2-4158-b07e-2a8192e06221","system_id":"levelo_inurba_marseille","lat":43.27174,"lon":5.40987,"is_reserved":false,"is_disabled":false,"rental_uris":{"android":"levelo://app?vid=a731dd33-10c2-4158-b07e-2a8192e06221","ios":"levelo://app?vid=a731dd33-10c2-4158-b07e-2a8192e06221"},"vehicle_type_id":"4","last_reported":1730963299,"current_range_meters":30800,"station_id":"ce4bhl12rcd13ifvqgf0","pricing_plan_id":"cebpf4jnsgd1na2vs0mg"},{"bike_id":"59416991-7a58-4a42-ab7f-50de4ace5b32","system_id":"levelo_inurba_marseille","lat":43.28655,"lon":5.36353,"is_reserved":false,"is_disabled":false,"rental_uris":{"android":"levelo://app?vid=59416991-7a58-4a42-ab7f-50de4ace5b32","ios":"levelo://app?vid=59416991-7a58-4a42-ab7f-50de4ace5b32"},"vehicle_type_id":"4","last_reported":1730963299,"current_range_meters":19600,"station_id":"ce4bhah2rcd13ifvqej0","pricing_plan_id":"cebpf4jnsgd1na2vs0mg"},{"bike_id":"68dd966f-8f9d-48ab-bbae-3970456a366a","system_id":"levelo_inurba_marseille","lat":43.292725,"lon":5.367895,"is_reserved":false,"is_disabled":false,"rental_uris":{"android":"levelo://app?vid=68dd966f-8f9d-48ab-bbae-3970456a366a","ios":"levelo://app?vid=68dd966f-8f9d-48ab-bbae-3970456a366a"},"vehicle_type_id":"4","last_reported":1730963299,"current_range_meters":34800,"station_id":"ce4bhbp2rcd13ifvqesg","pricing_plan_id":"cebpf4jnsgd1na2vs0mg"},{"bike_id":"14c2f3cd-e3da-4b90-a2b8-a3c12b979179","system_id":"levelo_inurba_marseille","lat":43.27977,"lon":5.38742,"is_reserved":false,"is_disabled":false,"rental_uris":{"android":"levelo://app?vid=14c2f3cd-e3da-4b90-a2b8-a3c12b979179","ios":"levelo://app?vid=14c2f3cd-e3da-4b90-a2b8-a3c12b979179"},"vehicle_type_id":"4","last_reported":1730963299,"current_range_meters":28800,"station_id":"ce4bhg12rcd13ifvqf80","pricing_plan_id":"cebpf4jnsgd1na2vs0mg"},{"bike_id":"d218f2a2-c760-4ad9-8d7f-da9f66bd94af","system_id":"levelo_inurba_marseille","lat":43.262002,"lon":5.379301,"is_reserved":false,"is_disabled":false,"rental_uris":{"android":"levelo://app?vid=d218f2a2-c760-4ad9-8d7f-da9f66bd94af","ios":"levelo://app?vid=d218f2a2-c760-4ad9-8d7f-da9f66bd94af"},"vehicle_type_id":"4","last_reported":1730963299,"current_range_meters":24800,"station_id":"ce4bhjp2rcd13ifvqg90","pricing_plan_id":"cebpf4jnsgd1na2vs0mg"},{"bike_id":"d5b394c4-b406-490b-a17c-998383d306d7","system_id":"levelo_inurba_marseille","lat":43.26028,"lon":5.37549,"is_reserved":false,"is_disabled":false,"rental_uris":{"android":"levelo://app?vid=d5b394c4-b406-490b-a17c-998383d306d7","ios":"levelo://app?vid=d5b394c4-b406-490b-a17c-998383d306d7"},"vehicle_type_id":"4","last_reported":1730963299,"current_range_meters":24400,"station_id":"ce4bhgh2rcd13ifvqfa0","pricing_plan_id":"cebpf4jnsgd1na2vs0mg"},{"bike_id":"1ed4b874-bdae-43c6-98a8-b3cf65705ae8","system_id":"levelo_inurba_marseille","lat":43.23151,"lon":5.43724,"is_reserved":false,"is_disabled":false,"rental_uris":{"android":"levelo://app?vid=1ed4b874-bdae-43c6-98a8-b3cf65705ae8","ios":"levelo://app?vid=1ed4b874-bdae-43c6-98a8-b3cf65705ae8"},"vehicle_type_id":"4","last_reported":1730963299,"current_range_meters":16800,"station_id":"ce4bhmp2rcd13ifvqgog","pricing_plan_id":"cebpf4jnsgd1na2vs0mg"},{"bike_id":"cfcb261d-39db-44a6-a2f1-55da5028ef1b","system_id":"levelo_inurba_marseille","lat":43.28725,"lon":5.36079,"is_reserved":false,"is_disabled":false,"rental_uris":{"android":"levelo://app?vid=cfcb261d-39db-44a6-a2f1-55da5028ef1b","ios":"levelo://app?vid=cfcb261d-39db-44a6-a2f1-55da5028ef1b"},"vehicle_type_id":"4","last_reported":1730963299,"current_range_meters":39200,"station_id":"cki0cbj6b192h4jlfktg","pricing_plan_id":"cebpf4jnsgd1na2vs0mg"},{"bike_id":"9a242017-b2b8-4871-b084-3d4890f99b1c","system_id":"levelo_inurba_marseille","lat":43.31277,"lon":5.40167,"is_reserved":false,"is_disabled":false,"rental_uris":{"android":"levelo://app?vid=9a242017-b2b8-4871-b084-3d4890f99b1c","ios":"levelo://app?vid=9a242017-b2b8-4871-b084-3d4890f99b1c"},"vehicle_type_id":"4","last_reported":1730963299,"current_range_meters":22000,"station_id":"ce4bh092rcd13ifvqd30","pricing_plan_id":"cebpf4jnsgd1na2vs0mg"},{"bike_id":"1e8651fa-f61e-438c-af20-92cc62d57586","system_id":"levelo_inurba_marseille","lat":43.33748,"lon":5.37453,"is_reserved":false,"is_disabled":false,"rental_uris":{"android":"levelo://app?vid=1e8651fa-f61e-438c-af20-92cc62d57586","ios":"levelo://app?vid=1e8651fa-f61e-438c-af20-92cc62d57586"},"vehicle_type_id":"4","last_reported":1730963299,"current_range_meters":38800,"station_id":"","pricing_plan_id":"cebpf4jnsgd1na2vs0mg"},{"bike_id":"bb492689-495d-407c-86b3-09ab824097d4","system_id":"levelo_inurba_marseille","lat":43.30457,"lon":5.37918,"is_reserved":false,"is_disabled":false,"rental_uris":{"android":"levelo://app?vid=bb492689-495d-407c-86b3-09ab824097d4","ios":"levelo://app?vid=bb492689-495d-407c-86b3-09ab824097d4"},"vehicle_type_id":"4","last_reported":1730963299,"current_range_meters":33600,"station_id":"ce4bgup2rcd13ifvqcn0","pricing_plan_id":"cebpf4jnsgd1na2vs0mg"},{"bike_id":"152c6b03-948d-4f1f-b6e0-6b147fe4c230","system_id":"levelo_inurba_marseille","lat":43.31077,"lon":5.38345,"is_reserved":false,"is_disabled":false,"rental_uris":{"android":"levelo://app?vid=152c6b03-948d-4f1f-b6e0-6b147fe4c230","ios":"levelo://app?vid=152c6b03-948d-4f1f-b6e0-6b147fe4c230"},"vehicle_type_id":"4","last_reported":1730963299,"current_range_meters":36800,"station_id":"ce4bgv92rcd13ifvqcr0","pricing_plan_id":"cebpf4jnsgd1na2vs0mg"},{"bike_id":"f3618dde-db99-40c6-9fce-dee9a0bce454","system_id":"levelo_inurba_marseille","lat":43.30915,"lon":5.36838,"is_reserved":false,"is_disabled":false,"rental_uris":{"android":"levelo://app?vid=f3618dde-db99-40c6-9fce-dee9a0bce454","ios":"levelo://app?vid=f3618dde-db99-40c6-9fce-dee9a0bce454"},"vehicle_type_id":"4","last_reported":1730963299,"current_range_meters":38800,"station_id":"ce4bgn92rcd13ifvqbvg","pricing_plan_id":"cebpf4jnsgd1na2vs0mg"},{"bike_id":"d3e54780-ddfb-432e-bfd3-55d19e8c43c8","system_id":"levelo_inurba_marseille","lat":43.31756,"lon":5.39026,"is_reserved":false,"is_disabled":false,"rental_uris":{"android":"levelo://app?vid=d3e54780-ddfb-432e-bfd3-55d19e8c43c8","ios":"levelo://app?vid=d3e54780-ddfb-432e-bfd3-55d19e8c43c8"},"vehicle_type_id":"4","last_reported":1730963299,"current_range_meters":32800,"station_id":"ce4bhqp2rcd13ifvqhng","pricing_plan_id":"cebpf4jnsgd1na2vs0mg"},{"bike_id":"4fd8461c-438c-4c64-abd1-8ee35b5d9507","system_id":"levelo_inurba_marseille","lat":43.30452,"lon":5.37895,"is_reserved":false,"is_disabled":false,"rental_uris":{"android":"levelo://app?vid=4fd8461c-438c-4c64-abd1-8ee35b5d9507","ios":"levelo://app?vid=4fd8461c-438c-4c64-abd1-8ee35b5d9507"},"vehicle_type_id":"4","last_reported":1730963299,"current_range_meters":36000,"station_id":"ce4bgup2rcd13ifvqcn0","pricing_plan_id":"cebpf4jnsgd1na2vs0mg"},{"bike_id":"1d06d961-af49-4f27-82e1-38c2e7d762b6","system_id":"levelo_inurba_marseille","lat":43.30245,"lon":5.40069,"is_reserved":false,"is_disabled":false,"rental_uris":{"android":"levelo://app?vid=1d06d961-af49-4f27-82e1-38c2e7d762b6","ios":"levelo://app?vid=1d06d961-af49-4f27-82e1-38c2e7d762b6"},"vehicle_type_id":"4","last_reported":1730963299,"current_range_meters":38800,"station_id":"ce4bgvh2rcd13ifvqcs0","pricing_plan_id":"cebpf4jnsgd1na2vs0mg"},{"bike_id":"a482a3a2-2edd-4960-90b1-3f8fafdad5f6","system_id":"levelo_inurba_marseille","lat":43.31268,"lon":5.40174,"is_reserved":false,"is_disabled":false,"rental_uris":{"android":"levelo://app?vid=a482a3a2-2edd-4960-90b1-3f8fafdad5f6","ios":"levelo://app?vid=a482a3a2-2edd-4960-90b1-3f8fafdad5f6"},"vehicle_type_id":"4","last_reported":1730963299,"current_range_meters":40000,"station_id":"ce4bh092rcd13ifvqd30","pricing_plan_id":"cebpf4jnsgd1na2vs0mg"},{"bike_id":"a87f0c5e-4cf9-49d6-bbd1-c77e37368fcc","system_id":"levelo_inurba_marseille","lat":43.29569,"lon":5.37532,"is_reserved":false,"is_disabled":false,"rental_uris":{"android":"levelo://app?vid=a87f0c5e-4cf9-49d6-bbd1-c77e37368fcc","ios":"levelo://app?vid=a87f0c5e-4cf9-49d6-bbd1-c77e37368fcc"},"vehicle_type_id":"4","last_reported":1730963299,"current_range_meters":37600,"station_id":"ce4bgh92rcd13ifvqb50","pricing_plan_id":"cebpf4jnsgd1na2vs0mg"},{"bike_id":"2e93af4a-4688-42ef-9d18-6ccf92ee7c1f","system_id":"levelo_inurba_marseille","lat":43.265741,"lon":5.390048,"is_reserved":false,"is_disabled":false,"rental_uris":{"android":"levelo://app?vid=2e93af4a-4688-42ef-9d18-6ccf92ee7c1f","ios":"levelo://app?vid=2e93af4a-4688-42ef-9d18-6ccf92ee7c1f"},"vehicle_type_id":"4","last_reported":1730963299,"current_range_meters":2800,"station_id":"ce4bhe12rcd13ifvqf30","pricing_plan_id":"cebpf4jnsgd1na2vs0mg"},{"bike_id":"6e43cb02-966e-48e7-9d0f-5b9e87dcf61c","system_id":"levelo_inurba_marseille","lat":43.26559,"lon":5.37281,"is_reserved":false,"is_disabled":false,"rental_uris":{"android":"levelo://app?vid=6e43cb02-966e-48e7-9d0f-5b9e87dcf61c","ios":"levelo://app?vid=6e43cb02-966e-48e7-9d0f-5b9e87dcf61c"},"vehicle_type_id":"4","last_reported":1730963299,"current_range_meters":24000,"station_id":"ce4bhg12rcd13ifvqf70","pricing_plan_id":"cebpf4jnsgd1na2vs0mg"},{"bike_id":"becc29a5-7009-49ae-ba84-b875f3bbb2d9","system_id":"levelo_inurba_marseille","lat":43.29839,"lon":5.36263,"is_reserved":false,"is_disabled":false,"rental_uris":{"android":"levelo://app?vid=becc29a5-7009-49ae-ba84-b875f3bbb2d9","ios":"levelo://app?vid=becc29a5-7009-49ae-ba84-b875f3bbb2d9"},"vehicle_type_id":"4","last_reported":1730963299,"current_range_meters":34800,"station_id":"ce4bgpp2rcd13ifvqc3g","pricing_plan_id":"cebpf4jnsgd1na2vs0mg"},{"bike_id":"f27c5010-4466-4135-b633-cc10e415f6b9","system_id":"levelo_inurba_marseille","lat":43.28711,"lon":5.39998,"is_reserved":false,"is_disabled":false,"rental_uris":{"android":"levelo://app?vid=f27c5010-4466-4135-b633-cc10e415f6b9","ios":"levelo://app?vid=f27c5010-4466-4135-b633-cc10e415f6b9"},"vehicle_type_id":"4","last_reported":1730963299,"current_range_meters":20800,"station_id":"ce4bho92rcd13ifvqh3g","pricing_plan_id":"cebpf4jnsgd1na2vs0mg"},{"bike_id":"075b048b-8589-435e-a40a-b3890b9d40d5","system_id":"levelo_inurba_marseille","lat":43.24395,"lon":5.37052,"is_reserved":false,"is_disabled":false,"rental_uris":{"android":"levelo://app?vid=075b048b-8589-435e-a40a-b3890b9d40d5","ios":"levelo://app?vid=075b048b-8589-435e-a40a-b3890b9d40d5"},"vehicle_type_id":"4","last_reported":1730963299,"current_range_meters":39200,"station_id":"ce4bhhh2rcd13ifvqfk0","pricing_plan_id":"cebpf4jnsgd1na2vs0mg"},{"bike_id":"f6fd4020-246f-4e16-a10e-ff1889f1ed6d","system_id":"levelo_inurba_marseille","lat":43.29609,"lon":5.38107,"is_reserved":false,"is_disabled":false,"rental_uris":{"android":"levelo://app?vid=f6fd4020-246f-4e16-a10e-ff1889f1ed6d","ios":"levelo://app?vid=f6fd4020-246f-4e16-a10e-ff1889f1ed6d"},"vehicle_type_id":"4","last_reported":1730963299,"current_range_meters":34800,"station_id":"ce4bgl12rcd13ifvqbo0","pricing_plan_id":"cebpf4jnsgd1na2vs0mg"},{"bike_id":"2d4cdfd7-7124-4427-9e6f-9b3bbcf3c337","system_id":"levelo_inurba_marseille","lat":43.3415,"lon":5.409323,"is_reserved":false,"is_disabled":false,"rental_uris":{"android":"levelo://app?vid=2d4cdfd7-7124-4427-9e6f-9b3bbcf3c337","ios":"levelo://app?vid=2d4cdfd7-7124-4427-9e6f-9b3bbcf3c337"},"vehicle_type_id":"4","last_reported":1730963299,"current_range_meters":6000,"station_id":"ce4bhqh2rcd13ifvqhlg","pricing_plan_id":"cebpf4jnsgd1na2vs0mg"},{"bike_id":"a723bdac-3658-43c6-8d3c-cb7fc012ea1b","system_id":"levelo_inurba_marseille","lat":43.28728,"lon":5.37941,"is_reserved":false,"is_disabled":false,"rental_uris":{"android":"levelo://app?vid=a723bdac-3658-43c6-8d3c-cb7fc012ea1b","ios":"levelo://app?vid=a723bdac-3658-43c6-8d3c-cb7fc012ea1b"},"vehicle_type_id":"4","last_reported":1730963299,"current_range_meters":14800,"station_id":"ce4bh9p2rcd13ifvqec0","pricing_plan_id":"cebpf4jnsgd1na2vs0mg"},{"bike_id":"cd23d2af-6909-4409-b4d1-b7c36d31bbf0","system_id":"levelo_inurba_marseille","lat":43.34143,"lon":5.40909,"is_reserved":false,"is_disabled":false,"rental_uris":{"android":"levelo://app?vid=cd23d2af-6909-4409-b4d1-b7c36d31bbf0","ios":"levelo://app?vid=cd23d2af-6909-4409-b4d1-b7c36d31bbf0"},"vehicle_type_id":"4","last_reported":1730963299,"current_range_meters":38000,"station_id":"ce4bhqh2rcd13ifvqhlg","pricing_plan_id":"cebpf4jnsgd1na2vs0mg"},{"bike_id":"ce0e7a6a-39bc-4680-adcd-ebbb11817934","system_id":"levelo_inurba_marseille","lat":43.2766,"lon":5.40855,"is_reserved":false,"is_disabled":false,"rental_uris":{"android":"levelo://app?vid=ce0e7a6a-39bc-4680-adcd-ebbb11817934","ios":"levelo://app?vid=ce0e7a6a-39bc-4680-adcd-ebbb11817934"},"vehicle_type_id":"4","last_reported":1730963299,"current_range_meters":3600,"station_id":"","pricing_plan_id":"cebpf4jnsgd1na2vs0mg"},{"bike_id":"615280ca-f059-40fe-82f2-b888639b02a5","system_id":"levelo_inurba_marseille","lat":43.326584,"lon":5.409937,"is_reserved":false,"is_disabled":false,"rental_uris":{"android":"levelo://app?vid=615280ca-f059-40fe-82f2-b888639b02a5","ios":"levelo://app?vid=615280ca-f059-40fe-82f2-b888639b02a5"},"vehicle_type_id":"4","last_reported":1730963299,"current_range_meters":29600,"station_id":"ce4bhpp2rcd13ifvqhgg","pricing_plan_id":"cebpf4jnsgd1na2vs0mg"},