{"last_updated":1774109795,"ttl":60,"version":"2.2","data":{"bikes":[{"bike_id":"d16b4f5e-9b9d-4635-b7ab-14fa4ff08f4b","system_id":"levelo_inurba_marseille","lat":43.2463,"lon":5.43156,"is_reserved":false,"is_disabled":false,"rental_uris":{"android":"levelo://app?vid=d16b4f5e-9b9d-4635-b7ab-14fa4ff08f4b","ios":"levelo://app?vid=d16b4f5e-9b9d-4635-b7ab-14fa4ff08f4b"},"vehicle_type_id":"4","last_reported":1774109796,"current_range_meters":400,"station_id":"","pricing_plan_id":"cebpf4jnsgd1na2vs0mg"},{"bike_id":"3d8b9441-846b-4bc6-a99f-7538b53156c2","system_id":"levelo_inurba_marseille","lat":43.29786,"lon":5.38105,"is_reserved":false,"is_disabled":true,"rental_uris":{"android":"levelo://app?vid=3d8b9441-846b-4bc6-a99f-7538b53156c2","ios":"levelo://app?vid=3d8b9441-846b-4bc6-a99f-7538b53156c2"},"vehicle_type_id":"4","last_reported":1774109796,"current_range_meters":2800,"station_id":"ce4bgip2rcd13ifvqbb0","pricing_plan_id":"cebpf4jnsgd1na2vs0mg"},{"bike_id":"5cceaff6-9c88-4f93-855f-0673da52c4f7","system_id":"levelo_inurba_marseille","lat":43.23194,"lon":5.35533,"is_reserved":false,"is_disabled":false,"rental_uris":{"android":"levelo://app?vid=5cceaff6-9c88-4f93-855f-0673da52c4f7","ios":"levelo://app?vid=5cceaff6-9c88-4f93-855f-0673da52c4f7"},"vehicle_type_id":"4","last_reported":1774109796,"current_range_meters":2800,"station_id":"ce4bhu92rcd13ifvqi70","pricing_plan_id":"cebpf4jnsgd1na2vs0mg"},{"bike_id":"aa08d1a1-4362-4d90-a639-70b4813c27fc","system_id":"levelo_inurba_marseille","lat":43.29796,"lon":5.38097,"is_reserved":false,"is_disabled":false,"rental_uris":{"android":"levelo://app?vid=aa08d1a1-4362-4d90-a639-70b4813c27fc","ios":"levelo://app?vid=aa08d1a1-4362-4d90-a639-70b4813c27fc"},"vehicle_type_id":"4","last_reported":1774109796,"current_range_meters":2800,"station_id":"ce4bgip2rcd13ifvqbb0","pricing_plan_id":"cebpf4jnsgd1na2vs0mg"},{"bike_id":"dfd8783e-046a-40ae-b955-3292c7ef5921","system_id":"levelo_inurba_marseille","lat":43.27617,"lon":5.36107,"is_reserved":false,"is_disabled":false,"rental_uris":{"android":"levelo://app?vid=dfd8783e-046a-40ae-b955-3292c7ef5921","ios":"levelo://app?vid=dfd8783e-046a-40ae-b955-3292c7ef5921"},"vehicle_type_id":"4","last_reported":1774109796,"current_range_meters":2800,"station_id":"ce4bgj92rcd13ifvqbe0","pricing_plan_id":"cebpf4jnsgd1na2vs0mg"},{"bike_id":"51a48236-d0d7-4bea-a79b-960b93048935","system_id":"levelo_inurba_marseille","lat":43.29581,"lon":5.36756,"is_reserved":false,"is_disabled":false,"rental_uris":{"android":"levelo://app?vid=51a48236-d0d7-4bea-a79b-960b93048935","ios":"levelo://app?vid=51a48236-d0d7-4bea-a79b-960b93048935"},"vehicle_type_id":"4","last_reported":1774109796,"current_range_meters":2800,"station_id":"ce4bgph2rcd13ifvqc2g","pricing_plan_id":"cebpf4jnsgd1na2vs0mg"},{"bike_id":"7da7757f-73e8-4f4f-8998-8a7f2ac48f04","system_id":"levelo_inurba_marseille","lat":43.29573,"lon":5.39988,"is_reserved":false,"is_disabled":false,"rental_uris":{"android":"levelo://app?vid=7da7757f-73e8-4f4f-8998-8a7f2ac48f04","ios":"levelo://app?vid=7da7757f-73e8-4f4f-8998-8a7f2ac48f04"},"vehicle_type_id":"4","last_reported":1774109796,"current_range_meters":2800,"station_id":"ce4bh312rcd13ifvqdj0","pricing_plan_id":"cebpf4jnsgd1na2vs0mg"},{"bike_id":"005562ad-de25-4a8a-8333-9aac094a362b","system_id":"levelo_inurba_marseille","lat":43.26565,"lon":5.40332,"is_reserved":false,"is_disabled":false,"rental_uris":{"android":"levelo://app?vid=005562ad-de25-4a8a-8333-9aac094a362b","ios":"levelo://app?vid=005562ad-de25-4a8a-8333-9aac094a362b"},"vehicle_type_id":"4","last_reported":1774109796,"current_range_meters":2800,"station_id":"ce4bhmp2rcd13ifvqgng","pricing_plan_id":"cebpf4jnsgd1na2vs0mg"},{"bike_id":"9b9caee4-07b1-4565-9ec2-aa30e3345955","system_id":"levelo_inurba_marseille","lat":43.26584,"lon":5.39033,"is_reserved":false,"is_disabled":false,"rental_uris":{"android":"levelo://app?vid=9b9caee4-07b1-4565-9ec2-aa30e3345955","ios":"levelo://app?vid=9b9caee4-07b1-4565-9ec2-aa30e3345955"},"vehicle_type_id":"4","last_reported":1774109796,"current_range_meters":2800,"station_id":"ce4bhe12rcd13ifvqf30","pricing_plan_id":"cebpf4jnsgd1na2vs0mg"},{"bike_id":"c142af26-b83c-4aa3-ab8b-699576493d34","system_id":"levelo_inurba_marseille","lat":43.21204,"lon":5.35077,"is_reserved":false,"is_disabled":true,"rental_uris":{"android":"levelo://app?vid=c142af26-b83c-4aa3-ab8b-699576493d34","ios":"levelo://app?vid=c142af26-b83c-4aa3-ab8b-699576493d34"},"vehicle_type_id":"4","last_reported":1774109796,"current_range_meters":2800,"station_id":"st_cvj6sg6p6f1abm77japg","pricing_plan_id":"cebpf4jnsgd1na2vs0mg"},{"bike_id":"29705345-7a8e-4bdd-8b65-5ba8856c877f","system_id":"levelo_inurba_marseille","lat":43.30291,"lon":5.44947,"is_reserved":false,"is_disabled":false,"rental_uris":{"android":"levelo://app?vid=29705345-7a8e-4bdd-8b65-5ba8856c877f","ios":"levelo://app?vid=29705345-7a8e-4bdd-8b65-5ba8856c877f"},"vehicle_type_id":"4","last_reported":1774109796,"current_range_meters":2800,"station_id":"","pricing_plan_id":"cebpf4jnsgd1na2vs0mg"},{"bike_id":"e06fd108-91aa-4d6c-806f-97c5f67add14","system_id":"levelo_inurba_marseille","lat":43.29605,"lon":5.38114,"is_reserved":false,"is_disabled":false,"rental_uris":{"android":"levelo://app?vid=e06fd108-91aa-4d6c-806f-97c5f67add14","ios":"levelo://app?vid=e06fd108-91aa-4d6c-806f-97c5f67add14"},"vehicle_type_id":"4","last_reported":1774109796,"current_range_meters":2800,"station_id":"ce4bgl12rcd13ifvqbo0","pricing_plan_id":"cebpf4jnsgd1na2vs0mg"},{"bike_id":"e708b6c0-a0aa-46d0-a47a-53a96e3018e8","system_id":"levelo_inurba_marseille","lat":43.24641,"lon":5.43157,"is_reserved":false,"is_disabled":false,"rental_uris":{"android":"levelo://app?vid=e708b6c0-a0aa-46d0-a47a-53a96e3018e8","ios":"levelo://app?vid=e708b6c0-a0aa-46d0-a47a-53a96e3018e8"},"vehicle_type_id":"4","last_reported":1774109796,"current_range_meters":2800,"station_id":"","pricing_plan_id":"cebpf4jnsgd1na2vs0mg"},{"bike_id":"e6061808-f473-4c82-a423-8d4025d986d7","system_id":"levelo_inurba_marseille","lat":43.29617,"lon":5.37149,"is_reserved":false,"is_disabled":false,"rental_uris":{"android":"levelo://app?vid=e6061808-f473-4c82-a423-8d4025d986d7","ios":"levelo://app?vid=e6061808-f473-4c82-a423-8d4025d986d7"},"vehicle_type_id":"4","last_reported":1774109796,"current_range_meters":2800,"station_id":"ce4bgnh2rcd13ifvqc0g","pricing_plan_id":"cebpf4jnsgd1na2vs0mg"},{"bike_id":"ea965381-276d-4f79-a5c4-c5ba6de2437f","system_id":"levelo_inurba_marseille","lat":43.27631,"lon":5.36125,"is_reserved":false,"is_disabled":false,"rental_uris":{"android":"levelo://app?vid=ea965381-276d-4f79-a5c4-c5ba6de2437f","ios":"levelo://app?vid=ea965381-276d-4f79-a5c4-c5ba6de2437f"},"vehicle_type_id":"4","last_reported":1774109796,"current_range_meters":2800,"station_id":"ce4bgj92rcd13ifvqbe0","pricing_plan_id":"cebpf4jnsgd1na2vs0mg"},{"bike_id":"ec327ac2-9680-48a1-8584-22f43bc41c50","system_id":"levelo_inurba_marseille","lat":43.29269,"lon":5.37614,"is_reserved":false,"is_disabled":true,"rental_uris":{"android":"levelo://app?vid=ec327ac2-9680-48a1-8584-22f43bc41c50","ios":"levelo://app?vid=ec327ac2-9680-48a1-8584-22f43bc41c50"},"vehicle_type_id":"4","last_reported":1774109796,"current_range_meters":2800,"station_id":"","pricing_plan_id":"cebpf4jnsgd1na2vs0mg"},{"bike_id":"feef55a9-165c-40b0-ab63-0afc18b21d07","system_id":"levelo_inurba_marseille","lat":43.33542,"lon":5.37466,"is_reserved":false,"is_disabled":false,"rental_uris":{"android":"levelo://app?vid=feef55a9-165c-40b0-ab63-0afc18b21d07","ios":"levelo://app?vid=feef55a9-165c-40b0-ab63-0afc18b21d07"},"vehicle_type_id":"4","last_reported":1774109796,"current_range_meters":3200,"station_id":"st_d46tts09ee8s73dlu43g","pricing_plan_id":"cebpf4jnsgd1na2vs0mg"},{"bike_id":"45f343c6-d246-4003-b6a7-edca73dbc20b","system_id":"levelo_inurba_marseille","lat":43.27908,"lon":5.39175,"is_reserved":false,"is_disabled":false,"rental_uris":{"android":"levelo://app?vid=45f343c6-d246-4003-b6a7-edca73dbc20b","ios":"levelo://app?vid=45f343c6-d246-4003-b6a7-edca73dbc20b"},"vehicle_type_id":"4","last_reported":1774109796,"current_range_meters":3200,"station_id":"","pricing_plan_id":"cebpf4jnsgd1na2vs0mg"},{"bike_id":"7e3fe35a-02a8-4e9a-bafd-ecb393f71d00","system_id":"levelo_inurba_marseille","lat":43.28856,"lon":5.42518,"is_reserved":false,"is_disabled":false,"rental_uris":{"android":"levelo://app?vid=7e3fe35a-02a8-4e9a-bafd-ecb393f71d00","ios":"levelo://app?vid=7e3fe35a-02a8-4e9a-bafd-ecb393f71d00"},"vehicle_type_id":"4","last_reported":1774109796,"current_range_meters":3200,"station_id":"","pricing_plan_id":"cebpf4jnsgd1na2vs0mg"},{"bike_id":"c7cc5081-8a90-4664-8378-0ac0db8d74fb","system_id":"levelo_inurba_marseille","lat":43.29823,"lon":5.36739,"is_reserved":false,"is_disabled":false,"rental_uris":{"android":"levelo://app?vid=c7cc5081-8a90-4664-8378-0ac0db8d74fb","ios":"levelo://app?vid=c7cc5081-8a90-4664-8378-0ac0db8d74fb"},"vehicle_type_id":"4","last_reported":1774109796,"current_range_meters":3200,"station_id":"","pricing_plan_id":"cebpf4jnsgd1na2vs0mg"},{"bike_id":"320eff38-2012-4f28-aecb-370a9d82401a","system_id":"levelo_inurba_marseille","lat":43.30654,"lon":5.40094,"is_reserved":false,"is_disabled":false,"rental_uris":{"android":"levelo://app?vid=320eff38-2012-4f28-aecb-370a9d82401a","ios":"levelo://app?vid=320eff38-2012-4f28-aecb-370a9d82401a"},"vehicle_type_id":"4","last_reported":1774109796,"current_range_meters":3200,"station_id":"ce4bh112rcd13ifvqda0","pricing_plan_id":"cebpf4jnsgd1na2vs0mg"},{"bike_id":"7358387e-352c-4926-9db3-f6e7b8e6aa1e","system_id":"levelo_inurba_marseille","lat":43.2622,"lon":5.37441,"is_reserved":false,"is_disabled":false,"rental_uris":{"android":"levelo://app?vid=7358387e-352c-4926-9db3-f6e7b8e6aa1e","ios":"levelo://app?vid=7358387e-352c-4926-9db3-f6e7b8e6aa1e"},"vehicle_type_id":"4","last_reported":1774109796,"current_range_meters":3200,"station_id":"ce4bhgp2rcd13ifvqfc0","pricing_plan_id":"cebpf4jnsgd1na2vs0mg"},{"bike_id":"0e9df1b6-908f-4e18-81e1-9a164798c2e1","system_id":"levelo_inurba_marseille","lat":43.30481,"lon":5.36709,"is_reserved":false,"is_disabled":true,"rental_uris":{"android":"levelo://app?vid=0e9df1b6-908f-4e18-81e1-9a164798c2e1","ios":"levelo://app?vid=0e9df1b6-908f-4e18-81e1-9a164798c2e1"},"vehicle_type_id":"4","last_reported":1774109796,"current_range_meters":3200,"station_id":"","pricing_plan_id":"cebpf4jnsgd1na2vs0mg"},{"bike_id":"29ceb06a-4df8-4e2a-9dd9-b070e185b37f","system_id":"levelo_inurba_marseille","lat":43.2848,"lon":5.48388,"is_reserved":false,"is_disabled":false,"rental_uris":{"android":"levelo://app?vid=29ceb06a-4df8-4e2a-9dd9-b070e185b37f","ios":"levelo://app?vid=29ceb06a-4df8-4e2a-9dd9-b070e185b37f"},"vehicle_type_id":"4","last_reported":1774109796,"current_range_meters":3200,"station_id":"","pricing_plan_id":"cebpf4jnsgd1na2vs0mg"},{"bike_id":"e5eba928-e3a4-441b-9540-937747ee47b9","system_id":"levelo_inurba_marseille","lat":43.22569,"lon":5.41624,"is_reserved":false,"is_disabled":false,"rental_uris":{"android":"levelo://app?vid=e5eba928-e3a4-441b-9540-937747ee47b9","ios":"levelo://app?vid=e5eba928-e3a4-441b-9540-937747ee47b9"},"vehicle_type_id":"4","last_reported":1774109796,"current_range_meters":3200,"station_id":"st_d2o4gvlbi1j2169b742g","pricing_plan_id":"cebpf4jnsgd1na2vs0mg"},{"bike_id":"b8a201cd-e7dd-4b4f-a672-90bf70fac90e","system_id":"levelo_inurba_marseille","lat":43.29966,"lon":5.37163,"is_reserved":false,"is_disabled":false,"rental_uris":{"android":"levelo://app?vid=b8a201cd-e7dd-4b4f-a672-90bf70fac90e","ios":"levelo://app?vid=b8a201cd-e7dd-4b4f-a672-90bf70fac90e"},"vehicle_type_id":"4","last_reported":1774109796,"current_range_meters":3200,"station_id":"ce4bgr92rcd13ifvqc7g","pricing_plan_id":"cebpf4jnsgd1na2vs0mg"},{"bike_id":"f03b2cfc-d010-482b-b4ed-4066ca6be77f","system_id":"levelo_inurba_marseille","lat":43.27578,"lon":5.3841,"is_reserved":false,"is_disabled":false,"rental_uris":{"android":"levelo://app?vid=f03b2cfc-d010-482b-b4ed-4066ca6be77f","ios":"levelo://app?vid=f03b2cfc-d010-482b-b4ed-4066ca6be77f"},"vehicle_type_id":"4","last_reported":1774109796,"current_range_meters":3200,"station_id":"ce4bhh92rcd13ifvqfi0","pricing_plan_id":"cebpf4jnsgd1na2vs0mg"},{"bike_id":"e13d0eae-0076-4a0d-9816-fc4654ff2d37","system_id":"levelo_inurba_marseille","lat":43.2439,"lon":5.37052,"is_reserved":false,"is_disabled":false,"rental_uris":{"android":"levelo://app?vid=e13d0eae-0076-4a0d-9816-fc4654ff2d37","ios":"levelo://app?vid=e13d0eae-0076-4a0d-9816-fc4654ff2d37"},"vehicle_type_id":"4","last_reported":1774109796,"current_range_meters":3200,"station_id":"ce4bhhh2rcd13ifvqfk0","pricing_plan_id":"cebpf4jnsgd1na2vs0mg"},{"bike_id":"707d188d-7323-43a5-9149-6ac9e3dad673","system_id":"levelo_inurba_marseille","lat":43.24467,"lon":5.42535,"is_reserved":false,"is_disabled":false,"rental_uris":{"android":"levelo://app?vid=707d188d-7323-43a5-9149-6ac9e3dad673","ios":"levelo://app?vid=707d188d-7323-43a5-9149-6ac9e3dad673"},"vehicle_type_id":"4","last_reported":1774109796,"current_range_meters":3200,"station_id":"st_d4a3vfp97mjs738cd8kg","pricing_plan_id":"cebpf4jnsgd1na2vs0mg"},{"bike_id":"d13beb39-6370-4275-bcf3-5e08790510bd","system_id":"levelo_inurba_marseille","lat":43.28532,"lon":5.44103,"is_reserved":false,"is_disabled":false,"rental_uris":{"android":"levelo://app?vid=d13beb39-6370-4275-bcf3-5e08790510bd","ios":"levelo://app?vid=d13beb39-6370-4275-bcf3-5e08790510bd"},"vehicle_type_id":"4","last_reported":1774109796,"current_range_meters":3200,"station_id":"st_d3j3df2ikq2c7380ej80","pricing_plan_id":"cebpf4jnsgd1na2vs0mg"},{"bike_id":"d1d67387-4202-48f7-aa8f-c06e86177e0e","system_id":"levelo_inurba_marseille","lat":43.27996,"lon":5.41666,"is_reserved":false,"is_disabled":false,"rental_uris":{"android":"levelo://app?vid=d1d67387-4202-48f7-aa8f-c06e86177e0e","ios":"levelo://app?vid=d1d67387-4202-48f7-aa8f-c06e86177e0e"},"vehicle_type_id":"4","last_reported":1774109796,"current_range_meters":3600,"station_id":"ce4bho12rcd13ifvqh1g","pricing_plan_id":"cebpf4jnsgd1na2vs0mg"},{"bike_id":"a775511c-9985-4a58-8c4c-775aad7f3e36","system_id":"levelo_inurba_marseille","lat":43.29896,"lon":5.43657,"is_reserved":false,"is_disabled":false,"rental_uris":{"android":"levelo://app?vid=a775511c-9985-4a58-8c4c-775aad7f3e36","ios":"levelo://app?vid=a775511c-9985-4a58-8c4c-775aad7f3e36"},"vehicle_type_id":"4","last_reported":1774109796,"current_range_meters":3600,"station_id":"ce4bhpp2rcd13ifvqhfg","pricing_plan_id":"cebpf4jnsgd1na2vs0mg"},{"bike_id":"74c2eb53-7fbc-44c9-90bf-a0c5c4cf7ddc","system_id":"levelo_inurba_marseille","lat":43.28936,"lon":5.36395,"is_reserved":false,"is_disabled":false,"rental_uris":{"android":"levelo://app?vid=74c2eb53-7fbc-44c9-90bf-a0c5c4cf7ddc","ios":"levelo://app?vid=74c2eb53-7fbc-44c9-90bf-a0c5c4cf7ddc"},"vehicle_type_id":"4","last_reported":1774109796,"current_range_meters":3600,"station_id":"ce4bhc92rcd13ifvqetg","pricing_plan_id":"cebpf4jnsgd1na2vs0mg"},{"bike_id":"c5452202-7e3f-4f4f-9db2-893a0a1e0555","system_id":"levelo_inurba_marseille","lat":43.28619,"lon":5.35109,"is_reserved":false,"is_disabled":false,"rental_uris":{"android":"levelo://app?vid=c5452202-7e3f-4f4f-9db2-893a0a1e0555","ios":"levelo://app?vid=c5452202-7e3f-4f4f-9db2-893a0a1e0555"},"vehicle_type_id":"4","last_reported":1774109796,"current_range_meters":3600,"station_id":"ce4bhch2rcd13ifvqeug","pricing_plan_id":"cebpf4jnsgd1na2vs0mg"},{"bike_id":"89ad46cf-ad84-4e5e-be57-87ac2cebe69c","system_id":"levelo_inurba_marseille","lat":43.28489,"lon":5.484,"is_reserved":false,"is_disabled":false,"rental_uris":{"android":"levelo://app?vid=89ad46cf-ad84-4e5e-be57-87ac2cebe69c","ios":"levelo://app?vid=89ad46cf-ad84-4e5e-be57-87ac2cebe69c"},"vehicle_type_id":"4","last_reported":1774109796,"current_range_meters":3600,"station_id":"st_d3svhcjqgbts73a3dn0g","pricing_plan_id":"cebpf4jnsgd1na2vs0mg"},{"bike_id":"1028ab09-260c-4519-acf9-0b251691f063","system_id":"levelo_inurba_marseille","lat":43.31045,"lon":5.37161,"is_reserved":false,"is_disabled":false,"rental_uris":{"android":"levelo://app?vid=1028ab09-260c-4519-acf9-0b251691f063","ios":"levelo://app?vid=1028ab09-260c-4519-acf9-0b251691f063"},"vehicle_type_id":"4","last_reported":1774109796,"current_range_meters":3600,"station_id":"st_d4kl2rp97mjs73e7tdfg","pricing_plan_id":"cebpf4jnsgd1na2vs0mg"},{"bike_id":"5daa7b99-a795-4481-8f02-5815bcbecc1c","system_id":"levelo_inurba_marseille","lat":43.21196,"lon":5.35068,"is_reserved":false,"is_disabled":false,"rental_uris":{"android":"levelo://app?vid=5daa7b99-a795-4481-8f02-5815bcbecc1c","ios":"levelo://app?vid=5daa7b99-a795-4481-8f02-5815bcbecc1c"},"vehicle_type_id":"4","last_reported":1774109796,"current_range_meters":3600,"station_id":"st_cvj6sg6p6f1abm77japg","pricing_plan_id":"cebpf4jnsgd1na2vs0mg"},{"bike_id":"8f957662-a2f8-434b-b9b1-ac7debf94d1c","system_id":"levelo_inurba_marseille","lat":43.23194,"lon":5.35543,"is_reserved":false,"is_disabled":false,"rental_uris":{"android":"levelo://app?vid=8f957662-a2f8-434b-b9b1-ac7debf94d1c","ios":"levelo://app?vid=8f957662-a2f8-434b-b9b1-ac7debf94d1c"},"vehicle_type_id":"4","last_reported":1774109796,"current_range_meters":3600,"station_id":"ce4bhu92rcd13ifvqi70","pricing_plan_id":"cebpf4jnsgd1na2vs0mg"},{"bike_id":"d4aab31a-ea9b-4866-a8a4-4171195167e9","system_id":"levelo_inurba_marseille","lat":43.31281,"lon":5.40163,"is_reserved":false,"is_disabled":false,"rental_uris":{"android":"levelo://app?vid=d4aab31a-ea9b-4866-a8a4-4171195167e9","ios":"levelo://app?vid=d4aab31a-ea9b-4866-a8a4-4171195167e9"},"vehicle_type_id":"4","last_reported":1774109796,"current_range_meters":3600,"station_id":"ce4bh092rcd13ifvqd30","pricing_plan_id":"cebpf4jnsgd1na2vs0mg"},{"bike_id":"63374dd1-bdb2-4956-a4e5-e028aa893baf","system_id":"levelo_inurba_marseille","lat":43.28476,"lon":5.38427,"is_reserved":false,"is_disabled":true,"rental_uris":{"android":"levelo://app?vid=63374dd1-bdb2-4956-a4e5-e028aa893baf","ios":"levelo://app?vid=63374dd1-bdb2-4956-a4e5-e028aa893baf"},"vehicle_type_id":"4","last_reported":1774109796,"current_range_meters":4000,"station_id":"ce4bh512rcd13ifvqe3g","pricing_plan_id":"cebpf4jnsgd1na2vs0mg"},{"bike_id":"0b80614f-d40b-4c87-8d5b-e697d23814e4","system_id":"levelo_inurba_marseille","lat":43.3091,"lon":5.36846,"is_reserved":false,"is_disabled":false,"rental_uris":{"android":"levelo://app?vid=0b80614f-d40b-4c87-8d5b-e697d23814e4","ios":"levelo://app?vid=0b80614f-d40b-4c87-8d5b-e697d23814e4"},"vehicle_type_id":"4","last_reported":1774109796,"current_range_meters":4000,"station_id":"ce4bgn92rcd13ifvqbvg","pricing_plan_id":"cebpf4jnsgd1na2vs0mg"},{"bike_id":"b3901de5-e8fd-4803-9f29-223c0e417f1b","system_id":"levelo_inurba_marseille","lat":43.2397,"lon":5.36637,"is_reserved":false,"is_disabled":false,"rental_uris":{"android":"levelo://app?vid=b3901de5-e8fd-4803-9f29-223c0e417f1b","ios":"levelo://app?vid=b3901de5-e8fd-4803-9f29-223c0e417f1b"},"vehicle_type_id":"4","last_reported":1774109796,"current_range_meters":4000,"station_id":"ce4bhi12rcd13ifvqfp0","pricing_plan_id":"cebpf4jnsgd1na2vs0mg"},{"bike_id":"53f48266-4564-420b-96ab-d243233055dc","system_id":"levelo_inurba_marseille","lat":43.28483,"lon":5.48398,"is_reserved":false,"is_disabled":false,"rental_uris":{"android":"levelo://app?vid=53f48266-4564-420b-96ab-d243233055dc","ios":"levelo://app?vid=53f48266-4564-420b-96ab-d243233055dc"},"vehicle_type_id":"4","last_reported":1774109796,"current_range_meters":4000,"station_id":"","pricing_plan_id":"cebpf4jnsgd1na2vs0mg"},{"bike_id":"0f699794-8202-4161-a052-1d39a341c5fa","system_id":"levelo_inurba_marseille","lat":43.31215,"lon":5.3872,"is_reserved":false,"is_disabled":true,"rental_uris":{"android":"levelo://app?vid=0f699794-8202-4161-a052-1d39a341c5fa","ios":"levelo://app?vid=0f699794-8202-4161-a052-1d39a341c5fa"},"vehicle_type_id":"4","last_reported":1774109796,"current_range_meters":4000,"station_id":"ce4bgv12rcd13ifvqcp0","pricing_plan_id":"cebpf4jnsgd1na2vs0mg"},{"bike_id":"7bfd6e0d-01da-4a77-94e7-99244d3944f7","system_id":"levelo_inurba_marseille","lat":43.26571,"lon":5.39016,"is_reserved":false,"is_disabled":false,"rental_uris":{"android":"levelo://app?vid=7bfd6e0d-01da-4a77-94e7-99244d3944f7","ios":"levelo://app?vid=7bfd6e0d-01da-4a77-94e7-99244d3944f7"},"vehicle_type_id":"4","last_reported":1774109796,"current_range_meters":4000,"station_id":"ce4bhe12rcd13ifvqf30","pricing_plan_id":"cebpf4jnsgd1na2vs0mg"},{"bike_id":"265d135a-cdab-4a3a-be63-cdd9ae4f42ff","system_id":"levelo_inurba_marseille","lat":43.232,"lon":5.35561,"is_reserved":false,"is_disabled":false,"rental_uris":{"android":"levelo://app?vid=265d135a-cdab-4a3a-be63-cdd9ae4f42ff","ios":"levelo://app?vid=265d135a-cdab-4a3a-be63-cdd9ae4f42ff"},"vehicle_type_id":"4","last_reported":1774109796,"current_range_meters":4000,"station_id":"ce4bhu92rcd13ifvqi70","pricing_plan_id":"cebpf4jnsgd1na2vs0mg"},{"bike_id":"25711bef-13f9-48fd-8f33-592148b8dc65","system_id":"levelo_inurba_marseille","lat":43.25343,"lon":5.42168,"is_reserved":false,"is_disabled":false,"rental_uris":{"android":"levelo://app?vid=25711bef-13f9-48fd-8f33-592148b8dc65","ios":"levelo://app?vid=25711bef-13f9-48fd-8f33-592148b8dc65"},"vehicle_type_id":"4","last_reported":1774109796,"current_range_meters":4000,"station_id":"st_d2m65c5bi1j21697t3ng","pricing_plan_id":"cebpf4jnsgd1na2vs0mg"},{"bike_id":"67a72702-b41b-4d43-9299-d9e8bcc1ef17","system_id":"levelo_inurba_marseille","lat":43.24391,"lon":5.37067,"is_reserved":false,"is_disabled":false,"rental_uris":{"android":"levelo://app?vid=67a72702-b41b-4d43-9299-d9e8bcc1ef17","ios":"levelo://app?vid=67a72702-b41b-4d43-9299-d9e8bcc1ef17"},"vehicle_type_id":"4","last_reported":1774109796,"current_range_meters":4000,"station_id":"ce4bhhh2rcd13ifvqfk0","pricing_plan_id":"cebpf4jnsgd1na2vs0mg"},{"bike_id":"57a2828c-6077-42a8-91df-3b89bead445f","system_id":"levelo_inurba_marseille","lat":43.26029,"lon":5.37548,"is_reserved":false,"is_disabled":false,"rental_uris":{"android":"levelo://app?vid=57a2828c-6077-42a8-91df-3b89bead445f","ios":"levelo://app?vid=57a2828c-6077-42a8-91df-3b89bead445f"},"vehicle_type_id":"4","last_reported":1774109796,"current_range_meters":4000,"station_id":"ce4bhgh2rcd13ifvqfa0","pricing_plan_id":"cebpf4jnsgd1na2vs0mg"},{"bike_id":"747e90b2-e3b1-4b64-b3b3-09f5bd1a72c4","system_id":"levelo_inurba_marseille","lat":43.23965,"lon":5.3663,"is_reserved":false,"is_disabled":false,"rental_uris":{"android":"levelo://app?vid=747e90b2-e3b1-4b64-b3b3-09f5bd1a72c4","ios":"levelo://app?vid=747e90b2-e3b1-4b64-b3b3-09f5bd1a72c4"},"vehicle_type_id":"4","last_reported":1774109796,"current_range_meters":4000,"station_id":"ce4bhi12rcd13ifvqfp0","pricing_plan_id":"cebpf4jnsgd1na2vs0mg"},{"bike_id":"19002125-2806-4d33-9a79-02f683857dc1","system_id":"levelo_inurba_marseille","lat":43.3236,"lon":5.38882,"is_reserved":false,"is_disabled":false,"rental_uris":{"android":"levelo://app?vid=19002125-2806-4d33-9a79-02f683857dc1","ios":"levelo://app?vid=19002125-2806-4d33-9a79-02f683857dc1"},"vehicle_type_id":"4","last_reported":1774109796,"current_range_meters":4000,"station_id":"ce4bhqp2rcd13ifvqhog","pricing_plan_id":"cebpf4jnsgd1na2vs0mg"},{"bike_id":"d23b0375-969a-4144-ba4c-5ad609e2673f","system_id":"levelo_inurba_marseille","lat":43.29597,"lon":5.36755,"is_reserved":false,"is_disabled":false,"rental_uris":{"android":"levelo://app?vid=d23b0375-969a-4144-ba4c-5ad609e2673f","ios":"levelo://app?vid=d23b0375-969a-4144-ba4c-5ad609e2673f"},"vehicle_type_id":"4","last_reported":1774109796,"current_range_meters":4000,"station_id":"ce4bgph2rcd13ifvqc2g","pricing_plan_id":"cebpf4jnsgd1na2vs0mg"},{"bike_id":"b14bb5e1-7882-4380-b389-98bb380dac81","system_id":"levelo_inurba_marseille","lat":43.2396,"lon":5.36629,"is_reserved":false,"is_disabled":false,"rental_uris":{"android":"levelo://app?vid=b14bb5e1-7882-4380-b389-98bb380dac81","ios":"levelo://app?vid=b14bb5e1-7882-4380-b389-98bb380dac81"},"vehicle_type_id":"4","last_reported":1774109796,"current_range_meters":4000,"station_id":"ce4bhi12rcd13ifvqfp0","pricing_plan_id":"cebpf4jnsgd1na2vs0mg"},{"bike_id":"8aeb1ffc-b432-4235-8304-c0a4c58e7fe3","system_id":"levelo_inurba_marseille","lat":43.29746,"lon":5.38374,"is_reserved":false,"is_disabled":false,"rental_uris":{"android":"levelo://app?vid=8aeb1ffc-b432-4235-8304-c0a4c58e7fe3","ios":"levelo://app?vid=8aeb1ffc-b432-4235-8304-c0a4c58e7fe3"},"vehicle_type_id":"4","last_reported":1774109796,"current_range_meters":4400,"station_id":"","pricing_plan_id":"cebpf4jnsgd1na2vs0mg"},{"bike_id":"f1112a6a-2fe9-43a5-a834-047dd31a2418","system_id":"levelo_inurba_marseille","lat":43.29591,"lon":5.386644,"is_reserved":false,"is_disabled":false,"rental_uris":{"android":"levelo://app?vid=f1112a6a-2fe9-43a5-a834-047dd31a2418","ios":"levelo://app?vid=f1112a6a-2fe9-43a5-a834-047dd31a2418"},"vehicle_type_id":"4","last_reported":1774109796,"current_range_meters":4400,"station_id":"","pricing_plan_id":"cebpf4jnsgd1na2vs0mg"},{"bike_id":"8c58b0d9-9656-46e3-8a34-ddd6f69af103","system_id":"levelo_inurba_marseille","lat":43.27623,"lon":5.36111,"is_reserved":false,"is_disabled":false,"rental_uris":{"android":"levelo://app?vid=8c58b0d9-9656-46e3-8a34-ddd6f69af103","ios":"levelo://app?vid=8c58b0d9-9656-46e3-8a34-ddd6f69af103"},"vehicle_type_id":"4","last_reported":1774109796,"current_range_meters":4400,"station_id":"ce4bgj92rcd13ifvqbe0","pricing_plan_id":"cebpf4jnsgd1na2vs0mg"},{"bike_id":"9bedb971-6887-4d43-88c8-1762430f453d","system_id":"levelo_inurba_marseille","lat":43.24663,"lon":5.38163,"is_reserved":false,"is_disabled":true,"rental_uris":{"android":"levelo://app?vid=9bedb971-6887-4d43-88c8-1762430f453d","ios":"levelo://app?vid=9bedb971-6887-4d43-88c8-1762430f453d"},"vehicle_type_id":"4","last_reported":1774109796,"current_range_meters":4400,"station_id":"ce4bhih2rcd13ifvqfr0","pricing_plan_id":"cebpf4jnsgd1na2vs0mg"},{"bike_id":"7b838dfb-31fb-41a9-a22c-74265449346a","system_id":"levelo_inurba_marseille","lat":43.29265,"lon":5.37615,"is_reserved":false,"is_disabled":false,"rental_uris":{"android":"levelo://app?vid=7b838dfb-31fb-41a9-a22c-74265449346a","ios":"levelo://app?vid=7b838dfb-31fb-41a9-a22c-74265449346a"},"vehicle_type_id":"4","last_reported":1774109796,"current_range_meters":4400,"station_id":"ce4bgi12rcd13ifvqb80","pricing_plan_id":"cebpf4jnsgd1na2vs0mg"},{"bike_id":"7fa64d84-cd92-4f02-a79d-c348b129b15f","system_id":"levelo_inurba_marseille","lat":43.24176,"lon":5.36417,"is_reserved":false,"is_disabled":false,"rental_uris":{"android":"levelo://app?vid=7fa64d84-cd92-4f02-a79d-c348b129b15f","ios":"levelo://app?vid=7fa64d84-cd92-4f02-a79d-c348b129b15f"},"vehicle_type_id":"4","last_reported":1774109796,"current_range_meters":4400,"station_id":"cpo36qri1sfpv3e86is0","pricing_plan_id":"cebpf4jnsgd1na2vs0mg"},{"bike_id":"fdc655d4-8c99-4d97-9c1e-46ec98ef8979","system_id":"levelo_inurba_marseille","lat":43.2862,"lon":5.35098,"is_reserved":false,"is_disabled":true,"rental_uris":{"android":"levelo://app?vid=fdc655d4-8c99-4d97-9c1e-46ec98ef8979","ios":"levelo://app?vid=fdc655d4-8c99-4d97-9c1e-46ec98ef8979"},"vehicle_type_id":"4","last_reported":1774109796,"current_range_meters":4800,"station_id":"","pricing_plan_id":"cebpf4jnsgd1na2vs0mg"},{"bike_id":"190ac252-5242-4b2b-86f5-67c93f33d240","system_id":"levelo_inurba_marseille","lat":43.25343,"lon":5.42174,"is_reserved":false,"is_disabled":false,"rental_uris":{"android":"levelo://app?vid=190ac252-5242-4b2b-86f5-67c93f33d240","ios":"levelo://app?vid=190ac252-5242-4b2b-86f5-67c93f33d240"},"vehicle_type_id":"4","last_reported":1774109796,"current_range_meters":4800,"station_id":"st_d2m65c5bi1j21697t3ng","pricing_plan_id":"cebpf4jnsgd1na2vs0mg"},{"bike_id":"c8f87935-b49c-40c3-8044-9e63b43c39f5","system_id":"levelo_inurba_marseille","lat":43.28635,"lon":5.35139,"is_reserved":false,"is_disabled":false,"rental_uris":{"android":"levelo://app?vid=c8f87935-b49c-40c3-8044-9e63b43c39f5","ios":"levelo://app?vid=c8f87935-b49c-40c3-8044-9e63b43c39f5"},"vehicle_type_id":"4","last_reported":1774109796,"current_range_meters":4800,"station_id":"ce4bhch2rcd13ifvqeug","pricing_plan_id":"cebpf4jnsgd1na2vs0mg"},{"bike_id":"b002b918-c574-4145-a4f6-68e52dd6b2bf","system_id":"levelo_inurba_marseille","lat":43.29931,"lon":5.36573,"is_reserved":false,"is_disabled":false,"rental_uris":{"android":"levelo://app?vid=b002b918-c574-4145-a4f6-68e52dd6b2bf","ios":"levelo://app?vid=b002b918-c574-4145-a4f6-68e52dd6b2bf"},"vehicle_type_id":"4","last_reported":1774109796,"current_range_meters":4800,"station_id":"ce4bgm92rcd13ifvqbr0","pricing_plan_id":"cebpf4jnsgd1na2vs0mg"},{"bike_id":"e2420c11-4646-4145-aa2e-baedb91a43dc","system_id":"levelo_inurba_marseille","lat":43.32343,"lon":5.36749,"is_reserved":false,"is_disabled":false,"rental_uris":{"android":"levelo://app?vid=e2420c11-4646-4145-aa2e-baedb91a43dc","ios":"levelo://app?vid=e2420c11-4646-4145-aa2e-baedb91a43dc"},"vehicle_type_id":"4","last_reported":1774109796,"current_range_meters":4800,"station_id":"ce4bhsh2rcd13ifvqi2g","pricing_plan_id":"cebpf4jnsgd1na2vs0mg"},{"bike_id":"f3414e99-2d7c-4b03-96db-df8c1c6d3f2b","system_id":"levelo_inurba_marseille","lat":43.28473,"lon":5.48407,"is_reserved":false,"is_disabled":false,"rental_uris":{"android":"levelo://app?vid=f3414e99-2d7c-4b03-96db-df8c1c6d3f2b","ios":"levelo://app?vid=f3414e99-2d7c-4b03-96db-df8c1c6d3f2b"},"vehicle_type_id":"4","last_reported":1774109796,"current_range_meters":4800,"station_id":"","pricing_plan_id":"cebpf4jnsgd1na2vs0mg"},{"bike_id":"bc398ecf-f942-4bfc-a54a-d88839d57af0","system_id":"levelo_inurba_marseille","lat":43.21191,"lon":5.35067,"is_reserved":false,"is_disabled":false,"rental_uris":{"android":"levelo://app?vid=bc398ecf-f942-4bfc-a54a-d88839d57af0","ios":"levelo://app?vid=bc398ecf-f942-4bfc-a54a-d88839d57af0"},"vehicle_type_id":"4","last_reported":1774109796,"current_range_meters":4800,"station_id":"st_cvj6sg6p6f1abm77japg","pricing_plan_id":"cebpf4jnsgd1na2vs0mg"},{"bike_id":"a8c8307b-e1e9-4950-a785-578e1a82f805","system_id":"levelo_inurba_marseille","lat":43.31284,"lon":5.37838,"is_reserved":false,"is_disabled":false,"rental_uris":{"android":"levelo://app?vid=a8c8307b-e1e9-4950-a785-578e1a82f805","ios":"levelo://app?vid=a8c8307b-e1e9-4950-a785-578e1a82f805"},"vehicle_type_id":"4","last_reported":1774109796,"current_range_meters":4800,"station_id":"","pricing_plan_id":"cebpf4jnsgd1na2vs0mg"},{"bike_id":"962e3e51-db50-4f61-a079-9b1c6a103eb5","system_id":"levelo_inurba_marseille","lat":43.30963,"lon":5.36814,"is_reserved":false,"is_disabled":false,"rental_uris":{"android":"levelo://app?vid=962e3e51-db50-4f61-a079-9b1c6a103eb5","ios":"levelo://app?vid=962e3e51-db50-4f61-a079-9b1c6a103eb5"},"vehicle_type_id":"4","last_reported":1774109796,"current_range_meters":4800,"station_id":"","pricing_plan_id":"cebpf4jnsgd1na2vs0mg"},{"bike_id":"5a76055e-f3a1-400d-a39e-e05f5fb51d0b","system_id":"levelo_inurba_marseille","lat":43.26565,"lon":5.373,"is_reserved":false,"is_disabled":false,"rental_uris":{"android":"levelo://app?vid=5a76055e-f3a1-400d-a39e-e05f5fb51d0b","ios":"levelo://app?vid=5a76055e-f3a1-400d-a39e-e05f5fb51d0b"},"vehicle_type_id":"4","last_reported":1774109796,"current_range_meters":4800,"station_id":"ce4bhg12rcd13ifvqf70","pricing_plan_id":"cebpf4jnsgd1na2vs0mg"},{"bike_id":"dcb7fa85-9576-461b-9db4-bfb93259aa75","system_id":"levelo_inurba_marseille","lat":43.2552,"lon":5.37673,"is_reserved":false,"is_disabled":true,"rental_uris":{"android":"levelo://app?vid=dcb7fa85-9576-461b-9db4-bfb93259aa75","ios":"levelo://app?vid=dcb7fa85-9576-461b-9db4-bfb93259aa75"},"vehicle_type_id":"4","last_reported":1774109796,"current_range_meters":4800,"station_id":"ce4bhh12rcd13ifvqff0","pricing_plan_id":"cebpf4jnsgd1na2vs0mg"},{"bike_id":"5838f222-7433-4cf6-86d8-026e99fd3e4f","system_id":"levelo_inurba_marseille","lat":43.21186,"lon":5.35063,"is_reserved":false,"is_disabled":false,"rental_uris":{"android":"levelo://app?vid=5838f222-7433-4cf6-86d8-026e99fd3e4f","ios":"levelo://app?vid=5838f222-7433-4cf6-86d8-026e99fd3e4f"},"vehicle_type_id":"4","last_reported":1774109796,"current_range_meters":4800,"station_id":"st_cvj6sg6p6f1abm77japg","pricing_plan_id":"cebpf4jnsgd1na2vs0mg"},{"bike_id":"2cea9d46-c32a-4a24-9abe-5dc099975957","system_id":"levelo_inurba_marseille","lat":43.2848,"lon":5.48407,"is_reserved":false,"is_disabled":false,"rental_uris":{"android":"levelo://app?vid=2cea9d46-c32a-4a24-9abe-5dc099975957","ios":"levelo://app?vid=2cea9d46-c32a-4a24-9abe-5dc099975957"},"vehicle_type_id":"4","last_reported":1774109796,"current_range_meters":4800,"station_id":"","pricing_plan_id":"cebpf4jnsgd1na2vs0mg"},{"bike_id":"7ba80008-60b8-4bf7-9180-542631266876","system_id":"levelo_inurba_marseille","lat":43.33543,"lon":5.37495,"is_reserved":false,"is_disabled":false,"rental_uris":{"android":"levelo://app?vid=7ba80008-60b8-4bf7-9180-542631266876","ios":"levelo://app?vid=7ba80008-60b8-4bf7-9180-542631266876"},"vehicle_type_id":"4","last_reported":1774109796,"current_range_meters":4800,"station_id":"st_d46tts09ee8s73dlu43g","pricing_plan_id":"cebpf4jnsgd1na2vs0mg"},{"bike_id":"b59ae9a9-8317-4ea6-bfbf-78279a3cc5e6","system_id":"levelo_inurba_marseille","lat":43.3088,"lon":5.39598,"is_reserved":false,"is_disabled":false,"rental_uris":{"android":"levelo://app?vid=b59ae9a9-8317-4ea6-bfbf-78279a3cc5e6","ios":"levelo://app?vid=b59ae9a9-8317-4ea6-bfbf-78279a3cc5e6"},"vehicle_type_id":"4","last_reported":1774109796,"current_range_meters":4800,"station_id":"ce4bh012rcd13ifvqcv0","pricing_plan_id":"cebpf4jnsgd1na2vs0mg"},{"bike_id":"cd24092c-b920-412b-b3e9-e9be24f592bc","system_id":"levelo_inurba_marseille","lat":43.255049,"lon":5.376587,"is_reserved":false,"is_disabled":false,"rental_uris":{"android":"levelo://app?vid=cd24092c-b920-412b-b3e9-e9be24f592bc","ios":"levelo://app?vid=cd24092c-b920-412b-b3e9-e9be24f592bc"},"vehicle_type_id":"4","last_reported":1774109796,"current_range_meters":4800,"station_id":"ce4bhh12rcd13ifvqff0","pricing_plan_id":"cebpf4jnsgd1na2vs0mg"},{"bike_id":"bc1dba5f-4a8f-4f4c-9c5b-63c7457f6a83","system_id":"levelo_inurba_marseille","lat":43.29672,"lon":5.3659,"is_reserved":false,"is_disabled":false,"rental_uris":{"android":"levelo://app?vid=bc1dba5f-4a8f-4f4c-9c5b-63c7457f6a83","ios":"levelo://app?vid=bc1dba5f-4a8f-4f4c-9c5b-63c7457f6a83"},"vehicle_type_id":"4","last_reported":1774109796,"current_range_meters":4800,"station_id":"ce4bgn12rcd13ifvqbt0","pricing_plan_id":"cebpf4jnsgd1na2vs0mg"},{"bike_id":"d31025f7-e4c9-4fc4-9980-3acc333ca0ff","system_id":"levelo_inurba_marseille","lat":43.26501,"lon":5.39533,"is_reserved":false,"is_disabled":false,"rental_uris":{"android":"levelo://app?vid=d31025f7-e4c9-4fc4-9980-3acc333ca0ff","ios":"levelo://app?vid=d31025f7-e4c9-4fc4-9980-3acc333ca0ff"},"vehicle_type_id":"4","last_reported":1774109796,"current_range_meters":4800,"station_id":"ce4bhi12rcd13ifvqfq0","pricing_plan_id":"cebpf4jnsgd1na2vs0mg"},{"bike_id":"98cc2142-84d0-4c0e-906c-0ea612a2c99f","system_id":"levelo_inurba_marseille","lat":43.30282,"lon":5.37715,"is_reserved":false,"is_disabled":false,"rental_uris":{"android":"levelo://app?vid=98cc2142-84d0-4c0e-906c-0ea612a2c99f","ios":"levelo://app?vid=98cc2142-84d0-4c0e-906c-0ea612a2c99f"},"vehicle_type_id":"4","last_reported":1774109796,"current_range_meters":4800,"station_id":"ce4bguh2rcd13ifvqcj0","pricing_plan_id":"cebpf4jnsgd1na2vs0mg"},{"bike_id":"9f8ffab3-2c31-4f0d-a4c5-042279c01696","system_id":"levelo_inurba_marseille","lat":43.28716,"lon":5.37935,"is_reserved":false,"is_disabled":false,"rental_uris":{"android":"levelo://app?vid=9f8ffab3-2c31-4f0d-a4c5-042279c01696","ios":"levelo://app?vid=9f8ffab3-2c31-4f0d-a4c5-042279c01696"},"vehicle_type_id":"4","last_reported":1774109796,"current_range_meters":4800,"station_id":"ce4bh9p2rcd13ifvqec0","pricing_plan_id":"cebpf4jnsgd1na2vs0mg"},{"bike_id":"6750cbef-378e-474b-971b-fa97c303ee52","system_id":"levelo_inurba_marseille","lat":43.3117,"lon":5.38666,"is_reserved":false,"is_disabled":false,"rental_uris":{"android":"levelo://app?vid=6750cbef-378e-474b-971b-fa97c303ee52","ios":"levelo://app?vid=6750cbef-378e-474b-971b-fa97c303ee52"},"vehicle_type_id":"4","last_reported":1774109796,"current_range_meters":5600,"station_id":"ce4bgv12rcd13ifvqcp0","pricing_plan_id":"cebpf4jnsgd1na2vs0mg"},{"bike_id":"95eb3b06-b795-496b-bd52-db750e698058","system_id":"levelo_inurba_marseille","lat":43.28408,"lon":5.37517,"is_reserved":false,"is_disabled":false,"rental_uris":{"android":"levelo://app?vid=95eb3b06-b795-496b-bd52-db750e698058","ios":"levelo://app?vid=95eb3b06-b795-496b-bd52-db750e698058"},"vehicle_type_id":"4","last_reported":1774109796,"current_range_meters":5600,"station_id":"ce4bh412rcd13ifvqds0","pricing_plan_id":"cebpf4jnsgd1na2vs0mg"},{"bike_id":"53663f10-c972-4dad-83a0-96ec19d2a37e","system_id":"levelo_inurba_marseille","lat":43.25014,"lon":5.38914,"is_reserved":false,"is_disabled":true,"rental_uris":{"android":"levelo://app?vid=53663f10-c972-4dad-83a0-96ec19d2a37e","ios":"levelo://app?vid=53663f10-c972-4dad-83a0-96ec19d2a37e"},"vehicle_type_id":"4","last_reported":1774109796,"current_range_meters":5600,"station_id":"ce4bhgp2rcd13ifvqfd0","pricing_plan_id":"cebpf4jnsgd1na2vs0mg"},{"bike_id":"ed6eff9f-a965-4d50-8e07-51c7f11716a8","system_id":"levelo_inurba_marseille","lat":43.27395,"lon":5.36239,"is_reserved":false,"is_disabled":false,"rental_uris":{"android":"levelo://app?vid=ed6eff9f-a965-4d50-8e07-51c7f11716a8","ios":"levelo://app?vid=ed6eff9f-a965-4d50-8e07-51c7f11716a8"},"vehicle_type_id":"4","last_reported":1774109796,"current_range_meters":5600,"station_id":"ce4bhbh2rcd13ifvqeo0","pricing_plan_id":"cebpf4jnsgd1na2vs0mg"},{"bike_id":"286fba00-1c70-49c5-9491-0b3044de24cb","system_id":"levelo_inurba_marseille","lat":43.2625,"lon":5.40441,"is_reserved":false,"is_disabled":true,"rental_uris":{"android":"levelo://app?vid=286fba00-1c70-49c5-9491-0b3044de24cb","ios":"levelo://app?vid=286fba00-1c70-49c5-9491-0b3044de24cb"},"vehicle_type_id":"4","last_reported":1774109796,"current_range_meters":5600,"station_id":"ce4bhmh2rcd13ifvqgmg","pricing_plan_id":"cebpf4jnsgd1na2vs0mg"},{"bike_id":"aa1c74ba-e540-45ce-8e97-4868fa0e5a19","system_id":"levelo_inurba_marseille","lat":43.2538,"lon":5.41745,"is_reserved":false,"is_disabled":false,"rental_uris":{"android":"levelo://app?vid=aa1c74ba-e540-45ce-8e97-4868fa0e5a19","ios":"levelo://app?vid=aa1c74ba-e540-45ce-8e97-4868fa0e5a19"},"vehicle_type_id":"4","last_reported":1774109796,"current_range_meters":5600,"station_id":"","pricing_plan_id":"cebpf4jnsgd1na2vs0mg"},{"bike_id":"4f62c67d-cf3e-4631-8c3b-6262b9297751","system_id":"levelo_inurba_marseille","lat":43.29621,"lon":5.37724,"is_reserved":false,"is_disabled":false,"rental_uris":{"android":"levelo://app?vid=4f62c67d-cf3e-4631-8c3b-6262b9297751","ios":"levelo://app?vid=4f62c67d-cf3e-4631-8c3b-6262b9297751"},"vehicle_type_id":"4","last_reported":1774109796,"current_range_meters":5600,"station_id":"ce4bgi92rcd13ifvqb90","pricing_plan_id":"cebpf4jnsgd1na2vs0mg"},{"bike_id":"7f79dfc9-8019-4cd4-b67e-abd879ac4fe5","system_id":"levelo_inurba_marseille","lat":43.31053,"lon":5.37157,"is_reserved":false,"is_disabled":false,"rental_uris":{"android":"levelo://app?vid=7f79dfc9-8019-4cd4-b67e-abd879ac4fe5","ios":"levelo://app?vid=7f79dfc9-8019-4cd4-b67e-abd879ac4fe5"},"vehicle_type_id":"4","last_reported":1774109796,"current_range_meters":5600,"station_id":"st_d4kl2rp97mjs73e7tdfg","pricing_plan_id":"cebpf4jnsgd1na2vs0mg"},{"bike_id":"2d9e4754-9b17-40b5-bbeb-5b1c9c5bbe64","system_id":"levelo_inurba_marseille","lat":43.30126,"lon":5.38798,"is_reserved":false,"is_disabled":true,"rental_uris":{"android":"levelo://app?vid=2d9e4754-9b17-40b5-bbeb-5b1c9c5bbe64","ios":"levelo://app?vid=2d9e4754-9b17-40b5-bbeb-5b1c9c5bbe64"},"vehicle_type_id":"4","last_reported":1774109796,"current_range_meters":5600,"station_id":"ce4bghh2rcd13ifvqb60","pricing_plan_id":"cebpf4jnsgd1na2vs0mg"},{"bike_id":"adc5ac07-5147-43c6-b3e9-46b364b058d3","system_id":"levelo_inurba_marseille","lat":43.21757,"lon":5.34604,"is_reserved":false,"is_disabled":true,"rental_uris":{"android":"levelo://app?vid=adc5ac07-5147-43c6-b3e9-46b364b058d3","ios":"levelo://app?vid=adc5ac07-5147-43c6-b3e9-46b364b058d3"},"vehicle_type_id":"4","last_reported":1774109796,"current_range_meters":5600,"station_id":"st_cvj6r9ubvosntc0bgbag","pricing_plan_id":"cebpf4jnsgd1na2vs0mg"},{"bike_id":"cc068a75-5b70-4660-8d8d-3a2a461ea05b","system_id":"levelo_inurba_marseille","lat":43.2737,"lon":5.3626,"is_reserved":false,"is_disabled":false,"rental_uris":{"android":"levelo://app?vid=cc068a75-5b70-4660-8d8d-3a2a461ea05b","ios":"levelo://app?vid=cc068a75-5b70-4660-8d8d-3a2a461ea05b"},"vehicle_type_id":"4","last_reported":1774109796,"current_range_meters":5600,"station_id":"ce4bhbh2rcd13ifvqeo0","pricing_plan_id":"cebpf4jnsgd1na2vs0mg"},{"bike_id":"8c562078-ccce-491e-895f-1de2fc73a88a","system_id":"levelo_inurba_marseille","lat":43.26032,"lon":5.37536,"is_reserved":false,"is_disabled":false,"rental_uris":{"android":"levelo://app?vid=8c562078-ccce-491e-895f-1de2fc73a88a","ios":"levelo://app?vid=8c562078-ccce-491e-895f-1de2fc73a88a"},"vehicle_type_id":"4","last_reported":1774109796,"current_range_meters":5600,"station_id":"ce4bhgh2rcd13ifvqfa0","pricing_plan_id":"cebpf4jnsgd1na2vs0mg"},{"bike_id":"53230f31-7ce2-4e06-a9a1-b0d3cde459ab","system_id":"levelo_inurba_marseille","lat":43.25582,"lon":5.38234,"is_reserved":false,"is_disabled":false,"rental_uris":{"android":"levelo://app?vid=53230f31-7ce2-4e06-a9a1-b0d3cde459ab","ios":"levelo://app?vid=53230f31-7ce2-4e06-a9a1-b0d3cde459ab"},"vehicle_type_id":"4","last_reported":1774109796,"current_range_meters":5600,"station_id":"ce4bhih2rcd13ifvqfs0","pricing_plan_id":"cebpf4jnsgd1na2vs0mg"},{"bike_id":"7b7b0823-8b03-4ac9-9cc6-6778504f6773","system_id":"levelo_inurba_marseille","lat":43.29285,"lon":5.37437,"is_reserved":false,"is_disabled":false,"rental_uris":{"android":"levelo://app?vid=7b7b0823-8b03-4ac9-9cc6-6778504f6773","ios":"levelo://app?vid=7b7b0823-8b03-4ac9-9cc6-6778504f6773"},"vehicle_type_id":"4","last_reported":1774109796,"current_range_meters":5600,"station_id":"ce4bgi12rcd13ifvqb70","pricing_plan_id":"cebpf4jnsgd1na2vs0mg"},{"bike_id":"62f12f93-4229-4253-9ce3-406e383ec2c1","system_id":"levelo_inurba_marseille","lat":43.24392,"lon":5.37067,"is_reserved":false,"is_disabled":false,"rental_uris":{"android":"levelo://app?vid=62f12f93-4229-4253-9ce3-406e383ec2c1","ios":"levelo://app?vid=62f12f93-4229-4253-9ce3-406e383ec2c1"},"vehicle_type_id":"4","last_reported":1774109796,"current_range_meters":5600,"station_id":"ce4bhhh2rcd13ifvqfk0","pricing_plan_id":"cebpf4jnsgd1na2vs0mg"},{"bike_id":"2fae12c3-5efa-48e5-a57d-6b5f2808f02e","system_id":"levelo_inurba_marseille","lat":43.29709,"lon":5.36604,"is_reserved":false,"is_disabled":false,"rental_uris":{"android":"levelo://app?vid=2fae12c3-5efa-48e5-a57d-6b5f2808f02e","ios":"levelo://app?vid=2fae12c3-5efa-48e5-a57d-6b5f2808f02e"},"vehicle_type_id":"4","last_reported":1774109796,"current_range_meters":6000,"station_id":"ce4bgn12rcd13ifvqbt0","pricing_plan_id":"cebpf4jnsgd1na2vs0mg"},{"bike_id":"1729490c-6223-41aa-92a4-4962684e7344","system_id":"levelo_inurba_marseille","lat":43.30806,"lon":5.3816,"is_reserved":false,"is_disabled":false,"rental_uris":{"android":"levelo://app?vid=1729490c-6223-41aa-92a4-4962684e7344","ios":"levelo://app?vid=1729490c-6223-41aa-92a4-4962684e7344"},"vehicle_type_id":"4","last_reported":1774109796,"current_range_meters":6000,"station_id":"ce4bgt12rcd13ifvqce0","pricing_plan_id":"cebpf4jnsgd1na2vs0mg"},{"bike_id":"307ec17b-514e-438e-9b78-0b7f0d7a6b09","system_id":"levelo_inurba_marseille","lat":43.292299,"lon":5.360635,"is_reserved":false,"is_disabled":false,"rental_uris":{"android":"levelo://app?vid=307ec17b-514e-438e-9b78-0b7f0d7a6b09","ios":"levelo://app?vid=307ec17b-514e-438e-9b78-0b7f0d7a6b09"},"vehicle_type_id":"4","last_reported":1774109796,"current_range_meters":6000,"station_id":"ce4bhbh2rcd13ifvqeqg","pricing_plan_id":"cebpf4jnsgd1na2vs0mg"},{"bike_id":"561d39a9-9ee7-4de0-89fa-fa311359c492","system_id":"levelo_inurba_marseille","lat":43.23969,"lon":5.36628,"is_reserved":false,"is_disabled":false,"rental_uris":{"android":"levelo://app?vid=561d39a9-9ee7-4de0-89fa-fa311359c492","ios":"levelo://app?vid=561d39a9-9ee7-4de0-89fa-fa311359c492"},"vehicle_type_id":"4","last_reported":1774109796,"current_range_meters":6000,"station_id":"ce4bhi12rcd13ifvqfp0","pricing_plan_id":"cebpf4jnsgd1na2vs0mg"},{"bike_id":"72e035d0-dcc2-4dcf-8660-2e348be6861e","system_id":"levelo_inurba_marseille","lat":43.31463,"lon":5.45387,"is_reserved":false,"is_disabled":false,"rental_uris":{"android":"levelo://app?vid=72e035d0-dcc2-4dcf-8660-2e348be6861e","ios":"levelo://app?vid=72e035d0-dcc2-4dcf-8660-2e348be6861e"},"vehicle_type_id":"4","last_reported":1774109796,"current_range_meters":6000,"station_id":"","pricing_plan_id":"cebpf4jnsgd1na2vs0mg"},{"bike_id":"92f32112-8a58-4a2d-8380-c50aa46da344","system_id":"levelo_inurba_marseille","lat":43.24064,"lon":5.36365,"is_reserved":false,"is_disabled":false,"rental_uris":{"android":"levelo://app?vid=92f32112-8a58-4a2d-8380-c50aa46da344","ios":"levelo://app?vid=92f32112-8a58-4a2d-8380-c50aa46da344"},"vehicle_type_id":"4","last_reported":1774109796,"current_range_meters":6000,"station_id":"","pricing_plan_id":"cebpf4jnsgd1na2vs0mg"},{"bike_id":"077ba1f4-9955-44ea-8995-8df9c4ed43ac","system_id":"levelo_inurba_marseille","lat":43.3105,"lon":5.37147,"is_reserved":false,"is_disabled":false,"rental_uris":{"android":"levelo://app?vid=077ba1f4-9955-44ea-8995-8df9c4ed43ac","ios":"levelo://app?vid=077ba1f4-9955-44ea-8995-8df9c4ed43ac"},"vehicle_type_id":"4","last_reported":1774109796,"current_range_meters":6000,"station_id":"st_d4kl2rp97mjs73e7tdfg","pricing_plan_id":"cebpf4jnsgd1na2vs0mg"},{"bike_id":"d00ce6b1-d263-4644-9ac8-801c3d34ac19","system_id":"levelo_inurba_marseille","lat":43.22563,"lon":5.4164,"is_reserved":false,"is_disabled":false,"rental_uris":{"android":"levelo://app?vid=d00ce6b1-d263-4644-9ac8-801c3d34ac19","ios":"levelo://app?vid=d00ce6b1-d263-4644-9ac8-801c3d34ac19"},"vehicle_type_id":"4","last_reported":1774109796,"current_range_meters":6000,"station_id":"st_d2o4gvlbi1j2169b742g","pricing_plan_id":"cebpf4jnsgd1na2vs0mg"},{"bike_id":"ab77a418-345e-453b-bca3-3815a5ee3842","system_id":"levelo_inurba_marseille","lat":43.23191,"lon":5.35547,"is_reserved":false,"is_disabled":false,"rental_uris":{"android":"levelo://app?vid=ab77a418-345e-453b-bca3-3815a5ee3842","ios":"levelo://app?vid=ab77a418-345e-453b-bca3-3815a5ee3842"},"vehicle_type_id":"4","last_reported":1774109796,"current_range_meters":6000,"station_id":"ce4bhu92rcd13ifvqi70","pricing_plan_id":"cebpf4jnsgd1na2vs0mg"},{"bike_id":"8648ff3d-a49d-4491-be6c-bab3f9812603","system_id":"levelo_inurba_marseille","lat":43.28282,"lon":5.43819,"is_reserved":false,"is_disabled":false,"rental_uris":{"android":"levelo://app?vid=8648ff3d-a49d-4491-be6c-bab3f9812603","ios":"levelo://app?vid=8648ff3d-a49d-4491-be6c-bab3f9812603"},"vehicle_type_id":"4","last_reported":1774109796,"current_range_meters":6000,"station_id":"","pricing_plan_id":"cebpf4jnsgd1na2vs0mg"},{"bike_id":"6e1b5c0e-e2a0-4cde-b625-f872892ea9fa","system_id":"levelo_inurba_marseille","lat":43.22932,"lon":5.35378,"is_reserved":false,"is_disabled":false,"rental_uris":{"android":"levelo://app?vid=6e1b5c0e-e2a0-4cde-b625-f872892ea9fa","ios":"levelo://app?vid=6e1b5c0e-e2a0-4cde-b625-f872892ea9fa"},"vehicle_type_id":"4","last_reported":1774109796,"current_range_meters":6000,"station_id":"cpo3532slgdg3j2ikp40","pricing_plan_id":"cebpf4jnsgd1na2vs0mg"},{"bike_id":"16fe25c4-6472-47d6-882b-5ff94101fa7d","system_id":"levelo_inurba_marseille","lat":43.2119,"lon":5.351,"is_reserved":false,"is_disabled":false,"rental_uris":{"android":"levelo://app?vid=16fe25c4-6472-47d6-882b-5ff94101fa7d","ios":"levelo://app?vid=16fe25c4-6472-47d6-882b-5ff94101fa7d"},"vehicle_type_id":"4","last_reported":1774109796,"current_range_meters":6000,"station_id":"st_cvj6sg6p6f1abm77japg","pricing_plan_id":"cebpf4jnsgd1na2vs0mg"},{"bike_id":"a52ba6dc-1b15-4a85-8d00-b41ad0623a75","system_id":"levelo_inurba_marseille","lat":43.3237,"lon":5.36757,"is_reserved":false,"is_disabled":false,"rental_uris":{"android":"levelo://app?vid=a52ba6dc-1b15-4a85-8d00-b41ad0623a75","ios":"levelo://app?vid=a52ba6dc-1b15-4a85-8d00-b41ad0623a75"},"vehicle_type_id":"4","last_reported":1774109796,"current_range_meters":6000,"station_id":"ce4bhsh2rcd13ifvqi2g","pricing_plan_id":"cebpf4jnsgd1na2vs0mg"},{"bike_id":"fd31280b-87a6-4b99-8f5a-445024fb9e43","system_id":"levelo_inurba_marseille","lat":43.29865,"lon":5.3628,"is_reserved":false,"is_disabled":false,"rental_uris":{"android":"levelo://app?vid=fd31280b-87a6-4b99-8f5a-445024fb9e43","ios":"levelo://app?vid=fd31280b-87a6-4b99-8f5a-445024fb9e43"},"vehicle_type_id":"4","last_reported":1774109796,"current_range_meters":6000,"station_id":"ce4bgpp2rcd13ifvqc3g","pricing_plan_id":"cebpf4jnsgd1na2vs0mg"},{"bike_id":"37ac073c-5505-405f-9972-6817069e3e18","system_id":"levelo_inurba_marseille","lat":43.238879,"lon":5.375316,"is_reserved":false,"is_disabled":false,"rental_uris":{"android":"levelo://app?vid=37ac073c-5505-405f-9972-6817069e3e18","ios":"levelo://app?vid=37ac073c-5505-405f-9972-6817069e3e18"},"vehicle_type_id":"4","last_reported":1774109796,"current_range_meters":6000,"station_id":"st_d6sm7csbq4hs73f8fpjg","pricing_plan_id":"cebpf4jnsgd1na2vs0mg"},{"bike_id":"708be56f-151e-496d-9076-542d9bcf6793","system_id":"levelo_inurba_marseille","lat":43.26226,"lon":5.40453,"is_reserved":false,"is_disabled":false,"rental_uris":{"android":"levelo://app?vid=708be56f-151e-496d-9076-542d9bcf6793","ios":"levelo://app?vid=708be56f-151e-496d-9076-542d9bcf6793"},"vehicle_type_id":"4","last_reported":1774109796,"current_range_meters":6000,"station_id":"ce4bhmh2rcd13ifvqgmg","pricing_plan_id":"cebpf4jnsgd1na2vs0mg"},{"bike_id":"5cc58791-7592-4bc6-b9bc-cc9dc69a76af","system_id":"levelo_inurba_marseille","lat":43.28433,"lon":5.35005,"is_reserved":false,"is_disabled":false,"rental_uris":{"android":"levelo://app?vid=5cc58791-7592-4bc6-b9bc-cc9dc69a76af","ios":"levelo://app?vid=5cc58791-7592-4bc6-b9bc-cc9dc69a76af"},"vehicle_type_id":"4","last_reported":1774109796,"current_range_meters":6000,"station_id":"ce4bhbh2rcd13ifvqepg","pricing_plan_id":"cebpf4jnsgd1na2vs0mg"},{"bike_id":"2e87c3be-31e8-490a-81ee-e72e54d4d0de","system_id":"levelo_inurba_marseille","lat":43.28956,"lon":5.36413,"is_reserved":false,"is_disabled":false,"rental_uris":{"android":"levelo://app?vid=2e87c3be-31e8-490a-81ee-e72e54d4d0de","ios":"levelo://app?vid=2e87c3be-31e8-490a-81ee-e72e54d4d0de"},"vehicle_type_id":"4","last_reported":1774109796,"current_range_meters":6000,"station_id":"ce4bhc92rcd13ifvqetg","pricing_plan_id":"cebpf4jnsgd1na2vs0mg"},{"bike_id":"303d4f43-b555-44e0-ad92-695a5d444d33","system_id":"levelo_inurba_marseille","lat":43.24072,"lon":5.37759,"is_reserved":false,"is_disabled":false,"rental_uris":{"android":"levelo://app?vid=303d4f43-b555-44e0-ad92-695a5d444d33","ios":"levelo://app?vid=303d4f43-b555-44e0-ad92-695a5d444d33"},"vehicle_type_id":"4","last_reported":1774109796,"current_range_meters":6000,"station_id":"ce4bhnp2rcd13ifvqgvg","pricing_plan_id":"cebpf4jnsgd1na2vs0mg"},{"bike_id":"21dcff95-3114-402a-9713-10e340a8f8dd","system_id":"levelo_inurba_marseille","lat":43.29293,"lon":5.37158,"is_reserved":false,"is_disabled":false,"rental_uris":{"android":"levelo://app?vid=21dcff95-3114-402a-9713-10e340a8f8dd","ios":"levelo://app?vid=21dcff95-3114-402a-9713-10e340a8f8dd"},"vehicle_type_id":"4","last_reported":1774109796,"current_range_meters":6000,"station_id":"ce4bgh92rcd13ifvqb40","pricing_plan_id":"cebpf4jnsgd1na2vs0mg"},{"bike_id":"0c744d67-74b3-4bed-8fa1-274d8c3afbea","system_id":"levelo_inurba_marseille","lat":43.23791,"lon":5.36635,"is_reserved":false,"is_disabled":false,"rental_uris":{"android":"levelo://app?vid=0c744d67-74b3-4bed-8fa1-274d8c3afbea","ios":"levelo://app?vid=0c744d67-74b3-4bed-8fa1-274d8c3afbea"},"vehicle_type_id":"4","last_reported":1774109796,"current_range_meters":6000,"station_id":"st_d3nk18o9ro0c73en2l3g","pricing_plan_id":"cebpf4jnsgd1na2vs0mg"},{"bike_id":"3def12a0-1907-4fc6-920c-c40216f1542f","system_id":"levelo_inurba_marseille","lat":43.21198,"lon":5.35074,"is_reserved":false,"is_disabled":false,"rental_uris":{"android":"levelo://app?vid=3def12a0-1907-4fc6-920c-c40216f1542f","ios":"levelo://app?vid=3def12a0-1907-4fc6-920c-c40216f1542f"},"vehicle_type_id":"4","last_reported":1774109796,"current_range_meters":6000,"station_id":"st_cvj6sg6p6f1abm77japg","pricing_plan_id":"cebpf4jnsgd1na2vs0mg"},{"bike_id":"5672f140-f178-4766-bb60-5301b26a0e4e","system_id":"levelo_inurba_marseille","lat":43.2849,"lon":5.48392,"is_reserved":false,"is_disabled":false,"rental_uris":{"android":"levelo://app?vid=5672f140-f178-4766-bb60-5301b26a0e4e","ios":"levelo://app?vid=5672f140-f178-4766-bb60-5301b26a0e4e"},"vehicle_type_id":"4","last_reported":1774109796,"current_range_meters":6400,"station_id":"","pricing_plan_id":"cebpf4jnsgd1na2vs0mg"},{"bike_id":"6720c7f2-8755-4839-b9fe-8dc5de077a5f","system_id":"levelo_inurba_marseille","lat":43.2841,"lon":5.37507,"is_reserved":false,"is_disabled":false,"rental_uris":{"android":"levelo://app?vid=6720c7f2-8755-4839-b9fe-8dc5de077a5f","ios":"levelo://app?vid=6720c7f2-8755-4839-b9fe-8dc5de077a5f"},"vehicle_type_id":"4","last_reported":1774109796,"current_range_meters":6400,"station_id":"ce4bh412rcd13ifvqds0","pricing_plan_id":"cebpf4jnsgd1na2vs0mg"},{"bike_id":"e98e3b8d-6310-44cc-9e61-bc3263b9c772","system_id":"levelo_inurba_marseille","lat":43.31048,"lon":5.37172,"is_reserved":false,"is_disabled":false,"rental_uris":{"android":"levelo://app?vid=e98e3b8d-6310-44cc-9e61-bc3263b9c772","ios":"levelo://app?vid=e98e3b8d-6310-44cc-9e61-bc3263b9c772"},"vehicle_type_id":"4","last_reported":1774109796,"current_range_meters":6400,"station_id":"st_d4kl2rp97mjs73e7tdfg","pricing_plan_id":"cebpf4jnsgd1na2vs0mg"},{"bike_id":"84c11551-1d18-4796-be36-74162c7cde37","system_id":"levelo_inurba_marseille","lat":43.3012,"lon":5.43107,"is_reserved":false,"is_disabled":false,"rental_uris":{"android":"levelo://app?vid=84c11551-1d18-4796-be36-74162c7cde37","ios":"levelo://app?vid=84c11551-1d18-4796-be36-74162c7cde37"},"vehicle_type_id":"4","last_reported":1774109796,"current_range_meters":6400,"station_id":"st_d3js3co5814s73ftftug","pricing_plan_id":"cebpf4jnsgd1na2vs0mg"},{"bike_id":"7931b591-6f9c-45c2-94ef-736226b6f505","system_id":"levelo_inurba_marseille","lat":43.2944,"lon":5.39758,"is_reserved":false,"is_disabled":false,"rental_uris":{"android":"levelo://app?vid=7931b591-6f9c-45c2-94ef-736226b6f505","ios":"levelo://app?vid=7931b591-6f9c-45c2-94ef-736226b6f505"},"vehicle_type_id":"4","last_reported":1774109796,"current_range_meters":6400,"station_id":"ce4bh3h2rcd13ifvqdo0","pricing_plan_id":"cebpf4jnsgd1na2vs0mg"},{"bike_id":"bfa999de-7a32-454a-b31e-f99ace51a3fc","system_id":"levelo_inurba_marseille","lat":43.28481,"lon":5.48401,"is_reserved":false,"is_disabled":false,"rental_uris":{"android":"levelo://app?vid=bfa999de-7a32-454a-b31e-f99ace51a3fc","ios":"levelo://app?vid=bfa999de-7a32-454a-b31e-f99ace51a3fc"},"vehicle_type_id":"4","last_reported":1774109796,"current_range_meters":6400,"station_id":"","pricing_plan_id":"cebpf4jnsgd1na2vs0mg"},{"bike_id":"2ad9636f-2c16-481b-9d55-a1bff24fc790","system_id":"levelo_inurba_marseille","lat":43.29024,"lon":5.38638,"is_reserved":false,"is_disabled":false,"rental_uris":{"android":"levelo://app?vid=2ad9636f-2c16-481b-9d55-a1bff24fc790","ios":"levelo://app?vid=2ad9636f-2c16-481b-9d55-a1bff24fc790"},"vehicle_type_id":"4","last_reported":1774109796,"current_range_meters":6400,"station_id":"ce4bh4p2rcd13ifvqe0g","pricing_plan_id":"cebpf4jnsgd1na2vs0mg"},{"bike_id":"a068e9de-cdeb-4936-8a9b-bd068dca309c","system_id":"levelo_inurba_marseille","lat":43.23895,"lon":5.37484,"is_reserved":false,"is_disabled":false,"rental_uris":{"android":"levelo://app?vid=a068e9de-cdeb-4936-8a9b-bd068dca309c","ios":"levelo://app?vid=a068e9de-cdeb-4936-8a9b-bd068dca309c"},"vehicle_type_id":"4","last_reported":1774109796,"current_range_meters":6400,"station_id":"st_d6sm7csbq4hs73f8fpjg","pricing_plan_id":"cebpf4jnsgd1na2vs0mg"},{"bike_id":"18a4d688-062c-48ed-bc0c-bcf6b3d32f43","system_id":"levelo_inurba_marseille","lat":43.28436,"lon":5.39199,"is_reserved":false,"is_disabled":false,"rental_uris":{"android":"levelo://app?vid=18a4d688-062c-48ed-bc0c-bcf6b3d32f43","ios":"levelo://app?vid=18a4d688-062c-48ed-bc0c-bcf6b3d32f43"},"vehicle_type_id":"4","last_reported":1774109796,"current_range_meters":6400,"station_id":"ce4bhoh2rcd13ifvqh5g","pricing_plan_id":"cebpf4jnsgd1na2vs0mg"},{"bike_id":"de636080-a944-4dc7-a0e0-7a3fe012a83e","system_id":"levelo_inurba_marseille","lat":43.28667,"lon":5.36352,"is_reserved":false,"is_disabled":false,"rental_uris":{"android":"levelo://app?vid=de636080-a944-4dc7-a0e0-7a3fe012a83e","ios":"levelo://app?vid=de636080-a944-4dc7-a0e0-7a3fe012a83e"},"vehicle_type_id":"4","last_reported":1774109796,"current_range_meters":6400,"station_id":"ce4bhah2rcd13ifvqej0","pricing_plan_id":"cebpf4jnsgd1na2vs0mg"},{"bike_id":"3e451d00-5fec-4d87-a09b-878c5d05c3dc","system_id":"levelo_inurba_marseille","lat":43.24794,"lon":5.37484,"is_reserved":false,"is_disabled":false,"rental_uris":{"android":"levelo://app?vid=3e451d00-5fec-4d87-a09b-878c5d05c3dc","ios":"levelo://app?vid=3e451d00-5fec-4d87-a09b-878c5d05c3dc"},"vehicle_type_id":"4","last_reported":1774109796,"current_range_meters":6400,"station_id":"ce4bhgh2rcd13ifvqfb0","pricing_plan_id":"cebpf4jnsgd1na2vs0mg"},{"bike_id":"450c3323-87bc-4066-bf6e-a64f8a10d4f5","system_id":"levelo_inurba_marseille","lat":43.25003,"lon":5.38923,"is_reserved":false,"is_disabled":false,"rental_uris":{"android":"levelo://app?vid=450c3323-87bc-4066-bf6e-a64f8a10d4f5","ios":"levelo://app?vid=450c3323-87bc-4066-bf6e-a64f8a10d4f5"},"vehicle_type_id":"4","last_reported":1774109796,"current_range_meters":6400,"station_id":"ce4bhgp2rcd13ifvqfd0","pricing_plan_id":"cebpf4jnsgd1na2vs0mg"},{"bike_id":"ec531884-8bfa-420b-bd77-1512f322e6f0","system_id":"levelo_inurba_marseille","lat":43.29896,"lon":5.43671,"is_reserved":false,"is_disabled":false,"rental_uris":{"android":"levelo://app?vid=ec531884-8bfa-420b-bd77-1512f322e6f0","ios":"levelo://app?vid=ec531884-8bfa-420b-bd77-1512f322e6f0"},"vehicle_type_id":"4","last_reported":1774109796,"current_range_meters":6400,"station_id":"ce4bhpp2rcd13ifvqhfg","pricing_plan_id":"cebpf4jnsgd1na2vs0mg"},{"bike_id":"ecae00d9-7aaa-4073-bf77-c76d2cd74b93","system_id":"levelo_inurba_marseille","lat":43.29582,"lon":5.36737,"is_reserved":false,"is_disabled":false,"rental_uris":{"android":"levelo://app?vid=ecae00d9-7aaa-4073-bf77-c76d2cd74b93","ios":"levelo://app?vid=ecae00d9-7aaa-4073-bf77-c76d2cd74b93"},"vehicle_type_id":"4","last_reported":1774109796,"current_range_meters":6400,"station_id":"ce4bgph2rcd13ifvqc2g","pricing_plan_id":"cebpf4jnsgd1na2vs0mg"},{"bike_id":"b555a9ad-d5c9-4425-96d1-64808f7a16b2","system_id":"levelo_inurba_marseille","lat":43.27377,"lon":5.36266,"is_reserved":false,"is_disabled":false,"rental_uris":{"android":"levelo://app?vid=b555a9ad-d5c9-4425-96d1-64808f7a16b2","ios":"levelo://app?vid=b555a9ad-d5c9-4425-96d1-64808f7a16b2"},"vehicle_type_id":"4","last_reported":1774109796,"current_range_meters":6400,"station_id":"ce4bhbh2rcd13ifvqeo0","pricing_plan_id":"cebpf4jnsgd1na2vs0mg"},{"bike_id":"86505cfb-2136-459c-ac18-9d0a7f411a81","system_id":"levelo_inurba_marseille","lat":43.28416,"lon":5.37502,"is_reserved":false,"is_disabled":false,"rental_uris":{"android":"levelo://app?vid=86505cfb-2136-459c-ac18-9d0a7f411a81","ios":"levelo://app?vid=86505cfb-2136-459c-ac18-9d0a7f411a81"},"vehicle_type_id":"4","last_reported":1774109796,"current_range_meters":6400,"station_id":"ce4bh412rcd13ifvqds0","pricing_plan_id":"cebpf4jnsgd1na2vs0mg"},{"bike_id":"f4ed884a-c442-4f57-9f3f-3d3337543a4f","system_id":"levelo_inurba_marseille","lat":43.29244,"lon":5.36836,"is_reserved":false,"is_disabled":false,"rental_uris":{"android":"levelo://app?vid=f4ed884a-c442-4f57-9f3f-3d3337543a4f","ios":"levelo://app?vid=f4ed884a-c442-4f57-9f3f-3d3337543a4f"},"vehicle_type_id":"4","last_reported":1774109796,"current_range_meters":6800,"station_id":"ce4bhbp2rcd13ifvqesg","pricing_plan_id":"cebpf4jnsgd1na2vs0mg"},{"bike_id":"71389fc3-a4c3-46c5-a0f9-4330fcbb165b","system_id":"levelo_inurba_marseille","lat":43.27965,"lon":5.41056,"is_reserved":false,"is_disabled":true,"rental_uris":{"android":"levelo://app?vid=71389fc3-a4c3-46c5-a0f9-4330fcbb165b","ios":"levelo://app?vid=71389fc3-a4c3-46c5-a0f9-4330fcbb165b"},"vehicle_type_id":"4","last_reported":1774109796,"current_range_meters":6800,"station_id":"ce4bhnp2rcd13ifvqh0g","pricing_plan_id":"cebpf4jnsgd1na2vs0mg"},{"bike_id":"34afc9b4-5db6-4e8d-be8e-dc47f26831fb","system_id":"levelo_inurba_marseille","lat":43.23056,"lon":5.35496,"is_reserved":false,"is_disabled":false,"rental_uris":{"android":"levelo://app?vid=34afc9b4-5db6-4e8d-be8e-dc47f26831fb","ios":"levelo://app?vid=34afc9b4-5db6-4e8d-be8e-dc47f26831fb"},"vehicle_type_id":"4","last_reported":1774109796,"current_range_meters":6800,"station_id":"cpo3342slgdg3j2ifvpg","pricing_plan_id":"cebpf4jnsgd1na2vs0mg"},{"bike_id":"d9e0a523-7572-418a-8266-31a9d2f7f162","system_id":"levelo_inurba_marseille","lat":43.26219,"lon":5.37471,"is_reserved":false,"is_disabled":false,"rental_uris":{"android":"levelo://app?vid=d9e0a523-7572-418a-8266-31a9d2f7f162","ios":"levelo://app?vid=d9e0a523-7572-418a-8266-31a9d2f7f162"},"vehicle_type_id":"4","last_reported":1774109796,"current_range_meters":6800,"station_id":"ce4bhgp2rcd13ifvqfc0","pricing_plan_id":"cebpf4jnsgd1na2vs0mg"},{"bike_id":"5053a012-d646-439d-b591-468fdeaa8c67","system_id":"levelo_inurba_marseille","lat":43.25328,"lon":5.42205,"is_reserved":false,"is_disabled":false,"rental_uris":{"android":"levelo://app?vid=5053a012-d646-439d-b591-468fdeaa8c67","ios":"levelo://app?vid=5053a012-d646-439d-b591-468fdeaa8c67"},"vehicle_type_id":"4","last_reported":1774109796,"current_range_meters":6800,"station_id":"st_d2m65c5bi1j21697t3ng","pricing_plan_id":"cebpf4jnsgd1na2vs0mg"},{"bike_id":"98e9724f-99a0-4211-9167-d4868439ff24","system_id":"levelo_inurba_marseille","lat":43.24798,"lon":5.3744,"is_reserved":false,"is_disabled":false,"rental_uris":{"android":"levelo://app?vid=98e9724f-99a0-4211-9167-d4868439ff24","ios":"levelo://app?vid=98e9724f-99a0-4211-9167-d4868439ff24"},"vehicle_type_id":"4","last_reported":1774109796,"current_range_meters":6800,"station_id":"ce4bhgh2rcd13ifvqfb0","pricing_plan_id":"cebpf4jnsgd1na2vs0mg"},{"bike_id":"afab17fe-5945-4eab-9129-fe150d6e725c","system_id":"levelo_inurba_marseille","lat":43.31044,"lon":5.37153,"is_reserved":false,"is_disabled":false,"rental_uris":{"android":"levelo://app?vid=afab17fe-5945-4eab-9129-fe150d6e725c","ios":"levelo://app?vid=afab17fe-5945-4eab-9129-fe150d6e725c"},"vehicle_type_id":"4","last_reported":1774109796,"current_range_meters":6800,"station_id":"st_d4kl2rp97mjs73e7tdfg","pricing_plan_id":"cebpf4jnsgd1na2vs0mg"},{"bike_id":"af7b5838-9e58-4797-8b2d-bd9ca048f004","system_id":"levelo_inurba_marseille","lat":43.24389,"lon":5.37068,"is_reserved":false,"is_disabled":false,"rental_uris":{"android":"levelo://app?vid=af7b5838-9e58-4797-8b2d-bd9ca048f004","ios":"levelo://app?vid=af7b5838-9e58-4797-8b2d-bd9ca048f004"},"vehicle_type_id":"4","last_reported":1774109796,"current_range_meters":6800,"station_id":"ce4bhhh2rcd13ifvqfk0","pricing_plan_id":"cebpf4jnsgd1na2vs0mg"},{"bike_id":"0e25ea66-2ef9-4bf0-bad1-4c1f49247370","system_id":"levelo_inurba_marseille","lat":43.30948,"lon":5.37913,"is_reserved":false,"is_disabled":false,"rental_uris":{"android":"levelo://app?vid=0e25ea66-2ef9-4bf0-bad1-4c1f49247370","ios":"levelo://app?vid=0e25ea66-2ef9-4bf0-bad1-4c1f49247370"},"vehicle_type_id":"4","last_reported":1774109796,"current_range_meters":6800,"station_id":"","pricing_plan_id":"cebpf4jnsgd1na2vs0mg"},{"bike_id":"aca02e18-5940-4457-bade-a83a3729d2e4","system_id":"levelo_inurba_marseille","lat":43.29486,"lon":5.43311,"is_reserved":false,"is_disabled":false,"rental_uris":{"android":"levelo://app?vid=aca02e18-5940-4457-bade-a83a3729d2e4","ios":"levelo://app?vid=aca02e18-5940-4457-bade-a83a3729d2e4"},"vehicle_type_id":"4","last_reported":1774109796,"current_range_meters":6800,"station_id":"st_d3j5ugp08ojc73fj9d10","pricing_plan_id":"cebpf4jnsgd1na2vs0mg"},{"bike_id":"3727d6e3-4577-49ea-959e-93a5e09450a3","system_id":"levelo_inurba_marseille","lat":43.3145,"lon":5.40057,"is_reserved":false,"is_disabled":false,"rental_uris":{"android":"levelo://app?vid=3727d6e3-4577-49ea-959e-93a5e09450a3","ios":"levelo://app?vid=3727d6e3-4577-49ea-959e-93a5e09450a3"},"vehicle_type_id":"4","last_reported":1774109796,"current_range_meters":6800,"station_id":"","pricing_plan_id":"cebpf4jnsgd1na2vs0mg"},{"bike_id":"8fe016fe-4ab1-495c-8165-a209d98dd64e","system_id":"levelo_inurba_marseille","lat":43.26207,"lon":5.37439,"is_reserved":false,"is_disabled":false,"rental_uris":{"android":"levelo://app?vid=8fe016fe-4ab1-495c-8165-a209d98dd64e","ios":"levelo://app?vid=8fe016fe-4ab1-495c-8165-a209d98dd64e"},"vehicle_type_id":"4","last_reported":1774109796,"current_range_meters":6800,"station_id":"ce4bhgp2rcd13ifvqfc0","pricing_plan_id":"cebpf4jnsgd1na2vs0mg"},{"bike_id":"873c351e-170b-4726-8607-5b0971382f47","system_id":"levelo_inurba_marseille","lat":43.26547,"lon":5.37291,"is_reserved":false,"is_disabled":false,"rental_uris":{"android":"levelo://app?vid=873c351e-170b-4726-8607-5b0971382f47","ios":"levelo://app?vid=873c351e-170b-4726-8607-5b0971382f47"},"vehicle_type_id":"4","last_reported":1774109796,"current_range_meters":6800,"station_id":"ce4bhg12rcd13ifvqf70","pricing_plan_id":"cebpf4jnsgd1na2vs0mg"},{"bike_id":"75a86ac9-861e-4f1a-9cd8-e3c64b084f1a","system_id":"levelo_inurba_marseille","lat":43.28439,"lon":5.35892,"is_reserved":false,"is_disabled":false,"rental_uris":{"android":"levelo://app?vid=75a86ac9-861e-4f1a-9cd8-e3c64b084f1a","ios":"levelo://app?vid=75a86ac9-861e-4f1a-9cd8-e3c64b084f1a"},"vehicle_type_id":"4","last_reported":1774109796,"current_range_meters":6800,"station_id":"ce4bhah2rcd13ifvqei0","pricing_plan_id":"cebpf4jnsgd1na2vs0mg"},{"bike_id":"4241d16b-73f5-4c80-9e05-90cb93e770d3","system_id":"levelo_inurba_marseille","lat":43.22537,"lon":5.34831,"is_reserved":false,"is_disabled":false,"rental_uris":{"android":"levelo://app?vid=4241d16b-73f5-4c80-9e05-90cb93e770d3","ios":"levelo://app?vid=4241d16b-73f5-4c80-9e05-90cb93e770d3"},"vehicle_type_id":"4","last_reported":1774109796,"current_range_meters":7200,"station_id":"st_cvj5dfep6f1abm77gieg","pricing_plan_id":"cebpf4jnsgd1na2vs0mg"},{"bike_id":"36750a5a-e715-404b-ab4e-4dfa557014c3","system_id":"levelo_inurba_marseille","lat":43.24467,"lon":5.4254,"is_reserved":false,"is_disabled":false,"rental_uris":{"android":"levelo://app?vid=36750a5a-e715-404b-ab4e-4dfa557014c3","ios":"levelo://app?vid=36750a5a-e715-404b-ab4e-4dfa557014c3"},"vehicle_type_id":"4","last_reported":1774109796,"current_range_meters":7200,"station_id":"st_d4a3vfp97mjs738cd8kg","pricing_plan_id":"cebpf4jnsgd1na2vs0mg"},{"bike_id":"a3970b79-5bef-4774-a273-b810f9da0bc3","system_id":"levelo_inurba_marseille","lat":43.28154,"lon":5.42648,"is_reserved":false,"is_disabled":false,"rental_uris":{"android":"levelo://app?vid=a3970b79-5bef-4774-a273-b810f9da0bc3","ios":"levelo://app?vid=a3970b79-5bef-4774-a273-b810f9da0bc3"},"vehicle_type_id":"4","last_reported":1774109796,"current_range_meters":7200,"station_id":"ce4bhnh2rcd13ifvqgug","pricing_plan_id":"cebpf4jnsgd1na2vs0mg"},{"bike_id":"4a501649-1ae3-4f13-916a-d9d0102c5c57","system_id":"levelo_inurba_marseille","lat":43.22933,"lon":5.35374,"is_reserved":false,"is_disabled":false,"rental_uris":{"android":"levelo://app?vid=4a501649-1ae3-4f13-916a-d9d0102c5c57","ios":"levelo://app?vid=4a501649-1ae3-4f13-916a-d9d0102c5c57"},"vehicle_type_id":"4","last_reported":1774109796,"current_range_meters":7200,"station_id":"cpo3532slgdg3j2ikp40","pricing_plan_id":"cebpf4jnsgd1na2vs0mg"},{"bike_id":"a5e2a9a9-b0cf-4e08-aa9a-2a1f8d780da3","system_id":"levelo_inurba_marseille","lat":43.30124,"lon":5.39863,"is_reserved":false,"is_disabled":false,"rental_uris":{"android":"levelo://app?vid=a5e2a9a9-b0cf-4e08-aa9a-2a1f8d780da3","ios":"levelo://app?vid=a5e2a9a9-b0cf-4e08-aa9a-2a1f8d780da3"},"vehicle_type_id":"4","last_reported":1774109796,"current_range_meters":7200,"station_id":"ce4bh0h2rcd13ifvqd40","pricing_plan_id":"cebpf4jnsgd1na2vs0mg"},{"bike_id":"37fd8b91-bebb-483f-9ede-850904204da2","system_id":"levelo_inurba_marseille","lat":43.33447,"lon":5.35665,"is_reserved":false,"is_disabled":false,"rental_uris":{"android":"levelo://app?vid=37fd8b91-bebb-483f-9ede-850904204da2","ios":"levelo://app?vid=37fd8b91-bebb-483f-9ede-850904204da2"},"vehicle_type_id":"4","last_reported":1774109796,"current_range_meters":7200,"station_id":"","pricing_plan_id":"cebpf4jnsgd1na2vs0mg"},{"bike_id":"55ec694a-4d13-442c-981f-40b12a44db63","system_id":"levelo_inurba_marseille","lat":43.28153,"lon":5.42648,"is_reserved":false,"is_disabled":false,"rental_uris":{"android":"levelo://app?vid=55ec694a-4d13-442c-981f-40b12a44db63","ios":"levelo://app?vid=55ec694a-4d13-442c-981f-40b12a44db63"},"vehicle_type_id":"4","last_reported":1774109796,"current_range_meters":7200,"station_id":"ce4bhnh2rcd13ifvqgug","pricing_plan_id":"cebpf4jnsgd1na2vs0mg"},{"bike_id":"665ba37f-cb2b-4ef2-827a-1f9d4e8a67bf","system_id":"levelo_inurba_marseille","lat":43.26566,"lon":5.39014,"is_reserved":false,"is_disabled":false,"rental_uris":{"android":"levelo://app?vid=665ba37f-cb2b-4ef2-827a-1f9d4e8a67bf","ios":"levelo://app?vid=665ba37f-cb2b-4ef2-827a-1f9d4e8a67bf"},"vehicle_type_id":"4","last_reported":1774109796,"current_range_meters":7200,"station_id":"ce4bhe12rcd13ifvqf30","pricing_plan_id":"cebpf4jnsgd1na2vs0mg"},{"bike_id":"d9a2340f-4dc0-456b-89f0-454af4d93a65","system_id":"levelo_inurba_marseille","lat":43.28502,"lon":5.35128,"is_reserved":false,"is_disabled":false,"rental_uris":{"android":"levelo://app?vid=d9a2340f-4dc0-456b-89f0-454af4d93a65","ios":"levelo://app?vid=d9a2340f-4dc0-456b-89f0-454af4d93a65"},"vehicle_type_id":"4","last_reported":1774109796,"current_range_meters":7200,"station_id":"","pricing_plan_id":"cebpf4jnsgd1na2vs0mg"},{"bike_id":"dbe93a6b-c4cd-4db6-b328-91acf2d49aa2","system_id":"levelo_inurba_marseille","lat":43.28714,"lon":5.37416,"is_reserved":false,"is_disabled":false,"rental_uris":{"android":"levelo://app?vid=dbe93a6b-c4cd-4db6-b328-91acf2d49aa2","ios":"levelo://app?vid=dbe93a6b-c4cd-4db6-b328-91acf2d49aa2"},"vehicle_type_id":"4","last_reported":1774109796,"current_range_meters":7200,"station_id":"ce4bh3p2rcd13ifvqdq0","pricing_plan_id":"cebpf4jnsgd1na2vs0mg"},{"bike_id":"f8fe1945-ead2-4c7e-a308-b441854eb59b","system_id":"levelo_inurba_marseille","lat":43.29534,"lon":5.39404,"is_reserved":false,"is_disabled":false,"rental_uris":{"android":"levelo://app?vid=f8fe1945-ead2-4c7e-a308-b441854eb59b","ios":"levelo://app?vid=f8fe1945-ead2-4c7e-a308-b441854eb59b"},"vehicle_type_id":"4","last_reported":1774109796,"current_range_meters":7200,"station_id":"ce4bh292rcd13ifvqdf0","pricing_plan_id":"cebpf4jnsgd1na2vs0mg"},{"bike_id":"2269e68d-f48b-428d-993e-bfd909030469","system_id":"levelo_inurba_marseille","lat":43.28457,"lon":5.38822,"is_reserved":false,"is_disabled":false,"rental_uris":{"android":"levelo://app?vid=2269e68d-f48b-428d-993e-bfd909030469","ios":"levelo://app?vid=2269e68d-f48b-428d-993e-bfd909030469"},"vehicle_type_id":"4","last_reported":1774109796,"current_range_meters":7200,"station_id":"","pricing_plan_id":"cebpf4jnsgd1na2vs0mg"},{"bike_id":"b87d7938-28e4-46e7-994e-fdebd5392225","system_id":"levelo_inurba_marseille","lat":43.32136,"lon":5.368,"is_reserved":false,"is_disabled":false,"rental_uris":{"android":"levelo://app?vid=b87d7938-28e4-46e7-994e-fdebd5392225","ios":"levelo://app?vid=b87d7938-28e4-46e7-994e-fdebd5392225"},"vehicle_type_id":"4","last_reported":1774109796,"current_range_meters":7200,"station_id":"","pricing_plan_id":"cebpf4jnsgd1na2vs0mg"},{"bike_id":"92125df4-2637-4665-a0a8-a08a53b4e621","system_id":"levelo_inurba_marseille","lat":43.23196,"lon":5.35547,"is_reserved":false,"is_disabled":false,"rental_uris":{"android":"levelo://app?vid=92125df4-2637-4665-a0a8-a08a53b4e621","ios":"levelo://app?vid=92125df4-2637-4665-a0a8-a08a53b4e621"},"vehicle_type_id":"4","last_reported":1774109796,"current_range_meters":8000,"station_id":"ce4bhu92rcd13ifvqi70","pricing_plan_id":"cebpf4jnsgd1na2vs0mg"},{"bike_id":"3951c833-764d-49ee-a217-c70904818b12","system_id":"levelo_inurba_marseille","lat":43.21176,"lon":5.35084,"is_reserved":false,"is_disabled":false,"rental_uris":{"android":"levelo://app?vid=3951c833-764d-49ee-a217-c70904818b12","ios":"levelo://app?vid=3951c833-764d-49ee-a217-c70904818b12"},"vehicle_type_id":"4","last_reported":1774109796,"current_range_meters":8000,"station_id":"st_cvj6sg6p6f1abm77japg","pricing_plan_id":"cebpf4jnsgd1na2vs0mg"},{"bike_id":"df5ad533-8354-43dd-b4db-d4118becde63","system_id":"levelo_inurba_marseille","lat":43.28526,"lon":5.48316,"is_reserved":false,"is_disabled":false,"rental_uris":{"android":"levelo://app?vid=df5ad533-8354-43dd-b4db-d4118becde63","ios":"levelo://app?vid=df5ad533-8354-43dd-b4db-d4118becde63"},"vehicle_type_id":"4","last_reported":1774109796,"current_range_meters":8000,"station_id":"","pricing_plan_id":"cebpf4jnsgd1na2vs0mg"},{"bike_id":"37752f22-4e24-4242-a38c-e44293abad6b","system_id":"levelo_inurba_marseille","lat":43.27942,"lon":5.38703,"is_reserved":false,"is_disabled":true,"rental_uris":{"android":"levelo://app?vid=37752f22-4e24-4242-a38c-e44293abad6b","ios":"levelo://app?vid=37752f22-4e24-4242-a38c-e44293abad6b"},"vehicle_type_id":"4","last_reported":1774109796,"current_range_meters":8000,"station_id":"ce4bhg12rcd13ifvqf80","pricing_plan_id":"cebpf4jnsgd1na2vs0mg"},{"bike_id":"055a8729-b40a-48ea-bf65-b2ea442b4506","system_id":"levelo_inurba_marseille","lat":43.31718,"lon":5.42391,"is_reserved":false,"is_disabled":false,"rental_uris":{"android":"levelo://app?vid=055a8729-b40a-48ea-bf65-b2ea442b4506","ios":"levelo://app?vid=055a8729-b40a-48ea-bf65-b2ea442b4506"},"vehicle_type_id":"4","last_reported":1774109796,"current_range_meters":8000,"station_id":"ce4bhp92rcd13ifvqhbg","pricing_plan_id":"cebpf4jnsgd1na2vs0mg"},{"bike_id":"95fd7b5e-4624-483b-b506-5775f37aea99","system_id":"levelo_inurba_marseille","lat":43.21204,"lon":5.35092,"is_reserved":false,"is_disabled":false,"rental_uris":{"android":"levelo://app?vid=95fd7b5e-4624-483b-b506-5775f37aea99","ios":"levelo://app?vid=95fd7b5e-4624-483b-b506-5775f37aea99"},"vehicle_type_id":"4","last_reported":1774109796,"current_range_meters":8000,"station_id":"st_cvj6sg6p6f1abm77japg","pricing_plan_id":"cebpf4jnsgd1na2vs0mg"},{"bike_id":"15fb4bb8-4c0f-4ee3-a727-89e0f28d0a52","system_id":"levelo_inurba_marseille","lat":43.23787,"lon":5.36624,"is_reserved":false,"is_disabled":false,"rental_uris":{"android":"levelo://app?vid=15fb4bb8-4c0f-4ee3-a727-89e0f28d0a52","ios":"levelo://app?vid=15fb4bb8-4c0f-4ee3-a727-89e0f28d0a52"},"vehicle_type_id":"4","last_reported":1774109796,"current_range_meters":8000,"station_id":"st_d3nk18o9ro0c73en2l3g","pricing_plan_id":"cebpf4jnsgd1na2vs0mg"},{"bike_id":"4348e13e-21c4-48bf-9b96-9f0e6d62b137","system_id":"levelo_inurba_marseille","lat":43.25582,"lon":5.38237,"is_reserved":false,"is_disabled":false,"rental_uris":{"android":"levelo://app?vid=4348e13e-21c4-48bf-9b96-9f0e6d62b137","ios":"levelo://app?vid=4348e13e-21c4-48bf-9b96-9f0e6d62b137"},"vehicle_type_id":"4","last_reported":1774109796,"current_range_meters":8000,"station_id":"ce4bhih2rcd13ifvqfs0","pricing_plan_id":"cebpf4jnsgd1na2vs0mg"},{"bike_id":"bffbcece-3079-4464-bbeb-5ae02603690d","system_id":"levelo_inurba_marseille","lat":43.28268,"lon":5.35063,"is_reserved":false,"is_disabled":false,"rental_uris":{"android":"levelo://app?vid=bffbcece-3079-4464-bbeb-5ae02603690d","ios":"levelo://app?vid=bffbcece-3079-4464-bbeb-5ae02603690d"},"vehicle_type_id":"4","last_reported":1774109796,"current_range_meters":8000,"station_id":"ce4bhbp2rcd13ifvqerg","pricing_plan_id":"cebpf4jnsgd1na2vs0mg"},{"bike_id":"5206b1c0-ea28-4288-9fb7-15de647e09fa","system_id":"levelo_inurba_marseille","lat":43.33553,"lon":5.37463,"is_reserved":false,"is_disabled":false,"rental_uris":{"android":"levelo://app?vid=5206b1c0-ea28-4288-9fb7-15de647e09fa","ios":"levelo://app?vid=5206b1c0-ea28-4288-9fb7-15de647e09fa"},"vehicle_type_id":"4","last_reported":1774109796,"current_range_meters":8000,"station_id":"st_d46tts09ee8s73dlu43g","pricing_plan_id":"cebpf4jnsgd1na2vs0mg"},{"bike_id":"84dc3d68-1c59-4a3a-a8d1-cca6c5afc7c9","system_id":"levelo_inurba_marseille","lat":43.28025,"lon":5.36965,"is_reserved":false,"is_disabled":false,"rental_uris":{"android":"levelo://app?vid=84dc3d68-1c59-4a3a-a8d1-cca6c5afc7c9","ios":"levelo://app?vid=84dc3d68-1c59-4a3a-a8d1-cca6c5afc7c9"},"vehicle_type_id":"4","last_reported":1774109796,"current_range_meters":8000,"station_id":"ce4bha12rcd13ifvqef0","pricing_plan_id":"cebpf4jnsgd1na2vs0mg"},{"bike_id":"e19c2675-28f0-4c2b-be9d-1cbf0f068710","system_id":"levelo_inurba_marseille","lat":43.24159,"lon":5.36423,"is_reserved":false,"is_disabled":false,"rental_uris":{"android":"levelo://app?vid=e19c2675-28f0-4c2b-be9d-1cbf0f068710","ios":"levelo://app?vid=e19c2675-28f0-4c2b-be9d-1cbf0f068710"},"vehicle_type_id":"4","last_reported":1774109796,"current_range_meters":8000,"station_id":"cpo36qri1sfpv3e86is0","pricing_plan_id":"cebpf4jnsgd1na2vs0mg"},{"bike_id":"596bf4df-f07e-49ce-9a45-698f0946d7f8","system_id":"levelo_inurba_marseille","lat":43.29531,"lon":5.39044,"is_reserved":false,"is_disabled":false,"rental_uris":{"android":"levelo://app?vid=596bf4df-f07e-49ce-9a45-698f0946d7f8","ios":"levelo://app?vid=596bf4df-f07e-49ce-9a45-698f0946d7f8"},"vehicle_type_id":"4","last_reported":1774109796,"current_range_meters":8000,"station_id":"ce4bh3p2rcd13ifvqdp0","pricing_plan_id":"cebpf4jnsgd1na2vs0mg"},{"bike_id":"bb64248e-0e5d-4ee1-9d8f-d48a0dd77d66","system_id":"levelo_inurba_marseille","lat":43.21636,"lon":5.34474,"is_reserved":false,"is_disabled":false,"rental_uris":{"android":"levelo://app?vid=bb64248e-0e5d-4ee1-9d8f-d48a0dd77d66","ios":"levelo://app?vid=bb64248e-0e5d-4ee1-9d8f-d48a0dd77d66"},"vehicle_type_id":"4","last_reported":1774109796,"current_range_meters":8000,"station_id":"","pricing_plan_id":"cebpf4jnsgd1na2vs0mg"},{"bike_id":"881552ad-57ca-4484-9a05-f159c58f50d9","system_id":"levelo_inurba_marseille","lat":43.31703,"lon":5.38694,"is_reserved":false,"is_disabled":false,"rental_uris":{"android":"levelo://app?vid=881552ad-57ca-4484-9a05-f159c58f50d9","ios":"levelo://app?vid=881552ad-57ca-4484-9a05-f159c58f50d9"},"vehicle_type_id":"4","last_reported":1774109796,"current_range_meters":8000,"station_id":"","pricing_plan_id":"cebpf4jnsgd1na2vs0mg"},{"bike_id":"6508098f-b421-4138-9706-6a865184335d","system_id":"levelo_inurba_marseille","lat":43.30174,"lon":5.36627,"is_reserved":false,"is_disabled":false,"rental_uris":{"android":"levelo://app?vid=6508098f-b421-4138-9706-6a865184335d","ios":"levelo://app?vid=6508098f-b421-4138-9706-6a865184335d"},"vehicle_type_id":"4","last_reported":1774109796,"current_range_meters":8000,"station_id":"ce4bgrh2rcd13ifvqc8g","pricing_plan_id":"cebpf4jnsgd1na2vs0mg"},{"bike_id":"703efbe1-feef-417d-a9e3-0fca1a7eab74","system_id":"levelo_inurba_marseille","lat":43.34935,"lon":5.37928,"is_reserved":false,"is_disabled":false,"rental_uris":{"android":"levelo://app?vid=703efbe1-feef-417d-a9e3-0fca1a7eab74","ios":"levelo://app?vid=703efbe1-feef-417d-a9e3-0fca1a7eab74"},"vehicle_type_id":"4","last_reported":1774109796,"current_range_meters":8000,"station_id":"","pricing_plan_id":"cebpf4jnsgd1na2vs0mg"},{"bike_id":"5690451d-7c53-4b25-9218-07c7a52af0a5","system_id":"levelo_inurba_marseille","lat":43.27374,"lon":5.36259,"is_reserved":false,"is_disabled":false,"rental_uris":{"android":"levelo://app?vid=5690451d-7c53-4b25-9218-07c7a52af0a5","ios":"levelo://app?vid=5690451d-7c53-4b25-9218-07c7a52af0a5"},"vehicle_type_id":"4","last_reported":1774109796,"current_range_meters":8000,"station_id":"ce4bhbh2rcd13ifvqeo0","pricing_plan_id":"cebpf4jnsgd1na2vs0mg"},{"bike_id":"d090a803-95a9-45d8-9d0c-efd95354e4ef","system_id":"levelo_inurba_marseille","lat":43.28618,"lon":5.351,"is_reserved":false,"is_disabled":false,"rental_uris":{"android":"levelo://app?vid=d090a803-95a9-45d8-9d0c-efd95354e4ef","ios":"levelo://app?vid=d090a803-95a9-45d8-9d0c-efd95354e4ef"},"vehicle_type_id":"4","last_reported":1774109796,"current_range_meters":8000,"station_id":"ce4bhch2rcd13ifvqeug","pricing_plan_id":"cebpf4jnsgd1na2vs0mg"},{"bike_id":"c3f5b2fa-aa70-4c93-9207-84adc3ef048a","system_id":"levelo_inurba_marseille","lat":43.2319,"lon":5.35546,"is_reserved":false,"is_disabled":false,"rental_uris":{"android":"levelo://app?vid=c3f5b2fa-aa70-4c93-9207-84adc3ef048a","ios":"levelo://app?vid=c3f5b2fa-aa70-4c93-9207-84adc3ef048a"},"vehicle_type_id":"4","last_reported":1774109796,"current_range_meters":8000,"station_id":"ce4bhu92rcd13ifvqi70","pricing_plan_id":"cebpf4jnsgd1na2vs0mg"},{"bike_id":"1d5574f9-f5fc-4b9a-bd9f-e2c1e9853e24","system_id":"levelo_inurba_marseille","lat":43.28975,"lon":5.37832,"is_reserved":false,"is_disabled":false,"rental_uris":{"android":"levelo://app?vid=1d5574f9-f5fc-4b9a-bd9f-e2c1e9853e24","ios":"levelo://app?vid=1d5574f9-f5fc-4b9a-bd9f-e2c1e9853e24"},"vehicle_type_id":"4","last_reported":1774109796,"current_range_meters":8400,"station_id":"ce4bh9p2rcd13ifvqed0","pricing_plan_id":"cebpf4jnsgd1na2vs0mg"},{"bike_id":"b6fffe2f-9423-41b9-a53f-4ddbccd10965","system_id":"levelo_inurba_marseille","lat":43.33544,"lon":5.3747,"is_reserved":false,"is_disabled":false,"rental_uris":{"android":"levelo://app?vid=b6fffe2f-9423-41b9-a53f-4ddbccd10965","ios":"levelo://app?vid=b6fffe2f-9423-41b9-a53f-4ddbccd10965"},"vehicle_type_id":"4","last_reported":1774109796,"current_range_meters":8400,"station_id":"st_d46tts09ee8s73dlu43g","pricing_plan_id":"cebpf4jnsgd1na2vs0mg"},{"bike_id":"89d5b053-9e40-4e31-a28a-65d06dc45ab9","system_id":"levelo_inurba_marseille","lat":43.28623,"lon":5.35104,"is_reserved":false,"is_disabled":false,"rental_uris":{"android":"levelo://app?vid=89d5b053-9e40-4e31-a28a-65d06dc45ab9","ios":"levelo://app?vid=89d5b053-9e40-4e31-a28a-65d06dc45ab9"},"vehicle_type_id":"4","last_reported":1774109796,"current_range_meters":8400,"station_id":"ce4bhch2rcd13ifvqeug","pricing_plan_id":"cebpf4jnsgd1na2vs0mg"},{"bike_id":"fb2fe282-db9f-4047-a00d-9fa8876597bc","system_id":"levelo_inurba_marseille","lat":43.28672,"lon":5.3635,"is_reserved":false,"is_disabled":false,"rental_uris":{"android":"levelo://app?vid=fb2fe282-db9f-4047-a00d-9fa8876597bc","ios":"levelo://app?vid=fb2fe282-db9f-4047-a00d-9fa8876597bc"},"vehicle_type_id":"4","last_reported":1774109796,"current_range_meters":8400,"station_id":"ce4bhah2rcd13ifvqej0","pricing_plan_id":"cebpf4jnsgd1na2vs0mg"},{"bike_id":"4937c8ba-b48d-479e-9d02-fce9ca3739b5","system_id":"levelo_inurba_marseille","lat":43.29806,"lon":5.404,"is_reserved":false,"is_disabled":false,"rental_uris":{"android":"levelo://app?vid=4937c8ba-b48d-479e-9d02-fce9ca3739b5","ios":"levelo://app?vid=4937c8ba-b48d-479e-9d02-fce9ca3739b5"},"vehicle_type_id":"4","last_reported":1774109796,"current_range_meters":8400,"station_id":"ce4bh112rcd13ifvqd90","pricing_plan_id":"cebpf4jnsgd1na2vs0mg"},{"bike_id":"f236b5ad-3443-461f-ac2e-36b1e6a2e5ce","system_id":"levelo_inurba_marseille","lat":43.28264,"lon":5.3506,"is_reserved":false,"is_disabled":false,"rental_uris":{"android":"levelo://app?vid=f236b5ad-3443-461f-ac2e-36b1e6a2e5ce","ios":"levelo://app?vid=f236b5ad-3443-461f-ac2e-36b1e6a2e5ce"},"vehicle_type_id":"4","last_reported":1774109796,"current_range_meters":8400,"station_id":"ce4bhbp2rcd13ifvqerg","pricing_plan_id":"cebpf4jnsgd1na2vs0mg"},{"bike_id":"6a0e5f42-628b-49f9-be58-7186fc3dc8d5","system_id":"levelo_inurba_marseille","lat":43.23058,"lon":5.35492,"is_reserved":false,"is_disabled":false,"rental_uris":{"android":"levelo://app?vid=6a0e5f42-628b-49f9-be58-7186fc3dc8d5","ios":"levelo://app?vid=6a0e5f42-628b-49f9-be58-7186fc3dc8d5"},"vehicle_type_id":"4","last_reported":1774109796,"current_range_meters":8400,"station_id":"cpo3342slgdg3j2ifvpg","pricing_plan_id":"cebpf4jnsgd1na2vs0mg"},{"bike_id":"9a9537ab-7428-488b-bde9-e2579e5a56b3","system_id":"levelo_inurba_marseille","lat":43.305034,"lon":5.380833,"is_reserved":false,"is_disabled":false,"rental_uris":{"android":"levelo://app?vid=9a9537ab-7428-488b-bde9-e2579e5a56b3","ios":"levelo://app?vid=9a9537ab-7428-488b-bde9-e2579e5a56b3"},"vehicle_type_id":"4","last_reported":1774109796,"current_range_meters":8400,"station_id":"ce4bgup2rcd13ifvqcn0","pricing_plan_id":"cebpf4jnsgd1na2vs0mg"},{"bike_id":"0287bcd7-65b1-4b28-b20a-fce0f75b9060","system_id":"levelo_inurba_marseille","lat":43.28397,"lon":5.37507,"is_reserved":false,"is_disabled":false,"rental_uris":{"android":"levelo://app?vid=0287bcd7-65b1-4b28-b20a-fce0f75b9060","ios":"levelo://app?vid=0287bcd7-65b1-4b28-b20a-fce0f75b9060"},"vehicle_type_id":"4","last_reported":1774109796,"current_range_meters":8400,"station_id":"ce4bh412rcd13ifvqds0","pricing_plan_id":"cebpf4jnsgd1na2vs0mg"},{"bike_id":"280578b9-60d3-4d63-bb0d-4693a52f0b6d","system_id":"levelo_inurba_marseille","lat":43.29104,"lon":5.38099,"is_reserved":false,"is_disabled":true,"rental_uris":{"android":"levelo://app?vid=280578b9-60d3-4d63-bb0d-4693a52f0b6d","ios":"levelo://app?vid=280578b9-60d3-4d63-bb0d-4693a52f0b6d"},"vehicle_type_id":"4","last_reported":1774109796,"current_range_meters":8400,"station_id":"ce4bh512rcd13ifvqe2g","pricing_plan_id":"cebpf4jnsgd1na2vs0mg"},{"bike_id":"8a4c39b6-1604-4e3b-b597-213ce1e993fd","system_id":"levelo_inurba_marseille","lat":43.21188,"lon":5.35073,"is_reserved":false,"is_disabled":false,"rental_uris":{"android":"levelo://app?vid=8a4c39b6-1604-4e3b-b597-213ce1e993fd","ios":"levelo://app?vid=8a4c39b6-1604-4e3b-b597-213ce1e993fd"},"vehicle_type_id":"4","last_reported":1774109796,"current_range_meters":8400,"station_id":"st_cvj6sg6p6f1abm77japg","pricing_plan_id":"cebpf4jnsgd1na2vs0mg"},{"bike_id":"de2533db-a118-4dcb-9318-adae32cf5691","system_id":"levelo_inurba_marseille","lat":43.25864,"lon":5.39929,"is_reserved":false,"is_disabled":false,"rental_uris":{"android":"levelo://app?vid=de2533db-a118-4dcb-9318-adae32cf5691","ios":"levelo://app?vid=de2533db-a118-4dcb-9318-adae32cf5691"},"vehicle_type_id":"4","last_reported":1774109796,"current_range_meters":8400,"station_id":"ce4bhl92rcd13ifvqghg","pricing_plan_id":"cebpf4jnsgd1na2vs0mg"},{"bike_id":"9bb241ec-cf59-4082-89c3-5afc5b022aea","system_id":"levelo_inurba_marseille","lat":43.3088,"lon":5.39625,"is_reserved":false,"is_disabled":false,"rental_uris":{"android":"levelo://app?vid=9bb241ec-cf59-4082-89c3-5afc5b022aea","ios":"levelo://app?vid=9bb241ec-cf59-4082-89c3-5afc5b022aea"},"vehicle_type_id":"4","last_reported":1774109796,"current_range_meters":8400,"station_id":"ce4bh012rcd13ifvqcv0","pricing_plan_id":"cebpf4jnsgd1na2vs0mg"},{"bike_id":"e79f048e-9275-46f5-9c08-dc5d94983537","system_id":"levelo_inurba_marseille","lat":43.28631,"lon":5.35134,"is_reserved":false,"is_disabled":false,"rental_uris":{"android":"levelo://app?vid=e79f048e-9275-46f5-9c08-dc5d94983537","ios":"levelo://app?vid=e79f048e-9275-46f5-9c08-dc5d94983537"},"vehicle_type_id":"4","last_reported":1774109796,"current_range_meters":8400,"station_id":"ce4bhch2rcd13ifvqeug","pricing_plan_id":"cebpf4jnsgd1na2vs0mg"},{"bike_id":"1a71c1aa-5504-4069-88ae-43c4bfce63a1","system_id":"levelo_inurba_marseille","lat":43.25318,"lon":5.42173,"is_reserved":false,"is_disabled":false,"rental_uris":{"android":"levelo://app?vid=1a71c1aa-5504-4069-88ae-43c4bfce63a1","ios":"levelo://app?vid=1a71c1aa-5504-4069-88ae-43c4bfce63a1"},"vehicle_type_id":"4","last_reported":1774109796,"current_range_meters":8400,"station_id":"st_d2m65c5bi1j21697t3ng","pricing_plan_id":"cebpf4jnsgd1na2vs0mg"},{"bike_id":"efe4b101-a4c2-4a36-bd51-36393273087f","system_id":"levelo_inurba_marseille","lat":43.28476,"lon":5.48413,"is_reserved":false,"is_disabled":false,"rental_uris":{"android":"levelo://app?vid=efe4b101-a4c2-4a36-bd51-36393273087f","ios":"levelo://app?vid=efe4b101-a4c2-4a36-bd51-36393273087f"},"vehicle_type_id":"4","last_reported":1774109796,"current_range_meters":8400,"station_id":"","pricing_plan_id":"cebpf4jnsgd1na2vs0mg"},{"bike_id":"cf289162-12a5-4eb9-b365-175d3cf48794","system_id":"levelo_inurba_marseille","lat":43.30109,"lon":5.39067,"is_reserved":false,"is_disabled":false,"rental_uris":{"android":"levelo://app?vid=cf289162-12a5-4eb9-b365-175d3cf48794","ios":"levelo://app?vid=cf289162-12a5-4eb9-b365-175d3cf48794"},"vehicle_type_id":"4","last_reported":1774109796,"current_range_meters":8800,"station_id":"ce4bh192rcd13ifvqdb0","pricing_plan_id":"cebpf4jnsgd1na2vs0mg"},{"bike_id":"62ccf4a8-0426-42c8-92c7-60b92e2221c9","system_id":"levelo_inurba_marseille","lat":43.28404,"lon":5.48379,"is_reserved":false,"is_disabled":false,"rental_uris":{"android":"levelo://app?vid=62ccf4a8-0426-42c8-92c7-60b92e2221c9","ios":"levelo://app?vid=62ccf4a8-0426-42c8-92c7-60b92e2221c9"},"vehicle_type_id":"4","last_reported":1774109796,"current_range_meters":8800,"station_id":"","pricing_plan_id":"cebpf4jnsgd1na2vs0mg"},{"bike_id":"f0885dbb-64a6-4ff8-94fa-a07eaad87691","system_id":"levelo_inurba_marseille","lat":43.28406,"lon":5.34984,"is_reserved":false,"is_disabled":false,"rental_uris":{"android":"levelo://app?vid=f0885dbb-64a6-4ff8-94fa-a07eaad87691","ios":"levelo://app?vid=f0885dbb-64a6-4ff8-94fa-a07eaad87691"},"vehicle_type_id":"4","last_reported":1774109796,"current_range_meters":8800,"station_id":"ce4bhbh2rcd13ifvqepg","pricing_plan_id":"cebpf4jnsgd1na2vs0mg"},{"bike_id":"503df8da-9118-4827-9af8-3aebdb519853","system_id":"levelo_inurba_marseille","lat":43.22572,"lon":5.41642,"is_reserved":false,"is_disabled":false,"rental_uris":{"android":"levelo://app?vid=503df8da-9118-4827-9af8-3aebdb519853","ios":"levelo://app?vid=503df8da-9118-4827-9af8-3aebdb519853"},"vehicle_type_id":"4","last_reported":1774109796,"current_range_meters":8800,"station_id":"st_d2o4gvlbi1j2169b742g","pricing_plan_id":"cebpf4jnsgd1na2vs0mg"},{"bike_id":"3d877905-2c41-467a-8f2e-5f77866e01b5","system_id":"levelo_inurba_marseille","lat":43.21225,"lon":5.35102,"is_reserved":false,"is_disabled":false,"rental_uris":{"android":"levelo://app?vid=3d877905-2c41-467a-8f2e-5f77866e01b5","ios":"levelo://app?vid=3d877905-2c41-467a-8f2e-5f77866e01b5"},"vehicle_type_id":"4","last_reported":1774109796,"current_range_meters":8800,"station_id":"","pricing_plan_id":"cebpf4jnsgd1na2vs0mg"},{"bike_id":"f84df946-1fe9-4d68-b54f-3a23cc20fde7","system_id":"levelo_inurba_marseille","lat":43.29872,"lon":5.42098,"is_reserved":false,"is_disabled":false,"rental_uris":{"android":"levelo://app?vid=f84df946-1fe9-4d68-b54f-3a23cc20fde7","ios":"levelo://app?vid=f84df946-1fe9-4d68-b54f-3a23cc20fde7"},"vehicle_type_id":"4","last_reported":1774109796,"current_range_meters":8800,"station_id":"st_d6tc004otcvc738tfe70","pricing_plan_id":"cebpf4jnsgd1na2vs0mg"},{"bike_id":"ca2ff45f-a48e-4335-b8fc-c0681dae50b6","system_id":"levelo_inurba_marseille","lat":43.29616,"lon":5.37714,"is_reserved":false,"is_disabled":false,"rental_uris":{"android":"levelo://app?vid=ca2ff45f-a48e-4335-b8fc-c0681dae50b6","ios":"levelo://app?vid=ca2ff45f-a48e-4335-b8fc-c0681dae50b6"},"vehicle_type_id":"4","last_reported":1774109796,"current_range_meters":8800,"station_id":"ce4bgi92rcd13ifvqb90","pricing_plan_id":"cebpf4jnsgd1na2vs0mg"},{"bike_id":"d65bd890-bd76-40b1-a464-add252f480e6","system_id":"levelo_inurba_marseille","lat":43.31736,"lon":5.38999,"is_reserved":false,"is_disabled":false,"rental_uris":{"android":"levelo://app?vid=d65bd890-bd76-40b1-a464-add252f480e6","ios":"levelo://app?vid=d65bd890-bd76-40b1-a464-add252f480e6"},"vehicle_type_id":"4","last_reported":1774109796,"current_range_meters":8800,"station_id":"ce4bhqp2rcd13ifvqhng","pricing_plan_id":"cebpf4jnsgd1na2vs0mg"},{"bike_id":"67e1f5f0-0006-4bed-ab6b-01d5f1dfc1ff","system_id":"levelo_inurba_marseille","lat":43.2878,"lon":5.35221,"is_reserved":false,"is_disabled":false,"rental_uris":{"android":"levelo://app?vid=67e1f5f0-0006-4bed-ab6b-01d5f1dfc1ff","ios":"levelo://app?vid=67e1f5f0-0006-4bed-ab6b-01d5f1dfc1ff"},"vehicle_type_id":"4","last_reported":1774109796,"current_range_meters":8800,"station_id":"","pricing_plan_id":"cebpf4jnsgd1na2vs0mg"},{"bike_id":"60450f91-28f7-421a-8f2d-3d3b117e9d66","system_id":"levelo_inurba_marseille","lat":43.28004,"lon":5.41668,"is_reserved":false,"is_disabled":false,"rental_uris":{"android":"levelo://app?vid=60450f91-28f7-421a-8f2d-3d3b117e9d66","ios":"levelo://app?vid=60450f91-28f7-421a-8f2d-3d3b117e9d66"},"vehicle_type_id":"4","last_reported":1774109796,"current_range_meters":8800,"station_id":"ce4bho12rcd13ifvqh1g","pricing_plan_id":"cebpf4jnsgd1na2vs0mg"},{"bike_id":"7bc3565d-7481-4ae6-ad76-459dc3903f23","system_id":"levelo_inurba_marseille","lat":43.30879,"lon":5.39641,"is_reserved":false,"is_disabled":false,"rental_uris":{"android":"levelo://app?vid=7bc3565d-7481-4ae6-ad76-459dc3903f23","ios":"levelo://app?vid=7bc3565d-7481-4ae6-ad76-459dc3903f23"},"vehicle_type_id":"4","last_reported":1774109796,"current_range_meters":8800,"station_id":"ce4bh012rcd13ifvqcv0","pricing_plan_id":"cebpf4jnsgd1na2vs0mg"},{"bike_id":"b19a626a-93cd-41bf-8d4f-8b63d7aeec08","system_id":"levelo_inurba_marseille","lat":43.30131,"lon":5.43903,"is_reserved":false,"is_disabled":false,"rental_uris":{"android":"levelo://app?vid=b19a626a-93cd-41bf-8d4f-8b63d7aeec08","ios":"levelo://app?vid=b19a626a-93cd-41bf-8d4f-8b63d7aeec08"},"vehicle_type_id":"4","last_reported":1774109796,"current_range_meters":8800,"station_id":"","pricing_plan_id":"cebpf4jnsgd1na2vs0mg"},{"bike_id":"7d1bd9bd-d2cc-4f5d-a636-eadb0948602e","system_id":"levelo_inurba_marseille","lat":43.24172,"lon":5.36409,"is_reserved":false,"is_disabled":false,"rental_uris":{"android":"levelo://app?vid=7d1bd9bd-d2cc-4f5d-a636-eadb0948602e","ios":"levelo://app?vid=7d1bd9bd-d2cc-4f5d-a636-eadb0948602e"},"vehicle_type_id":"4","last_reported":1774109796,"current_range_meters":8800,"station_id":"cpo36qri1sfpv3e86is0","pricing_plan_id":"cebpf4jnsgd1na2vs0mg"},{"bike_id":"8827da7c-4553-4e45-8b96-33f6c2699a52","system_id":"levelo_inurba_marseille","lat":43.21754,"lon":5.3461,"is_reserved":false,"is_disabled":true,"rental_uris":{"android":"levelo://app?vid=8827da7c-4553-4e45-8b96-33f6c2699a52","ios":"levelo://app?vid=8827da7c-4553-4e45-8b96-33f6c2699a52"},"vehicle_type_id":"4","last_reported":1774109796,"current_range_meters":8800,"station_id":"st_cvj6r9ubvosntc0bgbag","pricing_plan_id":"cebpf4jnsgd1na2vs0mg"},{"bike_id":"5369d941-756a-4a39-ae59-10b7c47d2be3","system_id":"levelo_inurba_marseille","lat":43.31046,"lon":5.37154,"is_reserved":false,"is_disabled":false,"rental_uris":{"android":"levelo://app?vid=5369d941-756a-4a39-ae59-10b7c47d2be3","ios":"levelo://app?vid=5369d941-756a-4a39-ae59-10b7c47d2be3"},"vehicle_type_id":"4","last_reported":1774109796,"current_range_meters":8800,"station_id":"st_d4kl2rp97mjs73e7tdfg","pricing_plan_id":"cebpf4jnsgd1na2vs0mg"},{"bike_id":"2198dd5a-8a9c-43a1-8743-28b676f91ab1","system_id":"levelo_inurba_marseille","lat":43.28999,"lon":5.36636,"is_reserved":false,"is_disabled":false,"rental_uris":{"android":"levelo://app?vid=2198dd5a-8a9c-43a1-8743-28b676f91ab1","ios":"levelo://app?vid=2198dd5a-8a9c-43a1-8743-28b676f91ab1"},"vehicle_type_id":"4","last_reported":1774109796,"current_range_meters":8800,"station_id":"","pricing_plan_id":"cebpf4jnsgd1na2vs0mg"},{"bike_id":"4a83c3d6-a071-41e6-8788-a3d67213f2c5","system_id":"levelo_inurba_marseille","lat":43.27372,"lon":5.36253,"is_reserved":false,"is_disabled":false,"rental_uris":{"android":"levelo://app?vid=4a83c3d6-a071-41e6-8788-a3d67213f2c5","ios":"levelo://app?vid=4a83c3d6-a071-41e6-8788-a3d67213f2c5"},"vehicle_type_id":"4","last_reported":1774109796,"current_range_meters":8800,"station_id":"ce4bhbh2rcd13ifvqeo0","pricing_plan_id":"cebpf4jnsgd1na2vs0mg"},{"bike_id":"36430f76-f4d9-49a3-b9b0-3e69da1d0861","system_id":"levelo_inurba_marseille","lat":43.24175,"lon":5.36395,"is_reserved":false,"is_disabled":false,"rental_uris":{"android":"levelo://app?vid=36430f76-f4d9-49a3-b9b0-3e69da1d0861","ios":"levelo://app?vid=36430f76-f4d9-49a3-b9b0-3e69da1d0861"},"vehicle_type_id":"4","last_reported":1774109796,"current_range_meters":8800,"station_id":"cpo36qri1sfpv3e86is0","pricing_plan_id":"cebpf4jnsgd1na2vs0mg"},{"bike_id":"6c1ac590-511b-4ef3-b19a-055f363bbc14","system_id":"levelo_inurba_marseille","lat":43.29902,"lon":5.43572,"is_reserved":false,"is_disabled":false,"rental_uris":{"android":"levelo://app?vid=6c1ac590-511b-4ef3-b19a-055f363bbc14","ios":"levelo://app?vid=6c1ac590-511b-4ef3-b19a-055f363bbc14"},"vehicle_type_id":"4","last_reported":1774109796,"current_range_meters":8800,"station_id":"ce4bhpp2rcd13ifvqhfg","pricing_plan_id":"cebpf4jnsgd1na2vs0mg"},{"bike_id":"578e86ea-f420-4ad1-b2c3-28b0faa83cba","system_id":"levelo_inurba_marseille","lat":43.29621,"lon":5.37163,"is_reserved":false,"is_disabled":false,"rental_uris":{"android":"levelo://app?vid=578e86ea-f420-4ad1-b2c3-28b0faa83cba","ios":"levelo://app?vid=578e86ea-f420-4ad1-b2c3-28b0faa83cba"},"vehicle_type_id":"4","last_reported":1774109796,"current_range_meters":8800,"station_id":"ce4bgnh2rcd13ifvqc0g","pricing_plan_id":"cebpf4jnsgd1na2vs0mg"},{"bike_id":"fad4f1bd-c6cb-4b84-a028-a4219be2e3b5","system_id":"levelo_inurba_marseille","lat":43.262,"lon":5.37929,"is_reserved":false,"is_disabled":false,"rental_uris":{"android":"levelo://app?vid=fad4f1bd-c6cb-4b84-a028-a4219be2e3b5","ios":"levelo://app?vid=fad4f1bd-c6cb-4b84-a028-a4219be2e3b5"},"vehicle_type_id":"4","last_reported":1774109796,"current_range_meters":8800,"station_id":"ce4bhjp2rcd13ifvqg90","pricing_plan_id":"cebpf4jnsgd1na2vs0mg"},{"bike_id":"d4da46a1-3b9d-4dec-958a-07224dfcb10c","system_id":"levelo_inurba_marseille","lat":43.27207,"lon":5.39192,"is_reserved":false,"is_disabled":true,"rental_uris":{"android":"levelo://app?vid=d4da46a1-3b9d-4dec-958a-07224dfcb10c","ios":"levelo://app?vid=d4da46a1-3b9d-4dec-958a-07224dfcb10c"},"vehicle_type_id":"4","last_reported":1774109796,"current_range_meters":9200,"station_id":"ce4bhhp2rcd13ifvqfm0","pricing_plan_id":"cebpf4jnsgd1na2vs0mg"},{"bike_id":"32e935cb-eb7b-4796-92f4-6022fdaaa610","system_id":"levelo_inurba_marseille","lat":43.27379,"lon":5.36262,"is_reserved":false,"is_disabled":false,"rental_uris":{"android":"levelo://app?vid=32e935cb-eb7b-4796-92f4-6022fdaaa610","ios":"levelo://app?vid=32e935cb-eb7b-4796-92f4-6022fdaaa610"},"vehicle_type_id":"4","last_reported":1774109796,"current_range_meters":9200,"station_id":"ce4bhbh2rcd13ifvqeo0","pricing_plan_id":"cebpf4jnsgd1na2vs0mg"},{"bike_id":"571bff14-bd20-4083-b0bb-00a922eeafce","system_id":"levelo_inurba_marseille","lat":43.28539,"lon":5.441,"is_reserved":false,"is_disabled":false,"rental_uris":{"android":"levelo://app?vid=571bff14-bd20-4083-b0bb-00a922eeafce","ios":"levelo://app?vid=571bff14-bd20-4083-b0bb-00a922eeafce"},"vehicle_type_id":"4","last_reported":1774109796,"current_range_meters":9200,"station_id":"st_d3j3df2ikq2c7380ej80","pricing_plan_id":"cebpf4jnsgd1na2vs0mg"},{"bike_id":"cbf18b09-1835-4d79-979b-11c1d95ba37e","system_id":"levelo_inurba_marseille","lat":43.27624,"lon":5.36105,"is_reserved":false,"is_disabled":false,"rental_uris":{"android":"levelo://app?vid=cbf18b09-1835-4d79-979b-11c1d95ba37e","ios":"levelo://app?vid=cbf18b09-1835-4d79-979b-11c1d95ba37e"},"vehicle_type_id":"4","last_reported":1774109796,"current_range_meters":9200,"station_id":"ce4bgj92rcd13ifvqbe0","pricing_plan_id":"cebpf4jnsgd1na2vs0mg"},{"bike_id":"e174566f-9f96-4175-8d0d-0afc92e5691a","system_id":"levelo_inurba_marseille","lat":43.28599,"lon":5.35107,"is_reserved":false,"is_disabled":false,"rental_uris":{"android":"levelo://app?vid=e174566f-9f96-4175-8d0d-0afc92e5691a","ios":"levelo://app?vid=e174566f-9f96-4175-8d0d-0afc92e5691a"},