{"last_updated":1784487026,"ttl":60,"version":"2.2","data":{"bikes":[{"bike_id":"ba0c28b1-8732-48e2-8079-f25b2b3fbc3c","system_id":"levelo_inurba_marseille","lat":43.337444,"lon":5.374475,"is_reserved":false,"is_disabled":false,"rental_uris":{"android":"levelo://app?vid=ba0c28b1-8732-48e2-8079-f25b2b3fbc3c","ios":"levelo://app?vid=ba0c28b1-8732-48e2-8079-f25b2b3fbc3c"},"vehicle_type_id":"4","last_reported":1784487027,"current_range_meters":0,"station_id":"","pricing_plan_id":"cebpf4jnsgd1na2vs0mg"},{"bike_id":"b4a0efc4-ed79-47bb-8fc8-25f6cf1a9ba2","system_id":"levelo_inurba_marseille","lat":43.22535,"lon":5.34828,"is_reserved":false,"is_disabled":false,"rental_uris":{"android":"levelo://app?vid=b4a0efc4-ed79-47bb-8fc8-25f6cf1a9ba2","ios":"levelo://app?vid=b4a0efc4-ed79-47bb-8fc8-25f6cf1a9ba2"},"vehicle_type_id":"4","last_reported":1784487027,"current_range_meters":38400,"station_id":"","pricing_plan_id":"cebpf4jnsgd1na2vs0mg"},{"bike_id":"a966e85f-68d2-4c23-8395-3915ebf05c3e","system_id":"levelo_inurba_marseille","lat":43.33534,"lon":5.37467,"is_reserved":false,"is_disabled":false,"rental_uris":{"android":"levelo://app?vid=a966e85f-68d2-4c23-8395-3915ebf05c3e","ios":"levelo://app?vid=a966e85f-68d2-4c23-8395-3915ebf05c3e"},"vehicle_type_id":"4","last_reported":1784487027,"current_range_meters":10800,"station_id":"st_d46tts09ee8s73dlu43g","pricing_plan_id":"cebpf4jnsgd1na2vs0mg"},{"bike_id":"63dc20ac-90f4-4eae-ac6c-d24ae13a7929","system_id":"levelo_inurba_marseille","lat":43.25338,"lon":5.42159,"is_reserved":false,"is_disabled":false,"rental_uris":{"android":"levelo://app?vid=63dc20ac-90f4-4eae-ac6c-d24ae13a7929","ios":"levelo://app?vid=63dc20ac-90f4-4eae-ac6c-d24ae13a7929"},"vehicle_type_id":"4","last_reported":1784487027,"current_range_meters":28000,"station_id":"st_d2m65c5bi1j21697t3ng","pricing_plan_id":"cebpf4jnsgd1na2vs0mg"},{"bike_id":"4cc7162f-b6e0-40be-8eb5-4a1782f22439","system_id":"levelo_inurba_marseille","lat":43.29003,"lon":5.35616,"is_reserved":false,"is_disabled":false,"rental_uris":{"android":"levelo://app?vid=4cc7162f-b6e0-40be-8eb5-4a1782f22439","ios":"levelo://app?vid=4cc7162f-b6e0-40be-8eb5-4a1782f22439"},"vehicle_type_id":"4","last_reported":1784487027,"current_range_meters":7200,"station_id":"ce4bhb92rcd13ifvqen0","pricing_plan_id":"cebpf4jnsgd1na2vs0mg"},{"bike_id":"298e8ab9-5dd8-4e39-8869-c4881ca62a76","system_id":"levelo_inurba_marseille","lat":43.28697,"lon":5.37383,"is_reserved":false,"is_disabled":false,"rental_uris":{"android":"levelo://app?vid=298e8ab9-5dd8-4e39-8869-c4881ca62a76","ios":"levelo://app?vid=298e8ab9-5dd8-4e39-8869-c4881ca62a76"},"vehicle_type_id":"4","last_reported":1784487027,"current_range_meters":24800,"station_id":"ce4bh3p2rcd13ifvqdq0","pricing_plan_id":"cebpf4jnsgd1na2vs0mg"},{"bike_id":"5a8d9266-f0fd-4ab9-8de4-43bb599823d5","system_id":"levelo_inurba_marseille","lat":43.26218,"lon":5.3877,"is_reserved":false,"is_disabled":false,"rental_uris":{"android":"levelo://app?vid=5a8d9266-f0fd-4ab9-8de4-43bb599823d5","ios":"levelo://app?vid=5a8d9266-f0fd-4ab9-8de4-43bb599823d5"},"vehicle_type_id":"4","last_reported":1784487027,"current_range_meters":22800,"station_id":"st_d8gjfg747rts73coq3b0","pricing_plan_id":"cebpf4jnsgd1na2vs0mg"},{"bike_id":"d82ff212-3daa-4ef7-97b1-31e890a6719e","system_id":"levelo_inurba_marseille","lat":43.24168,"lon":5.36395,"is_reserved":false,"is_disabled":false,"rental_uris":{"android":"levelo://app?vid=d82ff212-3daa-4ef7-97b1-31e890a6719e","ios":"levelo://app?vid=d82ff212-3daa-4ef7-97b1-31e890a6719e"},"vehicle_type_id":"4","last_reported":1784487027,"current_range_meters":29600,"station_id":"cpo36qri1sfpv3e86is0","pricing_plan_id":"cebpf4jnsgd1na2vs0mg"},{"bike_id":"54d6a8c9-5e9f-4108-8cad-6cf1781e6a5a","system_id":"levelo_inurba_marseille","lat":43.2499,"lon":5.38938,"is_reserved":false,"is_disabled":false,"rental_uris":{"android":"levelo://app?vid=54d6a8c9-5e9f-4108-8cad-6cf1781e6a5a","ios":"levelo://app?vid=54d6a8c9-5e9f-4108-8cad-6cf1781e6a5a"},"vehicle_type_id":"4","last_reported":1784487027,"current_range_meters":32400,"station_id":"ce4bhgp2rcd13ifvqfd0","pricing_plan_id":"cebpf4jnsgd1na2vs0mg"},{"bike_id":"0671173c-a69c-4c9c-af23-0ba572f52f57","system_id":"levelo_inurba_marseille","lat":43.29546,"lon":5.3853,"is_reserved":false,"is_disabled":false,"rental_uris":{"android":"levelo://app?vid=0671173c-a69c-4c9c-af23-0ba572f52f57","ios":"levelo://app?vid=0671173c-a69c-4c9c-af23-0ba572f52f57"},"vehicle_type_id":"4","last_reported":1784487027,"current_range_meters":33200,"station_id":"ce4bgih2rcd13ifvqba0","pricing_plan_id":"cebpf4jnsgd1na2vs0mg"},{"bike_id":"2e1ec244-6a09-470a-a3fa-843f9ed5a0d0","system_id":"levelo_inurba_marseille","lat":43.27935,"lon":5.41046,"is_reserved":false,"is_disabled":false,"rental_uris":{"android":"levelo://app?vid=2e1ec244-6a09-470a-a3fa-843f9ed5a0d0","ios":"levelo://app?vid=2e1ec244-6a09-470a-a3fa-843f9ed5a0d0"},"vehicle_type_id":"4","last_reported":1784487027,"current_range_meters":10000,"station_id":"ce4bhnp2rcd13ifvqh0g","pricing_plan_id":"cebpf4jnsgd1na2vs0mg"},{"bike_id":"14f453ad-1979-4bdf-bd4b-0d763e7231e8","system_id":"levelo_inurba_marseille","lat":43.23292,"lon":5.3988,"is_reserved":false,"is_disabled":true,"rental_uris":{"android":"levelo://app?vid=14f453ad-1979-4bdf-bd4b-0d763e7231e8","ios":"levelo://app?vid=14f453ad-1979-4bdf-bd4b-0d763e7231e8"},"vehicle_type_id":"4","last_reported":1784487027,"current_range_meters":0,"station_id":"","pricing_plan_id":"cebpf4jnsgd1na2vs0mg"},{"bike_id":"68b31662-ce9b-4d37-8a88-29af305e8888","system_id":"levelo_inurba_marseille","lat":43.24412,"lon":5.37035,"is_reserved":false,"is_disabled":false,"rental_uris":{"android":"levelo://app?vid=68b31662-ce9b-4d37-8a88-29af305e8888","ios":"levelo://app?vid=68b31662-ce9b-4d37-8a88-29af305e8888"},"vehicle_type_id":"4","last_reported":1784487027,"current_range_meters":7200,"station_id":"ce4bhhh2rcd13ifvqfk0","pricing_plan_id":"cebpf4jnsgd1na2vs0mg"},{"bike_id":"525ed65d-ebba-4a66-890f-d163cc72b2e3","system_id":"levelo_inurba_marseille","lat":43.29523,"lon":5.3749,"is_reserved":false,"is_disabled":false,"rental_uris":{"android":"levelo://app?vid=525ed65d-ebba-4a66-890f-d163cc72b2e3","ios":"levelo://app?vid=525ed65d-ebba-4a66-890f-d163cc72b2e3"},"vehicle_type_id":"4","last_reported":1784487027,"current_range_meters":39200,"station_id":"ce4bgkp2rcd13ifvqbmg","pricing_plan_id":"cebpf4jnsgd1na2vs0mg"},{"bike_id":"e71494cd-d4a8-436a-a5c6-260a2924500e","system_id":"levelo_inurba_marseille","lat":43.26231,"lon":5.38752,"is_reserved":false,"is_disabled":true,"rental_uris":{"android":"levelo://app?vid=e71494cd-d4a8-436a-a5c6-260a2924500e","ios":"levelo://app?vid=e71494cd-d4a8-436a-a5c6-260a2924500e"},"vehicle_type_id":"4","last_reported":1784487027,"current_range_meters":24400,"station_id":"st_d8gjfg747rts73coq3b0","pricing_plan_id":"cebpf4jnsgd1na2vs0mg"},{"bike_id":"4a000764-aee4-44dc-8be4-d5d8e44185fb","system_id":"levelo_inurba_marseille","lat":43.29019,"lon":5.37561,"is_reserved":false,"is_disabled":false,"rental_uris":{"android":"levelo://app?vid=4a000764-aee4-44dc-8be4-d5d8e44185fb","ios":"levelo://app?vid=4a000764-aee4-44dc-8be4-d5d8e44185fb"},"vehicle_type_id":"4","last_reported":1784487027,"current_range_meters":38400,"station_id":"ce4bh692rcd13ifvqe90","pricing_plan_id":"cebpf4jnsgd1na2vs0mg"},{"bike_id":"80ef3a4a-1855-4d8a-9848-be3a53762315","system_id":"levelo_inurba_marseille","lat":43.31539,"lon":5.38042,"is_reserved":false,"is_disabled":false,"rental_uris":{"android":"levelo://app?vid=80ef3a4a-1855-4d8a-9848-be3a53762315","ios":"levelo://app?vid=80ef3a4a-1855-4d8a-9848-be3a53762315"},"vehicle_type_id":"4","last_reported":1784487027,"current_range_meters":25600,"station_id":"ce4bhsp2rcd13ifvqi50","pricing_plan_id":"cebpf4jnsgd1na2vs0mg"},{"bike_id":"bedff844-9130-492b-a7c3-37d670bbb559","system_id":"levelo_inurba_marseille","lat":43.32367,"lon":5.36755,"is_reserved":false,"is_disabled":false,"rental_uris":{"android":"levelo://app?vid=bedff844-9130-492b-a7c3-37d670bbb559","ios":"levelo://app?vid=bedff844-9130-492b-a7c3-37d670bbb559"},"vehicle_type_id":"4","last_reported":1784487027,"current_range_meters":38400,"station_id":"ce4bhsh2rcd13ifvqi2g","pricing_plan_id":"cebpf4jnsgd1na2vs0mg"},{"bike_id":"9ce1c7ee-e3ec-4f19-9fd3-cbc8c6325b36","system_id":"levelo_inurba_marseille","lat":43.27552,"lon":5.38436,"is_reserved":false,"is_disabled":false,"rental_uris":{"android":"levelo://app?vid=9ce1c7ee-e3ec-4f19-9fd3-cbc8c6325b36","ios":"levelo://app?vid=9ce1c7ee-e3ec-4f19-9fd3-cbc8c6325b36"},"vehicle_type_id":"4","last_reported":1784487027,"current_range_meters":9600,"station_id":"ce4bhh92rcd13ifvqfi0","pricing_plan_id":"cebpf4jnsgd1na2vs0mg"},{"bike_id":"be2c6eaf-5633-42b8-9fa5-8b8442fbbf7b","system_id":"levelo_inurba_marseille","lat":43.24631,"lon":5.431294,"is_reserved":false,"is_disabled":false,"rental_uris":{"android":"levelo://app?vid=be2c6eaf-5633-42b8-9fa5-8b8442fbbf7b","ios":"levelo://app?vid=be2c6eaf-5633-42b8-9fa5-8b8442fbbf7b"},"vehicle_type_id":"4","last_reported":1784487027,"current_range_meters":28000,"station_id":"st_d2m6c4gdas8pm72e190g","pricing_plan_id":"cebpf4jnsgd1na2vs0mg"},{"bike_id":"32ed2206-662d-4dc8-8aec-718d76ff8fe4","system_id":"levelo_inurba_marseille","lat":43.27993,"lon":5.41667,"is_reserved":false,"is_disabled":false,"rental_uris":{"android":"levelo://app?vid=32ed2206-662d-4dc8-8aec-718d76ff8fe4","ios":"levelo://app?vid=32ed2206-662d-4dc8-8aec-718d76ff8fe4"},"vehicle_type_id":"4","last_reported":1784487027,"current_range_meters":36000,"station_id":"ce4bho12rcd13ifvqh1g","pricing_plan_id":"cebpf4jnsgd1na2vs0mg"},{"bike_id":"fd44db52-2137-49f3-8d2b-a4d3bd7fb764","system_id":"levelo_inurba_marseille","lat":43.31523,"lon":5.37316,"is_reserved":false,"is_disabled":false,"rental_uris":{"android":"levelo://app?vid=fd44db52-2137-49f3-8d2b-a4d3bd7fb764","ios":"levelo://app?vid=fd44db52-2137-49f3-8d2b-a4d3bd7fb764"},"vehicle_type_id":"4","last_reported":1784487027,"current_range_meters":18000,"station_id":"ce4bgt12rcd13ifvqcd0","pricing_plan_id":"cebpf4jnsgd1na2vs0mg"},{"bike_id":"0ecdb674-3c3c-46be-9a7b-0387e7579f88","system_id":"levelo_inurba_marseille","lat":43.24477,"lon":5.42522,"is_reserved":false,"is_disabled":false,"rental_uris":{"android":"levelo://app?vid=0ecdb674-3c3c-46be-9a7b-0387e7579f88","ios":"levelo://app?vid=0ecdb674-3c3c-46be-9a7b-0387e7579f88"},"vehicle_type_id":"4","last_reported":1784487027,"current_range_meters":28400,"station_id":"st_d4a3vfp97mjs738cd8kg","pricing_plan_id":"cebpf4jnsgd1na2vs0mg"},{"bike_id":"7078b637-2550-4523-aae8-59fff3728713","system_id":"levelo_inurba_marseille","lat":43.29263,"lon":5.37626,"is_reserved":false,"is_disabled":false,"rental_uris":{"android":"levelo://app?vid=7078b637-2550-4523-aae8-59fff3728713","ios":"levelo://app?vid=7078b637-2550-4523-aae8-59fff3728713"},"vehicle_type_id":"4","last_reported":1784487027,"current_range_meters":4400,"station_id":"ce4bgi12rcd13ifvqb80","pricing_plan_id":"cebpf4jnsgd1na2vs0mg"},{"bike_id":"129ac767-2638-4c48-b9ca-8da71d89525b","system_id":"levelo_inurba_marseille","lat":43.23894,"lon":5.37459,"is_reserved":false,"is_disabled":false,"rental_uris":{"android":"levelo://app?vid=129ac767-2638-4c48-b9ca-8da71d89525b","ios":"levelo://app?vid=129ac767-2638-4c48-b9ca-8da71d89525b"},"vehicle_type_id":"4","last_reported":1784487027,"current_range_meters":27600,"station_id":"st_d6sm7csbq4hs73f8fpjg","pricing_plan_id":"cebpf4jnsgd1na2vs0mg"},{"bike_id":"e2c24341-435c-46e7-90d7-f3ef4b8cde06","system_id":"levelo_inurba_marseille","lat":43.29257,"lon":5.37208,"is_reserved":false,"is_disabled":false,"rental_uris":{"android":"levelo://app?vid=e2c24341-435c-46e7-90d7-f3ef4b8cde06","ios":"levelo://app?vid=e2c24341-435c-46e7-90d7-f3ef4b8cde06"},"vehicle_type_id":"4","last_reported":1784487027,"current_range_meters":26000,"station_id":"","pricing_plan_id":"cebpf4jnsgd1na2vs0mg"},{"bike_id":"f909fdac-afd1-474b-ac5e-781e31bab381","system_id":"levelo_inurba_marseille","lat":43.2696,"lon":5.38627,"is_reserved":false,"is_disabled":false,"rental_uris":{"android":"levelo://app?vid=f909fdac-afd1-474b-ac5e-781e31bab381","ios":"levelo://app?vid=f909fdac-afd1-474b-ac5e-781e31bab381"},"vehicle_type_id":"4","last_reported":1784487027,"current_range_meters":15200,"station_id":"ce4bhh92rcd13ifvqfh0","pricing_plan_id":"cebpf4jnsgd1na2vs0mg"},{"bike_id":"fcb4a754-16f7-497a-aaa3-491452390f62","system_id":"levelo_inurba_marseille","lat":43.28938,"lon":5.36644,"is_reserved":false,"is_disabled":false,"rental_uris":{"android":"levelo://app?vid=fcb4a754-16f7-497a-aaa3-491452390f62","ios":"levelo://app?vid=fcb4a754-16f7-497a-aaa3-491452390f62"},"vehicle_type_id":"4","last_reported":1784487027,"current_range_meters":36800,"station_id":"ce4bhap2rcd13ifvqek0","pricing_plan_id":"cebpf4jnsgd1na2vs0mg"},{"bike_id":"ae4de62c-7f6d-47d3-bf8f-025f88859098","system_id":"levelo_inurba_marseille","lat":43.29302,"lon":5.37154,"is_reserved":false,"is_disabled":false,"rental_uris":{"android":"levelo://app?vid=ae4de62c-7f6d-47d3-bf8f-025f88859098","ios":"levelo://app?vid=ae4de62c-7f6d-47d3-bf8f-025f88859098"},"vehicle_type_id":"4","last_reported":1784487027,"current_range_meters":14800,"station_id":"ce4bgh92rcd13ifvqb40","pricing_plan_id":"cebpf4jnsgd1na2vs0mg"},{"bike_id":"ef58ecff-3f6f-421a-8bcb-1c3563ad8889","system_id":"levelo_inurba_marseille","lat":43.24977,"lon":5.3898,"is_reserved":false,"is_disabled":false,"rental_uris":{"android":"levelo://app?vid=ef58ecff-3f6f-421a-8bcb-1c3563ad8889","ios":"levelo://app?vid=ef58ecff-3f6f-421a-8bcb-1c3563ad8889"},"vehicle_type_id":"4","last_reported":1784487027,"current_range_meters":6800,"station_id":"","pricing_plan_id":"cebpf4jnsgd1na2vs0mg"},{"bike_id":"ef6880d0-6944-4f6a-8f40-6662368b8f75","system_id":"levelo_inurba_marseille","lat":43.31718,"lon":5.43683,"is_reserved":false,"is_disabled":false,"rental_uris":{"android":"levelo://app?vid=ef6880d0-6944-4f6a-8f40-6662368b8f75","ios":"levelo://app?vid=ef6880d0-6944-4f6a-8f40-6662368b8f75"},"vehicle_type_id":"4","last_reported":1784487027,"current_range_meters":39200,"station_id":"ce4bhp92rcd13ifvqhcg","pricing_plan_id":"cebpf4jnsgd1na2vs0mg"},{"bike_id":"a9980c70-8710-4935-a17b-03702e6ebda9","system_id":"levelo_inurba_marseille","lat":43.32532,"lon":5.41441,"is_reserved":false,"is_disabled":false,"rental_uris":{"android":"levelo://app?vid=a9980c70-8710-4935-a17b-03702e6ebda9","ios":"levelo://app?vid=a9980c70-8710-4935-a17b-03702e6ebda9"},"vehicle_type_id":"4","last_reported":1784487027,"current_range_meters":37600,"station_id":"ce4bhq12rcd13ifvqhhg","pricing_plan_id":"cebpf4jnsgd1na2vs0mg"},{"bike_id":"6e287f0a-f9e7-4f51-acaa-98916312b661","system_id":"levelo_inurba_marseille","lat":43.2989,"lon":5.38906,"is_reserved":false,"is_disabled":false,"rental_uris":{"android":"levelo://app?vid=6e287f0a-f9e7-4f51-acaa-98916312b661","ios":"levelo://app?vid=6e287f0a-f9e7-4f51-acaa-98916312b661"},"vehicle_type_id":"4","last_reported":1784487027,"current_range_meters":23200,"station_id":"ce4bh392rcd13ifvqdl0","pricing_plan_id":"cebpf4jnsgd1na2vs0mg"},{"bike_id":"d183c213-4177-4bf2-b9e0-24872be8a9c8","system_id":"levelo_inurba_marseille","lat":43.28493,"lon":5.48367,"is_reserved":false,"is_disabled":false,"rental_uris":{"android":"levelo://app?vid=d183c213-4177-4bf2-b9e0-24872be8a9c8","ios":"levelo://app?vid=d183c213-4177-4bf2-b9e0-24872be8a9c8"},"vehicle_type_id":"4","last_reported":1784487027,"current_range_meters":12800,"station_id":"st_d3svhcjqgbts73a3dn0g","pricing_plan_id":"cebpf4jnsgd1na2vs0mg"},{"bike_id":"2d6aad27-edd8-40d8-9909-7631942c4892","system_id":"levelo_inurba_marseille","lat":43.31997,"lon":5.3814,"is_reserved":false,"is_disabled":false,"rental_uris":{"android":"levelo://app?vid=2d6aad27-edd8-40d8-9909-7631942c4892","ios":"levelo://app?vid=2d6aad27-edd8-40d8-9909-7631942c4892"},"vehicle_type_id":"4","last_reported":1784487027,"current_range_meters":28400,"station_id":"ce4bhr12rcd13ifvqhpg","pricing_plan_id":"cebpf4jnsgd1na2vs0mg"},{"bike_id":"0ae50d00-a50e-40fa-b72f-2a46428c7751","system_id":"levelo_inurba_marseille","lat":43.295289,"lon":5.385353,"is_reserved":false,"is_disabled":false,"rental_uris":{"android":"levelo://app?vid=0ae50d00-a50e-40fa-b72f-2a46428c7751","ios":"levelo://app?vid=0ae50d00-a50e-40fa-b72f-2a46428c7751"},"vehicle_type_id":"4","last_reported":1784487027,"current_range_meters":36400,"station_id":"ce4bgih2rcd13ifvqba0","pricing_plan_id":"cebpf4jnsgd1na2vs0mg"},{"bike_id":"5b140ca2-b769-446c-acb6-6062f258100b","system_id":"levelo_inurba_marseille","lat":43.24354,"lon":5.37079,"is_reserved":false,"is_disabled":false,"rental_uris":{"android":"levelo://app?vid=5b140ca2-b769-446c-acb6-6062f258100b","ios":"levelo://app?vid=5b140ca2-b769-446c-acb6-6062f258100b"},"vehicle_type_id":"4","last_reported":1784487027,"current_range_meters":39200,"station_id":"ce4bhhh2rcd13ifvqfk0","pricing_plan_id":"cebpf4jnsgd1na2vs0mg"},{"bike_id":"17e4be99-494c-4c9f-8720-fc080f3b6be4","system_id":"levelo_inurba_marseille","lat":43.29843,"lon":5.3759,"is_reserved":false,"is_disabled":false,"rental_uris":{"android":"levelo://app?vid=17e4be99-494c-4c9f-8720-fc080f3b6be4","ios":"levelo://app?vid=17e4be99-494c-4c9f-8720-fc080f3b6be4"},"vehicle_type_id":"4","last_reported":1784487027,"current_range_meters":3200,"station_id":"","pricing_plan_id":"cebpf4jnsgd1na2vs0mg"},{"bike_id":"4d6e65c8-9b83-4404-b309-20035367fccf","system_id":"levelo_inurba_marseille","lat":43.28418,"lon":5.37508,"is_reserved":false,"is_disabled":true,"rental_uris":{"android":"levelo://app?vid=4d6e65c8-9b83-4404-b309-20035367fccf","ios":"levelo://app?vid=4d6e65c8-9b83-4404-b309-20035367fccf"},"vehicle_type_id":"4","last_reported":1784487027,"current_range_meters":0,"station_id":"ce4bh412rcd13ifvqds0","pricing_plan_id":"cebpf4jnsgd1na2vs0mg"},{"bike_id":"f6127cbe-1b0d-4715-ae1e-b7d0fb36db4e","system_id":"levelo_inurba_marseille","lat":43.284105,"lon":5.349779,"is_reserved":false,"is_disabled":true,"rental_uris":{"android":"levelo://app?vid=f6127cbe-1b0d-4715-ae1e-b7d0fb36db4e","ios":"levelo://app?vid=f6127cbe-1b0d-4715-ae1e-b7d0fb36db4e"},"vehicle_type_id":"4","last_reported":1784487027,"current_range_meters":400,"station_id":"ce4bhbh2rcd13ifvqepg","pricing_plan_id":"cebpf4jnsgd1na2vs0mg"},{"bike_id":"19332984-a4af-4893-9a3d-2c03e4769c2a","system_id":"levelo_inurba_marseille","lat":43.28458,"lon":5.35895,"is_reserved":false,"is_disabled":false,"rental_uris":{"android":"levelo://app?vid=19332984-a4af-4893-9a3d-2c03e4769c2a","ios":"levelo://app?vid=19332984-a4af-4893-9a3d-2c03e4769c2a"},"vehicle_type_id":"4","last_reported":1784487027,"current_range_meters":16400,"station_id":"ce4bhah2rcd13ifvqei0","pricing_plan_id":"cebpf4jnsgd1na2vs0mg"},{"bike_id":"63c1781a-36c2-4a4a-9f14-acd6b65eaf1b","system_id":"levelo_inurba_marseille","lat":43.2953,"lon":5.38535,"is_reserved":false,"is_disabled":false,"rental_uris":{"android":"levelo://app?vid=63c1781a-36c2-4a4a-9f14-acd6b65eaf1b","ios":"levelo://app?vid=63c1781a-36c2-4a4a-9f14-acd6b65eaf1b"},"vehicle_type_id":"4","last_reported":1784487027,"current_range_meters":40000,"station_id":"ce4bgih2rcd13ifvqba0","pricing_plan_id":"cebpf4jnsgd1na2vs0mg"},{"bike_id":"92f9377a-62ba-495b-8de9-1750140cdb94","system_id":"levelo_inurba_marseille","lat":43.2963,"lon":5.37155,"is_reserved":false,"is_disabled":true,"rental_uris":{"android":"levelo://app?vid=92f9377a-62ba-495b-8de9-1750140cdb94","ios":"levelo://app?vid=92f9377a-62ba-495b-8de9-1750140cdb94"},"vehicle_type_id":"4","last_reported":1784487027,"current_range_meters":26800,"station_id":"","pricing_plan_id":"cebpf4jnsgd1na2vs0mg"},{"bike_id":"36fe0f4a-2984-4ec5-b6ca-df8f64d9102f","system_id":"levelo_inurba_marseille","lat":43.27169,"lon":5.40994,"is_reserved":false,"is_disabled":true,"rental_uris":{"android":"levelo://app?vid=36fe0f4a-2984-4ec5-b6ca-df8f64d9102f","ios":"levelo://app?vid=36fe0f4a-2984-4ec5-b6ca-df8f64d9102f"},"vehicle_type_id":"4","last_reported":1784487027,"current_range_meters":28400,"station_id":"ce4bhl12rcd13ifvqgf0","pricing_plan_id":"cebpf4jnsgd1na2vs0mg"},{"bike_id":"56936ed9-ced3-4a44-b1c3-a594e07664c9","system_id":"levelo_inurba_marseille","lat":43.2902,"lon":5.3814,"is_reserved":false,"is_disabled":false,"rental_uris":{"android":"levelo://app?vid=56936ed9-ced3-4a44-b1c3-a594e07664c9","ios":"levelo://app?vid=56936ed9-ced3-4a44-b1c3-a594e07664c9"},"vehicle_type_id":"4","last_reported":1784487027,"current_range_meters":9200,"station_id":"ce4bh4p2rcd13ifvqe1g","pricing_plan_id":"cebpf4jnsgd1na2vs0mg"},{"bike_id":"c2e7fe27-d2b0-440e-b62d-ead50feed951","system_id":"levelo_inurba_marseille","lat":43.29491,"lon":5.43309,"is_reserved":false,"is_disabled":false,"rental_uris":{"android":"levelo://app?vid=c2e7fe27-d2b0-440e-b62d-ead50feed951","ios":"levelo://app?vid=c2e7fe27-d2b0-440e-b62d-ead50feed951"},"vehicle_type_id":"4","last_reported":1784487027,"current_range_meters":38800,"station_id":"st_d3j5ugp08ojc73fj9d10","pricing_plan_id":"cebpf4jnsgd1na2vs0mg"},{"bike_id":"5b8c0c23-a01a-4662-a9be-35d868455eb2","system_id":"levelo_inurba_marseille","lat":43.2926,"lon":5.38455,"is_reserved":false,"is_disabled":false,"rental_uris":{"android":"levelo://app?vid=5b8c0c23-a01a-4662-a9be-35d868455eb2","ios":"levelo://app?vid=5b8c0c23-a01a-4662-a9be-35d868455eb2"},"vehicle_type_id":"4","last_reported":1784487027,"current_range_meters":39200,"station_id":"ce4bh692rcd13ifvqea0","pricing_plan_id":"cebpf4jnsgd1na2vs0mg"},{"bike_id":"53c0bb62-b897-4702-94bc-45a4c2af197c","system_id":"levelo_inurba_marseille","lat":43.29045,"lon":5.3796,"is_reserved":false,"is_disabled":false,"rental_uris":{"android":"levelo://app?vid=53c0bb62-b897-4702-94bc-45a4c2af197c","ios":"levelo://app?vid=53c0bb62-b897-4702-94bc-45a4c2af197c"},"vehicle_type_id":"4","last_reported":1784487027,"current_range_meters":28400,"station_id":"","pricing_plan_id":"cebpf4jnsgd1na2vs0mg"},{"bike_id":"2623e023-e953-40ac-8068-15d2169ca99d","system_id":"levelo_inurba_marseille","lat":43.28694,"lon":5.46689,"is_reserved":false,"is_disabled":false,"rental_uris":{"android":"levelo://app?vid=2623e023-e953-40ac-8068-15d2169ca99d","ios":"levelo://app?vid=2623e023-e953-40ac-8068-15d2169ca99d"},"vehicle_type_id":"4","last_reported":1784487027,"current_range_meters":37600,"station_id":"st_d6tc3vkotcvc738tfjhg","pricing_plan_id":"cebpf4jnsgd1na2vs0mg"},{"bike_id":"1fabaaec-ee49-484e-a010-c578e8dd69a9","system_id":"levelo_inurba_marseille","lat":43.31237,"lon":5.36843,"is_reserved":false,"is_disabled":false,"rental_uris":{"android":"levelo://app?vid=1fabaaec-ee49-484e-a010-c578e8dd69a9","ios":"levelo://app?vid=1fabaaec-ee49-484e-a010-c578e8dd69a9"},"vehicle_type_id":"4","last_reported":1784487027,"current_range_meters":9200,"station_id":"ce4bgl92rcd13ifvqbq0","pricing_plan_id":"cebpf4jnsgd1na2vs0mg"},{"bike_id":"5b260d90-01ba-4394-a026-9653e406c36e","system_id":"levelo_inurba_marseille","lat":43.30889,"lon":5.37206,"is_reserved":false,"is_disabled":true,"rental_uris":{"android":"levelo://app?vid=5b260d90-01ba-4394-a026-9653e406c36e","ios":"levelo://app?vid=5b260d90-01ba-4394-a026-9653e406c36e"},"vehicle_type_id":"4","last_reported":1784487027,"current_range_meters":20000,"station_id":"ce4bguh2rcd13ifvqckg","pricing_plan_id":"cebpf4jnsgd1na2vs0mg"},{"bike_id":"90fd9e21-a9e5-4ba9-ba28-3da8875c3ef6","system_id":"levelo_inurba_marseille","lat":43.27891,"lon":5.35538,"is_reserved":false,"is_disabled":false,"rental_uris":{"android":"levelo://app?vid=90fd9e21-a9e5-4ba9-ba28-3da8875c3ef6","ios":"levelo://app?vid=90fd9e21-a9e5-4ba9-ba28-3da8875c3ef6"},"vehicle_type_id":"4","last_reported":1784487027,"current_range_meters":27600,"station_id":"","pricing_plan_id":"cebpf4jnsgd1na2vs0mg"},{"bike_id":"d8351db5-91ae-4723-9606-f2f30f2359e3","system_id":"levelo_inurba_marseille","lat":43.293,"lon":5.40191,"is_reserved":false,"is_disabled":false,"rental_uris":{"android":"levelo://app?vid=d8351db5-91ae-4723-9606-f2f30f2359e3","ios":"levelo://app?vid=d8351db5-91ae-4723-9606-f2f30f2359e3"},"vehicle_type_id":"4","last_reported":1784487027,"current_range_meters":4400,"station_id":"","pricing_plan_id":"cebpf4jnsgd1na2vs0mg"},{"bike_id":"1aba4b2e-71a6-4e82-8e9d-0b35db6f35c2","system_id":"levelo_inurba_marseille","lat":43.24156,"lon":5.36402,"is_reserved":false,"is_disabled":false,"rental_uris":{"android":"levelo://app?vid=1aba4b2e-71a6-4e82-8e9d-0b35db6f35c2","ios":"levelo://app?vid=1aba4b2e-71a6-4e82-8e9d-0b35db6f35c2"},"vehicle_type_id":"4","last_reported":1784487027,"current_range_meters":39200,"station_id":"cpo36qri1sfpv3e86is0","pricing_plan_id":"cebpf4jnsgd1na2vs0mg"},{"bike_id":"863d0357-9100-4091-8be6-61d932e4e898","system_id":"levelo_inurba_marseille","lat":43.33756,"lon":5.37458,"is_reserved":false,"is_disabled":false,"rental_uris":{"android":"levelo://app?vid=863d0357-9100-4091-8be6-61d932e4e898","ios":"levelo://app?vid=863d0357-9100-4091-8be6-61d932e4e898"},"vehicle_type_id":"4","last_reported":1784487027,"current_range_meters":34800,"station_id":"","pricing_plan_id":"cebpf4jnsgd1na2vs0mg"},{"bike_id":"0d249168-c1b9-4fc1-a9ca-ee81dcabf286","system_id":"levelo_inurba_marseille","lat":43.30837,"lon":5.40417,"is_reserved":false,"is_disabled":false,"rental_uris":{"android":"levelo://app?vid=0d249168-c1b9-4fc1-a9ca-ee81dcabf286","ios":"levelo://app?vid=0d249168-c1b9-4fc1-a9ca-ee81dcabf286"},"vehicle_type_id":"4","last_reported":1784487027,"current_range_meters":9200,"station_id":"","pricing_plan_id":"cebpf4jnsgd1na2vs0mg"},{"bike_id":"479f6d73-289e-4a64-9a92-081a85c0df32","system_id":"levelo_inurba_marseille","lat":43.25087,"lon":5.40333,"is_reserved":false,"is_disabled":false,"rental_uris":{"android":"levelo://app?vid=479f6d73-289e-4a64-9a92-081a85c0df32","ios":"levelo://app?vid=479f6d73-289e-4a64-9a92-081a85c0df32"},"vehicle_type_id":"4","last_reported":1784487027,"current_range_meters":39200,"station_id":"ce4bhlh2rcd13ifvqgig","pricing_plan_id":"cebpf4jnsgd1na2vs0mg"},{"bike_id":"e81d39c5-de88-4670-b269-6cb2da305080","system_id":"levelo_inurba_marseille","lat":43.2816,"lon":5.42632,"is_reserved":false,"is_disabled":false,"rental_uris":{"android":"levelo://app?vid=e81d39c5-de88-4670-b269-6cb2da305080","ios":"levelo://app?vid=e81d39c5-de88-4670-b269-6cb2da305080"},"vehicle_type_id":"4","last_reported":1784487027,"current_range_meters":38800,"station_id":"ce4bhnh2rcd13ifvqgug","pricing_plan_id":"cebpf4jnsgd1na2vs0mg"},{"bike_id":"e15b712c-8cdd-47f2-8a02-fef2aa639098","system_id":"levelo_inurba_marseille","lat":43.21198,"lon":5.35059,"is_reserved":false,"is_disabled":false,"rental_uris":{"android":"levelo://app?vid=e15b712c-8cdd-47f2-8a02-fef2aa639098","ios":"levelo://app?vid=e15b712c-8cdd-47f2-8a02-fef2aa639098"},"vehicle_type_id":"4","last_reported":1784487027,"current_range_meters":6800,"station_id":"st_cvj6sg6p6f1abm77japg","pricing_plan_id":"cebpf4jnsgd1na2vs0mg"},{"bike_id":"8ba7f2d6-52d3-4c56-b19a-19a142e62779","system_id":"levelo_inurba_marseille","lat":43.2408,"lon":5.37752,"is_reserved":false,"is_disabled":false,"rental_uris":{"android":"levelo://app?vid=8ba7f2d6-52d3-4c56-b19a-19a142e62779","ios":"levelo://app?vid=8ba7f2d6-52d3-4c56-b19a-19a142e62779"},"vehicle_type_id":"4","last_reported":1784487027,"current_range_meters":9200,"station_id":"ce4bhnp2rcd13ifvqgvg","pricing_plan_id":"cebpf4jnsgd1na2vs0mg"},{"bike_id":"ffdafddb-edce-478b-b283-0a15f46a5cac","system_id":"levelo_inurba_marseille","lat":43.25855,"lon":5.39909,"is_reserved":false,"is_disabled":false,"rental_uris":{"android":"levelo://app?vid=ffdafddb-edce-478b-b283-0a15f46a5cac","ios":"levelo://app?vid=ffdafddb-edce-478b-b283-0a15f46a5cac"},"vehicle_type_id":"4","last_reported":1784487027,"current_range_meters":36000,"station_id":"ce4bhl92rcd13ifvqghg","pricing_plan_id":"cebpf4jnsgd1na2vs0mg"},{"bike_id":"78d74c11-c7d0-4587-8612-d4d55bb83eaa","system_id":"levelo_inurba_marseille","lat":43.27954,"lon":5.41039,"is_reserved":false,"is_disabled":false,"rental_uris":{"android":"levelo://app?vid=78d74c11-c7d0-4587-8612-d4d55bb83eaa","ios":"levelo://app?vid=78d74c11-c7d0-4587-8612-d4d55bb83eaa"},"vehicle_type_id":"4","last_reported":1784487027,"current_range_meters":8000,"station_id":"ce4bhnp2rcd13ifvqh0g","pricing_plan_id":"cebpf4jnsgd1na2vs0mg"},{"bike_id":"7d17ec02-c515-47da-8342-7d7f362cd29b","system_id":"levelo_inurba_marseille","lat":43.25552,"lon":5.41191,"is_reserved":false,"is_disabled":false,"rental_uris":{"android":"levelo://app?vid=7d17ec02-c515-47da-8342-7d7f362cd29b","ios":"levelo://app?vid=7d17ec02-c515-47da-8342-7d7f362cd29b"},"vehicle_type_id":"4","last_reported":1784487027,"current_range_meters":30800,"station_id":"","pricing_plan_id":"cebpf4jnsgd1na2vs0mg"},{"bike_id":"6a73d93c-6339-46f5-8ebc-d03b3464630c","system_id":"levelo_inurba_marseille","lat":43.26344,"lon":5.4107,"is_reserved":false,"is_disabled":false,"rental_uris":{"android":"levelo://app?vid=6a73d93c-6339-46f5-8ebc-d03b3464630c","ios":"levelo://app?vid=6a73d93c-6339-46f5-8ebc-d03b3464630c"},"vehicle_type_id":"4","last_reported":1784487027,"current_range_meters":31200,"station_id":"st_d4e5ca6na9uc73bfl5fg","pricing_plan_id":"cebpf4jnsgd1na2vs0mg"},{"bike_id":"f68023ce-5f61-45e8-beb8-d3b87ec1a04a","system_id":"levelo_inurba_marseille","lat":43.27997,"lon":5.40008,"is_reserved":false,"is_disabled":true,"rental_uris":{"android":"levelo://app?vid=f68023ce-5f61-45e8-beb8-d3b87ec1a04a","ios":"levelo://app?vid=f68023ce-5f61-45e8-beb8-d3b87ec1a04a"},"vehicle_type_id":"4","last_reported":1784487027,"current_range_meters":35200,"station_id":"ce4bho92rcd13ifvqh4g","pricing_plan_id":"cebpf4jnsgd1na2vs0mg"},{"bike_id":"505c470b-ac37-49d3-b636-d6566f7a1192","system_id":"levelo_inurba_marseille","lat":43.24794,"lon":5.37464,"is_reserved":false,"is_disabled":false,"rental_uris":{"android":"levelo://app?vid=505c470b-ac37-49d3-b636-d6566f7a1192","ios":"levelo://app?vid=505c470b-ac37-49d3-b636-d6566f7a1192"},"vehicle_type_id":"4","last_reported":1784487027,"current_range_meters":27600,"station_id":"ce4bhgh2rcd13ifvqfb0","pricing_plan_id":"cebpf4jnsgd1na2vs0mg"},{"bike_id":"b240b1ea-bd5e-4bb9-9564-688270a9c524","system_id":"levelo_inurba_marseille","lat":43.29263,"lon":5.3763,"is_reserved":false,"is_disabled":false,"rental_uris":{"android":"levelo://app?vid=b240b1ea-bd5e-4bb9-9564-688270a9c524","ios":"levelo://app?vid=b240b1ea-bd5e-4bb9-9564-688270a9c524"},"vehicle_type_id":"4","last_reported":1784487027,"current_range_meters":36800,"station_id":"ce4bgi12rcd13ifvqb80","pricing_plan_id":"cebpf4jnsgd1na2vs0mg"},{"bike_id":"cf903313-73c0-4e88-bf9f-a4e6394c71eb","system_id":"levelo_inurba_marseille","lat":43.28598,"lon":5.39893,"is_reserved":false,"is_disabled":false,"rental_uris":{"android":"levelo://app?vid=cf903313-73c0-4e88-bf9f-a4e6394c71eb","ios":"levelo://app?vid=cf903313-73c0-4e88-bf9f-a4e6394c71eb"},"vehicle_type_id":"4","last_reported":1784487027,"current_range_meters":8400,"station_id":"st_d4a7ka997mjs738ck50g","pricing_plan_id":"cebpf4jnsgd1na2vs0mg"},{"bike_id":"5c3ecaf7-bf6b-492a-bf87-f52370387155","system_id":"levelo_inurba_marseille","lat":43.250671,"lon":5.395216,"is_reserved":false,"is_disabled":false,"rental_uris":{"android":"levelo://app?vid=5c3ecaf7-bf6b-492a-bf87-f52370387155","ios":"levelo://app?vid=5c3ecaf7-bf6b-492a-bf87-f52370387155"},"vehicle_type_id":"4","last_reported":1784487027,"current_range_meters":6400,"station_id":"ce4bhm12rcd13ifvqgkg","pricing_plan_id":"cebpf4jnsgd1na2vs0mg"},{"bike_id":"834663dc-b688-4a9c-9405-405785a26871","system_id":"levelo_inurba_marseille","lat":43.306,"lon":5.37225,"is_reserved":false,"is_disabled":false,"rental_uris":{"android":"levelo://app?vid=834663dc-b688-4a9c-9405-405785a26871","ios":"levelo://app?vid=834663dc-b688-4a9c-9405-405785a26871"},"vehicle_type_id":"4","last_reported":1784487027,"current_range_meters":20800,"station_id":"ce4bgqh2rcd13ifvqc4g","pricing_plan_id":"cebpf4jnsgd1na2vs0mg"},{"bike_id":"22951844-b371-4c75-96e5-5211f0620e5f","system_id":"levelo_inurba_marseille","lat":43.29708,"lon":5.36618,"is_reserved":false,"is_disabled":false,"rental_uris":{"android":"levelo://app?vid=22951844-b371-4c75-96e5-5211f0620e5f","ios":"levelo://app?vid=22951844-b371-4c75-96e5-5211f0620e5f"},"vehicle_type_id":"4","last_reported":1784487027,"current_range_meters":25200,"station_id":"ce4bgn12rcd13ifvqbt0","pricing_plan_id":"cebpf4jnsgd1na2vs0mg"},{"bike_id":"5b8151a9-0906-420e-89ed-354d624d1e25","system_id":"levelo_inurba_marseille","lat":43.29022,"lon":5.38641,"is_reserved":false,"is_disabled":false,"rental_uris":{"android":"levelo://app?vid=5b8151a9-0906-420e-89ed-354d624d1e25","ios":"levelo://app?vid=5b8151a9-0906-420e-89ed-354d624d1e25"},"vehicle_type_id":"4","last_reported":1784487027,"current_range_meters":31200,"station_id":"ce4bh4p2rcd13ifvqe0g","pricing_plan_id":"cebpf4jnsgd1na2vs0mg"},{"bike_id":"7e62a1e7-e43e-4c6d-97fe-eb42228edf6d","system_id":"levelo_inurba_marseille","lat":43.26547,"lon":5.39384,"is_reserved":false,"is_disabled":false,"rental_uris":{"android":"levelo://app?vid=7e62a1e7-e43e-4c6d-97fe-eb42228edf6d","ios":"levelo://app?vid=7e62a1e7-e43e-4c6d-97fe-eb42228edf6d"},"vehicle_type_id":"4","last_reported":1784487027,"current_range_meters":7200,"station_id":"","pricing_plan_id":"cebpf4jnsgd1na2vs0mg"},{"bike_id":"79d4a451-554e-4cf1-a64c-a19915fbd5fe","system_id":"levelo_inurba_marseille","lat":43.23817,"lon":5.36634,"is_reserved":false,"is_disabled":false,"rental_uris":{"android":"levelo://app?vid=79d4a451-554e-4cf1-a64c-a19915fbd5fe","ios":"levelo://app?vid=79d4a451-554e-4cf1-a64c-a19915fbd5fe"},"vehicle_type_id":"4","last_reported":1784487027,"current_range_meters":24800,"station_id":"st_d3nk18o9ro0c73en2l3g","pricing_plan_id":"cebpf4jnsgd1na2vs0mg"},{"bike_id":"7f598db7-7bdf-43ca-940a-3e1072b1241f","system_id":"levelo_inurba_marseille","lat":43.29221,"lon":5.36047,"is_reserved":false,"is_disabled":false,"rental_uris":{"android":"levelo://app?vid=7f598db7-7bdf-43ca-940a-3e1072b1241f","ios":"levelo://app?vid=7f598db7-7bdf-43ca-940a-3e1072b1241f"},"vehicle_type_id":"4","last_reported":1784487027,"current_range_meters":29600,"station_id":"","pricing_plan_id":"cebpf4jnsgd1na2vs0mg"},{"bike_id":"48b89ee5-e923-4e38-99f5-a3099d9d1497","system_id":"levelo_inurba_marseille","lat":43.28542,"lon":5.44088,"is_reserved":false,"is_disabled":false,"rental_uris":{"android":"levelo://app?vid=48b89ee5-e923-4e38-99f5-a3099d9d1497","ios":"levelo://app?vid=48b89ee5-e923-4e38-99f5-a3099d9d1497"},"vehicle_type_id":"4","last_reported":1784487027,"current_range_meters":39200,"station_id":"st_d3j3df2ikq2c7380ej80","pricing_plan_id":"cebpf4jnsgd1na2vs0mg"},{"bike_id":"24cd3240-e518-4e87-93f2-0d78c0915c9d","system_id":"levelo_inurba_marseille","lat":43.23053,"lon":5.35493,"is_reserved":false,"is_disabled":false,"rental_uris":{"android":"levelo://app?vid=24cd3240-e518-4e87-93f2-0d78c0915c9d","ios":"levelo://app?vid=24cd3240-e518-4e87-93f2-0d78c0915c9d"},"vehicle_type_id":"4","last_reported":1784487027,"current_range_meters":14000,"station_id":"cpo3342slgdg3j2ifvpg","pricing_plan_id":"cebpf4jnsgd1na2vs0mg"},{"bike_id":"81587832-75ed-49cd-91c3-f57f9b8cec45","system_id":"levelo_inurba_marseille","lat":43.29037,"lon":5.3592,"is_reserved":false,"is_disabled":true,"rental_uris":{"android":"levelo://app?vid=81587832-75ed-49cd-91c3-f57f9b8cec45","ios":"levelo://app?vid=81587832-75ed-49cd-91c3-f57f9b8cec45"},"vehicle_type_id":"4","last_reported":1784487027,"current_range_meters":39200,"station_id":"ce4bha92rcd13ifvqeg0","pricing_plan_id":"cebpf4jnsgd1na2vs0mg"},{"bike_id":"bf993a1d-6573-43fa-a3fa-2f3288b1a5c0","system_id":"levelo_inurba_marseille","lat":43.29258,"lon":5.38433,"is_reserved":false,"is_disabled":false,"rental_uris":{"android":"levelo://app?vid=bf993a1d-6573-43fa-a3fa-2f3288b1a5c0","ios":"levelo://app?vid=bf993a1d-6573-43fa-a3fa-2f3288b1a5c0"},"vehicle_type_id":"4","last_reported":1784487027,"current_range_meters":39200,"station_id":"ce4bh692rcd13ifvqea0","pricing_plan_id":"cebpf4jnsgd1na2vs0mg"},{"bike_id":"667cf3c4-5fbb-4a5c-b31d-badb56365dd1","system_id":"levelo_inurba_marseille","lat":43.30141,"lon":5.37407,"is_reserved":false,"is_disabled":false,"rental_uris":{"android":"levelo://app?vid=667cf3c4-5fbb-4a5c-b31d-badb56365dd1","ios":"levelo://app?vid=667cf3c4-5fbb-4a5c-b31d-badb56365dd1"},"vehicle_type_id":"4","last_reported":1784487027,"current_range_meters":11600,"station_id":"ce4bgs92rcd13ifvqcc0","pricing_plan_id":"cebpf4jnsgd1na2vs0mg"},{"bike_id":"974e121f-7e5c-48a8-9c06-b4f3048d4bf4","system_id":"levelo_inurba_marseille","lat":43.29891,"lon":5.38893,"is_reserved":false,"is_disabled":false,"rental_uris":{"android":"levelo://app?vid=974e121f-7e5c-48a8-9c06-b4f3048d4bf4","ios":"levelo://app?vid=974e121f-7e5c-48a8-9c06-b4f3048d4bf4"},"vehicle_type_id":"4","last_reported":1784487027,"current_range_meters":39200,"station_id":"ce4bh392rcd13ifvqdl0","pricing_plan_id":"cebpf4jnsgd1na2vs0mg"},{"bike_id":"3a0d4a93-cd14-4253-907e-beacdb1fa887","system_id":"levelo_inurba_marseille","lat":43.27606,"lon":5.35851,"is_reserved":false,"is_disabled":false,"rental_uris":{"android":"levelo://app?vid=3a0d4a93-cd14-4253-907e-beacdb1fa887","ios":"levelo://app?vid=3a0d4a93-cd14-4253-907e-beacdb1fa887"},"vehicle_type_id":"4","last_reported":1784487027,"current_range_meters":16800,"station_id":"","pricing_plan_id":"cebpf4jnsgd1na2vs0mg"},{"bike_id":"8af0df7e-cc30-46ec-af42-8ca23109e3a3","system_id":"levelo_inurba_marseille","lat":43.29498,"lon":5.43288,"is_reserved":false,"is_disabled":false,"rental_uris":{"android":"levelo://app?vid=8af0df7e-cc30-46ec-af42-8ca23109e3a3","ios":"levelo://app?vid=8af0df7e-cc30-46ec-af42-8ca23109e3a3"},"vehicle_type_id":"4","last_reported":1784487027,"current_range_meters":26800,"station_id":"st_d3j5ugp08ojc73fj9d10","pricing_plan_id":"cebpf4jnsgd1na2vs0mg"},{"bike_id":"e0b96ede-7743-41d8-824b-0110d15513b3","system_id":"levelo_inurba_marseille","lat":43.29239,"lon":5.36057,"is_reserved":false,"is_disabled":false,"rental_uris":{"android":"levelo://app?vid=e0b96ede-7743-41d8-824b-0110d15513b3","ios":"levelo://app?vid=e0b96ede-7743-41d8-824b-0110d15513b3"},"vehicle_type_id":"4","last_reported":1784487027,"current_range_meters":19600,"station_id":"","pricing_plan_id":"cebpf4jnsgd1na2vs0mg"},{"bike_id":"4d9f5c7c-1d45-4e77-b4db-4f67f3184e0a","system_id":"levelo_inurba_marseille","lat":43.295826,"lon":5.367494,"is_reserved":false,"is_disabled":true,"rental_uris":{"android":"levelo://app?vid=4d9f5c7c-1d45-4e77-b4db-4f67f3184e0a","ios":"levelo://app?vid=4d9f5c7c-1d45-4e77-b4db-4f67f3184e0a"},"vehicle_type_id":"4","last_reported":1784487027,"current_range_meters":14000,"station_id":"","pricing_plan_id":"cebpf4jnsgd1na2vs0mg"},{"bike_id":"41b9f830-c43f-422c-8925-b4ff2562a971","system_id":"levelo_inurba_marseille","lat":43.29254,"lon":5.38441,"is_reserved":false,"is_disabled":false,"rental_uris":{"android":"levelo://app?vid=41b9f830-c43f-422c-8925-b4ff2562a971","ios":"levelo://app?vid=41b9f830-c43f-422c-8925-b4ff2562a971"},"vehicle_type_id":"4","last_reported":1784487027,"current_range_meters":24000,"station_id":"ce4bh692rcd13ifvqea0","pricing_plan_id":"cebpf4jnsgd1na2vs0mg"},{"bike_id":"e18e61c0-7ccf-464d-9753-cfbdcb7c7074","system_id":"levelo_inurba_marseille","lat":43.27994,"lon":5.38696,"is_reserved":false,"is_disabled":false,"rental_uris":{"android":"levelo://app?vid=e18e61c0-7ccf-464d-9753-cfbdcb7c7074","ios":"levelo://app?vid=e18e61c0-7ccf-464d-9753-cfbdcb7c7074"},"vehicle_type_id":"4","last_reported":1784487027,"current_range_meters":32400,"station_id":"ce4bhg12rcd13ifvqf80","pricing_plan_id":"cebpf4jnsgd1na2vs0mg"},{"bike_id":"ea075dce-28cd-40df-a237-3bf9befc8a65","system_id":"levelo_inurba_marseille","lat":43.29263,"lon":5.38455,"is_reserved":false,"is_disabled":false,"rental_uris":{"android":"levelo://app?vid=ea075dce-28cd-40df-a237-3bf9befc8a65","ios":"levelo://app?vid=ea075dce-28cd-40df-a237-3bf9befc8a65"},"vehicle_type_id":"4","last_reported":1784487027,"current_range_meters":39200,"station_id":"ce4bh692rcd13ifvqea0","pricing_plan_id":"cebpf4jnsgd1na2vs0mg"},{"bike_id":"002f0f77-2509-42be-9859-c934948b6004","system_id":"levelo_inurba_marseille","lat":43.32353,"lon":5.36744,"is_reserved":false,"is_disabled":false,"rental_uris":{"android":"levelo://app?vid=002f0f77-2509-42be-9859-c934948b6004","ios":"levelo://app?vid=002f0f77-2509-42be-9859-c934948b6004"},"vehicle_type_id":"4","last_reported":1784487027,"current_range_meters":10800,"station_id":"ce4bhsh2rcd13ifvqi2g","pricing_plan_id":"cebpf4jnsgd1na2vs0mg"},{"bike_id":"1821d233-c579-4fe7-bdf3-a2e157eeb38a","system_id":"levelo_inurba_marseille","lat":43.29529,"lon":5.38534,"is_reserved":false,"is_disabled":false,"rental_uris":{"android":"levelo://app?vid=1821d233-c579-4fe7-bdf3-a2e157eeb38a","ios":"levelo://app?vid=1821d233-c579-4fe7-bdf3-a2e157eeb38a"},"vehicle_type_id":"4","last_reported":1784487027,"current_range_meters":35200,"station_id":"ce4bgih2rcd13ifvqba0","pricing_plan_id":"cebpf4jnsgd1na2vs0mg"},{"bike_id":"2f02e79b-05f8-40cd-832b-9b9b78fb1551","system_id":"levelo_inurba_marseille","lat":43.29259,"lon":5.38443,"is_reserved":false,"is_disabled":false,"rental_uris":{"android":"levelo://app?vid=2f02e79b-05f8-40cd-832b-9b9b78fb1551","ios":"levelo://app?vid=2f02e79b-05f8-40cd-832b-9b9b78fb1551"},"vehicle_type_id":"4","last_reported":1784487027,"current_range_meters":8800,"station_id":"ce4bh692rcd13ifvqea0","pricing_plan_id":"cebpf4jnsgd1na2vs0mg"},{"bike_id":"258c79c8-115b-43a8-9763-ee7a5585ee7a","system_id":"levelo_inurba_marseille","lat":43.23203,"lon":5.3555,"is_reserved":false,"is_disabled":false,"rental_uris":{"android":"levelo://app?vid=258c79c8-115b-43a8-9763-ee7a5585ee7a","ios":"levelo://app?vid=258c79c8-115b-43a8-9763-ee7a5585ee7a"},"vehicle_type_id":"4","last_reported":1784487027,"current_range_meters":33600,"station_id":"ce4bhu92rcd13ifvqi70","pricing_plan_id":"cebpf4jnsgd1na2vs0mg"},{"bike_id":"c3a9828e-25b7-44e5-94df-e64a333e09b0","system_id":"levelo_inurba_marseille","lat":43.31484,"lon":5.37297,"is_reserved":false,"is_disabled":false,"rental_uris":{"android":"levelo://app?vid=c3a9828e-25b7-44e5-94df-e64a333e09b0","ios":"levelo://app?vid=c3a9828e-25b7-44e5-94df-e64a333e09b0"},"vehicle_type_id":"4","last_reported":1784487027,"current_range_meters":38400,"station_id":"ce4bgt12rcd13ifvqcd0","pricing_plan_id":"cebpf4jnsgd1na2vs0mg"},{"bike_id":"a7c42e62-f2d7-4f0f-96f4-b9d2418cea29","system_id":"levelo_inurba_marseille","lat":43.296306,"lon":5.405984,"is_reserved":false,"is_disabled":true,"rental_uris":{"android":"levelo://app?vid=a7c42e62-f2d7-4f0f-96f4-b9d2418cea29","ios":"levelo://app?vid=a7c42e62-f2d7-4f0f-96f4-b9d2418cea29"},"vehicle_type_id":"4","last_reported":1784487027,"current_range_meters":38400,"station_id":"ce4bh0h2rcd13ifvqd60","pricing_plan_id":"cebpf4jnsgd1na2vs0mg"},{"bike_id":"6b28d726-da17-43d5-bcda-effbbb66d552","system_id":"levelo_inurba_marseille","lat":43.26227,"lon":5.41628,"is_reserved":false,"is_disabled":false,"rental_uris":{"android":"levelo://app?vid=6b28d726-da17-43d5-bcda-effbbb66d552","ios":"levelo://app?vid=6b28d726-da17-43d5-bcda-effbbb66d552"},"vehicle_type_id":"4","last_reported":1784487027,"current_range_meters":28000,"station_id":"","pricing_plan_id":"cebpf4jnsgd1na2vs0mg"},{"bike_id":"fed5bffd-bed6-4fda-88af-fdf52fbc2f78","system_id":"levelo_inurba_marseille","lat":43.28073,"lon":5.39661,"is_reserved":false,"is_disabled":false,"rental_uris":{"android":"levelo://app?vid=fed5bffd-bed6-4fda-88af-fdf52fbc2f78","ios":"levelo://app?vid=fed5bffd-bed6-4fda-88af-fdf52fbc2f78"},"vehicle_type_id":"4","last_reported":1784487027,"current_range_meters":17200,"station_id":"ce4bho12rcd13ifvqh2g","pricing_plan_id":"cebpf4jnsgd1na2vs0mg"},{"bike_id":"411bd941-eb8a-4aaf-9c81-81af24914906","system_id":"levelo_inurba_marseille","lat":43.30119,"lon":5.39859,"is_reserved":false,"is_disabled":false,"rental_uris":{"android":"levelo://app?vid=411bd941-eb8a-4aaf-9c81-81af24914906","ios":"levelo://app?vid=411bd941-eb8a-4aaf-9c81-81af24914906"},"vehicle_type_id":"4","last_reported":1784487027,"current_range_meters":40000,"station_id":"ce4bh0h2rcd13ifvqd40","pricing_plan_id":"cebpf4jnsgd1na2vs0mg"},{"bike_id":"7ffbfea7-3dfd-4297-9c7d-5e334795350d","system_id":"levelo_inurba_marseille","lat":43.31502,"lon":5.37193,"is_reserved":false,"is_disabled":false,"rental_uris":{"android":"levelo://app?vid=7ffbfea7-3dfd-4297-9c7d-5e334795350d","ios":"levelo://app?vid=7ffbfea7-3dfd-4297-9c7d-5e334795350d"},"vehicle_type_id":"4","last_reported":1784487027,"current_range_meters":3600,"station_id":"","pricing_plan_id":"cebpf4jnsgd1na2vs0mg"},{"bike_id":"f5d2772c-2ba7-41b0-bb93-fa46b70aa86d","system_id":"levelo_inurba_marseille","lat":43.28464,"lon":5.35872,"is_reserved":false,"is_disabled":false,"rental_uris":{"android":"levelo://app?vid=f5d2772c-2ba7-41b0-bb93-fa46b70aa86d","ios":"levelo://app?vid=f5d2772c-2ba7-41b0-bb93-fa46b70aa86d"},"vehicle_type_id":"4","last_reported":1784487027,"current_range_meters":16800,"station_id":"ce4bhah2rcd13ifvqei0","pricing_plan_id":"cebpf4jnsgd1na2vs0mg"},{"bike_id":"0f6ff1da-c9e3-42e7-a8d3-8280d1c0addc","system_id":"levelo_inurba_marseille","lat":43.33718,"lon":5.37415,"is_reserved":false,"is_disabled":false,"rental_uris":{"android":"levelo://app?vid=0f6ff1da-c9e3-42e7-a8d3-8280d1c0addc","ios":"levelo://app?vid=0f6ff1da-c9e3-42e7-a8d3-8280d1c0addc"},"vehicle_type_id":"4","last_reported":1784487027,"current_range_meters":27200,"station_id":"","pricing_plan_id":"cebpf4jnsgd1na2vs0mg"},{"bike_id":"3ceff190-3a3e-47d0-ab6b-e1975730f31e","system_id":"levelo_inurba_marseille","lat":43.26367,"lon":5.41095,"is_reserved":false,"is_disabled":false,"rental_uris":{"android":"levelo://app?vid=3ceff190-3a3e-47d0-ab6b-e1975730f31e","ios":"levelo://app?vid=3ceff190-3a3e-47d0-ab6b-e1975730f31e"},"vehicle_type_id":"4","last_reported":1784487027,"current_range_meters":35600,"station_id":"st_d4e5ca6na9uc73bfl5fg","pricing_plan_id":"cebpf4jnsgd1na2vs0mg"},{"bike_id":"8337f5b4-2806-4bc0-9f71-af183adb5db8","system_id":"levelo_inurba_marseille","lat":43.23822,"lon":5.43512,"is_reserved":false,"is_disabled":false,"rental_uris":{"android":"levelo://app?vid=8337f5b4-2806-4bc0-9f71-af183adb5db8","ios":"levelo://app?vid=8337f5b4-2806-4bc0-9f71-af183adb5db8"},"vehicle_type_id":"4","last_reported":1784487027,"current_range_meters":3200,"station_id":"","pricing_plan_id":"cebpf4jnsgd1na2vs0mg"},{"bike_id":"0d69c6ad-1581-485b-8bcd-d541c4976ef8","system_id":"levelo_inurba_marseille","lat":43.31892,"lon":5.36823,"is_reserved":false,"is_disabled":false,"rental_uris":{"android":"levelo://app?vid=0d69c6ad-1581-485b-8bcd-d541c4976ef8","ios":"levelo://app?vid=0d69c6ad-1581-485b-8bcd-d541c4976ef8"},"vehicle_type_id":"4","last_reported":1784487027,"current_range_meters":8000,"station_id":"st_d6o2h0d0559c73evc1b0","pricing_plan_id":"cebpf4jnsgd1na2vs0mg"},{"bike_id":"4de504f2-bbbf-4fb3-8447-f251a88f156d","system_id":"levelo_inurba_marseille","lat":43.29232,"lon":5.36036,"is_reserved":false,"is_disabled":false,"rental_uris":{"android":"levelo://app?vid=4de504f2-bbbf-4fb3-8447-f251a88f156d","ios":"levelo://app?vid=4de504f2-bbbf-4fb3-8447-f251a88f156d"},"vehicle_type_id":"4","last_reported":1784487027,"current_range_meters":37600,"station_id":"","pricing_plan_id":"cebpf4jnsgd1na2vs0mg"},{"bike_id":"6f3fe6b1-d03b-415d-989b-983760ba8031","system_id":"levelo_inurba_marseille","lat":43.27569,"lon":5.38399,"is_reserved":false,"is_disabled":false,"rental_uris":{"android":"levelo://app?vid=6f3fe6b1-d03b-415d-989b-983760ba8031","ios":"levelo://app?vid=6f3fe6b1-d03b-415d-989b-983760ba8031"},"vehicle_type_id":"4","last_reported":1784487027,"current_range_meters":2800,"station_id":"ce4bhh92rcd13ifvqfi0","pricing_plan_id":"cebpf4jnsgd1na2vs0mg"},{"bike_id":"38a2cc3d-9988-4742-ab91-e9c4ce6b2869","system_id":"levelo_inurba_marseille","lat":43.25516,"lon":5.37659,"is_reserved":false,"is_disabled":true,"rental_uris":{"android":"levelo://app?vid=38a2cc3d-9988-4742-ab91-e9c4ce6b2869","ios":"levelo://app?vid=38a2cc3d-9988-4742-ab91-e9c4ce6b2869"},"vehicle_type_id":"4","last_reported":1784487027,"current_range_meters":30400,"station_id":"ce4bhh12rcd13ifvqff0","pricing_plan_id":"cebpf4jnsgd1na2vs0mg"},{"bike_id":"fcde154e-46b4-4bd5-8c42-900f9aab1f78","system_id":"levelo_inurba_marseille","lat":43.29954,"lon":5.41318,"is_reserved":false,"is_disabled":false,"rental_uris":{"android":"levelo://app?vid=fcde154e-46b4-4bd5-8c42-900f9aab1f78","ios":"levelo://app?vid=fcde154e-46b4-4bd5-8c42-900f9aab1f78"},"vehicle_type_id":"4","last_reported":1784487027,"current_range_meters":28400,"station_id":"ce4bhp12rcd13ifvqh9g","pricing_plan_id":"cebpf4jnsgd1na2vs0mg"},{"bike_id":"9b90f838-1e94-44ce-964b-2c7e792aeab2","system_id":"levelo_inurba_marseille","lat":43.295711,"lon":5.375121,"is_reserved":false,"is_disabled":false,"rental_uris":{"android":"levelo://app?vid=9b90f838-1e94-44ce-964b-2c7e792aeab2","ios":"levelo://app?vid=9b90f838-1e94-44ce-964b-2c7e792aeab2"},"vehicle_type_id":"4","last_reported":1784487027,"current_range_meters":39200,"station_id":"ce4bgh92rcd13ifvqb50","pricing_plan_id":"cebpf4jnsgd1na2vs0mg"},{"bike_id":"9772ae11-9228-4434-979a-bcf5d3518e5e","system_id":"levelo_inurba_marseille","lat":43.23218,"lon":5.36592,"is_reserved":false,"is_disabled":false,"rental_uris":{"android":"levelo://app?vid=9772ae11-9228-4434-979a-bcf5d3518e5e","ios":"levelo://app?vid=9772ae11-9228-4434-979a-bcf5d3518e5e"},"vehicle_type_id":"4","last_reported":1784487027,"current_range_meters":35600,"station_id":"","pricing_plan_id":"cebpf4jnsgd1na2vs0mg"},{"bike_id":"50018d60-5cee-4e25-806f-789978a424f4","system_id":"levelo_inurba_marseille","lat":43.23259,"lon":5.35254,"is_reserved":false,"is_disabled":false,"rental_uris":{"android":"levelo://app?vid=50018d60-5cee-4e25-806f-789978a424f4","ios":"levelo://app?vid=50018d60-5cee-4e25-806f-789978a424f4"},"vehicle_type_id":"4","last_reported":1784487027,"current_range_meters":30000,"station_id":"","pricing_plan_id":"cebpf4jnsgd1na2vs0mg"},{"bike_id":"0caa8559-3e92-4f0d-9892-d3c33fb00528","system_id":"levelo_inurba_marseille","lat":43.26027,"lon":5.37557,"is_reserved":false,"is_disabled":false,"rental_uris":{"android":"levelo://app?vid=0caa8559-3e92-4f0d-9892-d3c33fb00528","ios":"levelo://app?vid=0caa8559-3e92-4f0d-9892-d3c33fb00528"},"vehicle_type_id":"4","last_reported":1784487027,"current_range_meters":38000,"station_id":"ce4bhgh2rcd13ifvqfa0","pricing_plan_id":"cebpf4jnsgd1na2vs0mg"},{"bike_id":"942148f9-90f2-4171-8f05-98ba0ca85bcb","system_id":"levelo_inurba_marseille","lat":43.2847,"lon":5.48399,"is_reserved":false,"is_disabled":false,"rental_uris":{"android":"levelo://app?vid=942148f9-90f2-4171-8f05-98ba0ca85bcb","ios":"levelo://app?vid=942148f9-90f2-4171-8f05-98ba0ca85bcb"},"vehicle_type_id":"4","last_reported":1784487027,"current_range_meters":36800,"station_id":"st_d3svhcjqgbts73a3dn0g","pricing_plan_id":"cebpf4jnsgd1na2vs0mg"},{"bike_id":"8be94530-dbf2-4d31-bebd-071d2bd97003","system_id":"levelo_inurba_marseille","lat":43.267824,"lon":5.39409,"is_reserved":false,"is_disabled":false,"rental_uris":{"android":"levelo://app?vid=8be94530-dbf2-4d31-bebd-071d2bd97003","ios":"levelo://app?vid=8be94530-dbf2-4d31-bebd-071d2bd97003"},"vehicle_type_id":"4","last_reported":1784487027,"current_range_meters":18800,"station_id":"","pricing_plan_id":"cebpf4jnsgd1na2vs0mg"},{"bike_id":"fa288643-b967-4c77-8362-0941ea5afa2f","system_id":"levelo_inurba_marseille","lat":43.23237,"lon":5.35461,"is_reserved":false,"is_disabled":false,"rental_uris":{"android":"levelo://app?vid=fa288643-b967-4c77-8362-0941ea5afa2f","ios":"levelo://app?vid=fa288643-b967-4c77-8362-0941ea5afa2f"},"vehicle_type_id":"4","last_reported":1784487027,"current_range_meters":39200,"station_id":"","pricing_plan_id":"cebpf4jnsgd1na2vs0mg"},{"bike_id":"2a93def1-9840-4751-b465-b53bb0ce6123","system_id":"levelo_inurba_marseille","lat":43.22562,"lon":5.41625,"is_reserved":false,"is_disabled":false,"rental_uris":{"android":"levelo://app?vid=2a93def1-9840-4751-b465-b53bb0ce6123","ios":"levelo://app?vid=2a93def1-9840-4751-b465-b53bb0ce6123"},"vehicle_type_id":"4","last_reported":1784487027,"current_range_meters":6000,"station_id":"st_d2o4gvlbi1j2169b742g","pricing_plan_id":"cebpf4jnsgd1na2vs0mg"},{"bike_id":"f40f4ba5-87ce-4797-88c4-03b4eb30e2be","system_id":"levelo_inurba_marseille","lat":43.26547,"lon":5.37288,"is_reserved":false,"is_disabled":false,"rental_uris":{"android":"levelo://app?vid=f40f4ba5-87ce-4797-88c4-03b4eb30e2be","ios":"levelo://app?vid=f40f4ba5-87ce-4797-88c4-03b4eb30e2be"},"vehicle_type_id":"4","last_reported":1784487027,"current_range_meters":38400,"station_id":"ce4bhg12rcd13ifvqf70","pricing_plan_id":"cebpf4jnsgd1na2vs0mg"},{"bike_id":"d2b08bfe-8d05-4397-91e9-fe938a2b845f","system_id":"levelo_inurba_marseille","lat":43.27496,"lon":5.42452,"is_reserved":false,"is_disabled":false,"rental_uris":{"android":"levelo://app?vid=d2b08bfe-8d05-4397-91e9-fe938a2b845f","ios":"levelo://app?vid=d2b08bfe-8d05-4397-91e9-fe938a2b845f"},"vehicle_type_id":"4","last_reported":1784487027,"current_range_meters":28000,"station_id":"ce4bhn92rcd13ifvqgrg","pricing_plan_id":"cebpf4jnsgd1na2vs0mg"},{"bike_id":"03fcd601-c201-4cc6-a5f6-b2a687e2f004","system_id":"levelo_inurba_marseille","lat":43.29205,"lon":5.36313,"is_reserved":false,"is_disabled":false,"rental_uris":{"android":"levelo://app?vid=03fcd601-c201-4cc6-a5f6-b2a687e2f004","ios":"levelo://app?vid=03fcd601-c201-4cc6-a5f6-b2a687e2f004"},"vehicle_type_id":"4","last_reported":1784487027,"current_range_meters":26000,"station_id":"","pricing_plan_id":"cebpf4jnsgd1na2vs0mg"},{"bike_id":"4f242086-589c-406d-bdd8-41a82ced5a8d","system_id":"levelo_inurba_marseille","lat":43.231467,"lon":5.436974,"is_reserved":false,"is_disabled":false,"rental_uris":{"android":"levelo://app?vid=4f242086-589c-406d-bdd8-41a82ced5a8d","ios":"levelo://app?vid=4f242086-589c-406d-bdd8-41a82ced5a8d"},"vehicle_type_id":"4","last_reported":1784487027,"current_range_meters":20800,"station_id":"ce4bhmp2rcd13ifvqgog","pricing_plan_id":"cebpf4jnsgd1na2vs0mg"},{"bike_id":"e97d923d-d560-461e-94e7-6b746b3d8d92","system_id":"levelo_inurba_marseille","lat":43.32135,"lon":5.36746,"is_reserved":false,"is_disabled":false,"rental_uris":{"android":"levelo://app?vid=e97d923d-d560-461e-94e7-6b746b3d8d92","ios":"levelo://app?vid=e97d923d-d560-461e-94e7-6b746b3d8d92"},"vehicle_type_id":"4","last_reported":1784487027,"current_range_meters":22000,"station_id":"","pricing_plan_id":"cebpf4jnsgd1na2vs0mg"},{"bike_id":"36b4d290-dd7c-4dde-8dd9-f0a58badcd06","system_id":"levelo_inurba_marseille","lat":43.27743,"lon":5.38909,"is_reserved":false,"is_disabled":true,"rental_uris":{"android":"levelo://app?vid=36b4d290-dd7c-4dde-8dd9-f0a58badcd06","ios":"levelo://app?vid=36b4d290-dd7c-4dde-8dd9-f0a58badcd06"},"vehicle_type_id":"4","last_reported":1784487027,"current_range_meters":4800,"station_id":"ce4bhi12rcd13ifvqfo0","pricing_plan_id":"cebpf4jnsgd1na2vs0mg"},{"bike_id":"b7aa1f7e-f948-4c85-8ebb-7af17d93841d","system_id":"levelo_inurba_marseille","lat":43.25226,"lon":5.40087,"is_reserved":false,"is_disabled":false,"rental_uris":{"android":"levelo://app?vid=b7aa1f7e-f948-4c85-8ebb-7af17d93841d","ios":"levelo://app?vid=b7aa1f7e-f948-4c85-8ebb-7af17d93841d"},"vehicle_type_id":"4","last_reported":1784487027,"current_range_meters":37600,"station_id":"","pricing_plan_id":"cebpf4jnsgd1na2vs0mg"},{"bike_id":"a73f2824-04af-4eb1-8696-07548fb915c6","system_id":"levelo_inurba_marseille","lat":43.27065,"lon":5.4226,"is_reserved":false,"is_disabled":false,"rental_uris":{"android":"levelo://app?vid=a73f2824-04af-4eb1-8696-07548fb915c6","ios":"levelo://app?vid=a73f2824-04af-4eb1-8696-07548fb915c6"},"vehicle_type_id":"4","last_reported":1784487027,"current_range_meters":32000,"station_id":"ce4bhk92rcd13ifvqgb0","pricing_plan_id":"cebpf4jnsgd1na2vs0mg"},{"bike_id":"5bc44a58-d609-49eb-9343-f22982157db4","system_id":"levelo_inurba_marseille","lat":43.29472,"lon":5.36295,"is_reserved":false,"is_disabled":false,"rental_uris":{"android":"levelo://app?vid=5bc44a58-d609-49eb-9343-f22982157db4","ios":"levelo://app?vid=5bc44a58-d609-49eb-9343-f22982157db4"},"vehicle_type_id":"4","last_reported":1784487027,"current_range_meters":6000,"station_id":"","pricing_plan_id":"cebpf4jnsgd1na2vs0mg"},{"bike_id":"dae56290-3ae1-48c1-a93e-499502aeaa6f","system_id":"levelo_inurba_marseille","lat":43.25739,"lon":5.411,"is_reserved":false,"is_disabled":false,"rental_uris":{"android":"levelo://app?vid=dae56290-3ae1-48c1-a93e-499502aeaa6f","ios":"levelo://app?vid=dae56290-3ae1-48c1-a93e-499502aeaa6f"},"vehicle_type_id":"4","last_reported":1784487027,"current_range_meters":8000,"station_id":"ce4bhkp2rcd13ifvqgd0","pricing_plan_id":"cebpf4jnsgd1na2vs0mg"},{"bike_id":"e845caaf-6f62-4afe-898b-175d7eec4dd5","system_id":"levelo_inurba_marseille","lat":43.29057,"lon":5.35896,"is_reserved":false,"is_disabled":false,"rental_uris":{"android":"levelo://app?vid=e845caaf-6f62-4afe-898b-175d7eec4dd5","ios":"levelo://app?vid=e845caaf-6f62-4afe-898b-175d7eec4dd5"},"vehicle_type_id":"4","last_reported":1784487027,"current_range_meters":6800,"station_id":"ce4bha92rcd13ifvqeg0","pricing_plan_id":"cebpf4jnsgd1na2vs0mg"},{"bike_id":"160b0153-3c70-4a0e-b0da-4ad40e9a3569","system_id":"levelo_inurba_marseille","lat":43.23352,"lon":5.41238,"is_reserved":false,"is_disabled":false,"rental_uris":{"android":"levelo://app?vid=160b0153-3c70-4a0e-b0da-4ad40e9a3569","ios":"levelo://app?vid=160b0153-3c70-4a0e-b0da-4ad40e9a3569"},"vehicle_type_id":"4","last_reported":1784487027,"current_range_meters":35600,"station_id":"st_d75pvndhf9lc73cqq3eg","pricing_plan_id":"cebpf4jnsgd1na2vs0mg"},{"bike_id":"2dc3aa59-ab9a-45bd-b669-08a80c415674","system_id":"levelo_inurba_marseille","lat":43.265236,"lon":5.395821,"is_reserved":false,"is_disabled":false,"rental_uris":{"android":"levelo://app?vid=2dc3aa59-ab9a-45bd-b669-08a80c415674","ios":"levelo://app?vid=2dc3aa59-ab9a-45bd-b669-08a80c415674"},"vehicle_type_id":"4","last_reported":1784487027,"current_range_meters":5600,"station_id":"ce4bhi12rcd13ifvqfq0","pricing_plan_id":"cebpf4jnsgd1na2vs0mg"},{"bike_id":"0072b311-c2d5-4e23-a271-7871940c8a69","system_id":"levelo_inurba_marseille","lat":43.28387,"lon":5.38509,"is_reserved":false,"is_disabled":false,"rental_uris":{"android":"levelo://app?vid=0072b311-c2d5-4e23-a271-7871940c8a69","ios":"levelo://app?vid=0072b311-c2d5-4e23-a271-7871940c8a69"},"vehicle_type_id":"4","last_reported":1784487027,"current_range_meters":29600,"station_id":"","pricing_plan_id":"cebpf4jnsgd1na2vs0mg"},{"bike_id":"2fdd6e12-4053-40c7-8a9c-7c197c3b2ef6","system_id":"levelo_inurba_marseille","lat":43.32376,"lon":5.38852,"is_reserved":false,"is_disabled":false,"rental_uris":{"android":"levelo://app?vid=2fdd6e12-4053-40c7-8a9c-7c197c3b2ef6","ios":"levelo://app?vid=2fdd6e12-4053-40c7-8a9c-7c197c3b2ef6"},"vehicle_type_id":"4","last_reported":1784487027,"current_range_meters":38000,"station_id":"ce4bhqp2rcd13ifvqhog","pricing_plan_id":"cebpf4jnsgd1na2vs0mg"},{"bike_id":"3d4aa178-44db-467e-a1bd-4fcdf991f22c","system_id":"levelo_inurba_marseille","lat":43.31721,"lon":5.43706,"is_reserved":false,"is_disabled":false,"rental_uris":{"android":"levelo://app?vid=3d4aa178-44db-467e-a1bd-4fcdf991f22c","ios":"levelo://app?vid=3d4aa178-44db-467e-a1bd-4fcdf991f22c"},"vehicle_type_id":"4","last_reported":1784487027,"current_range_meters":40000,"station_id":"ce4bhp92rcd13ifvqhcg","pricing_plan_id":"cebpf4jnsgd1na2vs0mg"},{"bike_id":"78b472ae-7ca1-438d-a65f-f93d06645001","system_id":"levelo_inurba_marseille","lat":43.29209,"lon":5.36034,"is_reserved":false,"is_disabled":true,"rental_uris":{"android":"levelo://app?vid=78b472ae-7ca1-438d-a65f-f93d06645001","ios":"levelo://app?vid=78b472ae-7ca1-438d-a65f-f93d06645001"},"vehicle_type_id":"4","last_reported":1784487027,"current_range_meters":37600,"station_id":"","pricing_plan_id":"cebpf4jnsgd1na2vs0mg"},{"bike_id":"40724a1f-ce5c-4810-b613-a36109a6f509","system_id":"levelo_inurba_marseille","lat":43.23769,"lon":5.36637,"is_reserved":false,"is_disabled":false,"rental_uris":{"android":"levelo://app?vid=40724a1f-ce5c-4810-b613-a36109a6f509","ios":"levelo://app?vid=40724a1f-ce5c-4810-b613-a36109a6f509"},"vehicle_type_id":"4","last_reported":1784487027,"current_range_meters":28400,"station_id":"st_d3nk18o9ro0c73en2l3g","pricing_plan_id":"cebpf4jnsgd1na2vs0mg"},{"bike_id":"faa6ac43-cc09-4123-80e5-05967da9c64c","system_id":"levelo_inurba_marseille","lat":43.23193,"lon":5.35552,"is_reserved":false,"is_disabled":false,"rental_uris":{"android":"levelo://app?vid=faa6ac43-cc09-4123-80e5-05967da9c64c","ios":"levelo://app?vid=faa6ac43-cc09-4123-80e5-05967da9c64c"},"vehicle_type_id":"4","last_reported":1784487027,"current_range_meters":18000,"station_id":"ce4bhu92rcd13ifvqi70","pricing_plan_id":"cebpf4jnsgd1na2vs0mg"},{"bike_id":"1e893e8f-286b-4469-bbb3-12845a066bbc","system_id":"levelo_inurba_marseille","lat":43.29976,"lon":5.37176,"is_reserved":false,"is_disabled":false,"rental_uris":{"android":"levelo://app?vid=1e893e8f-286b-4469-bbb3-12845a066bbc","ios":"levelo://app?vid=1e893e8f-286b-4469-bbb3-12845a066bbc"},"vehicle_type_id":"4","last_reported":1784487027,"current_range_meters":39200,"station_id":"ce4bgr92rcd13ifvqc7g","pricing_plan_id":"cebpf4jnsgd1na2vs0mg"},{"bike_id":"dabb500f-2cc8-4718-8a9a-917f66d7ce47","system_id":"levelo_inurba_marseille","lat":43.28849,"lon":5.35835,"is_reserved":false,"is_disabled":false,"rental_uris":{"android":"levelo://app?vid=dabb500f-2cc8-4718-8a9a-917f66d7ce47","ios":"levelo://app?vid=dabb500f-2cc8-4718-8a9a-917f66d7ce47"},"vehicle_type_id":"4","last_reported":1784487027,"current_range_meters":38400,"station_id":"ce4bhb12rcd13ifvqem0","pricing_plan_id":"cebpf4jnsgd1na2vs0mg"},{"bike_id":"f31e71a2-8328-4ff9-9288-61f910dee152","system_id":"levelo_inurba_marseille","lat":43.26498,"lon":5.39532,"is_reserved":false,"is_disabled":false,"rental_uris":{"android":"levelo://app?vid=f31e71a2-8328-4ff9-9288-61f910dee152","ios":"levelo://app?vid=f31e71a2-8328-4ff9-9288-61f910dee152"},"vehicle_type_id":"4","last_reported":1784487027,"current_range_meters":36000,"station_id":"ce4bhi12rcd13ifvqfq0","pricing_plan_id":"cebpf4jnsgd1na2vs0mg"},{"bike_id":"348caf77-82d6-4562-a72e-c7becae0b0ae","system_id":"levelo_inurba_marseille","lat":43.230549,"lon":5.354901,"is_reserved":false,"is_disabled":false,"rental_uris":{"android":"levelo://app?vid=348caf77-82d6-4562-a72e-c7becae0b0ae","ios":"levelo://app?vid=348caf77-82d6-4562-a72e-c7becae0b0ae"},"vehicle_type_id":"4","last_reported":1784487027,"current_range_meters":36800,"station_id":"cpo3342slgdg3j2ifvpg","pricing_plan_id":"cebpf4jnsgd1na2vs0mg"},{"bike_id":"88b3333d-68df-42df-8ef7-a9a4f08abce5","system_id":"levelo_inurba_marseille","lat":43.22915,"lon":5.41516,"is_reserved":false,"is_disabled":false,"rental_uris":{"android":"levelo://app?vid=88b3333d-68df-42df-8ef7-a9a4f08abce5","ios":"levelo://app?vid=88b3333d-68df-42df-8ef7-a9a4f08abce5"},"vehicle_type_id":"4","last_reported":1784487027,"current_range_meters":17600,"station_id":"","pricing_plan_id":"cebpf4jnsgd1na2vs0mg"},{"bike_id":"035222c8-2604-4663-bc5d-7c9f7e488ee9","system_id":"levelo_inurba_marseille","lat":43.25544,"lon":5.37637,"is_reserved":false,"is_disabled":true,"rental_uris":{"android":"levelo://app?vid=035222c8-2604-4663-bc5d-7c9f7e488ee9","ios":"levelo://app?vid=035222c8-2604-4663-bc5d-7c9f7e488ee9"},"vehicle_type_id":"4","last_reported":1784487027,"current_range_meters":0,"station_id":"","pricing_plan_id":"cebpf4jnsgd1na2vs0mg"},{"bike_id":"50cc7a1f-02fb-419d-8d81-6e9140eed09a","system_id":"levelo_inurba_marseille","lat":43.26221,"lon":5.37417,"is_reserved":false,"is_disabled":false,"rental_uris":{"android":"levelo://app?vid=50cc7a1f-02fb-419d-8d81-6e9140eed09a","ios":"levelo://app?vid=50cc7a1f-02fb-419d-8d81-6e9140eed09a"},"vehicle_type_id":"4","last_reported":1784487027,"current_range_meters":36000,"station_id":"ce4bhgp2rcd13ifvqfc0","pricing_plan_id":"cebpf4jnsgd1na2vs0mg"},{"bike_id":"67cc13ec-7983-4e02-8476-a12d7f7e598e","system_id":"levelo_inurba_marseille","lat":43.26692,"lon":5.3826,"is_reserved":false,"is_disabled":false,"rental_uris":{"android":"levelo://app?vid=67cc13ec-7983-4e02-8476-a12d7f7e598e","ios":"levelo://app?vid=67cc13ec-7983-4e02-8476-a12d7f7e598e"},"vehicle_type_id":"4","last_reported":1784487027,"current_range_meters":20000,"station_id":"ce4bhg92rcd13ifvqf90","pricing_plan_id":"cebpf4jnsgd1na2vs0mg"},{"bike_id":"8d0d64a7-8bef-4335-8299-db0ba9dc3763","system_id":"levelo_inurba_marseille","lat":43.29589,"lon":5.37489,"is_reserved":false,"is_disabled":false,"rental_uris":{"android":"levelo://app?vid=8d0d64a7-8bef-4335-8299-db0ba9dc3763","ios":"levelo://app?vid=8d0d64a7-8bef-4335-8299-db0ba9dc3763"},"vehicle_type_id":"4","last_reported":1784487027,"current_range_meters":39200,"station_id":"ce4bgh92rcd13ifvqb50","pricing_plan_id":"cebpf4jnsgd1na2vs0mg"},{"bike_id":"3a65c32f-2435-4e03-96fa-0a76f1e46419","system_id":"levelo_inurba_marseille","lat":43.32672,"lon":5.40985,"is_reserved":false,"is_disabled":false,"rental_uris":{"android":"levelo://app?vid=3a65c32f-2435-4e03-96fa-0a76f1e46419","ios":"levelo://app?vid=3a65c32f-2435-4e03-96fa-0a76f1e46419"},"vehicle_type_id":"4","last_reported":1784487027,"current_range_meters":36000,"station_id":"ce4bhpp2rcd13ifvqhgg","pricing_plan_id":"cebpf4jnsgd1na2vs0mg"},{"bike_id":"b9bf91b1-f6c3-4792-a380-5b253e1ff4ad","system_id":"levelo_inurba_marseille","lat":43.23199,"lon":5.35518,"is_reserved":false,"is_disabled":false,"rental_uris":{"android":"levelo://app?vid=b9bf91b1-f6c3-4792-a380-5b253e1ff4ad","ios":"levelo://app?vid=b9bf91b1-f6c3-4792-a380-5b253e1ff4ad"},"vehicle_type_id":"4","last_reported":1784487027,"current_range_meters":28400,"station_id":"ce4bhu92rcd13ifvqi70","pricing_plan_id":"cebpf4jnsgd1na2vs0mg"},{"bike_id":"3331c6c8-0e15-49d1-8915-53d26d8aa8c2","system_id":"levelo_inurba_marseille","lat":43.30596,"lon":5.37209,"is_reserved":false,"is_disabled":false,"rental_uris":{"android":"levelo://app?vid=3331c6c8-0e15-49d1-8915-53d26d8aa8c2","ios":"levelo://app?vid=3331c6c8-0e15-49d1-8915-53d26d8aa8c2"},"vehicle_type_id":"4","last_reported":1784487027,"current_range_meters":30400,"station_id":"ce4bgqh2rcd13ifvqc4g","pricing_plan_id":"cebpf4jnsgd1na2vs0mg"},{"bike_id":"924a1626-5fd2-481c-9ed9-8d01de5a6be3","system_id":"levelo_inurba_marseille","lat":43.30579,"lon":5.38197,"is_reserved":false,"is_disabled":false,"rental_uris":{"android":"levelo://app?vid=924a1626-5fd2-481c-9ed9-8d01de5a6be3","ios":"levelo://app?vid=924a1626-5fd2-481c-9ed9-8d01de5a6be3"},"vehicle_type_id":"4","last_reported":1784487027,"current_range_meters":15200,"station_id":"","pricing_plan_id":"cebpf4jnsgd1na2vs0mg"},{"bike_id":"4f54c651-15d1-492f-8d09-70f1f809ad4f","system_id":"levelo_inurba_marseille","lat":43.27509,"lon":5.42534,"is_reserved":false,"is_disabled":false,"rental_uris":{"android":"levelo://app?vid=4f54c651-15d1-492f-8d09-70f1f809ad4f","ios":"levelo://app?vid=4f54c651-15d1-492f-8d09-70f1f809ad4f"},"vehicle_type_id":"4","last_reported":1784487027,"current_range_meters":14800,"station_id":"st_d8t4bh7nbrqs73arha60","pricing_plan_id":"cebpf4jnsgd1na2vs0mg"},{"bike_id":"7065528a-f292-4b1d-9927-6e05933d2cf0","system_id":"levelo_inurba_marseille","lat":43.22567,"lon":5.41624,"is_reserved":false,"is_disabled":false,"rental_uris":{"android":"levelo://app?vid=7065528a-f292-4b1d-9927-6e05933d2cf0","ios":"levelo://app?vid=7065528a-f292-4b1d-9927-6e05933d2cf0"},"vehicle_type_id":"4","last_reported":1784487027,"current_range_meters":22000,"station_id":"st_d2o4gvlbi1j2169b742g","pricing_plan_id":"cebpf4jnsgd1na2vs0mg"},{"bike_id":"862d8e62-6e66-4b66-a64b-9c49ce2182be","system_id":"levelo_inurba_marseille","lat":43.30366,"lon":5.40818,"is_reserved":false,"is_disabled":false,"rental_uris":{"android":"levelo://app?vid=862d8e62-6e66-4b66-a64b-9c49ce2182be","ios":"levelo://app?vid=862d8e62-6e66-4b66-a64b-9c49ce2182be"},"vehicle_type_id":"4","last_reported":1784487027,"current_range_meters":28000,"station_id":"","pricing_plan_id":"cebpf4jnsgd1na2vs0mg"},{"bike_id":"126b0827-4f1d-4758-be65-0e5fb99b6c7b","system_id":"levelo_inurba_marseille","lat":43.28566,"lon":5.39495,"is_reserved":false,"is_disabled":false,"rental_uris":{"android":"levelo://app?vid=126b0827-4f1d-4758-be65-0e5fb99b6c7b","ios":"levelo://app?vid=126b0827-4f1d-4758-be65-0e5fb99b6c7b"},"vehicle_type_id":"4","last_reported":1784487027,"current_range_meters":6000,"station_id":"ce4bh292rcd13ifvqdg0","pricing_plan_id":"cebpf4jnsgd1na2vs0mg"},{"bike_id":"11914078-231d-4077-9bc0-bdb34b6580e0","system_id":"levelo_inurba_marseille","lat":43.28131,"lon":5.37822,"is_reserved":false,"is_disabled":false,"rental_uris":{"android":"levelo://app?vid=11914078-231d-4077-9bc0-bdb34b6580e0","ios":"levelo://app?vid=11914078-231d-4077-9bc0-bdb34b6580e0"},"vehicle_type_id":"4","last_reported":1784487027,"current_range_meters":20800,"station_id":"ce4bha12rcd13ifvqee0","pricing_plan_id":"cebpf4jnsgd1na2vs0mg"},{"bike_id":"7e95463a-bc3b-4a8f-891b-aecd7964af17","system_id":"levelo_inurba_marseille","lat":43.28269,"lon":5.3506,"is_reserved":false,"is_disabled":true,"rental_uris":{"android":"levelo://app?vid=7e95463a-bc3b-4a8f-891b-aecd7964af17","ios":"levelo://app?vid=7e95463a-bc3b-4a8f-891b-aecd7964af17"},"vehicle_type_id":"4","last_reported":1784487027,"current_range_meters":19200,"station_id":"ce4bhbp2rcd13ifvqerg","pricing_plan_id":"cebpf4jnsgd1na2vs0mg"},{"bike_id":"e35b3037-ccf2-48a7-b6f2-14a77143bba4","system_id":"levelo_inurba_marseille","lat":43.32354,"lon":5.36742,"is_reserved":false,"is_disabled":false,"rental_uris":{"android":"levelo://app?vid=e35b3037-ccf2-48a7-b6f2-14a77143bba4","ios":"levelo://app?vid=e35b3037-ccf2-48a7-b6f2-14a77143bba4"},"vehicle_type_id":"4","last_reported":1784487027,"current_range_meters":26800,"station_id":"ce4bhsh2rcd13ifvqi2g","pricing_plan_id":"cebpf4jnsgd1na2vs0mg"},{"bike_id":"c7db8ee0-df96-43ac-85a4-f457ad6319b0","system_id":"levelo_inurba_marseille","lat":43.29098,"lon":5.38149,"is_reserved":false,"is_disabled":false,"rental_uris":{"android":"levelo://app?vid=c7db8ee0-df96-43ac-85a4-f457ad6319b0","ios":"levelo://app?vid=c7db8ee0-df96-43ac-85a4-f457ad6319b0"},"vehicle_type_id":"4","last_reported":1784487027,"current_range_meters":12000,"station_id":"ce4bh512rcd13ifvqe2g","pricing_plan_id":"cebpf4jnsgd1na2vs0mg"},{"bike_id":"ce45fdf9-66bd-4414-8bb7-2bf3c4382875","system_id":"levelo_inurba_marseille","lat":43.29531,"lon":5.38538,"is_reserved":false,"is_disabled":false,"rental_uris":{"android":"levelo://app?vid=ce45fdf9-66bd-4414-8bb7-2bf3c4382875","ios":"levelo://app?vid=ce45fdf9-66bd-4414-8bb7-2bf3c4382875"},"vehicle_type_id":"4","last_reported":1784487027,"current_range_meters":21600,"station_id":"ce4bgih2rcd13ifvqba0","pricing_plan_id":"cebpf4jnsgd1na2vs0mg"},{"bike_id":"d3763a0c-6ecc-4e5b-830e-5883d835d782","system_id":"levelo_inurba_marseille","lat":43.3171,"lon":5.43711,"is_reserved":false,"is_disabled":false,"rental_uris":{"android":"levelo://app?vid=d3763a0c-6ecc-4e5b-830e-5883d835d782","ios":"levelo://app?vid=d3763a0c-6ecc-4e5b-830e-5883d835d782"},"vehicle_type_id":"4","last_reported":1784487027,"current_range_meters":14400,"station_id":"ce4bhp92rcd13ifvqhcg","pricing_plan_id":"cebpf4jnsgd1na2vs0mg"},{"bike_id":"2d3e69d2-558b-4a81-9733-0750aa7726ab","system_id":"levelo_inurba_marseille","lat":43.23068,"lon":5.35484,"is_reserved":false,"is_disabled":false,"rental_uris":{"android":"levelo://app?vid=2d3e69d2-558b-4a81-9733-0750aa7726ab","ios":"levelo://app?vid=2d3e69d2-558b-4a81-9733-0750aa7726ab"},"vehicle_type_id":"4","last_reported":1784487027,"current_range_meters":9200,"station_id":"cpo3342slgdg3j2ifvpg","pricing_plan_id":"cebpf4jnsgd1na2vs0mg"},{"bike_id":"e0b59b94-4abf-4e2b-8eca-155fc1c0b722","system_id":"levelo_inurba_marseille","lat":43.23069,"lon":5.35499,"is_reserved":false,"is_disabled":false,"rental_uris":{"android":"levelo://app?vid=e0b59b94-4abf-4e2b-8eca-155fc1c0b722","ios":"levelo://app?vid=e0b59b94-4abf-4e2b-8eca-155fc1c0b722"},"vehicle_type_id":"4","last_reported":1784487027,"current_range_meters":39200,"station_id":"cpo3342slgdg3j2ifvpg","pricing_plan_id":"cebpf4jnsgd1na2vs0mg"},{"bike_id":"f3c9c0db-b409-467e-807c-651a8916ea52","system_id":"levelo_inurba_marseille","lat":43.27308,"lon":5.39084,"is_reserved":false,"is_disabled":false,"rental_uris":{"android":"levelo://app?vid=f3c9c0db-b409-467e-807c-651a8916ea52","ios":"levelo://app?vid=f3c9c0db-b409-467e-807c-651a8916ea52"},"vehicle_type_id":"4","last_reported":1784487027,"current_range_meters":22000,"station_id":"ce4bhgp2rcd13ifvqfe0","pricing_plan_id":"cebpf4jnsgd1na2vs0mg"},{"bike_id":"4b12a600-cce2-45a3-9a5e-33b068993d3c","system_id":"levelo_inurba_marseille","lat":43.25192,"lon":5.37318,"is_reserved":false,"is_disabled":false,"rental_uris":{"android":"levelo://app?vid=4b12a600-cce2-45a3-9a5e-33b068993d3c","ios":"levelo://app?vid=4b12a600-cce2-45a3-9a5e-33b068993d3c"},"vehicle_type_id":"4","last_reported":1784487027,"current_range_meters":20800,"station_id":"","pricing_plan_id":"cebpf4jnsgd1na2vs0mg"},{"bike_id":"714d28c5-8167-4c6f-80f1-d43e3e6a6e2d","system_id":"levelo_inurba_marseille","lat":43.28458,"lon":5.35875,"is_reserved":false,"is_disabled":false,"rental_uris":{"android":"levelo://app?vid=714d28c5-8167-4c6f-80f1-d43e3e6a6e2d","ios":"levelo://app?vid=714d28c5-8167-4c6f-80f1-d43e3e6a6e2d"},"vehicle_type_id":"4","last_reported":1784487027,"current_range_meters":34800,"station_id":"ce4bhah2rcd13ifvqei0","pricing_plan_id":"cebpf4jnsgd1na2vs0mg"},{"bike_id":"500fc680-95c4-4402-b0c4-fcb3bc3373a4","system_id":"levelo_inurba_marseille","lat":43.29231,"lon":5.36034,"is_reserved":false,"is_disabled":false,"rental_uris":{"android":"levelo://app?vid=500fc680-95c4-4402-b0c4-fcb3bc3373a4","ios":"levelo://app?vid=500fc680-95c4-4402-b0c4-fcb3bc3373a4"},"vehicle_type_id":"4","last_reported":1784487027,"current_range_meters":17200,"station_id":"","pricing_plan_id":"cebpf4jnsgd1na2vs0mg"},{"bike_id":"5c6bf596-efc3-4046-ae29-6489ccccbfb4","system_id":"levelo_inurba_marseille","lat":43.29876,"lon":5.39702,"is_reserved":false,"is_disabled":false,"rental_uris":{"android":"levelo://app?vid=5c6bf596-efc3-4046-ae29-6489ccccbfb4","ios":"levelo://app?vid=5c6bf596-efc3-4046-ae29-6489ccccbfb4"},"vehicle_type_id":"4","last_reported":1784487027,"current_range_meters":24400,"station_id":"ce4bh0h2rcd13ifvqd50","pricing_plan_id":"cebpf4jnsgd1na2vs0mg"},{"bike_id":"8ea8d4b3-6448-4b21-be78-af0ed81d8446","system_id":"levelo_inurba_marseille","lat":43.29268,"lon":5.38435,"is_reserved":false,"is_disabled":false,"rental_uris":{"android":"levelo://app?vid=8ea8d4b3-6448-4b21-be78-af0ed81d8446","ios":"levelo://app?vid=8ea8d4b3-6448-4b21-be78-af0ed81d8446"},"vehicle_type_id":"4","last_reported":1784487027,"current_range_meters":28400,"station_id":"ce4bh692rcd13ifvqea0","pricing_plan_id":"cebpf4jnsgd1na2vs0mg"},{"bike_id":"0d3e100f-48fe-47e1-bef7-0a1dcfcc4955","system_id":"levelo_inurba_marseille","lat":43.33729,"lon":5.3918,"is_reserved":false,"is_disabled":false,"rental_uris":{"android":"levelo://app?vid=0d3e100f-48fe-47e1-bef7-0a1dcfcc4955","ios":"levelo://app?vid=0d3e100f-48fe-47e1-bef7-0a1dcfcc4955"},"vehicle_type_id":"4","last_reported":1784487027,"current_range_meters":39200,"station_id":"ce4bhr92rcd13ifvqhsg","pricing_plan_id":"cebpf4jnsgd1na2vs0mg"},{"bike_id":"924ef0bd-8a10-4c11-8b14-dac4028ca078","system_id":"levelo_inurba_marseille","lat":43.32658,"lon":5.40991,"is_reserved":false,"is_disabled":false,"rental_uris":{"android":"levelo://app?vid=924ef0bd-8a10-4c11-8b14-dac4028ca078","ios":"levelo://app?vid=924ef0bd-8a10-4c11-8b14-dac4028ca078"},"vehicle_type_id":"4","last_reported":1784487027,"current_range_meters":6400,"station_id":"ce4bhpp2rcd13ifvqhgg","pricing_plan_id":"cebpf4jnsgd1na2vs0mg"},{"bike_id":"fabad35f-f2f6-4393-b9d5-195f0fc27915","system_id":"levelo_inurba_marseille","lat":43.33024,"lon":5.39044,"is_reserved":false,"is_disabled":false,"rental_uris":{"android":"levelo://app?vid=fabad35f-f2f6-4393-b9d5-195f0fc27915","ios":"levelo://app?vid=fabad35f-f2f6-4393-b9d5-195f0fc27915"},"vehicle_type_id":"4","last_reported":1784487027,"current_range_meters":33200,"station_id":"ce4bhr92rcd13ifvqhrg","pricing_plan_id":"cebpf4jnsgd1na2vs0mg"},{"bike_id":"85eb2811-4819-424b-ba17-04045770e7c5","system_id":"levelo_inurba_marseille","lat":43.29982,"lon":5.37179,"is_reserved":false,"is_disabled":false,"rental_uris":{"android":"levelo://app?vid=85eb2811-4819-424b-ba17-04045770e7c5","ios":"levelo://app?vid=85eb2811-4819-424b-ba17-04045770e7c5"},"vehicle_type_id":"4","last_reported":1784487027,"current_range_meters":8800,"station_id":"ce4bgr92rcd13ifvqc7g","pricing_plan_id":"cebpf4jnsgd1na2vs0mg"},{"bike_id":"22dae175-7f25-43bc-9daf-f7ba5536c470","system_id":"levelo_inurba_marseille","lat":43.28046,"lon":5.35357,"is_reserved":false,"is_disabled":true,"rental_uris":{"android":"levelo://app?vid=22dae175-7f25-43bc-9daf-f7ba5536c470","ios":"levelo://app?vid=22dae175-7f25-43bc-9daf-f7ba5536c470"},"vehicle_type_id":"4","last_reported":1784487027,"current_range_meters":0,"station_id":"","pricing_plan_id":"cebpf4jnsgd1na2vs0mg"},{"bike_id":"1351fc49-0fa6-4ad5-8705-e96c55989486","system_id":"levelo_inurba_marseille","lat":43.29575,"lon":5.37515,"is_reserved":false,"is_disabled":false,"rental_uris":{"android":"levelo://app?vid=1351fc49-0fa6-4ad5-8705-e96c55989486","ios":"levelo://app?vid=1351fc49-0fa6-4ad5-8705-e96c55989486"},"vehicle_type_id":"4","last_reported":1784487027,"current_range_meters":12400,"station_id":"","pricing_plan_id":"cebpf4jnsgd1na2vs0mg"},{"bike_id":"0e8ed7a2-dc9a-45a0-b3fb-c8ec617b127f","system_id":"levelo_inurba_marseille","lat":43.28159,"lon":5.37855,"is_reserved":false,"is_disabled":false,"rental_uris":{"android":"levelo://app?vid=0e8ed7a2-dc9a-45a0-b3fb-c8ec617b127f","ios":"levelo://app?vid=0e8ed7a2-dc9a-45a0-b3fb-c8ec617b127f"},"vehicle_type_id":"4","last_reported":1784487027,"current_range_meters":39200,"station_id":"","pricing_plan_id":"cebpf4jnsgd1na2vs0mg"},{"bike_id":"af9cb856-2a1a-4801-80cc-f305db9e72a7","system_id":"levelo_inurba_marseille","lat":43.25855,"lon":5.40963,"is_reserved":false,"is_disabled":false,"rental_uris":{"android":"levelo://app?vid=af9cb856-2a1a-4801-80cc-f305db9e72a7","ios":"levelo://app?vid=af9cb856-2a1a-4801-80cc-f305db9e72a7"},"vehicle_type_id":"4","last_reported":1784487027,"current_range_meters":36000,"station_id":"","pricing_plan_id":"cebpf4jnsgd1na2vs0mg"},{"bike_id":"979038d2-4fce-48fa-8142-ca9268c5113f","system_id":"levelo_inurba_marseille","lat":43.29193,"lon":5.38465,"is_reserved":false,"is_disabled":false,"rental_uris":{"android":"levelo://app?vid=979038d2-4fce-48fa-8142-ca9268c5113f","ios":"levelo://app?vid=979038d2-4fce-48fa-8142-ca9268c5113f"},"vehicle_type_id":"4","last_reported":1784487027,"current_range_meters":25600,"station_id":"","pricing_plan_id":"cebpf4jnsgd1na2vs0mg"},{"bike_id":"ebed4e51-a17e-4f1e-8fda-f36decd0df85","system_id":"levelo_inurba_marseille","lat":43.29306,"lon":5.37162,"is_reserved":false,"is_disabled":false,"rental_uris":{"android":"levelo://app?vid=ebed4e51-a17e-4f1e-8fda-f36decd0df85","ios":"levelo://app?vid=ebed4e51-a17e-4f1e-8fda-f36decd0df85"},"vehicle_type_id":"4","last_reported":1784487027,"current_range_meters":8000,"station_id":"ce4bgh92rcd13ifvqb40","pricing_plan_id":"cebpf4jnsgd1na2vs0mg"},{"bike_id":"bf92e73f-5ebb-482e-9b16-38b660c0b75a","system_id":"levelo_inurba_marseille","lat":43.21739,"lon":5.34592,"is_reserved":false,"is_disabled":true,"rental_uris":{"android":"levelo://app?vid=bf92e73f-5ebb-482e-9b16-38b660c0b75a","ios":"levelo://app?vid=bf92e73f-5ebb-482e-9b16-38b660c0b75a"},"vehicle_type_id":"4","last_reported":1784487027,"current_range_meters":5600,"station_id":"st_cvj6r9ubvosntc0bgbag","pricing_plan_id":"cebpf4jnsgd1na2vs0mg"},{"bike_id":"98bce0f5-25e4-4db3-b698-d3dcf6d7b213","system_id":"levelo_inurba_marseille","lat":43.24859,"lon":5.37386,"is_reserved":false,"is_disabled":false,"rental_uris":{"android":"levelo://app?vid=98bce0f5-25e4-4db3-b698-d3dcf6d7b213","ios":"levelo://app?vid=98bce0f5-25e4-4db3-b698-d3dcf6d7b213"},"vehicle_type_id":"4","last_reported":1784487027,"current_range_meters":20400,"station_id":"","pricing_plan_id":"cebpf4jnsgd1na2vs0mg"},{"bike_id":"0ccdd5d1-13a3-4cc4-beee-acb9a334278d","system_id":"levelo_inurba_marseille","lat":43.23201,"lon":5.35553,"is_reserved":false,"is_disabled":false,"rental_uris":{"android":"levelo://app?vid=0ccdd5d1-13a3-4cc4-beee-acb9a334278d","ios":"levelo://app?vid=0ccdd5d1-13a3-4cc4-beee-acb9a334278d"},"vehicle_type_id":"4","last_reported":1784487027,"current_range_meters":39200,"station_id":"ce4bhu92rcd13ifvqi70","pricing_plan_id":"cebpf4jnsgd1na2vs0mg"},{"bike_id":"ed25373e-a7cc-4ffa-bb01-0b8e073362da","system_id":"levelo_inurba_marseille","lat":43.31188,"lon":5.36842,"is_reserved":false,"is_disabled":false,"rental_uris":{"android":"levelo://app?vid=ed25373e-a7cc-4ffa-bb01-0b8e073362da","ios":"levelo://app?vid=ed25373e-a7cc-4ffa-bb01-0b8e073362da"},"vehicle_type_id":"4","last_reported":1784487027,"current_range_meters":37600,"station_id":"ce4bgl92rcd13ifvqbq0","pricing_plan_id":"cebpf4jnsgd1na2vs0mg"},{"bike_id":"3d1f91e4-0d82-4db7-9720-00bc6ccd190f","system_id":"levelo_inurba_marseille","lat":43.28267,"lon":5.35071,"is_reserved":false,"is_disabled":true,"rental_uris":{"android":"levelo://app?vid=3d1f91e4-0d82-4db7-9720-00bc6ccd190f","ios":"levelo://app?vid=3d1f91e4-0d82-4db7-9720-00bc6ccd190f"},"vehicle_type_id":"4","last_reported":1784487027,"current_range_meters":0,"station_id":"ce4bhbp2rcd13ifvqerg","pricing_plan_id":"cebpf4jnsgd1na2vs0mg"},{"bike_id":"3ce46721-3bce-4a5c-a8cf-0762eca1ee9b","system_id":"levelo_inurba_marseille","lat":43.32489,"lon":5.36583,"is_reserved":false,"is_disabled":false,"rental_uris":{"android":"levelo://app?vid=3ce46721-3bce-4a5c-a8cf-0762eca1ee9b","ios":"levelo://app?vid=3ce46721-3bce-4a5c-a8cf-0762eca1ee9b"},"vehicle_type_id":"4","last_reported":1784487027,"current_range_meters":37600,"station_id":"ce4bhs12rcd13ifvqhvg","pricing_plan_id":"cebpf4jnsgd1na2vs0mg"},{"bike_id":"cb83cb54-d7e2-4e4c-b01d-6084c5ef1f75","system_id":"levelo_inurba_marseille","lat":43.26666,"lon":5.38277,"is_reserved":false,"is_disabled":false,"rental_uris":{"android":"levelo://app?vid=cb83cb54-d7e2-4e4c-b01d-6084c5ef1f75","ios":"levelo://app?vid=cb83cb54-d7e2-4e4c-b01d-6084c5ef1f75"},"vehicle_type_id":"4","last_reported":1784487027,"current_range_meters":39200,"station_id":"ce4bhg92rcd13ifvqf90","pricing_plan_id":"cebpf4jnsgd1na2vs0mg"},{"bike_id":"bf94bbb1-0344-4a40-9e3a-5c4e2673d65c","system_id":"levelo_inurba_marseille","lat":43.29928,"lon":5.36541,"is_reserved":false,"is_disabled":false,"rental_uris":{"android":"levelo://app?vid=bf94bbb1-0344-4a40-9e3a-5c4e2673d65c","ios":"levelo://app?vid=bf94bbb1-0344-4a40-9e3a-5c4e2673d65c"},"vehicle_type_id":"4","last_reported":1784487027,"current_range_meters":30800,"station_id":"ce4bgm92rcd13ifvqbr0","pricing_plan_id":"cebpf4jnsgd1na2vs0mg"},{"bike_id":"e33e7e56-b1af-4e57-9514-4de84c42a5c6","system_id":"levelo_inurba_marseille","lat":43.23969,"lon":5.36616,"is_reserved":false,"is_disabled":true,"rental_uris":{"android":"levelo://app?vid=e33e7e56-b1af-4e57-9514-4de84c42a5c6","ios":"levelo://app?vid=e33e7e56-b1af-4e57-9514-4de84c42a5c6"},"vehicle_type_id":"4","last_reported":1784487027,"current_range_meters":20800,"station_id":"ce4bhi12rcd13ifvqfp0","pricing_plan_id":"cebpf4jnsgd1na2vs0mg"},{"bike_id":"bfcc0ca0-f355-498d-b2f0-f14d7dc602fc","system_id":"levelo_inurba_marseille","lat":43.3212,"lon":5.36753,"is_reserved":false,"is_disabled":false,"rental_uris":{"android":"levelo://app?vid=bfcc0ca0-f355-498d-b2f0-f14d7dc602fc","ios":"levelo://app?vid=bfcc0ca0-f355-498d-b2f0-f14d7dc602fc"},"vehicle_type_id":"4","last_reported":1784487027,"current_range_meters":6800,"station_id":"ce4bhrh2rcd13ifvqhug","pricing_plan_id":"cebpf4jnsgd1na2vs0mg"},{"bike_id":"7604574c-06cb-407e-9e16-b7858411e1bc","system_id":"levelo_inurba_marseille","lat":43.27811,"lon":5.40718,"is_reserved":false,"is_disabled":true,"rental_uris":{"android":"levelo://app?vid=7604574c-06cb-407e-9e16-b7858411e1bc","ios":"levelo://app?vid=7604574c-06cb-407e-9e16-b7858411e1bc"},"vehicle_type_id":"4","last_reported":1784487027,"current_range_meters":15200,"station_id":"ce4bhnh2rcd13ifvqgtg","pricing_plan_id":"cebpf4jnsgd1na2vs0mg"},{"bike_id":"600d3649-4b6d-473c-a715-d27921e00684","system_id":"levelo_inurba_marseille","lat":43.23199,"lon":5.3555,"is_reserved":false,"is_disabled":false,"rental_uris":{"android":"levelo://app?vid=600d3649-4b6d-473c-a715-d27921e00684","ios":"levelo://app?vid=600d3649-4b6d-473c-a715-d27921e00684"},"vehicle_type_id":"4","last_reported":1784487027,"current_range_meters":17600,"station_id":"ce4bhu92rcd13ifvqi70","pricing_plan_id":"cebpf4jnsgd1na2vs0mg"},{"bike_id":"4f5d180b-7df1-4bec-b4f8-45c82ca3cddb","system_id":"levelo_inurba_marseille","lat":43.28482,"lon":5.48388,"is_reserved":false,"is_disabled":false,"rental_uris":{"android":"levelo://app?vid=4f5d180b-7df1-4bec-b4f8-45c82ca3cddb","ios":"levelo://app?vid=4f5d180b-7df1-4bec-b4f8-45c82ca3cddb"},"vehicle_type_id":"4","last_reported":1784487027,"current_range_meters":26000,"station_id":"st_d3svhcjqgbts73a3dn0g","pricing_plan_id":"cebpf4jnsgd1na2vs0mg"},{"bike_id":"8601b829-59f8-4eab-bab2-2f8e891d8617","system_id":"levelo_inurba_marseille","lat":43.254993,"lon":5.376487,"is_reserved":false,"is_disabled":false,"rental_uris":{"android":"levelo://app?vid=8601b829-59f8-4eab-bab2-2f8e891d8617","ios":"levelo://app?vid=8601b829-59f8-4eab-bab2-2f8e891d8617"},"vehicle_type_id":"4","last_reported":1784487027,"current_range_meters":19600,"station_id":"ce4bhh12rcd13ifvqff0","pricing_plan_id":"cebpf4jnsgd1na2vs0mg"},{"bike_id":"0490f226-b483-4853-9f88-dbb9523f570a","system_id":"levelo_inurba_marseille","lat":43.3089,"lon":5.39622,"is_reserved":false,"is_disabled":false,"rental_uris":{"android":"levelo://app?vid=0490f226-b483-4853-9f88-dbb9523f570a","ios":"levelo://app?vid=0490f226-b483-4853-9f88-dbb9523f570a"},"vehicle_type_id":"4","last_reported":1784487027,"current_range_meters":39200,"station_id":"ce4bh012rcd13ifvqcv0","pricing_plan_id":"cebpf4jnsgd1na2vs0mg"},{"bike_id":"05060649-1159-4341-98f1-9ef049a36f15","system_id":"levelo_inurba_marseille","lat":43.23889,"lon":5.3746,"is_reserved":false,"is_disabled":false,"rental_uris":{"android":"levelo://app?vid=05060649-1159-4341-98f1-9ef049a36f15","ios":"levelo://app?vid=05060649-1159-4341-98f1-9ef049a36f15"},"vehicle_type_id":"4","last_reported":1784487027,"current_range_meters":38800,"station_id":"st_d6sm7csbq4hs73f8fpjg","pricing_plan_id":"cebpf4jnsgd1na2vs0mg"},{"bike_id":"c7addd33-290f-4176-a36c-890bb30e3259","system_id":"levelo_inurba_marseille","lat":43.2801,"lon":5.40003,"is_reserved":false,"is_disabled":false,"rental_uris":{"android":"levelo://app?vid=c7addd33-290f-4176-a36c-890bb30e3259","ios":"levelo://app?vid=c7addd33-290f-4176-a36c-890bb30e3259"},"vehicle_type_id":"4","last_reported":1784487027,"current_range_meters":38000,"station_id":"ce4bho92rcd13ifvqh4g","pricing_plan_id":"cebpf4jnsgd1na2vs0mg"},{"bike_id":"349956d7-c459-4025-938f-b27a7521a569","system_id":"levelo_inurba_marseille","lat":43.21729,"lon":5.3461,"is_reserved":false,"is_disabled":false,"rental_uris":{"android":"levelo://app?vid=349956d7-c459-4025-938f-b27a7521a569","ios":"levelo://app?vid=349956d7-c459-4025-938f-b27a7521a569"},"vehicle_type_id":"4","last_reported":1784487027,"current_range_meters":33200,"station_id":"st_cvj6r9ubvosntc0bgbag","pricing_plan_id":"cebpf4jnsgd1na2vs0mg"},{"bike_id":"aa8a415e-e9f4-48fb-a252-141995110c66","system_id":"levelo_inurba_marseille","lat":43.29537,"lon":5.37503,"is_reserved":false,"is_disabled":false,"rental_uris":{"android":"levelo://app?vid=aa8a415e-e9f4-48fb-a252-141995110c66","ios":"levelo://app?vid=aa8a415e-e9f4-48fb-a252-141995110c66"},"vehicle_type_id":"4","last_reported":1784487027,"current_range_meters":22000,"station_id":"ce4bgkp2rcd13ifvqbmg","pricing_plan_id":"cebpf4jnsgd1na2vs0mg"},{"bike_id":"9df5e7f3-1cb9-43a4-9683-68d4da00ac21","system_id":"levelo_inurba_marseille","lat":43.24903,"lon":5.38855,"is_reserved":false,"is_disabled":false,"rental_uris":{"android":"levelo://app?vid=9df5e7f3-1cb9-43a4-9683-68d4da00ac21","ios":"levelo://app?vid=9df5e7f3-1cb9-43a4-9683-68d4da00ac21"},"vehicle_type_id":"4","last_reported":1784487027,"current_range_meters":10000,"station_id":"","pricing_plan_id":"cebpf4jnsgd1na2vs0mg"},{"bike_id":"5450c789-a3b5-4b2b-b675-738dbe9d501d","system_id":"levelo_inurba_marseille","lat":43.26192,"lon":5.37463,"is_reserved":false,"is_disabled":false,"rental_uris":{"android":"levelo://app?vid=5450c789-a3b5-4b2b-b675-738dbe9d501d","ios":"levelo://app?vid=5450c789-a3b5-4b2b-b675-738dbe9d501d"},"vehicle_type_id":"4","last_reported":1784487027,"current_range_meters":37600,"station_id":"ce4bhgp2rcd13ifvqfc0","pricing_plan_id":"cebpf4jnsgd1na2vs0mg"},{"bike_id":"7f583a3a-11c6-47a8-aaca-557ad999a980","system_id":"levelo_inurba_marseille","lat":43.29019,"lon":5.3864,"is_reserved":false,"is_disabled":false,"rental_uris":{"android":"levelo://app?vid=7f583a3a-11c6-47a8-aaca-557ad999a980","ios":"levelo://app?vid=7f583a3a-11c6-47a8-aaca-557ad999a980"},"vehicle_type_id":"4","last_reported":1784487027,"current_range_meters":38400,"station_id":"ce4bh4p2rcd13ifvqe0g","pricing_plan_id":"cebpf4jnsgd1na2vs0mg"},{"bike_id":"6dcae072-db9d-47d6-8753-8b202b7aab14","system_id":"levelo_inurba_marseille","lat":43.26391,"lon":5.41033,"is_reserved":false,"is_disabled":false,"rental_uris":{"android":"levelo://app?vid=6dcae072-db9d-47d6-8753-8b202b7aab14","ios":"levelo://app?vid=6dcae072-db9d-47d6-8753-8b202b7aab14"},"vehicle_type_id":"4","last_reported":1784487027,"current_range_meters":27600,"station_id":"","pricing_plan_id":"cebpf4jnsgd1na2vs0mg"},{"bike_id":"4deb96f7-77bc-4d03-b05f-9badc81e8841","system_id":"levelo_inurba_marseille","lat":43.225225,"lon":5.34832,"is_reserved":false,"is_disabled":false,"rental_uris":{"android":"levelo://app?vid=4deb96f7-77bc-4d03-b05f-9badc81e8841","ios":"levelo://app?vid=4deb96f7-77bc-4d03-b05f-9badc81e8841"},"vehicle_type_id":"4","last_reported":1784487027,"current_range_meters":14800,"station_id":"st_cvj5dfep6f1abm77gieg","pricing_plan_id":"cebpf4jnsgd1na2vs0mg"},{"bike_id":"659a68bc-86a6-4daf-9f1f-d3e7a32b91b8","system_id":"levelo_inurba_marseille","lat":43.23196,"lon":5.35572,"is_reserved":false,"is_disabled":false,"rental_uris":{"android":"levelo://app?vid=659a68bc-86a6-4daf-9f1f-d3e7a32b91b8","ios":"levelo://app?vid=659a68bc-86a6-4daf-9f1f-d3e7a32b91b8"},"vehicle_type_id":"4","last_reported":1784487027,"current_range_meters":36000,"station_id":"ce4bhu92rcd13ifvqi70","pricing_plan_id":"cebpf4jnsgd1na2vs0mg"},{"bike_id":"ac0c2642-05da-4ffe-9a20-63664581cb82","system_id":"levelo_inurba_marseille","lat":43.29547,"lon":5.38527,"is_reserved":false,"is_disabled":false,"rental_uris":{"android":"levelo://app?vid=ac0c2642-05da-4ffe-9a20-63664581cb82","ios":"levelo://app?vid=ac0c2642-05da-4ffe-9a20-63664581cb82"},"vehicle_type_id":"4","last_reported":1784487027,"current_range_meters":20800,"station_id":"ce4bgih2rcd13ifvqba0","pricing_plan_id":"cebpf4jnsgd1na2vs0mg"},{"bike_id":"de0708e4-f073-49f7-a6bd-13277f9be13d","system_id":"levelo_inurba_marseille","lat":43.29223,"lon":5.36032,"is_reserved":false,"is_disabled":false,"rental_uris":{"android":"levelo://app?vid=de0708e4-f073-49f7-a6bd-13277f9be13d","ios":"levelo://app?vid=de0708e4-f073-49f7-a6bd-13277f9be13d"},"vehicle_type_id":"4","last_reported":1784487027,"current_range_meters":6400,"station_id":"","pricing_plan_id":"cebpf4jnsgd1na2vs0mg"},{"bike_id":"0b9a8051-de27-4642-9944-0d7422b17bff","system_id":"levelo_inurba_marseille","lat":43.29315,"lon":5.3718,"is_reserved":false,"is_disabled":false,"rental_uris":{"android":"levelo://app?vid=0b9a8051-de27-4642-9944-0d7422b17bff","ios":"levelo://app?vid=0b9a8051-de27-4642-9944-0d7422b17bff"},"vehicle_type_id":"4","last_reported":1784487027,"current_range_meters":6400,"station_id":"ce4bgh92rcd13ifvqb40","pricing_plan_id":"cebpf4jnsgd1na2vs0mg"},{"bike_id":"836e30ce-dfad-46d2-869d-bd9dedaa1944","system_id":"levelo_inurba_marseille","lat":43.27005,"lon":5.38856,"is_reserved":false,"is_disabled":false,"rental_uris":{"android":"levelo://app?vid=836e30ce-dfad-46d2-869d-bd9dedaa1944","ios":"levelo://app?vid=836e30ce-dfad-46d2-869d-bd9dedaa1944"},"vehicle_type_id":"4","last_reported":1784487027,"current_range_meters":39200,"station_id":"","pricing_plan_id":"cebpf4jnsgd1na2vs0mg"},{"bike_id":"0fd64a27-ac7d-4f5f-833c-0919e9d92b60","system_id":"levelo_inurba_marseille","lat":43.21196,"lon":5.35065,"is_reserved":false,"is_disabled":false,"rental_uris":{"android":"levelo://app?vid=0fd64a27-ac7d-4f5f-833c-0919e9d92b60","ios":"levelo://app?vid=0fd64a27-ac7d-4f5f-833c-0919e9d92b60"},"vehicle_type_id":"4","last_reported":1784487027,"current_range_meters":9600,"station_id":"st_cvj6sg6p6f1abm77japg","pricing_plan_id":"cebpf4jnsgd1na2vs0mg"},{"bike_id":"6e2d7e69-8df1-40a6-90f7-e69b5c931535","system_id":"levelo_inurba_marseille","lat":43.229331,"lon":5.353792,"is_reserved":false,"is_disabled":false,"rental_uris":{"android":"levelo://app?vid=6e2d7e69-8df1-40a6-90f7-e69b5c931535","ios":"levelo://app?vid=6e2d7e69-8df1-40a6-90f7-e69b5c931535"},"vehicle_type_id":"4","last_reported":1784487027,"current_range_meters":22000,"station_id":"st_cvj5dfep6f1abm77gieg","pricing_plan_id":"cebpf4jnsgd1na2vs0mg"},{"bike_id":"d3b82640-d84c-42c7-8c57-b5a14f4fcab5","system_id":"levelo_inurba_marseille","lat":43.30887,"lon":5.37179,"is_reserved":false,"is_disabled":false,"rental_uris":{"android":"levelo://app?vid=d3b82640-d84c-42c7-8c57-b5a14f4fcab5","ios":"levelo://app?vid=d3b82640-d84c-42c7-8c57-b5a14f4fcab5"},"vehicle_type_id":"4","last_reported":1784487027,"current_range_meters":30800,"station_id":"ce4bguh2rcd13ifvqckg","pricing_plan_id":"cebpf4jnsgd1na2vs0mg"},{"bike_id":"caee839e-3dfa-4533-aac6-88c6d8bfd134","system_id":"levelo_inurba_marseille","lat":43.31129,"lon":5.46438,"is_reserved":false,"is_disabled":false,"rental_uris":{"android":"levelo://app?vid=caee839e-3dfa-4533-aac6-88c6d8bfd134","ios":"levelo://app?vid=caee839e-3dfa-4533-aac6-88c6d8bfd134"},"vehicle_type_id":"4","last_reported":1784487027,"current_range_meters":12000,"station_id":"","pricing_plan_id":"cebpf4jnsgd1na2vs0mg"},{"bike_id":"532fbce2-449e-43f6-90f1-86ad9a42900c","system_id":"levelo_inurba_marseille","lat":43.290426,"lon":5.359156,"is_reserved":false,"is_disabled":false,"rental_uris":{"android":"levelo://app?vid=532fbce2-449e-43f6-90f1-86ad9a42900c","ios":"levelo://app?vid=532fbce2-449e-43f6-90f1-86ad9a42900c"},"vehicle_type_id":"4","last_reported":1784487027,"current_range_meters":20000,"station_id":"ce4bhch2rcd13ifvqeug","pricing_plan_id":"cebpf4jnsgd1na2vs0mg"},{"bike_id":"8441b51a-06f0-4242-bdd8-8bb1509f3a6b","system_id":"levelo_inurba_marseille","lat":43.31898,"lon":5.36822,"is_reserved":false,"is_disabled":false,"rental_uris":{"android":"levelo://app?vid=8441b51a-06f0-4242-bdd8-8bb1509f3a6b","ios":"levelo://app?vid=8441b51a-06f0-4242-bdd8-8bb1509f3a6b"},"vehicle_type_id":"4","last_reported":1784487027,"current_range_meters":22000,"station_id":"st_d6o2h0d0559c73evc1b0","pricing_plan_id":"cebpf4jnsgd1na2vs0mg"},{"bike_id":"50aa6815-cb65-48bd-999a-1d2dfbbe24c7","system_id":"levelo_inurba_marseille","lat":43.28567,"lon":5.48394,"is_reserved":false,"is_disabled":false,"rental_uris":{"android":"levelo://app?vid=50aa6815-cb65-48bd-999a-1d2dfbbe24c7","ios":"levelo://app?vid=50aa6815-cb65-48bd-999a-1d2dfbbe24c7"},"vehicle_type_id":"4","last_reported":1784487027,"current_range_meters":37600,"station_id":"st_d3svhcjqgbts73a3dn0g","pricing_plan_id":"cebpf4jnsgd1na2vs0mg"},{"bike_id":"9bb0fd1c-c37f-4b19-9d13-0a17680fd6fb","system_id":"levelo_inurba_marseille","lat":43.32109,"lon":5.36773,"is_reserved":false,"is_disabled":false,"rental_uris":{"android":"levelo://app?vid=9bb0fd1c-c37f-4b19-9d13-0a17680fd6fb","ios":"levelo://app?vid=9bb0fd1c-c37f-4b19-9d13-0a17680fd6fb"},"vehicle_type_id":"4","last_reported":1784487027,"current_range_meters":22400,"station_id":"ce4bhrh2rcd13ifvqhug","pricing_plan_id":"cebpf4jnsgd1na2vs0mg"},{"bike_id":"db12e44a-408d-4c00-b7a0-6212d324c015","system_id":"levelo_inurba_marseille","lat":43.25625,"lon":5.40475,"is_reserved":false,"is_disabled":false,"rental_uris":{"android":"levelo://app?vid=db12e44a-408d-4c00-b7a0-6212d324c015","ios":"levelo://app?vid=db12e44a-408d-4c00-b7a0-6212d324c015"},"vehicle_type_id":"4","last_reported":1784487027,"current_range_meters":37600,"station_id":"","pricing_plan_id":"cebpf4jnsgd1na2vs0mg"},{"bike_id":"24edfabe-0d7c-415b-8cf6-84bf60d5e889","system_id":"levelo_inurba_marseille","lat":43.27,"lon":5.42819,"is_reserved":false,"is_disabled":false,"rental_uris":{"android":"levelo://app?vid=24edfabe-0d7c-415b-8cf6-84bf60d5e889","ios":"levelo://app?vid=24edfabe-0d7c-415b-8cf6-84bf60d5e889"},"vehicle_type_id":"4","last_reported":1784487027,"current_range_meters":8400,"station_id":"","pricing_plan_id":"cebpf4jnsgd1na2vs0mg"},{"bike_id":"63aba526-0dcb-4f3e-8a6d-41ffc686cecc","system_id":"levelo_inurba_marseille","lat":43.29789,"lon":5.38109,"is_reserved":false,"is_disabled":false,"rental_uris":{"android":"levelo://app?vid=63aba526-0dcb-4f3e-8a6d-41ffc686cecc","ios":"levelo://app?vid=63aba526-0dcb-4f3e-8a6d-41ffc686cecc"},"vehicle_type_id":"4","last_reported":1784487027,"current_range_meters":24800,"station_id":"ce4bgip2rcd13ifvqbb0","pricing_plan_id":"cebpf4jnsgd1na2vs0mg"},{"bike_id":"5dc791db-6166-4056-a0fa-10fea7344f47","system_id":"levelo_inurba_marseille","lat":43.28105,"lon":5.37833,"is_reserved":false,"is_disabled":false,"rental_uris":{"android":"levelo://app?vid=5dc791db-6166-4056-a0fa-10fea7344f47","ios":"levelo://app?vid=5dc791db-6166-4056-a0fa-10fea7344f47"},"vehicle_type_id":"4","last_reported":1784487027,"current_range_meters":39200,"station_id":"ce4bha12rcd13ifvqee0","pricing_plan_id":"cebpf4jnsgd1na2vs0mg"},{"bike_id":"2f652b43-90a7-4542-ae60-4f4b269e0dbc","system_id":"levelo_inurba_marseille","lat":43.286121,"lon":5.35114,"is_reserved":false,"is_disabled":false,"rental_uris":{"android":"levelo://app?vid=2f652b43-90a7-4542-ae60-4f4b269e0dbc","ios":"levelo://app?vid=2f652b43-90a7-4542-ae60-4f4b269e0dbc"},"vehicle_type_id":"4","last_reported":1784487027,"current_range_meters":8000,"station_id":"ce4bhch2rcd13ifvqeug","pricing_plan_id":"cebpf4jnsgd1na2vs0mg"},{"bike_id":"ac3567eb-e185-4fbe-81bd-9f09b6c9a035","system_id":"levelo_inurba_marseille","lat":43.2926,"lon":5.37591,"is_reserved":false,"is_disabled":true,"rental_uris":{"android":"levelo://app?vid=ac3567eb-e185-4fbe-81bd-9f09b6c9a035","ios":"levelo://app?vid=ac3567eb-e185-4fbe-81bd-9f09b6c9a035"},"vehicle_type_id":"4","last_reported":1784487027,"current_range_meters":800,"station_id":"ce4bgi12rcd13ifvqb80","pricing_plan_id":"cebpf4jnsgd1na2vs0mg"},{"bike_id":"a86deb64-24a8-41a6-a9c7-d169fc97becf","system_id":"levelo_inurba_marseille","lat":43.33759,"lon":5.37448,"is_reserved":false,"is_disabled":false,"rental_uris":{"android":"levelo://app?vid=a86deb64-24a8-41a6-a9c7-d169fc97becf","ios":"levelo://app?vid=a86deb64-24a8-41a6-a9c7-d169fc97becf"},"vehicle_type_id":"4","last_reported":1784487027,"current_range_meters":27200,"station_id":"","pricing_plan_id":"cebpf4jnsgd1na2vs0mg"},{"bike_id":"109edf4f-22d5-4918-8a37-52e5a5c95481","system_id":"levelo_inurba_marseille","lat":43.27512,"lon":5.4159,"is_reserved":false,"is_disabled":false,"rental_uris":{"android":"levelo://app?vid=109edf4f-22d5-4918-8a37-52e5a5c95481","ios":"levelo://app?vid=109edf4f-22d5-4918-8a37-52e5a5c95481"},"vehicle_type_id":"4","last_reported":1784487027,"current_range_meters":40000,"station_id":"st_d6im8g6chgec73a5pndg","pricing_plan_id":"cebpf4jnsgd1na2vs0mg"},{"bike_id":"238dad80-3ae6-42e5-969d-e4cc9287131c","system_id":"levelo_inurba_marseille","lat":43.31894,"lon":5.36818,"is_reserved":false,"is_disabled":false,"rental_uris":{"android":"levelo://app?vid=238dad80-3ae6-42e5-969d-e4cc9287131c","ios":"levelo://app?vid=238dad80-3ae6-42e5-969d-e4cc9287131c"},