{"last_updated":1726049358,"ttl":30,"version":"2.2","data":{"bikes":[{"bike_id":"61ec69dc-0887-45a0-9a18-564e7d706b0b","system_id":"levelo_inurba_marseille","lat":43.24079,"lon":5.37738,"is_reserved":false,"is_disabled":false,"rental_uris":{"android":"levelo://app?vid=61ec69dc-0887-45a0-9a18-564e7d706b0b","ios":"levelo://app?vid=61ec69dc-0887-45a0-9a18-564e7d706b0b"},"vehicle_type_id":"4","last_reported":1726049358,"current_range_meters":28400,"station_id":"ce4bhnp2rcd13ifvqgvg","pricing_plan_id":"cebpf4jnsgd1na2vs0mg"},{"bike_id":"f56f0c93-bf77-4e54-9e0a-65b6b35b836b","system_id":"levelo_inurba_marseille","lat":43.25927,"lon":5.40877,"is_reserved":false,"is_disabled":false,"rental_uris":{"android":"levelo://app?vid=f56f0c93-bf77-4e54-9e0a-65b6b35b836b","ios":"levelo://app?vid=f56f0c93-bf77-4e54-9e0a-65b6b35b836b"},"vehicle_type_id":"4","last_reported":1726049358,"current_range_meters":11600,"station_id":"ce4bhm92rcd13ifvqglg","pricing_plan_id":"cebpf4jnsgd1na2vs0mg"},{"bike_id":"122094f1-0851-4d9d-bafa-d078064ce27d","system_id":"levelo_inurba_marseille","lat":43.301144,"lon":5.387918,"is_reserved":false,"is_disabled":false,"rental_uris":{"android":"levelo://app?vid=122094f1-0851-4d9d-bafa-d078064ce27d","ios":"levelo://app?vid=122094f1-0851-4d9d-bafa-d078064ce27d"},"vehicle_type_id":"4","last_reported":1726049358,"current_range_meters":33200,"station_id":"","pricing_plan_id":"cebpf4jnsgd1na2vs0mg"},{"bike_id":"2fd862b8-b2e1-47f9-bebb-44e9e3518085","system_id":"levelo_inurba_marseille","lat":43.2956,"lon":5.42284,"is_reserved":false,"is_disabled":false,"rental_uris":{"android":"levelo://app?vid=2fd862b8-b2e1-47f9-bebb-44e9e3518085","ios":"levelo://app?vid=2fd862b8-b2e1-47f9-bebb-44e9e3518085"},"vehicle_type_id":"4","last_reported":1726049358,"current_range_meters":34000,"station_id":"ce4bhph2rcd13ifvqhdg","pricing_plan_id":"cebpf4jnsgd1na2vs0mg"},{"bike_id":"b8ada792-75a7-4bd2-a45b-0503cca8388f","system_id":"levelo_inurba_marseille","lat":43.27493,"lon":5.42477,"is_reserved":false,"is_disabled":false,"rental_uris":{"android":"levelo://app?vid=b8ada792-75a7-4bd2-a45b-0503cca8388f","ios":"levelo://app?vid=b8ada792-75a7-4bd2-a45b-0503cca8388f"},"vehicle_type_id":"4","last_reported":1726049358,"current_range_meters":32000,"station_id":"ce4bhn92rcd13ifvqgrg","pricing_plan_id":"cebpf4jnsgd1na2vs0mg"},{"bike_id":"9197cc2f-e540-4acf-94c3-d2bc11595335","system_id":"levelo_inurba_marseille","lat":43.30535,"lon":5.38434,"is_reserved":false,"is_disabled":false,"rental_uris":{"android":"levelo://app?vid=9197cc2f-e540-4acf-94c3-d2bc11595335","ios":"levelo://app?vid=9197cc2f-e540-4acf-94c3-d2bc11595335"},"vehicle_type_id":"4","last_reported":1726049358,"current_range_meters":38800,"station_id":"ce4bgg92rcd13ifvqb30","pricing_plan_id":"cebpf4jnsgd1na2vs0mg"},{"bike_id":"74df2840-b8f2-454e-b98d-f9de8a15646c","system_id":"levelo_inurba_marseille","lat":43.24078,"lon":5.3775,"is_reserved":false,"is_disabled":false,"rental_uris":{"android":"levelo://app?vid=74df2840-b8f2-454e-b98d-f9de8a15646c","ios":"levelo://app?vid=74df2840-b8f2-454e-b98d-f9de8a15646c"},"vehicle_type_id":"4","last_reported":1726049358,"current_range_meters":32400,"station_id":"ce4bhnp2rcd13ifvqgvg","pricing_plan_id":"cebpf4jnsgd1na2vs0mg"},{"bike_id":"3d861359-aa19-4d0f-ac3e-56e7ed5f5f97","system_id":"levelo_inurba_marseille","lat":43.30888,"lon":5.37201,"is_reserved":false,"is_disabled":false,"rental_uris":{"android":"levelo://app?vid=3d861359-aa19-4d0f-ac3e-56e7ed5f5f97","ios":"levelo://app?vid=3d861359-aa19-4d0f-ac3e-56e7ed5f5f97"},"vehicle_type_id":"4","last_reported":1726049358,"current_range_meters":8400,"station_id":"ce4bguh2rcd13ifvqckg","pricing_plan_id":"cebpf4jnsgd1na2vs0mg"},{"bike_id":"343f8a7b-c84d-46f3-98b4-8253eb0833f1","system_id":"levelo_inurba_marseille","lat":43.29555,"lon":5.42285,"is_reserved":false,"is_disabled":false,"rental_uris":{"android":"levelo://app?vid=343f8a7b-c84d-46f3-98b4-8253eb0833f1","ios":"levelo://app?vid=343f8a7b-c84d-46f3-98b4-8253eb0833f1"},"vehicle_type_id":"4","last_reported":1726049358,"current_range_meters":7200,"station_id":"ce4bhph2rcd13ifvqhdg","pricing_plan_id":"cebpf4jnsgd1na2vs0mg"},{"bike_id":"12cebb0e-7cfd-4816-a1b2-6ce7ace2ec48","system_id":"levelo_inurba_marseille","lat":43.27072,"lon":5.42285,"is_reserved":false,"is_disabled":false,"rental_uris":{"android":"levelo://app?vid=12cebb0e-7cfd-4816-a1b2-6ce7ace2ec48","ios":"levelo://app?vid=12cebb0e-7cfd-4816-a1b2-6ce7ace2ec48"},"vehicle_type_id":"4","last_reported":1726049358,"current_range_meters":39200,"station_id":"ce4bhk92rcd13ifvqgb0","pricing_plan_id":"cebpf4jnsgd1na2vs0mg"},{"bike_id":"4ce74c84-1642-4e51-a70f-c3d818efe52d","system_id":"levelo_inurba_marseille","lat":43.30088,"lon":5.39077,"is_reserved":false,"is_disabled":false,"rental_uris":{"android":"levelo://app?vid=4ce74c84-1642-4e51-a70f-c3d818efe52d","ios":"levelo://app?vid=4ce74c84-1642-4e51-a70f-c3d818efe52d"},"vehicle_type_id":"4","last_reported":1726049358,"current_range_meters":31200,"station_id":"ce4bh192rcd13ifvqdb0","pricing_plan_id":"cebpf4jnsgd1na2vs0mg"},{"bike_id":"1cb960ff-e13b-4967-96c3-9bb678092963","system_id":"levelo_inurba_marseille","lat":43.29732,"lon":5.37699,"is_reserved":false,"is_disabled":false,"rental_uris":{"android":"levelo://app?vid=1cb960ff-e13b-4967-96c3-9bb678092963","ios":"levelo://app?vid=1cb960ff-e13b-4967-96c3-9bb678092963"},"vehicle_type_id":"4","last_reported":1726049358,"current_range_meters":32800,"station_id":"ce4bgkh2rcd13ifvqbl0","pricing_plan_id":"cebpf4jnsgd1na2vs0mg"},{"bike_id":"f9e09b67-3554-4f00-8f5e-43815f704dda","system_id":"levelo_inurba_marseille","lat":43.31347,"lon":5.36711,"is_reserved":false,"is_disabled":false,"rental_uris":{"android":"levelo://app?vid=f9e09b67-3554-4f00-8f5e-43815f704dda","ios":"levelo://app?vid=f9e09b67-3554-4f00-8f5e-43815f704dda"},"vehicle_type_id":"4","last_reported":1726049358,"current_range_meters":28400,"station_id":"ce4bgr92rcd13ifvqc6g","pricing_plan_id":"cebpf4jnsgd1na2vs0mg"},{"bike_id":"99d633d7-3557-42a6-a763-a214f5851f3a","system_id":"levelo_inurba_marseille","lat":43.32369,"lon":5.38886,"is_reserved":false,"is_disabled":false,"rental_uris":{"android":"levelo://app?vid=99d633d7-3557-42a6-a763-a214f5851f3a","ios":"levelo://app?vid=99d633d7-3557-42a6-a763-a214f5851f3a"},"vehicle_type_id":"4","last_reported":1726049358,"current_range_meters":38800,"station_id":"ce4bhqp2rcd13ifvqhog","pricing_plan_id":"cebpf4jnsgd1na2vs0mg"},{"bike_id":"d02d6740-b6de-4487-a048-a0fcd35b8dee","system_id":"levelo_inurba_marseille","lat":43.23144,"lon":5.43712,"is_reserved":false,"is_disabled":false,"rental_uris":{"android":"levelo://app?vid=d02d6740-b6de-4487-a048-a0fcd35b8dee","ios":"levelo://app?vid=d02d6740-b6de-4487-a048-a0fcd35b8dee"},"vehicle_type_id":"4","last_reported":1726049358,"current_range_meters":39200,"station_id":"ce4bhmp2rcd13ifvqgog","pricing_plan_id":"cebpf4jnsgd1na2vs0mg"},{"bike_id":"d04640fb-a570-46d0-8d32-d3feda4842ea","system_id":"levelo_inurba_marseille","lat":43.28616,"lon":5.35101,"is_reserved":false,"is_disabled":false,"rental_uris":{"android":"levelo://app?vid=d04640fb-a570-46d0-8d32-d3feda4842ea","ios":"levelo://app?vid=d04640fb-a570-46d0-8d32-d3feda4842ea"},"vehicle_type_id":"4","last_reported":1726049358,"current_range_meters":11200,"station_id":"ce4bhch2rcd13ifvqeug","pricing_plan_id":"cebpf4jnsgd1na2vs0mg"},{"bike_id":"b0c418e3-7076-4b48-86c9-8b078567e702","system_id":"levelo_inurba_marseille","lat":43.24084,"lon":5.37741,"is_reserved":false,"is_disabled":false,"rental_uris":{"android":"levelo://app?vid=b0c418e3-7076-4b48-86c9-8b078567e702","ios":"levelo://app?vid=b0c418e3-7076-4b48-86c9-8b078567e702"},"vehicle_type_id":"4","last_reported":1726049358,"current_range_meters":25600,"station_id":"ce4bhnp2rcd13ifvqgvg","pricing_plan_id":"cebpf4jnsgd1na2vs0mg"},{"bike_id":"985b9265-58d4-4ffc-b386-5114b2daaa04","system_id":"levelo_inurba_marseille","lat":43.26064,"lon":5.39395,"is_reserved":false,"is_disabled":false,"rental_uris":{"android":"levelo://app?vid=985b9265-58d4-4ffc-b386-5114b2daaa04","ios":"levelo://app?vid=985b9265-58d4-4ffc-b386-5114b2daaa04"},"vehicle_type_id":"4","last_reported":1726049358,"current_range_meters":27200,"station_id":"ce4bhh92rcd13ifvqfj0","pricing_plan_id":"cebpf4jnsgd1na2vs0mg"},{"bike_id":"e705d9fb-2171-4281-8e32-77a497e36ec3","system_id":"levelo_inurba_marseille","lat":43.26939,"lon":5.40248,"is_reserved":false,"is_disabled":false,"rental_uris":{"android":"levelo://app?vid=e705d9fb-2171-4281-8e32-77a497e36ec3","ios":"levelo://app?vid=e705d9fb-2171-4281-8e32-77a497e36ec3"},"vehicle_type_id":"4","last_reported":1726049358,"current_range_meters":22000,"station_id":"cjm6bp8fraef2m0cb0m0","pricing_plan_id":"cebpf4jnsgd1na2vs0mg"},{"bike_id":"4e7fad4e-9454-4493-8b85-222dcdb43c41","system_id":"levelo_inurba_marseille","lat":43.28937,"lon":5.36622,"is_reserved":false,"is_disabled":false,"rental_uris":{"android":"levelo://app?vid=4e7fad4e-9454-4493-8b85-222dcdb43c41","ios":"levelo://app?vid=4e7fad4e-9454-4493-8b85-222dcdb43c41"},"vehicle_type_id":"4","last_reported":1726049358,"current_range_meters":34000,"station_id":"ce4bhap2rcd13ifvqek0","pricing_plan_id":"cebpf4jnsgd1na2vs0mg"},{"bike_id":"713f036d-c204-48bb-a84e-ce520244ef7d","system_id":"levelo_inurba_marseille","lat":43.30139,"lon":5.37427,"is_reserved":false,"is_disabled":false,"rental_uris":{"android":"levelo://app?vid=713f036d-c204-48bb-a84e-ce520244ef7d","ios":"levelo://app?vid=713f036d-c204-48bb-a84e-ce520244ef7d"},"vehicle_type_id":"4","last_reported":1726049358,"current_range_meters":8800,"station_id":"ce4bgs92rcd13ifvqcc0","pricing_plan_id":"cebpf4jnsgd1na2vs0mg"},{"bike_id":"2413a8c5-3673-44da-a30b-07a1465e7a31","system_id":"levelo_inurba_marseille","lat":43.24183,"lon":5.39733,"is_reserved":false,"is_disabled":false,"rental_uris":{"android":"levelo://app?vid=2413a8c5-3673-44da-a30b-07a1465e7a31","ios":"levelo://app?vid=2413a8c5-3673-44da-a30b-07a1465e7a31"},"vehicle_type_id":"4","last_reported":1726049358,"current_range_meters":4400,"station_id":"ce4bhn12rcd13ifvqgpg","pricing_plan_id":"cebpf4jnsgd1na2vs0mg"},{"bike_id":"36b476ff-1eb7-400a-b3c7-043570dc2d0d","system_id":"levelo_inurba_marseille","lat":43.2606,"lon":5.39392,"is_reserved":false,"is_disabled":false,"rental_uris":{"android":"levelo://app?vid=36b476ff-1eb7-400a-b3c7-043570dc2d0d","ios":"levelo://app?vid=36b476ff-1eb7-400a-b3c7-043570dc2d0d"},"vehicle_type_id":"4","last_reported":1726049358,"current_range_meters":40000,"station_id":"ce4bhh92rcd13ifvqfj0","pricing_plan_id":"cebpf4jnsgd1na2vs0mg"},{"bike_id":"98f8975b-1652-45a9-a84f-e0f8cf84af34","system_id":"levelo_inurba_marseille","lat":43.23153,"lon":5.4372,"is_reserved":false,"is_disabled":false,"rental_uris":{"android":"levelo://app?vid=98f8975b-1652-45a9-a84f-e0f8cf84af34","ios":"levelo://app?vid=98f8975b-1652-45a9-a84f-e0f8cf84af34"},"vehicle_type_id":"4","last_reported":1726049358,"current_range_meters":16400,"station_id":"ce4bhmp2rcd13ifvqgog","pricing_plan_id":"cebpf4jnsgd1na2vs0mg"},{"bike_id":"b413bc3e-6bbd-4e11-abff-54bb0b63b087","system_id":"levelo_inurba_marseille","lat":43.239587,"lon":5.366307,"is_reserved":false,"is_disabled":false,"rental_uris":{"android":"levelo://app?vid=b413bc3e-6bbd-4e11-abff-54bb0b63b087","ios":"levelo://app?vid=b413bc3e-6bbd-4e11-abff-54bb0b63b087"},"vehicle_type_id":"4","last_reported":1726049358,"current_range_meters":20000,"station_id":"ce4bhi12rcd13ifvqfp0","pricing_plan_id":"cebpf4jnsgd1na2vs0mg"},{"bike_id":"c418a0a3-69bc-4a59-97fd-7bc4eeb30394","system_id":"levelo_inurba_marseille","lat":43.30533,"lon":5.36546,"is_reserved":false,"is_disabled":false,"rental_uris":{"android":"levelo://app?vid=c418a0a3-69bc-4a59-97fd-7bc4eeb30394","ios":"levelo://app?vid=c418a0a3-69bc-4a59-97fd-7bc4eeb30394"},"vehicle_type_id":"4","last_reported":1726049358,"current_range_meters":39200,"station_id":"ce4bgs12rcd13ifvqcag","pricing_plan_id":"cebpf4jnsgd1na2vs0mg"},{"bike_id":"a4b6f6c8-c1fd-4611-b4cd-50165fc92afe","system_id":"levelo_inurba_marseille","lat":43.27952,"lon":5.41053,"is_reserved":false,"is_disabled":false,"rental_uris":{"android":"levelo://app?vid=a4b6f6c8-c1fd-4611-b4cd-50165fc92afe","ios":"levelo://app?vid=a4b6f6c8-c1fd-4611-b4cd-50165fc92afe"},"vehicle_type_id":"4","last_reported":1726049358,"current_range_meters":32400,"station_id":"ce4bhnp2rcd13ifvqh0g","pricing_plan_id":"cebpf4jnsgd1na2vs0mg"},{"bike_id":"2e9753ab-c137-43b8-944c-2a8bcb785818","system_id":"levelo_inurba_marseille","lat":43.289393,"lon":5.366539,"is_reserved":false,"is_disabled":false,"rental_uris":{"android":"levelo://app?vid=2e9753ab-c137-43b8-944c-2a8bcb785818","ios":"levelo://app?vid=2e9753ab-c137-43b8-944c-2a8bcb785818"},"vehicle_type_id":"4","last_reported":1726049358,"current_range_meters":19200,"station_id":"ce4bhap2rcd13ifvqek0","pricing_plan_id":"cebpf4jnsgd1na2vs0mg"},{"bike_id":"1f98b9ef-5838-4b23-9534-ebf3100516cd","system_id":"levelo_inurba_marseille","lat":43.28267,"lon":5.35065,"is_reserved":false,"is_disabled":false,"rental_uris":{"android":"levelo://app?vid=1f98b9ef-5838-4b23-9534-ebf3100516cd","ios":"levelo://app?vid=1f98b9ef-5838-4b23-9534-ebf3100516cd"},"vehicle_type_id":"4","last_reported":1726049358,"current_range_meters":11600,"station_id":"ce4bhbp2rcd13ifvqerg","pricing_plan_id":"cebpf4jnsgd1na2vs0mg"},{"bike_id":"17192454-d19a-45de-ab35-dd086d3e77de","system_id":"levelo_inurba_marseille","lat":43.2439,"lon":5.37054,"is_reserved":false,"is_disabled":false,"rental_uris":{"android":"levelo://app?vid=17192454-d19a-45de-ab35-dd086d3e77de","ios":"levelo://app?vid=17192454-d19a-45de-ab35-dd086d3e77de"},"vehicle_type_id":"4","last_reported":1726049358,"current_range_meters":26000,"station_id":"ce4bhhh2rcd13ifvqfk0","pricing_plan_id":"cebpf4jnsgd1na2vs0mg"},{"bike_id":"8528ea29-e445-4b26-b933-d67fba6523f7","system_id":"levelo_inurba_marseille","lat":43.25717,"lon":5.41126,"is_reserved":false,"is_disabled":false,"rental_uris":{"android":"levelo://app?vid=8528ea29-e445-4b26-b933-d67fba6523f7","ios":"levelo://app?vid=8528ea29-e445-4b26-b933-d67fba6523f7"},"vehicle_type_id":"4","last_reported":1726049358,"current_range_meters":14800,"station_id":"ce4bhkp2rcd13ifvqgd0","pricing_plan_id":"cebpf4jnsgd1na2vs0mg"},{"bike_id":"77dfebe9-72cd-4c09-9417-499e190dd071","system_id":"levelo_inurba_marseille","lat":43.30535,"lon":5.36705,"is_reserved":false,"is_disabled":false,"rental_uris":{"android":"levelo://app?vid=77dfebe9-72cd-4c09-9417-499e190dd071","ios":"levelo://app?vid=77dfebe9-72cd-4c09-9417-499e190dd071"},"vehicle_type_id":"4","last_reported":1726049358,"current_range_meters":38400,"station_id":"ce4bgrp2rcd13ifvqc9g","pricing_plan_id":"cebpf4jnsgd1na2vs0mg"},{"bike_id":"c1a7e1e3-ec07-4789-aee5-b72394de12c2","system_id":"levelo_inurba_marseille","lat":43.30781,"lon":5.37656,"is_reserved":false,"is_disabled":false,"rental_uris":{"android":"levelo://app?vid=c1a7e1e3-ec07-4789-aee5-b72394de12c2","ios":"levelo://app?vid=c1a7e1e3-ec07-4789-aee5-b72394de12c2"},"vehicle_type_id":"4","last_reported":1726049358,"current_range_meters":37600,"station_id":"ce4bgv92rcd13ifvqcq0","pricing_plan_id":"cebpf4jnsgd1na2vs0mg"},{"bike_id":"218f8861-3f84-4ab8-921c-09db0498ca49","system_id":"levelo_inurba_marseille","lat":43.29562,"lon":5.37513,"is_reserved":false,"is_disabled":false,"rental_uris":{"android":"levelo://app?vid=218f8861-3f84-4ab8-921c-09db0498ca49","ios":"levelo://app?vid=218f8861-3f84-4ab8-921c-09db0498ca49"},"vehicle_type_id":"4","last_reported":1726049358,"current_range_meters":10800,"station_id":"ce4bgh92rcd13ifvqb50","pricing_plan_id":"cebpf4jnsgd1na2vs0mg"},{"bike_id":"00115f0a-ac26-4e9a-986d-383b5654c372","system_id":"levelo_inurba_marseille","lat":43.26679,"lon":5.38266,"is_reserved":false,"is_disabled":false,"rental_uris":{"android":"levelo://app?vid=00115f0a-ac26-4e9a-986d-383b5654c372","ios":"levelo://app?vid=00115f0a-ac26-4e9a-986d-383b5654c372"},"vehicle_type_id":"4","last_reported":1726049358,"current_range_meters":25200,"station_id":"ce4bhg92rcd13ifvqf90","pricing_plan_id":"cebpf4jnsgd1na2vs0mg"},{"bike_id":"4539cb11-1269-4518-baa6-41c2e2073646","system_id":"levelo_inurba_marseille","lat":43.27209,"lon":5.39181,"is_reserved":false,"is_disabled":false,"rental_uris":{"android":"levelo://app?vid=4539cb11-1269-4518-baa6-41c2e2073646","ios":"levelo://app?vid=4539cb11-1269-4518-baa6-41c2e2073646"},"vehicle_type_id":"4","last_reported":1726049358,"current_range_meters":17200,"station_id":"ce4bhhp2rcd13ifvqfm0","pricing_plan_id":"cebpf4jnsgd1na2vs0mg"},{"bike_id":"7727b811-eb5e-4439-b991-7555b4fa4a0e","system_id":"levelo_inurba_marseille","lat":43.30272,"lon":5.37702,"is_reserved":false,"is_disabled":false,"rental_uris":{"android":"levelo://app?vid=7727b811-eb5e-4439-b991-7555b4fa4a0e","ios":"levelo://app?vid=7727b811-eb5e-4439-b991-7555b4fa4a0e"},"vehicle_type_id":"4","last_reported":1726049358,"current_range_meters":38800,"station_id":"ce4bguh2rcd13ifvqcj0","pricing_plan_id":"cebpf4jnsgd1na2vs0mg"},{"bike_id":"4882e822-aaac-47bb-ab4f-63733ce98107","system_id":"levelo_inurba_marseille","lat":43.29844,"lon":5.36268,"is_reserved":false,"is_disabled":false,"rental_uris":{"android":"levelo://app?vid=4882e822-aaac-47bb-ab4f-63733ce98107","ios":"levelo://app?vid=4882e822-aaac-47bb-ab4f-63733ce98107"},"vehicle_type_id":"4","last_reported":1726049358,"current_range_meters":12400,"station_id":"ce4bgpp2rcd13ifvqc3g","pricing_plan_id":"cebpf4jnsgd1na2vs0mg"},{"bike_id":"0188cf2c-7e7f-4af1-a1a3-511b2e448302","system_id":"levelo_inurba_marseille","lat":43.3111,"lon":5.37769,"is_reserved":false,"is_disabled":false,"rental_uris":{"android":"levelo://app?vid=0188cf2c-7e7f-4af1-a1a3-511b2e448302","ios":"levelo://app?vid=0188cf2c-7e7f-4af1-a1a3-511b2e448302"},"vehicle_type_id":"4","last_reported":1726049358,"current_range_meters":38000,"station_id":"ce4bgt92rcd13ifvqcg0","pricing_plan_id":"cebpf4jnsgd1na2vs0mg"},{"bike_id":"9dbf4882-289e-4171-bdea-bbea2cd2aa4a","system_id":"levelo_inurba_marseille","lat":43.25931,"lon":5.40915,"is_reserved":false,"is_disabled":false,"rental_uris":{"android":"levelo://app?vid=9dbf4882-289e-4171-bdea-bbea2cd2aa4a","ios":"levelo://app?vid=9dbf4882-289e-4171-bdea-bbea2cd2aa4a"},"vehicle_type_id":"4","last_reported":1726049358,"current_range_meters":20000,"station_id":"ce4bhm92rcd13ifvqglg","pricing_plan_id":"cebpf4jnsgd1na2vs0mg"},{"bike_id":"00ca710c-aa25-453d-b5eb-9286e939dc6d","system_id":"levelo_inurba_marseille","lat":43.29549,"lon":5.42275,"is_reserved":false,"is_disabled":false,"rental_uris":{"android":"levelo://app?vid=00ca710c-aa25-453d-b5eb-9286e939dc6d","ios":"levelo://app?vid=00ca710c-aa25-453d-b5eb-9286e939dc6d"},"vehicle_type_id":"4","last_reported":1726049358,"current_range_meters":40000,"station_id":"ce4bhph2rcd13ifvqhdg","pricing_plan_id":"cebpf4jnsgd1na2vs0mg"},{"bike_id":"b63cd219-a325-46a7-b551-57983cf6a940","system_id":"levelo_inurba_marseille","lat":43.26025,"lon":5.37552,"is_reserved":false,"is_disabled":false,"rental_uris":{"android":"levelo://app?vid=b63cd219-a325-46a7-b551-57983cf6a940","ios":"levelo://app?vid=b63cd219-a325-46a7-b551-57983cf6a940"},"vehicle_type_id":"4","last_reported":1726049358,"current_range_meters":26800,"station_id":"ce4bhgh2rcd13ifvqfa0","pricing_plan_id":"cebpf4jnsgd1na2vs0mg"},{"bike_id":"a36a6131-7175-4d21-afcf-16a3b952996a","system_id":"levelo_inurba_marseille","lat":43.30822,"lon":5.37664,"is_reserved":false,"is_disabled":false,"rental_uris":{"android":"levelo://app?vid=a36a6131-7175-4d21-afcf-16a3b952996a","ios":"levelo://app?vid=a36a6131-7175-4d21-afcf-16a3b952996a"},"vehicle_type_id":"4","last_reported":1726049358,"current_range_meters":10000,"station_id":"ce4bgv92rcd13ifvqcq0","pricing_plan_id":"cebpf4jnsgd1na2vs0mg"},{"bike_id":"4152bf0f-ed09-4266-8920-4adeb7d2712f","system_id":"levelo_inurba_marseille","lat":43.3031,"lon":5.36891,"is_reserved":false,"is_disabled":false,"rental_uris":{"android":"levelo://app?vid=4152bf0f-ed09-4266-8920-4adeb7d2712f","ios":"levelo://app?vid=4152bf0f-ed09-4266-8920-4adeb7d2712f"},"vehicle_type_id":"4","last_reported":1726049358,"current_range_meters":38400,"station_id":"ce4bgqh2rcd13ifvqc5g","pricing_plan_id":"cebpf4jnsgd1na2vs0mg"},{"bike_id":"e193415e-3db3-4686-9712-1fe45879b28b","system_id":"levelo_inurba_marseille","lat":43.23153,"lon":5.43718,"is_reserved":false,"is_disabled":false,"rental_uris":{"android":"levelo://app?vid=e193415e-3db3-4686-9712-1fe45879b28b","ios":"levelo://app?vid=e193415e-3db3-4686-9712-1fe45879b28b"},"vehicle_type_id":"4","last_reported":1726049358,"current_range_meters":26800,"station_id":"ce4bhmp2rcd13ifvqgog","pricing_plan_id":"cebpf4jnsgd1na2vs0mg"},{"bike_id":"c2aa6b52-4e43-40a4-ab86-75841980ef19","system_id":"levelo_inurba_marseille","lat":43.27209,"lon":5.39181,"is_reserved":false,"is_disabled":false,"rental_uris":{"android":"levelo://app?vid=c2aa6b52-4e43-40a4-ab86-75841980ef19","ios":"levelo://app?vid=c2aa6b52-4e43-40a4-ab86-75841980ef19"},"vehicle_type_id":"4","last_reported":1726049358,"current_range_meters":25200,"station_id":"ce4bhhp2rcd13ifvqfm0","pricing_plan_id":"cebpf4jnsgd1na2vs0mg"},{"bike_id":"243f805c-1deb-4cc5-923f-a265a428494a","system_id":"levelo_inurba_marseille","lat":43.2903,"lon":5.38652,"is_reserved":false,"is_disabled":false,"rental_uris":{"android":"levelo://app?vid=243f805c-1deb-4cc5-923f-a265a428494a","ios":"levelo://app?vid=243f805c-1deb-4cc5-923f-a265a428494a"},"vehicle_type_id":"4","last_reported":1726049358,"current_range_meters":33600,"station_id":"ce4bh4p2rcd13ifvqe0g","pricing_plan_id":"cebpf4jnsgd1na2vs0mg"},{"bike_id":"7d379912-5512-4136-825f-f149378c51b0","system_id":"levelo_inurba_marseille","lat":43.27839,"lon":5.3851,"is_reserved":false,"is_disabled":false,"rental_uris":{"android":"levelo://app?vid=7d379912-5512-4136-825f-f149378c51b0","ios":"levelo://app?vid=7d379912-5512-4136-825f-f149378c51b0"},"vehicle_type_id":"4","last_reported":1726049358,"current_range_meters":31200,"station_id":"","pricing_plan_id":"cebpf4jnsgd1na2vs0mg"},{"bike_id":"3e71dd62-37f9-4fdf-b475-7d894230e08d","system_id":"levelo_inurba_marseille","lat":43.2315,"lon":5.43719,"is_reserved":false,"is_disabled":false,"rental_uris":{"android":"levelo://app?vid=3e71dd62-37f9-4fdf-b475-7d894230e08d","ios":"levelo://app?vid=3e71dd62-37f9-4fdf-b475-7d894230e08d"},"vehicle_type_id":"4","last_reported":1726049358,"current_range_meters":17200,"station_id":"ce4bhmp2rcd13ifvqgog","pricing_plan_id":"cebpf4jnsgd1na2vs0mg"},{"bike_id":"31d44add-fd80-4218-8085-3fba65180795","system_id":"levelo_inurba_marseille","lat":43.297054,"lon":5.376768,"is_reserved":false,"is_disabled":false,"rental_uris":{"android":"levelo://app?vid=31d44add-fd80-4218-8085-3fba65180795","ios":"levelo://app?vid=31d44add-fd80-4218-8085-3fba65180795"},"vehicle_type_id":"4","last_reported":1726049358,"current_range_meters":16000,"station_id":"ce4bgkh2rcd13ifvqbl0","pricing_plan_id":"cebpf4jnsgd1na2vs0mg"},{"bike_id":"5f390387-8412-48bc-8df6-6caa54f22b95","system_id":"levelo_inurba_marseille","lat":43.29275,"lon":5.37258,"is_reserved":false,"is_disabled":false,"rental_uris":{"android":"levelo://app?vid=5f390387-8412-48bc-8df6-6caa54f22b95","ios":"levelo://app?vid=5f390387-8412-48bc-8df6-6caa54f22b95"},"vehicle_type_id":"4","last_reported":1726049358,"current_range_meters":19600,"station_id":"ce4bgh92rcd13ifvqb40","pricing_plan_id":"cebpf4jnsgd1na2vs0mg"},{"bike_id":"b57b7c50-b45e-48bf-80f1-5809fd7245ab","system_id":"levelo_inurba_marseille","lat":43.26682,"lon":5.38268,"is_reserved":false,"is_disabled":false,"rental_uris":{"android":"levelo://app?vid=b57b7c50-b45e-48bf-80f1-5809fd7245ab","ios":"levelo://app?vid=b57b7c50-b45e-48bf-80f1-5809fd7245ab"},"vehicle_type_id":"4","last_reported":1726049358,"current_range_meters":38000,"station_id":"ce4bhg92rcd13ifvqf90","pricing_plan_id":"cebpf4jnsgd1na2vs0mg"},{"bike_id":"9734d854-1bee-4703-b105-c182cf679f1a","system_id":"levelo_inurba_marseille","lat":43.25925,"lon":5.40906,"is_reserved":false,"is_disabled":false,"rental_uris":{"android":"levelo://app?vid=9734d854-1bee-4703-b105-c182cf679f1a","ios":"levelo://app?vid=9734d854-1bee-4703-b105-c182cf679f1a"},"vehicle_type_id":"4","last_reported":1726049358,"current_range_meters":19600,"station_id":"ce4bhm92rcd13ifvqglg","pricing_plan_id":"cebpf4jnsgd1na2vs0mg"},{"bike_id":"1b8e2124-c9b2-450b-8e12-e90ed145db35","system_id":"levelo_inurba_marseille","lat":43.29842,"lon":5.36259,"is_reserved":false,"is_disabled":false,"rental_uris":{"android":"levelo://app?vid=1b8e2124-c9b2-450b-8e12-e90ed145db35","ios":"levelo://app?vid=1b8e2124-c9b2-450b-8e12-e90ed145db35"},"vehicle_type_id":"4","last_reported":1726049358,"current_range_meters":33200,"station_id":"ce4bgpp2rcd13ifvqc3g","pricing_plan_id":"cebpf4jnsgd1na2vs0mg"},{"bike_id":"dc25e7e5-2e2d-47f2-8b02-d73c5122dd03","system_id":"levelo_inurba_marseille","lat":43.27065,"lon":5.42281,"is_reserved":false,"is_disabled":false,"rental_uris":{"android":"levelo://app?vid=dc25e7e5-2e2d-47f2-8b02-d73c5122dd03","ios":"levelo://app?vid=dc25e7e5-2e2d-47f2-8b02-d73c5122dd03"},"vehicle_type_id":"4","last_reported":1726049358,"current_range_meters":3600,"station_id":"ce4bhk92rcd13ifvqgb0","pricing_plan_id":"cebpf4jnsgd1na2vs0mg"},{"bike_id":"c5b15709-55a3-440a-87a8-04a12fb5823d","system_id":"levelo_inurba_marseille","lat":43.25816,"lon":5.39421,"is_reserved":false,"is_disabled":false,"rental_uris":{"android":"levelo://app?vid=c5b15709-55a3-440a-87a8-04a12fb5823d","ios":"levelo://app?vid=c5b15709-55a3-440a-87a8-04a12fb5823d"},"vehicle_type_id":"4","last_reported":1726049358,"current_range_meters":29600,"station_id":"ce4bhip2rcd13ifvqft0","pricing_plan_id":"cebpf4jnsgd1na2vs0mg"},{"bike_id":"8df37129-5eef-48e1-8e30-ecdd57c937b4","system_id":"levelo_inurba_marseille","lat":43.28417,"lon":5.37525,"is_reserved":false,"is_disabled":false,"rental_uris":{"android":"levelo://app?vid=8df37129-5eef-48e1-8e30-ecdd57c937b4","ios":"levelo://app?vid=8df37129-5eef-48e1-8e30-ecdd57c937b4"},"vehicle_type_id":"4","last_reported":1726049358,"current_range_meters":12000,"station_id":"ce4bh412rcd13ifvqds0","pricing_plan_id":"cebpf4jnsgd1na2vs0mg"},{"bike_id":"b5ac7898-41e8-4b8c-94dd-526f08c99340","system_id":"levelo_inurba_marseille","lat":43.24176,"lon":5.39729,"is_reserved":false,"is_disabled":false,"rental_uris":{"android":"levelo://app?vid=b5ac7898-41e8-4b8c-94dd-526f08c99340","ios":"levelo://app?vid=b5ac7898-41e8-4b8c-94dd-526f08c99340"},"vehicle_type_id":"4","last_reported":1726049358,"current_range_meters":28800,"station_id":"ce4bhn12rcd13ifvqgpg","pricing_plan_id":"cebpf4jnsgd1na2vs0mg"},{"bike_id":"aaf6dc9c-0f49-4cfb-8053-0ab150017608","system_id":"levelo_inurba_marseille","lat":43.25939,"lon":5.40899,"is_reserved":false,"is_disabled":false,"rental_uris":{"android":"levelo://app?vid=aaf6dc9c-0f49-4cfb-8053-0ab150017608","ios":"levelo://app?vid=aaf6dc9c-0f49-4cfb-8053-0ab150017608"},"vehicle_type_id":"4","last_reported":1726049358,"current_range_meters":32800,"station_id":"ce4bhm92rcd13ifvqglg","pricing_plan_id":"cebpf4jnsgd1na2vs0mg"},{"bike_id":"c22bf776-82f1-423d-83f3-ab20051eb388","system_id":"levelo_inurba_marseille","lat":43.33613,"lon":5.41026,"is_reserved":false,"is_disabled":false,"rental_uris":{"android":"levelo://app?vid=c22bf776-82f1-423d-83f3-ab20051eb388","ios":"levelo://app?vid=c22bf776-82f1-423d-83f3-ab20051eb388"},"vehicle_type_id":"4","last_reported":1726049358,"current_range_meters":6000,"station_id":"ce4bhqh2rcd13ifvqhmg","pricing_plan_id":"cebpf4jnsgd1na2vs0mg"},{"bike_id":"dcd9f917-0742-42c5-9422-30b7a1042bf3","system_id":"levelo_inurba_marseille","lat":43.26555,"lon":5.37282,"is_reserved":false,"is_disabled":false,"rental_uris":{"android":"levelo://app?vid=dcd9f917-0742-42c5-9422-30b7a1042bf3","ios":"levelo://app?vid=dcd9f917-0742-42c5-9422-30b7a1042bf3"},"vehicle_type_id":"4","last_reported":1726049358,"current_range_meters":12800,"station_id":"ce4bhg12rcd13ifvqf70","pricing_plan_id":"cebpf4jnsgd1na2vs0mg"},{"bike_id":"762255b4-be86-449c-b578-087b32aadd3a","system_id":"levelo_inurba_marseille","lat":43.30901,"lon":5.3686,"is_reserved":false,"is_disabled":false,"rental_uris":{"android":"levelo://app?vid=762255b4-be86-449c-b578-087b32aadd3a","ios":"levelo://app?vid=762255b4-be86-449c-b578-087b32aadd3a"},"vehicle_type_id":"4","last_reported":1726049358,"current_range_meters":17200,"station_id":"ce4bgn92rcd13ifvqbvg","pricing_plan_id":"cebpf4jnsgd1na2vs0mg"},{"bike_id":"88cf5dd6-c835-4104-9def-26019de205df","system_id":"levelo_inurba_marseille","lat":43.29898,"lon":5.43671,"is_reserved":false,"is_disabled":false,"rental_uris":{"android":"levelo://app?vid=88cf5dd6-c835-4104-9def-26019de205df","ios":"levelo://app?vid=88cf5dd6-c835-4104-9def-26019de205df"},"vehicle_type_id":"4","last_reported":1726049358,"current_range_meters":35600,"station_id":"ce4bhpp2rcd13ifvqhfg","pricing_plan_id":"cebpf4jnsgd1na2vs0mg"},{"bike_id":"c7d6d06e-c6b6-456a-8174-515e62d4bdb2","system_id":"levelo_inurba_marseille","lat":43.33605,"lon":5.4102,"is_reserved":false,"is_disabled":false,"rental_uris":{"android":"levelo://app?vid=c7d6d06e-c6b6-456a-8174-515e62d4bdb2","ios":"levelo://app?vid=c7d6d06e-c6b6-456a-8174-515e62d4bdb2"},"vehicle_type_id":"4","last_reported":1726049358,"current_range_meters":16000,"station_id":"ce4bhqh2rcd13ifvqhmg","pricing_plan_id":"cebpf4jnsgd1na2vs0mg"},{"bike_id":"9b9547b7-77e2-4c32-9975-f0a65876f133","system_id":"levelo_inurba_marseille","lat":43.28031,"lon":5.3694,"is_reserved":false,"is_disabled":false,"rental_uris":{"android":"levelo://app?vid=9b9547b7-77e2-4c32-9975-f0a65876f133","ios":"levelo://app?vid=9b9547b7-77e2-4c32-9975-f0a65876f133"},"vehicle_type_id":"4","last_reported":1726049358,"current_range_meters":35200,"station_id":"ce4bha12rcd13ifvqef0","pricing_plan_id":"cebpf4jnsgd1na2vs0mg"},{"bike_id":"2c34edcb-72c7-439a-a9a8-efb295e9b4a9","system_id":"levelo_inurba_marseille","lat":43.24388,"lon":5.37052,"is_reserved":false,"is_disabled":false,"rental_uris":{"android":"levelo://app?vid=2c34edcb-72c7-439a-a9a8-efb295e9b4a9","ios":"levelo://app?vid=2c34edcb-72c7-439a-a9a8-efb295e9b4a9"},"vehicle_type_id":"4","last_reported":1726049358,"current_range_meters":36800,"station_id":"ce4bhhh2rcd13ifvqfk0","pricing_plan_id":"cebpf4jnsgd1na2vs0mg"},{"bike_id":"723c073e-5c6a-4fb9-a382-e8ea44a73076","system_id":"levelo_inurba_marseille","lat":43.29555,"lon":5.42276,"is_reserved":false,"is_disabled":false,"rental_uris":{"android":"levelo://app?vid=723c073e-5c6a-4fb9-a382-e8ea44a73076","ios":"levelo://app?vid=723c073e-5c6a-4fb9-a382-e8ea44a73076"},"vehicle_type_id":"4","last_reported":1726049358,"current_range_meters":33600,"station_id":"ce4bhph2rcd13ifvqhdg","pricing_plan_id":"cebpf4jnsgd1na2vs0mg"},{"bike_id":"2aad4b02-945c-4d35-b3a5-85b3d17dc503","system_id":"levelo_inurba_marseille","lat":43.32278,"lon":5.38268,"is_reserved":false,"is_disabled":false,"rental_uris":{"android":"levelo://app?vid=2aad4b02-945c-4d35-b3a5-85b3d17dc503","ios":"levelo://app?vid=2aad4b02-945c-4d35-b3a5-85b3d17dc503"},"vehicle_type_id":"4","last_reported":1726049358,"current_range_meters":3200,"station_id":"ce4bhr12rcd13ifvqhqg","pricing_plan_id":"cebpf4jnsgd1na2vs0mg"},{"bike_id":"ca83b445-f9b8-4c3b-8fbf-9f0e930b1f13","system_id":"levelo_inurba_marseille","lat":43.29844,"lon":5.36272,"is_reserved":false,"is_disabled":false,"rental_uris":{"android":"levelo://app?vid=ca83b445-f9b8-4c3b-8fbf-9f0e930b1f13","ios":"levelo://app?vid=ca83b445-f9b8-4c3b-8fbf-9f0e930b1f13"},"vehicle_type_id":"4","last_reported":1726049358,"current_range_meters":36800,"station_id":"ce4bgpp2rcd13ifvqc3g","pricing_plan_id":"cebpf4jnsgd1na2vs0mg"},{"bike_id":"fc19c059-0eb5-4fc6-8478-12e937316a9c","system_id":"levelo_inurba_marseille","lat":43.24073,"lon":5.37759,"is_reserved":false,"is_disabled":false,"rental_uris":{"android":"levelo://app?vid=fc19c059-0eb5-4fc6-8478-12e937316a9c","ios":"levelo://app?vid=fc19c059-0eb5-4fc6-8478-12e937316a9c"},"vehicle_type_id":"4","last_reported":1726049358,"current_range_meters":12000,"station_id":"ce4bhnp2rcd13ifvqgvg","pricing_plan_id":"cebpf4jnsgd1na2vs0mg"},{"bike_id":"211b5142-9ff2-4985-b66d-e93c99bdd248","system_id":"levelo_inurba_marseille","lat":43.24383,"lon":5.37054,"is_reserved":false,"is_disabled":false,"rental_uris":{"android":"levelo://app?vid=211b5142-9ff2-4985-b66d-e93c99bdd248","ios":"levelo://app?vid=211b5142-9ff2-4985-b66d-e93c99bdd248"},"vehicle_type_id":"4","last_reported":1726049358,"current_range_meters":22800,"station_id":"ce4bhhh2rcd13ifvqfk0","pricing_plan_id":"cebpf4jnsgd1na2vs0mg"},{"bike_id":"18780dda-cbbc-4bd5-baa0-750c2954890a","system_id":"levelo_inurba_marseille","lat":43.2668,"lon":5.3827,"is_reserved":false,"is_disabled":false,"rental_uris":{"android":"levelo://app?vid=18780dda-cbbc-4bd5-baa0-750c2954890a","ios":"levelo://app?vid=18780dda-cbbc-4bd5-baa0-750c2954890a"},"vehicle_type_id":"4","last_reported":1726049358,"current_range_meters":14000,"station_id":"ce4bhg92rcd13ifvqf90","pricing_plan_id":"cebpf4jnsgd1na2vs0mg"},{"bike_id":"ba029e3c-a52b-4614-b297-934f2a650282","system_id":"levelo_inurba_marseille","lat":43.30467,"lon":5.37907,"is_reserved":false,"is_disabled":false,"rental_uris":{"android":"levelo://app?vid=ba029e3c-a52b-4614-b297-934f2a650282","ios":"levelo://app?vid=ba029e3c-a52b-4614-b297-934f2a650282"},"vehicle_type_id":"4","last_reported":1726049358,"current_range_meters":28000,"station_id":"ce4bgup2rcd13ifvqcn0","pricing_plan_id":"cebpf4jnsgd1na2vs0mg"},{"bike_id":"e6828e12-0061-450d-ad88-18f4a74cfa9b","system_id":"levelo_inurba_marseille","lat":43.2998,"lon":5.37181,"is_reserved":false,"is_disabled":false,"rental_uris":{"android":"levelo://app?vid=e6828e12-0061-450d-ad88-18f4a74cfa9b","ios":"levelo://app?vid=e6828e12-0061-450d-ad88-18f4a74cfa9b"},"vehicle_type_id":"4","last_reported":1726049358,"current_range_meters":35600,"station_id":"ce4bgr92rcd13ifvqc7g","pricing_plan_id":"cebpf4jnsgd1na2vs0mg"},{"bike_id":"df5bd83d-06d4-432f-83c4-381810e7a4a9","system_id":"levelo_inurba_marseille","lat":43.25934,"lon":5.40907,"is_reserved":false,"is_disabled":false,"rental_uris":{"android":"levelo://app?vid=df5bd83d-06d4-432f-83c4-381810e7a4a9","ios":"levelo://app?vid=df5bd83d-06d4-432f-83c4-381810e7a4a9"},"vehicle_type_id":"4","last_reported":1726049358,"current_range_meters":28800,"station_id":"ce4bhm92rcd13ifvqglg","pricing_plan_id":"cebpf4jnsgd1na2vs0mg"},{"bike_id":"4681948f-a2f8-4829-86a6-9b22fff2131d","system_id":"levelo_inurba_marseille","lat":43.24387,"lon":5.37058,"is_reserved":false,"is_disabled":false,"rental_uris":{"android":"levelo://app?vid=4681948f-a2f8-4829-86a6-9b22fff2131d","ios":"levelo://app?vid=4681948f-a2f8-4829-86a6-9b22fff2131d"},"vehicle_type_id":"4","last_reported":1726049358,"current_range_meters":9200,"station_id":"ce4bhhh2rcd13ifvqfk0","pricing_plan_id":"cebpf4jnsgd1na2vs0mg"},{"bike_id":"861257d0-a268-4aec-a4a2-31b8c65a6266","system_id":"levelo_inurba_marseille","lat":43.290457,"lon":5.355998,"is_reserved":false,"is_disabled":false,"rental_uris":{"android":"levelo://app?vid=861257d0-a268-4aec-a4a2-31b8c65a6266","ios":"levelo://app?vid=861257d0-a268-4aec-a4a2-31b8c65a6266"},"vehicle_type_id":"4","last_reported":1726049358,"current_range_meters":22000,"station_id":"ce4bhb92rcd13ifvqen0","pricing_plan_id":"cebpf4jnsgd1na2vs0mg"},{"bike_id":"4dbcd33b-3e37-484f-ac23-530da96758ac","system_id":"levelo_inurba_marseille","lat":43.33604,"lon":5.41026,"is_reserved":false,"is_disabled":false,"rental_uris":{"android":"levelo://app?vid=4dbcd33b-3e37-484f-ac23-530da96758ac","ios":"levelo://app?vid=4dbcd33b-3e37-484f-ac23-530da96758ac"},"vehicle_type_id":"4","last_reported":1726049358,"current_range_meters":27200,"station_id":"ce4bhqh2rcd13ifvqhmg","pricing_plan_id":"cebpf4jnsgd1na2vs0mg"},{"bike_id":"ae5848c5-f1d3-4343-ae2e-d78a2d5b0242","system_id":"levelo_inurba_marseille","lat":43.30141,"lon":5.37424,"is_reserved":false,"is_disabled":false,"rental_uris":{"android":"levelo://app?vid=ae5848c5-f1d3-4343-ae2e-d78a2d5b0242","ios":"levelo://app?vid=ae5848c5-f1d3-4343-ae2e-d78a2d5b0242"},"vehicle_type_id":"4","last_reported":1726049358,"current_range_meters":39200,"station_id":"ce4bgs92rcd13ifvqcc0","pricing_plan_id":"cebpf4jnsgd1na2vs0mg"},{"bike_id":"b924c888-e566-42b3-8125-c8823f23c9b7","system_id":"levelo_inurba_marseille","lat":43.30532,"lon":5.36715,"is_reserved":false,"is_disabled":false,"rental_uris":{"android":"levelo://app?vid=b924c888-e566-42b3-8125-c8823f23c9b7","ios":"levelo://app?vid=b924c888-e566-42b3-8125-c8823f23c9b7"},"vehicle_type_id":"4","last_reported":1726049358,"current_range_meters":33200,"station_id":"ce4bgrp2rcd13ifvqc9g","pricing_plan_id":"cebpf4jnsgd1na2vs0mg"},{"bike_id":"74d7f432-f596-45ae-b14d-0ddc7f8a62f6","system_id":"levelo_inurba_marseille","lat":43.23147,"lon":5.43715,"is_reserved":false,"is_disabled":false,"rental_uris":{"android":"levelo://app?vid=74d7f432-f596-45ae-b14d-0ddc7f8a62f6","ios":"levelo://app?vid=74d7f432-f596-45ae-b14d-0ddc7f8a62f6"},"vehicle_type_id":"4","last_reported":1726049358,"current_range_meters":9200,"station_id":"ce4bhmp2rcd13ifvqgog","pricing_plan_id":"cebpf4jnsgd1na2vs0mg"},{"bike_id":"743691f0-1051-416c-912d-8bfa3142957b","system_id":"levelo_inurba_marseille","lat":43.2919,"lon":5.35796,"is_reserved":false,"is_disabled":false,"rental_uris":{"android":"levelo://app?vid=743691f0-1051-416c-912d-8bfa3142957b","ios":"levelo://app?vid=743691f0-1051-416c-912d-8bfa3142957b"},"vehicle_type_id":"4","last_reported":1726049358,"current_range_meters":36000,"station_id":"ce4bhb12rcd13ifvqel0","pricing_plan_id":"cebpf4jnsgd1na2vs0mg"},{"bike_id":"883adf4f-9822-48e8-9c16-82ae0dbc702a","system_id":"levelo_inurba_marseille","lat":43.2315,"lon":5.43702,"is_reserved":false,"is_disabled":false,"rental_uris":{"android":"levelo://app?vid=883adf4f-9822-48e8-9c16-82ae0dbc702a","ios":"levelo://app?vid=883adf4f-9822-48e8-9c16-82ae0dbc702a"},"vehicle_type_id":"4","last_reported":1726049358,"current_range_meters":9200,"station_id":"ce4bhmp2rcd13ifvqgog","pricing_plan_id":"cebpf4jnsgd1na2vs0mg"},{"bike_id":"7dcd8fcd-6a55-496a-8a72-6799b3b822ef","system_id":"levelo_inurba_marseille","lat":43.282593,"lon":5.350578,"is_reserved":false,"is_disabled":false,"rental_uris":{"android":"levelo://app?vid=7dcd8fcd-6a55-496a-8a72-6799b3b822ef","ios":"levelo://app?vid=7dcd8fcd-6a55-496a-8a72-6799b3b822ef"},"vehicle_type_id":"4","last_reported":1726049358,"current_range_meters":28800,"station_id":"ce4bhbp2rcd13ifvqerg","pricing_plan_id":"cebpf4jnsgd1na2vs0mg"},{"bike_id":"4f80722a-f64a-415f-a810-222f580d9cd9","system_id":"levelo_inurba_marseille","lat":43.28938,"lon":5.36633,"is_reserved":false,"is_disabled":false,"rental_uris":{"android":"levelo://app?vid=4f80722a-f64a-415f-a810-222f580d9cd9","ios":"levelo://app?vid=4f80722a-f64a-415f-a810-222f580d9cd9"},"vehicle_type_id":"4","last_reported":1726049358,"current_range_meters":38800,"station_id":"ce4bhap2rcd13ifvqek0","pricing_plan_id":"cebpf4jnsgd1na2vs0mg"},{"bike_id":"e6f96de0-61ec-4748-a734-8c2cacbee67f","system_id":"levelo_inurba_marseille","lat":43.23053,"lon":5.35486,"is_reserved":false,"is_disabled":false,"rental_uris":{"android":"levelo://app?vid=e6f96de0-61ec-4748-a734-8c2cacbee67f","ios":"levelo://app?vid=e6f96de0-61ec-4748-a734-8c2cacbee67f"},"vehicle_type_id":"4","last_reported":1726049358,"current_range_meters":6400,"station_id":"cpo3342slgdg3j2ifvpg","pricing_plan_id":"cebpf4jnsgd1na2vs0mg"},{"bike_id":"638343ce-15e7-4192-b8b3-9dbbe2d9e121","system_id":"levelo_inurba_marseille","lat":43.27184,"lon":5.40996,"is_reserved":false,"is_disabled":false,"rental_uris":{"android":"levelo://app?vid=638343ce-15e7-4192-b8b3-9dbbe2d9e121","ios":"levelo://app?vid=638343ce-15e7-4192-b8b3-9dbbe2d9e121"},"vehicle_type_id":"4","last_reported":1726049358,"current_range_meters":36400,"station_id":"ce4bhl12rcd13ifvqgf0","pricing_plan_id":"cebpf4jnsgd1na2vs0mg"},{"bike_id":"ca736aa2-9ae6-4cb8-b0fe-510d91a35421","system_id":"levelo_inurba_marseille","lat":43.30554,"lon":5.36545,"is_reserved":false,"is_disabled":false,"rental_uris":{"android":"levelo://app?vid=ca736aa2-9ae6-4cb8-b0fe-510d91a35421","ios":"levelo://app?vid=ca736aa2-9ae6-4cb8-b0fe-510d91a35421"},"vehicle_type_id":"4","last_reported":1726049358,"current_range_meters":18800,"station_id":"ce4bgs12rcd13ifvqcag","pricing_plan_id":"cebpf4jnsgd1na2vs0mg"},{"bike_id":"e10239a3-f8ea-417b-841c-d6d19dc30434","system_id":"levelo_inurba_marseille","lat":43.29259,"lon":5.40902,"is_reserved":false,"is_disabled":false,"rental_uris":{"android":"levelo://app?vid=e10239a3-f8ea-417b-841c-d6d19dc30434","ios":"levelo://app?vid=e10239a3-f8ea-417b-841c-d6d19dc30434"},"vehicle_type_id":"4","last_reported":1726049358,"current_range_meters":14400,"station_id":"ce4bh192rcd13ifvqdc0","pricing_plan_id":"cebpf4jnsgd1na2vs0mg"},{"bike_id":"3b163329-75e0-42ce-a395-e2936b5dfbec","system_id":"levelo_inurba_marseille","lat":43.29562,"lon":5.42275,"is_reserved":false,"is_disabled":false,"rental_uris":{"android":"levelo://app?vid=3b163329-75e0-42ce-a395-e2936b5dfbec","ios":"levelo://app?vid=3b163329-75e0-42ce-a395-e2936b5dfbec"},"vehicle_type_id":"4","last_reported":1726049358,"current_range_meters":30400,"station_id":"ce4bhph2rcd13ifvqhdg","pricing_plan_id":"cebpf4jnsgd1na2vs0mg"},{"bike_id":"f0974e9a-31a3-4c17-841c-57224836aa7a","system_id":"levelo_inurba_marseille","lat":43.24183,"lon":5.39719,"is_reserved":false,"is_disabled":false,"rental_uris":{"android":"levelo://app?vid=f0974e9a-31a3-4c17-841c-57224836aa7a","ios":"levelo://app?vid=f0974e9a-31a3-4c17-841c-57224836aa7a"},"vehicle_type_id":"4","last_reported":1726049358,"current_range_meters":24000,"station_id":"ce4bhn12rcd13ifvqgpg","pricing_plan_id":"cebpf4jnsgd1na2vs0mg"},{"bike_id":"2f886a15-37e4-4dad-86c7-a7a6746278bd","system_id":"levelo_inurba_marseille","lat":43.25941,"lon":5.40901,"is_reserved":false,"is_disabled":false,"rental_uris":{"android":"levelo://app?vid=2f886a15-37e4-4dad-86c7-a7a6746278bd","ios":"levelo://app?vid=2f886a15-37e4-4dad-86c7-a7a6746278bd"},"vehicle_type_id":"4","last_reported":1726049358,"current_range_meters":33600,"station_id":"ce4bhm92rcd13ifvqglg","pricing_plan_id":"cebpf4jnsgd1na2vs0mg"},{"bike_id":"e929a258-6aff-455e-8489-72c0747730eb","system_id":"levelo_inurba_marseille","lat":43.30903,"lon":5.36852,"is_reserved":false,"is_disabled":false,"rental_uris":{"android":"levelo://app?vid=e929a258-6aff-455e-8489-72c0747730eb","ios":"levelo://app?vid=e929a258-6aff-455e-8489-72c0747730eb"},"vehicle_type_id":"4","last_reported":1726049358,"current_range_meters":38800,"station_id":"ce4bgn92rcd13ifvqbvg","pricing_plan_id":"cebpf4jnsgd1na2vs0mg"},{"bike_id":"c51c8f7e-bcf2-42f2-94c6-3e415993eea6","system_id":"levelo_inurba_marseille","lat":43.30137,"lon":5.37415,"is_reserved":false,"is_disabled":false,"rental_uris":{"android":"levelo://app?vid=c51c8f7e-bcf2-42f2-94c6-3e415993eea6","ios":"levelo://app?vid=c51c8f7e-bcf2-42f2-94c6-3e415993eea6"},"vehicle_type_id":"4","last_reported":1726049358,"current_range_meters":24800,"station_id":"ce4bgs92rcd13ifvqcc0","pricing_plan_id":"cebpf4jnsgd1na2vs0mg"},{"bike_id":"903a17fc-6d51-47bc-8223-972952786bdc","system_id":"levelo_inurba_marseille","lat":43.23183,"lon":5.39983,"is_reserved":false,"is_disabled":false,"rental_uris":{"android":"levelo://app?vid=903a17fc-6d51-47bc-8223-972952786bdc","ios":"levelo://app?vid=903a17fc-6d51-47bc-8223-972952786bdc"},"vehicle_type_id":"4","last_reported":1726049358,"current_range_meters":18800,"station_id":"ce4bhn12rcd13ifvqgqg","pricing_plan_id":"cebpf4jnsgd1na2vs0mg"},{"bike_id":"31f93c97-13bf-4594-b48a-0971830af1c5","system_id":"levelo_inurba_marseille","lat":43.2668,"lon":5.38265,"is_reserved":false,"is_disabled":false,"rental_uris":{"android":"levelo://app?vid=31f93c97-13bf-4594-b48a-0971830af1c5","ios":"levelo://app?vid=31f93c97-13bf-4594-b48a-0971830af1c5"},"vehicle_type_id":"4","last_reported":1726049358,"current_range_meters":5600,"station_id":"ce4bhg92rcd13ifvqf90","pricing_plan_id":"cebpf4jnsgd1na2vs0mg"},{"bike_id":"0448784d-8951-4909-9e09-bdcca9f85683","system_id":"levelo_inurba_marseille","lat":43.29602,"lon":5.37717,"is_reserved":false,"is_disabled":false,"rental_uris":{"android":"levelo://app?vid=0448784d-8951-4909-9e09-bdcca9f85683","ios":"levelo://app?vid=0448784d-8951-4909-9e09-bdcca9f85683"},"vehicle_type_id":"4","last_reported":1726049358,"current_range_meters":10000,"station_id":"ce4bgi92rcd13ifvqb90","pricing_plan_id":"cebpf4jnsgd1na2vs0mg"},{"bike_id":"0d78d25f-2501-4ffb-b495-6cd64f4c7d8f","system_id":"levelo_inurba_marseille","lat":43.24176,"lon":5.39735,"is_reserved":false,"is_disabled":false,"rental_uris":{"android":"levelo://app?vid=0d78d25f-2501-4ffb-b495-6cd64f4c7d8f","ios":"levelo://app?vid=0d78d25f-2501-4ffb-b495-6cd64f4c7d8f"},"vehicle_type_id":"4","last_reported":1726049358,"current_range_meters":20000,"station_id":"ce4bhn12rcd13ifvqgpg","pricing_plan_id":"cebpf4jnsgd1na2vs0mg"},{"bike_id":"f8ba6a1d-21ee-4815-ba94-d6f403b23bd0","system_id":"levelo_inurba_marseille","lat":43.30908,"lon":5.36848,"is_reserved":false,"is_disabled":false,"rental_uris":{"android":"levelo://app?vid=f8ba6a1d-21ee-4815-ba94-d6f403b23bd0","ios":"levelo://app?vid=f8ba6a1d-21ee-4815-ba94-d6f403b23bd0"},"vehicle_type_id":"4","last_reported":1726049358,"current_range_meters":28400,"station_id":"ce4bgn92rcd13ifvqbvg","pricing_plan_id":"cebpf4jnsgd1na2vs0mg"},{"bike_id":"b28a5ccd-a007-4e36-9dac-6251dabefb91","system_id":"levelo_inurba_marseille","lat":43.33607,"lon":5.41031,"is_reserved":false,"is_disabled":false,"rental_uris":{"android":"levelo://app?vid=b28a5ccd-a007-4e36-9dac-6251dabefb91","ios":"levelo://app?vid=b28a5ccd-a007-4e36-9dac-6251dabefb91"},"vehicle_type_id":"4","last_reported":1726049358,"current_range_meters":30000,"station_id":"ce4bhqh2rcd13ifvqhmg","pricing_plan_id":"cebpf4jnsgd1na2vs0mg"},{"bike_id":"37d8c39f-1cdd-4f24-9274-2d093441df6e","system_id":"levelo_inurba_marseille","lat":43.31214,"lon":5.36874,"is_reserved":false,"is_disabled":false,"rental_uris":{"android":"levelo://app?vid=37d8c39f-1cdd-4f24-9274-2d093441df6e","ios":"levelo://app?vid=37d8c39f-1cdd-4f24-9274-2d093441df6e"},"vehicle_type_id":"4","last_reported":1726049358,"current_range_meters":30400,"station_id":"","pricing_plan_id":"cebpf4jnsgd1na2vs0mg"},{"bike_id":"17758ded-d01a-4fa6-b385-cafbda398c6d","system_id":"levelo_inurba_marseille","lat":43.29611,"lon":5.377,"is_reserved":false,"is_disabled":false,"rental_uris":{"android":"levelo://app?vid=17758ded-d01a-4fa6-b385-cafbda398c6d","ios":"levelo://app?vid=17758ded-d01a-4fa6-b385-cafbda398c6d"},"vehicle_type_id":"4","last_reported":1726049358,"current_range_meters":34000,"station_id":"ce4bgi92rcd13ifvqb90","pricing_plan_id":"cebpf4jnsgd1na2vs0mg"},{"bike_id":"ba7ededa-e78d-4500-9282-cfbae8d9b971","system_id":"levelo_inurba_marseille","lat":43.30137,"lon":5.37405,"is_reserved":false,"is_disabled":false,"rental_uris":{"android":"levelo://app?vid=ba7ededa-e78d-4500-9282-cfbae8d9b971","ios":"levelo://app?vid=ba7ededa-e78d-4500-9282-cfbae8d9b971"},"vehicle_type_id":"4","last_reported":1726049358,"current_range_meters":8800,"station_id":"ce4bgs92rcd13ifvqcc0","pricing_plan_id":"cebpf4jnsgd1na2vs0mg"},{"bike_id":"0fe0b341-d50e-4eb0-95ad-fa4464453111","system_id":"levelo_inurba_marseille","lat":43.27068,"lon":5.42281,"is_reserved":false,"is_disabled":false,"rental_uris":{"android":"levelo://app?vid=0fe0b341-d50e-4eb0-95ad-fa4464453111","ios":"levelo://app?vid=0fe0b341-d50e-4eb0-95ad-fa4464453111"},"vehicle_type_id":"4","last_reported":1726049358,"current_range_meters":30000,"station_id":"ce4bhk92rcd13ifvqgb0","pricing_plan_id":"cebpf4jnsgd1na2vs0mg"},{"bike_id":"ed50f602-e815-4947-b2a0-e21d9eeced4e","system_id":"levelo_inurba_marseille","lat":43.31355,"lon":5.385,"is_reserved":false,"is_disabled":false,"rental_uris":{"android":"levelo://app?vid=ed50f602-e815-4947-b2a0-e21d9eeced4e","ios":"levelo://app?vid=ed50f602-e815-4947-b2a0-e21d9eeced4e"},"vehicle_type_id":"4","last_reported":1726049358,"current_range_meters":37600,"station_id":"ce4bgt92rcd13ifvqcf0","pricing_plan_id":"cebpf4jnsgd1na2vs0mg"},{"bike_id":"3774f0da-cfcc-41cf-9ab6-9acf83169616","system_id":"levelo_inurba_marseille","lat":43.29846,"lon":5.36282,"is_reserved":false,"is_disabled":false,"rental_uris":{"android":"levelo://app?vid=3774f0da-cfcc-41cf-9ab6-9acf83169616","ios":"levelo://app?vid=3774f0da-cfcc-41cf-9ab6-9acf83169616"},"vehicle_type_id":"4","last_reported":1726049358,"current_range_meters":25200,"station_id":"ce4bgpp2rcd13ifvqc3g","pricing_plan_id":"cebpf4jnsgd1na2vs0mg"},{"bike_id":"5a3fd4a6-1755-465c-8d8f-1a84ddce9916","system_id":"levelo_inurba_marseille","lat":43.25,"lon":5.38919,"is_reserved":false,"is_disabled":false,"rental_uris":{"android":"levelo://app?vid=5a3fd4a6-1755-465c-8d8f-1a84ddce9916","ios":"levelo://app?vid=5a3fd4a6-1755-465c-8d8f-1a84ddce9916"},"vehicle_type_id":"4","last_reported":1726049358,"current_range_meters":26000,"station_id":"ce4bhgp2rcd13ifvqfd0","pricing_plan_id":"cebpf4jnsgd1na2vs0mg"},{"bike_id":"da13a46c-41f2-424e-b687-72ec7560f69d","system_id":"levelo_inurba_marseille","lat":43.26196,"lon":5.37934,"is_reserved":false,"is_disabled":false,"rental_uris":{"android":"levelo://app?vid=da13a46c-41f2-424e-b687-72ec7560f69d","ios":"levelo://app?vid=da13a46c-41f2-424e-b687-72ec7560f69d"},"vehicle_type_id":"4","last_reported":1726049358,"current_range_meters":39200,"station_id":"ce4bhjp2rcd13ifvqg90","pricing_plan_id":"cebpf4jnsgd1na2vs0mg"},{"bike_id":"d5857567-e062-4ec2-b65b-5f36e66c17d8","system_id":"levelo_inurba_marseille","lat":43.24648,"lon":5.38893,"is_reserved":false,"is_disabled":false,"rental_uris":{"android":"levelo://app?vid=d5857567-e062-4ec2-b65b-5f36e66c17d8","ios":"levelo://app?vid=d5857567-e062-4ec2-b65b-5f36e66c17d8"},"vehicle_type_id":"4","last_reported":1726049358,"current_range_meters":14800,"station_id":"ce4bhg12rcd13ifvqf60","pricing_plan_id":"cebpf4jnsgd1na2vs0mg"},{"bike_id":"d5c92765-a644-453e-87c5-cad020da627e","system_id":"levelo_inurba_marseille","lat":43.30457,"lon":5.37904,"is_reserved":false,"is_disabled":false,"rental_uris":{"android":"levelo://app?vid=d5c92765-a644-453e-87c5-cad020da627e","ios":"levelo://app?vid=d5c92765-a644-453e-87c5-cad020da627e"},"vehicle_type_id":"4","last_reported":1726049358,"current_range_meters":38800,"station_id":"ce4bgup2rcd13ifvqcn0","pricing_plan_id":"cebpf4jnsgd1na2vs0mg"},{"bike_id":"d4952673-162f-4d71-90ad-a3621b19901e","system_id":"levelo_inurba_marseille","lat":43.28933,"lon":5.36636,"is_reserved":false,"is_disabled":false,"rental_uris":{"android":"levelo://app?vid=d4952673-162f-4d71-90ad-a3621b19901e","ios":"levelo://app?vid=d4952673-162f-4d71-90ad-a3621b19901e"},"vehicle_type_id":"4","last_reported":1726049358,"current_range_meters":32400,"station_id":"ce4bhap2rcd13ifvqek0","pricing_plan_id":"cebpf4jnsgd1na2vs0mg"},{"bike_id":"35c467e3-b6e2-4084-a3ac-2c1c8a266555","system_id":"levelo_inurba_marseille","lat":43.33604,"lon":5.4103,"is_reserved":false,"is_disabled":false,"rental_uris":{"android":"levelo://app?vid=35c467e3-b6e2-4084-a3ac-2c1c8a266555","ios":"levelo://app?vid=35c467e3-b6e2-4084-a3ac-2c1c8a266555"},"vehicle_type_id":"4","last_reported":1726049358,"current_range_meters":5600,"station_id":"ce4bhqh2rcd13ifvqhmg","pricing_plan_id":"cebpf4jnsgd1na2vs0mg"},{"bike_id":"5876c5ef-9fac-478d-bd3c-ea1780c21005","system_id":"levelo_inurba_marseille","lat":43.33755,"lon":5.37446,"is_reserved":false,"is_disabled":false,"rental_uris":{"android":"levelo://app?vid=5876c5ef-9fac-478d-bd3c-ea1780c21005","ios":"levelo://app?vid=5876c5ef-9fac-478d-bd3c-ea1780c21005"},"vehicle_type_id":"4","last_reported":1726049358,"current_range_meters":38800,"station_id":"","pricing_plan_id":"cebpf4jnsgd1na2vs0mg"},{"bike_id":"3ef293cb-6b10-47c2-a61b-1c747b67c2aa","system_id":"levelo_inurba_marseille","lat":43.22929,"lon":5.35378,"is_reserved":false,"is_disabled":false,"rental_uris":{"android":"levelo://app?vid=3ef293cb-6b10-47c2-a61b-1c747b67c2aa","ios":"levelo://app?vid=3ef293cb-6b10-47c2-a61b-1c747b67c2aa"},"vehicle_type_id":"4","last_reported":1726049358,"current_range_meters":36000,"station_id":"cpo3532slgdg3j2ikp40","pricing_plan_id":"cebpf4jnsgd1na2vs0mg"},{"bike_id":"9658173f-729f-44c0-b272-df35fcc2e649","system_id":"levelo_inurba_marseille","lat":43.34143,"lon":5.40911,"is_reserved":false,"is_disabled":false,"rental_uris":{"android":"levelo://app?vid=9658173f-729f-44c0-b272-df35fcc2e649","ios":"levelo://app?vid=9658173f-729f-44c0-b272-df35fcc2e649"},"vehicle_type_id":"4","last_reported":1726049358,"current_range_meters":31200,"station_id":"ce4bhqh2rcd13ifvqhlg","pricing_plan_id":"cebpf4jnsgd1na2vs0mg"},{"bike_id":"de997810-7554-46cd-8ba3-7bf0bb9bdff4","system_id":"levelo_inurba_marseille","lat":43.25932,"lon":5.40911,"is_reserved":false,"is_disabled":false,"rental_uris":{"android":"levelo://app?vid=de997810-7554-46cd-8ba3-7bf0bb9bdff4","ios":"levelo://app?vid=de997810-7554-46cd-8ba3-7bf0bb9bdff4"},"vehicle_type_id":"4","last_reported":1726049358,"current_range_meters":28000,"station_id":"ce4bhm92rcd13ifvqglg","pricing_plan_id":"cebpf4jnsgd1na2vs0mg"},{"bike_id":"49bc212b-7e1a-46c5-acc7-cf861ed81b1e","system_id":"levelo_inurba_marseille","lat":43.30312,"lon":5.36903,"is_reserved":false,"is_disabled":false,"rental_uris":{"android":"levelo://app?vid=49bc212b-7e1a-46c5-acc7-cf861ed81b1e","ios":"levelo://app?vid=49bc212b-7e1a-46c5-acc7-cf861ed81b1e"},"vehicle_type_id":"4","last_reported":1726049358,"current_range_meters":38000,"station_id":"ce4bgqh2rcd13ifvqc5g","pricing_plan_id":"cebpf4jnsgd1na2vs0mg"},{"bike_id":"9e625c4a-2f61-4ebc-be50-04f2d83ca316","system_id":"levelo_inurba_marseille","lat":43.2917,"lon":5.37154,"is_reserved":false,"is_disabled":false,"rental_uris":{"android":"levelo://app?vid=9e625c4a-2f61-4ebc-be50-04f2d83ca316","ios":"levelo://app?vid=9e625c4a-2f61-4ebc-be50-04f2d83ca316"},"vehicle_type_id":"4","last_reported":1726049358,"current_range_meters":33600,"station_id":"ce4bha92rcd13ifvqeh0","pricing_plan_id":"cebpf4jnsgd1na2vs0mg"},{"bike_id":"3cb37704-2c0a-4b43-acfb-f3a019b47de4","system_id":"levelo_inurba_marseille","lat":43.27574,"lon":5.38424,"is_reserved":false,"is_disabled":false,"rental_uris":{"android":"levelo://app?vid=3cb37704-2c0a-4b43-acfb-f3a019b47de4","ios":"levelo://app?vid=3cb37704-2c0a-4b43-acfb-f3a019b47de4"},"vehicle_type_id":"4","last_reported":1726049358,"current_range_meters":4000,"station_id":"ce4bhh92rcd13ifvqfi0","pricing_plan_id":"cebpf4jnsgd1na2vs0mg"},{"bike_id":"e560255c-57d7-41c4-9fc9-0f5702c89184","system_id":"levelo_inurba_marseille","lat":43.29571,"lon":5.37527,"is_reserved":false,"is_disabled":false,"rental_uris":{"android":"levelo://app?vid=e560255c-57d7-41c4-9fc9-0f5702c89184","ios":"levelo://app?vid=e560255c-57d7-41c4-9fc9-0f5702c89184"},"vehicle_type_id":"4","last_reported":1726049358,"current_range_meters":32800,"station_id":"ce4bgh92rcd13ifvqb50","pricing_plan_id":"cebpf4jnsgd1na2vs0mg"},{"bike_id":"7cec4baf-d9d5-44ef-839d-0137df7f81e4","system_id":"levelo_inurba_marseille","lat":43.29593,"lon":5.3773,"is_reserved":false,"is_disabled":false,"rental_uris":{"android":"levelo://app?vid=7cec4baf-d9d5-44ef-839d-0137df7f81e4","ios":"levelo://app?vid=7cec4baf-d9d5-44ef-839d-0137df7f81e4"},"vehicle_type_id":"4","last_reported":1726049358,"current_range_meters":24000,"station_id":"ce4bgi92rcd13ifvqb90","pricing_plan_id":"cebpf4jnsgd1na2vs0mg"},{"bike_id":"34666dc3-34bb-4b53-8f62-2ce2a4ce5802","system_id":"levelo_inurba_marseille","lat":43.30889,"lon":5.37205,"is_reserved":false,"is_disabled":false,"rental_uris":{"android":"levelo://app?vid=34666dc3-34bb-4b53-8f62-2ce2a4ce5802","ios":"levelo://app?vid=34666dc3-34bb-4b53-8f62-2ce2a4ce5802"},"vehicle_type_id":"4","last_reported":1726049358,"current_range_meters":35200,"station_id":"ce4bguh2rcd13ifvqckg","pricing_plan_id":"cebpf4jnsgd1na2vs0mg"},{"bike_id":"ea819ce7-e7bf-48a2-ac96-42c69241eb83","system_id":"levelo_inurba_marseille","lat":43.29624,"lon":5.37169,"is_reserved":false,"is_disabled":false,"rental_uris":{"android":"levelo://app?vid=ea819ce7-e7bf-48a2-ac96-42c69241eb83","ios":"levelo://app?vid=ea819ce7-e7bf-48a2-ac96-42c69241eb83"},"vehicle_type_id":"4","last_reported":1726049358,"current_range_meters":39200,"station_id":"ce4bgnh2rcd13ifvqc0g","pricing_plan_id":"cebpf4jnsgd1na2vs0mg"},{"bike_id":"5722f385-0124-4bed-a8de-85c0d18d21ac","system_id":"levelo_inurba_marseille","lat":43.25941,"lon":5.40899,"is_reserved":false,"is_disabled":false,"rental_uris":{"android":"levelo://app?vid=5722f385-0124-4bed-a8de-85c0d18d21ac","ios":"levelo://app?vid=5722f385-0124-4bed-a8de-85c0d18d21ac"},"vehicle_type_id":"4","last_reported":1726049358,"current_range_meters":29600,"station_id":"ce4bhm92rcd13ifvqglg","pricing_plan_id":"cebpf4jnsgd1na2vs0mg"},{"bike_id":"06a3b238-f927-495c-94aa-c033dc4b5587","system_id":"levelo_inurba_marseille","lat":43.26778,"lon":5.39417,"is_reserved":false,"is_disabled":false,"rental_uris":{"android":"levelo://app?vid=06a3b238-f927-495c-94aa-c033dc4b5587","ios":"levelo://app?vid=06a3b238-f927-495c-94aa-c033dc4b5587"},"vehicle_type_id":"4","last_reported":1726049358,"current_range_meters":28800,"station_id":"ce4bhh12rcd13ifvqfg0","pricing_plan_id":"cebpf4jnsgd1na2vs0mg"},{"bike_id":"a5ebfc3b-dfca-42ce-a6b2-fff0f4aa1394","system_id":"levelo_inurba_marseille","lat":43.29681,"lon":5.37295,"is_reserved":false,"is_disabled":false,"rental_uris":{"android":"levelo://app?vid=a5ebfc3b-dfca-42ce-a6b2-fff0f4aa1394","ios":"levelo://app?vid=a5ebfc3b-dfca-42ce-a6b2-fff0f4aa1394"},"vehicle_type_id":"4","last_reported":1726049358,"current_range_meters":24400,"station_id":"ce4bgk12rcd13ifvqbj0","pricing_plan_id":"cebpf4jnsgd1na2vs0mg"},{"bike_id":"321dc09b-9853-4170-af08-25a0d828d560","system_id":"levelo_inurba_marseille","lat":43.23184,"lon":5.39975,"is_reserved":false,"is_disabled":false,"rental_uris":{"android":"levelo://app?vid=321dc09b-9853-4170-af08-25a0d828d560","ios":"levelo://app?vid=321dc09b-9853-4170-af08-25a0d828d560"},"vehicle_type_id":"4","last_reported":1726049358,"current_range_meters":25200,"station_id":"ce4bhn12rcd13ifvqgqg","pricing_plan_id":"cebpf4jnsgd1na2vs0mg"},{"bike_id":"f55d599d-5ea0-46b2-9016-2c7f5c7bf02c","system_id":"levelo_inurba_marseille","lat":43.2705,"lon":5.40268,"is_reserved":false,"is_disabled":false,"rental_uris":{"android":"levelo://app?vid=f55d599d-5ea0-46b2-9016-2c7f5c7bf02c","ios":"levelo://app?vid=f55d599d-5ea0-46b2-9016-2c7f5c7bf02c"},"vehicle_type_id":"4","last_reported":1726049358,"current_range_meters":9200,"station_id":"ce4bhk92rcd13ifvqgb0","pricing_plan_id":"cebpf4jnsgd1na2vs0mg"},{"bike_id":"b90216dc-50a9-45f1-a9c4-3fcc8ec94ff5","system_id":"levelo_inurba_marseille","lat":43.31173,"lon":5.39344,"is_reserved":false,"is_disabled":false,"rental_uris":{"android":"levelo://app?vid=b90216dc-50a9-45f1-a9c4-3fcc8ec94ff5","ios":"levelo://app?vid=b90216dc-50a9-45f1-a9c4-3fcc8ec94ff5"},"vehicle_type_id":"4","last_reported":1726049358,"current_range_meters":10000,"station_id":"","pricing_plan_id":"cebpf4jnsgd1na2vs0mg"},{"bike_id":"a413017d-7b39-4212-a545-d797becdc991","system_id":"levelo_inurba_marseille","lat":43.23149,"lon":5.43719,"is_reserved":false,"is_disabled":false,"rental_uris":{"android":"levelo://app?vid=a413017d-7b39-4212-a545-d797becdc991","ios":"levelo://app?vid=a413017d-7b39-4212-a545-d797becdc991"},"vehicle_type_id":"4","last_reported":1726049358,"current_range_meters":10000,"station_id":"ce4bhmp2rcd13ifvqgog","pricing_plan_id":"cebpf4jnsgd1na2vs0mg"},{"bike_id":"f3e09029-e952-48e6-8aff-b1e72566ae98","system_id":"levelo_inurba_marseille","lat":43.32534,"lon":5.41435,"is_reserved":false,"is_disabled":false,"rental_uris":{"android":"levelo://app?vid=f3e09029-e952-48e6-8aff-b1e72566ae98","ios":"levelo://app?vid=f3e09029-e952-48e6-8aff-b1e72566ae98"},"vehicle_type_id":"4","last_reported":1726049358,"current_range_meters":7200,"station_id":"ce4bhq12rcd13ifvqhhg","pricing_plan_id":"cebpf4jnsgd1na2vs0mg"},{"bike_id":"59452dd9-ff15-4f36-93a3-e231c3f0565f","system_id":"levelo_inurba_marseille","lat":43.29878,"lon":5.39735,"is_reserved":false,"is_disabled":false,"rental_uris":{"android":"levelo://app?vid=59452dd9-ff15-4f36-93a3-e231c3f0565f","ios":"levelo://app?vid=59452dd9-ff15-4f36-93a3-e231c3f0565f"},"vehicle_type_id":"4","last_reported":1726049358,"current_range_meters":34000,"station_id":"ce4bh0h2rcd13ifvqd50","pricing_plan_id":"cebpf4jnsgd1na2vs0mg"},{"bike_id":"c8e0fcb6-1d3f-4d83-b861-1f56e6b3ab2c","system_id":"levelo_inurba_marseille","lat":43.32287,"lon":5.38278,"is_reserved":false,"is_disabled":false,"rental_uris":{"android":"levelo://app?vid=c8e0fcb6-1d3f-4d83-b861-1f56e6b3ab2c","ios":"levelo://app?vid=c8e0fcb6-1d3f-4d83-b861-1f56e6b3ab2c"},"vehicle_type_id":"4","last_reported":1726049358,"current_range_meters":32400,"station_id":"ce4bhr12rcd13ifvqhqg","pricing_plan_id":"cebpf4jnsgd1na2vs0mg"},{"bike_id":"09126ccf-c12c-42c4-8020-e01b0a2af2b0","system_id":"levelo_inurba_marseille","lat":43.30924,"lon":5.37948,"is_reserved":false,"is_disabled":false,"rental_uris":{"android":"levelo://app?vid=09126ccf-c12c-42c4-8020-e01b0a2af2b0","ios":"levelo://app?vid=09126ccf-c12c-42c4-8020-e01b0a2af2b0"},"vehicle_type_id":"4","last_reported":1726049358,"current_range_meters":37600,"station_id":"","pricing_plan_id":"cebpf4jnsgd1na2vs0mg"},{"bike_id":"7c7c72c7-8d5a-4dff-8628-f4aeb59542e2","system_id":"levelo_inurba_marseille","lat":43.31353,"lon":5.36723,"is_reserved":false,"is_disabled":false,"rental_uris":{"android":"levelo://app?vid=7c7c72c7-8d5a-4dff-8628-f4aeb59542e2","ios":"levelo://app?vid=7c7c72c7-8d5a-4dff-8628-f4aeb59542e2"},"vehicle_type_id":"4","last_reported":1726049358,"current_range_meters":12800,"station_id":"ce4bgr92rcd13ifvqc6g","pricing_plan_id":"cebpf4jnsgd1na2vs0mg"},{"bike_id":"394ba6fe-4a64-44af-8ad8-9ff0cdf59d14","system_id":"levelo_inurba_marseille","lat":43.3055,"lon":5.36538,"is_reserved":false,"is_disabled":false,"rental_uris":{"android":"levelo://app?vid=394ba6fe-4a64-44af-8ad8-9ff0cdf59d14","ios":"levelo://app?vid=394ba6fe-4a64-44af-8ad8-9ff0cdf59d14"},"vehicle_type_id":"4","last_reported":1726049358,"current_range_meters":18800,"station_id":"ce4bgs12rcd13ifvqcag","pricing_plan_id":"cebpf4jnsgd1na2vs0mg"},{"bike_id":"1b273375-c882-4922-939f-2e43f8c2ce12","system_id":"levelo_inurba_marseille","lat":43.30532,"lon":5.36732,"is_reserved":false,"is_disabled":false,"rental_uris":{"android":"levelo://app?vid=1b273375-c882-4922-939f-2e43f8c2ce12","ios":"levelo://app?vid=1b273375-c882-4922-939f-2e43f8c2ce12"},"vehicle_type_id":"4","last_reported":1726049358,"current_range_meters":38400,"station_id":"ce4bgrp2rcd13ifvqc9g","pricing_plan_id":"cebpf4jnsgd1na2vs0mg"},{"bike_id":"ac17a085-cb8e-4b01-babc-8ce4e657bed3","system_id":"levelo_inurba_marseille","lat":43.24078,"lon":5.37735,"is_reserved":false,"is_disabled":false,"rental_uris":{"android":"levelo://app?vid=ac17a085-cb8e-4b01-babc-8ce4e657bed3","ios":"levelo://app?vid=ac17a085-cb8e-4b01-babc-8ce4e657bed3"},"vehicle_type_id":"4","last_reported":1726049358,"current_range_meters":16000,"station_id":"ce4bhnp2rcd13ifvqgvg","pricing_plan_id":"cebpf4jnsgd1na2vs0mg"},{"bike_id":"74e737b5-82b3-4055-9407-d70bde56ceed","system_id":"levelo_inurba_marseille","lat":43.30905,"lon":5.36851,"is_reserved":false,"is_disabled":false,"rental_uris":{"android":"levelo://app?vid=74e737b5-82b3-4055-9407-d70bde56ceed","ios":"levelo://app?vid=74e737b5-82b3-4055-9407-d70bde56ceed"},"vehicle_type_id":"4","last_reported":1726049358,"current_range_meters":33600,"station_id":"ce4bgn92rcd13ifvqbvg","pricing_plan_id":"cebpf4jnsgd1na2vs0mg"},{"bike_id":"9610f388-60c6-49bb-84bb-4ea91a1f925b","system_id":"levelo_inurba_marseille","lat":43.29551,"lon":5.42278,"is_reserved":false,"is_disabled":false,"rental_uris":{"android":"levelo://app?vid=9610f388-60c6-49bb-84bb-4ea91a1f925b","ios":"levelo://app?vid=9610f388-60c6-49bb-84bb-4ea91a1f925b"},"vehicle_type_id":"4","last_reported":1726049358,"current_range_meters":5600,"station_id":"ce4bhph2rcd13ifvqhdg","pricing_plan_id":"cebpf4jnsgd1na2vs0mg"},{"bike_id":"cbd47430-6678-4dfb-8022-31198711ea30","system_id":"levelo_inurba_marseille","lat":43.27489,"lon":5.42459,"is_reserved":false,"is_disabled":false,"rental_uris":{"android":"levelo://app?vid=cbd47430-6678-4dfb-8022-31198711ea30","ios":"levelo://app?vid=cbd47430-6678-4dfb-8022-31198711ea30"},"vehicle_type_id":"4","last_reported":1726049358,"current_range_meters":30000,"station_id":"ce4bhn92rcd13ifvqgrg","pricing_plan_id":"cebpf4jnsgd1na2vs0mg"},{"bike_id":"686200cf-ae29-4aac-802a-2e115e5925d1","system_id":"levelo_inurba_marseille","lat":43.2781,"lon":5.40714,"is_reserved":false,"is_disabled":false,"rental_uris":{"android":"levelo://app?vid=686200cf-ae29-4aac-802a-2e115e5925d1","ios":"levelo://app?vid=686200cf-ae29-4aac-802a-2e115e5925d1"},"vehicle_type_id":"4","last_reported":1726049358,"current_range_meters":3600,"station_id":"ce4bhnh2rcd13ifvqgtg","pricing_plan_id":"cebpf4jnsgd1na2vs0mg"},{"bike_id":"51e13f07-3491-4911-be5b-b4c992f74f41","system_id":"levelo_inurba_marseille","lat":43.27809,"lon":5.40711,"is_reserved":false,"is_disabled":false,"rental_uris":{"android":"levelo://app?vid=51e13f07-3491-4911-be5b-b4c992f74f41","ios":"levelo://app?vid=51e13f07-3491-4911-be5b-b4c992f74f41"},"vehicle_type_id":"4","last_reported":1726049358,"current_range_meters":26000,"station_id":"ce4bhnh2rcd13ifvqgtg","pricing_plan_id":"cebpf4jnsgd1na2vs0mg"},{"bike_id":"4c3117c8-2e6a-45cc-870e-e484ef7533df","system_id":"levelo_inurba_marseille","lat":43.34145,"lon":5.40898,"is_reserved":false,"is_disabled":false,"rental_uris":{"android":"levelo://app?vid=4c3117c8-2e6a-45cc-870e-e484ef7533df","ios":"levelo://app?vid=4c3117c8-2e6a-45cc-870e-e484ef7533df"},"vehicle_type_id":"4","last_reported":1726049358,"current_range_meters":28000,"station_id":"ce4bhqh2rcd13ifvqhlg","pricing_plan_id":"cebpf4jnsgd1na2vs0mg"},{"bike_id":"561d409b-d907-479c-8841-67d63056b914","system_id":"levelo_inurba_marseille","lat":43.23958,"lon":5.36636,"is_reserved":false,"is_disabled":false,"rental_uris":{"android":"levelo://app?vid=561d409b-d907-479c-8841-67d63056b914","ios":"levelo://app?vid=561d409b-d907-479c-8841-67d63056b914"},"vehicle_type_id":"4","last_reported":1726049358,"current_range_meters":35200,"station_id":"ce4bhi12rcd13ifvqfp0","pricing_plan_id":"cebpf4jnsgd1na2vs0mg"},{"bike_id":"4cb3f6a4-d878-42a2-8c6f-53aacf3eda67","system_id":"levelo_inurba_marseille","lat":43.30552,"lon":5.36532,"is_reserved":false,"is_disabled":false,"rental_uris":{"android":"levelo://app?vid=4cb3f6a4-d878-42a2-8c6f-53aacf3eda67","ios":"levelo://app?vid=4cb3f6a4-d878-42a2-8c6f-53aacf3eda67"},"vehicle_type_id":"4","last_reported":1726049358,"current_range_meters":31200,"station_id":"ce4bgs12rcd13ifvqcag","pricing_plan_id":"cebpf4jnsgd1na2vs0mg"},{"bike_id":"f400d370-a20e-4ced-86f0-64f62510749c","system_id":"levelo_inurba_marseille","lat":43.3237,"lon":5.38926,"is_reserved":false,"is_disabled":false,"rental_uris":{"android":"levelo://app?vid=f400d370-a20e-4ced-86f0-64f62510749c","ios":"levelo://app?vid=f400d370-a20e-4ced-86f0-64f62510749c"},"vehicle_type_id":"4","last_reported":1726049358,"current_range_meters":14400,"station_id":"","pricing_plan_id":"cebpf4jnsgd1na2vs0mg"},{"bike_id":"e26ea632-3d97-42c4-9dee-28d7ccc38e8f","system_id":"levelo_inurba_marseille","lat":43.3091,"lon":5.36843,"is_reserved":false,"is_disabled":false,"rental_uris":{"android":"levelo://app?vid=e26ea632-3d97-42c4-9dee-28d7ccc38e8f","ios":"levelo://app?vid=e26ea632-3d97-42c4-9dee-28d7ccc38e8f"},"vehicle_type_id":"4","last_reported":1726049358,"current_range_meters":3200,"station_id":"ce4bgn92rcd13ifvqbvg","pricing_plan_id":"cebpf4jnsgd1na2vs0mg"},{"bike_id":"69275714-1303-43b4-ba7d-b605de8daafb","system_id":"levelo_inurba_marseille","lat":43.279078,"lon":5.39571,"is_reserved":false,"is_disabled":false,"rental_uris":{"android":"levelo://app?vid=69275714-1303-43b4-ba7d-b605de8daafb","ios":"levelo://app?vid=69275714-1303-43b4-ba7d-b605de8daafb"},"vehicle_type_id":"4","last_reported":1726049358,"current_range_meters":27600,"station_id":"ce4bhf92rcd13ifvqf40","pricing_plan_id":"cebpf4jnsgd1na2vs0mg"},{"bike_id":"143049cf-4830-4219-a121-2a60df83aa5d","system_id":"levelo_inurba_marseille","lat":43.337444,"lon":5.374475,"is_reserved":false,"is_disabled":false,"rental_uris":{"android":"levelo://app?vid=143049cf-4830-4219-a121-2a60df83aa5d","ios":"levelo://app?vid=143049cf-4830-4219-a121-2a60df83aa5d"},"vehicle_type_id":"4","last_reported":1726049358,"current_range_meters":37600,"station_id":"","pricing_plan_id":"cebpf4jnsgd1na2vs0mg"},{"bike_id":"2ce8588b-7467-4a8b-960d-37fd9acc64f5","system_id":"levelo_inurba_marseille","lat":43.250286,"lon":5.388808,"is_reserved":false,"is_disabled":false,"rental_uris":{"android":"levelo://app?vid=2ce8588b-7467-4a8b-960d-37fd9acc64f5","ios":"levelo://app?vid=2ce8588b-7467-4a8b-960d-37fd9acc64f5"},"vehicle_type_id":"4","last_reported":1726049358,"current_range_meters":24800,"station_id":"ce4bhgp2rcd13ifvqfd0","pricing_plan_id":"cebpf4jnsgd1na2vs0mg"},{"bike_id":"7e9a963d-e38b-4309-9da9-6ffb6f337b1b","system_id":"levelo_inurba_marseille","lat":43.30313,"lon":5.36895,"is_reserved":false,"is_disabled":false,"rental_uris":{"android":"levelo://app?vid=7e9a963d-e38b-4309-9da9-6ffb6f337b1b","ios":"levelo://app?vid=7e9a963d-e38b-4309-9da9-6ffb6f337b1b"},"vehicle_type_id":"4","last_reported":1726049358,"current_range_meters":38400,"station_id":"ce4bgqh2rcd13ifvqc5g","pricing_plan_id":"cebpf4jnsgd1na2vs0mg"},{"bike_id":"36713ec7-a069-4686-964e-0c43464ea6fb","system_id":"levelo_inurba_marseille","lat":43.32487,"lon":5.36558,"is_reserved":false,"is_disabled":false,"rental_uris":{"android":"levelo://app?vid=36713ec7-a069-4686-964e-0c43464ea6fb","ios":"levelo://app?vid=36713ec7-a069-4686-964e-0c43464ea6fb"},"vehicle_type_id":"4","last_reported":1726049358,"current_range_meters":23200,"station_id":"ce4bhs12rcd13ifvqhvg","pricing_plan_id":"cebpf4jnsgd1na2vs0mg"},{"bike_id":"3be8d45e-74ba-4cbf-b146-48ea7f5342d3","system_id":"levelo_inurba_marseille","lat":43.2693,"lon":5.3891,"is_reserved":false,"is_disabled":false,"rental_uris":{"android":"levelo://app?vid=3be8d45e-74ba-4cbf-b146-48ea7f5342d3","ios":"levelo://app?vid=3be8d45e-74ba-4cbf-b146-48ea7f5342d3"},"vehicle_type_id":"4","last_reported":1726049358,"current_range_meters":35600,"station_id":"ce4bhhh2rcd13ifvqfl0","pricing_plan_id":"cebpf4jnsgd1na2vs0mg"},{"bike_id":"87665354-7bda-4012-9c04-760f7be02f22","system_id":"levelo_inurba_marseille","lat":43.30465,"lon":5.379,"is_reserved":false,"is_disabled":false,"rental_uris":{"android":"levelo://app?vid=87665354-7bda-4012-9c04-760f7be02f22","ios":"levelo://app?vid=87665354-7bda-4012-9c04-760f7be02f22"},"vehicle_type_id":"4","last_reported":1726049358,"current_range_meters":36800,"station_id":"ce4bgup2rcd13ifvqcn0","pricing_plan_id":"cebpf4jnsgd1na2vs0mg"},{"bike_id":"e5ed0075-14c4-4d1d-a9af-a1ffecf526a7","system_id":"levelo_inurba_marseille","lat":43.2984,"lon":5.36269,"is_reserved":false,"is_disabled":false,"rental_uris":{"android":"levelo://app?vid=e5ed0075-14c4-4d1d-a9af-a1ffecf526a7","ios":"levelo://app?vid=e5ed0075-14c4-4d1d-a9af-a1ffecf526a7"},"vehicle_type_id":"4","last_reported":1726049358,"current_range_meters":36400,"station_id":"ce4bgpp2rcd13ifvqc3g","pricing_plan_id":"cebpf4jnsgd1na2vs0mg"},{"bike_id":"86a93c5f-4ce0-4112-bb67-afd493faa7b4","system_id":"levelo_inurba_marseille","lat":43.30768,"lon":5.43538,"is_reserved":false,"is_disabled":false,"rental_uris":{"android":"levelo://app?vid=86a93c5f-4ce0-4112-bb67-afd493faa7b4","ios":"levelo://app?vid=86a93c5f-4ce0-4112-bb67-afd493faa7b4"},"vehicle_type_id":"4","last_reported":1726049358,"current_range_meters":27600,"station_id":"","pricing_plan_id":"cebpf4jnsgd1na2vs0mg"},{"bike_id":"efb90d7e-2c7c-486d-95ca-2cb71fb25773","system_id":"levelo_inurba_marseille","lat":43.27487,"lon":5.42459,"is_reserved":false,"is_disabled":false,"rental_uris":{"android":"levelo://app?vid=efb90d7e-2c7c-486d-95ca-2cb71fb25773","ios":"levelo://app?vid=efb90d7e-2c7c-486d-95ca-2cb71fb25773"},"vehicle_type_id":"4","last_reported":1726049358,"current_range_meters":16000,"station_id":"ce4bhn92rcd13ifvqgrg","pricing_plan_id":"cebpf4jnsgd1na2vs0mg"},{"bike_id":"cec131b6-6c84-4899-9723-159f4b060af5","system_id":"levelo_inurba_marseille","lat":43.31699,"lon":5.3775,"is_reserved":false,"is_disabled":false,"rental_uris":{"android":"levelo://app?vid=cec131b6-6c84-4899-9723-159f4b060af5","ios":"levelo://app?vid=cec131b6-6c84-4899-9723-159f4b060af5"},"vehicle_type_id":"4","last_reported":1726049358,"current_range_meters":8000,"station_id":"ce4bgth2rcd13ifvqch0","pricing_plan_id":"cebpf4jnsgd1na2vs0mg"},{"bike_id":"3765190e-2069-41b2-b4f0-1e9a4c74ff2a","system_id":"levelo_inurba_marseille","lat":43.265971,"lon":5.390224,"is_reserved":false,"is_disabled":false,"rental_uris":{"android":"levelo://app?vid=3765190e-2069-41b2-b4f0-1e9a4c74ff2a","ios":"levelo://app?vid=3765190e-2069-41b2-b4f0-1e9a4c74ff2a"},"vehicle_type_id":"4","last_reported":1726049358,"current_range_meters":27200,"station_id":"ce4bhe12rcd13ifvqf30","pricing_plan_id":"cebpf4jnsgd1na2vs0mg"},{"bike_id":"2cfe9cf9-8c5e-4154-acba-0a54170b6cb3","system_id":"levelo_inurba_marseille","lat":43.25932,"lon":5.4091,"is_reserved":false,"is_disabled":false,"rental_uris":{"android":"levelo://app?vid=2cfe9cf9-8c5e-4154-acba-0a54170b6cb3","ios":"levelo://app?vid=2cfe9cf9-8c5e-4154-acba-0a54170b6cb3"},"vehicle_type_id":"4","last_reported":1726049358,"current_range_meters":36400,"station_id":"ce4bhm92rcd13ifvqglg","pricing_plan_id":"cebpf4jnsgd1na2vs0mg"},{"bike_id":"b28d705b-3cc2-4c10-9096-b8f931c31076","system_id":"levelo_inurba_marseille","lat":43.30543,"lon":5.36702,"is_reserved":false,"is_disabled":false,"rental_uris":{"android":"levelo://app?vid=b28d705b-3cc2-4c10-9096-b8f931c31076","ios":"levelo://app?vid=b28d705b-3cc2-4c10-9096-b8f931c31076"},"vehicle_type_id":"4","last_reported":1726049358,"current_range_meters":12800,"station_id":"ce4bgrp2rcd13ifvqc9g","pricing_plan_id":"cebpf4jnsgd1na2vs0mg"},{"bike_id":"7a3dc89b-ed41-455a-91f6-833d28c607aa","system_id":"levelo_inurba_marseille","lat":43.28156,"lon":5.42638,"is_reserved":false,"is_disabled":false,"rental_uris":{"android":"levelo://app?vid=7a3dc89b-ed41-455a-91f6-833d28c607aa","ios":"levelo://app?vid=7a3dc89b-ed41-455a-91f6-833d28c607aa"},"vehicle_type_id":"4","last_reported":1726049358,"current_range_meters":8000,"station_id":"ce4bhnh2rcd13ifvqgug","pricing_plan_id":"cebpf4jnsgd1na2vs0mg"},{"bike_id":"61cf4a3a-2942-44a8-a346-1fbbdf1a4d5c","system_id":"levelo_inurba_marseille","lat":43.23149,"lon":5.43712,"is_reserved":false,"is_disabled":false,"rental_uris":{"android":"levelo://app?vid=61cf4a3a-2942-44a8-a346-1fbbdf1a4d5c","ios":"levelo://app?vid=61cf4a3a-2942-44a8-a346-1fbbdf1a4d5c"},"vehicle_type_id":"4","last_reported":1726049358,"current_range_meters":14000,"station_id":"ce4bhmp2rcd13ifvqgog","pricing_plan_id":"cebpf4jnsgd1na2vs0mg"},{"bike_id":"ecb52846-689a-49bc-8193-14c65e92d677","system_id":"levelo_inurba_marseille","lat":43.29191,"lon":5.35801,"is_reserved":false,"is_disabled":false,"rental_uris":{"android":"levelo://app?vid=ecb52846-689a-49bc-8193-14c65e92d677","ios":"levelo://app?vid=ecb52846-689a-49bc-8193-14c65e92d677"},"vehicle_type_id":"4","last_reported":1726049358,"current_range_meters":21600,"station_id":"ce4bhb12rcd13ifvqel0","pricing_plan_id":"cebpf4jnsgd1na2vs0mg"},{"bike_id":"6bae01a8-ba1f-420f-b06d-c8a7dfde70f9","system_id":"levelo_inurba_marseille","lat":43.30458,"lon":5.37894,"is_reserved":false,"is_disabled":false,"rental_uris":{"android":"levelo://app?vid=6bae01a8-ba1f-420f-b06d-c8a7dfde70f9","ios":"levelo://app?vid=6bae01a8-ba1f-420f-b06d-c8a7dfde70f9"},"vehicle_type_id":"4","last_reported":1726049358,"current_range_meters":37600,"station_id":"ce4bgup2rcd13ifvqcn0","pricing_plan_id":"cebpf4jnsgd1na2vs0mg"},{"bike_id":"38a69614-fc80-4fe6-9020-2aa2f561d214","system_id":"levelo_inurba_marseille","lat":43.2668,"lon":5.38264,"is_reserved":false,"is_disabled":false,"rental_uris":{"android":"levelo://app?vid=38a69614-fc80-4fe6-9020-2aa2f561d214","ios":"levelo://app?vid=38a69614-fc80-4fe6-9020-2aa2f561d214"},"vehicle_type_id":"4","last_reported":1726049358,"current_range_meters":39200,"station_id":"ce4bhg92rcd13ifvqf90","pricing_plan_id":"cebpf4jnsgd1na2vs0mg"},{"bike_id":"f9512620-8937-42df-b0f9-dddc2d1232b9","system_id":"levelo_inurba_marseille","lat":43.28423,"lon":5.35,"is_reserved":false,"is_disabled":false,"rental_uris":{"android":"levelo://app?vid=f9512620-8937-42df-b0f9-dddc2d1232b9","ios":"levelo://app?vid=f9512620-8937-42df-b0f9-dddc2d1232b9"},"vehicle_type_id":"4","last_reported":1726049358,"current_range_meters":30000,"station_id":"ce4bhbh2rcd13ifvqepg","pricing_plan_id":"cebpf4jnsgd1na2vs0mg"},{"bike_id":"cd4d6f4d-c80a-4353-933b-1fafbf4b8f64","system_id":"levelo_inurba_marseille","lat":43.24166,"lon":5.36407,"is_reserved":false,"is_disabled":false,"rental_uris":{"android":"levelo://app?vid=cd4d6f4d-c80a-4353-933b-1fafbf4b8f64","ios":"levelo://app?vid=cd4d6f4d-c80a-4353-933b-1fafbf4b8f64"},"vehicle_type_id":"4","last_reported":1726049358,"current_range_meters":28000,"station_id":"cpo36qri1sfpv3e86is0","pricing_plan_id":"cebpf4jnsgd1na2vs0mg"},{"bike_id":"d488f307-0b43-452d-bee1-7e6508c5a44a","system_id":"levelo_inurba_marseille","lat":43.30555,"lon":5.36538,"is_reserved":false,"is_disabled":false,"rental_uris":{"android":"levelo://app?vid=d488f307-0b43-452d-bee1-7e6508c5a44a","ios":"levelo://app?vid=d488f307-0b43-452d-bee1-7e6508c5a44a"},"vehicle_type_id":"4","last_reported":1726049358,"current_range_meters":19600,"station_id":"ce4bgs12rcd13ifvqcag","pricing_plan_id":"cebpf4jnsgd1na2vs0mg"},{"bike_id":"b3df636e-f686-4e9e-b8c9-b1ef1e84f1e9","system_id":"levelo_inurba_marseille","lat":43.28085,"lon":5.396321,"is_reserved":false,"is_disabled":false,"rental_uris":{"android":"levelo://app?vid=b3df636e-f686-4e9e-b8c9-b1ef1e84f1e9","ios":"levelo://app?vid=b3df636e-f686-4e9e-b8c9-b1ef1e84f1e9"},"vehicle_type_id":"4","last_reported":1726049358,"current_range_meters":33200,"station_id":"ce4bho12rcd13ifvqh2g","pricing_plan_id":"cebpf4jnsgd1na2vs0mg"},{"bike_id":"f0ffdb24-39e6-4ef8-9638-48ae4d3ff902","system_id":"levelo_inurba_marseille","lat":43.26806,"lon":5.4026,"is_reserved":false,"is_disabled":false,"rental_uris":{"android":"levelo://app?vid=f0ffdb24-39e6-4ef8-9638-48ae4d3ff902","ios":"levelo://app?vid=f0ffdb24-39e6-4ef8-9638-48ae4d3ff902"},"vehicle_type_id":"4","last_reported":1726049358,"current_range_meters":33600,"station_id":"ce501612rcd8frsf0b60","pricing_plan_id":"cebpf4jnsgd1na2vs0mg"},{"bike_id":"04fe2daf-377b-4c46-a99e-e32641a28dbb","system_id":"levelo_inurba_marseille","lat":43.27942,"lon":5.41046,"is_reserved":false,"is_disabled":false,"rental_uris":{"android":"levelo://app?vid=04fe2daf-377b-4c46-a99e-e32641a28dbb","ios":"levelo://app?vid=04fe2daf-377b-4c46-a99e-e32641a28dbb"},"vehicle_type_id":"4","last_reported":1726049358,"current_range_meters":14800,"station_id":"ce4bhnp2rcd13ifvqh0g","pricing_plan_id":"cebpf4jnsgd1na2vs0mg"},{"bike_id":"365eec02-a8ae-43e7-8eb4-3379b9366190","system_id":"levelo_inurba_marseille","lat":43.23151,"lon":5.43709,"is_reserved":false,"is_disabled":false,"rental_uris":{"android":"levelo://app?vid=365eec02-a8ae-43e7-8eb4-3379b9366190","ios":"levelo://app?vid=365eec02-a8ae-43e7-8eb4-3379b9366190"},"vehicle_type_id":"4","last_reported":1726049358,"current_range_meters":18000,"station_id":"ce4bhmp2rcd13ifvqgog","pricing_plan_id":"cebpf4jnsgd1na2vs0mg"},{"bike_id":"c363a9df-d3b0-4a43-a7e3-f95f5f33265f","system_id":"levelo_inurba_marseille","lat":43.23052,"lon":5.35489,"is_reserved":false,"is_disabled":false,"rental_uris":{"android":"levelo://app?vid=c363a9df-d3b0-4a43-a7e3-f95f5f33265f","ios":"levelo://app?vid=c363a9df-d3b0-4a43-a7e3-f95f5f33265f"},"vehicle_type_id":"4","last_reported":1726049358,"current_range_meters":16400,"station_id":"cpo3342slgdg3j2ifvpg","pricing_plan_id":"cebpf4jnsgd1na2vs0mg"},{"bike_id":"e9851718-6392-4d75-a863-eb310907e97a","system_id":"levelo_inurba_marseille","lat":43.30547,"lon":5.36534,"is_reserved":false,"is_disabled":false,"rental_uris":{"android":"levelo://app?vid=e9851718-6392-4d75-a863-eb310907e97a","ios":"levelo://app?vid=e9851718-6392-4d75-a863-eb310907e97a"},"vehicle_type_id":"4","last_reported":1726049358,"current_range_meters":38800,"station_id":"ce4bgs12rcd13ifvqcag","pricing_plan_id":"cebpf4jnsgd1na2vs0mg"},{"bike_id":"4f070571-dc04-4a79-b1e9-9c894e8e4e03","system_id":"levelo_inurba_marseille","lat":43.26781,"lon":5.39418,"is_reserved":false,"is_disabled":false,"rental_uris":{"android":"levelo://app?vid=4f070571-dc04-4a79-b1e9-9c894e8e4e03","ios":"levelo://app?vid=4f070571-dc04-4a79-b1e9-9c894e8e4e03"},"vehicle_type_id":"4","last_reported":1726049358,"current_range_meters":15200,"station_id":"ce4bhh12rcd13ifvqfg0","pricing_plan_id":"cebpf4jnsgd1na2vs0mg"},{"bike_id":"dffdb7dd-a31f-4ebf-bc29-37869e0cfcbd","system_id":"levelo_inurba_marseille","lat":43.24177,"lon":5.3973,"is_reserved":false,"is_disabled":false,"rental_uris":{"android":"levelo://app?vid=dffdb7dd-a31f-4ebf-bc29-37869e0cfcbd","ios":"levelo://app?vid=dffdb7dd-a31f-4ebf-bc29-37869e0cfcbd"},"vehicle_type_id":"4","last_reported":1726049358,"current_range_meters":8400,"station_id":"ce4bhn12rcd13ifvqgpg","pricing_plan_id":"cebpf4jnsgd1na2vs0mg"},{"bike_id":"cc4d0a8b-7598-4e3e-b42c-8903a5620313","system_id":"levelo_inurba_marseille","lat":43.25936,"lon":5.40908,"is_reserved":false,"is_disabled":false,"rental_uris":{"android":"levelo://app?vid=cc4d0a8b-7598-4e3e-b42c-8903a5620313","ios":"levelo://app?vid=cc4d0a8b-7598-4e3e-b42c-8903a5620313"},"vehicle_type_id":"4","last_reported":1726049358,"current_range_meters":30800,"station_id":"ce4bhm92rcd13ifvqglg","pricing_plan_id":"cebpf4jnsgd1na2vs0mg"},{"bike_id":"3c45e72c-a88e-44aa-8bca-e1a0ffd178f8","system_id":"levelo_inurba_marseille","lat":43.27523,"lon":5.43366,"is_reserved":false,"is_disabled":false,"rental_uris":{"android":"levelo://app?vid=3c45e72c-a88e-44aa-8bca-e1a0ffd178f8","ios":"levelo://app?vid=3c45e72c-a88e-44aa-8bca-e1a0ffd178f8"},"vehicle_type_id":"4","last_reported":1726049358,"current_range_meters":6800,"station_id":"","pricing_plan_id":"cebpf4jnsgd1na2vs0mg"},{"bike_id":"94cdeb5e-19d2-4b19-a8a0-37218f02e90c","system_id":"levelo_inurba_marseille","lat":43.337444,"lon":5.374475,"is_reserved":false,"is_disabled":false,"rental_uris":{"android":"levelo://app?vid=94cdeb5e-19d2-4b19-a8a0-37218f02e90c","ios":"levelo://app?vid=94cdeb5e-19d2-4b19-a8a0-37218f02e90c"},"vehicle_type_id":"4","last_reported":1726049358,"current_range_meters":37600,"station_id":"ce4bgqh2rcd13ifvqc5g","pricing_plan_id":"cebpf4jnsgd1na2vs0mg"},{"bike_id":"f05fc4e7-5435-424e-8f86-827fdf979fe4","system_id":"levelo_inurba_marseille","lat":43.29555,"lon":5.42291,"is_reserved":false,"is_disabled":false,"rental_uris":{"android":"levelo://app?vid=f05fc4e7-5435-424e-8f86-827fdf979fe4","ios":"levelo://app?vid=f05fc4e7-5435-424e-8f86-827fdf979fe4"},"vehicle_type_id":"4","last_reported":1726049358,"current_range_meters":35600,"station_id":"ce4bhph2rcd13ifvqhdg","pricing_plan_id":"cebpf4jnsgd1na2vs0mg"},{"bike_id":"a534ef78-4a4c-4d82-8578-139cda253193","system_id":"levelo_inurba_marseille","lat":43.2707,"lon":5.40248,"is_reserved":false,"is_disabled":false,"rental_uris":{"android":"levelo://app?vid=a534ef78-4a4c-4d82-8578-139cda253193","ios":"levelo://app?vid=a534ef78-4a4c-4d82-8578-139cda253193"},"vehicle_type_id":"4","last_reported":1726049358,"current_range_meters":6000,"station_id":"ce4bhk92rcd13ifvqgc0","pricing_plan_id":"cebpf4jnsgd1na2vs0mg"},{"bike_id":"3b1ccc51-a368-4f44-a47c-48a28abe9444","system_id":"levelo_inurba_marseille","lat":43.24168,"lon":5.36393,"is_reserved":false,"is_disabled":false,"rental_uris":{"android":"levelo://app?vid=3b1ccc51-a368-4f44-a47c-48a28abe9444","ios":"levelo://app?vid=3b1ccc51-a368-4f44-a47c-48a28abe9444"},"vehicle_type_id":"4","last_reported":1726049358,"current_range_meters":28000,"station_id":"cpo36qri1sfpv3e86is0","pricing_plan_id":"cebpf4jnsgd1na2vs0mg"},{"bike_id":"d020f0b5-1200-43a5-9747-a2603cf52c2d","system_id":"levelo_inurba_marseille","lat":43.26786,"lon":5.39413,"is_reserved":false,"is_disabled":false,"rental_uris":{"android":"levelo://app?vid=d020f0b5-1200-43a5-9747-a2603cf52c2d","ios":"levelo://app?vid=d020f0b5-1200-43a5-9747-a2603cf52c2d"},"vehicle_type_id":"4","last_reported":1726049358,"current_range_meters":36400,"station_id":"ce4bhh12rcd13ifvqfg0","pricing_plan_id":"cebpf4jnsgd1na2vs0mg"},{"bike_id":"3bfff435-780c-430e-a884-b7e0a240cebc","system_id":"levelo_inurba_marseille","lat":43.28162,"lon":5.40443,"is_reserved":false,"is_disabled":false,"rental_uris":{"android":"levelo://app?vid=3bfff435-780c-430e-a884-b7e0a240cebc","ios":"levelo://app?vid=3bfff435-780c-430e-a884-b7e0a240cebc"},"vehicle_type_id":"4","last_reported":1726049358,"current_range_meters":15200,"station_id":"","pricing_plan_id":"cebpf4jnsgd1na2vs0mg"},{"bike_id":"f7688be1-3d11-45fe-b328-8bf16fede1cc","system_id":"levelo_inurba_marseille","lat":43.26937,"lon":5.40263,"is_reserved":false,"is_disabled":false,"rental_uris":{"android":"levelo://app?vid=f7688be1-3d11-45fe-b328-8bf16fede1cc","ios":"levelo://app?vid=f7688be1-3d11-45fe-b328-8bf16fede1cc"},"vehicle_type_id":"4","last_reported":1726049358,"current_range_meters":8000,"station_id":"cjm6bp8fraef2m0cb0m0","pricing_plan_id":"cebpf4jnsgd1na2vs0mg"},{"bike_id":"6c9cf683-74a1-40cf-ae20-cb1a34c2a769","system_id":"levelo_inurba_marseille","lat":43.28838,"lon":5.35844,"is_reserved":false,"is_disabled":false,"rental_uris":{"android":"levelo://app?vid=6c9cf683-74a1-40cf-ae20-cb1a34c2a769","ios":"levelo://app?vid=6c9cf683-74a1-40cf-ae20-cb1a34c2a769"},"vehicle_type_id":"4","last_reported":1726049358,"current_range_meters":38800,"station_id":"ce4bhb12rcd13ifvqem0","pricing_plan_id":"cebpf4jnsgd1na2vs0mg"},{"bike_id":"6cc95b7a-cb37-48e2-8682-a1d2bf2d8e96","system_id":"levelo_inurba_marseille","lat":43.30528,"lon":5.36555,"is_reserved":false,"is_disabled":false,"rental_uris":{"android":"levelo://app?vid=6cc95b7a-cb37-48e2-8682-a1d2bf2d8e96","ios":"levelo://app?vid=6cc95b7a-cb37-48e2-8682-a1d2bf2d8e96"},"vehicle_type_id":"4","last_reported":1726049358,"current_range_meters":8400,"station_id":"ce4bgs12rcd13ifvqcag","pricing_plan_id":"cebpf4jnsgd1na2vs0mg"},{"bike_id":"504d7a61-e75f-402a-b903-5ac30d73f3f1","system_id":"levelo_inurba_marseille","lat":43.30907,"lon":5.36847,"is_reserved":false,"is_disabled":false,"rental_uris":{"android":"levelo://app?vid=504d7a61-e75f-402a-b903-5ac30d73f3f1","ios":"levelo://app?vid=504d7a61-e75f-402a-b903-5ac30d73f3f1"},"vehicle_type_id":"4","last_reported":1726049358,"current_range_meters":13600,"station_id":"ce4bgn92rcd13ifvqbvg","pricing_plan_id":"cebpf4jnsgd1na2vs0mg"},{"bike_id":"0941c135-d42e-447a-a698-090c3be03bb8","system_id":"levelo_inurba_marseille","lat":43.31993,"lon":5.38147,"is_reserved":false,"is_disabled":false,"rental_uris":{"android":"levelo://app?vid=0941c135-d42e-447a-a698-090c3be03bb8","ios":"levelo://app?vid=0941c135-d42e-447a-a698-090c3be03bb8"},"vehicle_type_id":"4","last_reported":1726049358,"current_range_meters":36400,"station_id":"ce4bhr12rcd13ifvqhpg","pricing_plan_id":"cebpf4jnsgd1na2vs0mg"},{"bike_id":"ee41233d-7057-4ec4-b3c6-63f582836de8","system_id":"levelo_inurba_marseille","lat":43.22934,"lon":5.35376,"is_reserved":false,"is_disabled":false,"rental_uris":{"android":"levelo://app?vid=ee41233d-7057-4ec4-b3c6-63f582836de8","ios":"levelo://app?vid=ee41233d-7057-4ec4-b3c6-63f582836de8"},"vehicle_type_id":"4","last_reported":1726049358,"current_range_meters":33200,"station_id":"cpo3532slgdg3j2ikp40","pricing_plan_id":"cebpf4jnsgd1na2vs0mg"},{"bike_id":"aceaa97a-b654-4426-aee8-30a89abe4327","system_id":"levelo_inurba_marseille","lat":43.23957,"lon":5.36633,"is_reserved":false,"is_disabled":false,"rental_uris":{"android":"levelo://app?vid=aceaa97a-b654-4426-aee8-30a89abe4327","ios":"levelo://app?vid=aceaa97a-b654-4426-aee8-30a89abe4327"},"vehicle_type_id":"4","last_reported":1726049358,"current_range_meters":34000,"station_id":"ce4bhi12rcd13ifvqfp0","pricing_plan_id":"cebpf4jnsgd1na2vs0mg"},{"bike_id":"8a58afad-98e9-4736-9400-42885fbd7178","system_id":"levelo_inurba_marseille","lat":43.23153,"lon":5.43705,"is_reserved":false,"is_disabled":false,"rental_uris":{"android":"levelo://app?vid=8a58afad-98e9-4736-9400-42885fbd7178","ios":"levelo://app?vid=8a58afad-98e9-4736-9400-42885fbd7178"},"vehicle_type_id":"4","last_reported":1726049358,"current_range_meters":17200,"station_id":"ce4bhmp2rcd13ifvqgog","pricing_plan_id":"cebpf4jnsgd1na2vs0mg"},{"bike_id":"ea2e78fc-c554-4f98-8d5b-d0587ceb1c27","system_id":"levelo_inurba_marseille","lat":43.33718,"lon":5.39185,"is_reserved":false,"is_disabled":false,"rental_uris":{"android":"levelo://app?vid=ea2e78fc-c554-4f98-8d5b-d0587ceb1c27","ios":"levelo://app?vid=ea2e78fc-c554-4f98-8d5b-d0587ceb1c27"},"vehicle_type_id":"4","last_reported":1726049358,"current_range_meters":38000,"station_id":"ce4bhr92rcd13ifvqhsg","pricing_plan_id":"cebpf4jnsgd1na2vs0mg"},{"bike_id":"23f7b020-c942-4477-822f-42f5a6bcd69a","system_id":"levelo_inurba_marseille","lat":43.30905,"lon":5.36852,"is_reserved":false,"is_disabled":false,"rental_uris":{"android":"levelo://app?vid=23f7b020-c942-4477-822f-42f5a6bcd69a","ios":"levelo://app?vid=23f7b020-c942-4477-822f-42f5a6bcd69a"},"vehicle_type_id":"4","last_reported":1726049358,"current_range_meters":40000,"station_id":"ce4bgn92rcd13ifvqbvg","pricing_plan_id":"cebpf4jnsgd1na2vs0mg"},{"bike_id":"bfea8ef8-ce52-4bea-be33-d2d98ee594f4","system_id":"levelo_inurba_marseille","lat":43.24807,"lon":5.37454,"is_reserved":false,"is_disabled":false,"rental_uris":{"android":"levelo://app?vid=bfea8ef8-ce52-4bea-be33-d2d98ee594f4","ios":"levelo://app?vid=bfea8ef8-ce52-4bea-be33-d2d98ee594f4"},"vehicle_type_id":"4","last_reported":1726049358,"current_range_meters":31200,"station_id":"ce4bhgh2rcd13ifvqfb0","pricing_plan_id":"cebpf4jnsgd1na2vs0mg"},{"bike_id":"539c1080-49e6-438d-a195-2e9ca03fb22e","system_id":"levelo_inurba_marseille","lat":43.30191,"lon":5.36621,"is_reserved":false,"is_disabled":false,"rental_uris":{"android":"levelo://app?vid=539c1080-49e6-438d-a195-2e9ca03fb22e","ios":"levelo://app?vid=539c1080-49e6-438d-a195-2e9ca03fb22e"},"vehicle_type_id":"4","last_reported":1726049358,"current_range_meters":38800,"station_id":"ce4bgrh2rcd13ifvqc8g","pricing_plan_id":"cebpf4jnsgd1na2vs0mg"},{"bike_id":"9255b5bb-9d3a-4b6f-8801-f5ae893054e3","system_id":"levelo_inurba_marseille","lat":43.28267,"lon":5.35077,"is_reserved":false,"is_disabled":false,"rental_uris":{"android":"levelo://app?vid=9255b5bb-9d3a-4b6f-8801-f5ae893054e3","ios":"levelo://app?vid=9255b5bb-9d3a-4b6f-8801-f5ae893054e3"},"vehicle_type_id":"4","last_reported":1726049358,"current_range_meters":20400,"station_id":"ce4bhbp2rcd13ifvqerg","pricing_plan_id":"cebpf4jnsgd1na2vs0mg"},{"bike_id":"14eb1a14-f846-40e5-87ed-a062aa25370c","system_id":"levelo_inurba_marseille","lat":43.27376,"lon":5.36254,"is_reserved":false,"is_disabled":false,"rental_uris":{"android":"levelo://app?vid=14eb1a14-f846-40e5-87ed-a062aa25370c","ios":"levelo://app?vid=14eb1a14-f846-40e5-87ed-a062aa25370c"},"vehicle_type_id":"4","last_reported":1726049358,"current_range_meters":8000,"station_id":"ce4bhbh2rcd13ifvqeo0","pricing_plan_id":"cebpf4jnsgd1na2vs0mg"},{"bike_id":"3d0ac6b6-6ff0-400d-a45e-f627237d0ff5","system_id":"levelo_inurba_marseille","lat":43.29553,"lon":5.42284,"is_reserved":false,"is_disabled":false,"rental_uris":{"android":"levelo://app?vid=3d0ac6b6-6ff0-400d-a45e-f627237d0ff5","ios":"levelo://app?vid=3d0ac6b6-6ff0-400d-a45e-f627237d0ff5"},"vehicle_type_id":"4","last_reported":1726049358,"current_range_meters":28000,"station_id":"ce4bhph2rcd13ifvqhdg","pricing_plan_id":"cebpf4jnsgd1na2vs0mg"},{"bike_id":"337b5af3-013c-403b-b5ec-d63964e15e2f","system_id":"levelo_inurba_marseille","lat":43.29914,"lon":5.37457,"is_reserved":false,"is_disabled":false,"rental_uris":{"android":"levelo://app?vid=337b5af3-013c-403b-b5ec-d63964e15e2f","ios":"levelo://app?vid=337b5af3-013c-403b-b5ec-d63964e15e2f"},"vehicle_type_id":"4","last_reported":1726049358,"current_range_meters":38800,"station_id":"ce4bgjh2rcd13ifvqbg0","pricing_plan_id":"cebpf4jnsgd1na2vs0mg"},{"bike_id":"1e802f3b-ceb6-4be9-8912-c993c861f892","system_id":"levelo_inurba_marseille","lat":43.27483,"lon":5.42463,"is_reserved":false,"is_disabled":false,"rental_uris":{"android":"levelo://app?vid=1e802f3b-ceb6-4be9-8912-c993c861f892","ios":"levelo://app?vid=1e802f3b-ceb6-4be9-8912-c993c861f892"},"vehicle_type_id":"4","last_reported":1726049358,"current_range_meters":9200,"station_id":"ce4bhn92rcd13ifvqgrg","pricing_plan_id":"cebpf4jnsgd1na2vs0mg"},{"bike_id":"4cf112fd-a695-4707-9bb0-d93e3d64059e","system_id":"levelo_inurba_marseille","lat":43.30468,"lon":5.37899,"is_reserved":false,"is_disabled":false,"rental_uris":{"android":"levelo://app?vid=4cf112fd-a695-4707-9bb0-d93e3d64059e","ios":"levelo://app?vid=4cf112fd-a695-4707-9bb0-d93e3d64059e"},"vehicle_type_id":"4","last_reported":1726049358,"current_range_meters":28000,"station_id":"ce4bgup2rcd13ifvqcn0","pricing_plan_id":"cebpf4jnsgd1na2vs0mg"},{"bike_id":"9d4b0e6b-7c7b-4ac5-92ac-eb832e6e3d8a","system_id":"levelo_inurba_marseille","lat":43.308928,"lon":5.371989,"is_reserved":false,"is_disabled":false,"rental_uris":{"android":"levelo://app?vid=9d4b0e6b-7c7b-4ac5-92ac-eb832e6e3d8a","ios":"levelo://app?vid=9d4b0e6b-7c7b-4ac5-92ac-eb832e6e3d8a"},"vehicle_type_id":"4","last_reported":1726049358,"current_range_meters":36800,"station_id":"ce4bguh2rcd13ifvqckg","pricing_plan_id":"cebpf4jnsgd1na2vs0mg"},{"bike_id":"d905ca12-1a55-4ea5-815e-2e8c905567f9","system_id":"levelo_inurba_marseille","lat":43.29947,"lon":5.36537,"is_reserved":false,"is_disabled":false,"rental_uris":{"android":"levelo://app?vid=d905ca12-1a55-4ea5-815e-2e8c905567f9","ios":"levelo://app?vid=d905ca12-1a55-4ea5-815e-2e8c905567f9"},"vehicle_type_id":"4","last_reported":1726049358,"current_range_meters":35200,"station_id":"ce4bgm92rcd13ifvqbr0","pricing_plan_id":"cebpf4jnsgd1na2vs0mg"},{"bike_id":"b7254050-efb2-4f24-a3a1-6d6675e27413","system_id":"levelo_inurba_marseille","lat":43.29218,"lon":5.3606,"is_reserved":false,"is_disabled":false,"rental_uris":{"android":"levelo://app?vid=b7254050-efb2-4f24-a3a1-6d6675e27413","ios":"levelo://app?vid=b7254050-efb2-4f24-a3a1-6d6675e27413"},"vehicle_type_id":"4","last_reported":1726049358,"current_range_meters":36000,"station_id":"ce4bhbh2rcd13ifvqeqg","pricing_plan_id":"cebpf4jnsgd1na2vs0mg"},{"bike_id":"7c3a1f57-e002-41df-ba9f-4b19e7ee1e88","system_id":"levelo_inurba_marseille","lat":43.25007,"lon":5.38912,"is_reserved":false,"is_disabled":false,"rental_uris":{"android":"levelo://app?vid=7c3a1f57-e002-41df-ba9f-4b19e7ee1e88","ios":"levelo://app?vid=7c3a1f57-e002-41df-ba9f-4b19e7ee1e88"},"vehicle_type_id":"4","last_reported":1726049358,"current_range_meters":26000,"station_id":"ce4bhgp2rcd13ifvqfd0","pricing_plan_id":"cebpf4jnsgd1na2vs0mg"},{"bike_id":"3e518be1-e400-4157-b833-7627046e8d7a","system_id":"levelo_inurba_marseille","lat":43.28036,"lon":5.36942,"is_reserved":false,"is_disabled":false,"rental_uris":{"android":"levelo://app?vid=3e518be1-e400-4157-b833-7627046e8d7a","ios":"levelo://app?vid=3e518be1-e400-4157-b833-7627046e8d7a"},"vehicle_type_id":"4","last_reported":1726049358,"current_range_meters":35600,"station_id":"ce4bha12rcd13ifvqef0","pricing_plan_id":"cebpf4jnsgd1na2vs0mg"},{"bike_id":"0b5afc40-e849-46fe-b220-49bf6f1d5f8b","system_id":"levelo_inurba_marseille","lat":43.30313,"lon":5.36898,"is_reserved":false,"is_disabled":false,"rental_uris":{"android":"levelo://app?vid=0b5afc40-e849-46fe-b220-49bf6f1d5f8b","ios":"levelo://app?vid=0b5afc40-e849-46fe-b220-49bf6f1d5f8b"},"vehicle_type_id":"4","last_reported":1726049358,"current_range_meters":25600,"station_id":"ce4bgqh2rcd13ifvqc5g","pricing_plan_id":"cebpf4jnsgd1na2vs0mg"},{"bike_id":"044294a9-7e94-42bb-92bd-10eeade555d1","system_id":"levelo_inurba_marseille","lat":43.27487,"lon":5.42449,"is_reserved":false,"is_disabled":false,"rental_uris":{"android":"levelo://app?vid=044294a9-7e94-42bb-92bd-10eeade555d1","ios":"levelo://app?vid=044294a9-7e94-42bb-92bd-10eeade555d1"},"vehicle_type_id":"4","last_reported":1726049358,"current_range_meters":28000,"station_id":"ce4bhn92rcd13ifvqgrg","pricing_plan_id":"cebpf4jnsgd1na2vs0mg"},{"bike_id":"f00edb0e-355c-483e-ac9f-ccf569162eff","system_id":"levelo_inurba_marseille","lat":43.24081,"lon":5.37735,"is_reserved":false,"is_disabled":false,"rental_uris":{"android":"levelo://app?vid=f00edb0e-355c-483e-ac9f-ccf569162eff","ios":"levelo://app?vid=f00edb0e-355c-483e-ac9f-ccf569162eff"},"vehicle_type_id":"4","last_reported":1726049358,"current_range_meters":37600,"station_id":"ce4bhnp2rcd13ifvqgvg","pricing_plan_id":"cebpf4jnsgd1na2vs0mg"},{"bike_id":"ff167fca-80b4-489d-ae1d-cc13acbc59e4","system_id":"levelo_inurba_marseille","lat":43.31988,"lon":5.3814,"is_reserved":false,"is_disabled":false,"rental_uris":{"android":"levelo://app?vid=ff167fca-80b4-489d-ae1d-cc13acbc59e4","ios":"levelo://app?vid=ff167fca-80b4-489d-ae1d-cc13acbc59e4"},"vehicle_type_id":"4","last_reported":1726049358,"current_range_meters":4400,"station_id":"ce4bhr12rcd13ifvqhpg","pricing_plan_id":"cebpf4jnsgd1na2vs0mg"},{"bike_id":"dbae94f0-cc5b-4590-b56b-b5b7a68aac25","system_id":"levelo_inurba_marseille","lat":43.30144,"lon":5.37424,"is_reserved":false,"is_disabled":false,"rental_uris":{"android":"levelo://app?vid=dbae94f0-cc5b-4590-b56b-b5b7a68aac25","ios":"levelo://app?vid=dbae94f0-cc5b-4590-b56b-b5b7a68aac25"},"vehicle_type_id":"4","last_reported":1726049358,"current_range_meters":13600,"station_id":"ce4bgs92rcd13ifvqcc0","pricing_plan_id":"cebpf4jnsgd1na2vs0mg"},{"bike_id":"74ef2b05-2db9-4a8d-bced-9343edaafd73","system_id":"levelo_inurba_marseille","lat":43.25936,"lon":5.40907,"is_reserved":false,"is_disabled":false,"rental_uris":{"android":"levelo://app?vid=74ef2b05-2db9-4a8d-bced-9343edaafd73","ios":"levelo://app?vid=74ef2b05-2db9-4a8d-bced-9343edaafd73"},"vehicle_type_id":"4","last_reported":1726049358,"current_range_meters":26800,"station_id":"ce4bhm92rcd13ifvqglg","pricing_plan_id":"cebpf4jnsgd1na2vs0mg"},{"bike_id":"6f0e2369-dfe6-4b91-9cdc-32f39d858516","system_id":"levelo_inurba_marseille","lat":43.32659,"lon":5.40984,"is_reserved":false,"is_disabled":false,"rental_uris":{"android":"levelo://app?vid=6f0e2369-dfe6-4b91-9cdc-32f39d858516","ios":"levelo://app?vid=6f0e2369-dfe6-4b91-9cdc-32f39d858516"},"vehicle_type_id":"4","last_reported":1726049358,"current_range_meters":37600,"station_id":"ce4bhpp2rcd13ifvqhgg","pricing_plan_id":"cebpf4jnsgd1na2vs0mg"},{"bike_id":"c94889f2-3b4f-45b1-a8d1-01c53febbfe6","system_id":"levelo_inurba_marseille","lat":43.30563,"lon":5.36529,"is_reserved":false,"is_disabled":false,"rental_uris":{"android":"levelo://app?vid=c94889f2-3b4f-45b1-a8d1-01c53febbfe6","ios":"levelo://app?vid=c94889f2-3b4f-45b1-a8d1-01c53febbfe6"},"vehicle_type_id":"4","last_reported":1726049358,"current_range_meters":38800,"station_id":"ce4bgs12rcd13ifvqcag","pricing_plan_id":"cebpf4jnsgd1na2vs0mg"},{"bike_id":"42f0b8d5-f530-44b0-a58c-d0116b8766ff","system_id":"levelo_inurba_marseille","lat":43.2315,"lon":5.43719,"is_reserved":false,"is_disabled":false,"rental_uris":{"android":"levelo://app?vid=42f0b8d5-f530-44b0-a58c-d0116b8766ff","ios":"levelo://app?vid=42f0b8d5-f530-44b0-a58c-d0116b8766ff"},"vehicle_type_id":"4","last_reported":1726049358,"current_range_meters":12000,"station_id":"ce4bhmp2rcd13ifvqgog","pricing_plan_id":"cebpf4jnsgd1na2vs0mg"},{"bike_id":"c15cf53e-d678-4a94-aea5-44e99c37281a","system_id":"levelo_inurba_marseille","lat":43.30314,"lon":5.36892,"is_reserved":false,"is_disabled":false,"rental_uris":{"android":"levelo://app?vid=c15cf53e-d678-4a94-aea5-44e99c37281a","ios":"levelo://app?vid=c15cf53e-d678-4a94-aea5-44e99c37281a"},"vehicle_type_id":"4","last_reported":1726049358,"current_range_meters":17600,"station_id":"ce4bgqh2rcd13ifvqc5g","pricing_plan_id":"cebpf4jnsgd1na2vs0mg"},