{"last_updated":1691777281,"ttl":30,"version":"2.2","data":{"bikes":[{"bike_id":"35ce7203-64e0-4b95-9c3b-359745edc09b","system_id":"levelo_inurba_marseille","lat":43.312239,"lon":5.368562,"is_reserved":false,"is_disabled":false,"rental_uris":{"android":"levelo://app?vid=35ce7203-64e0-4b95-9c3b-359745edc09b","ios":"levelo://app?vid=35ce7203-64e0-4b95-9c3b-359745edc09b"},"vehicle_type_id":"4","last_reported":1691777282,"current_range_meters":9200,"station_id":"ce4bgl92rcd13ifvqbq0","pricing_plan_id":"free"},{"bike_id":"7d09cc1a-a89a-4438-baf7-6b6838e8aa3f","system_id":"levelo_inurba_marseille","lat":43.30917,"lon":5.36834,"is_reserved":false,"is_disabled":false,"rental_uris":{"android":"levelo://app?vid=7d09cc1a-a89a-4438-baf7-6b6838e8aa3f","ios":"levelo://app?vid=7d09cc1a-a89a-4438-baf7-6b6838e8aa3f"},"vehicle_type_id":"4","last_reported":1691777282,"current_range_meters":7200,"station_id":"","pricing_plan_id":"free"},{"bike_id":"0b961afa-305a-4b2b-8b30-eeb325fe49d1","system_id":"levelo_inurba_marseille","lat":43.309076,"lon":5.368465,"is_reserved":false,"is_disabled":false,"rental_uris":{"android":"levelo://app?vid=0b961afa-305a-4b2b-8b30-eeb325fe49d1","ios":"levelo://app?vid=0b961afa-305a-4b2b-8b30-eeb325fe49d1"},"vehicle_type_id":"4","last_reported":1691777282,"current_range_meters":6000,"station_id":"ce4bgn92rcd13ifvqbvg","pricing_plan_id":"free"},{"bike_id":"d33fd350-5235-4d6c-9116-4dea110b9fcf","system_id":"levelo_inurba_marseille","lat":43.314811,"lon":5.373103,"is_reserved":false,"is_disabled":false,"rental_uris":{"android":"levelo://app?vid=d33fd350-5235-4d6c-9116-4dea110b9fcf","ios":"levelo://app?vid=d33fd350-5235-4d6c-9116-4dea110b9fcf"},"vehicle_type_id":"4","last_reported":1691777282,"current_range_meters":24800,"station_id":"ce4bgt12rcd13ifvqcd0","pricing_plan_id":"free"},{"bike_id":"222520cd-99ef-456d-9ce8-9702d904579b","system_id":"levelo_inurba_marseille","lat":43.305989,"lon":5.37225,"is_reserved":false,"is_disabled":false,"rental_uris":{"android":"levelo://app?vid=222520cd-99ef-456d-9ce8-9702d904579b","ios":"levelo://app?vid=222520cd-99ef-456d-9ce8-9702d904579b"},"vehicle_type_id":"4","last_reported":1691777282,"current_range_meters":14400,"station_id":"ce4bgqh2rcd13ifvqc4g","pricing_plan_id":"free"},{"bike_id":"7f075be1-e158-4f61-9c53-e11e8af57070","system_id":"levelo_inurba_marseille","lat":43.305989,"lon":5.37225,"is_reserved":false,"is_disabled":false,"rental_uris":{"android":"levelo://app?vid=7f075be1-e158-4f61-9c53-e11e8af57070","ios":"levelo://app?vid=7f075be1-e158-4f61-9c53-e11e8af57070"},"vehicle_type_id":"4","last_reported":1691777282,"current_range_meters":11200,"station_id":"ce4bgqh2rcd13ifvqc4g","pricing_plan_id":"free"},{"bike_id":"33ee35ed-e071-4764-a761-ba154972f9b6","system_id":"levelo_inurba_marseille","lat":43.317075,"lon":5.377367,"is_reserved":false,"is_disabled":false,"rental_uris":{"android":"levelo://app?vid=33ee35ed-e071-4764-a761-ba154972f9b6","ios":"levelo://app?vid=33ee35ed-e071-4764-a761-ba154972f9b6"},"vehicle_type_id":"4","last_reported":1691777282,"current_range_meters":3200,"station_id":"ce4bgth2rcd13ifvqch0","pricing_plan_id":"free"},{"bike_id":"674faf5f-c320-4553-9278-08eb41cebe43","system_id":"levelo_inurba_marseille","lat":43.315293,"lon":5.380349,"is_reserved":false,"is_disabled":false,"rental_uris":{"android":"levelo://app?vid=674faf5f-c320-4553-9278-08eb41cebe43","ios":"levelo://app?vid=674faf5f-c320-4553-9278-08eb41cebe43"},"vehicle_type_id":"4","last_reported":1691777282,"current_range_meters":20000,"station_id":"ce4bhsp2rcd13ifvqi50","pricing_plan_id":"free"},{"bike_id":"5494180b-1edb-40de-9319-b8b842e4c973","system_id":"levelo_inurba_marseille","lat":43.315293,"lon":5.380349,"is_reserved":false,"is_disabled":false,"rental_uris":{"android":"levelo://app?vid=5494180b-1edb-40de-9319-b8b842e4c973","ios":"levelo://app?vid=5494180b-1edb-40de-9319-b8b842e4c973"},"vehicle_type_id":"4","last_reported":1691777282,"current_range_meters":25600,"station_id":"ce4bhsp2rcd13ifvqi50","pricing_plan_id":"free"},{"bike_id":"82c6dbeb-b3eb-4791-b753-f4429ef00001","system_id":"levelo_inurba_marseille","lat":43.308012,"lon":5.381511,"is_reserved":false,"is_disabled":false,"rental_uris":{"android":"levelo://app?vid=82c6dbeb-b3eb-4791-b753-f4429ef00001","ios":"levelo://app?vid=82c6dbeb-b3eb-4791-b753-f4429ef00001"},"vehicle_type_id":"4","last_reported":1691777282,"current_range_meters":22400,"station_id":"ce4bgt12rcd13ifvqce0","pricing_plan_id":"free"},{"bike_id":"10532a31-71af-4b1f-9fe9-1c63c937830a","system_id":"levelo_inurba_marseille","lat":43.304606,"lon":5.379026,"is_reserved":false,"is_disabled":false,"rental_uris":{"android":"levelo://app?vid=10532a31-71af-4b1f-9fe9-1c63c937830a","ios":"levelo://app?vid=10532a31-71af-4b1f-9fe9-1c63c937830a"},"vehicle_type_id":"4","last_reported":1691777282,"current_range_meters":17200,"station_id":"ce4bgup2rcd13ifvqcn0","pricing_plan_id":"free"},{"bike_id":"10d80a4c-6abe-4cf6-9990-f318a2dea046","system_id":"levelo_inurba_marseille","lat":43.302784,"lon":5.377158,"is_reserved":false,"is_disabled":false,"rental_uris":{"android":"levelo://app?vid=10d80a4c-6abe-4cf6-9990-f318a2dea046","ios":"levelo://app?vid=10d80a4c-6abe-4cf6-9990-f318a2dea046"},"vehicle_type_id":"4","last_reported":1691777282,"current_range_meters":21600,"station_id":"ce4bguh2rcd13ifvqcj0","pricing_plan_id":"free"},{"bike_id":"a4684f89-570b-414c-956e-be430fdb3700","system_id":"levelo_inurba_marseille","lat":43.31991,"lon":5.38149,"is_reserved":false,"is_disabled":false,"rental_uris":{"android":"levelo://app?vid=a4684f89-570b-414c-956e-be430fdb3700","ios":"levelo://app?vid=a4684f89-570b-414c-956e-be430fdb3700"},"vehicle_type_id":"4","last_reported":1691777282,"current_range_meters":1200,"station_id":"ce4bhr12rcd13ifvqhpg","pricing_plan_id":"free"},{"bike_id":"57a583e5-0276-479a-9730-dd0e77cd45f6","system_id":"levelo_inurba_marseille","lat":43.31997,"lon":5.38153,"is_reserved":false,"is_disabled":false,"rental_uris":{"android":"levelo://app?vid=57a583e5-0276-479a-9730-dd0e77cd45f6","ios":"levelo://app?vid=57a583e5-0276-479a-9730-dd0e77cd45f6"},"vehicle_type_id":"4","last_reported":1691777282,"current_range_meters":800,"station_id":"ce4bhr12rcd13ifvqhpg","pricing_plan_id":"free"},{"bike_id":"d766a136-1326-48d4-9a6c-ad9630498d8d","system_id":"levelo_inurba_marseille","lat":43.313631,"lon":5.384873,"is_reserved":false,"is_disabled":false,"rental_uris":{"android":"levelo://app?vid=d766a136-1326-48d4-9a6c-ad9630498d8d","ios":"levelo://app?vid=d766a136-1326-48d4-9a6c-ad9630498d8d"},"vehicle_type_id":"4","last_reported":1691777282,"current_range_meters":8400,"station_id":"ce4bgt92rcd13ifvqcf0","pricing_plan_id":"free"},{"bike_id":"1dda1bcd-ac8b-4d01-b133-dcea839575fd","system_id":"levelo_inurba_marseille","lat":43.31365,"lon":5.38491,"is_reserved":false,"is_disabled":false,"rental_uris":{"android":"levelo://app?vid=1dda1bcd-ac8b-4d01-b133-dcea839575fd","ios":"levelo://app?vid=1dda1bcd-ac8b-4d01-b133-dcea839575fd"},"vehicle_type_id":"4","last_reported":1691777282,"current_range_meters":21600,"station_id":"ce4bgt92rcd13ifvqcf0","pricing_plan_id":"free"},{"bike_id":"bc4138e2-589e-480c-bcd2-d2ce52821639","system_id":"levelo_inurba_marseille","lat":43.29981,"lon":5.37185,"is_reserved":false,"is_disabled":false,"rental_uris":{"android":"levelo://app?vid=bc4138e2-589e-480c-bcd2-d2ce52821639","ios":"levelo://app?vid=bc4138e2-589e-480c-bcd2-d2ce52821639"},"vehicle_type_id":"4","last_reported":1691777282,"current_range_meters":0,"station_id":"ce4bgr92rcd13ifvqc7g","pricing_plan_id":"free"},{"bike_id":"97df173f-a80d-4d07-9a79-04ced56701ec","system_id":"levelo_inurba_marseille","lat":43.29972,"lon":5.37183,"is_reserved":false,"is_disabled":false,"rental_uris":{"android":"levelo://app?vid=97df173f-a80d-4d07-9a79-04ced56701ec","ios":"levelo://app?vid=97df173f-a80d-4d07-9a79-04ced56701ec"},"vehicle_type_id":"4","last_reported":1691777282,"current_range_meters":23200,"station_id":"ce4bgr92rcd13ifvqc7g","pricing_plan_id":"free"},{"bike_id":"bfe48595-1628-4da2-9ab8-4a75abcc52c2","system_id":"levelo_inurba_marseille","lat":43.311722,"lon":5.387247,"is_reserved":false,"is_disabled":false,"rental_uris":{"android":"levelo://app?vid=bfe48595-1628-4da2-9ab8-4a75abcc52c2","ios":"levelo://app?vid=bfe48595-1628-4da2-9ab8-4a75abcc52c2"},"vehicle_type_id":"4","last_reported":1691777282,"current_range_meters":29600,"station_id":"ce4bgv12rcd13ifvqcp0","pricing_plan_id":"free"},{"bike_id":"a66c816d-4a2c-4872-a048-bc5ee8f65440","system_id":"levelo_inurba_marseille","lat":43.298433,"lon":5.362774,"is_reserved":false,"is_disabled":false,"rental_uris":{"android":"levelo://app?vid=a66c816d-4a2c-4872-a048-bc5ee8f65440","ios":"levelo://app?vid=a66c816d-4a2c-4872-a048-bc5ee8f65440"},"vehicle_type_id":"4","last_reported":1691777282,"current_range_meters":5200,"station_id":"ce4bgpp2rcd13ifvqc3g","pricing_plan_id":"free"},{"bike_id":"1a34fc66-f30f-491b-bbd4-d426adbef99c","system_id":"levelo_inurba_marseille","lat":43.298433,"lon":5.362774,"is_reserved":false,"is_disabled":false,"rental_uris":{"android":"levelo://app?vid=1a34fc66-f30f-491b-bbd4-d426adbef99c","ios":"levelo://app?vid=1a34fc66-f30f-491b-bbd4-d426adbef99c"},"vehicle_type_id":"4","last_reported":1691777282,"current_range_meters":28800,"station_id":"ce4bgpp2rcd13ifvqc3g","pricing_plan_id":"free"},{"bike_id":"45e0fd18-f179-4988-b0c1-e84fe06356a8","system_id":"levelo_inurba_marseille","lat":43.298433,"lon":5.362774,"is_reserved":false,"is_disabled":false,"rental_uris":{"android":"levelo://app?vid=45e0fd18-f179-4988-b0c1-e84fe06356a8","ios":"levelo://app?vid=45e0fd18-f179-4988-b0c1-e84fe06356a8"},"vehicle_type_id":"4","last_reported":1691777282,"current_range_meters":19200,"station_id":"ce4bgpp2rcd13ifvqc3g","pricing_plan_id":"free"},{"bike_id":"cee89023-f71e-4294-a64b-fc41cdd1ae16","system_id":"levelo_inurba_marseille","lat":43.30529,"lon":5.38423,"is_reserved":false,"is_disabled":false,"rental_uris":{"android":"levelo://app?vid=cee89023-f71e-4294-a64b-fc41cdd1ae16","ios":"levelo://app?vid=cee89023-f71e-4294-a64b-fc41cdd1ae16"},"vehicle_type_id":"4","last_reported":1691777282,"current_range_meters":9600,"station_id":"ce4bgg92rcd13ifvqb30","pricing_plan_id":"free"},{"bike_id":"952277de-cc6c-4a7a-ae0f-dbdab041806b","system_id":"levelo_inurba_marseille","lat":43.298433,"lon":5.362774,"is_reserved":false,"is_disabled":false,"rental_uris":{"android":"levelo://app?vid=952277de-cc6c-4a7a-ae0f-dbdab041806b","ios":"levelo://app?vid=952277de-cc6c-4a7a-ae0f-dbdab041806b"},"vehicle_type_id":"4","last_reported":1691777282,"current_range_meters":29600,"station_id":"ce4bgpp2rcd13ifvqc3g","pricing_plan_id":"free"},{"bike_id":"5be917e5-2227-48d5-aa74-f7c7ceeaf78b","system_id":"levelo_inurba_marseille","lat":43.298433,"lon":5.362774,"is_reserved":false,"is_disabled":false,"rental_uris":{"android":"levelo://app?vid=5be917e5-2227-48d5-aa74-f7c7ceeaf78b","ios":"levelo://app?vid=5be917e5-2227-48d5-aa74-f7c7ceeaf78b"},"vehicle_type_id":"4","last_reported":1691777282,"current_range_meters":15600,"station_id":"ce4bgpp2rcd13ifvqc3g","pricing_plan_id":"free"},{"bike_id":"cb7ae9aa-c7c8-4b3d-be61-92ce16f3512e","system_id":"levelo_inurba_marseille","lat":43.311722,"lon":5.387247,"is_reserved":false,"is_disabled":false,"rental_uris":{"android":"levelo://app?vid=cb7ae9aa-c7c8-4b3d-be61-92ce16f3512e","ios":"levelo://app?vid=cb7ae9aa-c7c8-4b3d-be61-92ce16f3512e"},"vehicle_type_id":"4","last_reported":1691777282,"current_range_meters":24000,"station_id":"ce4bgv12rcd13ifvqcp0","pricing_plan_id":"free"},{"bike_id":"b3cf1566-381e-4ef2-b1da-a2ecfbcef605","system_id":"levelo_inurba_marseille","lat":43.311722,"lon":5.387247,"is_reserved":false,"is_disabled":false,"rental_uris":{"android":"levelo://app?vid=b3cf1566-381e-4ef2-b1da-a2ecfbcef605","ios":"levelo://app?vid=b3cf1566-381e-4ef2-b1da-a2ecfbcef605"},"vehicle_type_id":"4","last_reported":1691777282,"current_range_meters":27200,"station_id":"ce4bgv12rcd13ifvqcp0","pricing_plan_id":"free"},{"bike_id":"2a877c10-47b3-4336-884b-4186f2d4f096","system_id":"levelo_inurba_marseille","lat":43.32284,"lon":5.38267,"is_reserved":false,"is_disabled":false,"rental_uris":{"android":"levelo://app?vid=2a877c10-47b3-4336-884b-4186f2d4f096","ios":"levelo://app?vid=2a877c10-47b3-4336-884b-4186f2d4f096"},"vehicle_type_id":"4","last_reported":1691777282,"current_range_meters":19200,"station_id":"ce4bhr12rcd13ifvqhqg","pricing_plan_id":"free"},{"bike_id":"13ae175a-0609-4f70-9fab-6ba23bad8636","system_id":"levelo_inurba_marseille","lat":43.32286,"lon":5.38267,"is_reserved":false,"is_disabled":false,"rental_uris":{"android":"levelo://app?vid=13ae175a-0609-4f70-9fab-6ba23bad8636","ios":"levelo://app?vid=13ae175a-0609-4f70-9fab-6ba23bad8636"},"vehicle_type_id":"4","last_reported":1691777282,"current_range_meters":26400,"station_id":"ce4bhr12rcd13ifvqhqg","pricing_plan_id":"free"},{"bike_id":"454e4186-321d-4414-91ad-51d1deee69be","system_id":"levelo_inurba_marseille","lat":43.322872,"lon":5.382756,"is_reserved":false,"is_disabled":false,"rental_uris":{"android":"levelo://app?vid=454e4186-321d-4414-91ad-51d1deee69be","ios":"levelo://app?vid=454e4186-321d-4414-91ad-51d1deee69be"},"vehicle_type_id":"4","last_reported":1691777282,"current_range_meters":31200,"station_id":"ce4bhr12rcd13ifvqhqg","pricing_plan_id":"free"},{"bike_id":"5cef4262-f054-4974-9121-fc3d341ebbb0","system_id":"levelo_inurba_marseille","lat":43.32292,"lon":5.38262,"is_reserved":false,"is_disabled":false,"rental_uris":{"android":"levelo://app?vid=5cef4262-f054-4974-9121-fc3d341ebbb0","ios":"levelo://app?vid=5cef4262-f054-4974-9121-fc3d341ebbb0"},"vehicle_type_id":"4","last_reported":1691777282,"current_range_meters":17200,"station_id":"ce4bhr12rcd13ifvqhqg","pricing_plan_id":"free"},{"bike_id":"ccde4fab-a619-4b85-80d1-631ae22c1186","system_id":"levelo_inurba_marseille","lat":43.32288,"lon":5.38267,"is_reserved":false,"is_disabled":false,"rental_uris":{"android":"levelo://app?vid=ccde4fab-a619-4b85-80d1-631ae22c1186","ios":"levelo://app?vid=ccde4fab-a619-4b85-80d1-631ae22c1186"},"vehicle_type_id":"4","last_reported":1691777282,"current_range_meters":22800,"station_id":"ce4bhr12rcd13ifvqhqg","pricing_plan_id":"free"},{"bike_id":"026ee3db-f828-4ad6-9e78-43e60a812318","system_id":"levelo_inurba_marseille","lat":43.32289,"lon":5.38266,"is_reserved":false,"is_disabled":false,"rental_uris":{"android":"levelo://app?vid=026ee3db-f828-4ad6-9e78-43e60a812318","ios":"levelo://app?vid=026ee3db-f828-4ad6-9e78-43e60a812318"},"vehicle_type_id":"4","last_reported":1691777282,"current_range_meters":24000,"station_id":"ce4bhr12rcd13ifvqhqg","pricing_plan_id":"free"},{"bike_id":"63b63e6c-c5a9-49f5-8d21-3106e36d3542","system_id":"levelo_inurba_marseille","lat":43.32288,"lon":5.38269,"is_reserved":false,"is_disabled":false,"rental_uris":{"android":"levelo://app?vid=63b63e6c-c5a9-49f5-8d21-3106e36d3542","ios":"levelo://app?vid=63b63e6c-c5a9-49f5-8d21-3106e36d3542"},"vehicle_type_id":"4","last_reported":1691777282,"current_range_meters":29200,"station_id":"ce4bhr12rcd13ifvqhqg","pricing_plan_id":"free"},{"bike_id":"34544adb-53d3-44b1-86f1-bb8bc7dbf546","system_id":"levelo_inurba_marseille","lat":43.32295,"lon":5.38264,"is_reserved":false,"is_disabled":false,"rental_uris":{"android":"levelo://app?vid=34544adb-53d3-44b1-86f1-bb8bc7dbf546","ios":"levelo://app?vid=34544adb-53d3-44b1-86f1-bb8bc7dbf546"},"vehicle_type_id":"4","last_reported":1691777282,"current_range_meters":28800,"station_id":"ce4bhr12rcd13ifvqhqg","pricing_plan_id":"free"},{"bike_id":"21748b11-2f8a-4d23-9be4-7629bb0ad99a","system_id":"levelo_inurba_marseille","lat":43.322928,"lon":5.382672,"is_reserved":false,"is_disabled":false,"rental_uris":{"android":"levelo://app?vid=21748b11-2f8a-4d23-9be4-7629bb0ad99a","ios":"levelo://app?vid=21748b11-2f8a-4d23-9be4-7629bb0ad99a"},"vehicle_type_id":"4","last_reported":1691777282,"current_range_meters":19600,"station_id":"ce4bhr12rcd13ifvqhqg","pricing_plan_id":"free"},{"bike_id":"daf1c66e-67e4-446b-ab69-51ad2a5f2181","system_id":"levelo_inurba_marseille","lat":43.32295,"lon":5.38266,"is_reserved":false,"is_disabled":false,"rental_uris":{"android":"levelo://app?vid=daf1c66e-67e4-446b-ab69-51ad2a5f2181","ios":"levelo://app?vid=daf1c66e-67e4-446b-ab69-51ad2a5f2181"},"vehicle_type_id":"4","last_reported":1691777282,"current_range_meters":30000,"station_id":"ce4bhr12rcd13ifvqhqg","pricing_plan_id":"free"},{"bike_id":"1b203c54-0be7-49b8-a54f-17ca79a8f7f4","system_id":"levelo_inurba_marseille","lat":43.32287,"lon":5.38276,"is_reserved":false,"is_disabled":false,"rental_uris":{"android":"levelo://app?vid=1b203c54-0be7-49b8-a54f-17ca79a8f7f4","ios":"levelo://app?vid=1b203c54-0be7-49b8-a54f-17ca79a8f7f4"},"vehicle_type_id":"4","last_reported":1691777282,"current_range_meters":24800,"station_id":"ce4bhr12rcd13ifvqhqg","pricing_plan_id":"free"},{"bike_id":"6e2049d4-c28c-4978-a454-4edbdc0f7037","system_id":"levelo_inurba_marseille","lat":43.32828,"lon":5.36675,"is_reserved":false,"is_disabled":false,"rental_uris":{"android":"levelo://app?vid=6e2049d4-c28c-4978-a454-4edbdc0f7037","ios":"levelo://app?vid=6e2049d4-c28c-4978-a454-4edbdc0f7037"},"vehicle_type_id":"4","last_reported":1691777282,"current_range_meters":30400,"station_id":"ce4bhs92rcd13ifvqi0g","pricing_plan_id":"free"},{"bike_id":"51836ebd-ee39-4e35-9e96-ffbead98a95b","system_id":"levelo_inurba_marseille","lat":43.3283,"lon":5.36679,"is_reserved":false,"is_disabled":false,"rental_uris":{"android":"levelo://app?vid=51836ebd-ee39-4e35-9e96-ffbead98a95b","ios":"levelo://app?vid=51836ebd-ee39-4e35-9e96-ffbead98a95b"},"vehicle_type_id":"4","last_reported":1691777282,"current_range_meters":20400,"station_id":"ce4bhs92rcd13ifvqi0g","pricing_plan_id":"free"},{"bike_id":"d64026df-d608-4f97-93ab-b4ea233c50d5","system_id":"levelo_inurba_marseille","lat":43.328371,"lon":5.366909,"is_reserved":false,"is_disabled":false,"rental_uris":{"android":"levelo://app?vid=d64026df-d608-4f97-93ab-b4ea233c50d5","ios":"levelo://app?vid=d64026df-d608-4f97-93ab-b4ea233c50d5"},"vehicle_type_id":"4","last_reported":1691777282,"current_range_meters":17200,"station_id":"ce4bhs92rcd13ifvqi0g","pricing_plan_id":"free"},{"bike_id":"dd789220-e7b5-42c1-b9dc-dc4243148021","system_id":"levelo_inurba_marseille","lat":43.29672,"lon":5.36599,"is_reserved":false,"is_disabled":false,"rental_uris":{"android":"levelo://app?vid=dd789220-e7b5-42c1-b9dc-dc4243148021","ios":"levelo://app?vid=dd789220-e7b5-42c1-b9dc-dc4243148021"},"vehicle_type_id":"4","last_reported":1691777282,"current_range_meters":30000,"station_id":"ce4bgn12rcd13ifvqbt0","pricing_plan_id":"free"},{"bike_id":"4546f8c1-0a9e-45be-b4bd-18c11f686c5c","system_id":"levelo_inurba_marseille","lat":43.29667,"lon":5.36561,"is_reserved":false,"is_disabled":false,"rental_uris":{"android":"levelo://app?vid=4546f8c1-0a9e-45be-b4bd-18c11f686c5c","ios":"levelo://app?vid=4546f8c1-0a9e-45be-b4bd-18c11f686c5c"},"vehicle_type_id":"4","last_reported":1691777282,"current_range_meters":6400,"station_id":"","pricing_plan_id":"free"},{"bike_id":"7452358b-30e2-447b-bd72-e6da19564cb3","system_id":"levelo_inurba_marseille","lat":43.2968,"lon":5.37291,"is_reserved":false,"is_disabled":false,"rental_uris":{"android":"levelo://app?vid=7452358b-30e2-447b-bd72-e6da19564cb3","ios":"levelo://app?vid=7452358b-30e2-447b-bd72-e6da19564cb3"},"vehicle_type_id":"4","last_reported":1691777282,"current_range_meters":6000,"station_id":"ce4bgk12rcd13ifvqbj0","pricing_plan_id":"free"},{"bike_id":"fb91ce6e-56e2-4325-a474-254f95d0bac5","system_id":"levelo_inurba_marseille","lat":43.296131,"lon":5.370791,"is_reserved":false,"is_disabled":false,"rental_uris":{"android":"levelo://app?vid=fb91ce6e-56e2-4325-a474-254f95d0bac5","ios":"levelo://app?vid=fb91ce6e-56e2-4325-a474-254f95d0bac5"},"vehicle_type_id":"4","last_reported":1691777282,"current_range_meters":28400,"station_id":"ce4bgnh2rcd13ifvqc0g","pricing_plan_id":"free"},{"bike_id":"7ab5d476-c2d6-4ab5-907e-83cded801fd6","system_id":"levelo_inurba_marseille","lat":43.29573,"lon":5.367355,"is_reserved":false,"is_disabled":false,"rental_uris":{"android":"levelo://app?vid=7ab5d476-c2d6-4ab5-907e-83cded801fd6","ios":"levelo://app?vid=7ab5d476-c2d6-4ab5-907e-83cded801fd6"},"vehicle_type_id":"4","last_reported":1691777282,"current_range_meters":19600,"station_id":"ce4bgph2rcd13ifvqc2g","pricing_plan_id":"free"},{"bike_id":"c737cc2b-a3e9-4fb5-a065-00277a1f3872","system_id":"levelo_inurba_marseille","lat":43.29573,"lon":5.367355,"is_reserved":false,"is_disabled":false,"rental_uris":{"android":"levelo://app?vid=c737cc2b-a3e9-4fb5-a065-00277a1f3872","ios":"levelo://app?vid=c737cc2b-a3e9-4fb5-a065-00277a1f3872"},"vehicle_type_id":"4","last_reported":1691777282,"current_range_meters":3600,"station_id":"ce4bgph2rcd13ifvqc2g","pricing_plan_id":"free"},{"bike_id":"f00987e6-f3c0-48b8-9290-bbcab8cee318","system_id":"levelo_inurba_marseille","lat":43.309589,"lon":5.390258,"is_reserved":false,"is_disabled":false,"rental_uris":{"android":"levelo://app?vid=f00987e6-f3c0-48b8-9290-bbcab8cee318","ios":"levelo://app?vid=f00987e6-f3c0-48b8-9290-bbcab8cee318"},"vehicle_type_id":"4","last_reported":1691777282,"current_range_meters":13600,"station_id":"ce4bgup2rcd13ifvqco0","pricing_plan_id":"free"},{"bike_id":"da226d8e-1fd3-4616-a8e3-2c22ce76f248","system_id":"levelo_inurba_marseille","lat":43.309589,"lon":5.390258,"is_reserved":false,"is_disabled":false,"rental_uris":{"android":"levelo://app?vid=da226d8e-1fd3-4616-a8e3-2c22ce76f248","ios":"levelo://app?vid=da226d8e-1fd3-4616-a8e3-2c22ce76f248"},"vehicle_type_id":"4","last_reported":1691777282,"current_range_meters":4400,"station_id":"ce4bgup2rcd13ifvqco0","pricing_plan_id":"free"},{"bike_id":"ca03c5a5-4ab4-4f70-8120-f8553ea486d1","system_id":"levelo_inurba_marseille","lat":43.30948,"lon":5.39031,"is_reserved":false,"is_disabled":false,"rental_uris":{"android":"levelo://app?vid=ca03c5a5-4ab4-4f70-8120-f8553ea486d1","ios":"levelo://app?vid=ca03c5a5-4ab4-4f70-8120-f8553ea486d1"},"vehicle_type_id":"4","last_reported":1691777282,"current_range_meters":24000,"station_id":"ce4bgup2rcd13ifvqco0","pricing_plan_id":"free"},{"bike_id":"0f257c73-61ef-4468-9913-01aa028538f3","system_id":"levelo_inurba_marseille","lat":43.309589,"lon":5.390258,"is_reserved":false,"is_disabled":false,"rental_uris":{"android":"levelo://app?vid=0f257c73-61ef-4468-9913-01aa028538f3","ios":"levelo://app?vid=0f257c73-61ef-4468-9913-01aa028538f3"},"vehicle_type_id":"4","last_reported":1691777282,"current_range_meters":3600,"station_id":"ce4bgup2rcd13ifvqco0","pricing_plan_id":"free"},{"bike_id":"c83493f6-936a-479e-9d32-eee69b6244ea","system_id":"levelo_inurba_marseille","lat":43.309589,"lon":5.390258,"is_reserved":false,"is_disabled":false,"rental_uris":{"android":"levelo://app?vid=c83493f6-936a-479e-9d32-eee69b6244ea","ios":"levelo://app?vid=c83493f6-936a-479e-9d32-eee69b6244ea"},"vehicle_type_id":"4","last_reported":1691777282,"current_range_meters":12400,"station_id":"ce4bgup2rcd13ifvqco0","pricing_plan_id":"free"},{"bike_id":"d411e64e-a54f-4abc-b16c-5ef6fd4c791e","system_id":"levelo_inurba_marseille","lat":43.309589,"lon":5.390258,"is_reserved":false,"is_disabled":false,"rental_uris":{"android":"levelo://app?vid=d411e64e-a54f-4abc-b16c-5ef6fd4c791e","ios":"levelo://app?vid=d411e64e-a54f-4abc-b16c-5ef6fd4c791e"},"vehicle_type_id":"4","last_reported":1691777282,"current_range_meters":12400,"station_id":"ce4bgup2rcd13ifvqco0","pricing_plan_id":"free"},{"bike_id":"5848f015-696e-41c4-8813-817218aa0861","system_id":"levelo_inurba_marseille","lat":43.309589,"lon":5.390258,"is_reserved":false,"is_disabled":false,"rental_uris":{"android":"levelo://app?vid=5848f015-696e-41c4-8813-817218aa0861","ios":"levelo://app?vid=5848f015-696e-41c4-8813-817218aa0861"},"vehicle_type_id":"4","last_reported":1691777282,"current_range_meters":16000,"station_id":"ce4bgup2rcd13ifvqco0","pricing_plan_id":"free"},{"bike_id":"4111aaa4-2fad-4c5c-b0e6-decebaa6485b","system_id":"levelo_inurba_marseille","lat":43.309589,"lon":5.390258,"is_reserved":false,"is_disabled":false,"rental_uris":{"android":"levelo://app?vid=4111aaa4-2fad-4c5c-b0e6-decebaa6485b","ios":"levelo://app?vid=4111aaa4-2fad-4c5c-b0e6-decebaa6485b"},"vehicle_type_id":"4","last_reported":1691777282,"current_range_meters":19600,"station_id":"ce4bgup2rcd13ifvqco0","pricing_plan_id":"free"},{"bike_id":"2ebd53ea-6ed7-4173-b7e2-a941284334bd","system_id":"levelo_inurba_marseille","lat":43.30948,"lon":5.39035,"is_reserved":false,"is_disabled":false,"rental_uris":{"android":"levelo://app?vid=2ebd53ea-6ed7-4173-b7e2-a941284334bd","ios":"levelo://app?vid=2ebd53ea-6ed7-4173-b7e2-a941284334bd"},"vehicle_type_id":"4","last_reported":1691777282,"current_range_meters":4400,"station_id":"ce4bgup2rcd13ifvqco0","pricing_plan_id":"free"},{"bike_id":"421756cf-6958-4570-ae48-a50cd2cdaff7","system_id":"levelo_inurba_marseille","lat":43.309589,"lon":5.390258,"is_reserved":false,"is_disabled":false,"rental_uris":{"android":"levelo://app?vid=421756cf-6958-4570-ae48-a50cd2cdaff7","ios":"levelo://app?vid=421756cf-6958-4570-ae48-a50cd2cdaff7"},"vehicle_type_id":"4","last_reported":1691777282,"current_range_meters":22400,"station_id":"ce4bgup2rcd13ifvqco0","pricing_plan_id":"free"},{"bike_id":"211a4613-65c0-4dfe-b3e9-ae8aa881f765","system_id":"levelo_inurba_marseille","lat":43.309589,"lon":5.390258,"is_reserved":false,"is_disabled":false,"rental_uris":{"android":"levelo://app?vid=211a4613-65c0-4dfe-b3e9-ae8aa881f765","ios":"levelo://app?vid=211a4613-65c0-4dfe-b3e9-ae8aa881f765"},"vehicle_type_id":"4","last_reported":1691777282,"current_range_meters":20800,"station_id":"ce4bgup2rcd13ifvqco0","pricing_plan_id":"free"},{"bike_id":"82783c88-2c3e-46b9-a325-ca7f24ca14f1","system_id":"levelo_inurba_marseille","lat":43.30952,"lon":5.39037,"is_reserved":false,"is_disabled":false,"rental_uris":{"android":"levelo://app?vid=82783c88-2c3e-46b9-a325-ca7f24ca14f1","ios":"levelo://app?vid=82783c88-2c3e-46b9-a325-ca7f24ca14f1"},"vehicle_type_id":"4","last_reported":1691777282,"current_range_meters":18400,"station_id":"ce4bgup2rcd13ifvqco0","pricing_plan_id":"free"},{"bike_id":"6325128f-19cd-4aa8-906e-a8f65a041b6a","system_id":"levelo_inurba_marseille","lat":43.30949,"lon":5.39037,"is_reserved":false,"is_disabled":false,"rental_uris":{"android":"levelo://app?vid=6325128f-19cd-4aa8-906e-a8f65a041b6a","ios":"levelo://app?vid=6325128f-19cd-4aa8-906e-a8f65a041b6a"},"vehicle_type_id":"4","last_reported":1691777282,"current_range_meters":25600,"station_id":"ce4bgup2rcd13ifvqco0","pricing_plan_id":"free"},{"bike_id":"18eaae68-876d-49bd-b08f-5203b31678dc","system_id":"levelo_inurba_marseille","lat":43.30954,"lon":5.39039,"is_reserved":false,"is_disabled":false,"rental_uris":{"android":"levelo://app?vid=18eaae68-876d-49bd-b08f-5203b31678dc","ios":"levelo://app?vid=18eaae68-876d-49bd-b08f-5203b31678dc"},"vehicle_type_id":"4","last_reported":1691777282,"current_range_meters":0,"station_id":"ce4bgup2rcd13ifvqco0","pricing_plan_id":"free"},{"bike_id":"90ec34f0-db5f-48e4-9ddb-036adb532e8b","system_id":"levelo_inurba_marseille","lat":43.309589,"lon":5.390258,"is_reserved":false,"is_disabled":false,"rental_uris":{"android":"levelo://app?vid=90ec34f0-db5f-48e4-9ddb-036adb532e8b","ios":"levelo://app?vid=90ec34f0-db5f-48e4-9ddb-036adb532e8b"},"vehicle_type_id":"4","last_reported":1691777282,"current_range_meters":24800,"station_id":"ce4bgup2rcd13ifvqco0","pricing_plan_id":"free"},{"bike_id":"41f5bd9f-1c4c-4055-a766-5038a2eafb5f","system_id":"levelo_inurba_marseille","lat":43.309589,"lon":5.390258,"is_reserved":false,"is_disabled":false,"rental_uris":{"android":"levelo://app?vid=41f5bd9f-1c4c-4055-a766-5038a2eafb5f","ios":"levelo://app?vid=41f5bd9f-1c4c-4055-a766-5038a2eafb5f"},"vehicle_type_id":"4","last_reported":1691777282,"current_range_meters":5600,"station_id":"ce4bgup2rcd13ifvqco0","pricing_plan_id":"free"},{"bike_id":"e9102c55-7297-45af-8e7f-f58b6341b6f0","system_id":"levelo_inurba_marseille","lat":43.30955,"lon":5.39043,"is_reserved":false,"is_disabled":false,"rental_uris":{"android":"levelo://app?vid=e9102c55-7297-45af-8e7f-f58b6341b6f0","ios":"levelo://app?vid=e9102c55-7297-45af-8e7f-f58b6341b6f0"},"vehicle_type_id":"4","last_reported":1691777282,"current_range_meters":17600,"station_id":"ce4bgup2rcd13ifvqco0","pricing_plan_id":"free"},{"bike_id":"3e00f259-4792-471e-b8af-f19d605d87f8","system_id":"levelo_inurba_marseille","lat":43.309589,"lon":5.390258,"is_reserved":false,"is_disabled":false,"rental_uris":{"android":"levelo://app?vid=3e00f259-4792-471e-b8af-f19d605d87f8","ios":"levelo://app?vid=3e00f259-4792-471e-b8af-f19d605d87f8"},"vehicle_type_id":"4","last_reported":1691777282,"current_range_meters":19600,"station_id":"ce4bgup2rcd13ifvqco0","pricing_plan_id":"free"},{"bike_id":"597bcb6b-5a82-4e72-8d97-a76f302ce0aa","system_id":"levelo_inurba_marseille","lat":43.309589,"lon":5.390258,"is_reserved":false,"is_disabled":false,"rental_uris":{"android":"levelo://app?vid=597bcb6b-5a82-4e72-8d97-a76f302ce0aa","ios":"levelo://app?vid=597bcb6b-5a82-4e72-8d97-a76f302ce0aa"},"vehicle_type_id":"4","last_reported":1691777282,"current_range_meters":30000,"station_id":"ce4bgup2rcd13ifvqco0","pricing_plan_id":"free"},{"bike_id":"03a19cba-b2b7-4e4d-9c53-5cf0b614858d","system_id":"levelo_inurba_marseille","lat":43.317557,"lon":5.390173,"is_reserved":false,"is_disabled":false,"rental_uris":{"android":"levelo://app?vid=03a19cba-b2b7-4e4d-9c53-5cf0b614858d","ios":"levelo://app?vid=03a19cba-b2b7-4e4d-9c53-5cf0b614858d"},"vehicle_type_id":"4","last_reported":1691777282,"current_range_meters":28000,"station_id":"ce4bhqp2rcd13ifvqhng","pricing_plan_id":"free"},{"bike_id":"b71b4e1a-5dd4-4c5a-88e4-d5cfd2dee645","system_id":"levelo_inurba_marseille","lat":43.317557,"lon":5.390173,"is_reserved":false,"is_disabled":false,"rental_uris":{"android":"levelo://app?vid=b71b4e1a-5dd4-4c5a-88e4-d5cfd2dee645","ios":"levelo://app?vid=b71b4e1a-5dd4-4c5a-88e4-d5cfd2dee645"},"vehicle_type_id":"4","last_reported":1691777282,"current_range_meters":24800,"station_id":"ce4bhqp2rcd13ifvqhng","pricing_plan_id":"free"},{"bike_id":"76ff3b14-d346-4134-b772-5805eda4f7f2","system_id":"levelo_inurba_marseille","lat":43.317557,"lon":5.390173,"is_reserved":false,"is_disabled":false,"rental_uris":{"android":"levelo://app?vid=76ff3b14-d346-4134-b772-5805eda4f7f2","ios":"levelo://app?vid=76ff3b14-d346-4134-b772-5805eda4f7f2"},"vehicle_type_id":"4","last_reported":1691777282,"current_range_meters":26000,"station_id":"ce4bhqp2rcd13ifvqhng","pricing_plan_id":"free"},{"bike_id":"92b18089-322e-498d-9529-47aa5d1332e1","system_id":"levelo_inurba_marseille","lat":43.317557,"lon":5.390173,"is_reserved":false,"is_disabled":false,"rental_uris":{"android":"levelo://app?vid=92b18089-322e-498d-9529-47aa5d1332e1","ios":"levelo://app?vid=92b18089-322e-498d-9529-47aa5d1332e1"},"vehicle_type_id":"4","last_reported":1691777282,"current_range_meters":22400,"station_id":"ce4bhqp2rcd13ifvqhng","pricing_plan_id":"free"},{"bike_id":"79c23392-7254-4cb8-ba09-02a8973f54f0","system_id":"levelo_inurba_marseille","lat":43.298037,"lon":5.381066,"is_reserved":false,"is_disabled":false,"rental_uris":{"android":"levelo://app?vid=79c23392-7254-4cb8-ba09-02a8973f54f0","ios":"levelo://app?vid=79c23392-7254-4cb8-ba09-02a8973f54f0"},"vehicle_type_id":"4","last_reported":1691777282,"current_range_meters":11200,"station_id":"ce4bgip2rcd13ifvqbb0","pricing_plan_id":"free"},{"bike_id":"85eb9446-53e9-4945-9bd8-40fc83a93e95","system_id":"levelo_inurba_marseille","lat":43.298037,"lon":5.381066,"is_reserved":false,"is_disabled":false,"rental_uris":{"android":"levelo://app?vid=85eb9446-53e9-4945-9bd8-40fc83a93e95","ios":"levelo://app?vid=85eb9446-53e9-4945-9bd8-40fc83a93e95"},"vehicle_type_id":"4","last_reported":1691777282,"current_range_meters":30000,"station_id":"ce4bgip2rcd13ifvqbb0","pricing_plan_id":"free"},{"bike_id":"c35a4a16-c5c7-480b-9185-dbe7a810314e","system_id":"levelo_inurba_marseille","lat":43.295748,"lon":5.37522,"is_reserved":false,"is_disabled":false,"rental_uris":{"android":"levelo://app?vid=c35a4a16-c5c7-480b-9185-dbe7a810314e","ios":"levelo://app?vid=c35a4a16-c5c7-480b-9185-dbe7a810314e"},"vehicle_type_id":"4","last_reported":1691777282,"current_range_meters":18000,"station_id":"ce4bgh92rcd13ifvqb50","pricing_plan_id":"free"},{"bike_id":"d288ef91-9fa5-498f-97ce-a055affdd523","system_id":"levelo_inurba_marseille","lat":43.295748,"lon":5.37522,"is_reserved":false,"is_disabled":false,"rental_uris":{"android":"levelo://app?vid=d288ef91-9fa5-498f-97ce-a055affdd523","ios":"levelo://app?vid=d288ef91-9fa5-498f-97ce-a055affdd523"},"vehicle_type_id":"4","last_reported":1691777282,"current_range_meters":18800,"station_id":"ce4bgh92rcd13ifvqb50","pricing_plan_id":"free"},{"bike_id":"bd4105d9-20b4-4fc7-8d66-e07cf4aa08b7","system_id":"levelo_inurba_marseille","lat":43.30431,"lon":5.38888,"is_reserved":false,"is_disabled":false,"rental_uris":{"android":"levelo://app?vid=bd4105d9-20b4-4fc7-8d66-e07cf4aa08b7","ios":"levelo://app?vid=bd4105d9-20b4-4fc7-8d66-e07cf4aa08b7"},"vehicle_type_id":"4","last_reported":1691777282,"current_range_meters":4800,"station_id":"ce4bgk12rcd13ifvqbi0","pricing_plan_id":"free"},{"bike_id":"e0701b42-b86f-427d-9bf5-0c6f739ccf16","system_id":"levelo_inurba_marseille","lat":43.295748,"lon":5.37522,"is_reserved":false,"is_disabled":false,"rental_uris":{"android":"levelo://app?vid=e0701b42-b86f-427d-9bf5-0c6f739ccf16","ios":"levelo://app?vid=e0701b42-b86f-427d-9bf5-0c6f739ccf16"},"vehicle_type_id":"4","last_reported":1691777282,"current_range_meters":24000,"station_id":"ce4bgh92rcd13ifvqb50","pricing_plan_id":"free"},{"bike_id":"8240ae8d-c8be-42c7-9667-c4a8420d8189","system_id":"levelo_inurba_marseille","lat":43.295748,"lon":5.37522,"is_reserved":false,"is_disabled":false,"rental_uris":{"android":"levelo://app?vid=8240ae8d-c8be-42c7-9667-c4a8420d8189","ios":"levelo://app?vid=8240ae8d-c8be-42c7-9667-c4a8420d8189"},"vehicle_type_id":"4","last_reported":1691777282,"current_range_meters":5600,"station_id":"ce4bgh92rcd13ifvqb50","pricing_plan_id":"free"},{"bike_id":"465e7912-8a5e-49d0-8bfa-47fcbf7b6a6b","system_id":"levelo_inurba_marseille","lat":43.295748,"lon":5.37522,"is_reserved":false,"is_disabled":false,"rental_uris":{"android":"levelo://app?vid=465e7912-8a5e-49d0-8bfa-47fcbf7b6a6b","ios":"levelo://app?vid=465e7912-8a5e-49d0-8bfa-47fcbf7b6a6b"},"vehicle_type_id":"4","last_reported":1691777282,"current_range_meters":21600,"station_id":"ce4bgh92rcd13ifvqb50","pricing_plan_id":"free"},{"bike_id":"52d26f3d-ebd4-4019-a8ca-76902c5a92d0","system_id":"levelo_inurba_marseille","lat":43.30429,"lon":5.3889,"is_reserved":false,"is_disabled":false,"rental_uris":{"android":"levelo://app?vid=52d26f3d-ebd4-4019-a8ca-76902c5a92d0","ios":"levelo://app?vid=52d26f3d-ebd4-4019-a8ca-76902c5a92d0"},"vehicle_type_id":"4","last_reported":1691777282,"current_range_meters":6000,"station_id":"ce4bgk12rcd13ifvqbi0","pricing_plan_id":"free"},{"bike_id":"eefcd42d-9f56-42b2-9789-d3ccab39a02f","system_id":"levelo_inurba_marseille","lat":43.295748,"lon":5.37522,"is_reserved":false,"is_disabled":false,"rental_uris":{"android":"levelo://app?vid=eefcd42d-9f56-42b2-9789-d3ccab39a02f","ios":"levelo://app?vid=eefcd42d-9f56-42b2-9789-d3ccab39a02f"},"vehicle_type_id":"4","last_reported":1691777282,"current_range_meters":25600,"station_id":"ce4bgh92rcd13ifvqb50","pricing_plan_id":"free"},{"bike_id":"a4df99ce-0488-49dd-a888-94686f562e88","system_id":"levelo_inurba_marseille","lat":43.295748,"lon":5.37522,"is_reserved":false,"is_disabled":false,"rental_uris":{"android":"levelo://app?vid=a4df99ce-0488-49dd-a888-94686f562e88","ios":"levelo://app?vid=a4df99ce-0488-49dd-a888-94686f562e88"},"vehicle_type_id":"4","last_reported":1691777282,"current_range_meters":31600,"station_id":"ce4bgh92rcd13ifvqb50","pricing_plan_id":"free"},{"bike_id":"4dcc2ec0-0d0d-4dc5-a168-d31d47ed9927","system_id":"levelo_inurba_marseille","lat":43.295279,"lon":5.375048,"is_reserved":false,"is_disabled":false,"rental_uris":{"android":"levelo://app?vid=4dcc2ec0-0d0d-4dc5-a168-d31d47ed9927","ios":"levelo://app?vid=4dcc2ec0-0d0d-4dc5-a168-d31d47ed9927"},"vehicle_type_id":"4","last_reported":1691777282,"current_range_meters":14000,"station_id":"ce4bgkp2rcd13ifvqbmg","pricing_plan_id":"free"},{"bike_id":"f5125ff1-1030-4bf2-b60f-6c439a811430","system_id":"levelo_inurba_marseille","lat":43.296263,"lon":5.377094,"is_reserved":false,"is_disabled":false,"rental_uris":{"android":"levelo://app?vid=f5125ff1-1030-4bf2-b60f-6c439a811430","ios":"levelo://app?vid=f5125ff1-1030-4bf2-b60f-6c439a811430"},"vehicle_type_id":"4","last_reported":1691777282,"current_range_meters":0,"station_id":"ce4bgi92rcd13ifvqb90","pricing_plan_id":"free"},{"bike_id":"07ff4fa0-7b74-40c5-9f06-53fab2202925","system_id":"levelo_inurba_marseille","lat":43.299707,"lon":5.384859,"is_reserved":false,"is_disabled":false,"rental_uris":{"android":"levelo://app?vid=07ff4fa0-7b74-40c5-9f06-53fab2202925","ios":"levelo://app?vid=07ff4fa0-7b74-40c5-9f06-53fab2202925"},"vehicle_type_id":"4","last_reported":1691777282,"current_range_meters":24800,"station_id":"ce4bgj92rcd13ifvqbd0","pricing_plan_id":"free"},{"bike_id":"6d853d7e-2345-480a-9d18-289f539f766f","system_id":"levelo_inurba_marseille","lat":43.296131,"lon":5.370791,"is_reserved":false,"is_disabled":false,"rental_uris":{"android":"levelo://app?vid=6d853d7e-2345-480a-9d18-289f539f766f","ios":"levelo://app?vid=6d853d7e-2345-480a-9d18-289f539f766f"},"vehicle_type_id":"4","last_reported":1691777282,"current_range_meters":12400,"station_id":"ce4bgnh2rcd13ifvqc0g","pricing_plan_id":"free"},{"bike_id":"b6adb90e-9efd-4170-8253-825de9137b61","system_id":"levelo_inurba_marseille","lat":43.32363,"lon":5.38877,"is_reserved":false,"is_disabled":false,"rental_uris":{"android":"levelo://app?vid=b6adb90e-9efd-4170-8253-825de9137b61","ios":"levelo://app?vid=b6adb90e-9efd-4170-8253-825de9137b61"},"vehicle_type_id":"4","last_reported":1691777282,"current_range_meters":5600,"station_id":"ce4bhqp2rcd13ifvqhog","pricing_plan_id":"free"},{"bike_id":"7a5ccebc-5cd7-411d-b3c4-f349eba70b98","system_id":"levelo_inurba_marseille","lat":43.32363,"lon":5.38882,"is_reserved":false,"is_disabled":false,"rental_uris":{"android":"levelo://app?vid=7a5ccebc-5cd7-411d-b3c4-f349eba70b98","ios":"levelo://app?vid=7a5ccebc-5cd7-411d-b3c4-f349eba70b98"},"vehicle_type_id":"4","last_reported":1691777282,"current_range_meters":19200,"station_id":"ce4bhqp2rcd13ifvqhog","pricing_plan_id":"free"},{"bike_id":"fbe51afe-e58e-4401-bce8-142438eb5f97","system_id":"levelo_inurba_marseille","lat":43.32369,"lon":5.38878,"is_reserved":false,"is_disabled":false,"rental_uris":{"android":"levelo://app?vid=fbe51afe-e58e-4401-bce8-142438eb5f97","ios":"levelo://app?vid=fbe51afe-e58e-4401-bce8-142438eb5f97"},"vehicle_type_id":"4","last_reported":1691777282,"current_range_meters":12000,"station_id":"ce4bhqp2rcd13ifvqhog","pricing_plan_id":"free"},{"bike_id":"45f43857-b1c1-4363-b389-4618747543b7","system_id":"levelo_inurba_marseille","lat":43.32367,"lon":5.38881,"is_reserved":false,"is_disabled":false,"rental_uris":{"android":"levelo://app?vid=45f43857-b1c1-4363-b389-4618747543b7","ios":"levelo://app?vid=45f43857-b1c1-4363-b389-4618747543b7"},"vehicle_type_id":"4","last_reported":1691777282,"current_range_meters":27600,"station_id":"ce4bhqp2rcd13ifvqhog","pricing_plan_id":"free"},{"bike_id":"0337c164-8b0b-4f0b-b7b3-6790b2e9f25d","system_id":"levelo_inurba_marseille","lat":43.32363,"lon":5.38885,"is_reserved":false,"is_disabled":false,"rental_uris":{"android":"levelo://app?vid=0337c164-8b0b-4f0b-b7b3-6790b2e9f25d","ios":"levelo://app?vid=0337c164-8b0b-4f0b-b7b3-6790b2e9f25d"},"vehicle_type_id":"4","last_reported":1691777282,"current_range_meters":26000,"station_id":"ce4bhqp2rcd13ifvqhog","pricing_plan_id":"free"},{"bike_id":"1c06817d-c0e7-4587-90fd-16ba47647653","system_id":"levelo_inurba_marseille","lat":43.32364,"lon":5.38885,"is_reserved":false,"is_disabled":false,"rental_uris":{"android":"levelo://app?vid=1c06817d-c0e7-4587-90fd-16ba47647653","ios":"levelo://app?vid=1c06817d-c0e7-4587-90fd-16ba47647653"},"vehicle_type_id":"4","last_reported":1691777282,"current_range_meters":29200,"station_id":"ce4bhqp2rcd13ifvqhog","pricing_plan_id":"free"},{"bike_id":"65d2f4ac-6d45-4827-b249-b99c0111aed0","system_id":"levelo_inurba_marseille","lat":43.32363,"lon":5.38887,"is_reserved":false,"is_disabled":false,"rental_uris":{"android":"levelo://app?vid=65d2f4ac-6d45-4827-b249-b99c0111aed0","ios":"levelo://app?vid=65d2f4ac-6d45-4827-b249-b99c0111aed0"},"vehicle_type_id":"4","last_reported":1691777282,"current_range_meters":1200,"station_id":"ce4bhqp2rcd13ifvqhog","pricing_plan_id":"free"},{"bike_id":"a7758e93-92f2-4ba1-8882-417901e6037c","system_id":"levelo_inurba_marseille","lat":43.32367,"lon":5.388836,"is_reserved":false,"is_disabled":false,"rental_uris":{"android":"levelo://app?vid=a7758e93-92f2-4ba1-8882-417901e6037c","ios":"levelo://app?vid=a7758e93-92f2-4ba1-8882-417901e6037c"},"vehicle_type_id":"4","last_reported":1691777282,"current_range_meters":14800,"station_id":"ce4bhqp2rcd13ifvqhog","pricing_plan_id":"free"},{"bike_id":"f25782dc-9464-4bfc-b777-ab716f964574","system_id":"levelo_inurba_marseille","lat":43.29601,"lon":5.381084,"is_reserved":false,"is_disabled":false,"rental_uris":{"android":"levelo://app?vid=f25782dc-9464-4bfc-b777-ab716f964574","ios":"levelo://app?vid=f25782dc-9464-4bfc-b777-ab716f964574"},"vehicle_type_id":"4","last_reported":1691777282,"current_range_meters":29200,"station_id":"ce4bgl12rcd13ifvqbo0","pricing_plan_id":"free"},{"bike_id":"20e783dc-24c9-4a81-a008-460cb4654671","system_id":"levelo_inurba_marseille","lat":43.292749,"lon":5.368402,"is_reserved":false,"is_disabled":false,"rental_uris":{"android":"levelo://app?vid=20e783dc-24c9-4a81-a008-460cb4654671","ios":"levelo://app?vid=20e783dc-24c9-4a81-a008-460cb4654671"},"vehicle_type_id":"4","last_reported":1691777282,"current_range_meters":4800,"station_id":"ce4bhbp2rcd13ifvqesg","pricing_plan_id":"free"},{"bike_id":"9ad11619-b47e-45c8-9abc-1912750811e5","system_id":"levelo_inurba_marseille","lat":43.292749,"lon":5.368398,"is_reserved":false,"is_disabled":false,"rental_uris":{"android":"levelo://app?vid=9ad11619-b47e-45c8-9abc-1912750811e5","ios":"levelo://app?vid=9ad11619-b47e-45c8-9abc-1912750811e5"},"vehicle_type_id":"4","last_reported":1691777282,"current_range_meters":31200,"station_id":"ce4bhbp2rcd13ifvqesg","pricing_plan_id":"free"},{"bike_id":"202d924c-7291-43ad-bd3e-1bbe56821982","system_id":"levelo_inurba_marseille","lat":43.292749,"lon":5.368398,"is_reserved":false,"is_disabled":false,"rental_uris":{"android":"levelo://app?vid=202d924c-7291-43ad-bd3e-1bbe56821982","ios":"levelo://app?vid=202d924c-7291-43ad-bd3e-1bbe56821982"},"vehicle_type_id":"4","last_reported":1691777282,"current_range_meters":26800,"station_id":"ce4bhbp2rcd13ifvqesg","pricing_plan_id":"free"},{"bike_id":"0a5fece7-1d53-4dc2-873d-2c9be2e94949","system_id":"levelo_inurba_marseille","lat":43.293249,"lon":5.371578,"is_reserved":false,"is_disabled":false,"rental_uris":{"android":"levelo://app?vid=0a5fece7-1d53-4dc2-873d-2c9be2e94949","ios":"levelo://app?vid=0a5fece7-1d53-4dc2-873d-2c9be2e94949"},"vehicle_type_id":"4","last_reported":1691777282,"current_range_meters":25600,"station_id":"ce4bgh92rcd13ifvqb40","pricing_plan_id":"free"},{"bike_id":"7fdd224d-0fbf-421a-85c5-036ddc3ab636","system_id":"levelo_inurba_marseille","lat":43.293249,"lon":5.371578,"is_reserved":false,"is_disabled":false,"rental_uris":{"android":"levelo://app?vid=7fdd224d-0fbf-421a-85c5-036ddc3ab636","ios":"levelo://app?vid=7fdd224d-0fbf-421a-85c5-036ddc3ab636"},"vehicle_type_id":"4","last_reported":1691777282,"current_range_meters":11600,"station_id":"ce4bgh92rcd13ifvqb40","pricing_plan_id":"free"},{"bike_id":"dbe406a0-e31d-4174-932b-0d8d584d17c2","system_id":"levelo_inurba_marseille","lat":43.292749,"lon":5.368402,"is_reserved":false,"is_disabled":false,"rental_uris":{"android":"levelo://app?vid=dbe406a0-e31d-4174-932b-0d8d584d17c2","ios":"levelo://app?vid=dbe406a0-e31d-4174-932b-0d8d584d17c2"},"vehicle_type_id":"4","last_reported":1691777282,"current_range_meters":32000,"station_id":"ce4bhbp2rcd13ifvqesg","pricing_plan_id":"free"},{"bike_id":"fdb6fc5d-f351-4b6e-8ff9-723aeb86ff57","system_id":"levelo_inurba_marseille","lat":43.292749,"lon":5.368402,"is_reserved":false,"is_disabled":false,"rental_uris":{"android":"levelo://app?vid=fdb6fc5d-f351-4b6e-8ff9-723aeb86ff57","ios":"levelo://app?vid=fdb6fc5d-f351-4b6e-8ff9-723aeb86ff57"},"vehicle_type_id":"4","last_reported":1691777282,"current_range_meters":9600,"station_id":"ce4bhbp2rcd13ifvqesg","pricing_plan_id":"free"},{"bike_id":"76197b6a-e6d8-4f50-a308-9eb23f116870","system_id":"levelo_inurba_marseille","lat":43.293249,"lon":5.371578,"is_reserved":false,"is_disabled":false,"rental_uris":{"android":"levelo://app?vid=76197b6a-e6d8-4f50-a308-9eb23f116870","ios":"levelo://app?vid=76197b6a-e6d8-4f50-a308-9eb23f116870"},"vehicle_type_id":"4","last_reported":1691777282,"current_range_meters":4800,"station_id":"ce4bgh92rcd13ifvqb40","pricing_plan_id":"free"},{"bike_id":"65949cf2-f086-4122-bd56-624841df5aea","system_id":"levelo_inurba_marseille","lat":43.292749,"lon":5.368398,"is_reserved":false,"is_disabled":false,"rental_uris":{"android":"levelo://app?vid=65949cf2-f086-4122-bd56-624841df5aea","ios":"levelo://app?vid=65949cf2-f086-4122-bd56-624841df5aea"},"vehicle_type_id":"4","last_reported":1691777282,"current_range_meters":31200,"station_id":"ce4bhbp2rcd13ifvqesg","pricing_plan_id":"free"},{"bike_id":"c5e12872-4ff8-4866-809c-c1681013ce86","system_id":"levelo_inurba_marseille","lat":43.292749,"lon":5.368402,"is_reserved":false,"is_disabled":false,"rental_uris":{"android":"levelo://app?vid=c5e12872-4ff8-4866-809c-c1681013ce86","ios":"levelo://app?vid=c5e12872-4ff8-4866-809c-c1681013ce86"},"vehicle_type_id":"4","last_reported":1691777282,"current_range_meters":5600,"station_id":"ce4bhbp2rcd13ifvqesg","pricing_plan_id":"free"},{"bike_id":"48664e71-49bd-4ef9-b8dc-6e48152b75c8","system_id":"levelo_inurba_marseille","lat":43.305994,"lon":5.393687,"is_reserved":false,"is_disabled":false,"rental_uris":{"android":"levelo://app?vid=48664e71-49bd-4ef9-b8dc-6e48152b75c8","ios":"levelo://app?vid=48664e71-49bd-4ef9-b8dc-6e48152b75c8"},"vehicle_type_id":"4","last_reported":1691777282,"current_range_meters":14400,"station_id":"ce4bh0p2rcd13ifvqd80","pricing_plan_id":"free"},{"bike_id":"1d971996-d790-4b3c-bde8-261a9e543d2d","system_id":"levelo_inurba_marseille","lat":43.302992,"lon":5.392136,"is_reserved":false,"is_disabled":false,"rental_uris":{"android":"levelo://app?vid=1d971996-d790-4b3c-bde8-261a9e543d2d","ios":"levelo://app?vid=1d971996-d790-4b3c-bde8-261a9e543d2d"},"vehicle_type_id":"4","last_reported":1691777282,"current_range_meters":4400,"station_id":"ce4bgkh2rcd13ifvqbk0","pricing_plan_id":"free"},{"bike_id":"af701ea3-c47d-41ea-9fc2-54d1f7d74e91","system_id":"levelo_inurba_marseille","lat":43.302992,"lon":5.392136,"is_reserved":false,"is_disabled":false,"rental_uris":{"android":"levelo://app?vid=af701ea3-c47d-41ea-9fc2-54d1f7d74e91","ios":"levelo://app?vid=af701ea3-c47d-41ea-9fc2-54d1f7d74e91"},"vehicle_type_id":"4","last_reported":1691777282,"current_range_meters":0,"station_id":"ce4bgkh2rcd13ifvqbk0","pricing_plan_id":"free"},{"bike_id":"39e9a7ae-27b5-405c-a0e7-1c4d44e8f1a9","system_id":"levelo_inurba_marseille","lat":43.302992,"lon":5.392136,"is_reserved":false,"is_disabled":false,"rental_uris":{"android":"levelo://app?vid=39e9a7ae-27b5-405c-a0e7-1c4d44e8f1a9","ios":"levelo://app?vid=39e9a7ae-27b5-405c-a0e7-1c4d44e8f1a9"},"vehicle_type_id":"4","last_reported":1691777282,"current_range_meters":800,"station_id":"ce4bgkh2rcd13ifvqbk0","pricing_plan_id":"free"},{"bike_id":"942e4e3d-17ce-4df6-8c5e-f3280ee7b632","system_id":"levelo_inurba_marseille","lat":43.302992,"lon":5.392136,"is_reserved":false,"is_disabled":false,"rental_uris":{"android":"levelo://app?vid=942e4e3d-17ce-4df6-8c5e-f3280ee7b632","ios":"levelo://app?vid=942e4e3d-17ce-4df6-8c5e-f3280ee7b632"},"vehicle_type_id":"4","last_reported":1691777282,"current_range_meters":18000,"station_id":"ce4bgkh2rcd13ifvqbk0","pricing_plan_id":"free"},{"bike_id":"9c764613-87d1-4303-8f71-1d35e9894c04","system_id":"levelo_inurba_marseille","lat":43.302992,"lon":5.392136,"is_reserved":false,"is_disabled":false,"rental_uris":{"android":"levelo://app?vid=9c764613-87d1-4303-8f71-1d35e9894c04","ios":"levelo://app?vid=9c764613-87d1-4303-8f71-1d35e9894c04"},"vehicle_type_id":"4","last_reported":1691777282,"current_range_meters":30400,"station_id":"ce4bgkh2rcd13ifvqbk0","pricing_plan_id":"free"},{"bike_id":"7d84b28e-da98-495c-bf16-5e6e404d3615","system_id":"levelo_inurba_marseille","lat":43.300852,"lon":5.390859,"is_reserved":false,"is_disabled":false,"rental_uris":{"android":"levelo://app?vid=7d84b28e-da98-495c-bf16-5e6e404d3615","ios":"levelo://app?vid=7d84b28e-da98-495c-bf16-5e6e404d3615"},"vehicle_type_id":"4","last_reported":1691777282,"current_range_meters":8800,"station_id":"ce4bh192rcd13ifvqdb0","pricing_plan_id":"free"},{"bike_id":"023ccf38-2eef-4ebd-918b-06197822a0d7","system_id":"levelo_inurba_marseille","lat":43.292311,"lon":5.360731,"is_reserved":false,"is_disabled":false,"rental_uris":{"android":"levelo://app?vid=023ccf38-2eef-4ebd-918b-06197822a0d7","ios":"levelo://app?vid=023ccf38-2eef-4ebd-918b-06197822a0d7"},"vehicle_type_id":"4","last_reported":1691777282,"current_range_meters":400,"station_id":"ce4bhbh2rcd13ifvqeqg","pricing_plan_id":"free"},{"bike_id":"d8d3c162-470a-4bfb-ba76-871c6c6a3b71","system_id":"levelo_inurba_marseille","lat":43.300852,"lon":5.390859,"is_reserved":false,"is_disabled":false,"rental_uris":{"android":"levelo://app?vid=d8d3c162-470a-4bfb-ba76-871c6c6a3b71","ios":"levelo://app?vid=d8d3c162-470a-4bfb-ba76-871c6c6a3b71"},"vehicle_type_id":"4","last_reported":1691777282,"current_range_meters":19600,"station_id":"ce4bh192rcd13ifvqdb0","pricing_plan_id":"free"},{"bike_id":"a82a7323-fcd4-4e69-a666-da710a62fc7e","system_id":"levelo_inurba_marseille","lat":43.300852,"lon":5.390859,"is_reserved":false,"is_disabled":false,"rental_uris":{"android":"levelo://app?vid=a82a7323-fcd4-4e69-a666-da710a62fc7e","ios":"levelo://app?vid=a82a7323-fcd4-4e69-a666-da710a62fc7e"},"vehicle_type_id":"4","last_reported":1691777282,"current_range_meters":20800,"station_id":"ce4bh192rcd13ifvqdb0","pricing_plan_id":"free"},{"bike_id":"673a5d5f-aa9b-45a5-86b5-308651dc6b63","system_id":"levelo_inurba_marseille","lat":43.309047,"lon":5.396551,"is_reserved":false,"is_disabled":false,"rental_uris":{"android":"levelo://app?vid=673a5d5f-aa9b-45a5-86b5-308651dc6b63","ios":"levelo://app?vid=673a5d5f-aa9b-45a5-86b5-308651dc6b63"},"vehicle_type_id":"4","last_reported":1691777282,"current_range_meters":10400,"station_id":"ce4bh012rcd13ifvqcv0","pricing_plan_id":"free"},{"bike_id":"bd038360-e5e1-45fd-b524-0527750c9f05","system_id":"levelo_inurba_marseille","lat":43.31322,"lon":5.39697,"is_reserved":false,"is_disabled":false,"rental_uris":{"android":"levelo://app?vid=bd038360-e5e1-45fd-b524-0527750c9f05","ios":"levelo://app?vid=bd038360-e5e1-45fd-b524-0527750c9f05"},"vehicle_type_id":"4","last_reported":1691777282,"current_range_meters":4800,"station_id":"ce4bgvp2rcd13ifvqcu0","pricing_plan_id":"free"},{"bike_id":"c8863b76-de8d-4998-87cc-d373b4c5c638","system_id":"levelo_inurba_marseille","lat":43.3088,"lon":5.39651,"is_reserved":false,"is_disabled":false,"rental_uris":{"android":"levelo://app?vid=c8863b76-de8d-4998-87cc-d373b4c5c638","ios":"levelo://app?vid=c8863b76-de8d-4998-87cc-d373b4c5c638"},"vehicle_type_id":"4","last_reported":1691777282,"current_range_meters":2400,"station_id":"ce4bh012rcd13ifvqcv0","pricing_plan_id":"free"},{"bike_id":"c5399755-fb03-4537-8755-299f577c8709","system_id":"levelo_inurba_marseille","lat":43.31329,"lon":5.39702,"is_reserved":false,"is_disabled":false,"rental_uris":{"android":"levelo://app?vid=c5399755-fb03-4537-8755-299f577c8709","ios":"levelo://app?vid=c5399755-fb03-4537-8755-299f577c8709"},"vehicle_type_id":"4","last_reported":1691777282,"current_range_meters":12400,"station_id":"ce4bgvp2rcd13ifvqcu0","pricing_plan_id":"free"},{"bike_id":"0b58be61-fbf4-4fcd-a4a6-75d3894161ff","system_id":"levelo_inurba_marseille","lat":43.309038,"lon":5.396546,"is_reserved":false,"is_disabled":false,"rental_uris":{"android":"levelo://app?vid=0b58be61-fbf4-4fcd-a4a6-75d3894161ff","ios":"levelo://app?vid=0b58be61-fbf4-4fcd-a4a6-75d3894161ff"},"vehicle_type_id":"4","last_reported":1691777282,"current_range_meters":22400,"station_id":"ce4bh012rcd13ifvqcv0","pricing_plan_id":"free"},{"bike_id":"c1dd78c1-66eb-457e-8387-135a5610cf05","system_id":"levelo_inurba_marseille","lat":43.29529,"lon":5.385581,"is_reserved":false,"is_disabled":false,"rental_uris":{"android":"levelo://app?vid=c1dd78c1-66eb-457e-8387-135a5610cf05","ios":"levelo://app?vid=c1dd78c1-66eb-457e-8387-135a5610cf05"},"vehicle_type_id":"4","last_reported":1691777282,"current_range_meters":28000,"station_id":"ce4bgih2rcd13ifvqba0","pricing_plan_id":"free"},{"bike_id":"d071fcdd-0313-4149-8709-cf0eb44de23c","system_id":"levelo_inurba_marseille","lat":43.29043,"lon":5.37146,"is_reserved":false,"is_disabled":false,"rental_uris":{"android":"levelo://app?vid=d071fcdd-0313-4149-8709-cf0eb44de23c","ios":"levelo://app?vid=d071fcdd-0313-4149-8709-cf0eb44de23c"},"vehicle_type_id":"4","last_reported":1691777282,"current_range_meters":12000,"station_id":"ce4bh5p2rcd13ifvqe4g","pricing_plan_id":"free"},{"bike_id":"4619f720-6c5e-4591-94af-05329fd6663f","system_id":"levelo_inurba_marseille","lat":43.302008,"lon":5.394694,"is_reserved":false,"is_disabled":false,"rental_uris":{"android":"levelo://app?vid=4619f720-6c5e-4591-94af-05329fd6663f","ios":"levelo://app?vid=4619f720-6c5e-4591-94af-05329fd6663f"},"vehicle_type_id":"4","last_reported":1691777282,"current_range_meters":1600,"station_id":"ce4bh0p2rcd13ifvqd70","pricing_plan_id":"free"},{"bike_id":"e910bea5-9ce9-44b6-834e-dfe5dec032fb","system_id":"levelo_inurba_marseille","lat":43.3021,"lon":5.39464,"is_reserved":false,"is_disabled":false,"rental_uris":{"android":"levelo://app?vid=e910bea5-9ce9-44b6-834e-dfe5dec032fb","ios":"levelo://app?vid=e910bea5-9ce9-44b6-834e-dfe5dec032fb"},"vehicle_type_id":"4","last_reported":1691777282,"current_range_meters":22000,"station_id":"","pricing_plan_id":"free"},{"bike_id":"6c77207a-2bc5-4301-a8fa-6c734abfa3bf","system_id":"levelo_inurba_marseille","lat":43.29214,"lon":5.38058,"is_reserved":false,"is_disabled":false,"rental_uris":{"android":"levelo://app?vid=6c77207a-2bc5-4301-a8fa-6c734abfa3bf","ios":"levelo://app?vid=6c77207a-2bc5-4301-a8fa-6c734abfa3bf"},"vehicle_type_id":"4","last_reported":1691777282,"current_range_meters":14400,"station_id":"","pricing_plan_id":"free"},{"bike_id":"a839da07-4a78-4135-923c-e2c269d12f50","system_id":"levelo_inurba_marseille","lat":43.29418,"lon":5.38614,"is_reserved":false,"is_disabled":false,"rental_uris":{"android":"levelo://app?vid=a839da07-4a78-4135-923c-e2c269d12f50","ios":"levelo://app?vid=a839da07-4a78-4135-923c-e2c269d12f50"},"vehicle_type_id":"4","last_reported":1691777282,"current_range_meters":4000,"station_id":"ce4bh2h2rcd13ifvqdh0","pricing_plan_id":"free"},{"bike_id":"4c35a040-2611-4a5d-9558-1b48b805d05e","system_id":"levelo_inurba_marseille","lat":43.29419,"lon":5.38617,"is_reserved":false,"is_disabled":false,"rental_uris":{"android":"levelo://app?vid=4c35a040-2611-4a5d-9558-1b48b805d05e","ios":"levelo://app?vid=4c35a040-2611-4a5d-9558-1b48b805d05e"},"vehicle_type_id":"4","last_reported":1691777282,"current_range_meters":21200,"station_id":"ce4bh2h2rcd13ifvqdh0","pricing_plan_id":"free"},{"bike_id":"91b1e2ca-f238-459b-9833-d7545436d3d5","system_id":"levelo_inurba_marseille","lat":43.29417,"lon":5.38618,"is_reserved":false,"is_disabled":false,"rental_uris":{"android":"levelo://app?vid=91b1e2ca-f238-459b-9833-d7545436d3d5","ios":"levelo://app?vid=91b1e2ca-f238-459b-9833-d7545436d3d5"},"vehicle_type_id":"4","last_reported":1691777282,"current_range_meters":12400,"station_id":"ce4bh2h2rcd13ifvqdh0","pricing_plan_id":"free"},{"bike_id":"4fdda32d-5125-4311-a817-014951ccff3d","system_id":"levelo_inurba_marseille","lat":43.2942,"lon":5.38625,"is_reserved":false,"is_disabled":false,"rental_uris":{"android":"levelo://app?vid=4fdda32d-5125-4311-a817-014951ccff3d","ios":"levelo://app?vid=4fdda32d-5125-4311-a817-014951ccff3d"},"vehicle_type_id":"4","last_reported":1691777282,"current_range_meters":17600,"station_id":"ce4bh2h2rcd13ifvqdh0","pricing_plan_id":"free"},{"bike_id":"987fe339-95f1-4ab6-9e4c-e3c2e8d81c74","system_id":"levelo_inurba_marseille","lat":43.2942,"lon":5.38626,"is_reserved":false,"is_disabled":false,"rental_uris":{"android":"levelo://app?vid=987fe339-95f1-4ab6-9e4c-e3c2e8d81c74","ios":"levelo://app?vid=987fe339-95f1-4ab6-9e4c-e3c2e8d81c74"},"vehicle_type_id":"4","last_reported":1691777282,"current_range_meters":3200,"station_id":"ce4bh2h2rcd13ifvqdh0","pricing_plan_id":"free"},{"bike_id":"42813ecb-ad88-4b7c-a619-18e75f8b4a70","system_id":"levelo_inurba_marseille","lat":43.2942,"lon":5.38626,"is_reserved":false,"is_disabled":false,"rental_uris":{"android":"levelo://app?vid=42813ecb-ad88-4b7c-a619-18e75f8b4a70","ios":"levelo://app?vid=42813ecb-ad88-4b7c-a619-18e75f8b4a70"},"vehicle_type_id":"4","last_reported":1691777282,"current_range_meters":8000,"station_id":"ce4bh2h2rcd13ifvqdh0","pricing_plan_id":"free"},{"bike_id":"4aa76a1c-d6eb-4a0a-99c4-31b8f27d27d3","system_id":"levelo_inurba_marseille","lat":43.29418,"lon":5.38625,"is_reserved":false,"is_disabled":false,"rental_uris":{"android":"levelo://app?vid=4aa76a1c-d6eb-4a0a-99c4-31b8f27d27d3","ios":"levelo://app?vid=4aa76a1c-d6eb-4a0a-99c4-31b8f27d27d3"},"vehicle_type_id":"4","last_reported":1691777282,"current_range_meters":18800,"station_id":"ce4bh2h2rcd13ifvqdh0","pricing_plan_id":"free"},{"bike_id":"6f1c859f-48f8-42c2-a96a-a011703c6446","system_id":"levelo_inurba_marseille","lat":43.29416,"lon":5.38624,"is_reserved":false,"is_disabled":false,"rental_uris":{"android":"levelo://app?vid=6f1c859f-48f8-42c2-a96a-a011703c6446","ios":"levelo://app?vid=6f1c859f-48f8-42c2-a96a-a011703c6446"},"vehicle_type_id":"4","last_reported":1691777282,"current_range_meters":22800,"station_id":"ce4bh2h2rcd13ifvqdh0","pricing_plan_id":"free"},{"bike_id":"c530bd78-7636-40d6-bd13-208d5903cbc6","system_id":"levelo_inurba_marseille","lat":43.29416,"lon":5.38627,"is_reserved":false,"is_disabled":false,"rental_uris":{"android":"levelo://app?vid=c530bd78-7636-40d6-bd13-208d5903cbc6","ios":"levelo://app?vid=c530bd78-7636-40d6-bd13-208d5903cbc6"},"vehicle_type_id":"4","last_reported":1691777282,"current_range_meters":28800,"station_id":"ce4bh2h2rcd13ifvqdh0","pricing_plan_id":"free"},{"bike_id":"731d7aad-6a90-4dad-a848-7f106ba9c3ae","system_id":"levelo_inurba_marseille","lat":43.289184,"lon":5.366408,"is_reserved":false,"is_disabled":false,"rental_uris":{"android":"levelo://app?vid=731d7aad-6a90-4dad-a848-7f106ba9c3ae","ios":"levelo://app?vid=731d7aad-6a90-4dad-a848-7f106ba9c3ae"},"vehicle_type_id":"4","last_reported":1691777282,"current_range_meters":31200,"station_id":"ce4bhap2rcd13ifvqek0","pricing_plan_id":"free"},{"bike_id":"0c35abe1-095e-48e7-a7eb-13b63edb775b","system_id":"levelo_inurba_marseille","lat":43.294162,"lon":5.386292,"is_reserved":false,"is_disabled":false,"rental_uris":{"android":"levelo://app?vid=0c35abe1-095e-48e7-a7eb-13b63edb775b","ios":"levelo://app?vid=0c35abe1-095e-48e7-a7eb-13b63edb775b"},"vehicle_type_id":"4","last_reported":1691777282,"current_range_meters":0,"station_id":"ce4bh2h2rcd13ifvqdh0","pricing_plan_id":"free"},{"bike_id":"4a2412a4-a5ad-4bfc-8926-32362103b3fa","system_id":"levelo_inurba_marseille","lat":43.289184,"lon":5.366408,"is_reserved":false,"is_disabled":false,"rental_uris":{"android":"levelo://app?vid=4a2412a4-a5ad-4bfc-8926-32362103b3fa","ios":"levelo://app?vid=4a2412a4-a5ad-4bfc-8926-32362103b3fa"},"vehicle_type_id":"4","last_reported":1691777282,"current_range_meters":31200,"station_id":"ce4bhap2rcd13ifvqek0","pricing_plan_id":"free"},{"bike_id":"33d801f3-afed-4df7-9fd7-224e607586e3","system_id":"levelo_inurba_marseille","lat":43.289184,"lon":5.366408,"is_reserved":false,"is_disabled":false,"rental_uris":{"android":"levelo://app?vid=33d801f3-afed-4df7-9fd7-224e607586e3","ios":"levelo://app?vid=33d801f3-afed-4df7-9fd7-224e607586e3"},"vehicle_type_id":"4","last_reported":1691777282,"current_range_meters":25600,"station_id":"ce4bhap2rcd13ifvqek0","pricing_plan_id":"free"},{"bike_id":"588160d4-6b1a-4945-bfe1-04cf758027f3","system_id":"levelo_inurba_marseille","lat":43.292644,"lon":5.384257,"is_reserved":false,"is_disabled":false,"rental_uris":{"android":"levelo://app?vid=588160d4-6b1a-4945-bfe1-04cf758027f3","ios":"levelo://app?vid=588160d4-6b1a-4945-bfe1-04cf758027f3"},"vehicle_type_id":"4","last_reported":1691777282,"current_range_meters":29600,"station_id":"ce4bh692rcd13ifvqea0","pricing_plan_id":"free"},{"bike_id":"2f448e29-aa1b-41d2-ac88-29e3743c0772","system_id":"levelo_inurba_marseille","lat":43.29041,"lon":5.399634,"is_reserved":false,"is_disabled":false,"rental_uris":{"android":"levelo://app?vid=2f448e29-aa1b-41d2-ac88-29e3743c0772","ios":"levelo://app?vid=2f448e29-aa1b-41d2-ac88-29e3743c0772"},"vehicle_type_id":"4","last_reported":1691777282,"current_range_meters":2000,"station_id":"ce4bh392rcd13ifvqdm0","pricing_plan_id":"free"},{"bike_id":"e2bf6b37-9f01-4f14-ab7d-3294c940fdf9","system_id":"levelo_inurba_marseille","lat":43.292644,"lon":5.384257,"is_reserved":false,"is_disabled":false,"rental_uris":{"android":"levelo://app?vid=e2bf6b37-9f01-4f14-ab7d-3294c940fdf9","ios":"levelo://app?vid=e2bf6b37-9f01-4f14-ab7d-3294c940fdf9"},"vehicle_type_id":"4","last_reported":1691777282,"current_range_meters":13600,"station_id":"ce4bh692rcd13ifvqea0","pricing_plan_id":"free"},{"bike_id":"9a0a4e57-1182-43c2-a019-53338242ecf4","system_id":"levelo_inurba_marseille","lat":43.292644,"lon":5.384257,"is_reserved":false,"is_disabled":false,"rental_uris":{"android":"levelo://app?vid=9a0a4e57-1182-43c2-a019-53338242ecf4","ios":"levelo://app?vid=9a0a4e57-1182-43c2-a019-53338242ecf4"},"vehicle_type_id":"4","last_reported":1691777282,"current_range_meters":11600,"station_id":"ce4bh692rcd13ifvqea0","pricing_plan_id":"free"},{"bike_id":"07243de9-e082-4b53-ac7e-55f785046833","system_id":"levelo_inurba_marseille","lat":43.29265,"lon":5.3845,"is_reserved":false,"is_disabled":false,"rental_uris":{"android":"levelo://app?vid=07243de9-e082-4b53-ac7e-55f785046833","ios":"levelo://app?vid=07243de9-e082-4b53-ac7e-55f785046833"},"vehicle_type_id":"4","last_reported":1691777282,"current_range_meters":24000,"station_id":"ce4bh692rcd13ifvqea0","pricing_plan_id":"free"},{"bike_id":"305fa5e9-b391-44ac-9057-26323f4c5256","system_id":"levelo_inurba_marseille","lat":43.304274,"lon":5.397513,"is_reserved":false,"is_disabled":false,"rental_uris":{"android":"levelo://app?vid=305fa5e9-b391-44ac-9057-26323f4c5256","ios":"levelo://app?vid=305fa5e9-b391-44ac-9057-26323f4c5256"},"vehicle_type_id":"4","last_reported":1691777282,"current_range_meters":24800,"station_id":"ce4bh092rcd13ifvqd20","pricing_plan_id":"free"},{"bike_id":"21cdde3c-255b-47a0-8de1-bfe224409484","system_id":"levelo_inurba_marseille","lat":43.304296,"lon":5.397513,"is_reserved":false,"is_disabled":false,"rental_uris":{"android":"levelo://app?vid=21cdde3c-255b-47a0-8de1-bfe224409484","ios":"levelo://app?vid=21cdde3c-255b-47a0-8de1-bfe224409484"},"vehicle_type_id":"4","last_reported":1691777282,"current_range_meters":17200,"station_id":"ce4bh092rcd13ifvqd20","pricing_plan_id":"free"},{"bike_id":"49bcb0e4-e695-436e-961f-09dd29eb7756","system_id":"levelo_inurba_marseille","lat":43.304296,"lon":5.397513,"is_reserved":false,"is_disabled":false,"rental_uris":{"android":"levelo://app?vid=49bcb0e4-e695-436e-961f-09dd29eb7756","ios":"levelo://app?vid=49bcb0e4-e695-436e-961f-09dd29eb7756"},"vehicle_type_id":"4","last_reported":1691777282,"current_range_meters":5600,"station_id":"ce4bh092rcd13ifvqd20","pricing_plan_id":"free"},{"bike_id":"69c23820-b8c4-4b33-a6c2-28beb4ed1d2a","system_id":"levelo_inurba_marseille","lat":43.330357,"lon":5.38912,"is_reserved":false,"is_disabled":false,"rental_uris":{"android":"levelo://app?vid=69c23820-b8c4-4b33-a6c2-28beb4ed1d2a","ios":"levelo://app?vid=69c23820-b8c4-4b33-a6c2-28beb4ed1d2a"},"vehicle_type_id":"4","last_reported":1691777282,"current_range_meters":16400,"station_id":"","pricing_plan_id":"free"},{"bike_id":"ae9b6acb-61a3-48df-a1f8-e7893178b76a","system_id":"levelo_inurba_marseille","lat":43.292642,"lon":5.384254,"is_reserved":false,"is_disabled":false,"rental_uris":{"android":"levelo://app?vid=ae9b6acb-61a3-48df-a1f8-e7893178b76a","ios":"levelo://app?vid=ae9b6acb-61a3-48df-a1f8-e7893178b76a"},"vehicle_type_id":"4","last_reported":1691777282,"current_range_meters":27200,"station_id":"ce4bh692rcd13ifvqea0","pricing_plan_id":"free"},{"bike_id":"ce0e00a2-7252-41e8-a2b9-b9c8c9fb8bf8","system_id":"levelo_inurba_marseille","lat":43.29014,"lon":5.35623,"is_reserved":false,"is_disabled":false,"rental_uris":{"android":"levelo://app?vid=ce0e00a2-7252-41e8-a2b9-b9c8c9fb8bf8","ios":"levelo://app?vid=ce0e00a2-7252-41e8-a2b9-b9c8c9fb8bf8"},"vehicle_type_id":"4","last_reported":1691777282,"current_range_meters":13600,"station_id":"ce4bhb92rcd13ifvqen0","pricing_plan_id":"free"},{"bike_id":"c4b0aa63-7248-4c69-80eb-f0aa4c35dc39","system_id":"levelo_inurba_marseille","lat":43.3304,"lon":5.38916,"is_reserved":false,"is_disabled":false,"rental_uris":{"android":"levelo://app?vid=c4b0aa63-7248-4c69-80eb-f0aa4c35dc39","ios":"levelo://app?vid=c4b0aa63-7248-4c69-80eb-f0aa4c35dc39"},"vehicle_type_id":"4","last_reported":1691777282,"current_range_meters":11600,"station_id":"ce4bhr92rcd13ifvqhrg","pricing_plan_id":"free"},{"bike_id":"a4ccafed-fb68-460d-9074-77da967aea2e","system_id":"levelo_inurba_marseille","lat":43.33044,"lon":5.38916,"is_reserved":false,"is_disabled":false,"rental_uris":{"android":"levelo://app?vid=a4ccafed-fb68-460d-9074-77da967aea2e","ios":"levelo://app?vid=a4ccafed-fb68-460d-9074-77da967aea2e"},"vehicle_type_id":"4","last_reported":1691777282,"current_range_meters":20400,"station_id":"ce4bhr92rcd13ifvqhrg","pricing_plan_id":"free"},{"bike_id":"7f97e618-af24-42fe-8309-ee03889e181f","system_id":"levelo_inurba_marseille","lat":43.330442,"lon":5.389148,"is_reserved":false,"is_disabled":false,"rental_uris":{"android":"levelo://app?vid=7f97e618-af24-42fe-8309-ee03889e181f","ios":"levelo://app?vid=7f97e618-af24-42fe-8309-ee03889e181f"},"vehicle_type_id":"4","last_reported":1691777282,"current_range_meters":26000,"station_id":"ce4bhr92rcd13ifvqhrg","pricing_plan_id":"free"},{"bike_id":"e1ba2342-5cd1-4783-b75c-011209b60996","system_id":"levelo_inurba_marseille","lat":43.33044,"lon":5.38918,"is_reserved":false,"is_disabled":false,"rental_uris":{"android":"levelo://app?vid=e1ba2342-5cd1-4783-b75c-011209b60996","ios":"levelo://app?vid=e1ba2342-5cd1-4783-b75c-011209b60996"},"vehicle_type_id":"4","last_reported":1691777282,"current_range_meters":17200,"station_id":"ce4bhr92rcd13ifvqhrg","pricing_plan_id":"free"},{"bike_id":"455260f5-201e-45ac-8473-9f69d25d2f7d","system_id":"levelo_inurba_marseille","lat":43.33046,"lon":5.38915,"is_reserved":false,"is_disabled":false,"rental_uris":{"android":"levelo://app?vid=455260f5-201e-45ac-8473-9f69d25d2f7d","ios":"levelo://app?vid=455260f5-201e-45ac-8473-9f69d25d2f7d"},"vehicle_type_id":"4","last_reported":1691777282,"current_range_meters":15600,"station_id":"ce4bhr92rcd13ifvqhrg","pricing_plan_id":"free"},{"bike_id":"d92191b5-3897-428d-989c-4b986c7a7e64","system_id":"levelo_inurba_marseille","lat":43.29004,"lon":5.35614,"is_reserved":false,"is_disabled":false,"rental_uris":{"android":"levelo://app?vid=d92191b5-3897-428d-989c-4b986c7a7e64","ios":"levelo://app?vid=d92191b5-3897-428d-989c-4b986c7a7e64"},"vehicle_type_id":"4","last_reported":1691777282,"current_range_meters":22400,"station_id":"ce4bhb92rcd13ifvqen0","pricing_plan_id":"free"},{"bike_id":"a470b5b8-a7e8-484e-8dc0-8c57540b8ff0","system_id":"levelo_inurba_marseille","lat":43.33049,"lon":5.38918,"is_reserved":false,"is_disabled":false,"rental_uris":{"android":"levelo://app?vid=a470b5b8-a7e8-484e-8dc0-8c57540b8ff0","ios":"levelo://app?vid=a470b5b8-a7e8-484e-8dc0-8c57540b8ff0"},"vehicle_type_id":"4","last_reported":1691777282,"current_range_meters":6800,"station_id":"ce4bhr92rcd13ifvqhrg","pricing_plan_id":"free"},{"bike_id":"7b78d55e-e99c-4fa7-968a-c672d6912f00","system_id":"levelo_inurba_marseille","lat":43.28998,"lon":5.35614,"is_reserved":false,"is_disabled":false,"rental_uris":{"android":"levelo://app?vid=7b78d55e-e99c-4fa7-968a-c672d6912f00","ios":"levelo://app?vid=7b78d55e-e99c-4fa7-968a-c672d6912f00"},"vehicle_type_id":"4","last_reported":1691777282,"current_range_meters":31600,"station_id":"ce4bhb92rcd13ifvqen0","pricing_plan_id":"free"},{"bike_id":"3b1c3242-9117-4908-8f85-d9953e3cb4f2","system_id":"levelo_inurba_marseille","lat":43.290995,"lon":5.381361,"is_reserved":false,"is_disabled":false,"rental_uris":{"android":"levelo://app?vid=3b1c3242-9117-4908-8f85-d9953e3cb4f2","ios":"levelo://app?vid=3b1c3242-9117-4908-8f85-d9953e3cb4f2"},"vehicle_type_id":"4","last_reported":1691777282,"current_range_meters":800,"station_id":"ce4bh512rcd13ifvqe2g","pricing_plan_id":"free"},{"bike_id":"670d670e-e904-43e7-b9fa-e0edaec8ce10","system_id":"levelo_inurba_marseille","lat":43.290995,"lon":5.381361,"is_reserved":false,"is_disabled":false,"rental_uris":{"android":"levelo://app?vid=670d670e-e904-43e7-b9fa-e0edaec8ce10","ios":"levelo://app?vid=670d670e-e904-43e7-b9fa-e0edaec8ce10"},"vehicle_type_id":"4","last_reported":1691777282,"current_range_meters":0,"station_id":"ce4bh512rcd13ifvqe2g","pricing_plan_id":"free"},{"bike_id":"caab0c9b-940b-469b-a3ce-9ea0c8ff0b65","system_id":"levelo_inurba_marseille","lat":43.289741,"lon":5.378306,"is_reserved":false,"is_disabled":false,"rental_uris":{"android":"levelo://app?vid=caab0c9b-940b-469b-a3ce-9ea0c8ff0b65","ios":"levelo://app?vid=caab0c9b-940b-469b-a3ce-9ea0c8ff0b65"},"vehicle_type_id":"4","last_reported":1691777282,"current_range_meters":12400,"station_id":"ce4bh9p2rcd13ifvqed0","pricing_plan_id":"free"},{"bike_id":"4054974d-9fc1-40b4-94fd-7042a2c2ca4c","system_id":"levelo_inurba_marseille","lat":43.295169,"lon":5.390426,"is_reserved":false,"is_disabled":false,"rental_uris":{"android":"levelo://app?vid=4054974d-9fc1-40b4-94fd-7042a2c2ca4c","ios":"levelo://app?vid=4054974d-9fc1-40b4-94fd-7042a2c2ca4c"},"vehicle_type_id":"4","last_reported":1691777282,"current_range_meters":12400,"station_id":"ce4bh3p2rcd13ifvqdp0","pricing_plan_id":"free"},{"bike_id":"41cb4cb9-29b8-42cb-94c5-820def46e0e0","system_id":"levelo_inurba_marseille","lat":43.297815,"lon":5.393548,"is_reserved":false,"is_disabled":false,"rental_uris":{"android":"levelo://app?vid=41cb4cb9-29b8-42cb-94c5-820def46e0e0","ios":"levelo://app?vid=41cb4cb9-29b8-42cb-94c5-820def46e0e0"},"vehicle_type_id":"4","last_reported":1691777282,"current_range_meters":4400,"station_id":"chh1huq6cuj3fo74tm60","pricing_plan_id":"free"},{"bike_id":"3276b8a6-9e43-47bc-9e06-5660a4fd76b5","system_id":"levelo_inurba_marseille","lat":43.295169,"lon":5.390426,"is_reserved":false,"is_disabled":false,"rental_uris":{"android":"levelo://app?vid=3276b8a6-9e43-47bc-9e06-5660a4fd76b5","ios":"levelo://app?vid=3276b8a6-9e43-47bc-9e06-5660a4fd76b5"},"vehicle_type_id":"4","last_reported":1691777282,"current_range_meters":24800,"station_id":"ce4bh3p2rcd13ifvqdp0","pricing_plan_id":"free"},{"bike_id":"111ac20d-d321-4eba-b6f3-1c652d731dcd","system_id":"levelo_inurba_marseille","lat":43.28856,"lon":5.358371,"is_reserved":false,"is_disabled":false,"rental_uris":{"android":"levelo://app?vid=111ac20d-d321-4eba-b6f3-1c652d731dcd","ios":"levelo://app?vid=111ac20d-d321-4eba-b6f3-1c652d731dcd"},"vehicle_type_id":"4","last_reported":1691777282,"current_range_meters":0,"station_id":"ce4bhb12rcd13ifvqem0","pricing_plan_id":"free"},{"bike_id":"e3167b61-859a-4c8e-9448-4aed2eb6b7e6","system_id":"levelo_inurba_marseille","lat":43.306412,"lon":5.401035,"is_reserved":false,"is_disabled":false,"rental_uris":{"android":"levelo://app?vid=e3167b61-859a-4c8e-9448-4aed2eb6b7e6","ios":"levelo://app?vid=e3167b61-859a-4c8e-9448-4aed2eb6b7e6"},"vehicle_type_id":"4","last_reported":1691777282,"current_range_meters":6800,"station_id":"ce4bh112rcd13ifvqda0","pricing_plan_id":"free"},{"bike_id":"cc0a3813-4b8c-411a-bf9f-de9db7de2dde","system_id":"levelo_inurba_marseille","lat":43.306412,"lon":5.401035,"is_reserved":false,"is_disabled":false,"rental_uris":{"android":"levelo://app?vid=cc0a3813-4b8c-411a-bf9f-de9db7de2dde","ios":"levelo://app?vid=cc0a3813-4b8c-411a-bf9f-de9db7de2dde"},"vehicle_type_id":"4","last_reported":1691777282,"current_range_meters":10400,"station_id":"ce4bh112rcd13ifvqda0","pricing_plan_id":"free"},{"bike_id":"09631bd9-b5ba-4808-b71c-1fac4dbe7710","system_id":"levelo_inurba_marseille","lat":43.30645,"lon":5.40093,"is_reserved":false,"is_disabled":false,"rental_uris":{"android":"levelo://app?vid=09631bd9-b5ba-4808-b71c-1fac4dbe7710","ios":"levelo://app?vid=09631bd9-b5ba-4808-b71c-1fac4dbe7710"},"vehicle_type_id":"4","last_reported":1691777282,"current_range_meters":30000,"station_id":"ce4bh112rcd13ifvqda0","pricing_plan_id":"free"},{"bike_id":"2332aa2d-e4ce-4faf-8501-7e635389b56c","system_id":"levelo_inurba_marseille","lat":43.3064,"lon":5.40094,"is_reserved":false,"is_disabled":false,"rental_uris":{"android":"levelo://app?vid=2332aa2d-e4ce-4faf-8501-7e635389b56c","ios":"levelo://app?vid=2332aa2d-e4ce-4faf-8501-7e635389b56c"},"vehicle_type_id":"4","last_reported":1691777282,"current_range_meters":4000,"station_id":"ce4bh112rcd13ifvqda0","pricing_plan_id":"free"},{"bike_id":"1a831f2d-d417-4365-8f1b-60cf4fce0afa","system_id":"levelo_inurba_marseille","lat":43.30644,"lon":5.40102,"is_reserved":false,"is_disabled":false,"rental_uris":{"android":"levelo://app?vid=1a831f2d-d417-4365-8f1b-60cf4fce0afa","ios":"levelo://app?vid=1a831f2d-d417-4365-8f1b-60cf4fce0afa"},"vehicle_type_id":"4","last_reported":1691777282,"current_range_meters":26800,"station_id":"ce4bh112rcd13ifvqda0","pricing_plan_id":"free"},{"bike_id":"9fdec9a2-f511-4b29-a9c1-7ce7bf93302c","system_id":"levelo_inurba_marseille","lat":43.3064,"lon":5.40101,"is_reserved":false,"is_disabled":false,"rental_uris":{"android":"levelo://app?vid=9fdec9a2-f511-4b29-a9c1-7ce7bf93302c","ios":"levelo://app?vid=9fdec9a2-f511-4b29-a9c1-7ce7bf93302c"},"vehicle_type_id":"4","last_reported":1691777282,"current_range_meters":22800,"station_id":"ce4bh112rcd13ifvqda0","pricing_plan_id":"free"},{"bike_id":"0423802d-5fdc-46ce-b17d-c6cbfceeee36","system_id":"levelo_inurba_marseille","lat":43.301117,"lon":5.398795,"is_reserved":false,"is_disabled":false,"rental_uris":{"android":"levelo://app?vid=0423802d-5fdc-46ce-b17d-c6cbfceeee36","ios":"levelo://app?vid=0423802d-5fdc-46ce-b17d-c6cbfceeee36"},"vehicle_type_id":"4","last_reported":1691777282,"current_range_meters":800,"station_id":"ce4bh0h2rcd13ifvqd40","pricing_plan_id":"free"},{"bike_id":"e090d496-c597-4641-ad33-cd049bc9a1e3","system_id":"levelo_inurba_marseille","lat":43.301117,"lon":5.398795,"is_reserved":false,"is_disabled":false,"rental_uris":{"android":"levelo://app?vid=e090d496-c597-4641-ad33-cd049bc9a1e3","ios":"levelo://app?vid=e090d496-c597-4641-ad33-cd049bc9a1e3"},"vehicle_type_id":"4","last_reported":1691777282,"current_range_meters":16800,"station_id":"ce4bh0h2rcd13ifvqd40","pricing_plan_id":"free"},{"bike_id":"75199276-b705-4ad7-b6a9-49aeaa84628a","system_id":"levelo_inurba_marseille","lat":43.286591,"lon":5.363346,"is_reserved":false,"is_disabled":false,"rental_uris":{"android":"levelo://app?vid=75199276-b705-4ad7-b6a9-49aeaa84628a","ios":"levelo://app?vid=75199276-b705-4ad7-b6a9-49aeaa84628a"},"vehicle_type_id":"4","last_reported":1691777282,"current_range_meters":31600,"station_id":"ce4bhah2rcd13ifvqej0","pricing_plan_id":"free"},{"bike_id":"1d27bd36-2ae9-44fa-97b1-916869615698","system_id":"levelo_inurba_marseille","lat":43.286961,"lon":5.373785,"is_reserved":false,"is_disabled":false,"rental_uris":{"android":"levelo://app?vid=1d27bd36-2ae9-44fa-97b1-916869615698","ios":"levelo://app?vid=1d27bd36-2ae9-44fa-97b1-916869615698"},"vehicle_type_id":"4","last_reported":1691777282,"current_range_meters":0,"station_id":"ce4bh3p2rcd13ifvqdq0","pricing_plan_id":"free"},{"bike_id":"915f802e-f31b-4c71-8de0-2a5fc39e5970","system_id":"levelo_inurba_marseille","lat":43.32994,"lon":5.39403,"is_reserved":false,"is_disabled":false,"rental_uris":{"android":"levelo://app?vid=915f802e-f31b-4c71-8de0-2a5fc39e5970","ios":"levelo://app?vid=915f802e-f31b-4c71-8de0-2a5fc39e5970"},"vehicle_type_id":"4","last_reported":1691777282,"current_range_meters":6400,"station_id":"","pricing_plan_id":"free"},{"bike_id":"1f68ae4c-e0d1-4fbc-85de-222f8ed4c17b","system_id":"levelo_inurba_marseille","lat":43.286961,"lon":5.373785,"is_reserved":false,"is_disabled":false,"rental_uris":{"android":"levelo://app?vid=1f68ae4c-e0d1-4fbc-85de-222f8ed4c17b","ios":"levelo://app?vid=1f68ae4c-e0d1-4fbc-85de-222f8ed4c17b"},"vehicle_type_id":"4","last_reported":1691777282,"current_range_meters":23200,"station_id":"ce4bh3p2rcd13ifvqdq0","pricing_plan_id":"free"},{"bike_id":"7dfea424-f8af-4490-9318-49c65a34c00e","system_id":"levelo_inurba_marseille","lat":43.298681,"lon":5.397225,"is_reserved":false,"is_disabled":false,"rental_uris":{"android":"levelo://app?vid=7dfea424-f8af-4490-9318-49c65a34c00e","ios":"levelo://app?vid=7dfea424-f8af-4490-9318-49c65a34c00e"},"vehicle_type_id":"4","last_reported":1691777282,"current_range_meters":15200,"station_id":"ce4bh0h2rcd13ifvqd50","pricing_plan_id":"free"},{"bike_id":"bf6fe833-969c-47d2-ab44-a21e63de3a5c","system_id":"levelo_inurba_marseille","lat":43.298681,"lon":5.397225,"is_reserved":false,"is_disabled":false,"rental_uris":{"android":"levelo://app?vid=bf6fe833-969c-47d2-ab44-a21e63de3a5c","ios":"levelo://app?vid=bf6fe833-969c-47d2-ab44-a21e63de3a5c"},"vehicle_type_id":"4","last_reported":1691777282,"current_range_meters":9200,"station_id":"ce4bh0h2rcd13ifvqd50","pricing_plan_id":"free"},{"bike_id":"f47830f0-ab8b-40a9-98e2-1e1ee0d2fbe3","system_id":"levelo_inurba_marseille","lat":43.29875,"lon":5.39734,"is_reserved":false,"is_disabled":false,"rental_uris":{"android":"levelo://app?vid=f47830f0-ab8b-40a9-98e2-1e1ee0d2fbe3","ios":"levelo://app?vid=f47830f0-ab8b-40a9-98e2-1e1ee0d2fbe3"},"vehicle_type_id":"4","last_reported":1691777282,"current_range_meters":16800,"station_id":"","pricing_plan_id":"free"},{"bike_id":"e7dc1556-0d1c-4ce0-815f-6353289bdaaa","system_id":"levelo_inurba_marseille","lat":43.298681,"lon":5.397225,"is_reserved":false,"is_disabled":false,"rental_uris":{"android":"levelo://app?vid=e7dc1556-0d1c-4ce0-815f-6353289bdaaa","ios":"levelo://app?vid=e7dc1556-0d1c-4ce0-815f-6353289bdaaa"},"vehicle_type_id":"4","last_reported":1691777282,"current_range_meters":6800,"station_id":"ce4bh0h2rcd13ifvqd50","pricing_plan_id":"free"},{"bike_id":"518f5331-fdfd-4602-aa21-1324fbfbf337","system_id":"levelo_inurba_marseille","lat":43.286961,"lon":5.373785,"is_reserved":false,"is_disabled":false,"rental_uris":{"android":"levelo://app?vid=518f5331-fdfd-4602-aa21-1324fbfbf337","ios":"levelo://app?vid=518f5331-fdfd-4602-aa21-1324fbfbf337"},"vehicle_type_id":"4","last_reported":1691777282,"current_range_meters":14000,"station_id":"ce4bh3p2rcd13ifvqdq0","pricing_plan_id":"free"},{"bike_id":"924adf66-381d-46d8-ba13-04a6b7d99413","system_id":"levelo_inurba_marseille","lat":43.286591,"lon":5.363346,"is_reserved":false,"is_disabled":false,"rental_uris":{"android":"levelo://app?vid=924adf66-381d-46d8-ba13-04a6b7d99413","ios":"levelo://app?vid=924adf66-381d-46d8-ba13-04a6b7d99413"},"vehicle_type_id":"4","last_reported":1691777282,"current_range_meters":7200,"station_id":"ce4bhah2rcd13ifvqej0","pricing_plan_id":"free"},{"bike_id":"99e58735-dc4f-48fd-8d36-094f9ce694fd","system_id":"levelo_inurba_marseille","lat":43.286961,"lon":5.373785,"is_reserved":false,"is_disabled":false,"rental_uris":{"android":"levelo://app?vid=99e58735-dc4f-48fd-8d36-094f9ce694fd","ios":"levelo://app?vid=99e58735-dc4f-48fd-8d36-094f9ce694fd"},"vehicle_type_id":"4","last_reported":1691777282,"current_range_meters":1600,"station_id":"ce4bh3p2rcd13ifvqdq0","pricing_plan_id":"free"},{"bike_id":"b6b2931e-e73d-48ff-8fb1-38e8884e1fbd","system_id":"levelo_inurba_marseille","lat":43.298681,"lon":5.397225,"is_reserved":false,"is_disabled":false,"rental_uris":{"android":"levelo://app?vid=b6b2931e-e73d-48ff-8fb1-38e8884e1fbd","ios":"levelo://app?vid=b6b2931e-e73d-48ff-8fb1-38e8884e1fbd"},"vehicle_type_id":"4","last_reported":1691777282,"current_range_meters":26000,"station_id":"ce4bh0h2rcd13ifvqd50","pricing_plan_id":"free"},{"bike_id":"02df5eec-3016-436f-9c23-82da58cefe2b","system_id":"levelo_inurba_marseille","lat":43.286961,"lon":5.373785,"is_reserved":false,"is_disabled":false,"rental_uris":{"android":"levelo://app?vid=02df5eec-3016-436f-9c23-82da58cefe2b","ios":"levelo://app?vid=02df5eec-3016-436f-9c23-82da58cefe2b"},"vehicle_type_id":"4","last_reported":1691777282,"current_range_meters":9200,"station_id":"ce4bh3p2rcd13ifvqdq0","pricing_plan_id":"free"},{"bike_id":"2384bd53-aa36-47a3-a291-66ab6a81dd93","system_id":"levelo_inurba_marseille","lat":43.302759,"lon":5.400793,"is_reserved":false,"is_disabled":false,"rental_uris":{"android":"levelo://app?vid=2384bd53-aa36-47a3-a291-66ab6a81dd93","ios":"levelo://app?vid=2384bd53-aa36-47a3-a291-66ab6a81dd93"},"vehicle_type_id":"4","last_reported":1691777282,"current_range_meters":22800,"station_id":"ce4bgvh2rcd13ifvqcs0","pricing_plan_id":"free"},{"bike_id":"164e00d7-e74b-4b19-9be7-88f79286a3ce","system_id":"levelo_inurba_marseille","lat":43.302759,"lon":5.400793,"is_reserved":false,"is_disabled":false,"rental_uris":{"android":"levelo://app?vid=164e00d7-e74b-4b19-9be7-88f79286a3ce","ios":"levelo://app?vid=164e00d7-e74b-4b19-9be7-88f79286a3ce"},"vehicle_type_id":"4","last_reported":1691777282,"current_range_meters":17600,"station_id":"ce4bgvh2rcd13ifvqcs0","pricing_plan_id":"free"},{"bike_id":"e2297616-d4cf-448f-92db-81014260b453","system_id":"levelo_inurba_marseille","lat":43.302759,"lon":5.400793,"is_reserved":false,"is_disabled":false,"rental_uris":{"android":"levelo://app?vid=e2297616-d4cf-448f-92db-81014260b453","ios":"levelo://app?vid=e2297616-d4cf-448f-92db-81014260b453"},"vehicle_type_id":"4","last_reported":1691777282,"current_range_meters":30000,"station_id":"ce4bgvh2rcd13ifvqcs0","pricing_plan_id":"free"},{"bike_id":"2991b345-382f-4353-99b5-b91004b59348","system_id":"levelo_inurba_marseille","lat":43.302759,"lon":5.400793,"is_reserved":false,"is_disabled":false,"rental_uris":{"android":"levelo://app?vid=2991b345-382f-4353-99b5-b91004b59348","ios":"levelo://app?vid=2991b345-382f-4353-99b5-b91004b59348"},"vehicle_type_id":"4","last_reported":1691777282,"current_range_meters":20000,"station_id":"ce4bgvh2rcd13ifvqcs0","pricing_plan_id":"free"},{"bike_id":"98798a4d-1532-4528-a09f-ca726511f98e","system_id":"levelo_inurba_marseille","lat":43.290345,"lon":5.38646,"is_reserved":false,"is_disabled":false,"rental_uris":{"android":"levelo://app?vid=98798a4d-1532-4528-a09f-ca726511f98e","ios":"levelo://app?vid=98798a4d-1532-4528-a09f-ca726511f98e"},"vehicle_type_id":"4","last_reported":1691777282,"current_range_meters":6800,"station_id":"ce4bh4p2rcd13ifvqe0g","pricing_plan_id":"free"},{"bike_id":"9309bef3-b80c-43a1-b6f6-a18e88e9eff7","system_id":"levelo_inurba_marseille","lat":43.290336,"lon":5.386425,"is_reserved":false,"is_disabled":false,"rental_uris":{"android":"levelo://app?vid=9309bef3-b80c-43a1-b6f6-a18e88e9eff7","ios":"levelo://app?vid=9309bef3-b80c-43a1-b6f6-a18e88e9eff7"},"vehicle_type_id":"4","last_reported":1691777282,"current_range_meters":16400,"station_id":"ce4bh4p2rcd13ifvqe0g","pricing_plan_id":"free"},{"bike_id":"4b8064bc-e323-4763-b30f-c719ed206f02","system_id":"levelo_inurba_marseille","lat":43.302759,"lon":5.400793,"is_reserved":false,"is_disabled":false,"rental_uris":{"android":"levelo://app?vid=4b8064bc-e323-4763-b30f-c719ed206f02","ios":"levelo://app?vid=4b8064bc-e323-4763-b30f-c719ed206f02"},"vehicle_type_id":"4","last_reported":1691777282,"current_range_meters":23600,"station_id":"ce4bgvh2rcd13ifvqcs0","pricing_plan_id":"free"},{"bike_id":"2b705e70-6663-473c-8998-77544997f979","system_id":"levelo_inurba_marseille","lat":43.302759,"lon":5.400793,"is_reserved":false,"is_disabled":false,"rental_uris":{"android":"levelo://app?vid=2b705e70-6663-473c-8998-77544997f979","ios":"levelo://app?vid=2b705e70-6663-473c-8998-77544997f979"},"vehicle_type_id":"4","last_reported":1691777282,"current_range_meters":6800,"station_id":"ce4bgvh2rcd13ifvqcs0","pricing_plan_id":"free"},{"bike_id":"73bcbac3-2c58-4c78-98cb-3565c2167099","system_id":"levelo_inurba_marseille","lat":43.302759,"lon":5.400793,"is_reserved":false,"is_disabled":false,"rental_uris":{"android":"levelo://app?vid=73bcbac3-2c58-4c78-98cb-3565c2167099","ios":"levelo://app?vid=73bcbac3-2c58-4c78-98cb-3565c2167099"},"vehicle_type_id":"4","last_reported":1691777282,"current_range_meters":12000,"station_id":"ce4bgvh2rcd13ifvqcs0","pricing_plan_id":"free"},{"bike_id":"17a29ffc-bda5-446d-b915-5d18a17b49de","system_id":"levelo_inurba_marseille","lat":43.286039,"lon":5.370679,"is_reserved":false,"is_disabled":false,"rental_uris":{"android":"levelo://app?vid=17a29ffc-bda5-446d-b915-5d18a17b49de","ios":"levelo://app?vid=17a29ffc-bda5-446d-b915-5d18a17b49de"},"vehicle_type_id":"4","last_reported":1691777282,"current_range_meters":28400,"station_id":"ce4bht12rcd13ifvqi60","pricing_plan_id":"free"},{"bike_id":"7d20f4cc-bf8b-4e66-a6d0-60bc9d8ed4fc","system_id":"levelo_inurba_marseille","lat":43.316517,"lon":5.404375,"is_reserved":false,"is_disabled":false,"rental_uris":{"android":"levelo://app?vid=7d20f4cc-bf8b-4e66-a6d0-60bc9d8ed4fc","ios":"levelo://app?vid=7d20f4cc-bf8b-4e66-a6d0-60bc9d8ed4fc"},"vehicle_type_id":"4","last_reported":1691777282,"current_range_meters":22400,"station_id":"ce4bh012rcd13ifvqd00","pricing_plan_id":"free"},{"bike_id":"af1ad118-c069-456a-a968-e2a940d81ddd","system_id":"levelo_inurba_marseille","lat":43.28723,"lon":5.37929,"is_reserved":false,"is_disabled":false,"rental_uris":{"android":"levelo://app?vid=af1ad118-c069-456a-a968-e2a940d81ddd","ios":"levelo://app?vid=af1ad118-c069-456a-a968-e2a940d81ddd"},"vehicle_type_id":"4","last_reported":1691777282,"current_range_meters":12800,"station_id":"ce4bh9p2rcd13ifvqec0","pricing_plan_id":"free"},{"bike_id":"38433256-249f-4e9d-8640-a63b0cd1add1","system_id":"levelo_inurba_marseille","lat":43.287184,"lon":5.37937,"is_reserved":false,"is_disabled":false,"rental_uris":{"android":"levelo://app?vid=38433256-249f-4e9d-8640-a63b0cd1add1","ios":"levelo://app?vid=38433256-249f-4e9d-8640-a63b0cd1add1"},"vehicle_type_id":"4","last_reported":1691777282,"current_range_meters":19200,"station_id":"ce4bh9p2rcd13ifvqec0","pricing_plan_id":"free"},{"bike_id":"49587074-7a61-47c6-8849-730ea06ea1f0","system_id":"levelo_inurba_marseille","lat":43.287185,"lon":5.379373,"is_reserved":false,"is_disabled":false,"rental_uris":{"android":"levelo://app?vid=49587074-7a61-47c6-8849-730ea06ea1f0","ios":"levelo://app?vid=49587074-7a61-47c6-8849-730ea06ea1f0"},"vehicle_type_id":"4","last_reported":1691777282,"current_range_meters":20400,"station_id":"ce4bh9p2rcd13ifvqec0","pricing_plan_id":"free"},{"bike_id":"7eccc5dd-6adf-418c-b49f-795e7c9c88c7","system_id":"levelo_inurba_marseille","lat":43.28665,"lon":5.37732,"is_reserved":false,"is_disabled":false,"rental_uris":{"android":"levelo://app?vid=7eccc5dd-6adf-418c-b49f-795e7c9c88c7","ios":"levelo://app?vid=7eccc5dd-6adf-418c-b49f-795e7c9c88c7"},"vehicle_type_id":"4","last_reported":1691777282,"current_range_meters":14000,"station_id":"","pricing_plan_id":"free"},{"bike_id":"b8ce0805-9e87-40d1-a603-7995e6313fd4","system_id":"levelo_inurba_marseille","lat":43.316517,"lon":5.404375,"is_reserved":false,"is_disabled":false,"rental_uris":{"android":"levelo://app?vid=b8ce0805-9e87-40d1-a603-7995e6313fd4","ios":"levelo://app?vid=b8ce0805-9e87-40d1-a603-7995e6313fd4"},"vehicle_type_id":"4","last_reported":1691777282,"current_range_meters":13200,"station_id":"ce4bh012rcd13ifvqd00","pricing_plan_id":"free"},{"bike_id":"725a7b3c-35a1-4783-948d-65bcdb07d0ee","system_id":"levelo_inurba_marseille","lat":43.316517,"lon":5.404375,"is_reserved":false,"is_disabled":false,"rental_uris":{"android":"levelo://app?vid=725a7b3c-35a1-4783-948d-65bcdb07d0ee","ios":"levelo://app?vid=725a7b3c-35a1-4783-948d-65bcdb07d0ee"},"vehicle_type_id":"4","last_reported":1691777282,"current_range_meters":21600,"station_id":"ce4bh012rcd13ifvqd00","pricing_plan_id":"free"},{"bike_id":"70303c5f-003c-4b41-984d-f18227d2a1e7","system_id":"levelo_inurba_marseille","lat":43.302759,"lon":5.400793,"is_reserved":false,"is_disabled":false,"rental_uris":{"android":"levelo://app?vid=70303c5f-003c-4b41-984d-f18227d2a1e7","ios":"levelo://app?vid=70303c5f-003c-4b41-984d-f18227d2a1e7"},"vehicle_type_id":"4","last_reported":1691777282,"current_range_meters":5600,"station_id":"ce4bgvh2rcd13ifvqcs0","pricing_plan_id":"free"},{"bike_id":"1e844d6b-2d62-4f43-a634-ce5de3777f8c","system_id":"levelo_inurba_marseille","lat":43.291994,"lon":5.392907,"is_reserved":false,"is_disabled":false,"rental_uris":{"android":"levelo://app?vid=1e844d6b-2d62-4f43-a634-ce5de3777f8c","ios":"levelo://app?vid=1e844d6b-2d62-4f43-a634-ce5de3777f8c"},"vehicle_type_id":"4","last_reported":1691777282,"current_range_meters":6000,"station_id":"ce4bh192rcd13ifvqdd0","pricing_plan_id":"free"},{"bike_id":"769a9909-1a85-446a-87f9-ae993fbfbb4b","system_id":"levelo_inurba_marseille","lat":43.291994,"lon":5.392907,"is_reserved":false,"is_disabled":false,"rental_uris":{"android":"levelo://app?vid=769a9909-1a85-446a-87f9-ae993fbfbb4b","ios":"levelo://app?vid=769a9909-1a85-446a-87f9-ae993fbfbb4b"},"vehicle_type_id":"4","last_reported":1691777282,"current_range_meters":24400,"station_id":"ce4bh192rcd13ifvqdd0","pricing_plan_id":"free"},{"bike_id":"ad9c723e-1ddc-4d0c-a3fb-f8ed2a89b2c1","system_id":"levelo_inurba_marseille","lat":43.291994,"lon":5.392907,"is_reserved":false,"is_disabled":false,"rental_uris":{"android":"levelo://app?vid=ad9c723e-1ddc-4d0c-a3fb-f8ed2a89b2c1","ios":"levelo://app?vid=ad9c723e-1ddc-4d0c-a3fb-f8ed2a89b2c1"},"vehicle_type_id":"4","last_reported":1691777282,"current_range_meters":0,"station_id":"ce4bh192rcd13ifvqdd0","pricing_plan_id":"free"},{"bike_id":"80d02f84-cc31-407a-ad18-11ed20989141","system_id":"levelo_inurba_marseille","lat":43.291994,"lon":5.392907,"is_reserved":false,"is_disabled":false,"rental_uris":{"android":"levelo://app?vid=80d02f84-cc31-407a-ad18-11ed20989141","ios":"levelo://app?vid=80d02f84-cc31-407a-ad18-11ed20989141"},"vehicle_type_id":"4","last_reported":1691777282,"current_range_meters":18000,"station_id":"ce4bh192rcd13ifvqdd0","pricing_plan_id":"free"},{"bike_id":"3dbc6d19-9364-4ce7-bc68-d3d93a364b86","system_id":"levelo_inurba_marseille","lat":43.284538,"lon":5.358657,"is_reserved":false,"is_disabled":false,"rental_uris":{"android":"levelo://app?vid=3dbc6d19-9364-4ce7-bc68-d3d93a364b86","ios":"levelo://app?vid=3dbc6d19-9364-4ce7-bc68-d3d93a364b86"},"vehicle_type_id":"4","last_reported":1691777282,"current_range_meters":10000,"station_id":"ce4bhah2rcd13ifvqei0","pricing_plan_id":"free"},{"bike_id":"489f795b-6c70-4d12-9f59-9d24ccb4980d","system_id":"levelo_inurba_marseille","lat":43.284538,"lon":5.358657,"is_reserved":false,"is_disabled":false,"rental_uris":{"android":"levelo://app?vid=489f795b-6c70-4d12-9f59-9d24ccb4980d","ios":"levelo://app?vid=489f795b-6c70-4d12-9f59-9d24ccb4980d"},"vehicle_type_id":"4","last_reported":1691777282,"current_range_meters":1600,"station_id":"ce4bhah2rcd13ifvqei0","pricing_plan_id":"free"},{"bike_id":"d2f2f9ad-1387-440d-96aa-910b5d222377","system_id":"levelo_inurba_marseille","lat":43.284538,"lon":5.358657,"is_reserved":false,"is_disabled":false,"rental_uris":{"android":"levelo://app?vid=d2f2f9ad-1387-440d-96aa-910b5d222377","ios":"levelo://app?vid=d2f2f9ad-1387-440d-96aa-910b5d222377"},"vehicle_type_id":"4","last_reported":1691777282,"current_range_meters":29200,"station_id":"ce4bhah2rcd13ifvqei0","pricing_plan_id":"free"},{"bike_id":"c9130eec-4243-48cd-a9aa-fc2f45d3f3db","system_id":"levelo_inurba_marseille","lat":43.284534,"lon":5.358662,"is_reserved":false,"is_disabled":false,"rental_uris":{"android":"levelo://app?vid=c9130eec-4243-48cd-a9aa-fc2f45d3f3db","ios":"levelo://app?vid=c9130eec-4243-48cd-a9aa-fc2f45d3f3db"},"vehicle_type_id":"4","last_reported":1691777282,"current_range_meters":20400,"station_id":"ce4bhah2rcd13ifvqei0","pricing_plan_id":"free"},{"bike_id":"ec5f1baf-6930-4c9f-b30d-3e0f7adbfa94","system_id":"levelo_inurba_marseille","lat":43.284534,"lon":5.358662,"is_reserved":false,"is_disabled":false,"rental_uris":{"android":"levelo://app?vid=ec5f1baf-6930-4c9f-b30d-3e0f7adbfa94","ios":"levelo://app?vid=ec5f1baf-6930-4c9f-b30d-3e0f7adbfa94"},"vehicle_type_id":"4","last_reported":1691777282,"current_range_meters":31200,"station_id":"ce4bhah2rcd13ifvqei0","pricing_plan_id":"free"},{"bike_id":"4f47fcf6-021a-4f98-8db9-6743701b2606","system_id":"levelo_inurba_marseille","lat":43.284534,"lon":5.358662,"is_reserved":false,"is_disabled":false,"rental_uris":{"android":"levelo://app?vid=4f47fcf6-021a-4f98-8db9-6743701b2606","ios":"levelo://app?vid=4f47fcf6-021a-4f98-8db9-6743701b2606"},"vehicle_type_id":"4","last_reported":1691777282,"current_range_meters":14800,"station_id":"ce4bhah2rcd13ifvqei0","pricing_plan_id":"free"},{"bike_id":"042c2f50-e526-4584-b82b-ce8b38d81e34","system_id":"levelo_inurba_marseille","lat":43.284534,"lon":5.358662,"is_reserved":false,"is_disabled":false,"rental_uris":{"android":"levelo://app?vid=042c2f50-e526-4584-b82b-ce8b38d81e34","ios":"levelo://app?vid=042c2f50-e526-4584-b82b-ce8b38d81e34"},"vehicle_type_id":"4","last_reported":1691777282,"current_range_meters":26800,"station_id":"ce4bhah2rcd13ifvqei0","pricing_plan_id":"free"},{"bike_id":"81272b25-92ab-4579-9673-c5aacb89cb52","system_id":"levelo_inurba_marseille","lat":43.284538,"lon":5.358657,"is_reserved":false,"is_disabled":false,"rental_uris":{"android":"levelo://app?vid=81272b25-92ab-4579-9673-c5aacb89cb52","ios":"levelo://app?vid=81272b25-92ab-4579-9673-c5aacb89cb52"},"vehicle_type_id":"4","last_reported":1691777282,"current_range_meters":13200,"station_id":"ce4bhah2rcd13ifvqei0","pricing_plan_id":"free"},{"bike_id":"18b4b8cd-d4c2-491b-b175-97d92a965e47","system_id":"levelo_inurba_marseille","lat":43.283998,"lon":5.375062,"is_reserved":false,"is_disabled":false,"rental_uris":{"android":"levelo://app?vid=18b4b8cd-d4c2-491b-b175-97d92a965e47","ios":"levelo://app?vid=18b4b8cd-d4c2-491b-b175-97d92a965e47"},"vehicle_type_id":"4","last_reported":1691777282,"current_range_meters":10800,"station_id":"ce4bh412rcd13ifvqds0","pricing_plan_id":"free"},{"bike_id":"4167e05d-4892-48cb-a2de-f2b098cca8c5","system_id":"levelo_inurba_marseille","lat":43.28617,"lon":5.3511,"is_reserved":false,"is_disabled":false,"rental_uris":{"android":"levelo://app?vid=4167e05d-4892-48cb-a2de-f2b098cca8c5","ios":"levelo://app?vid=4167e05d-4892-48cb-a2de-f2b098cca8c5"},"vehicle_type_id":"4","last_reported":1691777282,"current_range_meters":26400,"station_id":"ce4bhch2rcd13ifvqeug","pricing_plan_id":"free"},{"bike_id":"980c8b03-1e1b-4b16-90e1-0d24aed00328","system_id":"levelo_inurba_marseille","lat":43.286137,"lon":5.351097,"is_reserved":false,"is_disabled":false,"rental_uris":{"android":"levelo://app?vid=980c8b03-1e1b-4b16-90e1-0d24aed00328","ios":"levelo://app?vid=980c8b03-1e1b-4b16-90e1-0d24aed00328"},"vehicle_type_id":"4","last_reported":1691777282,"current_range_meters":31600,"station_id":"ce4bhch2rcd13ifvqeug","pricing_plan_id":"free"},{"bike_id":"7a7e672d-1629-486f-b9ce-5ef5cdd64117","system_id":"levelo_inurba_marseille","lat":43.286123,"lon":5.351016,"is_reserved":false,"is_disabled":false,"rental_uris":{"android":"levelo://app?vid=7a7e672d-1629-486f-b9ce-5ef5cdd64117","ios":"levelo://app?vid=7a7e672d-1629-486f-b9ce-5ef5cdd64117"},"vehicle_type_id":"4","last_reported":1691777282,"current_range_meters":15600,"station_id":"ce4bhch2rcd13ifvqeug","pricing_plan_id":"free"},{"bike_id":"8810d3c2-5ec3-443b-a862-913323440a69","system_id":"levelo_inurba_marseille","lat":43.286103,"lon":5.351069,"is_reserved":false,"is_disabled":false,"rental_uris":{"android":"levelo://app?vid=8810d3c2-5ec3-443b-a862-913323440a69","ios":"levelo://app?vid=8810d3c2-5ec3-443b-a862-913323440a69"},"vehicle_type_id":"4","last_reported":1691777282,"current_range_meters":31200,"station_id":"ce4bhch2rcd13ifvqeug","pricing_plan_id":"free"},{"bike_id":"cc741d9c-68eb-4366-8de2-29fa16a03d4c","system_id":"levelo_inurba_marseille","lat":43.28415,"lon":5.3752,"is_reserved":false,"is_disabled":false,"rental_uris":{"android":"levelo://app?vid=cc741d9c-68eb-4366-8de2-29fa16a03d4c","ios":"levelo://app?vid=cc741d9c-68eb-4366-8de2-29fa16a03d4c"},"vehicle_type_id":"4","last_reported":1691777282,"current_range_meters":8400,"station_id":"ce4bh412rcd13ifvqds0","pricing_plan_id":"free"},{"bike_id":"f9364fdd-efdf-4052-b712-4b523c3f9b27","system_id":"levelo_inurba_marseille","lat":43.28413,"lon":5.37518,"is_reserved":false,"is_disabled":false,"rental_uris":{"android":"levelo://app?vid=f9364fdd-efdf-4052-b712-4b523c3f9b27","ios":"levelo://app?vid=f9364fdd-efdf-4052-b712-4b523c3f9b27"},"vehicle_type_id":"4","last_reported":1691777282,"current_range_meters":26000,"station_id":"ce4bh412rcd13ifvqds0","pricing_plan_id":"free"},{"bike_id":"c64195da-920e-4ca3-a5ad-4f2660239fd9","system_id":"levelo_inurba_marseille","lat":43.28412,"lon":5.37517,"is_reserved":false,"is_disabled":false,"rental_uris":{"android":"levelo://app?vid=c64195da-920e-4ca3-a5ad-4f2660239fd9","ios":"levelo://app?vid=c64195da-920e-4ca3-a5ad-4f2660239fd9"},"vehicle_type_id":"4","last_reported":1691777282,"current_range_meters":19600,"station_id":"ce4bh412rcd13ifvqds0","pricing_plan_id":"free"},{"bike_id":"4a8e4d0d-3c3e-4cd5-bd5e-6642f5cc2ad8","system_id":"levelo_inurba_marseille","lat":43.283998,"lon":5.375062,"is_reserved":false,"is_disabled":false,"rental_uris":{"android":"levelo://app?vid=4a8e4d0d-3c3e-4cd5-bd5e-6642f5cc2ad8","ios":"levelo://app?vid=4a8e4d0d-3c3e-4cd5-bd5e-6642f5cc2ad8"},"vehicle_type_id":"4","last_reported":1691777282,"current_range_meters":28000,"station_id":"ce4bh412rcd13ifvqds0","pricing_plan_id":"free"},{"bike_id":"0f8820df-f4a8-4029-b9c4-f559126e88e4","system_id":"levelo_inurba_marseille","lat":43.283998,"lon":5.375062,"is_reserved":false,"is_disabled":false,"rental_uris":{"android":"levelo://app?vid=0f8820df-f4a8-4029-b9c4-f559126e88e4","ios":"levelo://app?vid=0f8820df-f4a8-4029-b9c4-f559126e88e4"},"vehicle_type_id":"4","last_reported":1691777282,"current_range_meters":24000,"station_id":"ce4bh412rcd13ifvqds0","pricing_plan_id":"free"},{"bike_id":"324a41f0-5a2e-409f-9a4e-cdc2e123743e","system_id":"levelo_inurba_marseille","lat":43.286595,"lon":5.386795,"is_reserved":false,"is_disabled":false,"rental_uris":{"android":"levelo://app?vid=324a41f0-5a2e-409f-9a4e-cdc2e123743e","ios":"levelo://app?vid=324a41f0-5a2e-409f-9a4e-cdc2e123743e"},"vehicle_type_id":"4","last_reported":1691777282,"current_range_meters":22800,"station_id":"ce4bh492rcd13ifvqdug","pricing_plan_id":"free"},{"bike_id":"d843efc4-ce0e-4adf-907b-22ea8bb1bb16","system_id":"levelo_inurba_marseille","lat":43.286595,"lon":5.386795,"is_reserved":false,"is_disabled":false,"rental_uris":{"android":"levelo://app?vid=d843efc4-ce0e-4adf-907b-22ea8bb1bb16","ios":"levelo://app?vid=d843efc4-ce0e-4adf-907b-22ea8bb1bb16"},"vehicle_type_id":"4","last_reported":1691777282,"current_range_meters":20000,"station_id":"ce4bh492rcd13ifvqdug","pricing_plan_id":"free"},