{"last_updated":1750457376,"ttl":60,"version":"2.2","data":{"bikes":[{"bike_id":"3da29fb8-fc97-44c6-b9ac-31dd456b2fd4","system_id":"levelo_inurba_marseille","lat":43.33771,"lon":5.37424,"is_reserved":false,"is_disabled":true,"rental_uris":{"android":"levelo://app?vid=3da29fb8-fc97-44c6-b9ac-31dd456b2fd4","ios":"levelo://app?vid=3da29fb8-fc97-44c6-b9ac-31dd456b2fd4"},"vehicle_type_id":"4","last_reported":1750457376,"current_range_meters":0,"station_id":"","pricing_plan_id":"cebpf4jnsgd1na2vs0mg"},{"bike_id":"01861ad8-a8d7-4be6-816e-651927c87584","system_id":"levelo_inurba_marseille","lat":43.33751,"lon":5.37456,"is_reserved":false,"is_disabled":true,"rental_uris":{"android":"levelo://app?vid=01861ad8-a8d7-4be6-816e-651927c87584","ios":"levelo://app?vid=01861ad8-a8d7-4be6-816e-651927c87584"},"vehicle_type_id":"4","last_reported":1750457376,"current_range_meters":0,"station_id":"","pricing_plan_id":"cebpf4jnsgd1na2vs0mg"},{"bike_id":"7bcccf35-e344-4f00-9a7f-199c76d3c58d","system_id":"levelo_inurba_marseille","lat":43.29165,"lon":5.41603,"is_reserved":false,"is_disabled":true,"rental_uris":{"android":"levelo://app?vid=7bcccf35-e344-4f00-9a7f-199c76d3c58d","ios":"levelo://app?vid=7bcccf35-e344-4f00-9a7f-199c76d3c58d"},"vehicle_type_id":"4","last_reported":1750457376,"current_range_meters":0,"station_id":"","pricing_plan_id":"cebpf4jnsgd1na2vs0mg"},{"bike_id":"1eea55df-a17e-4fdf-a523-9ad982e8087b","system_id":"levelo_inurba_marseille","lat":43.33155,"lon":5.3817,"is_reserved":false,"is_disabled":true,"rental_uris":{"android":"levelo://app?vid=1eea55df-a17e-4fdf-a523-9ad982e8087b","ios":"levelo://app?vid=1eea55df-a17e-4fdf-a523-9ad982e8087b"},"vehicle_type_id":"4","last_reported":1750457376,"current_range_meters":0,"station_id":"","pricing_plan_id":"cebpf4jnsgd1na2vs0mg"},{"bike_id":"d2bd57c8-6b64-48db-ad24-5398eb3fd9d6","system_id":"levelo_inurba_marseille","lat":43.337444,"lon":5.374475,"is_reserved":false,"is_disabled":true,"rental_uris":{"android":"levelo://app?vid=d2bd57c8-6b64-48db-ad24-5398eb3fd9d6","ios":"levelo://app?vid=d2bd57c8-6b64-48db-ad24-5398eb3fd9d6"},"vehicle_type_id":"4","last_reported":1750457376,"current_range_meters":0,"station_id":"","pricing_plan_id":"cebpf4jnsgd1na2vs0mg"},{"bike_id":"62a493c7-4534-4419-ad43-0582de34a72a","system_id":"levelo_inurba_marseille","lat":43.21366,"lon":5.355183,"is_reserved":false,"is_disabled":true,"rental_uris":{"android":"levelo://app?vid=62a493c7-4534-4419-ad43-0582de34a72a","ios":"levelo://app?vid=62a493c7-4534-4419-ad43-0582de34a72a"},"vehicle_type_id":"4","last_reported":1750457376,"current_range_meters":0,"station_id":"","pricing_plan_id":"cebpf4jnsgd1na2vs0mg"},{"bike_id":"19745ddc-eca2-4296-893c-935534e0511f","system_id":"levelo_inurba_marseille","lat":43.31282,"lon":5.37292,"is_reserved":false,"is_disabled":true,"rental_uris":{"android":"levelo://app?vid=19745ddc-eca2-4296-893c-935534e0511f","ios":"levelo://app?vid=19745ddc-eca2-4296-893c-935534e0511f"},"vehicle_type_id":"4","last_reported":1750457376,"current_range_meters":0,"station_id":"","pricing_plan_id":"cebpf4jnsgd1na2vs0mg"},{"bike_id":"d5a1ae9e-4421-4539-b5ac-98a00695a8d8","system_id":"levelo_inurba_marseille","lat":43.33414,"lon":5.40054,"is_reserved":false,"is_disabled":true,"rental_uris":{"android":"levelo://app?vid=d5a1ae9e-4421-4539-b5ac-98a00695a8d8","ios":"levelo://app?vid=d5a1ae9e-4421-4539-b5ac-98a00695a8d8"},"vehicle_type_id":"4","last_reported":1750457376,"current_range_meters":0,"station_id":"","pricing_plan_id":"cebpf4jnsgd1na2vs0mg"},{"bike_id":"d6609b4f-333b-43c1-9ebe-8726f5e76e88","system_id":"levelo_inurba_marseille","lat":43.337444,"lon":5.374475,"is_reserved":false,"is_disabled":true,"rental_uris":{"android":"levelo://app?vid=d6609b4f-333b-43c1-9ebe-8726f5e76e88","ios":"levelo://app?vid=d6609b4f-333b-43c1-9ebe-8726f5e76e88"},"vehicle_type_id":"4","last_reported":1750457376,"current_range_meters":0,"station_id":"","pricing_plan_id":"cebpf4jnsgd1na2vs0mg"},{"bike_id":"11e13553-c475-421d-a348-bac5f0dccdd0","system_id":"levelo_inurba_marseille","lat":43.27306,"lon":5.39952,"is_reserved":false,"is_disabled":true,"rental_uris":{"android":"levelo://app?vid=11e13553-c475-421d-a348-bac5f0dccdd0","ios":"levelo://app?vid=11e13553-c475-421d-a348-bac5f0dccdd0"},"vehicle_type_id":"4","last_reported":1750457376,"current_range_meters":0,"station_id":"","pricing_plan_id":"cebpf4jnsgd1na2vs0mg"},{"bike_id":"38951df9-fd69-4963-8cb3-675f02d7f858","system_id":"levelo_inurba_marseille","lat":43.31358,"lon":5.38514,"is_reserved":false,"is_disabled":true,"rental_uris":{"android":"levelo://app?vid=38951df9-fd69-4963-8cb3-675f02d7f858","ios":"levelo://app?vid=38951df9-fd69-4963-8cb3-675f02d7f858"},"vehicle_type_id":"4","last_reported":1750457376,"current_range_meters":0,"station_id":"ce4bgt92rcd13ifvqcf0","pricing_plan_id":"cebpf4jnsgd1na2vs0mg"},{"bike_id":"597b26e3-1d34-49a0-a33b-eef2f9222004","system_id":"levelo_inurba_marseille","lat":43.30246,"lon":5.40084,"is_reserved":false,"is_disabled":true,"rental_uris":{"android":"levelo://app?vid=597b26e3-1d34-49a0-a33b-eef2f9222004","ios":"levelo://app?vid=597b26e3-1d34-49a0-a33b-eef2f9222004"},"vehicle_type_id":"4","last_reported":1750457376,"current_range_meters":0,"station_id":"ce4bgvh2rcd13ifvqcs0","pricing_plan_id":"cebpf4jnsgd1na2vs0mg"},{"bike_id":"76b990ce-5b6d-407b-9683-390778fd15b1","system_id":"levelo_inurba_marseille","lat":43.29199,"lon":5.39323,"is_reserved":false,"is_disabled":true,"rental_uris":{"android":"levelo://app?vid=76b990ce-5b6d-407b-9683-390778fd15b1","ios":"levelo://app?vid=76b990ce-5b6d-407b-9683-390778fd15b1"},"vehicle_type_id":"4","last_reported":1750457376,"current_range_meters":0,"station_id":"ce4bh192rcd13ifvqdd0","pricing_plan_id":"cebpf4jnsgd1na2vs0mg"},{"bike_id":"b56ab9b9-6c46-4a54-9e9f-44a9296eb3f4","system_id":"levelo_inurba_marseille","lat":43.29002,"lon":5.35613,"is_reserved":false,"is_disabled":true,"rental_uris":{"android":"levelo://app?vid=b56ab9b9-6c46-4a54-9e9f-44a9296eb3f4","ios":"levelo://app?vid=b56ab9b9-6c46-4a54-9e9f-44a9296eb3f4"},"vehicle_type_id":"4","last_reported":1750457376,"current_range_meters":0,"station_id":"ce4bhb92rcd13ifvqen0","pricing_plan_id":"cebpf4jnsgd1na2vs0mg"},{"bike_id":"04c996f9-568c-4c7f-b745-22493f1f218f","system_id":"levelo_inurba_marseille","lat":43.27172,"lon":5.40992,"is_reserved":false,"is_disabled":true,"rental_uris":{"android":"levelo://app?vid=04c996f9-568c-4c7f-b745-22493f1f218f","ios":"levelo://app?vid=04c996f9-568c-4c7f-b745-22493f1f218f"},"vehicle_type_id":"4","last_reported":1750457376,"current_range_meters":0,"station_id":"ce4bhl12rcd13ifvqgf0","pricing_plan_id":"cebpf4jnsgd1na2vs0mg"},{"bike_id":"2be082ca-4467-48fd-b65c-3c02b405800f","system_id":"levelo_inurba_marseille","lat":43.231513,"lon":5.437009,"is_reserved":false,"is_disabled":true,"rental_uris":{"android":"levelo://app?vid=2be082ca-4467-48fd-b65c-3c02b405800f","ios":"levelo://app?vid=2be082ca-4467-48fd-b65c-3c02b405800f"},"vehicle_type_id":"4","last_reported":1750457376,"current_range_meters":0,"station_id":"ce4bhmp2rcd13ifvqgog","pricing_plan_id":"cebpf4jnsgd1na2vs0mg"},{"bike_id":"4cd8f26f-52e2-4b5f-b0e0-68446b94be9c","system_id":"levelo_inurba_marseille","lat":43.32366,"lon":5.38877,"is_reserved":false,"is_disabled":true,"rental_uris":{"android":"levelo://app?vid=4cd8f26f-52e2-4b5f-b0e0-68446b94be9c","ios":"levelo://app?vid=4cd8f26f-52e2-4b5f-b0e0-68446b94be9c"},"vehicle_type_id":"4","last_reported":1750457376,"current_range_meters":0,"station_id":"ce4bhqp2rcd13ifvqhog","pricing_plan_id":"cebpf4jnsgd1na2vs0mg"},{"bike_id":"c25e6075-ec55-4018-ac40-58bf3174224e","system_id":"levelo_inurba_marseille","lat":43.26927,"lon":5.40285,"is_reserved":false,"is_disabled":true,"rental_uris":{"android":"levelo://app?vid=c25e6075-ec55-4018-ac40-58bf3174224e","ios":"levelo://app?vid=c25e6075-ec55-4018-ac40-58bf3174224e"},"vehicle_type_id":"4","last_reported":1750457376,"current_range_meters":0,"station_id":"cjm6bp8fraef2m0cb0m0","pricing_plan_id":"cebpf4jnsgd1na2vs0mg"},{"bike_id":"24466bb8-ea46-418f-a473-cce465177766","system_id":"levelo_inurba_marseille","lat":43.21741,"lon":5.34601,"is_reserved":false,"is_disabled":true,"rental_uris":{"android":"levelo://app?vid=24466bb8-ea46-418f-a473-cce465177766","ios":"levelo://app?vid=24466bb8-ea46-418f-a473-cce465177766"},"vehicle_type_id":"4","last_reported":1750457376,"current_range_meters":0,"station_id":"st_cvj6r9ubvosntc0bgbag","pricing_plan_id":"cebpf4jnsgd1na2vs0mg"},{"bike_id":"9eef838e-3bfd-4a16-83bf-84f9290561f9","system_id":"levelo_inurba_marseille","lat":43.3129,"lon":5.36833,"is_reserved":false,"is_disabled":true,"rental_uris":{"android":"levelo://app?vid=9eef838e-3bfd-4a16-83bf-84f9290561f9","ios":"levelo://app?vid=9eef838e-3bfd-4a16-83bf-84f9290561f9"},"vehicle_type_id":"4","last_reported":1750457376,"current_range_meters":400,"station_id":"","pricing_plan_id":"cebpf4jnsgd1na2vs0mg"},{"bike_id":"bc6f1c15-61e2-49fa-a7cf-721b8d493c61","system_id":"levelo_inurba_marseille","lat":43.29854,"lon":5.39625,"is_reserved":false,"is_disabled":true,"rental_uris":{"android":"levelo://app?vid=bc6f1c15-61e2-49fa-a7cf-721b8d493c61","ios":"levelo://app?vid=bc6f1c15-61e2-49fa-a7cf-721b8d493c61"},"vehicle_type_id":"4","last_reported":1750457376,"current_range_meters":400,"station_id":"","pricing_plan_id":"cebpf4jnsgd1na2vs0mg"},{"bike_id":"5edbc0e1-0cd5-44a7-a7bb-02a2c214de14","system_id":"levelo_inurba_marseille","lat":43.308,"lon":5.38169,"is_reserved":false,"is_disabled":true,"rental_uris":{"android":"levelo://app?vid=5edbc0e1-0cd5-44a7-a7bb-02a2c214de14","ios":"levelo://app?vid=5edbc0e1-0cd5-44a7-a7bb-02a2c214de14"},"vehicle_type_id":"4","last_reported":1750457376,"current_range_meters":800,"station_id":"ce4bgt12rcd13ifvqce0","pricing_plan_id":"cebpf4jnsgd1na2vs0mg"},{"bike_id":"f5940058-2204-4bcd-a1de-f063365ecb32","system_id":"levelo_inurba_marseille","lat":43.26203,"lon":5.37945,"is_reserved":false,"is_disabled":true,"rental_uris":{"android":"levelo://app?vid=f5940058-2204-4bcd-a1de-f063365ecb32","ios":"levelo://app?vid=f5940058-2204-4bcd-a1de-f063365ecb32"},"vehicle_type_id":"4","last_reported":1750457376,"current_range_meters":800,"station_id":"ce4bhjp2rcd13ifvqg90","pricing_plan_id":"cebpf4jnsgd1na2vs0mg"},{"bike_id":"323aa753-fc1d-41e9-9992-b0402b704672","system_id":"levelo_inurba_marseille","lat":43.33145,"lon":5.38191,"is_reserved":false,"is_disabled":true,"rental_uris":{"android":"levelo://app?vid=323aa753-fc1d-41e9-9992-b0402b704672","ios":"levelo://app?vid=323aa753-fc1d-41e9-9992-b0402b704672"},"vehicle_type_id":"4","last_reported":1750457376,"current_range_meters":1200,"station_id":"","pricing_plan_id":"cebpf4jnsgd1na2vs0mg"},{"bike_id":"b7b9d6a7-64ad-4aa1-ae7d-1d861de2678e","system_id":"levelo_inurba_marseille","lat":43.25873,"lon":5.398882,"is_reserved":false,"is_disabled":true,"rental_uris":{"android":"levelo://app?vid=b7b9d6a7-64ad-4aa1-ae7d-1d861de2678e","ios":"levelo://app?vid=b7b9d6a7-64ad-4aa1-ae7d-1d861de2678e"},"vehicle_type_id":"4","last_reported":1750457376,"current_range_meters":1200,"station_id":"ce4bhl92rcd13ifvqghg","pricing_plan_id":"cebpf4jnsgd1na2vs0mg"},{"bike_id":"01b675a4-5b90-4cbc-a255-2e95ea2cbe3c","system_id":"levelo_inurba_marseille","lat":43.292666,"lon":5.384438,"is_reserved":false,"is_disabled":false,"rental_uris":{"android":"levelo://app?vid=01b675a4-5b90-4cbc-a255-2e95ea2cbe3c","ios":"levelo://app?vid=01b675a4-5b90-4cbc-a255-2e95ea2cbe3c"},"vehicle_type_id":"4","last_reported":1750457376,"current_range_meters":1600,"station_id":"ce4bh692rcd13ifvqea0","pricing_plan_id":"cebpf4jnsgd1na2vs0mg"},{"bike_id":"635f773d-b08e-4401-b654-a59cdea688fa","system_id":"levelo_inurba_marseille","lat":43.262172,"lon":5.374229,"is_reserved":false,"is_disabled":true,"rental_uris":{"android":"levelo://app?vid=635f773d-b08e-4401-b654-a59cdea688fa","ios":"levelo://app?vid=635f773d-b08e-4401-b654-a59cdea688fa"},"vehicle_type_id":"4","last_reported":1750457376,"current_range_meters":1600,"station_id":"ce4bhqp2rcd13ifvqhog","pricing_plan_id":"cebpf4jnsgd1na2vs0mg"},{"bike_id":"3360e085-7516-4964-9254-f19afc761859","system_id":"levelo_inurba_marseille","lat":43.29205,"lon":5.39326,"is_reserved":false,"is_disabled":false,"rental_uris":{"android":"levelo://app?vid=3360e085-7516-4964-9254-f19afc761859","ios":"levelo://app?vid=3360e085-7516-4964-9254-f19afc761859"},"vehicle_type_id":"4","last_reported":1750457376,"current_range_meters":2000,"station_id":"ce4bh192rcd13ifvqdd0","pricing_plan_id":"cebpf4jnsgd1na2vs0mg"},{"bike_id":"aee19f26-1306-42cd-a6e3-fe4c12092fd7","system_id":"levelo_inurba_marseille","lat":43.29194,"lon":5.39323,"is_reserved":false,"is_disabled":true,"rental_uris":{"android":"levelo://app?vid=aee19f26-1306-42cd-a6e3-fe4c12092fd7","ios":"levelo://app?vid=aee19f26-1306-42cd-a6e3-fe4c12092fd7"},"vehicle_type_id":"4","last_reported":1750457376,"current_range_meters":2000,"station_id":"ce4bh192rcd13ifvqdd0","pricing_plan_id":"cebpf4jnsgd1na2vs0mg"},{"bike_id":"fdc8ed01-537d-4896-9858-448e8900b8cb","system_id":"levelo_inurba_marseille","lat":43.29422,"lon":5.38606,"is_reserved":false,"is_disabled":true,"rental_uris":{"android":"levelo://app?vid=fdc8ed01-537d-4896-9858-448e8900b8cb","ios":"levelo://app?vid=fdc8ed01-537d-4896-9858-448e8900b8cb"},"vehicle_type_id":"4","last_reported":1750457376,"current_range_meters":2000,"station_id":"ce4bh2h2rcd13ifvqdh0","pricing_plan_id":"cebpf4jnsgd1na2vs0mg"},{"bike_id":"feb830cf-bfe1-42d0-8df6-567ec51f3d6a","system_id":"levelo_inurba_marseille","lat":43.278137,"lon":5.40706,"is_reserved":false,"is_disabled":false,"rental_uris":{"android":"levelo://app?vid=feb830cf-bfe1-42d0-8df6-567ec51f3d6a","ios":"levelo://app?vid=feb830cf-bfe1-42d0-8df6-567ec51f3d6a"},"vehicle_type_id":"4","last_reported":1750457376,"current_range_meters":2800,"station_id":"ce4bhnh2rcd13ifvqgtg","pricing_plan_id":"cebpf4jnsgd1na2vs0mg"},{"bike_id":"fbbef8d8-9312-4517-9d8e-0a666ece766c","system_id":"levelo_inurba_marseille","lat":43.29523,"lon":5.39058,"is_reserved":false,"is_disabled":false,"rental_uris":{"android":"levelo://app?vid=fbbef8d8-9312-4517-9d8e-0a666ece766c","ios":"levelo://app?vid=fbbef8d8-9312-4517-9d8e-0a666ece766c"},"vehicle_type_id":"4","last_reported":1750457376,"current_range_meters":3200,"station_id":"ce4bh3p2rcd13ifvqdp0","pricing_plan_id":"cebpf4jnsgd1na2vs0mg"},{"bike_id":"34aa8e9b-45d0-496d-86de-e8950653eec6","system_id":"levelo_inurba_marseille","lat":43.292663,"lon":5.384342,"is_reserved":false,"is_disabled":false,"rental_uris":{"android":"levelo://app?vid=34aa8e9b-45d0-496d-86de-e8950653eec6","ios":"levelo://app?vid=34aa8e9b-45d0-496d-86de-e8950653eec6"},"vehicle_type_id":"4","last_reported":1750457376,"current_range_meters":3200,"station_id":"ce4bh692rcd13ifvqea0","pricing_plan_id":"cebpf4jnsgd1na2vs0mg"},{"bike_id":"e15655ac-1682-42d9-ab93-40bd93e9dfd7","system_id":"levelo_inurba_marseille","lat":43.28102,"lon":5.37832,"is_reserved":false,"is_disabled":false,"rental_uris":{"android":"levelo://app?vid=e15655ac-1682-42d9-ab93-40bd93e9dfd7","ios":"levelo://app?vid=e15655ac-1682-42d9-ab93-40bd93e9dfd7"},"vehicle_type_id":"4","last_reported":1750457376,"current_range_meters":3200,"station_id":"ce4bha12rcd13ifvqee0","pricing_plan_id":"cebpf4jnsgd1na2vs0mg"},{"bike_id":"4f44c7ec-ec6e-4624-a2ee-37a964dcdafe","system_id":"levelo_inurba_marseille","lat":43.291875,"lon":5.357886,"is_reserved":false,"is_disabled":true,"rental_uris":{"android":"levelo://app?vid=4f44c7ec-ec6e-4624-a2ee-37a964dcdafe","ios":"levelo://app?vid=4f44c7ec-ec6e-4624-a2ee-37a964dcdafe"},"vehicle_type_id":"4","last_reported":1750457376,"current_range_meters":3200,"station_id":"ce4bhb12rcd13ifvqel0","pricing_plan_id":"cebpf4jnsgd1na2vs0mg"},{"bike_id":"16f3be49-9ed9-48a2-bc1d-16ee20fe7600","system_id":"levelo_inurba_marseille","lat":43.2705,"lon":5.40261,"is_reserved":false,"is_disabled":false,"rental_uris":{"android":"levelo://app?vid=16f3be49-9ed9-48a2-bc1d-16ee20fe7600","ios":"levelo://app?vid=16f3be49-9ed9-48a2-bc1d-16ee20fe7600"},"vehicle_type_id":"4","last_reported":1750457376,"current_range_meters":3600,"station_id":"ce4bhk92rcd13ifvqgc0","pricing_plan_id":"cebpf4jnsgd1na2vs0mg"},{"bike_id":"6f78c787-3b79-46f4-ac9f-41f876c81289","system_id":"levelo_inurba_marseille","lat":43.23191,"lon":5.35555,"is_reserved":false,"is_disabled":false,"rental_uris":{"android":"levelo://app?vid=6f78c787-3b79-46f4-ac9f-41f876c81289","ios":"levelo://app?vid=6f78c787-3b79-46f4-ac9f-41f876c81289"},"vehicle_type_id":"4","last_reported":1750457376,"current_range_meters":3600,"station_id":"ce4bhu92rcd13ifvqi70","pricing_plan_id":"cebpf4jnsgd1na2vs0mg"},{"bike_id":"0bdceae2-f9df-4c56-866e-f62ca6dd66a0","system_id":"levelo_inurba_marseille","lat":43.30539,"lon":5.38424,"is_reserved":false,"is_disabled":false,"rental_uris":{"android":"levelo://app?vid=0bdceae2-f9df-4c56-866e-f62ca6dd66a0","ios":"levelo://app?vid=0bdceae2-f9df-4c56-866e-f62ca6dd66a0"},"vehicle_type_id":"4","last_reported":1750457376,"current_range_meters":4000,"station_id":"ce4bgg92rcd13ifvqb30","pricing_plan_id":"cebpf4jnsgd1na2vs0mg"},{"bike_id":"8d7d1e5c-e0cb-48dd-9315-b0fa65670729","system_id":"levelo_inurba_marseille","lat":43.30152,"lon":5.38075,"is_reserved":false,"is_disabled":false,"rental_uris":{"android":"levelo://app?vid=8d7d1e5c-e0cb-48dd-9315-b0fa65670729","ios":"levelo://app?vid=8d7d1e5c-e0cb-48dd-9315-b0fa65670729"},"vehicle_type_id":"4","last_reported":1750457376,"current_range_meters":4000,"station_id":"ce4bgjp2rcd13ifvqbh0","pricing_plan_id":"cebpf4jnsgd1na2vs0mg"},{"bike_id":"0a9b1e55-42fa-479b-b877-b1560fde5502","system_id":"levelo_inurba_marseille","lat":43.292648,"lon":5.384326,"is_reserved":false,"is_disabled":false,"rental_uris":{"android":"levelo://app?vid=0a9b1e55-42fa-479b-b877-b1560fde5502","ios":"levelo://app?vid=0a9b1e55-42fa-479b-b877-b1560fde5502"},"vehicle_type_id":"4","last_reported":1750457376,"current_range_meters":4000,"station_id":"ce4bh692rcd13ifvqea0","pricing_plan_id":"cebpf4jnsgd1na2vs0mg"},{"bike_id":"268aafb4-1331-426c-97bc-a7d6564caeb6","system_id":"levelo_inurba_marseille","lat":43.32933,"lon":5.37919,"is_reserved":false,"is_disabled":false,"rental_uris":{"android":"levelo://app?vid=268aafb4-1331-426c-97bc-a7d6564caeb6","ios":"levelo://app?vid=268aafb4-1331-426c-97bc-a7d6564caeb6"},"vehicle_type_id":"4","last_reported":1750457376,"current_range_meters":4400,"station_id":"","pricing_plan_id":"cebpf4jnsgd1na2vs0mg"},{"bike_id":"f6d13259-8db0-40b4-95b5-0066107be7e6","system_id":"levelo_inurba_marseille","lat":43.28079,"lon":5.35227,"is_reserved":false,"is_disabled":false,"rental_uris":{"android":"levelo://app?vid=f6d13259-8db0-40b4-95b5-0066107be7e6","ios":"levelo://app?vid=f6d13259-8db0-40b4-95b5-0066107be7e6"},"vehicle_type_id":"4","last_reported":1750457376,"current_range_meters":4400,"station_id":"","pricing_plan_id":"cebpf4jnsgd1na2vs0mg"},{"bike_id":"0dedb6f6-6801-483b-bfb8-9cd4533d158f","system_id":"levelo_inurba_marseille","lat":43.31146,"lon":5.38108,"is_reserved":false,"is_disabled":false,"rental_uris":{"android":"levelo://app?vid=0dedb6f6-6801-483b-bfb8-9cd4533d158f","ios":"levelo://app?vid=0dedb6f6-6801-483b-bfb8-9cd4533d158f"},"vehicle_type_id":"4","last_reported":1750457376,"current_range_meters":4400,"station_id":"","pricing_plan_id":"cebpf4jnsgd1na2vs0mg"},{"bike_id":"8b1d8515-d79a-4578-8003-3b76651328fb","system_id":"levelo_inurba_marseille","lat":43.29535,"lon":5.38547,"is_reserved":false,"is_disabled":false,"rental_uris":{"android":"levelo://app?vid=8b1d8515-d79a-4578-8003-3b76651328fb","ios":"levelo://app?vid=8b1d8515-d79a-4578-8003-3b76651328fb"},"vehicle_type_id":"4","last_reported":1750457376,"current_range_meters":4400,"station_id":"ce4bgih2rcd13ifvqba0","pricing_plan_id":"cebpf4jnsgd1na2vs0mg"},{"bike_id":"08f08ee3-27e7-4701-8fa2-a7b4d3b12355","system_id":"levelo_inurba_marseille","lat":43.25096,"lon":5.40311,"is_reserved":false,"is_disabled":false,"rental_uris":{"android":"levelo://app?vid=08f08ee3-27e7-4701-8fa2-a7b4d3b12355","ios":"levelo://app?vid=08f08ee3-27e7-4701-8fa2-a7b4d3b12355"},"vehicle_type_id":"4","last_reported":1750457376,"current_range_meters":4400,"station_id":"ce4bhlh2rcd13ifvqgig","pricing_plan_id":"cebpf4jnsgd1na2vs0mg"},{"bike_id":"e025b8bc-60c0-4096-927c-7e100807de2b","system_id":"levelo_inurba_marseille","lat":43.31367,"lon":5.38498,"is_reserved":false,"is_disabled":false,"rental_uris":{"android":"levelo://app?vid=e025b8bc-60c0-4096-927c-7e100807de2b","ios":"levelo://app?vid=e025b8bc-60c0-4096-927c-7e100807de2b"},"vehicle_type_id":"4","last_reported":1750457376,"current_range_meters":4800,"station_id":"ce4bgt92rcd13ifvqcf0","pricing_plan_id":"cebpf4jnsgd1na2vs0mg"},{"bike_id":"5872b236-e89b-4136-b448-55a20a3fca21","system_id":"levelo_inurba_marseille","lat":43.294,"lon":5.38618,"is_reserved":false,"is_disabled":false,"rental_uris":{"android":"levelo://app?vid=5872b236-e89b-4136-b448-55a20a3fca21","ios":"levelo://app?vid=5872b236-e89b-4136-b448-55a20a3fca21"},"vehicle_type_id":"4","last_reported":1750457376,"current_range_meters":4800,"station_id":"ce4bh2h2rcd13ifvqdh0","pricing_plan_id":"cebpf4jnsgd1na2vs0mg"},{"bike_id":"bff078e3-d2ea-43e4-95fe-7198a88bde84","system_id":"levelo_inurba_marseille","lat":43.3055,"lon":5.36545,"is_reserved":false,"is_disabled":false,"rental_uris":{"android":"levelo://app?vid=bff078e3-d2ea-43e4-95fe-7198a88bde84","ios":"levelo://app?vid=bff078e3-d2ea-43e4-95fe-7198a88bde84"},"vehicle_type_id":"4","last_reported":1750457376,"current_range_meters":5600,"station_id":"ce4bgs12rcd13ifvqcag","pricing_plan_id":"cebpf4jnsgd1na2vs0mg"},{"bike_id":"dfb2245c-4ad3-49d3-8c4a-b48619f5fcd2","system_id":"levelo_inurba_marseille","lat":43.29874,"lon":5.39734,"is_reserved":false,"is_disabled":false,"rental_uris":{"android":"levelo://app?vid=dfb2245c-4ad3-49d3-8c4a-b48619f5fcd2","ios":"levelo://app?vid=dfb2245c-4ad3-49d3-8c4a-b48619f5fcd2"},"vehicle_type_id":"4","last_reported":1750457376,"current_range_meters":6000,"station_id":"ce4bh0h2rcd13ifvqd50","pricing_plan_id":"cebpf4jnsgd1na2vs0mg"},{"bike_id":"3d9b0e2f-fd9d-433a-9469-26b505908e59","system_id":"levelo_inurba_marseille","lat":43.33728,"lon":5.39187,"is_reserved":false,"is_disabled":false,"rental_uris":{"android":"levelo://app?vid=3d9b0e2f-fd9d-433a-9469-26b505908e59","ios":"levelo://app?vid=3d9b0e2f-fd9d-433a-9469-26b505908e59"},"vehicle_type_id":"4","last_reported":1750457376,"current_range_meters":6000,"station_id":"ce4bhr92rcd13ifvqhsg","pricing_plan_id":"cebpf4jnsgd1na2vs0mg"},{"bike_id":"d3c3ae26-638a-4911-a021-02ab1cd63cb2","system_id":"levelo_inurba_marseille","lat":43.23187,"lon":5.35545,"is_reserved":false,"is_disabled":false,"rental_uris":{"android":"levelo://app?vid=d3c3ae26-638a-4911-a021-02ab1cd63cb2","ios":"levelo://app?vid=d3c3ae26-638a-4911-a021-02ab1cd63cb2"},"vehicle_type_id":"4","last_reported":1750457376,"current_range_meters":6000,"station_id":"ce4bhu92rcd13ifvqi70","pricing_plan_id":"cebpf4jnsgd1na2vs0mg"},{"bike_id":"3bc40519-b9dd-4fb7-a6a4-0cebd5d2af7b","system_id":"levelo_inurba_marseille","lat":43.28462,"lon":5.35882,"is_reserved":false,"is_disabled":false,"rental_uris":{"android":"levelo://app?vid=3bc40519-b9dd-4fb7-a6a4-0cebd5d2af7b","ios":"levelo://app?vid=3bc40519-b9dd-4fb7-a6a4-0cebd5d2af7b"},"vehicle_type_id":"4","last_reported":1750457376,"current_range_meters":6400,"station_id":"ce4bhah2rcd13ifvqei0","pricing_plan_id":"cebpf4jnsgd1na2vs0mg"},{"bike_id":"dd45b830-666c-4c76-b06e-9938bffa2cad","system_id":"levelo_inurba_marseille","lat":43.31973,"lon":5.37539,"is_reserved":false,"is_disabled":false,"rental_uris":{"android":"levelo://app?vid=dd45b830-666c-4c76-b06e-9938bffa2cad","ios":"levelo://app?vid=dd45b830-666c-4c76-b06e-9938bffa2cad"},"vehicle_type_id":"4","last_reported":1750457376,"current_range_meters":6800,"station_id":"","pricing_plan_id":"cebpf4jnsgd1na2vs0mg"},{"bike_id":"f025e0b0-8595-426c-b214-cb9b74c5fcfd","system_id":"levelo_inurba_marseille","lat":43.32197,"lon":5.40571,"is_reserved":false,"is_disabled":false,"rental_uris":{"android":"levelo://app?vid=f025e0b0-8595-426c-b214-cb9b74c5fcfd","ios":"levelo://app?vid=f025e0b0-8595-426c-b214-cb9b74c5fcfd"},"vehicle_type_id":"4","last_reported":1750457376,"current_range_meters":6800,"station_id":"","pricing_plan_id":"cebpf4jnsgd1na2vs0mg"},{"bike_id":"85c29249-20f6-44f8-8e7d-bf5da354d902","system_id":"levelo_inurba_marseille","lat":43.29535,"lon":5.39402,"is_reserved":false,"is_disabled":false,"rental_uris":{"android":"levelo://app?vid=85c29249-20f6-44f8-8e7d-bf5da354d902","ios":"levelo://app?vid=85c29249-20f6-44f8-8e7d-bf5da354d902"},"vehicle_type_id":"4","last_reported":1750457376,"current_range_meters":6800,"station_id":"ce4bh292rcd13ifvqdf0","pricing_plan_id":"cebpf4jnsgd1na2vs0mg"},{"bike_id":"789b48a4-17e5-4205-80ea-f77b196778eb","system_id":"levelo_inurba_marseille","lat":43.27211,"lon":5.39177,"is_reserved":false,"is_disabled":false,"rental_uris":{"android":"levelo://app?vid=789b48a4-17e5-4205-80ea-f77b196778eb","ios":"levelo://app?vid=789b48a4-17e5-4205-80ea-f77b196778eb"},"vehicle_type_id":"4","last_reported":1750457376,"current_range_meters":6800,"station_id":"ce4bhhp2rcd13ifvqfm0","pricing_plan_id":"cebpf4jnsgd1na2vs0mg"},{"bike_id":"f65a600d-a957-41d0-8d0d-1b7dc6c84520","system_id":"levelo_inurba_marseille","lat":43.25103,"lon":5.40335,"is_reserved":false,"is_disabled":false,"rental_uris":{"android":"levelo://app?vid=f65a600d-a957-41d0-8d0d-1b7dc6c84520","ios":"levelo://app?vid=f65a600d-a957-41d0-8d0d-1b7dc6c84520"},"vehicle_type_id":"4","last_reported":1750457376,"current_range_meters":6800,"station_id":"ce4bhlh2rcd13ifvqgig","pricing_plan_id":"cebpf4jnsgd1na2vs0mg"},{"bike_id":"a7955a65-0c86-4f8c-ac4e-d01c5500c456","system_id":"levelo_inurba_marseille","lat":43.34143,"lon":5.40901,"is_reserved":false,"is_disabled":false,"rental_uris":{"android":"levelo://app?vid=a7955a65-0c86-4f8c-ac4e-d01c5500c456","ios":"levelo://app?vid=a7955a65-0c86-4f8c-ac4e-d01c5500c456"},"vehicle_type_id":"4","last_reported":1750457376,"current_range_meters":6800,"station_id":"ce4bhqh2rcd13ifvqhlg","pricing_plan_id":"cebpf4jnsgd1na2vs0mg"},{"bike_id":"0ae0a5e2-4172-42fc-b67e-dcb70ad4d289","system_id":"levelo_inurba_marseille","lat":43.26735,"lon":5.42214,"is_reserved":false,"is_disabled":false,"rental_uris":{"android":"levelo://app?vid=0ae0a5e2-4172-42fc-b67e-dcb70ad4d289","ios":"levelo://app?vid=0ae0a5e2-4172-42fc-b67e-dcb70ad4d289"},"vehicle_type_id":"4","last_reported":1750457376,"current_range_meters":7200,"station_id":"","pricing_plan_id":"cebpf4jnsgd1na2vs0mg"},{"bike_id":"73521383-be10-4e11-87d9-5858a5a26f0a","system_id":"levelo_inurba_marseille","lat":43.337444,"lon":5.374475,"is_reserved":false,"is_disabled":false,"rental_uris":{"android":"levelo://app?vid=73521383-be10-4e11-87d9-5858a5a26f0a","ios":"levelo://app?vid=73521383-be10-4e11-87d9-5858a5a26f0a"},"vehicle_type_id":"4","last_reported":1750457376,"current_range_meters":7200,"station_id":"","pricing_plan_id":"cebpf4jnsgd1na2vs0mg"},{"bike_id":"e3190518-bcc2-47a7-bb62-bcde5a07a296","system_id":"levelo_inurba_marseille","lat":43.30641,"lon":5.40085,"is_reserved":false,"is_disabled":false,"rental_uris":{"android":"levelo://app?vid=e3190518-bcc2-47a7-bb62-bcde5a07a296","ios":"levelo://app?vid=e3190518-bcc2-47a7-bb62-bcde5a07a296"},"vehicle_type_id":"4","last_reported":1750457376,"current_range_meters":7200,"station_id":"ce4bh112rcd13ifvqda0","pricing_plan_id":"cebpf4jnsgd1na2vs0mg"},{"bike_id":"a9095211-c3f5-45c2-b2ee-33f07a23a90e","system_id":"levelo_inurba_marseille","lat":43.26222,"lon":5.40446,"is_reserved":false,"is_disabled":false,"rental_uris":{"android":"levelo://app?vid=a9095211-c3f5-45c2-b2ee-33f07a23a90e","ios":"levelo://app?vid=a9095211-c3f5-45c2-b2ee-33f07a23a90e"},"vehicle_type_id":"4","last_reported":1750457376,"current_range_meters":7200,"station_id":"ce4bhmh2rcd13ifvqgmg","pricing_plan_id":"cebpf4jnsgd1na2vs0mg"},{"bike_id":"ccbcc763-73f8-4e37-ba0b-f40a1dcf1d82","system_id":"levelo_inurba_marseille","lat":43.23197,"lon":5.35554,"is_reserved":false,"is_disabled":false,"rental_uris":{"android":"levelo://app?vid=ccbcc763-73f8-4e37-ba0b-f40a1dcf1d82","ios":"levelo://app?vid=ccbcc763-73f8-4e37-ba0b-f40a1dcf1d82"},"vehicle_type_id":"4","last_reported":1750457376,"current_range_meters":7200,"station_id":"ce4bhu92rcd13ifvqi70","pricing_plan_id":"cebpf4jnsgd1na2vs0mg"},{"bike_id":"df735c88-ae0a-4f8e-9723-d29eb27d80b9","system_id":"levelo_inurba_marseille","lat":43.29933,"lon":5.37645,"is_reserved":false,"is_disabled":false,"rental_uris":{"android":"levelo://app?vid=df735c88-ae0a-4f8e-9723-d29eb27d80b9","ios":"levelo://app?vid=df735c88-ae0a-4f8e-9723-d29eb27d80b9"},"vehicle_type_id":"4","last_reported":1750457376,"current_range_meters":8000,"station_id":"","pricing_plan_id":"cebpf4jnsgd1na2vs0mg"},{"bike_id":"3ec7fb5c-347d-4640-ad8b-4b36546a2beb","system_id":"levelo_inurba_marseille","lat":43.29544,"lon":5.38974,"is_reserved":false,"is_disabled":false,"rental_uris":{"android":"levelo://app?vid=3ec7fb5c-347d-4640-ad8b-4b36546a2beb","ios":"levelo://app?vid=3ec7fb5c-347d-4640-ad8b-4b36546a2beb"},"vehicle_type_id":"4","last_reported":1750457376,"current_range_meters":8000,"station_id":"","pricing_plan_id":"cebpf4jnsgd1na2vs0mg"},{"bike_id":"8ffb25a4-de50-4fe6-875e-5d47ae537d85","system_id":"levelo_inurba_marseille","lat":43.26557,"lon":5.37287,"is_reserved":false,"is_disabled":false,"rental_uris":{"android":"levelo://app?vid=8ffb25a4-de50-4fe6-875e-5d47ae537d85","ios":"levelo://app?vid=8ffb25a4-de50-4fe6-875e-5d47ae537d85"},"vehicle_type_id":"4","last_reported":1750457376,"current_range_meters":8000,"station_id":"ce4bhg12rcd13ifvqf70","pricing_plan_id":"cebpf4jnsgd1na2vs0mg"},{"bike_id":"efbadccf-9a31-4786-b7f8-707f9139bb05","system_id":"levelo_inurba_marseille","lat":43.27968,"lon":5.3874,"is_reserved":false,"is_disabled":false,"rental_uris":{"android":"levelo://app?vid=efbadccf-9a31-4786-b7f8-707f9139bb05","ios":"levelo://app?vid=efbadccf-9a31-4786-b7f8-707f9139bb05"},"vehicle_type_id":"4","last_reported":1750457376,"current_range_meters":8000,"station_id":"ce4bhg12rcd13ifvqf80","pricing_plan_id":"cebpf4jnsgd1na2vs0mg"},{"bike_id":"22d8e4e3-6c00-45b5-9aa2-95b7ce4f1c8c","system_id":"levelo_inurba_marseille","lat":43.23964,"lon":5.36629,"is_reserved":false,"is_disabled":false,"rental_uris":{"android":"levelo://app?vid=22d8e4e3-6c00-45b5-9aa2-95b7ce4f1c8c","ios":"levelo://app?vid=22d8e4e3-6c00-45b5-9aa2-95b7ce4f1c8c"},"vehicle_type_id":"4","last_reported":1750457376,"current_range_meters":8000,"station_id":"ce4bhi12rcd13ifvqfp0","pricing_plan_id":"cebpf4jnsgd1na2vs0mg"},{"bike_id":"3e08c61c-c476-486d-a9a8-0190adfa4ae1","system_id":"levelo_inurba_marseille","lat":43.27991,"lon":5.41677,"is_reserved":false,"is_disabled":false,"rental_uris":{"android":"levelo://app?vid=3e08c61c-c476-486d-a9a8-0190adfa4ae1","ios":"levelo://app?vid=3e08c61c-c476-486d-a9a8-0190adfa4ae1"},"vehicle_type_id":"4","last_reported":1750457376,"current_range_meters":8000,"station_id":"ce4bho12rcd13ifvqh1g","pricing_plan_id":"cebpf4jnsgd1na2vs0mg"},{"bike_id":"6c27666e-ee00-4768-b673-c88129e82192","system_id":"levelo_inurba_marseille","lat":43.2922,"lon":5.39618,"is_reserved":false,"is_disabled":false,"rental_uris":{"android":"levelo://app?vid=6c27666e-ee00-4768-b673-c88129e82192","ios":"levelo://app?vid=6c27666e-ee00-4768-b673-c88129e82192"},"vehicle_type_id":"4","last_reported":1750457376,"current_range_meters":8400,"station_id":"","pricing_plan_id":"cebpf4jnsgd1na2vs0mg"},{"bike_id":"72a4391d-a60d-498f-b860-6db56190b695","system_id":"levelo_inurba_marseille","lat":43.31357,"lon":5.38488,"is_reserved":false,"is_disabled":false,"rental_uris":{"android":"levelo://app?vid=72a4391d-a60d-498f-b860-6db56190b695","ios":"levelo://app?vid=72a4391d-a60d-498f-b860-6db56190b695"},"vehicle_type_id":"4","last_reported":1750457376,"current_range_meters":8400,"station_id":"ce4bgt92rcd13ifvqcf0","pricing_plan_id":"cebpf4jnsgd1na2vs0mg"},{"bike_id":"cd1075f2-a8f9-4e06-96a1-9f1d52e8840f","system_id":"levelo_inurba_marseille","lat":43.30665,"lon":5.40075,"is_reserved":false,"is_disabled":false,"rental_uris":{"android":"levelo://app?vid=cd1075f2-a8f9-4e06-96a1-9f1d52e8840f","ios":"levelo://app?vid=cd1075f2-a8f9-4e06-96a1-9f1d52e8840f"},"vehicle_type_id":"4","last_reported":1750457376,"current_range_meters":8400,"station_id":"ce4bh112rcd13ifvqda0","pricing_plan_id":"cebpf4jnsgd1na2vs0mg"},{"bike_id":"2a419920-c7ac-4f64-bafa-a543962eece2","system_id":"levelo_inurba_marseille","lat":43.28356,"lon":5.38098,"is_reserved":false,"is_disabled":false,"rental_uris":{"android":"levelo://app?vid=2a419920-c7ac-4f64-bafa-a543962eece2","ios":"levelo://app?vid=2a419920-c7ac-4f64-bafa-a543962eece2"},"vehicle_type_id":"4","last_reported":1750457376,"current_range_meters":8400,"station_id":"ce4bh412rcd13ifvqdr0","pricing_plan_id":"cebpf4jnsgd1na2vs0mg"},{"bike_id":"780312c6-fb3c-420c-aa0a-1b3858289cf1","system_id":"levelo_inurba_marseille","lat":43.2692,"lon":5.4026,"is_reserved":false,"is_disabled":false,"rental_uris":{"android":"levelo://app?vid=780312c6-fb3c-420c-aa0a-1b3858289cf1","ios":"levelo://app?vid=780312c6-fb3c-420c-aa0a-1b3858289cf1"},"vehicle_type_id":"4","last_reported":1750457376,"current_range_meters":8400,"station_id":"cjm6bp8fraef2m0cb0m0","pricing_plan_id":"cebpf4jnsgd1na2vs0mg"},{"bike_id":"f2169430-8ab5-4f68-846f-87f05b34d076","system_id":"levelo_inurba_marseille","lat":43.21208,"lon":5.35064,"is_reserved":false,"is_disabled":false,"rental_uris":{"android":"levelo://app?vid=f2169430-8ab5-4f68-846f-87f05b34d076","ios":"levelo://app?vid=f2169430-8ab5-4f68-846f-87f05b34d076"},"vehicle_type_id":"4","last_reported":1750457376,"current_range_meters":8400,"station_id":"st_cvj6sg6p6f1abm77japg","pricing_plan_id":"cebpf4jnsgd1na2vs0mg"},{"bike_id":"b490d9da-51c1-486e-808a-1cb2e50a5207","system_id":"levelo_inurba_marseille","lat":43.31163,"lon":5.38715,"is_reserved":false,"is_disabled":false,"rental_uris":{"android":"levelo://app?vid=b490d9da-51c1-486e-808a-1cb2e50a5207","ios":"levelo://app?vid=b490d9da-51c1-486e-808a-1cb2e50a5207"},"vehicle_type_id":"4","last_reported":1750457376,"current_range_meters":8800,"station_id":"ce4bgv12rcd13ifvqcp0","pricing_plan_id":"cebpf4jnsgd1na2vs0mg"},{"bike_id":"7f966026-5667-4df8-8578-1b468d1c2007","system_id":"levelo_inurba_marseille","lat":43.24805,"lon":5.37465,"is_reserved":false,"is_disabled":false,"rental_uris":{"android":"levelo://app?vid=7f966026-5667-4df8-8578-1b468d1c2007","ios":"levelo://app?vid=7f966026-5667-4df8-8578-1b468d1c2007"},"vehicle_type_id":"4","last_reported":1750457376,"current_range_meters":8800,"station_id":"ce4bhgh2rcd13ifvqfb0","pricing_plan_id":"cebpf4jnsgd1na2vs0mg"},{"bike_id":"975116b0-90b2-43e3-9d57-c3ce65909368","system_id":"levelo_inurba_marseille","lat":43.31359,"lon":5.38514,"is_reserved":false,"is_disabled":false,"rental_uris":{"android":"levelo://app?vid=975116b0-90b2-43e3-9d57-c3ce65909368","ios":"levelo://app?vid=975116b0-90b2-43e3-9d57-c3ce65909368"},"vehicle_type_id":"4","last_reported":1750457376,"current_range_meters":9200,"station_id":"ce4bgt92rcd13ifvqcf0","pricing_plan_id":"cebpf4jnsgd1na2vs0mg"},{"bike_id":"a3f2b376-c4d4-4c2e-8e1d-759782a73843","system_id":"levelo_inurba_marseille","lat":43.29432,"lon":5.39754,"is_reserved":false,"is_disabled":false,"rental_uris":{"android":"levelo://app?vid=a3f2b376-c4d4-4c2e-8e1d-759782a73843","ios":"levelo://app?vid=a3f2b376-c4d4-4c2e-8e1d-759782a73843"},"vehicle_type_id":"4","last_reported":1750457376,"current_range_meters":9200,"station_id":"ce4bh3h2rcd13ifvqdo0","pricing_plan_id":"cebpf4jnsgd1na2vs0mg"},{"bike_id":"efe0ad65-17fe-4b8f-8231-898de505dc58","system_id":"levelo_inurba_marseille","lat":43.28035,"lon":5.36943,"is_reserved":false,"is_disabled":false,"rental_uris":{"android":"levelo://app?vid=efe0ad65-17fe-4b8f-8231-898de505dc58","ios":"levelo://app?vid=efe0ad65-17fe-4b8f-8231-898de505dc58"},"vehicle_type_id":"4","last_reported":1750457376,"current_range_meters":9200,"station_id":"ce4bha12rcd13ifvqef0","pricing_plan_id":"cebpf4jnsgd1na2vs0mg"},{"bike_id":"ca9e3d9b-45e9-46a4-88e3-97305a59c8a1","system_id":"levelo_inurba_marseille","lat":43.25725,"lon":5.41107,"is_reserved":false,"is_disabled":false,"rental_uris":{"android":"levelo://app?vid=ca9e3d9b-45e9-46a4-88e3-97305a59c8a1","ios":"levelo://app?vid=ca9e3d9b-45e9-46a4-88e3-97305a59c8a1"},"vehicle_type_id":"4","last_reported":1750457376,"current_range_meters":9200,"station_id":"ce4bhkp2rcd13ifvqgd0","pricing_plan_id":"cebpf4jnsgd1na2vs0mg"},{"bike_id":"07eb6289-d073-4169-9982-9b8fd3fb8787","system_id":"levelo_inurba_marseille","lat":43.28575,"lon":5.395,"is_reserved":false,"is_disabled":false,"rental_uris":{"android":"levelo://app?vid=07eb6289-d073-4169-9982-9b8fd3fb8787","ios":"levelo://app?vid=07eb6289-d073-4169-9982-9b8fd3fb8787"},"vehicle_type_id":"4","last_reported":1750457376,"current_range_meters":9600,"station_id":"ce4bh292rcd13ifvqdg0","pricing_plan_id":"cebpf4jnsgd1na2vs0mg"},{"bike_id":"6a068806-fc70-4821-a41b-8af76259c1fa","system_id":"levelo_inurba_marseille","lat":43.29882,"lon":5.38902,"is_reserved":false,"is_disabled":false,"rental_uris":{"android":"levelo://app?vid=6a068806-fc70-4821-a41b-8af76259c1fa","ios":"levelo://app?vid=6a068806-fc70-4821-a41b-8af76259c1fa"},"vehicle_type_id":"4","last_reported":1750457376,"current_range_meters":9600,"station_id":"ce4bh392rcd13ifvqdl0","pricing_plan_id":"cebpf4jnsgd1na2vs0mg"},{"bike_id":"76414feb-64d0-4265-9f2f-779afb7531ea","system_id":"levelo_inurba_marseille","lat":43.27916,"lon":5.39576,"is_reserved":false,"is_disabled":false,"rental_uris":{"android":"levelo://app?vid=76414feb-64d0-4265-9f2f-779afb7531ea","ios":"levelo://app?vid=76414feb-64d0-4265-9f2f-779afb7531ea"},"vehicle_type_id":"4","last_reported":1750457376,"current_range_meters":9600,"station_id":"ce4bhf92rcd13ifvqf40","pricing_plan_id":"cebpf4jnsgd1na2vs0mg"},{"bike_id":"a61eb5d7-35dc-4f40-a257-7a1324c94811","system_id":"levelo_inurba_marseille","lat":43.27172,"lon":5.40995,"is_reserved":false,"is_disabled":false,"rental_uris":{"android":"levelo://app?vid=a61eb5d7-35dc-4f40-a257-7a1324c94811","ios":"levelo://app?vid=a61eb5d7-35dc-4f40-a257-7a1324c94811"},"vehicle_type_id":"4","last_reported":1750457376,"current_range_meters":9600,"station_id":"ce4bhl12rcd13ifvqgf0","pricing_plan_id":"cebpf4jnsgd1na2vs0mg"},{"bike_id":"a5954ebd-7bb2-47fa-9efe-dd6d83323dc9","system_id":"levelo_inurba_marseille","lat":43.27817,"lon":5.40705,"is_reserved":false,"is_disabled":false,"rental_uris":{"android":"levelo://app?vid=a5954ebd-7bb2-47fa-9efe-dd6d83323dc9","ios":"levelo://app?vid=a5954ebd-7bb2-47fa-9efe-dd6d83323dc9"},"vehicle_type_id":"4","last_reported":1750457376,"current_range_meters":9600,"station_id":"ce4bhnh2rcd13ifvqgtg","pricing_plan_id":"cebpf4jnsgd1na2vs0mg"},{"bike_id":"1481b7cb-269d-4a81-841e-ba680290f91d","system_id":"levelo_inurba_marseille","lat":43.2319,"lon":5.35555,"is_reserved":false,"is_disabled":false,"rental_uris":{"android":"levelo://app?vid=1481b7cb-269d-4a81-841e-ba680290f91d","ios":"levelo://app?vid=1481b7cb-269d-4a81-841e-ba680290f91d"},"vehicle_type_id":"4","last_reported":1750457376,"current_range_meters":9600,"station_id":"ce4bhu92rcd13ifvqi70","pricing_plan_id":"cebpf4jnsgd1na2vs0mg"},{"bike_id":"37c6f042-31ee-4f5a-a5e3-1ca9490c788c","system_id":"levelo_inurba_marseille","lat":43.28315,"lon":5.41098,"is_reserved":false,"is_disabled":false,"rental_uris":{"android":"levelo://app?vid=37c6f042-31ee-4f5a-a5e3-1ca9490c788c","ios":"levelo://app?vid=37c6f042-31ee-4f5a-a5e3-1ca9490c788c"},"vehicle_type_id":"4","last_reported":1750457376,"current_range_meters":10000,"station_id":"","pricing_plan_id":"cebpf4jnsgd1na2vs0mg"},{"bike_id":"181f956b-4854-4ef4-adc4-f4e368447275","system_id":"levelo_inurba_marseille","lat":43.30298,"lon":5.39218,"is_reserved":false,"is_disabled":false,"rental_uris":{"android":"levelo://app?vid=181f956b-4854-4ef4-adc4-f4e368447275","ios":"levelo://app?vid=181f956b-4854-4ef4-adc4-f4e368447275"},"vehicle_type_id":"4","last_reported":1750457376,"current_range_meters":10000,"station_id":"ce4bgkh2rcd13ifvqbk0","pricing_plan_id":"cebpf4jnsgd1na2vs0mg"},{"bike_id":"366e5d9c-9160-4ff0-9d14-56be5e01cbd7","system_id":"levelo_inurba_marseille","lat":43.30933,"lon":5.40162,"is_reserved":false,"is_disabled":false,"rental_uris":{"android":"levelo://app?vid=366e5d9c-9160-4ff0-9d14-56be5e01cbd7","ios":"levelo://app?vid=366e5d9c-9160-4ff0-9d14-56be5e01cbd7"},"vehicle_type_id":"4","last_reported":1750457376,"current_range_meters":10000,"station_id":"ce4bgvp2rcd13ifvqct0","pricing_plan_id":"cebpf4jnsgd1na2vs0mg"},{"bike_id":"84f07344-a8f2-410e-8d0f-9d00081d19fb","system_id":"levelo_inurba_marseille","lat":43.31333,"lon":5.39686,"is_reserved":false,"is_disabled":false,"rental_uris":{"android":"levelo://app?vid=84f07344-a8f2-410e-8d0f-9d00081d19fb","ios":"levelo://app?vid=84f07344-a8f2-410e-8d0f-9d00081d19fb"},"vehicle_type_id":"4","last_reported":1750457376,"current_range_meters":10000,"station_id":"ce4bgvp2rcd13ifvqcu0","pricing_plan_id":"cebpf4jnsgd1na2vs0mg"},{"bike_id":"91ba2262-daf7-478d-8386-2de33b2b21ef","system_id":"levelo_inurba_marseille","lat":43.31327,"lon":5.3969,"is_reserved":false,"is_disabled":false,"rental_uris":{"android":"levelo://app?vid=91ba2262-daf7-478d-8386-2de33b2b21ef","ios":"levelo://app?vid=91ba2262-daf7-478d-8386-2de33b2b21ef"},"vehicle_type_id":"4","last_reported":1750457376,"current_range_meters":10000,"station_id":"ce4bgvp2rcd13ifvqcu0","pricing_plan_id":"cebpf4jnsgd1na2vs0mg"},{"bike_id":"2603cd31-2a09-4a34-aed3-aadbfefb8396","system_id":"levelo_inurba_marseille","lat":43.26498,"lon":5.39541,"is_reserved":false,"is_disabled":false,"rental_uris":{"android":"levelo://app?vid=2603cd31-2a09-4a34-aed3-aadbfefb8396","ios":"levelo://app?vid=2603cd31-2a09-4a34-aed3-aadbfefb8396"},"vehicle_type_id":"4","last_reported":1750457376,"current_range_meters":10000,"station_id":"ce4bhi12rcd13ifvqfq0","pricing_plan_id":"cebpf4jnsgd1na2vs0mg"},{"bike_id":"f30123e7-96d3-442d-9d01-6c98dc61e7c8","system_id":"levelo_inurba_marseille","lat":43.298064,"lon":5.368373,"is_reserved":false,"is_disabled":false,"rental_uris":{"android":"levelo://app?vid=f30123e7-96d3-442d-9d01-6c98dc61e7c8","ios":"levelo://app?vid=f30123e7-96d3-442d-9d01-6c98dc61e7c8"},"vehicle_type_id":"4","last_reported":1750457376,"current_range_meters":10800,"station_id":"","pricing_plan_id":"cebpf4jnsgd1na2vs0mg"},{"bike_id":"8f61df03-9afc-4683-abbd-05ec9960e9cf","system_id":"levelo_inurba_marseille","lat":43.29907,"lon":5.38145,"is_reserved":false,"is_disabled":false,"rental_uris":{"android":"levelo://app?vid=8f61df03-9afc-4683-abbd-05ec9960e9cf","ios":"levelo://app?vid=8f61df03-9afc-4683-abbd-05ec9960e9cf"},"vehicle_type_id":"4","last_reported":1750457376,"current_range_meters":10800,"station_id":"ce4bgj12rcd13ifvqbc0","pricing_plan_id":"cebpf4jnsgd1na2vs0mg"},{"bike_id":"aa476bc0-ff65-47cc-80d4-8891b582a80e","system_id":"levelo_inurba_marseille","lat":43.30266,"lon":5.40062,"is_reserved":false,"is_disabled":false,"rental_uris":{"android":"levelo://app?vid=aa476bc0-ff65-47cc-80d4-8891b582a80e","ios":"levelo://app?vid=aa476bc0-ff65-47cc-80d4-8891b582a80e"},"vehicle_type_id":"4","last_reported":1750457376,"current_range_meters":10800,"station_id":"ce4bgvh2rcd13ifvqcs0","pricing_plan_id":"cebpf4jnsgd1na2vs0mg"},{"bike_id":"199c2831-e081-4bc0-9b94-19503817091d","system_id":"levelo_inurba_marseille","lat":43.24893,"lon":5.40651,"is_reserved":false,"is_disabled":false,"rental_uris":{"android":"levelo://app?vid=199c2831-e081-4bc0-9b94-19503817091d","ios":"levelo://app?vid=199c2831-e081-4bc0-9b94-19503817091d"},"vehicle_type_id":"4","last_reported":1750457376,"current_range_meters":11200,"station_id":"","pricing_plan_id":"cebpf4jnsgd1na2vs0mg"},{"bike_id":"d8c3a28e-cadd-46fc-9c20-a05fa8cb60b8","system_id":"levelo_inurba_marseille","lat":43.31221,"lon":5.36853,"is_reserved":false,"is_disabled":false,"rental_uris":{"android":"levelo://app?vid=d8c3a28e-cadd-46fc-9c20-a05fa8cb60b8","ios":"levelo://app?vid=d8c3a28e-cadd-46fc-9c20-a05fa8cb60b8"},"vehicle_type_id":"4","last_reported":1750457376,"current_range_meters":11200,"station_id":"ce4bgl92rcd13ifvqbq0","pricing_plan_id":"cebpf4jnsgd1na2vs0mg"},{"bike_id":"2baa7cb2-140e-4157-8942-9dda3f315cb0","system_id":"levelo_inurba_marseille","lat":43.30244,"lon":5.40039,"is_reserved":false,"is_disabled":false,"rental_uris":{"android":"levelo://app?vid=2baa7cb2-140e-4157-8942-9dda3f315cb0","ios":"levelo://app?vid=2baa7cb2-140e-4157-8942-9dda3f315cb0"},"vehicle_type_id":"4","last_reported":1750457376,"current_range_meters":11200,"station_id":"ce4bgvh2rcd13ifvqcs0","pricing_plan_id":"cebpf4jnsgd1na2vs0mg"},{"bike_id":"b6b25b81-c613-4ef7-a518-825b8ab86a27","system_id":"levelo_inurba_marseille","lat":43.309299,"lon":5.401396,"is_reserved":false,"is_disabled":false,"rental_uris":{"android":"levelo://app?vid=b6b25b81-c613-4ef7-a518-825b8ab86a27","ios":"levelo://app?vid=b6b25b81-c613-4ef7-a518-825b8ab86a27"},"vehicle_type_id":"4","last_reported":1750457376,"current_range_meters":11200,"station_id":"ce4bgvp2rcd13ifvqct0","pricing_plan_id":"cebpf4jnsgd1na2vs0mg"},{"bike_id":"a572deeb-2a98-49f6-b4c6-2d1a08996e3e","system_id":"levelo_inurba_marseille","lat":43.30416,"lon":5.39753,"is_reserved":false,"is_disabled":false,"rental_uris":{"android":"levelo://app?vid=a572deeb-2a98-49f6-b4c6-2d1a08996e3e","ios":"levelo://app?vid=a572deeb-2a98-49f6-b4c6-2d1a08996e3e"},"vehicle_type_id":"4","last_reported":1750457376,"current_range_meters":11200,"station_id":"ce4bh092rcd13ifvqd20","pricing_plan_id":"cebpf4jnsgd1na2vs0mg"},{"bike_id":"517a107e-9cd9-4539-be7a-5ca6b67916f7","system_id":"levelo_inurba_marseille","lat":43.306485,"lon":5.400959,"is_reserved":false,"is_disabled":false,"rental_uris":{"android":"levelo://app?vid=517a107e-9cd9-4539-be7a-5ca6b67916f7","ios":"levelo://app?vid=517a107e-9cd9-4539-be7a-5ca6b67916f7"},"vehicle_type_id":"4","last_reported":1750457376,"current_range_meters":11200,"station_id":"ce4bh112rcd13ifvqda0","pricing_plan_id":"cebpf4jnsgd1na2vs0mg"},{"bike_id":"d7870a1b-4eee-4dfd-b60c-83b83c9d9614","system_id":"levelo_inurba_marseille","lat":43.3064,"lon":5.40068,"is_reserved":false,"is_disabled":false,"rental_uris":{"android":"levelo://app?vid=d7870a1b-4eee-4dfd-b60c-83b83c9d9614","ios":"levelo://app?vid=d7870a1b-4eee-4dfd-b60c-83b83c9d9614"},"vehicle_type_id":"4","last_reported":1750457376,"current_range_meters":11200,"station_id":"ce4bh112rcd13ifvqda0","pricing_plan_id":"cebpf4jnsgd1na2vs0mg"},{"bike_id":"1748ade5-b216-4a51-bfbd-06b13284fafa","system_id":"levelo_inurba_marseille","lat":43.29886,"lon":5.389,"is_reserved":false,"is_disabled":false,"rental_uris":{"android":"levelo://app?vid=1748ade5-b216-4a51-bfbd-06b13284fafa","ios":"levelo://app?vid=1748ade5-b216-4a51-bfbd-06b13284fafa"},"vehicle_type_id":"4","last_reported":1750457376,"current_range_meters":11200,"station_id":"ce4bh392rcd13ifvqdl0","pricing_plan_id":"cebpf4jnsgd1na2vs0mg"},{"bike_id":"6aa275df-e6e4-4604-b049-fd9dac51d404","system_id":"levelo_inurba_marseille","lat":43.28667,"lon":5.38666,"is_reserved":false,"is_disabled":false,"rental_uris":{"android":"levelo://app?vid=6aa275df-e6e4-4604-b049-fd9dac51d404","ios":"levelo://app?vid=6aa275df-e6e4-4604-b049-fd9dac51d404"},"vehicle_type_id":"4","last_reported":1750457376,"current_range_meters":11200,"station_id":"ce4bh492rcd13ifvqdug","pricing_plan_id":"cebpf4jnsgd1na2vs0mg"},{"bike_id":"f52a2f3d-19d9-4ff7-bac8-6ea1c11b3edd","system_id":"levelo_inurba_marseille","lat":43.24665,"lon":5.38158,"is_reserved":false,"is_disabled":false,"rental_uris":{"android":"levelo://app?vid=f52a2f3d-19d9-4ff7-bac8-6ea1c11b3edd","ios":"levelo://app?vid=f52a2f3d-19d9-4ff7-bac8-6ea1c11b3edd"},"vehicle_type_id":"4","last_reported":1750457376,"current_range_meters":11200,"station_id":"ce4bhih2rcd13ifvqfr0","pricing_plan_id":"cebpf4jnsgd1na2vs0mg"},{"bike_id":"2711d2f9-1621-4b5e-b172-c5961a1a8d5a","system_id":"levelo_inurba_marseille","lat":43.27176,"lon":5.41002,"is_reserved":false,"is_disabled":false,"rental_uris":{"android":"levelo://app?vid=2711d2f9-1621-4b5e-b172-c5961a1a8d5a","ios":"levelo://app?vid=2711d2f9-1621-4b5e-b172-c5961a1a8d5a"},"vehicle_type_id":"4","last_reported":1750457376,"current_range_meters":11200,"station_id":"ce4bhl12rcd13ifvqgf0","pricing_plan_id":"cebpf4jnsgd1na2vs0mg"},{"bike_id":"92636463-0a9d-46b1-9cc3-f5c5b6835403","system_id":"levelo_inurba_marseille","lat":43.26218,"lon":5.40457,"is_reserved":false,"is_disabled":false,"rental_uris":{"android":"levelo://app?vid=92636463-0a9d-46b1-9cc3-f5c5b6835403","ios":"levelo://app?vid=92636463-0a9d-46b1-9cc3-f5c5b6835403"},"vehicle_type_id":"4","last_reported":1750457376,"current_range_meters":11200,"station_id":"ce4bhmh2rcd13ifvqgmg","pricing_plan_id":"cebpf4jnsgd1na2vs0mg"},{"bike_id":"e8a00cb0-89f6-479d-8102-19d3e54b4428","system_id":"levelo_inurba_marseille","lat":43.24076,"lon":5.37752,"is_reserved":false,"is_disabled":false,"rental_uris":{"android":"levelo://app?vid=e8a00cb0-89f6-479d-8102-19d3e54b4428","ios":"levelo://app?vid=e8a00cb0-89f6-479d-8102-19d3e54b4428"},"vehicle_type_id":"4","last_reported":1750457376,"current_range_meters":11200,"station_id":"ce4bhnp2rcd13ifvqgvg","pricing_plan_id":"cebpf4jnsgd1na2vs0mg"},{"bike_id":"2930bf7b-2372-4ddb-a96e-39fc10a37e17","system_id":"levelo_inurba_marseille","lat":43.32267,"lon":5.40681,"is_reserved":false,"is_disabled":false,"rental_uris":{"android":"levelo://app?vid=2930bf7b-2372-4ddb-a96e-39fc10a37e17","ios":"levelo://app?vid=2930bf7b-2372-4ddb-a96e-39fc10a37e17"},"vehicle_type_id":"4","last_reported":1750457376,"current_range_meters":11600,"station_id":"","pricing_plan_id":"cebpf4jnsgd1na2vs0mg"},{"bike_id":"8300812b-c3f4-4460-a462-0c10590e5460","system_id":"levelo_inurba_marseille","lat":43.32887,"lon":5.405383,"is_reserved":false,"is_disabled":false,"rental_uris":{"android":"levelo://app?vid=8300812b-c3f4-4460-a462-0c10590e5460","ios":"levelo://app?vid=8300812b-c3f4-4460-a462-0c10590e5460"},"vehicle_type_id":"4","last_reported":1750457376,"current_range_meters":11600,"station_id":"","pricing_plan_id":"cebpf4jnsgd1na2vs0mg"},{"bike_id":"d70a429d-ff72-4c7d-8870-1f2c9a0c4020","system_id":"levelo_inurba_marseille","lat":43.29529,"lon":5.38539,"is_reserved":false,"is_disabled":false,"rental_uris":{"android":"levelo://app?vid=d70a429d-ff72-4c7d-8870-1f2c9a0c4020","ios":"levelo://app?vid=d70a429d-ff72-4c7d-8870-1f2c9a0c4020"},"vehicle_type_id":"4","last_reported":1750457376,"current_range_meters":11600,"station_id":"ce4bgih2rcd13ifvqba0","pricing_plan_id":"cebpf4jnsgd1na2vs0mg"},{"bike_id":"f8df2956-f236-4a57-bc5d-1884300c4377","system_id":"levelo_inurba_marseille","lat":43.31263,"lon":5.40168,"is_reserved":false,"is_disabled":false,"rental_uris":{"android":"levelo://app?vid=f8df2956-f236-4a57-bc5d-1884300c4377","ios":"levelo://app?vid=f8df2956-f236-4a57-bc5d-1884300c4377"},"vehicle_type_id":"4","last_reported":1750457376,"current_range_meters":11600,"station_id":"ce4bh092rcd13ifvqd30","pricing_plan_id":"cebpf4jnsgd1na2vs0mg"},{"bike_id":"1e11989f-e475-4397-9a45-bd9147224a5e","system_id":"levelo_inurba_marseille","lat":43.24409,"lon":5.37103,"is_reserved":false,"is_disabled":false,"rental_uris":{"android":"levelo://app?vid=1e11989f-e475-4397-9a45-bd9147224a5e","ios":"levelo://app?vid=1e11989f-e475-4397-9a45-bd9147224a5e"},"vehicle_type_id":"4","last_reported":1750457376,"current_range_meters":11600,"station_id":"ce4bhhh2rcd13ifvqfk0","pricing_plan_id":"cebpf4jnsgd1na2vs0mg"},{"bike_id":"1613cb90-5ca8-442f-9eee-3bcd7ac9806f","system_id":"levelo_inurba_marseille","lat":43.30891,"lon":5.37189,"is_reserved":false,"is_disabled":false,"rental_uris":{"android":"levelo://app?vid=1613cb90-5ca8-442f-9eee-3bcd7ac9806f","ios":"levelo://app?vid=1613cb90-5ca8-442f-9eee-3bcd7ac9806f"},"vehicle_type_id":"4","last_reported":1750457376,"current_range_meters":12000,"station_id":"ce4bguh2rcd13ifvqckg","pricing_plan_id":"cebpf4jnsgd1na2vs0mg"},{"bike_id":"05f69300-23b4-44be-a7e1-398a0efe81a4","system_id":"levelo_inurba_marseille","lat":43.317,"lon":5.40458,"is_reserved":false,"is_disabled":false,"rental_uris":{"android":"levelo://app?vid=05f69300-23b4-44be-a7e1-398a0efe81a4","ios":"levelo://app?vid=05f69300-23b4-44be-a7e1-398a0efe81a4"},"vehicle_type_id":"4","last_reported":1750457376,"current_range_meters":12000,"station_id":"ce4bh012rcd13ifvqd00","pricing_plan_id":"cebpf4jnsgd1na2vs0mg"},{"bike_id":"fe3cb918-36b5-44eb-8e6c-27457eb9ab05","system_id":"levelo_inurba_marseille","lat":43.29875,"lon":5.38894,"is_reserved":false,"is_disabled":false,"rental_uris":{"android":"levelo://app?vid=fe3cb918-36b5-44eb-8e6c-27457eb9ab05","ios":"levelo://app?vid=fe3cb918-36b5-44eb-8e6c-27457eb9ab05"},"vehicle_type_id":"4","last_reported":1750457376,"current_range_meters":12000,"station_id":"ce4bh392rcd13ifvqdl0","pricing_plan_id":"cebpf4jnsgd1na2vs0mg"},{"bike_id":"43271cf0-1771-4092-b4cf-736424008359","system_id":"levelo_inurba_marseille","lat":43.27377,"lon":5.36253,"is_reserved":false,"is_disabled":false,"rental_uris":{"android":"levelo://app?vid=43271cf0-1771-4092-b4cf-736424008359","ios":"levelo://app?vid=43271cf0-1771-4092-b4cf-736424008359"},"vehicle_type_id":"4","last_reported":1750457376,"current_range_meters":12000,"station_id":"ce4bhbh2rcd13ifvqeo0","pricing_plan_id":"cebpf4jnsgd1na2vs0mg"},{"bike_id":"7c607cae-d549-4454-9d8b-baa5d6e88b39","system_id":"levelo_inurba_marseille","lat":43.24823,"lon":5.37424,"is_reserved":false,"is_disabled":false,"rental_uris":{"android":"levelo://app?vid=7c607cae-d549-4454-9d8b-baa5d6e88b39","ios":"levelo://app?vid=7c607cae-d549-4454-9d8b-baa5d6e88b39"},"vehicle_type_id":"4","last_reported":1750457376,"current_range_meters":12000,"station_id":"ce4bhgh2rcd13ifvqfb0","pricing_plan_id":"cebpf4jnsgd1na2vs0mg"},{"bike_id":"11a70d06-6c61-4c81-aebd-625263be0b57","system_id":"levelo_inurba_marseille","lat":43.30525,"lon":5.38446,"is_reserved":false,"is_disabled":false,"rental_uris":{"android":"levelo://app?vid=11a70d06-6c61-4c81-aebd-625263be0b57","ios":"levelo://app?vid=11a70d06-6c61-4c81-aebd-625263be0b57"},"vehicle_type_id":"4","last_reported":1750457376,"current_range_meters":12400,"station_id":"ce4bgg92rcd13ifvqb30","pricing_plan_id":"cebpf4jnsgd1na2vs0mg"},{"bike_id":"45e2a23a-eb9d-49d7-9351-716f0a9440ac","system_id":"levelo_inurba_marseille","lat":43.30148,"lon":5.38065,"is_reserved":false,"is_disabled":false,"rental_uris":{"android":"levelo://app?vid=45e2a23a-eb9d-49d7-9351-716f0a9440ac","ios":"levelo://app?vid=45e2a23a-eb9d-49d7-9351-716f0a9440ac"},"vehicle_type_id":"4","last_reported":1750457376,"current_range_meters":12400,"station_id":"ce4bgjp2rcd13ifvqbh0","pricing_plan_id":"cebpf4jnsgd1na2vs0mg"},{"bike_id":"7ea0726f-b0dd-4d43-8ce5-5241a2ca7f4d","system_id":"levelo_inurba_marseille","lat":43.30138,"lon":5.39857,"is_reserved":false,"is_disabled":false,"rental_uris":{"android":"levelo://app?vid=7ea0726f-b0dd-4d43-8ce5-5241a2ca7f4d","ios":"levelo://app?vid=7ea0726f-b0dd-4d43-8ce5-5241a2ca7f4d"},"vehicle_type_id":"4","last_reported":1750457376,"current_range_meters":12400,"station_id":"ce4bh0h2rcd13ifvqd40","pricing_plan_id":"cebpf4jnsgd1na2vs0mg"},{"bike_id":"f04cd0ac-ed61-45ed-af01-937596de0d23","system_id":"levelo_inurba_marseille","lat":43.231917,"lon":5.355528,"is_reserved":false,"is_disabled":false,"rental_uris":{"android":"levelo://app?vid=f04cd0ac-ed61-45ed-af01-937596de0d23","ios":"levelo://app?vid=f04cd0ac-ed61-45ed-af01-937596de0d23"},"vehicle_type_id":"4","last_reported":1750457376,"current_range_meters":12400,"station_id":"ce4bhu92rcd13ifvqi70","pricing_plan_id":"cebpf4jnsgd1na2vs0mg"},{"bike_id":"95948f8c-ed1b-4579-a2fd-8de9a76479dd","system_id":"levelo_inurba_marseille","lat":43.29883,"lon":5.39723,"is_reserved":false,"is_disabled":false,"rental_uris":{"android":"levelo://app?vid=95948f8c-ed1b-4579-a2fd-8de9a76479dd","ios":"levelo://app?vid=95948f8c-ed1b-4579-a2fd-8de9a76479dd"},"vehicle_type_id":"4","last_reported":1750457376,"current_range_meters":12800,"station_id":"ce4bh0h2rcd13ifvqd50","pricing_plan_id":"cebpf4jnsgd1na2vs0mg"},{"bike_id":"8fd94bfe-b0a3-4509-a3c9-0f6e3f8eed78","system_id":"levelo_inurba_marseille","lat":43.24175,"lon":5.36379,"is_reserved":false,"is_disabled":false,"rental_uris":{"android":"levelo://app?vid=8fd94bfe-b0a3-4509-a3c9-0f6e3f8eed78","ios":"levelo://app?vid=8fd94bfe-b0a3-4509-a3c9-0f6e3f8eed78"},"vehicle_type_id":"4","last_reported":1750457376,"current_range_meters":12800,"station_id":"cpo36qri1sfpv3e86is0","pricing_plan_id":"cebpf4jnsgd1na2vs0mg"},{"bike_id":"b0c36570-8a06-4ca8-b90b-1ab5801fe902","system_id":"levelo_inurba_marseille","lat":43.31218,"lon":5.40463,"is_reserved":false,"is_disabled":false,"rental_uris":{"android":"levelo://app?vid=b0c36570-8a06-4ca8-b90b-1ab5801fe902","ios":"levelo://app?vid=b0c36570-8a06-4ca8-b90b-1ab5801fe902"},"vehicle_type_id":"4","last_reported":1750457376,"current_range_meters":13600,"station_id":"","pricing_plan_id":"cebpf4jnsgd1na2vs0mg"},{"bike_id":"17fe9d79-8378-441e-ba3c-c8ac17c2f0d6","system_id":"levelo_inurba_marseille","lat":43.28718,"lon":5.3794,"is_reserved":false,"is_disabled":false,"rental_uris":{"android":"levelo://app?vid=17fe9d79-8378-441e-ba3c-c8ac17c2f0d6","ios":"levelo://app?vid=17fe9d79-8378-441e-ba3c-c8ac17c2f0d6"},"vehicle_type_id":"4","last_reported":1750457376,"current_range_meters":14000,"station_id":"ce4bh9p2rcd13ifvqec0","pricing_plan_id":"cebpf4jnsgd1na2vs0mg"},{"bike_id":"642df1c4-fe20-480b-820e-70df76caedbe","system_id":"levelo_inurba_marseille","lat":43.28464,"lon":5.35885,"is_reserved":false,"is_disabled":false,"rental_uris":{"android":"levelo://app?vid=642df1c4-fe20-480b-820e-70df76caedbe","ios":"levelo://app?vid=642df1c4-fe20-480b-820e-70df76caedbe"},"vehicle_type_id":"4","last_reported":1750457376,"current_range_meters":14000,"station_id":"ce4bhah2rcd13ifvqei0","pricing_plan_id":"cebpf4jnsgd1na2vs0mg"},{"bike_id":"959f0c62-9761-4a35-9c23-557e23ca2679","system_id":"levelo_inurba_marseille","lat":43.24659,"lon":5.38177,"is_reserved":false,"is_disabled":false,"rental_uris":{"android":"levelo://app?vid=959f0c62-9761-4a35-9c23-557e23ca2679","ios":"levelo://app?vid=959f0c62-9761-4a35-9c23-557e23ca2679"},"vehicle_type_id":"4","last_reported":1750457376,"current_range_meters":14000,"station_id":"ce4bhih2rcd13ifvqfr0","pricing_plan_id":"cebpf4jnsgd1na2vs0mg"},{"bike_id":"d395e067-fe16-4ee3-a478-1b5e2facddec","system_id":"levelo_inurba_marseille","lat":43.3172,"lon":5.42395,"is_reserved":false,"is_disabled":false,"rental_uris":{"android":"levelo://app?vid=d395e067-fe16-4ee3-a478-1b5e2facddec","ios":"levelo://app?vid=d395e067-fe16-4ee3-a478-1b5e2facddec"},"vehicle_type_id":"4","last_reported":1750457376,"current_range_meters":14000,"station_id":"ce4bhp92rcd13ifvqhbg","pricing_plan_id":"cebpf4jnsgd1na2vs0mg"},{"bike_id":"6e9937c4-04c1-4e15-9850-59f72de8a1df","system_id":"levelo_inurba_marseille","lat":43.23194,"lon":5.35553,"is_reserved":false,"is_disabled":false,"rental_uris":{"android":"levelo://app?vid=6e9937c4-04c1-4e15-9850-59f72de8a1df","ios":"levelo://app?vid=6e9937c4-04c1-4e15-9850-59f72de8a1df"},"vehicle_type_id":"4","last_reported":1750457376,"current_range_meters":14000,"station_id":"ce4bhu92rcd13ifvqi70","pricing_plan_id":"cebpf4jnsgd1na2vs0mg"},{"bike_id":"dc540ba2-fb63-45eb-b83a-1826fb3d30b7","system_id":"levelo_inurba_marseille","lat":43.2461,"lon":5.39264,"is_reserved":false,"is_disabled":false,"rental_uris":{"android":"levelo://app?vid=dc540ba2-fb63-45eb-b83a-1826fb3d30b7","ios":"levelo://app?vid=dc540ba2-fb63-45eb-b83a-1826fb3d30b7"},"vehicle_type_id":"4","last_reported":1750457376,"current_range_meters":14400,"station_id":"","pricing_plan_id":"cebpf4jnsgd1na2vs0mg"},{"bike_id":"bd27fe72-6fbc-453f-8b77-bee10ab3b13c","system_id":"levelo_inurba_marseille","lat":43.29541,"lon":5.42376,"is_reserved":false,"is_disabled":false,"rental_uris":{"android":"levelo://app?vid=bd27fe72-6fbc-453f-8b77-bee10ab3b13c","ios":"levelo://app?vid=bd27fe72-6fbc-453f-8b77-bee10ab3b13c"},"vehicle_type_id":"4","last_reported":1750457376,"current_range_meters":14400,"station_id":"","pricing_plan_id":"cebpf4jnsgd1na2vs0mg"},{"bike_id":"8ef11a45-504d-45b0-a2b5-97fef9594218","system_id":"levelo_inurba_marseille","lat":43.29562,"lon":5.38161,"is_reserved":false,"is_disabled":false,"rental_uris":{"android":"levelo://app?vid=8ef11a45-504d-45b0-a2b5-97fef9594218","ios":"levelo://app?vid=8ef11a45-504d-45b0-a2b5-97fef9594218"},"vehicle_type_id":"4","last_reported":1750457376,"current_range_meters":14400,"station_id":"","pricing_plan_id":"cebpf4jnsgd1na2vs0mg"},{"bike_id":"b7bb46fc-5dd8-4c49-be42-13b8110ebae9","system_id":"levelo_inurba_marseille","lat":43.26062,"lon":5.39399,"is_reserved":false,"is_disabled":false,"rental_uris":{"android":"levelo://app?vid=b7bb46fc-5dd8-4c49-be42-13b8110ebae9","ios":"levelo://app?vid=b7bb46fc-5dd8-4c49-be42-13b8110ebae9"},"vehicle_type_id":"4","last_reported":1750457376,"current_range_meters":14400,"station_id":"ce4bhh92rcd13ifvqfj0","pricing_plan_id":"cebpf4jnsgd1na2vs0mg"},{"bike_id":"d40af265-11b5-43a6-9bb6-f910f57901ba","system_id":"levelo_inurba_marseille","lat":43.32941,"lon":5.38095,"is_reserved":false,"is_disabled":false,"rental_uris":{"android":"levelo://app?vid=d40af265-11b5-43a6-9bb6-f910f57901ba","ios":"levelo://app?vid=d40af265-11b5-43a6-9bb6-f910f57901ba"},"vehicle_type_id":"4","last_reported":1750457376,"current_range_meters":14800,"station_id":"","pricing_plan_id":"cebpf4jnsgd1na2vs0mg"},{"bike_id":"67b776d8-fe5b-488d-99cb-eefee58fffe0","system_id":"levelo_inurba_marseille","lat":43.2953,"lon":5.38539,"is_reserved":false,"is_disabled":false,"rental_uris":{"android":"levelo://app?vid=67b776d8-fe5b-488d-99cb-eefee58fffe0","ios":"levelo://app?vid=67b776d8-fe5b-488d-99cb-eefee58fffe0"},"vehicle_type_id":"4","last_reported":1750457376,"current_range_meters":14800,"station_id":"ce4bgih2rcd13ifvqba0","pricing_plan_id":"cebpf4jnsgd1na2vs0mg"},{"bike_id":"252b66a2-ac48-480d-89c8-6f8cd9e3dcd2","system_id":"levelo_inurba_marseille","lat":43.311646,"lon":5.387267,"is_reserved":false,"is_disabled":false,"rental_uris":{"android":"levelo://app?vid=252b66a2-ac48-480d-89c8-6f8cd9e3dcd2","ios":"levelo://app?vid=252b66a2-ac48-480d-89c8-6f8cd9e3dcd2"},"vehicle_type_id":"4","last_reported":1750457376,"current_range_meters":14800,"station_id":"ce4bgv12rcd13ifvqcp0","pricing_plan_id":"cebpf4jnsgd1na2vs0mg"},{"bike_id":"25e538ea-1706-4e4c-b8f3-137246c20f21","system_id":"levelo_inurba_marseille","lat":43.30136,"lon":5.39863,"is_reserved":false,"is_disabled":false,"rental_uris":{"android":"levelo://app?vid=25e538ea-1706-4e4c-b8f3-137246c20f21","ios":"levelo://app?vid=25e538ea-1706-4e4c-b8f3-137246c20f21"},"vehicle_type_id":"4","last_reported":1750457376,"current_range_meters":14800,"station_id":"ce4bh0h2rcd13ifvqd40","pricing_plan_id":"cebpf4jnsgd1na2vs0mg"},{"bike_id":"73ca78af-c969-4f07-9a86-35bf9abdcb85","system_id":"levelo_inurba_marseille","lat":43.2903,"lon":5.3864,"is_reserved":false,"is_disabled":false,"rental_uris":{"android":"levelo://app?vid=73ca78af-c969-4f07-9a86-35bf9abdcb85","ios":"levelo://app?vid=73ca78af-c969-4f07-9a86-35bf9abdcb85"},"vehicle_type_id":"4","last_reported":1750457376,"current_range_meters":14800,"station_id":"ce4bh4p2rcd13ifvqe0g","pricing_plan_id":"cebpf4jnsgd1na2vs0mg"},{"bike_id":"0d4c862e-bc74-4979-9523-315b6b7fcd2d","system_id":"levelo_inurba_marseille","lat":43.30425,"lon":5.38888,"is_reserved":false,"is_disabled":false,"rental_uris":{"android":"levelo://app?vid=0d4c862e-bc74-4979-9523-315b6b7fcd2d","ios":"levelo://app?vid=0d4c862e-bc74-4979-9523-315b6b7fcd2d"},"vehicle_type_id":"4","last_reported":1750457376,"current_range_meters":15200,"station_id":"ce4bgk12rcd13ifvqbi0","pricing_plan_id":"cebpf4jnsgd1na2vs0mg"},{"bike_id":"04ee8092-af10-41ed-81db-f72403d43288","system_id":"levelo_inurba_marseille","lat":43.30888,"lon":5.3966,"is_reserved":false,"is_disabled":false,"rental_uris":{"android":"levelo://app?vid=04ee8092-af10-41ed-81db-f72403d43288","ios":"levelo://app?vid=04ee8092-af10-41ed-81db-f72403d43288"},"vehicle_type_id":"4","last_reported":1750457376,"current_range_meters":15200,"station_id":"ce4bh012rcd13ifvqcv0","pricing_plan_id":"cebpf4jnsgd1na2vs0mg"},{"bike_id":"c5d80bab-5e87-4c1c-a69f-62d26f69ac1d","system_id":"levelo_inurba_marseille","lat":43.31685,"lon":5.40477,"is_reserved":false,"is_disabled":false,"rental_uris":{"android":"levelo://app?vid=c5d80bab-5e87-4c1c-a69f-62d26f69ac1d","ios":"levelo://app?vid=c5d80bab-5e87-4c1c-a69f-62d26f69ac1d"},"vehicle_type_id":"4","last_reported":1750457376,"current_range_meters":15200,"station_id":"ce4bh012rcd13ifvqd00","pricing_plan_id":"cebpf4jnsgd1na2vs0mg"},{"bike_id":"f8c862df-419e-420f-ad3a-f648577b7340","system_id":"levelo_inurba_marseille","lat":43.28698,"lon":5.37404,"is_reserved":false,"is_disabled":false,"rental_uris":{"android":"levelo://app?vid=f8c862df-419e-420f-ad3a-f648577b7340","ios":"levelo://app?vid=f8c862df-419e-420f-ad3a-f648577b7340"},"vehicle_type_id":"4","last_reported":1750457376,"current_range_meters":15200,"station_id":"ce4bh3p2rcd13ifvqdq0","pricing_plan_id":"cebpf4jnsgd1na2vs0mg"},{"bike_id":"dea0f8ec-84c3-4730-bd39-0c05aaeb87ca","system_id":"levelo_inurba_marseille","lat":43.337444,"lon":5.374475,"is_reserved":false,"is_disabled":false,"rental_uris":{"android":"levelo://app?vid=dea0f8ec-84c3-4730-bd39-0c05aaeb87ca","ios":"levelo://app?vid=dea0f8ec-84c3-4730-bd39-0c05aaeb87ca"},"vehicle_type_id":"4","last_reported":1750457376,"current_range_meters":16000,"station_id":"","pricing_plan_id":"cebpf4jnsgd1na2vs0mg"},{"bike_id":"a22aa312-0025-4f42-88e2-b1e95e79340f","system_id":"levelo_inurba_marseille","lat":43.31678,"lon":5.38369,"is_reserved":false,"is_disabled":false,"rental_uris":{"android":"levelo://app?vid=a22aa312-0025-4f42-88e2-b1e95e79340f","ios":"levelo://app?vid=a22aa312-0025-4f42-88e2-b1e95e79340f"},"vehicle_type_id":"4","last_reported":1750457376,"current_range_meters":16000,"station_id":"","pricing_plan_id":"cebpf4jnsgd1na2vs0mg"},{"bike_id":"708057cf-5043-47e6-80d1-937dcb5e329c","system_id":"levelo_inurba_marseille","lat":43.29494,"lon":5.38574,"is_reserved":false,"is_disabled":false,"rental_uris":{"android":"levelo://app?vid=708057cf-5043-47e6-80d1-937dcb5e329c","ios":"levelo://app?vid=708057cf-5043-47e6-80d1-937dcb5e329c"},"vehicle_type_id":"4","last_reported":1750457376,"current_range_meters":16000,"station_id":"ce4bgih2rcd13ifvqba0","pricing_plan_id":"cebpf4jnsgd1na2vs0mg"},{"bike_id":"e2e685fa-c92e-4eb7-ba6b-a7966086caf2","system_id":"levelo_inurba_marseille","lat":43.29604,"lon":5.38103,"is_reserved":false,"is_disabled":false,"rental_uris":{"android":"levelo://app?vid=e2e685fa-c92e-4eb7-ba6b-a7966086caf2","ios":"levelo://app?vid=e2e685fa-c92e-4eb7-ba6b-a7966086caf2"},"vehicle_type_id":"4","last_reported":1750457376,"current_range_meters":16000,"station_id":"ce4bgl12rcd13ifvqbo0","pricing_plan_id":"cebpf4jnsgd1na2vs0mg"},{"bike_id":"03851001-bcee-4144-b2d2-b1d3a7801bdc","system_id":"levelo_inurba_marseille","lat":43.29423,"lon":5.38612,"is_reserved":false,"is_disabled":false,"rental_uris":{"android":"levelo://app?vid=03851001-bcee-4144-b2d2-b1d3a7801bdc","ios":"levelo://app?vid=03851001-bcee-4144-b2d2-b1d3a7801bdc"},"vehicle_type_id":"4","last_reported":1750457376,"current_range_meters":16000,"station_id":"ce4bh2h2rcd13ifvqdh0","pricing_plan_id":"cebpf4jnsgd1na2vs0mg"},{"bike_id":"98bc7b21-37c7-4968-a280-666d45ae6464","system_id":"levelo_inurba_marseille","lat":43.29264,"lon":5.38437,"is_reserved":false,"is_disabled":false,"rental_uris":{"android":"levelo://app?vid=98bc7b21-37c7-4968-a280-666d45ae6464","ios":"levelo://app?vid=98bc7b21-37c7-4968-a280-666d45ae6464"},"vehicle_type_id":"4","last_reported":1750457376,"current_range_meters":16000,"station_id":"ce4bh692rcd13ifvqea0","pricing_plan_id":"cebpf4jnsgd1na2vs0mg"},{"bike_id":"5a01a987-f989-4da6-b035-8c3000259e08","system_id":"levelo_inurba_marseille","lat":43.279118,"lon":5.395749,"is_reserved":false,"is_disabled":false,"rental_uris":{"android":"levelo://app?vid=5a01a987-f989-4da6-b035-8c3000259e08","ios":"levelo://app?vid=5a01a987-f989-4da6-b035-8c3000259e08"},"vehicle_type_id":"4","last_reported":1750457376,"current_range_meters":16000,"station_id":"ce4bhf92rcd13ifvqf40","pricing_plan_id":"cebpf4jnsgd1na2vs0mg"},{"bike_id":"24c3f3cb-ddcf-46f0-9b3f-14585b768a2d","system_id":"levelo_inurba_marseille","lat":43.23157,"lon":5.43736,"is_reserved":false,"is_disabled":false,"rental_uris":{"android":"levelo://app?vid=24c3f3cb-ddcf-46f0-9b3f-14585b768a2d","ios":"levelo://app?vid=24c3f3cb-ddcf-46f0-9b3f-14585b768a2d"},"vehicle_type_id":"4","last_reported":1750457376,"current_range_meters":16000,"station_id":"ce4bhmp2rcd13ifvqgog","pricing_plan_id":"cebpf4jnsgd1na2vs0mg"},{"bike_id":"443dbbb8-21ad-4e53-a14c-6539edcbd9fd","system_id":"levelo_inurba_marseille","lat":43.27998,"lon":5.41664,"is_reserved":false,"is_disabled":false,"rental_uris":{"android":"levelo://app?vid=443dbbb8-21ad-4e53-a14c-6539edcbd9fd","ios":"levelo://app?vid=443dbbb8-21ad-4e53-a14c-6539edcbd9fd"},"vehicle_type_id":"4","last_reported":1750457376,"current_range_meters":16000,"station_id":"ce4bho12rcd13ifvqh1g","pricing_plan_id":"cebpf4jnsgd1na2vs0mg"},{"bike_id":"489a79da-ed96-4cc4-807a-1eeace5f9bc9","system_id":"levelo_inurba_marseille","lat":43.299619,"lon":5.413332,"is_reserved":false,"is_disabled":false,"rental_uris":{"android":"levelo://app?vid=489a79da-ed96-4cc4-807a-1eeace5f9bc9","ios":"levelo://app?vid=489a79da-ed96-4cc4-807a-1eeace5f9bc9"},"vehicle_type_id":"4","last_reported":1750457376,"current_range_meters":16000,"station_id":"ce4bhp12rcd13ifvqh9g","pricing_plan_id":"cebpf4jnsgd1na2vs0mg"},{"bike_id":"e89db88b-1c2c-475c-a56d-e9d66d636fb2","system_id":"levelo_inurba_marseille","lat":43.23178,"lon":5.3553,"is_reserved":false,"is_disabled":false,"rental_uris":{"android":"levelo://app?vid=e89db88b-1c2c-475c-a56d-e9d66d636fb2","ios":"levelo://app?vid=e89db88b-1c2c-475c-a56d-e9d66d636fb2"},"vehicle_type_id":"4","last_reported":1750457376,"current_range_meters":16000,"station_id":"ce4bhu92rcd13ifvqi70","pricing_plan_id":"cebpf4jnsgd1na2vs0mg"},{"bike_id":"4643bc90-1bac-4c4b-98b1-e2d500830573","system_id":"levelo_inurba_marseille","lat":43.31379,"lon":5.37704,"is_reserved":false,"is_disabled":false,"rental_uris":{"android":"levelo://app?vid=4643bc90-1bac-4c4b-98b1-e2d500830573","ios":"levelo://app?vid=4643bc90-1bac-4c4b-98b1-e2d500830573"},"vehicle_type_id":"4","last_reported":1750457376,"current_range_meters":16400,"station_id":"","pricing_plan_id":"cebpf4jnsgd1na2vs0mg"},{"bike_id":"ff0585d1-3da0-48f3-9fda-da5b5d5767f8","system_id":"levelo_inurba_marseille","lat":43.29471,"lon":5.38664,"is_reserved":false,"is_disabled":false,"rental_uris":{"android":"levelo://app?vid=ff0585d1-3da0-48f3-9fda-da5b5d5767f8","ios":"levelo://app?vid=ff0585d1-3da0-48f3-9fda-da5b5d5767f8"},"vehicle_type_id":"4","last_reported":1750457376,"current_range_meters":16400,"station_id":"","pricing_plan_id":"cebpf4jnsgd1na2vs0mg"},{"bike_id":"ad7bc185-3adc-4e5b-841b-d61acf8adb22","system_id":"levelo_inurba_marseille","lat":43.29915,"lon":5.36275,"is_reserved":false,"is_disabled":false,"rental_uris":{"android":"levelo://app?vid=ad7bc185-3adc-4e5b-841b-d61acf8adb22","ios":"levelo://app?vid=ad7bc185-3adc-4e5b-841b-d61acf8adb22"},"vehicle_type_id":"4","last_reported":1750457376,"current_range_meters":16400,"station_id":"","pricing_plan_id":"cebpf4jnsgd1na2vs0mg"},{"bike_id":"90c109b5-5cee-495e-8f11-f318c0f086b6","system_id":"levelo_inurba_marseille","lat":43.32499,"lon":5.43459,"is_reserved":false,"is_disabled":false,"rental_uris":{"android":"levelo://app?vid=90c109b5-5cee-495e-8f11-f318c0f086b6","ios":"levelo://app?vid=90c109b5-5cee-495e-8f11-f318c0f086b6"},"vehicle_type_id":"4","last_reported":1750457376,"current_range_meters":16400,"station_id":"","pricing_plan_id":"cebpf4jnsgd1na2vs0mg"},{"bike_id":"3aaee78d-658b-40b3-81aa-40d8f6edf63c","system_id":"levelo_inurba_marseille","lat":43.299,"lon":5.38156,"is_reserved":false,"is_disabled":false,"rental_uris":{"android":"levelo://app?vid=3aaee78d-658b-40b3-81aa-40d8f6edf63c","ios":"levelo://app?vid=3aaee78d-658b-40b3-81aa-40d8f6edf63c"},"vehicle_type_id":"4","last_reported":1750457376,"current_range_meters":16400,"station_id":"ce4bgj12rcd13ifvqbc0","pricing_plan_id":"cebpf4jnsgd1na2vs0mg"},{"bike_id":"54265d8f-0037-4f9f-a42d-28d153ea73d6","system_id":"levelo_inurba_marseille","lat":43.29624,"lon":5.38113,"is_reserved":false,"is_disabled":false,"rental_uris":{"android":"levelo://app?vid=54265d8f-0037-4f9f-a42d-28d153ea73d6","ios":"levelo://app?vid=54265d8f-0037-4f9f-a42d-28d153ea73d6"},"vehicle_type_id":"4","last_reported":1750457376,"current_range_meters":16400,"station_id":"ce4bgl12rcd13ifvqbo0","pricing_plan_id":"cebpf4jnsgd1na2vs0mg"},{"bike_id":"204afd8f-d13a-468d-a59c-e2db9671fff1","system_id":"levelo_inurba_marseille","lat":43.244123,"lon":5.371079,"is_reserved":false,"is_disabled":false,"rental_uris":{"android":"levelo://app?vid=204afd8f-d13a-468d-a59c-e2db9671fff1","ios":"levelo://app?vid=204afd8f-d13a-468d-a59c-e2db9671fff1"},"vehicle_type_id":"4","last_reported":1750457376,"current_range_meters":16400,"station_id":"ce4bhhh2rcd13ifvqfk0","pricing_plan_id":"cebpf4jnsgd1na2vs0mg"},{"bike_id":"b5253bc8-10ae-4e89-a386-04cb253d9cde","system_id":"levelo_inurba_marseille","lat":43.27812,"lon":5.4072,"is_reserved":false,"is_disabled":false,"rental_uris":{"android":"levelo://app?vid=b5253bc8-10ae-4e89-a386-04cb253d9cde","ios":"levelo://app?vid=b5253bc8-10ae-4e89-a386-04cb253d9cde"},"vehicle_type_id":"4","last_reported":1750457376,"current_range_meters":16400,"station_id":"ce4bhnh2rcd13ifvqgtg","pricing_plan_id":"cebpf4jnsgd1na2vs0mg"},{"bike_id":"c0188c92-205d-412a-90ec-6be8c46bd433","system_id":"levelo_inurba_marseille","lat":43.2987,"lon":5.39733,"is_reserved":false,"is_disabled":false,"rental_uris":{"android":"levelo://app?vid=c0188c92-205d-412a-90ec-6be8c46bd433","ios":"levelo://app?vid=c0188c92-205d-412a-90ec-6be8c46bd433"},"vehicle_type_id":"4","last_reported":1750457376,"current_range_meters":16800,"station_id":"ce4bh0h2rcd13ifvqd50","pricing_plan_id":"cebpf4jnsgd1na2vs0mg"},{"bike_id":"e346d9bf-4493-4351-a8a5-3d12d8dd5382","system_id":"levelo_inurba_marseille","lat":43.294134,"lon":5.386109,"is_reserved":false,"is_disabled":false,"rental_uris":{"android":"levelo://app?vid=e346d9bf-4493-4351-a8a5-3d12d8dd5382","ios":"levelo://app?vid=e346d9bf-4493-4351-a8a5-3d12d8dd5382"},"vehicle_type_id":"4","last_reported":1750457376,"current_range_meters":16800,"station_id":"ce4bh2h2rcd13ifvqdh0","pricing_plan_id":"cebpf4jnsgd1na2vs0mg"},{"bike_id":"01c0ac0f-b40f-4f7c-a9fe-4fc3ed3169fe","system_id":"levelo_inurba_marseille","lat":43.259848,"lon":5.375564,"is_reserved":false,"is_disabled":false,"rental_uris":{"android":"levelo://app?vid=01c0ac0f-b40f-4f7c-a9fe-4fc3ed3169fe","ios":"levelo://app?vid=01c0ac0f-b40f-4f7c-a9fe-4fc3ed3169fe"},"vehicle_type_id":"4","last_reported":1750457376,"current_range_meters":16800,"station_id":"ce4bhgh2rcd13ifvqfa0","pricing_plan_id":"cebpf4jnsgd1na2vs0mg"},{"bike_id":"ffbb0c22-3f4e-4cdb-a0e5-79e3b9f3e1a2","system_id":"levelo_inurba_marseille","lat":43.33751,"lon":5.37428,"is_reserved":false,"is_disabled":false,"rental_uris":{"android":"levelo://app?vid=ffbb0c22-3f4e-4cdb-a0e5-79e3b9f3e1a2","ios":"levelo://app?vid=ffbb0c22-3f4e-4cdb-a0e5-79e3b9f3e1a2"},"vehicle_type_id":"4","last_reported":1750457376,"current_range_meters":17200,"station_id":"","pricing_plan_id":"cebpf4jnsgd1na2vs0mg"},{"bike_id":"05288ece-95fb-4ab9-8db7-855928f6c71c","system_id":"levelo_inurba_marseille","lat":43.2952,"lon":5.38553,"is_reserved":false,"is_disabled":false,"rental_uris":{"android":"levelo://app?vid=05288ece-95fb-4ab9-8db7-855928f6c71c","ios":"levelo://app?vid=05288ece-95fb-4ab9-8db7-855928f6c71c"},"vehicle_type_id":"4","last_reported":1750457376,"current_range_meters":17200,"station_id":"ce4bgih2rcd13ifvqba0","pricing_plan_id":"cebpf4jnsgd1na2vs0mg"},{"bike_id":"b537d9b9-b1c5-434f-bd7b-20d6b579a8b1","system_id":"levelo_inurba_marseille","lat":43.2803,"lon":5.36952,"is_reserved":false,"is_disabled":false,"rental_uris":{"android":"levelo://app?vid=b537d9b9-b1c5-434f-bd7b-20d6b579a8b1","ios":"levelo://app?vid=b537d9b9-b1c5-434f-bd7b-20d6b579a8b1"},"vehicle_type_id":"4","last_reported":1750457376,"current_range_meters":17200,"station_id":"ce4bha12rcd13ifvqef0","pricing_plan_id":"cebpf4jnsgd1na2vs0mg"},{"bike_id":"acb4a8c5-6857-4a30-b550-7c7dc7b87051","system_id":"levelo_inurba_marseille","lat":43.24643,"lon":5.38918,"is_reserved":false,"is_disabled":false,"rental_uris":{"android":"levelo://app?vid=acb4a8c5-6857-4a30-b550-7c7dc7b87051","ios":"levelo://app?vid=acb4a8c5-6857-4a30-b550-7c7dc7b87051"},"vehicle_type_id":"4","last_reported":1750457376,"current_range_meters":17200,"station_id":"ce4bhg12rcd13ifvqf60","pricing_plan_id":"cebpf4jnsgd1na2vs0mg"},{"bike_id":"9436b3f7-e71d-4814-81fe-95d1af5df695","system_id":"levelo_inurba_marseille","lat":43.21183,"lon":5.35055,"is_reserved":false,"is_disabled":false,"rental_uris":{"android":"levelo://app?vid=9436b3f7-e71d-4814-81fe-95d1af5df695","ios":"levelo://app?vid=9436b3f7-e71d-4814-81fe-95d1af5df695"},"vehicle_type_id":"4","last_reported":1750457376,"current_range_meters":17200,"station_id":"st_cvj6sg6p6f1abm77japg","pricing_plan_id":"cebpf4jnsgd1na2vs0mg"},{"bike_id":"ad52ccbd-4751-4685-8046-45bf2eb95b70","system_id":"levelo_inurba_marseille","lat":43.30095,"lon":5.3909,"is_reserved":false,"is_disabled":false,"rental_uris":{"android":"levelo://app?vid=ad52ccbd-4751-4685-8046-45bf2eb95b70","ios":"levelo://app?vid=ad52ccbd-4751-4685-8046-45bf2eb95b70"},"vehicle_type_id":"4","last_reported":1750457376,"current_range_meters":17600,"station_id":"ce4bh192rcd13ifvqdb0","pricing_plan_id":"cebpf4jnsgd1na2vs0mg"},{"bike_id":"2cec0bc7-dead-4af8-95ca-e858e0d59839","system_id":"levelo_inurba_marseille","lat":43.289316,"lon":5.366398,"is_reserved":false,"is_disabled":false,"rental_uris":{"android":"levelo://app?vid=2cec0bc7-dead-4af8-95ca-e858e0d59839","ios":"levelo://app?vid=2cec0bc7-dead-4af8-95ca-e858e0d59839"},"vehicle_type_id":"4","last_reported":1750457376,"current_range_meters":17600,"station_id":"ce4bhap2rcd13ifvqek0","pricing_plan_id":"cebpf4jnsgd1na2vs0mg"},{"bike_id":"65353702-6fe2-4bc2-b757-7589afe4447d","system_id":"levelo_inurba_marseille","lat":43.25826,"lon":5.3944,"is_reserved":false,"is_disabled":false,"rental_uris":{"android":"levelo://app?vid=65353702-6fe2-4bc2-b757-7589afe4447d","ios":"levelo://app?vid=65353702-6fe2-4bc2-b757-7589afe4447d"},"vehicle_type_id":"4","last_reported":1750457376,"current_range_meters":17600,"station_id":"ce4bhip2rcd13ifvqft0","pricing_plan_id":"cebpf4jnsgd1na2vs0mg"},{"bike_id":"33a15baf-d7da-4cd3-9326-e35fd2c96457","system_id":"levelo_inurba_marseille","lat":43.28703,"lon":5.3998,"is_reserved":false,"is_disabled":false,"rental_uris":{"android":"levelo://app?vid=33a15baf-d7da-4cd3-9326-e35fd2c96457","ios":"levelo://app?vid=33a15baf-d7da-4cd3-9326-e35fd2c96457"},"vehicle_type_id":"4","last_reported":1750457376,"current_range_meters":17600,"station_id":"ce4bho92rcd13ifvqh3g","pricing_plan_id":"cebpf4jnsgd1na2vs0mg"},{"bike_id":"55df8937-f63c-4809-94bc-632d00106cf8","system_id":"levelo_inurba_marseille","lat":43.28701,"lon":5.39986,"is_reserved":false,"is_disabled":false,"rental_uris":{"android":"levelo://app?vid=55df8937-f63c-4809-94bc-632d00106cf8","ios":"levelo://app?vid=55df8937-f63c-4809-94bc-632d00106cf8"},"vehicle_type_id":"4","last_reported":1750457376,"current_range_meters":17600,"station_id":"ce4bho92rcd13ifvqh3g","pricing_plan_id":"cebpf4jnsgd1na2vs0mg"},{"bike_id":"a3a242a8-f687-485d-8b12-3da594c21732","system_id":"levelo_inurba_marseille","lat":43.28698,"lon":5.39971,"is_reserved":false,"is_disabled":false,"rental_uris":{"android":"levelo://app?vid=a3a242a8-f687-485d-8b12-3da594c21732","ios":"levelo://app?vid=a3a242a8-f687-485d-8b12-3da594c21732"},"vehicle_type_id":"4","last_reported":1750457376,"current_range_meters":17600,"station_id":"ce4bho92rcd13ifvqh3g","pricing_plan_id":"cebpf4jnsgd1na2vs0mg"},{"bike_id":"3d2d6044-6185-4c45-8ef2-14dfc8377c45","system_id":"levelo_inurba_marseille","lat":43.32107,"lon":5.36802,"is_reserved":false,"is_disabled":false,"rental_uris":{"android":"levelo://app?vid=3d2d6044-6185-4c45-8ef2-14dfc8377c45","ios":"levelo://app?vid=3d2d6044-6185-4c45-8ef2-14dfc8377c45"},"vehicle_type_id":"4","last_reported":1750457376,"current_range_meters":17600,"station_id":"ce4bhrh2rcd13ifvqhug","pricing_plan_id":"cebpf4jnsgd1na2vs0mg"},{"bike_id":"03ea5fdf-8557-4a5d-90ed-589b652c2249","system_id":"levelo_inurba_marseille","lat":43.32478,"lon":5.36568,"is_reserved":false,"is_disabled":false,"rental_uris":{"android":"levelo://app?vid=03ea5fdf-8557-4a5d-90ed-589b652c2249","ios":"levelo://app?vid=03ea5fdf-8557-4a5d-90ed-589b652c2249"},"vehicle_type_id":"4","last_reported":1750457376,"current_range_meters":17600,"station_id":"ce4bhs12rcd13ifvqhvg","pricing_plan_id":"cebpf4jnsgd1na2vs0mg"},{"bike_id":"6a552aca-b8e1-4a1e-b8e6-479d04a8300b","system_id":"levelo_inurba_marseille","lat":43.24167,"lon":5.36396,"is_reserved":false,"is_disabled":false,"rental_uris":{"android":"levelo://app?vid=6a552aca-b8e1-4a1e-b8e6-479d04a8300b","ios":"levelo://app?vid=6a552aca-b8e1-4a1e-b8e6-479d04a8300b"},"vehicle_type_id":"4","last_reported":1750457376,"current_range_meters":17600,"station_id":"cpo36qri1sfpv3e86is0","pricing_plan_id":"cebpf4jnsgd1na2vs0mg"},{"bike_id":"aa53e99a-9710-43ed-aeb3-6d75a5145850","system_id":"levelo_inurba_marseille","lat":43.30253,"lon":5.40073,"is_reserved":false,"is_disabled":false,"rental_uris":{"android":"levelo://app?vid=aa53e99a-9710-43ed-aeb3-6d75a5145850","ios":"levelo://app?vid=aa53e99a-9710-43ed-aeb3-6d75a5145850"},"vehicle_type_id":"4","last_reported":1750457376,"current_range_meters":18000,"station_id":"ce4bgvh2rcd13ifvqcs0","pricing_plan_id":"cebpf4jnsgd1na2vs0mg"},{"bike_id":"199e2f09-3415-4bcb-9b4d-540e87bba859","system_id":"levelo_inurba_marseille","lat":43.2928,"lon":5.38468,"is_reserved":false,"is_disabled":false,"rental_uris":{"android":"levelo://app?vid=199e2f09-3415-4bcb-9b4d-540e87bba859","ios":"levelo://app?vid=199e2f09-3415-4bcb-9b4d-540e87bba859"},"vehicle_type_id":"4","last_reported":1750457376,"current_range_meters":18000,"station_id":"ce4bh692rcd13ifvqea0","pricing_plan_id":"cebpf4jnsgd1na2vs0mg"},{"bike_id":"aea6b63d-b8c8-470d-8cb9-44713d906bbb","system_id":"levelo_inurba_marseille","lat":43.259674,"lon":5.396666,"is_reserved":false,"is_disabled":false,"rental_uris":{"android":"levelo://app?vid=aea6b63d-b8c8-470d-8cb9-44713d906bbb","ios":"levelo://app?vid=aea6b63d-b8c8-470d-8cb9-44713d906bbb"},"vehicle_type_id":"4","last_reported":1750457376,"current_range_meters":18000,"station_id":"ce4bhh92rcd13ifvqfj0","pricing_plan_id":"cebpf4jnsgd1na2vs0mg"},{"bike_id":"9fe7422a-7e0c-45dc-804e-d6475625cc7d","system_id":"levelo_inurba_marseille","lat":43.26216,"lon":5.40458,"is_reserved":false,"is_disabled":false,"rental_uris":{"android":"levelo://app?vid=9fe7422a-7e0c-45dc-804e-d6475625cc7d","ios":"levelo://app?vid=9fe7422a-7e0c-45dc-804e-d6475625cc7d"},"vehicle_type_id":"4","last_reported":1750457376,"current_range_meters":18000,"station_id":"ce4bhmh2rcd13ifvqgmg","pricing_plan_id":"cebpf4jnsgd1na2vs0mg"},{"bike_id":"280aedab-328f-4555-abae-9ef1b83c26cf","system_id":"levelo_inurba_marseille","lat":43.26805,"lon":5.40266,"is_reserved":false,"is_disabled":false,"rental_uris":{"android":"levelo://app?vid=280aedab-328f-4555-abae-9ef1b83c26cf","ios":"levelo://app?vid=280aedab-328f-4555-abae-9ef1b83c26cf"},"vehicle_type_id":"4","last_reported":1750457376,"current_range_meters":18000,"station_id":"ce501612rcd8frsf0b60","pricing_plan_id":"cebpf4jnsgd1na2vs0mg"},{"bike_id":"38b4578b-d322-4ae7-86ef-2a7e9839b4fd","system_id":"levelo_inurba_marseille","lat":43.21183,"lon":5.3508,"is_reserved":false,"is_disabled":false,"rental_uris":{"android":"levelo://app?vid=38b4578b-d322-4ae7-86ef-2a7e9839b4fd","ios":"levelo://app?vid=38b4578b-d322-4ae7-86ef-2a7e9839b4fd"},"vehicle_type_id":"4","last_reported":1750457376,"current_range_meters":18000,"station_id":"st_cvj6sg6p6f1abm77japg","pricing_plan_id":"cebpf4jnsgd1na2vs0mg"},{"bike_id":"4652fcd3-8fa3-4f43-ac1d-f66153d7f3b7","system_id":"levelo_inurba_marseille","lat":43.28223,"lon":5.40353,"is_reserved":false,"is_disabled":false,"rental_uris":{"android":"levelo://app?vid=4652fcd3-8fa3-4f43-ac1d-f66153d7f3b7","ios":"levelo://app?vid=4652fcd3-8fa3-4f43-ac1d-f66153d7f3b7"},"vehicle_type_id":"4","last_reported":1750457376,"current_range_meters":18800,"station_id":"","pricing_plan_id":"cebpf4jnsgd1na2vs0mg"},{"bike_id":"f6069a5d-a2bc-44cc-bc6f-f26f79591d92","system_id":"levelo_inurba_marseille","lat":43.30779,"lon":5.37363,"is_reserved":false,"is_disabled":false,"rental_uris":{"android":"levelo://app?vid=f6069a5d-a2bc-44cc-bc6f-f26f79591d92","ios":"levelo://app?vid=f6069a5d-a2bc-44cc-bc6f-f26f79591d92"},"vehicle_type_id":"4","last_reported":1750457376,"current_range_meters":18800,"station_id":"","pricing_plan_id":"cebpf4jnsgd1na2vs0mg"},{"bike_id":"a03a949d-876f-42db-9564-0aeae678fff4","system_id":"levelo_inurba_marseille","lat":43.29399,"lon":5.44338,"is_reserved":false,"is_disabled":false,"rental_uris":{"android":"levelo://app?vid=a03a949d-876f-42db-9564-0aeae678fff4","ios":"levelo://app?vid=a03a949d-876f-42db-9564-0aeae678fff4"},"vehicle_type_id":"4","last_reported":1750457376,"current_range_meters":18800,"station_id":"","pricing_plan_id":"cebpf4jnsgd1na2vs0mg"},{"bike_id":"e5f3d591-c276-4e15-9f76-19835d00f9f4","system_id":"levelo_inurba_marseille","lat":43.31331,"lon":5.39684,"is_reserved":false,"is_disabled":false,"rental_uris":{"android":"levelo://app?vid=e5f3d591-c276-4e15-9f76-19835d00f9f4","ios":"levelo://app?vid=e5f3d591-c276-4e15-9f76-19835d00f9f4"},"vehicle_type_id":"4","last_reported":1750457376,"current_range_meters":18800,"station_id":"ce4bgvp2rcd13ifvqcu0","pricing_plan_id":"cebpf4jnsgd1na2vs0mg"},{"bike_id":"ef63bf4d-6c01-4a74-86e9-35921c48f925","system_id":"levelo_inurba_marseille","lat":43.30642,"lon":5.40102,"is_reserved":false,"is_disabled":false,"rental_uris":{"android":"levelo://app?vid=ef63bf4d-6c01-4a74-86e9-35921c48f925","ios":"levelo://app?vid=ef63bf4d-6c01-4a74-86e9-35921c48f925"},"vehicle_type_id":"4","last_reported":1750457376,"current_range_meters":18800,"station_id":"ce4bh112rcd13ifvqda0","pricing_plan_id":"cebpf4jnsgd1na2vs0mg"},{"bike_id":"158d0da7-c589-460b-96fc-258344da89ec","system_id":"levelo_inurba_marseille","lat":43.30648,"lon":5.40104,"is_reserved":false,"is_disabled":false,"rental_uris":{"android":"levelo://app?vid=158d0da7-c589-460b-96fc-258344da89ec","ios":"levelo://app?vid=158d0da7-c589-460b-96fc-258344da89ec"},"vehicle_type_id":"4","last_reported":1750457376,"current_range_meters":18800,"station_id":"ce4bh112rcd13ifvqda0","pricing_plan_id":"cebpf4jnsgd1na2vs0mg"},{"bike_id":"516c9aa9-3a48-433d-a841-8d5f0167a747","system_id":"levelo_inurba_marseille","lat":43.29263,"lon":5.38434,"is_reserved":false,"is_disabled":false,"rental_uris":{"android":"levelo://app?vid=516c9aa9-3a48-433d-a841-8d5f0167a747","ios":"levelo://app?vid=516c9aa9-3a48-433d-a841-8d5f0167a747"},"vehicle_type_id":"4","last_reported":1750457376,"current_range_meters":18800,"station_id":"ce4bh692rcd13ifvqea0","pricing_plan_id":"cebpf4jnsgd1na2vs0mg"},{"bike_id":"38872e81-26e7-41d0-9e1b-7428bd27f5ce","system_id":"levelo_inurba_marseille","lat":43.27057,"lon":5.40257,"is_reserved":false,"is_disabled":false,"rental_uris":{"android":"levelo://app?vid=38872e81-26e7-41d0-9e1b-7428bd27f5ce","ios":"levelo://app?vid=38872e81-26e7-41d0-9e1b-7428bd27f5ce"},"vehicle_type_id":"4","last_reported":1750457376,"current_range_meters":18800,"station_id":"ce4bhk92rcd13ifvqgc0","pricing_plan_id":"cebpf4jnsgd1na2vs0mg"},{"bike_id":"99dc3a14-a71c-4990-a260-71f7e3415852","system_id":"levelo_inurba_marseille","lat":43.32663,"lon":5.40986,"is_reserved":false,"is_disabled":false,"rental_uris":{"android":"levelo://app?vid=99dc3a14-a71c-4990-a260-71f7e3415852","ios":"levelo://app?vid=99dc3a14-a71c-4990-a260-71f7e3415852"},"vehicle_type_id":"4","last_reported":1750457376,"current_range_meters":18800,"station_id":"ce4bhpp2rcd13ifvqhgg","pricing_plan_id":"cebpf4jnsgd1na2vs0mg"},{"bike_id":"36db57a7-8739-4660-a73c-c3370e2d458e","system_id":"levelo_inurba_marseille","lat":43.23191,"lon":5.35553,"is_reserved":false,"is_disabled":false,"rental_uris":{"android":"levelo://app?vid=36db57a7-8739-4660-a73c-c3370e2d458e","ios":"levelo://app?vid=36db57a7-8739-4660-a73c-c3370e2d458e"},"vehicle_type_id":"4","last_reported":1750457376,"current_range_meters":18800,"station_id":"ce4bhu92rcd13ifvqi70","pricing_plan_id":"cebpf4jnsgd1na2vs0mg"},{"bike_id":"34894e1d-f66e-41f7-b520-f7f215a5970f","system_id":"levelo_inurba_marseille","lat":43.29547,"lon":5.3852,"is_reserved":false,"is_disabled":false,"rental_uris":{"android":"levelo://app?vid=34894e1d-f66e-41f7-b520-f7f215a5970f","ios":"levelo://app?vid=34894e1d-f66e-41f7-b520-f7f215a5970f"},"vehicle_type_id":"4","last_reported":1750457376,"current_range_meters":19200,"station_id":"ce4bgih2rcd13ifvqba0","pricing_plan_id":"cebpf4jnsgd1na2vs0mg"},{"bike_id":"53f0d31e-6ed1-4617-aa9f-417393a9af68","system_id":"levelo_inurba_marseille","lat":43.30442,"lon":5.38894,"is_reserved":false,"is_disabled":false,"rental_uris":{"android":"levelo://app?vid=53f0d31e-6ed1-4617-aa9f-417393a9af68","ios":"levelo://app?vid=53f0d31e-6ed1-4617-aa9f-417393a9af68"},"vehicle_type_id":"4","last_reported":1750457376,"current_range_meters":19200,"station_id":"ce4bgk12rcd13ifvqbi0","pricing_plan_id":"cebpf4jnsgd1na2vs0mg"},{"bike_id":"33cce91d-cc80-4ac1-92f5-56e7263a34c4","system_id":"levelo_inurba_marseille","lat":43.31687,"lon":5.40476,"is_reserved":false,"is_disabled":false,"rental_uris":{"android":"levelo://app?vid=33cce91d-cc80-4ac1-92f5-56e7263a34c4","ios":"levelo://app?vid=33cce91d-cc80-4ac1-92f5-56e7263a34c4"},"vehicle_type_id":"4","last_reported":1750457376,"current_range_meters":19200,"station_id":"ce4bh012rcd13ifvqd00","pricing_plan_id":"cebpf4jnsgd1na2vs0mg"},{"bike_id":"fbc199d6-3034-471f-93d1-c5e90231f3e0","system_id":"levelo_inurba_marseille","lat":43.29876,"lon":5.39714,"is_reserved":false,"is_disabled":false,"rental_uris":{"android":"levelo://app?vid=fbc199d6-3034-471f-93d1-c5e90231f3e0","ios":"levelo://app?vid=fbc199d6-3034-471f-93d1-c5e90231f3e0"},"vehicle_type_id":"4","last_reported":1750457376,"current_range_meters":19200,"station_id":"ce4bh0h2rcd13ifvqd50","pricing_plan_id":"cebpf4jnsgd1na2vs0mg"},{"bike_id":"60873ee6-8485-416b-932a-610150096c85","system_id":"levelo_inurba_marseille","lat":43.27384,"lon":5.36263,"is_reserved":false,"is_disabled":false,"rental_uris":{"android":"levelo://app?vid=60873ee6-8485-416b-932a-610150096c85","ios":"levelo://app?vid=60873ee6-8485-416b-932a-610150096c85"},"vehicle_type_id":"4","last_reported":1750457376,"current_range_meters":19200,"station_id":"ce4bhbh2rcd13ifvqeo0","pricing_plan_id":"cebpf4jnsgd1na2vs0mg"},{"bike_id":"c97f21c3-a4d5-4c44-8db8-7b4057367130","system_id":"levelo_inurba_marseille","lat":43.27381,"lon":5.36257,"is_reserved":false,"is_disabled":false,"rental_uris":{"android":"levelo://app?vid=c97f21c3-a4d5-4c44-8db8-7b4057367130","ios":"levelo://app?vid=c97f21c3-a4d5-4c44-8db8-7b4057367130"},"vehicle_type_id":"4","last_reported":1750457376,"current_range_meters":19200,"station_id":"ce4bhbh2rcd13ifvqeo0","pricing_plan_id":"cebpf4jnsgd1na2vs0mg"},{"bike_id":"37320e13-0a94-4964-94c3-a05e1a398188","system_id":"levelo_inurba_marseille","lat":43.26567,"lon":5.39002,"is_reserved":false,"is_disabled":false,"rental_uris":{"android":"levelo://app?vid=37320e13-0a94-4964-94c3-a05e1a398188","ios":"levelo://app?vid=37320e13-0a94-4964-94c3-a05e1a398188"},"vehicle_type_id":"4","last_reported":1750457376,"current_range_meters":19200,"station_id":"ce4bhe12rcd13ifvqf30","pricing_plan_id":"cebpf4jnsgd1na2vs0mg"},{"bike_id":"b7d55246-2d80-4411-a229-3df792ae35bb","system_id":"levelo_inurba_marseille","lat":43.26212,"lon":5.37437,"is_reserved":false,"is_disabled":false,"rental_uris":{"android":"levelo://app?vid=b7d55246-2d80-4411-a229-3df792ae35bb","ios":"levelo://app?vid=b7d55246-2d80-4411-a229-3df792ae35bb"},"vehicle_type_id":"4","last_reported":1750457376,"current_range_meters":19200,"station_id":"ce4bhgp2rcd13ifvqfc0","pricing_plan_id":"cebpf4jnsgd1na2vs0mg"},{"bike_id":"0402393b-0a37-489d-b216-688378ef487e","system_id":"levelo_inurba_marseille","lat":43.264878,"lon":5.395498,"is_reserved":false,"is_disabled":false,"rental_uris":{"android":"levelo://app?vid=0402393b-0a37-489d-b216-688378ef487e","ios":"levelo://app?vid=0402393b-0a37-489d-b216-688378ef487e"},"vehicle_type_id":"4","last_reported":1750457376,"current_range_meters":19200,"station_id":"ce4bhi12rcd13ifvqfq0","pricing_plan_id":"cebpf4jnsgd1na2vs0mg"},{"bike_id":"b5223d4d-4319-49c8-a89e-49fc64e254be","system_id":"levelo_inurba_marseille","lat":43.26803,"lon":5.40268,"is_reserved":false,"is_disabled":false,"rental_uris":{"android":"levelo://app?vid=b5223d4d-4319-49c8-a89e-49fc64e254be","ios":"levelo://app?vid=b5223d4d-4319-49c8-a89e-49fc64e254be"},"vehicle_type_id":"4","last_reported":1750457376,"current_range_meters":19200,"station_id":"ce501612rcd8frsf0b60","pricing_plan_id":"cebpf4jnsgd1na2vs0mg"},{"bike_id":"04b016b0-78f2-4a40-9df3-2f41fff75a5c","system_id":"levelo_inurba_marseille","lat":43.21179,"lon":5.35085,"is_reserved":false,"is_disabled":false,"rental_uris":{"android":"levelo://app?vid=04b016b0-78f2-4a40-9df3-2f41fff75a5c","ios":"levelo://app?vid=04b016b0-78f2-4a40-9df3-2f41fff75a5c"},"vehicle_type_id":"4","last_reported":1750457376,"current_range_meters":19200,"station_id":"st_cvj6sg6p6f1abm77japg","pricing_plan_id":"cebpf4jnsgd1na2vs0mg"},{"bike_id":"6ffdc31d-af2f-445e-8aa8-5e7b61234393","system_id":"levelo_inurba_marseille","lat":43.30538,"lon":5.38432,"is_reserved":false,"is_disabled":false,"rental_uris":{"android":"levelo://app?vid=6ffdc31d-af2f-445e-8aa8-5e7b61234393","ios":"levelo://app?vid=6ffdc31d-af2f-445e-8aa8-5e7b61234393"},"vehicle_type_id":"4","last_reported":1750457376,"current_range_meters":19600,"station_id":"ce4bgg92rcd13ifvqb30","pricing_plan_id":"cebpf4jnsgd1na2vs0mg"},{"bike_id":"e61ce1e2-2177-4ced-a6a8-643ca75ca163","system_id":"levelo_inurba_marseille","lat":43.29605,"lon":5.38106,"is_reserved":false,"is_disabled":false,"rental_uris":{"android":"levelo://app?vid=e61ce1e2-2177-4ced-a6a8-643ca75ca163","ios":"levelo://app?vid=e61ce1e2-2177-4ced-a6a8-643ca75ca163"},"vehicle_type_id":"4","last_reported":1750457376,"current_range_meters":19600,"station_id":"ce4bgl12rcd13ifvqbo0","pricing_plan_id":"cebpf4jnsgd1na2vs0mg"},{"bike_id":"5e009fb5-ddaf-4089-9f37-5bfe598594e5","system_id":"levelo_inurba_marseille","lat":43.30144,"lon":5.37412,"is_reserved":false,"is_disabled":false,"rental_uris":{"android":"levelo://app?vid=5e009fb5-ddaf-4089-9f37-5bfe598594e5","ios":"levelo://app?vid=5e009fb5-ddaf-4089-9f37-5bfe598594e5"},"vehicle_type_id":"4","last_reported":1750457376,"current_range_meters":19600,"station_id":"ce4bgs92rcd13ifvqcc0","pricing_plan_id":"cebpf4jnsgd1na2vs0mg"},{"bike_id":"c4ebfae8-6667-477d-97dc-075e749c5773","system_id":"levelo_inurba_marseille","lat":43.30812,"lon":5.3816,"is_reserved":false,"is_disabled":false,"rental_uris":{"android":"levelo://app?vid=c4ebfae8-6667-477d-97dc-075e749c5773","ios":"levelo://app?vid=c4ebfae8-6667-477d-97dc-075e749c5773"},"vehicle_type_id":"4","last_reported":1750457376,"current_range_meters":19600,"station_id":"ce4bgt12rcd13ifvqce0","pricing_plan_id":"cebpf4jnsgd1na2vs0mg"},{"bike_id":"e0170545-b6ce-4d40-a456-f8850d8484c6","system_id":"levelo_inurba_marseille","lat":43.28688,"lon":5.38682,"is_reserved":false,"is_disabled":false,"rental_uris":{"android":"levelo://app?vid=e0170545-b6ce-4d40-a456-f8850d8484c6","ios":"levelo://app?vid=e0170545-b6ce-4d40-a456-f8850d8484c6"},"vehicle_type_id":"4","last_reported":1750457376,"current_range_meters":19600,"station_id":"ce4bh492rcd13ifvqdug","pricing_plan_id":"cebpf4jnsgd1na2vs0mg"},{"bike_id":"e73743fb-4473-4d9e-b870-527d8be14fb8","system_id":"levelo_inurba_marseille","lat":43.290302,"lon":5.386536,"is_reserved":false,"is_disabled":false,"rental_uris":{"android":"levelo://app?vid=e73743fb-4473-4d9e-b870-527d8be14fb8","ios":"levelo://app?vid=e73743fb-4473-4d9e-b870-527d8be14fb8"},"vehicle_type_id":"4","last_reported":1750457376,"current_range_meters":19600,"station_id":"ce4bh4p2rcd13ifvqe0g","pricing_plan_id":"cebpf4jnsgd1na2vs0mg"},{"bike_id":"51be0e33-bab3-436c-9ff1-0d8a0a4a5d9b","system_id":"levelo_inurba_marseille","lat":43.28936,"lon":5.36645,"is_reserved":false,"is_disabled":false,"rental_uris":{"android":"levelo://app?vid=51be0e33-bab3-436c-9ff1-0d8a0a4a5d9b","ios":"levelo://app?vid=51be0e33-bab3-436c-9ff1-0d8a0a4a5d9b"},"vehicle_type_id":"4","last_reported":1750457376,"current_range_meters":19600,"station_id":"ce4bhap2rcd13ifvqek0","pricing_plan_id":"cebpf4jnsgd1na2vs0mg"},{"bike_id":"cdd10c27-bb37-43f9-a45f-6d6467db1eb2","system_id":"levelo_inurba_marseille","lat":43.28856,"lon":5.35865,"is_reserved":false,"is_disabled":false,"rental_uris":{"android":"levelo://app?vid=cdd10c27-bb37-43f9-a45f-6d6467db1eb2","ios":"levelo://app?vid=cdd10c27-bb37-43f9-a45f-6d6467db1eb2"},"vehicle_type_id":"4","last_reported":1750457376,"current_range_meters":19600,"station_id":"ce4bhb12rcd13ifvqem0","pricing_plan_id":"cebpf4jnsgd1na2vs0mg"},{"bike_id":"dfd756b8-fa15-44c7-aa7b-77d2639df926","system_id":"levelo_inurba_marseille","lat":43.26224,"lon":5.40465,"is_reserved":false,"is_disabled":false,"rental_uris":{"android":"levelo://app?vid=dfd756b8-fa15-44c7-aa7b-77d2639df926","ios":"levelo://app?vid=dfd756b8-fa15-44c7-aa7b-77d2639df926"},"vehicle_type_id":"4","last_reported":1750457376,"current_range_meters":19600,"station_id":"ce4bhmh2rcd13ifvqgmg","pricing_plan_id":"cebpf4jnsgd1na2vs0mg"},{"bike_id":"30394dbe-dfcb-45a5-a04f-6e2aa8ec2457","system_id":"levelo_inurba_marseille","lat":43.28706,"lon":5.3999,"is_reserved":false,"is_disabled":false,"rental_uris":{"android":"levelo://app?vid=30394dbe-dfcb-45a5-a04f-6e2aa8ec2457","ios":"levelo://app?vid=30394dbe-dfcb-45a5-a04f-6e2aa8ec2457"},"vehicle_type_id":"4","last_reported":1750457376,"current_range_meters":19600,"station_id":"ce4bho92rcd13ifvqh3g","pricing_plan_id":"cebpf4jnsgd1na2vs0mg"},{"bike_id":"1c6eee43-889f-4cff-bc8c-307447a31830","system_id":"levelo_inurba_marseille","lat":43.30792,"lon":5.43517,"is_reserved":false,"is_disabled":false,"rental_uris":{"android":"levelo://app?vid=1c6eee43-889f-4cff-bc8c-307447a31830","ios":"levelo://app?vid=1c6eee43-889f-4cff-bc8c-307447a31830"},"vehicle_type_id":"4","last_reported":1750457376,"current_range_meters":19600,"station_id":"ce4bhph2rcd13ifvqheg","pricing_plan_id":"cebpf4jnsgd1na2vs0mg"},{"bike_id":"4d80d21e-3dc9-4004-a3c0-eb7b371a8ccf","system_id":"levelo_inurba_marseille","lat":43.33016,"lon":5.39426,"is_reserved":false,"is_disabled":false,"rental_uris":{"android":"levelo://app?vid=4d80d21e-3dc9-4004-a3c0-eb7b371a8ccf","ios":"levelo://app?vid=4d80d21e-3dc9-4004-a3c0-eb7b371a8ccf"},"vehicle_type_id":"4","last_reported":1750457376,"current_range_meters":20000,"station_id":"","pricing_plan_id":"cebpf4jnsgd1na2vs0mg"},{"bike_id":"26b95de5-0df1-4b0c-a6b0-36a0496ae321","system_id":"levelo_inurba_marseille","lat":43.30112,"lon":5.39158,"is_reserved":false,"is_disabled":false,"rental_uris":{"android":"levelo://app?vid=26b95de5-0df1-4b0c-a6b0-36a0496ae321","ios":"levelo://app?vid=26b95de5-0df1-4b0c-a6b0-36a0496ae321"},"vehicle_type_id":"4","last_reported":1750457376,"current_range_meters":20000,"station_id":"","pricing_plan_id":"cebpf4jnsgd1na2vs0mg"},{"bike_id":"50db237d-da14-49fe-9ddd-a9ce47cdf5bb","system_id":"levelo_inurba_marseille","lat":43.30656,"lon":5.40069,"is_reserved":false,"is_disabled":false,"rental_uris":{"android":"levelo://app?vid=50db237d-da14-49fe-9ddd-a9ce47cdf5bb","ios":"levelo://app?vid=50db237d-da14-49fe-9ddd-a9ce47cdf5bb"},