{"last_updated":1762636117,"ttl":60,"version":"2.2","data":{"bikes":[{"bike_id":"32c4054d-c111-4f1c-b188-9138aed42210","system_id":"levelo_inurba_marseille","lat":43.31989,"lon":5.41562,"is_reserved":false,"is_disabled":false,"rental_uris":{"android":"levelo://app?vid=32c4054d-c111-4f1c-b188-9138aed42210","ios":"levelo://app?vid=32c4054d-c111-4f1c-b188-9138aed42210"},"vehicle_type_id":"4","last_reported":1762636117,"current_range_meters":2800,"station_id":"","pricing_plan_id":"cebpf4jnsgd1na2vs0mg"},{"bike_id":"3b1a578d-3101-40bb-8290-41e83e21f557","system_id":"levelo_inurba_marseille","lat":43.2916,"lon":5.37168,"is_reserved":false,"is_disabled":false,"rental_uris":{"android":"levelo://app?vid=3b1a578d-3101-40bb-8290-41e83e21f557","ios":"levelo://app?vid=3b1a578d-3101-40bb-8290-41e83e21f557"},"vehicle_type_id":"4","last_reported":1762636117,"current_range_meters":2800,"station_id":"ce4bha92rcd13ifvqeh0","pricing_plan_id":"cebpf4jnsgd1na2vs0mg"},{"bike_id":"062bdfd2-f47f-4e5a-9631-f5157c1eb45c","system_id":"levelo_inurba_marseille","lat":43.30376,"lon":5.42478,"is_reserved":false,"is_disabled":false,"rental_uris":{"android":"levelo://app?vid=062bdfd2-f47f-4e5a-9631-f5157c1eb45c","ios":"levelo://app?vid=062bdfd2-f47f-4e5a-9631-f5157c1eb45c"},"vehicle_type_id":"4","last_reported":1762636117,"current_range_meters":2800,"station_id":"ce4bhoh2rcd13ifvqh6g","pricing_plan_id":"cebpf4jnsgd1na2vs0mg"},{"bike_id":"09f3f562-eab9-412f-987a-f129fa79bf87","system_id":"levelo_inurba_marseille","lat":43.30798,"lon":5.37653,"is_reserved":false,"is_disabled":false,"rental_uris":{"android":"levelo://app?vid=09f3f562-eab9-412f-987a-f129fa79bf87","ios":"levelo://app?vid=09f3f562-eab9-412f-987a-f129fa79bf87"},"vehicle_type_id":"4","last_reported":1762636117,"current_range_meters":3200,"station_id":"ce4bgv92rcd13ifvqcq0","pricing_plan_id":"cebpf4jnsgd1na2vs0mg"},{"bike_id":"429aad4e-7394-4c87-b4da-3286a41a455f","system_id":"levelo_inurba_marseille","lat":43.28939,"lon":5.36641,"is_reserved":false,"is_disabled":false,"rental_uris":{"android":"levelo://app?vid=429aad4e-7394-4c87-b4da-3286a41a455f","ios":"levelo://app?vid=429aad4e-7394-4c87-b4da-3286a41a455f"},"vehicle_type_id":"4","last_reported":1762636117,"current_range_meters":3200,"station_id":"ce4bhap2rcd13ifvqek0","pricing_plan_id":"cebpf4jnsgd1na2vs0mg"},{"bike_id":"daf94b15-a263-4b78-b809-84de8b4794fe","system_id":"levelo_inurba_marseille","lat":43.308053,"lon":5.381461,"is_reserved":false,"is_disabled":false,"rental_uris":{"android":"levelo://app?vid=daf94b15-a263-4b78-b809-84de8b4794fe","ios":"levelo://app?vid=daf94b15-a263-4b78-b809-84de8b4794fe"},"vehicle_type_id":"4","last_reported":1762636117,"current_range_meters":3200,"station_id":"ce4bgt12rcd13ifvqce0","pricing_plan_id":"cebpf4jnsgd1na2vs0mg"},{"bike_id":"d14dfc30-3ac3-42b6-a3e4-44a3da00e75a","system_id":"levelo_inurba_marseille","lat":43.32288,"lon":5.38272,"is_reserved":false,"is_disabled":false,"rental_uris":{"android":"levelo://app?vid=d14dfc30-3ac3-42b6-a3e4-44a3da00e75a","ios":"levelo://app?vid=d14dfc30-3ac3-42b6-a3e4-44a3da00e75a"},"vehicle_type_id":"4","last_reported":1762636117,"current_range_meters":3200,"station_id":"ce4bhr12rcd13ifvqhqg","pricing_plan_id":"cebpf4jnsgd1na2vs0mg"},{"bike_id":"e774e600-3d8a-4b13-a1e6-9aa67ac84e1b","system_id":"levelo_inurba_marseille","lat":43.25936,"lon":5.40884,"is_reserved":false,"is_disabled":false,"rental_uris":{"android":"levelo://app?vid=e774e600-3d8a-4b13-a1e6-9aa67ac84e1b","ios":"levelo://app?vid=e774e600-3d8a-4b13-a1e6-9aa67ac84e1b"},"vehicle_type_id":"4","last_reported":1762636117,"current_range_meters":3200,"station_id":"ce4bhm92rcd13ifvqglg","pricing_plan_id":"cebpf4jnsgd1na2vs0mg"},{"bike_id":"ab3a4d6b-b442-44b9-8f02-c1c222f445ba","system_id":"levelo_inurba_marseille","lat":43.274453,"lon":5.392735,"is_reserved":false,"is_disabled":false,"rental_uris":{"android":"levelo://app?vid=ab3a4d6b-b442-44b9-8f02-c1c222f445ba","ios":"levelo://app?vid=ab3a4d6b-b442-44b9-8f02-c1c222f445ba"},"vehicle_type_id":"4","last_reported":1762636117,"current_range_meters":3600,"station_id":"","pricing_plan_id":"cebpf4jnsgd1na2vs0mg"},{"bike_id":"95cc5629-bf48-4a4a-b925-ef85da30b57d","system_id":"levelo_inurba_marseille","lat":43.23962,"lon":5.36635,"is_reserved":false,"is_disabled":false,"rental_uris":{"android":"levelo://app?vid=95cc5629-bf48-4a4a-b925-ef85da30b57d","ios":"levelo://app?vid=95cc5629-bf48-4a4a-b925-ef85da30b57d"},"vehicle_type_id":"4","last_reported":1762636117,"current_range_meters":3600,"station_id":"ce4bhi12rcd13ifvqfp0","pricing_plan_id":"cebpf4jnsgd1na2vs0mg"},{"bike_id":"acdc7342-c1a6-4a70-b129-b9cf7ad80643","system_id":"levelo_inurba_marseille","lat":43.21207,"lon":5.35046,"is_reserved":false,"is_disabled":false,"rental_uris":{"android":"levelo://app?vid=acdc7342-c1a6-4a70-b129-b9cf7ad80643","ios":"levelo://app?vid=acdc7342-c1a6-4a70-b129-b9cf7ad80643"},"vehicle_type_id":"4","last_reported":1762636117,"current_range_meters":3600,"station_id":"st_cvj6sg6p6f1abm77japg","pricing_plan_id":"cebpf4jnsgd1na2vs0mg"},{"bike_id":"75bc333b-dfc1-46da-a386-e67c86771450","system_id":"levelo_inurba_marseille","lat":43.30167,"lon":5.38562,"is_reserved":false,"is_disabled":false,"rental_uris":{"android":"levelo://app?vid=75bc333b-dfc1-46da-a386-e67c86771450","ios":"levelo://app?vid=75bc333b-dfc1-46da-a386-e67c86771450"},"vehicle_type_id":"4","last_reported":1762636117,"current_range_meters":3600,"station_id":"","pricing_plan_id":"cebpf4jnsgd1na2vs0mg"},{"bike_id":"e2b35188-dd5f-49f8-8c28-eeeda28cddae","system_id":"levelo_inurba_marseille","lat":43.29006,"lon":5.35609,"is_reserved":false,"is_disabled":false,"rental_uris":{"android":"levelo://app?vid=e2b35188-dd5f-49f8-8c28-eeeda28cddae","ios":"levelo://app?vid=e2b35188-dd5f-49f8-8c28-eeeda28cddae"},"vehicle_type_id":"4","last_reported":1762636117,"current_range_meters":4000,"station_id":"ce4bhb92rcd13ifvqen0","pricing_plan_id":"cebpf4jnsgd1na2vs0mg"},{"bike_id":"50681aa2-9bbc-4ce6-84c0-bdb838bbf7bc","system_id":"levelo_inurba_marseille","lat":43.26192,"lon":5.40222,"is_reserved":false,"is_disabled":false,"rental_uris":{"android":"levelo://app?vid=50681aa2-9bbc-4ce6-84c0-bdb838bbf7bc","ios":"levelo://app?vid=50681aa2-9bbc-4ce6-84c0-bdb838bbf7bc"},"vehicle_type_id":"4","last_reported":1762636117,"current_range_meters":4000,"station_id":"","pricing_plan_id":"cebpf4jnsgd1na2vs0mg"},{"bike_id":"964c6a1d-247c-49b9-bc4d-13e9e5309efe","system_id":"levelo_inurba_marseille","lat":43.30799,"lon":5.43501,"is_reserved":false,"is_disabled":false,"rental_uris":{"android":"levelo://app?vid=964c6a1d-247c-49b9-bc4d-13e9e5309efe","ios":"levelo://app?vid=964c6a1d-247c-49b9-bc4d-13e9e5309efe"},"vehicle_type_id":"4","last_reported":1762636117,"current_range_meters":4000,"station_id":"","pricing_plan_id":"cebpf4jnsgd1na2vs0mg"},{"bike_id":"c76b0632-09dc-4e18-9336-125e1ada2021","system_id":"levelo_inurba_marseille","lat":43.26234,"lon":5.40444,"is_reserved":false,"is_disabled":false,"rental_uris":{"android":"levelo://app?vid=c76b0632-09dc-4e18-9336-125e1ada2021","ios":"levelo://app?vid=c76b0632-09dc-4e18-9336-125e1ada2021"},"vehicle_type_id":"4","last_reported":1762636117,"current_range_meters":4000,"station_id":"ce4bhmh2rcd13ifvqgmg","pricing_plan_id":"cebpf4jnsgd1na2vs0mg"},{"bike_id":"5b98d579-5d9e-4fea-93b7-a7307fb6f858","system_id":"levelo_inurba_marseille","lat":43.23801,"lon":5.36622,"is_reserved":false,"is_disabled":false,"rental_uris":{"android":"levelo://app?vid=5b98d579-5d9e-4fea-93b7-a7307fb6f858","ios":"levelo://app?vid=5b98d579-5d9e-4fea-93b7-a7307fb6f858"},"vehicle_type_id":"4","last_reported":1762636117,"current_range_meters":4400,"station_id":"","pricing_plan_id":"cebpf4jnsgd1na2vs0mg"},{"bike_id":"ef2fe57e-ecba-4765-96d3-8349654ec56e","system_id":"levelo_inurba_marseille","lat":43.32943,"lon":5.36412,"is_reserved":false,"is_disabled":false,"rental_uris":{"android":"levelo://app?vid=ef2fe57e-ecba-4765-96d3-8349654ec56e","ios":"levelo://app?vid=ef2fe57e-ecba-4765-96d3-8349654ec56e"},"vehicle_type_id":"4","last_reported":1762636117,"current_range_meters":4400,"station_id":"","pricing_plan_id":"cebpf4jnsgd1na2vs0mg"},{"bike_id":"d254002e-1245-4bba-849d-8d697a94a53a","system_id":"levelo_inurba_marseille","lat":43.28355,"lon":5.38617,"is_reserved":false,"is_disabled":false,"rental_uris":{"android":"levelo://app?vid=d254002e-1245-4bba-849d-8d697a94a53a","ios":"levelo://app?vid=d254002e-1245-4bba-849d-8d697a94a53a"},"vehicle_type_id":"4","last_reported":1762636117,"current_range_meters":4400,"station_id":"ce4bh492rcd13ifvqdvg","pricing_plan_id":"cebpf4jnsgd1na2vs0mg"},{"bike_id":"131f4db3-9c5a-4b46-beaf-9e3d47d35e64","system_id":"levelo_inurba_marseille","lat":43.29034,"lon":5.37562,"is_reserved":false,"is_disabled":false,"rental_uris":{"android":"levelo://app?vid=131f4db3-9c5a-4b46-beaf-9e3d47d35e64","ios":"levelo://app?vid=131f4db3-9c5a-4b46-beaf-9e3d47d35e64"},"vehicle_type_id":"4","last_reported":1762636117,"current_range_meters":4400,"station_id":"ce4bh692rcd13ifvqe90","pricing_plan_id":"cebpf4jnsgd1na2vs0mg"},{"bike_id":"b1afb781-0e0a-4c4c-b204-3104809e0681","system_id":"levelo_inurba_marseille","lat":43.30314,"lon":5.36897,"is_reserved":false,"is_disabled":false,"rental_uris":{"android":"levelo://app?vid=b1afb781-0e0a-4c4c-b204-3104809e0681","ios":"levelo://app?vid=b1afb781-0e0a-4c4c-b204-3104809e0681"},"vehicle_type_id":"4","last_reported":1762636117,"current_range_meters":4400,"station_id":"ce4bgqh2rcd13ifvqc5g","pricing_plan_id":"cebpf4jnsgd1na2vs0mg"},{"bike_id":"453544c8-c36c-4f75-a790-5c0405ae854f","system_id":"levelo_inurba_marseille","lat":43.25911,"lon":5.4087,"is_reserved":false,"is_disabled":false,"rental_uris":{"android":"levelo://app?vid=453544c8-c36c-4f75-a790-5c0405ae854f","ios":"levelo://app?vid=453544c8-c36c-4f75-a790-5c0405ae854f"},"vehicle_type_id":"4","last_reported":1762636117,"current_range_meters":4800,"station_id":"ce4bhm92rcd13ifvqglg","pricing_plan_id":"cebpf4jnsgd1na2vs0mg"},{"bike_id":"32fa44b7-ee72-495b-965a-2cf0bb7e4981","system_id":"levelo_inurba_marseille","lat":43.29829,"lon":5.38627,"is_reserved":false,"is_disabled":false,"rental_uris":{"android":"levelo://app?vid=32fa44b7-ee72-495b-965a-2cf0bb7e4981","ios":"levelo://app?vid=32fa44b7-ee72-495b-965a-2cf0bb7e4981"},"vehicle_type_id":"4","last_reported":1762636117,"current_range_meters":4800,"station_id":"","pricing_plan_id":"cebpf4jnsgd1na2vs0mg"},{"bike_id":"7cb7c994-0a97-4381-b44f-c752e16a74b5","system_id":"levelo_inurba_marseille","lat":43.28684,"lon":5.38666,"is_reserved":false,"is_disabled":false,"rental_uris":{"android":"levelo://app?vid=7cb7c994-0a97-4381-b44f-c752e16a74b5","ios":"levelo://app?vid=7cb7c994-0a97-4381-b44f-c752e16a74b5"},"vehicle_type_id":"4","last_reported":1762636117,"current_range_meters":4800,"station_id":"ce4bh492rcd13ifvqdug","pricing_plan_id":"cebpf4jnsgd1na2vs0mg"},{"bike_id":"e5387bed-1330-419a-bf00-a3d4728f86be","system_id":"levelo_inurba_marseille","lat":43.292999,"lon":5.371649,"is_reserved":false,"is_disabled":false,"rental_uris":{"android":"levelo://app?vid=e5387bed-1330-419a-bf00-a3d4728f86be","ios":"levelo://app?vid=e5387bed-1330-419a-bf00-a3d4728f86be"},"vehicle_type_id":"4","last_reported":1762636117,"current_range_meters":4800,"station_id":"","pricing_plan_id":"cebpf4jnsgd1na2vs0mg"},{"bike_id":"711b5184-06a1-46c6-b1ad-270408b914a4","system_id":"levelo_inurba_marseille","lat":43.29995,"lon":5.40966,"is_reserved":false,"is_disabled":false,"rental_uris":{"android":"levelo://app?vid=711b5184-06a1-46c6-b1ad-270408b914a4","ios":"levelo://app?vid=711b5184-06a1-46c6-b1ad-270408b914a4"},"vehicle_type_id":"4","last_reported":1762636117,"current_range_meters":5600,"station_id":"","pricing_plan_id":"cebpf4jnsgd1na2vs0mg"},{"bike_id":"095b568b-c81e-4951-933a-60d5eb895aff","system_id":"levelo_inurba_marseille","lat":43.25496,"lon":5.3765,"is_reserved":false,"is_disabled":false,"rental_uris":{"android":"levelo://app?vid=095b568b-c81e-4951-933a-60d5eb895aff","ios":"levelo://app?vid=095b568b-c81e-4951-933a-60d5eb895aff"},"vehicle_type_id":"4","last_reported":1762636117,"current_range_meters":5600,"station_id":"ce4bhh12rcd13ifvqff0","pricing_plan_id":"cebpf4jnsgd1na2vs0mg"},{"bike_id":"5d63f2aa-8446-4f1d-92da-1e2d5b4a6cc8","system_id":"levelo_inurba_marseille","lat":43.296642,"lon":5.377618,"is_reserved":false,"is_disabled":false,"rental_uris":{"android":"levelo://app?vid=5d63f2aa-8446-4f1d-92da-1e2d5b4a6cc8","ios":"levelo://app?vid=5d63f2aa-8446-4f1d-92da-1e2d5b4a6cc8"},"vehicle_type_id":"4","last_reported":1762636117,"current_range_meters":6000,"station_id":"","pricing_plan_id":"cebpf4jnsgd1na2vs0mg"},{"bike_id":"a3716004-cad2-41e7-b97e-3159d41d93cc","system_id":"levelo_inurba_marseille","lat":43.30153,"lon":5.38088,"is_reserved":false,"is_disabled":false,"rental_uris":{"android":"levelo://app?vid=a3716004-cad2-41e7-b97e-3159d41d93cc","ios":"levelo://app?vid=a3716004-cad2-41e7-b97e-3159d41d93cc"},"vehicle_type_id":"4","last_reported":1762636117,"current_range_meters":6000,"station_id":"ce4bgjp2rcd13ifvqbh0","pricing_plan_id":"cebpf4jnsgd1na2vs0mg"},{"bike_id":"c687f5b8-73fc-4bba-bdba-8dae557f7ae6","system_id":"levelo_inurba_marseille","lat":43.27376,"lon":5.36255,"is_reserved":false,"is_disabled":true,"rental_uris":{"android":"levelo://app?vid=c687f5b8-73fc-4bba-bdba-8dae557f7ae6","ios":"levelo://app?vid=c687f5b8-73fc-4bba-bdba-8dae557f7ae6"},"vehicle_type_id":"4","last_reported":1762636117,"current_range_meters":6000,"station_id":"ce4bhbh2rcd13ifvqeo0","pricing_plan_id":"cebpf4jnsgd1na2vs0mg"},{"bike_id":"cd36fb7c-4385-47bd-96a8-f8889a6e3476","system_id":"levelo_inurba_marseille","lat":43.29894,"lon":5.43665,"is_reserved":false,"is_disabled":false,"rental_uris":{"android":"levelo://app?vid=cd36fb7c-4385-47bd-96a8-f8889a6e3476","ios":"levelo://app?vid=cd36fb7c-4385-47bd-96a8-f8889a6e3476"},"vehicle_type_id":"4","last_reported":1762636117,"current_range_meters":6000,"station_id":"ce4bhpp2rcd13ifvqhfg","pricing_plan_id":"cebpf4jnsgd1na2vs0mg"},{"bike_id":"6580beb2-f281-473f-9ef4-7b331653ef2e","system_id":"levelo_inurba_marseille","lat":43.29128,"lon":5.40784,"is_reserved":false,"is_disabled":false,"rental_uris":{"android":"levelo://app?vid=6580beb2-f281-473f-9ef4-7b331653ef2e","ios":"levelo://app?vid=6580beb2-f281-473f-9ef4-7b331653ef2e"},"vehicle_type_id":"4","last_reported":1762636117,"current_range_meters":6000,"station_id":"","pricing_plan_id":"cebpf4jnsgd1na2vs0mg"},{"bike_id":"1017c9e7-ba27-4d6b-8c73-c18b768a4bc5","system_id":"levelo_inurba_marseille","lat":43.28464,"lon":5.35876,"is_reserved":false,"is_disabled":false,"rental_uris":{"android":"levelo://app?vid=1017c9e7-ba27-4d6b-8c73-c18b768a4bc5","ios":"levelo://app?vid=1017c9e7-ba27-4d6b-8c73-c18b768a4bc5"},"vehicle_type_id":"4","last_reported":1762636117,"current_range_meters":6000,"station_id":"ce4bhah2rcd13ifvqei0","pricing_plan_id":"cebpf4jnsgd1na2vs0mg"},{"bike_id":"f6cef8d5-8fe8-4923-948c-afab7026b14f","system_id":"levelo_inurba_marseille","lat":43.29805,"lon":5.39338,"is_reserved":false,"is_disabled":false,"rental_uris":{"android":"levelo://app?vid=f6cef8d5-8fe8-4923-948c-afab7026b14f","ios":"levelo://app?vid=f6cef8d5-8fe8-4923-948c-afab7026b14f"},"vehicle_type_id":"4","last_reported":1762636117,"current_range_meters":6000,"station_id":"chh1huq6cuj3fo74tm60","pricing_plan_id":"cebpf4jnsgd1na2vs0mg"},{"bike_id":"348bf609-07f6-4ffc-add0-6df7615d023f","system_id":"levelo_inurba_marseille","lat":43.337669,"lon":5.37438,"is_reserved":false,"is_disabled":false,"rental_uris":{"android":"levelo://app?vid=348bf609-07f6-4ffc-add0-6df7615d023f","ios":"levelo://app?vid=348bf609-07f6-4ffc-add0-6df7615d023f"},"vehicle_type_id":"4","last_reported":1762636117,"current_range_meters":6000,"station_id":"","pricing_plan_id":"cebpf4jnsgd1na2vs0mg"},{"bike_id":"17cc7201-85fb-4c4b-afa1-9aa139657a40","system_id":"levelo_inurba_marseille","lat":43.31941,"lon":5.40883,"is_reserved":false,"is_disabled":false,"rental_uris":{"android":"levelo://app?vid=17cc7201-85fb-4c4b-afa1-9aa139657a40","ios":"levelo://app?vid=17cc7201-85fb-4c4b-afa1-9aa139657a40"},"vehicle_type_id":"4","last_reported":1762636117,"current_range_meters":6000,"station_id":"","pricing_plan_id":"cebpf4jnsgd1na2vs0mg"},{"bike_id":"9b2c9af0-de85-4eb2-b6c3-9b4598d44ea3","system_id":"levelo_inurba_marseille","lat":43.29444,"lon":5.39744,"is_reserved":false,"is_disabled":false,"rental_uris":{"android":"levelo://app?vid=9b2c9af0-de85-4eb2-b6c3-9b4598d44ea3","ios":"levelo://app?vid=9b2c9af0-de85-4eb2-b6c3-9b4598d44ea3"},"vehicle_type_id":"4","last_reported":1762636117,"current_range_meters":6400,"station_id":"ce4bh3h2rcd13ifvqdo0","pricing_plan_id":"cebpf4jnsgd1na2vs0mg"},{"bike_id":"16285194-395f-4a81-9ac4-d9bbea5afd9a","system_id":"levelo_inurba_marseille","lat":43.295746,"lon":5.36745,"is_reserved":false,"is_disabled":false,"rental_uris":{"android":"levelo://app?vid=16285194-395f-4a81-9ac4-d9bbea5afd9a","ios":"levelo://app?vid=16285194-395f-4a81-9ac4-d9bbea5afd9a"},"vehicle_type_id":"4","last_reported":1762636117,"current_range_meters":6400,"station_id":"ce4bgph2rcd13ifvqc2g","pricing_plan_id":"cebpf4jnsgd1na2vs0mg"},{"bike_id":"7c392732-2900-41fd-8c6d-e5b49cdf67b5","system_id":"levelo_inurba_marseille","lat":43.2971,"lon":5.38263,"is_reserved":false,"is_disabled":false,"rental_uris":{"android":"levelo://app?vid=7c392732-2900-41fd-8c6d-e5b49cdf67b5","ios":"levelo://app?vid=7c392732-2900-41fd-8c6d-e5b49cdf67b5"},"vehicle_type_id":"4","last_reported":1762636117,"current_range_meters":6400,"station_id":"","pricing_plan_id":"cebpf4jnsgd1na2vs0mg"},{"bike_id":"4f8286e0-6c9f-4a2d-9cd4-f827d069d559","system_id":"levelo_inurba_marseille","lat":43.33024,"lon":5.39039,"is_reserved":false,"is_disabled":false,"rental_uris":{"android":"levelo://app?vid=4f8286e0-6c9f-4a2d-9cd4-f827d069d559","ios":"levelo://app?vid=4f8286e0-6c9f-4a2d-9cd4-f827d069d559"},"vehicle_type_id":"4","last_reported":1762636117,"current_range_meters":6400,"station_id":"ce4bhr92rcd13ifvqhrg","pricing_plan_id":"cebpf4jnsgd1na2vs0mg"},{"bike_id":"f2616948-df87-4e0c-b70d-e6198330de9b","system_id":"levelo_inurba_marseille","lat":43.295968,"lon":5.381044,"is_reserved":false,"is_disabled":false,"rental_uris":{"android":"levelo://app?vid=f2616948-df87-4e0c-b70d-e6198330de9b","ios":"levelo://app?vid=f2616948-df87-4e0c-b70d-e6198330de9b"},"vehicle_type_id":"4","last_reported":1762636117,"current_range_meters":6400,"station_id":"ce4bgl12rcd13ifvqbo0","pricing_plan_id":"cebpf4jnsgd1na2vs0mg"},{"bike_id":"b05048b6-3636-4628-97b9-678771374061","system_id":"levelo_inurba_marseille","lat":43.31528,"lon":5.373,"is_reserved":false,"is_disabled":false,"rental_uris":{"android":"levelo://app?vid=b05048b6-3636-4628-97b9-678771374061","ios":"levelo://app?vid=b05048b6-3636-4628-97b9-678771374061"},"vehicle_type_id":"4","last_reported":1762636117,"current_range_meters":6400,"station_id":"","pricing_plan_id":"cebpf4jnsgd1na2vs0mg"},{"bike_id":"78bd5f74-b07f-4aac-b566-26ecec6fd5df","system_id":"levelo_inurba_marseille","lat":43.3068,"lon":5.38045,"is_reserved":false,"is_disabled":false,"rental_uris":{"android":"levelo://app?vid=78bd5f74-b07f-4aac-b566-26ecec6fd5df","ios":"levelo://app?vid=78bd5f74-b07f-4aac-b566-26ecec6fd5df"},"vehicle_type_id":"4","last_reported":1762636117,"current_range_meters":6400,"station_id":"","pricing_plan_id":"cebpf4jnsgd1na2vs0mg"},{"bike_id":"c03bd52b-534b-4ae1-bb73-924e391fe2f5","system_id":"levelo_inurba_marseille","lat":43.25527,"lon":5.37663,"is_reserved":false,"is_disabled":true,"rental_uris":{"android":"levelo://app?vid=c03bd52b-534b-4ae1-bb73-924e391fe2f5","ios":"levelo://app?vid=c03bd52b-534b-4ae1-bb73-924e391fe2f5"},"vehicle_type_id":"4","last_reported":1762636117,"current_range_meters":6800,"station_id":"ce4bhh12rcd13ifvqff0","pricing_plan_id":"cebpf4jnsgd1na2vs0mg"},{"bike_id":"34c14480-831b-41a9-b30b-a1e8f994a110","system_id":"levelo_inurba_marseille","lat":43.30821,"lon":5.37067,"is_reserved":false,"is_disabled":false,"rental_uris":{"android":"levelo://app?vid=34c14480-831b-41a9-b30b-a1e8f994a110","ios":"levelo://app?vid=34c14480-831b-41a9-b30b-a1e8f994a110"},"vehicle_type_id":"4","last_reported":1762636117,"current_range_meters":6800,"station_id":"","pricing_plan_id":"cebpf4jnsgd1na2vs0mg"},{"bike_id":"5bee8f0f-57fe-4257-a72a-04a4967570b5","system_id":"levelo_inurba_marseille","lat":43.30023,"lon":5.37738,"is_reserved":false,"is_disabled":false,"rental_uris":{"android":"levelo://app?vid=5bee8f0f-57fe-4257-a72a-04a4967570b5","ios":"levelo://app?vid=5bee8f0f-57fe-4257-a72a-04a4967570b5"},"vehicle_type_id":"4","last_reported":1762636117,"current_range_meters":6800,"station_id":"","pricing_plan_id":"cebpf4jnsgd1na2vs0mg"},{"bike_id":"925b5106-294c-46db-8c24-790139a4aa52","system_id":"levelo_inurba_marseille","lat":43.28419,"lon":5.349766,"is_reserved":false,"is_disabled":false,"rental_uris":{"android":"levelo://app?vid=925b5106-294c-46db-8c24-790139a4aa52","ios":"levelo://app?vid=925b5106-294c-46db-8c24-790139a4aa52"},"vehicle_type_id":"4","last_reported":1762636117,"current_range_meters":6800,"station_id":"ce4bgt12rcd13ifvqce0","pricing_plan_id":"cebpf4jnsgd1na2vs0mg"},{"bike_id":"78312476-01bf-4999-b5fa-139b4c815a67","system_id":"levelo_inurba_marseille","lat":43.2657,"lon":5.39016,"is_reserved":false,"is_disabled":false,"rental_uris":{"android":"levelo://app?vid=78312476-01bf-4999-b5fa-139b4c815a67","ios":"levelo://app?vid=78312476-01bf-4999-b5fa-139b4c815a67"},"vehicle_type_id":"4","last_reported":1762636117,"current_range_meters":7200,"station_id":"ce4bhe12rcd13ifvqf30","pricing_plan_id":"cebpf4jnsgd1na2vs0mg"},{"bike_id":"5eee5a29-c652-47f2-a842-6e90b65d4c46","system_id":"levelo_inurba_marseille","lat":43.29262,"lon":5.38413,"is_reserved":false,"is_disabled":false,"rental_uris":{"android":"levelo://app?vid=5eee5a29-c652-47f2-a842-6e90b65d4c46","ios":"levelo://app?vid=5eee5a29-c652-47f2-a842-6e90b65d4c46"},"vehicle_type_id":"4","last_reported":1762636117,"current_range_meters":7200,"station_id":"ce4bh692rcd13ifvqea0","pricing_plan_id":"cebpf4jnsgd1na2vs0mg"},{"bike_id":"beaf2410-a737-4e83-a918-f57216402952","system_id":"levelo_inurba_marseille","lat":43.30374,"lon":5.42483,"is_reserved":false,"is_disabled":false,"rental_uris":{"android":"levelo://app?vid=beaf2410-a737-4e83-a918-f57216402952","ios":"levelo://app?vid=beaf2410-a737-4e83-a918-f57216402952"},"vehicle_type_id":"4","last_reported":1762636117,"current_range_meters":7200,"station_id":"ce4bhoh2rcd13ifvqh6g","pricing_plan_id":"cebpf4jnsgd1na2vs0mg"},{"bike_id":"46748178-17b8-4dc8-80b3-39159ff743e0","system_id":"levelo_inurba_marseille","lat":43.300499,"lon":5.383214,"is_reserved":false,"is_disabled":false,"rental_uris":{"android":"levelo://app?vid=46748178-17b8-4dc8-80b3-39159ff743e0","ios":"levelo://app?vid=46748178-17b8-4dc8-80b3-39159ff743e0"},"vehicle_type_id":"4","last_reported":1762636117,"current_range_meters":7200,"station_id":"","pricing_plan_id":"cebpf4jnsgd1na2vs0mg"},{"bike_id":"a0ea519d-554f-42a0-93a3-d4c181552c78","system_id":"levelo_inurba_marseille","lat":43.31275,"lon":5.37766,"is_reserved":false,"is_disabled":false,"rental_uris":{"android":"levelo://app?vid=a0ea519d-554f-42a0-93a3-d4c181552c78","ios":"levelo://app?vid=a0ea519d-554f-42a0-93a3-d4c181552c78"},"vehicle_type_id":"4","last_reported":1762636117,"current_range_meters":7200,"station_id":"","pricing_plan_id":"cebpf4jnsgd1na2vs0mg"},{"bike_id":"3822be5d-87ff-48fe-aef8-9c3de911ee69","system_id":"levelo_inurba_marseille","lat":43.29095,"lon":5.38104,"is_reserved":false,"is_disabled":false,"rental_uris":{"android":"levelo://app?vid=3822be5d-87ff-48fe-aef8-9c3de911ee69","ios":"levelo://app?vid=3822be5d-87ff-48fe-aef8-9c3de911ee69"},"vehicle_type_id":"4","last_reported":1762636117,"current_range_meters":7200,"station_id":"ce4bh512rcd13ifvqe2g","pricing_plan_id":"cebpf4jnsgd1na2vs0mg"},{"bike_id":"3df1ea74-4323-4495-adf2-6ebb2ea74981","system_id":"levelo_inurba_marseille","lat":43.2813,"lon":5.37843,"is_reserved":false,"is_disabled":false,"rental_uris":{"android":"levelo://app?vid=3df1ea74-4323-4495-adf2-6ebb2ea74981","ios":"levelo://app?vid=3df1ea74-4323-4495-adf2-6ebb2ea74981"},"vehicle_type_id":"4","last_reported":1762636117,"current_range_meters":7200,"station_id":"ce4bha12rcd13ifvqee0","pricing_plan_id":"cebpf4jnsgd1na2vs0mg"},{"bike_id":"5c17ed12-8897-4f84-bbfc-85419a7f8038","system_id":"levelo_inurba_marseille","lat":43.27052,"lon":5.39422,"is_reserved":false,"is_disabled":false,"rental_uris":{"android":"levelo://app?vid=5c17ed12-8897-4f84-bbfc-85419a7f8038","ios":"levelo://app?vid=5c17ed12-8897-4f84-bbfc-85419a7f8038"},"vehicle_type_id":"4","last_reported":1762636117,"current_range_meters":8000,"station_id":"","pricing_plan_id":"cebpf4jnsgd1na2vs0mg"},{"bike_id":"2bda9569-8855-4749-9a29-a9c55ba153ed","system_id":"levelo_inurba_marseille","lat":43.22556,"lon":5.41632,"is_reserved":false,"is_disabled":false,"rental_uris":{"android":"levelo://app?vid=2bda9569-8855-4749-9a29-a9c55ba153ed","ios":"levelo://app?vid=2bda9569-8855-4749-9a29-a9c55ba153ed"},"vehicle_type_id":"4","last_reported":1762636117,"current_range_meters":8000,"station_id":"st_d2o4gvlbi1j2169b742g","pricing_plan_id":"cebpf4jnsgd1na2vs0mg"},{"bike_id":"eb46c66d-5104-4495-80f5-a25d45718f4c","system_id":"levelo_inurba_marseille","lat":43.30369,"lon":5.42488,"is_reserved":false,"is_disabled":false,"rental_uris":{"android":"levelo://app?vid=eb46c66d-5104-4495-80f5-a25d45718f4c","ios":"levelo://app?vid=eb46c66d-5104-4495-80f5-a25d45718f4c"},"vehicle_type_id":"4","last_reported":1762636117,"current_range_meters":8000,"station_id":"ce4bhoh2rcd13ifvqh6g","pricing_plan_id":"cebpf4jnsgd1na2vs0mg"},{"bike_id":"62bceab3-1c56-4a22-a64f-8b367880841e","system_id":"levelo_inurba_marseille","lat":43.29966,"lon":5.38482,"is_reserved":false,"is_disabled":false,"rental_uris":{"android":"levelo://app?vid=62bceab3-1c56-4a22-a64f-8b367880841e","ios":"levelo://app?vid=62bceab3-1c56-4a22-a64f-8b367880841e"},"vehicle_type_id":"4","last_reported":1762636117,"current_range_meters":8000,"station_id":"ce4bgj92rcd13ifvqbd0","pricing_plan_id":"cebpf4jnsgd1na2vs0mg"},{"bike_id":"7cec0edc-ab56-4f55-b041-8e61254c129d","system_id":"levelo_inurba_marseille","lat":43.279889,"lon":5.400122,"is_reserved":false,"is_disabled":false,"rental_uris":{"android":"levelo://app?vid=7cec0edc-ab56-4f55-b041-8e61254c129d","ios":"levelo://app?vid=7cec0edc-ab56-4f55-b041-8e61254c129d"},"vehicle_type_id":"4","last_reported":1762636117,"current_range_meters":8400,"station_id":"ce4bho92rcd13ifvqh4g","pricing_plan_id":"cebpf4jnsgd1na2vs0mg"},{"bike_id":"67abcb40-c132-4133-bd68-2a48b842fc06","system_id":"levelo_inurba_marseille","lat":43.29531,"lon":5.39025,"is_reserved":false,"is_disabled":false,"rental_uris":{"android":"levelo://app?vid=67abcb40-c132-4133-bd68-2a48b842fc06","ios":"levelo://app?vid=67abcb40-c132-4133-bd68-2a48b842fc06"},"vehicle_type_id":"4","last_reported":1762636117,"current_range_meters":8400,"station_id":"ce4bh3p2rcd13ifvqdp0","pricing_plan_id":"cebpf4jnsgd1na2vs0mg"},{"bike_id":"82432f02-945e-40be-b488-11adbbd9aa0a","system_id":"levelo_inurba_marseille","lat":43.31269,"lon":5.3683,"is_reserved":false,"is_disabled":false,"rental_uris":{"android":"levelo://app?vid=82432f02-945e-40be-b488-11adbbd9aa0a","ios":"levelo://app?vid=82432f02-945e-40be-b488-11adbbd9aa0a"},"vehicle_type_id":"4","last_reported":1762636117,"current_range_meters":8400,"station_id":"","pricing_plan_id":"cebpf4jnsgd1na2vs0mg"},{"bike_id":"cb334eae-ab15-4443-86dd-9f81a2c8a584","system_id":"levelo_inurba_marseille","lat":43.295238,"lon":5.390474,"is_reserved":false,"is_disabled":false,"rental_uris":{"android":"levelo://app?vid=cb334eae-ab15-4443-86dd-9f81a2c8a584","ios":"levelo://app?vid=cb334eae-ab15-4443-86dd-9f81a2c8a584"},"vehicle_type_id":"4","last_reported":1762636117,"current_range_meters":8400,"station_id":"ce4bh3p2rcd13ifvqdp0","pricing_plan_id":"cebpf4jnsgd1na2vs0mg"},{"bike_id":"2bb3d8ca-2936-4c0b-9f17-889f7f560b23","system_id":"levelo_inurba_marseille","lat":43.29274,"lon":5.38451,"is_reserved":false,"is_disabled":false,"rental_uris":{"android":"levelo://app?vid=2bb3d8ca-2936-4c0b-9f17-889f7f560b23","ios":"levelo://app?vid=2bb3d8ca-2936-4c0b-9f17-889f7f560b23"},"vehicle_type_id":"4","last_reported":1762636117,"current_range_meters":8400,"station_id":"ce4bh692rcd13ifvqea0","pricing_plan_id":"cebpf4jnsgd1na2vs0mg"},{"bike_id":"897548e0-868e-4112-a813-ed4180c87100","system_id":"levelo_inurba_marseille","lat":43.290337,"lon":5.38647,"is_reserved":false,"is_disabled":false,"rental_uris":{"android":"levelo://app?vid=897548e0-868e-4112-a813-ed4180c87100","ios":"levelo://app?vid=897548e0-868e-4112-a813-ed4180c87100"},"vehicle_type_id":"4","last_reported":1762636117,"current_range_meters":8800,"station_id":"ce4bh4p2rcd13ifvqe0g","pricing_plan_id":"cebpf4jnsgd1na2vs0mg"},{"bike_id":"867c0c09-f532-4f7a-a364-02e4c7f2da9f","system_id":"levelo_inurba_marseille","lat":43.29796,"lon":5.39342,"is_reserved":false,"is_disabled":false,"rental_uris":{"android":"levelo://app?vid=867c0c09-f532-4f7a-a364-02e4c7f2da9f","ios":"levelo://app?vid=867c0c09-f532-4f7a-a364-02e4c7f2da9f"},"vehicle_type_id":"4","last_reported":1762636117,"current_range_meters":8800,"station_id":"chh1huq6cuj3fo74tm60","pricing_plan_id":"cebpf4jnsgd1na2vs0mg"},{"bike_id":"bad93078-b484-4873-a1ce-359b2e630abc","system_id":"levelo_inurba_marseille","lat":43.29391,"lon":5.38444,"is_reserved":false,"is_disabled":false,"rental_uris":{"android":"levelo://app?vid=bad93078-b484-4873-a1ce-359b2e630abc","ios":"levelo://app?vid=bad93078-b484-4873-a1ce-359b2e630abc"},"vehicle_type_id":"4","last_reported":1762636117,"current_range_meters":8800,"station_id":"","pricing_plan_id":"cebpf4jnsgd1na2vs0mg"},{"bike_id":"076e3281-673a-402e-afb4-1b9569b5c900","system_id":"levelo_inurba_marseille","lat":43.3172,"lon":5.424,"is_reserved":false,"is_disabled":false,"rental_uris":{"android":"levelo://app?vid=076e3281-673a-402e-afb4-1b9569b5c900","ios":"levelo://app?vid=076e3281-673a-402e-afb4-1b9569b5c900"},"vehicle_type_id":"4","last_reported":1762636117,"current_range_meters":8800,"station_id":"ce4bhp92rcd13ifvqhbg","pricing_plan_id":"cebpf4jnsgd1na2vs0mg"},{"bike_id":"b42271b8-25db-43c2-afc4-45bdd783a838","system_id":"levelo_inurba_marseille","lat":43.24802,"lon":5.37423,"is_reserved":false,"is_disabled":false,"rental_uris":{"android":"levelo://app?vid=b42271b8-25db-43c2-afc4-45bdd783a838","ios":"levelo://app?vid=b42271b8-25db-43c2-afc4-45bdd783a838"},"vehicle_type_id":"4","last_reported":1762636117,"current_range_meters":8800,"station_id":"ce4bhgh2rcd13ifvqfb0","pricing_plan_id":"cebpf4jnsgd1na2vs0mg"},{"bike_id":"6894af30-e2cb-4a66-ab62-0d10a5c21383","system_id":"levelo_inurba_marseille","lat":43.29275,"lon":5.38424,"is_reserved":false,"is_disabled":false,"rental_uris":{"android":"levelo://app?vid=6894af30-e2cb-4a66-ab62-0d10a5c21383","ios":"levelo://app?vid=6894af30-e2cb-4a66-ab62-0d10a5c21383"},"vehicle_type_id":"4","last_reported":1762636117,"current_range_meters":8800,"station_id":"ce4bh692rcd13ifvqea0","pricing_plan_id":"cebpf4jnsgd1na2vs0mg"},{"bike_id":"d13f7aac-3326-47eb-8c83-0485dd333747","system_id":"levelo_inurba_marseille","lat":43.30475,"lon":5.39273,"is_reserved":false,"is_disabled":false,"rental_uris":{"android":"levelo://app?vid=d13f7aac-3326-47eb-8c83-0485dd333747","ios":"levelo://app?vid=d13f7aac-3326-47eb-8c83-0485dd333747"},"vehicle_type_id":"4","last_reported":1762636117,"current_range_meters":8800,"station_id":"","pricing_plan_id":"cebpf4jnsgd1na2vs0mg"},{"bike_id":"e7d6dd93-cc7e-4562-8f8e-a2f9ff880a76","system_id":"levelo_inurba_marseille","lat":43.2926,"lon":5.3844,"is_reserved":false,"is_disabled":false,"rental_uris":{"android":"levelo://app?vid=e7d6dd93-cc7e-4562-8f8e-a2f9ff880a76","ios":"levelo://app?vid=e7d6dd93-cc7e-4562-8f8e-a2f9ff880a76"},"vehicle_type_id":"4","last_reported":1762636117,"current_range_meters":9200,"station_id":"ce4bh692rcd13ifvqea0","pricing_plan_id":"cebpf4jnsgd1na2vs0mg"},{"bike_id":"26aad628-bd01-4664-890e-ba85447bad9f","system_id":"levelo_inurba_marseille","lat":43.303332,"lon":5.40429,"is_reserved":false,"is_disabled":true,"rental_uris":{"android":"levelo://app?vid=26aad628-bd01-4664-890e-ba85447bad9f","ios":"levelo://app?vid=26aad628-bd01-4664-890e-ba85447bad9f"},"vehicle_type_id":"4","last_reported":1762636117,"current_range_meters":9200,"station_id":"ce4bh012rcd13ifvqd10","pricing_plan_id":"cebpf4jnsgd1na2vs0mg"},{"bike_id":"588ef005-1544-4fc0-b701-e6df180bc2ef","system_id":"levelo_inurba_marseille","lat":43.29256,"lon":5.38446,"is_reserved":false,"is_disabled":false,"rental_uris":{"android":"levelo://app?vid=588ef005-1544-4fc0-b701-e6df180bc2ef","ios":"levelo://app?vid=588ef005-1544-4fc0-b701-e6df180bc2ef"},"vehicle_type_id":"4","last_reported":1762636117,"current_range_meters":9200,"station_id":"ce4bh692rcd13ifvqea0","pricing_plan_id":"cebpf4jnsgd1na2vs0mg"},{"bike_id":"9d001bd6-2c50-4fe0-987b-f4c0aee9f670","system_id":"levelo_inurba_marseille","lat":43.30157,"lon":5.38406,"is_reserved":false,"is_disabled":false,"rental_uris":{"android":"levelo://app?vid=9d001bd6-2c50-4fe0-987b-f4c0aee9f670","ios":"levelo://app?vid=9d001bd6-2c50-4fe0-987b-f4c0aee9f670"},"vehicle_type_id":"4","last_reported":1762636117,"current_range_meters":9200,"station_id":"","pricing_plan_id":"cebpf4jnsgd1na2vs0mg"},{"bike_id":"f1f03932-b933-4c13-ba09-7e54af5b292e","system_id":"levelo_inurba_marseille","lat":43.23142,"lon":5.43725,"is_reserved":false,"is_disabled":false,"rental_uris":{"android":"levelo://app?vid=f1f03932-b933-4c13-ba09-7e54af5b292e","ios":"levelo://app?vid=f1f03932-b933-4c13-ba09-7e54af5b292e"},"vehicle_type_id":"4","last_reported":1762636117,"current_range_meters":9200,"station_id":"ce4bhmp2rcd13ifvqgog","pricing_plan_id":"cebpf4jnsgd1na2vs0mg"},{"bike_id":"95565d88-4e0c-4b5d-b6d1-9a4c73bcb1f1","system_id":"levelo_inurba_marseille","lat":43.337651,"lon":5.374284,"is_reserved":false,"is_disabled":false,"rental_uris":{"android":"levelo://app?vid=95565d88-4e0c-4b5d-b6d1-9a4c73bcb1f1","ios":"levelo://app?vid=95565d88-4e0c-4b5d-b6d1-9a4c73bcb1f1"},"vehicle_type_id":"4","last_reported":1762636117,"current_range_meters":9200,"station_id":"","pricing_plan_id":"cebpf4jnsgd1na2vs0mg"},{"bike_id":"b05d1bfc-9d5f-4d13-a72d-e46791ddf9b7","system_id":"levelo_inurba_marseille","lat":43.29252,"lon":5.38421,"is_reserved":false,"is_disabled":false,"rental_uris":{"android":"levelo://app?vid=b05d1bfc-9d5f-4d13-a72d-e46791ddf9b7","ios":"levelo://app?vid=b05d1bfc-9d5f-4d13-a72d-e46791ddf9b7"},"vehicle_type_id":"4","last_reported":1762636117,"current_range_meters":9600,"station_id":"ce4bh692rcd13ifvqea0","pricing_plan_id":"cebpf4jnsgd1na2vs0mg"},{"bike_id":"92aeb7aa-3483-4d2e-a94c-9e7847858d72","system_id":"levelo_inurba_marseille","lat":43.29265,"lon":5.38441,"is_reserved":false,"is_disabled":false,"rental_uris":{"android":"levelo://app?vid=92aeb7aa-3483-4d2e-a94c-9e7847858d72","ios":"levelo://app?vid=92aeb7aa-3483-4d2e-a94c-9e7847858d72"},"vehicle_type_id":"4","last_reported":1762636117,"current_range_meters":9600,"station_id":"ce4bh692rcd13ifvqea0","pricing_plan_id":"cebpf4jnsgd1na2vs0mg"},{"bike_id":"222d2b73-5af6-4cef-b962-c7f459251f78","system_id":"levelo_inurba_marseille","lat":43.29546,"lon":5.38529,"is_reserved":false,"is_disabled":false,"rental_uris":{"android":"levelo://app?vid=222d2b73-5af6-4cef-b962-c7f459251f78","ios":"levelo://app?vid=222d2b73-5af6-4cef-b962-c7f459251f78"},"vehicle_type_id":"4","last_reported":1762636117,"current_range_meters":9600,"station_id":"ce4bgih2rcd13ifvqba0","pricing_plan_id":"cebpf4jnsgd1na2vs0mg"},{"bike_id":"1011e01a-e4c4-4d7c-82ea-50e768bf58aa","system_id":"levelo_inurba_marseille","lat":43.30632,"lon":5.3655,"is_reserved":false,"is_disabled":false,"rental_uris":{"android":"levelo://app?vid=1011e01a-e4c4-4d7c-82ea-50e768bf58aa","ios":"levelo://app?vid=1011e01a-e4c4-4d7c-82ea-50e768bf58aa"},"vehicle_type_id":"4","last_reported":1762636117,"current_range_meters":9600,"station_id":"","pricing_plan_id":"cebpf4jnsgd1na2vs0mg"},{"bike_id":"c0969de0-74b0-4b5a-9248-b43b0ee3e19e","system_id":"levelo_inurba_marseille","lat":43.24907,"lon":5.37657,"is_reserved":false,"is_disabled":false,"rental_uris":{"android":"levelo://app?vid=c0969de0-74b0-4b5a-9248-b43b0ee3e19e","ios":"levelo://app?vid=c0969de0-74b0-4b5a-9248-b43b0ee3e19e"},"vehicle_type_id":"4","last_reported":1762636117,"current_range_meters":9600,"station_id":"","pricing_plan_id":"cebpf4jnsgd1na2vs0mg"},{"bike_id":"3b294fa9-3f9f-4381-a2a8-e3592d375a68","system_id":"levelo_inurba_marseille","lat":43.26641,"lon":5.39613,"is_reserved":false,"is_disabled":false,"rental_uris":{"android":"levelo://app?vid=3b294fa9-3f9f-4381-a2a8-e3592d375a68","ios":"levelo://app?vid=3b294fa9-3f9f-4381-a2a8-e3592d375a68"},"vehicle_type_id":"4","last_reported":1762636117,"current_range_meters":9600,"station_id":"","pricing_plan_id":"cebpf4jnsgd1na2vs0mg"},{"bike_id":"b81b003d-dcc6-471b-a04e-772bd3ea1a80","system_id":"levelo_inurba_marseille","lat":43.2954,"lon":5.38554,"is_reserved":false,"is_disabled":false,"rental_uris":{"android":"levelo://app?vid=b81b003d-dcc6-471b-a04e-772bd3ea1a80","ios":"levelo://app?vid=b81b003d-dcc6-471b-a04e-772bd3ea1a80"},"vehicle_type_id":"4","last_reported":1762636117,"current_range_meters":9600,"station_id":"ce4bgih2rcd13ifvqba0","pricing_plan_id":"cebpf4jnsgd1na2vs0mg"},{"bike_id":"340c7837-d14f-4a1f-a25d-068ba3827888","system_id":"levelo_inurba_marseille","lat":43.29977,"lon":5.37165,"is_reserved":false,"is_disabled":false,"rental_uris":{"android":"levelo://app?vid=340c7837-d14f-4a1f-a25d-068ba3827888","ios":"levelo://app?vid=340c7837-d14f-4a1f-a25d-068ba3827888"},"vehicle_type_id":"4","last_reported":1762636117,"current_range_meters":9600,"station_id":"ce4bgr92rcd13ifvqc7g","pricing_plan_id":"cebpf4jnsgd1na2vs0mg"},{"bike_id":"9bc27a93-0ed9-4d6f-91d9-6b66c3dd35ce","system_id":"levelo_inurba_marseille","lat":43.2511,"lon":5.40337,"is_reserved":false,"is_disabled":false,"rental_uris":{"android":"levelo://app?vid=9bc27a93-0ed9-4d6f-91d9-6b66c3dd35ce","ios":"levelo://app?vid=9bc27a93-0ed9-4d6f-91d9-6b66c3dd35ce"},"vehicle_type_id":"4","last_reported":1762636117,"current_range_meters":10000,"station_id":"ce4bhlh2rcd13ifvqgig","pricing_plan_id":"cebpf4jnsgd1na2vs0mg"},{"bike_id":"382f597e-181c-4839-b1de-04339df9aa55","system_id":"levelo_inurba_marseille","lat":43.26796,"lon":5.40267,"is_reserved":false,"is_disabled":true,"rental_uris":{"android":"levelo://app?vid=382f597e-181c-4839-b1de-04339df9aa55","ios":"levelo://app?vid=382f597e-181c-4839-b1de-04339df9aa55"},"vehicle_type_id":"4","last_reported":1762636117,"current_range_meters":10000,"station_id":"ce501612rcd8frsf0b60","pricing_plan_id":"cebpf4jnsgd1na2vs0mg"},{"bike_id":"b98c59d1-12c0-4a03-b198-cf728a9bdad0","system_id":"levelo_inurba_marseille","lat":43.29322,"lon":5.37155,"is_reserved":false,"is_disabled":false,"rental_uris":{"android":"levelo://app?vid=b98c59d1-12c0-4a03-b198-cf728a9bdad0","ios":"levelo://app?vid=b98c59d1-12c0-4a03-b198-cf728a9bdad0"},"vehicle_type_id":"4","last_reported":1762636117,"current_range_meters":10000,"station_id":"","pricing_plan_id":"cebpf4jnsgd1na2vs0mg"},{"bike_id":"d510b29d-06c6-4a67-8cee-2182097a14e2","system_id":"levelo_inurba_marseille","lat":43.29279,"lon":5.37626,"is_reserved":false,"is_disabled":true,"rental_uris":{"android":"levelo://app?vid=d510b29d-06c6-4a67-8cee-2182097a14e2","ios":"levelo://app?vid=d510b29d-06c6-4a67-8cee-2182097a14e2"},"vehicle_type_id":"4","last_reported":1762636117,"current_range_meters":10000,"station_id":"ce4bgi12rcd13ifvqb80","pricing_plan_id":"cebpf4jnsgd1na2vs0mg"},{"bike_id":"321d43c2-a97c-419e-a110-a172b4ee23e9","system_id":"levelo_inurba_marseille","lat":43.261539,"lon":5.417746,"is_reserved":false,"is_disabled":false,"rental_uris":{"android":"levelo://app?vid=321d43c2-a97c-419e-a110-a172b4ee23e9","ios":"levelo://app?vid=321d43c2-a97c-419e-a110-a172b4ee23e9"},"vehicle_type_id":"4","last_reported":1762636117,"current_range_meters":10000,"station_id":"","pricing_plan_id":"cebpf4jnsgd1na2vs0mg"},{"bike_id":"434db983-f6e9-4093-97f7-423106acf67d","system_id":"levelo_inurba_marseille","lat":43.31716,"lon":5.42395,"is_reserved":false,"is_disabled":false,"rental_uris":{"android":"levelo://app?vid=434db983-f6e9-4093-97f7-423106acf67d","ios":"levelo://app?vid=434db983-f6e9-4093-97f7-423106acf67d"},"vehicle_type_id":"4","last_reported":1762636117,"current_range_meters":10000,"station_id":"ce4bhp92rcd13ifvqhbg","pricing_plan_id":"cebpf4jnsgd1na2vs0mg"},{"bike_id":"a4b610ef-5dc5-47fb-9228-87e17fe490d3","system_id":"levelo_inurba_marseille","lat":43.27078,"lon":5.42262,"is_reserved":false,"is_disabled":true,"rental_uris":{"android":"levelo://app?vid=a4b610ef-5dc5-47fb-9228-87e17fe490d3","ios":"levelo://app?vid=a4b610ef-5dc5-47fb-9228-87e17fe490d3"},"vehicle_type_id":"4","last_reported":1762636117,"current_range_meters":10000,"station_id":"ce4bhk92rcd13ifvqgb0","pricing_plan_id":"cebpf4jnsgd1na2vs0mg"},{"bike_id":"0342d0d8-8837-414c-85e6-56e0ae1ef674","system_id":"levelo_inurba_marseille","lat":43.290293,"lon":5.386466,"is_reserved":false,"is_disabled":false,"rental_uris":{"android":"levelo://app?vid=0342d0d8-8837-414c-85e6-56e0ae1ef674","ios":"levelo://app?vid=0342d0d8-8837-414c-85e6-56e0ae1ef674"},"vehicle_type_id":"4","last_reported":1762636117,"current_range_meters":10800,"station_id":"ce4bh4p2rcd13ifvqe0g","pricing_plan_id":"cebpf4jnsgd1na2vs0mg"},{"bike_id":"7be7c32b-d079-405b-81f9-69e044a592bc","system_id":"levelo_inurba_marseille","lat":43.29259,"lon":5.38446,"is_reserved":false,"is_disabled":false,"rental_uris":{"android":"levelo://app?vid=7be7c32b-d079-405b-81f9-69e044a592bc","ios":"levelo://app?vid=7be7c32b-d079-405b-81f9-69e044a592bc"},"vehicle_type_id":"4","last_reported":1762636117,"current_range_meters":10800,"station_id":"ce4bh692rcd13ifvqea0","pricing_plan_id":"cebpf4jnsgd1na2vs0mg"},{"bike_id":"c322023f-fce9-4eb1-a1de-f2fb13d580d4","system_id":"levelo_inurba_marseille","lat":43.28436,"lon":5.39207,"is_reserved":false,"is_disabled":false,"rental_uris":{"android":"levelo://app?vid=c322023f-fce9-4eb1-a1de-f2fb13d580d4","ios":"levelo://app?vid=c322023f-fce9-4eb1-a1de-f2fb13d580d4"},"vehicle_type_id":"4","last_reported":1762636117,"current_range_meters":10800,"station_id":"ce4bhoh2rcd13ifvqh5g","pricing_plan_id":"cebpf4jnsgd1na2vs0mg"},{"bike_id":"d8a2f5eb-2b59-4e98-8f97-81551455f54b","system_id":"levelo_inurba_marseille","lat":43.29591,"lon":5.3812,"is_reserved":false,"is_disabled":false,"rental_uris":{"android":"levelo://app?vid=d8a2f5eb-2b59-4e98-8f97-81551455f54b","ios":"levelo://app?vid=d8a2f5eb-2b59-4e98-8f97-81551455f54b"},"vehicle_type_id":"4","last_reported":1762636117,"current_range_meters":10800,"station_id":"ce4bgl12rcd13ifvqbo0","pricing_plan_id":"cebpf4jnsgd1na2vs0mg"},{"bike_id":"59736966-d2af-4cbc-8ac5-e955aeb2f190","system_id":"levelo_inurba_marseille","lat":43.28747,"lon":5.424481,"is_reserved":false,"is_disabled":false,"rental_uris":{"android":"levelo://app?vid=59736966-d2af-4cbc-8ac5-e955aeb2f190","ios":"levelo://app?vid=59736966-d2af-4cbc-8ac5-e955aeb2f190"},"vehicle_type_id":"4","last_reported":1762636117,"current_range_meters":10800,"station_id":"","pricing_plan_id":"cebpf4jnsgd1na2vs0mg"},{"bike_id":"f44dedc3-0879-499a-8db2-8d234a76605b","system_id":"levelo_inurba_marseille","lat":43.292988,"lon":5.371594,"is_reserved":false,"is_disabled":false,"rental_uris":{"android":"levelo://app?vid=f44dedc3-0879-499a-8db2-8d234a76605b","ios":"levelo://app?vid=f44dedc3-0879-499a-8db2-8d234a76605b"},"vehicle_type_id":"4","last_reported":1762636117,"current_range_meters":10800,"station_id":"ce4bgh92rcd13ifvqb40","pricing_plan_id":"cebpf4jnsgd1na2vs0mg"},{"bike_id":"dfde87bb-1a24-4866-bcda-6d9da60c1cf9","system_id":"levelo_inurba_marseille","lat":43.28583,"lon":5.39366,"is_reserved":false,"is_disabled":false,"rental_uris":{"android":"levelo://app?vid=dfde87bb-1a24-4866-bcda-6d9da60c1cf9","ios":"levelo://app?vid=dfde87bb-1a24-4866-bcda-6d9da60c1cf9"},"vehicle_type_id":"4","last_reported":1762636117,"current_range_meters":10800,"station_id":"","pricing_plan_id":"cebpf4jnsgd1na2vs0mg"},{"bike_id":"5c6d734e-7655-469f-9e5a-2148da270c74","system_id":"levelo_inurba_marseille","lat":43.30091,"lon":5.39076,"is_reserved":false,"is_disabled":false,"rental_uris":{"android":"levelo://app?vid=5c6d734e-7655-469f-9e5a-2148da270c74","ios":"levelo://app?vid=5c6d734e-7655-469f-9e5a-2148da270c74"},"vehicle_type_id":"4","last_reported":1762636117,"current_range_meters":11200,"station_id":"ce4bh192rcd13ifvqdb0","pricing_plan_id":"cebpf4jnsgd1na2vs0mg"},{"bike_id":"f68071b4-0c14-41b2-ba2e-82ca4c6f506c","system_id":"levelo_inurba_marseille","lat":43.29595,"lon":5.38099,"is_reserved":false,"is_disabled":false,"rental_uris":{"android":"levelo://app?vid=f68071b4-0c14-41b2-ba2e-82ca4c6f506c","ios":"levelo://app?vid=f68071b4-0c14-41b2-ba2e-82ca4c6f506c"},"vehicle_type_id":"4","last_reported":1762636117,"current_range_meters":11200,"station_id":"ce4bgl12rcd13ifvqbo0","pricing_plan_id":"cebpf4jnsgd1na2vs0mg"},{"bike_id":"4bce02cb-bdba-488a-a39f-eae80d4c7da8","system_id":"levelo_inurba_marseille","lat":43.28205,"lon":5.39043,"is_reserved":false,"is_disabled":true,"rental_uris":{"android":"levelo://app?vid=4bce02cb-bdba-488a-a39f-eae80d4c7da8","ios":"levelo://app?vid=4bce02cb-bdba-488a-a39f-eae80d4c7da8"},"vehicle_type_id":"4","last_reported":1762636117,"current_range_meters":11200,"station_id":"ce4bhn92rcd13ifvqgsg","pricing_plan_id":"cebpf4jnsgd1na2vs0mg"},{"bike_id":"33f54c1a-251f-4b40-befe-4d7b2ffcd85e","system_id":"levelo_inurba_marseille","lat":43.30886,"lon":5.39655,"is_reserved":false,"is_disabled":false,"rental_uris":{"android":"levelo://app?vid=33f54c1a-251f-4b40-befe-4d7b2ffcd85e","ios":"levelo://app?vid=33f54c1a-251f-4b40-befe-4d7b2ffcd85e"},"vehicle_type_id":"4","last_reported":1762636117,"current_range_meters":11600,"station_id":"ce4bh012rcd13ifvqcv0","pricing_plan_id":"cebpf4jnsgd1na2vs0mg"},{"bike_id":"e179449b-f27b-421e-b73c-00856b2aae30","system_id":"levelo_inurba_marseille","lat":43.29051,"lon":5.37551,"is_reserved":false,"is_disabled":false,"rental_uris":{"android":"levelo://app?vid=e179449b-f27b-421e-b73c-00856b2aae30","ios":"levelo://app?vid=e179449b-f27b-421e-b73c-00856b2aae30"},"vehicle_type_id":"4","last_reported":1762636117,"current_range_meters":11600,"station_id":"ce4bh692rcd13ifvqe90","pricing_plan_id":"cebpf4jnsgd1na2vs0mg"},{"bike_id":"665a5ba2-246e-4ac7-a969-6694219b1452","system_id":"levelo_inurba_marseille","lat":43.288553,"lon":5.358361,"is_reserved":false,"is_disabled":true,"rental_uris":{"android":"levelo://app?vid=665a5ba2-246e-4ac7-a969-6694219b1452","ios":"levelo://app?vid=665a5ba2-246e-4ac7-a969-6694219b1452"},"vehicle_type_id":"4","last_reported":1762636117,"current_range_meters":11600,"station_id":"ce4bhb12rcd13ifvqem0","pricing_plan_id":"cebpf4jnsgd1na2vs0mg"},{"bike_id":"3017da39-e910-46eb-97bd-84c089ef33f4","system_id":"levelo_inurba_marseille","lat":43.27618,"lon":5.36103,"is_reserved":false,"is_disabled":false,"rental_uris":{"android":"levelo://app?vid=3017da39-e910-46eb-97bd-84c089ef33f4","ios":"levelo://app?vid=3017da39-e910-46eb-97bd-84c089ef33f4"},"vehicle_type_id":"4","last_reported":1762636117,"current_range_meters":11600,"station_id":"ce4bgj92rcd13ifvqbe0","pricing_plan_id":"cebpf4jnsgd1na2vs0mg"},{"bike_id":"870a9ad1-db35-4ab0-bc9a-84476efc6571","system_id":"levelo_inurba_marseille","lat":43.32807,"lon":5.42653,"is_reserved":false,"is_disabled":false,"rental_uris":{"android":"levelo://app?vid=870a9ad1-db35-4ab0-bc9a-84476efc6571","ios":"levelo://app?vid=870a9ad1-db35-4ab0-bc9a-84476efc6571"},"vehicle_type_id":"4","last_reported":1762636117,"current_range_meters":11600,"station_id":"","pricing_plan_id":"cebpf4jnsgd1na2vs0mg"},{"bike_id":"b8f569d3-6952-41eb-8a5c-5790033cbc9d","system_id":"levelo_inurba_marseille","lat":43.28859,"lon":5.35848,"is_reserved":false,"is_disabled":false,"rental_uris":{"android":"levelo://app?vid=b8f569d3-6952-41eb-8a5c-5790033cbc9d","ios":"levelo://app?vid=b8f569d3-6952-41eb-8a5c-5790033cbc9d"},"vehicle_type_id":"4","last_reported":1762636117,"current_range_meters":12000,"station_id":"ce4bhb12rcd13ifvqem0","pricing_plan_id":"cebpf4jnsgd1na2vs0mg"},{"bike_id":"30d8fad0-b359-483b-8b6b-1430c712d4de","system_id":"levelo_inurba_marseille","lat":43.28101,"lon":5.37846,"is_reserved":false,"is_disabled":false,"rental_uris":{"android":"levelo://app?vid=30d8fad0-b359-483b-8b6b-1430c712d4de","ios":"levelo://app?vid=30d8fad0-b359-483b-8b6b-1430c712d4de"},"vehicle_type_id":"4","last_reported":1762636117,"current_range_meters":12000,"station_id":"ce4bha12rcd13ifvqee0","pricing_plan_id":"cebpf4jnsgd1na2vs0mg"},{"bike_id":"be6a90aa-49ac-4fa8-94f5-b4bba1672863","system_id":"levelo_inurba_marseille","lat":43.27202,"lon":5.39189,"is_reserved":false,"is_disabled":false,"rental_uris":{"android":"levelo://app?vid=be6a90aa-49ac-4fa8-94f5-b4bba1672863","ios":"levelo://app?vid=be6a90aa-49ac-4fa8-94f5-b4bba1672863"},"vehicle_type_id":"4","last_reported":1762636117,"current_range_meters":12000,"station_id":"ce4bhhp2rcd13ifvqfm0","pricing_plan_id":"cebpf4jnsgd1na2vs0mg"},{"bike_id":"9fe7e0c1-56b4-443a-b4aa-88eab65bd151","system_id":"levelo_inurba_marseille","lat":43.30157,"lon":5.37408,"is_reserved":false,"is_disabled":false,"rental_uris":{"android":"levelo://app?vid=9fe7e0c1-56b4-443a-b4aa-88eab65bd151","ios":"levelo://app?vid=9fe7e0c1-56b4-443a-b4aa-88eab65bd151"},"vehicle_type_id":"4","last_reported":1762636117,"current_range_meters":12000,"station_id":"ce4bgs92rcd13ifvqcc0","pricing_plan_id":"cebpf4jnsgd1na2vs0mg"},{"bike_id":"54fa92af-5541-4137-afea-d36fade5cb4b","system_id":"levelo_inurba_marseille","lat":43.24649,"lon":5.43144,"is_reserved":false,"is_disabled":false,"rental_uris":{"android":"levelo://app?vid=54fa92af-5541-4137-afea-d36fade5cb4b","ios":"levelo://app?vid=54fa92af-5541-4137-afea-d36fade5cb4b"},"vehicle_type_id":"4","last_reported":1762636117,"current_range_meters":12000,"station_id":"st_d2m6c4gdas8pm72e190g","pricing_plan_id":"cebpf4jnsgd1na2vs0mg"},{"bike_id":"152dc96a-1568-4177-b651-4b950d2a0e73","system_id":"levelo_inurba_marseille","lat":43.326876,"lon":5.391986,"is_reserved":false,"is_disabled":false,"rental_uris":{"android":"levelo://app?vid=152dc96a-1568-4177-b651-4b950d2a0e73","ios":"levelo://app?vid=152dc96a-1568-4177-b651-4b950d2a0e73"},"vehicle_type_id":"4","last_reported":1762636117,"current_range_meters":12000,"station_id":"","pricing_plan_id":"cebpf4jnsgd1na2vs0mg"},{"bike_id":"968e9c29-84ee-4827-bcab-ac08bc4ab6d5","system_id":"levelo_inurba_marseille","lat":43.2927,"lon":5.36849,"is_reserved":false,"is_disabled":true,"rental_uris":{"android":"levelo://app?vid=968e9c29-84ee-4827-bcab-ac08bc4ab6d5","ios":"levelo://app?vid=968e9c29-84ee-4827-bcab-ac08bc4ab6d5"},"vehicle_type_id":"4","last_reported":1762636117,"current_range_meters":12000,"station_id":"ce4bhbp2rcd13ifvqesg","pricing_plan_id":"cebpf4jnsgd1na2vs0mg"},{"bike_id":"2d09d6a2-f592-48df-a952-68864ae6960f","system_id":"levelo_inurba_marseille","lat":43.24473,"lon":5.40971,"is_reserved":false,"is_disabled":false,"rental_uris":{"android":"levelo://app?vid=2d09d6a2-f592-48df-a952-68864ae6960f","ios":"levelo://app?vid=2d09d6a2-f592-48df-a952-68864ae6960f"},"vehicle_type_id":"4","last_reported":1762636117,"current_range_meters":12000,"station_id":"","pricing_plan_id":"cebpf4jnsgd1na2vs0mg"},{"bike_id":"35208c67-fb9d-4694-99f1-7eacd803c651","system_id":"levelo_inurba_marseille","lat":43.29529,"lon":5.39036,"is_reserved":false,"is_disabled":false,"rental_uris":{"android":"levelo://app?vid=35208c67-fb9d-4694-99f1-7eacd803c651","ios":"levelo://app?vid=35208c67-fb9d-4694-99f1-7eacd803c651"},"vehicle_type_id":"4","last_reported":1762636117,"current_range_meters":12000,"station_id":"ce4bh3p2rcd13ifvqdp0","pricing_plan_id":"cebpf4jnsgd1na2vs0mg"},{"bike_id":"d2991a60-dcfa-4252-8f9d-bfff4b1dc433","system_id":"levelo_inurba_marseille","lat":43.3108,"lon":5.37085,"is_reserved":false,"is_disabled":false,"rental_uris":{"android":"levelo://app?vid=d2991a60-dcfa-4252-8f9d-bfff4b1dc433","ios":"levelo://app?vid=d2991a60-dcfa-4252-8f9d-bfff4b1dc433"},"vehicle_type_id":"4","last_reported":1762636117,"current_range_meters":12000,"station_id":"","pricing_plan_id":"cebpf4jnsgd1na2vs0mg"},{"bike_id":"31800347-6952-4e4c-aa3f-f865647b86c9","system_id":"levelo_inurba_marseille","lat":43.29534,"lon":5.38532,"is_reserved":false,"is_disabled":false,"rental_uris":{"android":"levelo://app?vid=31800347-6952-4e4c-aa3f-f865647b86c9","ios":"levelo://app?vid=31800347-6952-4e4c-aa3f-f865647b86c9"},"vehicle_type_id":"4","last_reported":1762636117,"current_range_meters":12400,"station_id":"ce4bgih2rcd13ifvqba0","pricing_plan_id":"cebpf4jnsgd1na2vs0mg"},{"bike_id":"825a1957-d327-49da-97b3-2485c79c40e7","system_id":"levelo_inurba_marseille","lat":43.21754,"lon":5.34596,"is_reserved":false,"is_disabled":true,"rental_uris":{"android":"levelo://app?vid=825a1957-d327-49da-97b3-2485c79c40e7","ios":"levelo://app?vid=825a1957-d327-49da-97b3-2485c79c40e7"},"vehicle_type_id":"4","last_reported":1762636117,"current_range_meters":12400,"station_id":"","pricing_plan_id":"cebpf4jnsgd1na2vs0mg"},{"bike_id":"97541f74-a6f0-449c-bf74-6f0daa50b719","system_id":"levelo_inurba_marseille","lat":43.31482,"lon":5.37212,"is_reserved":false,"is_disabled":false,"rental_uris":{"android":"levelo://app?vid=97541f74-a6f0-449c-bf74-6f0daa50b719","ios":"levelo://app?vid=97541f74-a6f0-449c-bf74-6f0daa50b719"},"vehicle_type_id":"4","last_reported":1762636117,"current_range_meters":12400,"station_id":"ce4bgt12rcd13ifvqcd0","pricing_plan_id":"cebpf4jnsgd1na2vs0mg"},{"bike_id":"731ec291-4b47-43b7-9520-53c0d9623986","system_id":"levelo_inurba_marseille","lat":43.280802,"lon":5.396546,"is_reserved":false,"is_disabled":false,"rental_uris":{"android":"levelo://app?vid=731ec291-4b47-43b7-9520-53c0d9623986","ios":"levelo://app?vid=731ec291-4b47-43b7-9520-53c0d9623986"},"vehicle_type_id":"4","last_reported":1762636117,"current_range_meters":12400,"station_id":"ce4bho12rcd13ifvqh2g","pricing_plan_id":"cebpf4jnsgd1na2vs0mg"},{"bike_id":"ce8c961a-85c8-44ab-ae83-7f378b5ad238","system_id":"levelo_inurba_marseille","lat":43.28154,"lon":5.42639,"is_reserved":false,"is_disabled":false,"rental_uris":{"android":"levelo://app?vid=ce8c961a-85c8-44ab-ae83-7f378b5ad238","ios":"levelo://app?vid=ce8c961a-85c8-44ab-ae83-7f378b5ad238"},"vehicle_type_id":"4","last_reported":1762636117,"current_range_meters":12400,"station_id":"ce4bhnh2rcd13ifvqgug","pricing_plan_id":"cebpf4jnsgd1na2vs0mg"},{"bike_id":"d72d9b0b-f153-44ff-82d3-8d3b31963dcb","system_id":"levelo_inurba_marseille","lat":43.3054,"lon":5.3842,"is_reserved":false,"is_disabled":false,"rental_uris":{"android":"levelo://app?vid=d72d9b0b-f153-44ff-82d3-8d3b31963dcb","ios":"levelo://app?vid=d72d9b0b-f153-44ff-82d3-8d3b31963dcb"},"vehicle_type_id":"4","last_reported":1762636117,"current_range_meters":12400,"station_id":"ce4bgg92rcd13ifvqb30","pricing_plan_id":"cebpf4jnsgd1na2vs0mg"},{"bike_id":"9af835b2-9115-4dab-ab00-284872b592ff","system_id":"levelo_inurba_marseille","lat":43.29256,"lon":5.38428,"is_reserved":false,"is_disabled":false,"rental_uris":{"android":"levelo://app?vid=9af835b2-9115-4dab-ab00-284872b592ff","ios":"levelo://app?vid=9af835b2-9115-4dab-ab00-284872b592ff"},"vehicle_type_id":"4","last_reported":1762636117,"current_range_meters":12800,"station_id":"ce4bh692rcd13ifvqea0","pricing_plan_id":"cebpf4jnsgd1na2vs0mg"},{"bike_id":"a79f19b1-60c5-48a7-8160-6d9176e7f408","system_id":"levelo_inurba_marseille","lat":43.30934,"lon":5.4014,"is_reserved":false,"is_disabled":false,"rental_uris":{"android":"levelo://app?vid=a79f19b1-60c5-48a7-8160-6d9176e7f408","ios":"levelo://app?vid=a79f19b1-60c5-48a7-8160-6d9176e7f408"},"vehicle_type_id":"4","last_reported":1762636117,"current_range_meters":12800,"station_id":"ce4bgvp2rcd13ifvqct0","pricing_plan_id":"cebpf4jnsgd1na2vs0mg"},{"bike_id":"7304ea05-1f78-41fe-8725-e76f079910b3","system_id":"levelo_inurba_marseille","lat":43.295274,"lon":5.385432,"is_reserved":false,"is_disabled":false,"rental_uris":{"android":"levelo://app?vid=7304ea05-1f78-41fe-8725-e76f079910b3","ios":"levelo://app?vid=7304ea05-1f78-41fe-8725-e76f079910b3"},"vehicle_type_id":"4","last_reported":1762636117,"current_range_meters":12800,"station_id":"ce4bgih2rcd13ifvqba0","pricing_plan_id":"cebpf4jnsgd1na2vs0mg"},{"bike_id":"0b37b69f-4d88-45a5-bb59-8daa184f4232","system_id":"levelo_inurba_marseille","lat":43.29856,"lon":5.36267,"is_reserved":false,"is_disabled":false,"rental_uris":{"android":"levelo://app?vid=0b37b69f-4d88-45a5-bb59-8daa184f4232","ios":"levelo://app?vid=0b37b69f-4d88-45a5-bb59-8daa184f4232"},"vehicle_type_id":"4","last_reported":1762636117,"current_range_meters":12800,"station_id":"ce4bgpp2rcd13ifvqc3g","pricing_plan_id":"cebpf4jnsgd1na2vs0mg"},{"bike_id":"70ea846d-9836-48c5-a35d-e09b2753e54c","system_id":"levelo_inurba_marseille","lat":43.26678,"lon":5.38265,"is_reserved":false,"is_disabled":false,"rental_uris":{"android":"levelo://app?vid=70ea846d-9836-48c5-a35d-e09b2753e54c","ios":"levelo://app?vid=70ea846d-9836-48c5-a35d-e09b2753e54c"},"vehicle_type_id":"4","last_reported":1762636117,"current_range_meters":12800,"station_id":"ce4bhg92rcd13ifvqf90","pricing_plan_id":"cebpf4jnsgd1na2vs0mg"},{"bike_id":"3439a8cb-8214-4321-b614-d69fa7098072","system_id":"levelo_inurba_marseille","lat":43.31271,"lon":5.38939,"is_reserved":false,"is_disabled":false,"rental_uris":{"android":"levelo://app?vid=3439a8cb-8214-4321-b614-d69fa7098072","ios":"levelo://app?vid=3439a8cb-8214-4321-b614-d69fa7098072"},"vehicle_type_id":"4","last_reported":1762636117,"current_range_meters":12800,"station_id":"","pricing_plan_id":"cebpf4jnsgd1na2vs0mg"},{"bike_id":"6e516340-9641-4325-9cd8-46780776c1ed","system_id":"levelo_inurba_marseille","lat":43.30551,"lon":5.36715,"is_reserved":false,"is_disabled":true,"rental_uris":{"android":"levelo://app?vid=6e516340-9641-4325-9cd8-46780776c1ed","ios":"levelo://app?vid=6e516340-9641-4325-9cd8-46780776c1ed"},"vehicle_type_id":"4","last_reported":1762636117,"current_range_meters":12800,"station_id":"ce4bgrp2rcd13ifvqc9g","pricing_plan_id":"cebpf4jnsgd1na2vs0mg"},{"bike_id":"bac1e958-d0be-424b-8da6-c25e8573be47","system_id":"levelo_inurba_marseille","lat":43.31176,"lon":5.36813,"is_reserved":false,"is_disabled":false,"rental_uris":{"android":"levelo://app?vid=bac1e958-d0be-424b-8da6-c25e8573be47","ios":"levelo://app?vid=bac1e958-d0be-424b-8da6-c25e8573be47"},"vehicle_type_id":"4","last_reported":1762636117,"current_range_meters":12800,"station_id":"","pricing_plan_id":"cebpf4jnsgd1na2vs0mg"},{"bike_id":"fdfdde80-7f98-4492-a263-3964ecfbbb45","system_id":"levelo_inurba_marseille","lat":43.28309,"lon":5.3506,"is_reserved":false,"is_disabled":true,"rental_uris":{"android":"levelo://app?vid=fdfdde80-7f98-4492-a263-3964ecfbbb45","ios":"levelo://app?vid=fdfdde80-7f98-4492-a263-3964ecfbbb45"},"vehicle_type_id":"4","last_reported":1762636117,"current_range_meters":12800,"station_id":"ce4bhbp2rcd13ifvqerg","pricing_plan_id":"cebpf4jnsgd1na2vs0mg"},{"bike_id":"21dcb4e2-bef4-415f-aa59-cd0b9e2cb07b","system_id":"levelo_inurba_marseille","lat":43.22835,"lon":5.43483,"is_reserved":false,"is_disabled":false,"rental_uris":{"android":"levelo://app?vid=21dcb4e2-bef4-415f-aa59-cd0b9e2cb07b","ios":"levelo://app?vid=21dcb4e2-bef4-415f-aa59-cd0b9e2cb07b"},"vehicle_type_id":"4","last_reported":1762636117,"current_range_meters":12800,"station_id":"","pricing_plan_id":"cebpf4jnsgd1na2vs0mg"},{"bike_id":"3b4fb0bf-30a1-4202-a176-68034828bad3","system_id":"levelo_inurba_marseille","lat":43.28936,"lon":5.36633,"is_reserved":false,"is_disabled":false,"rental_uris":{"android":"levelo://app?vid=3b4fb0bf-30a1-4202-a176-68034828bad3","ios":"levelo://app?vid=3b4fb0bf-30a1-4202-a176-68034828bad3"},"vehicle_type_id":"4","last_reported":1762636117,"current_range_meters":13600,"station_id":"ce4bhap2rcd13ifvqek0","pricing_plan_id":"cebpf4jnsgd1na2vs0mg"},{"bike_id":"67bd4f29-3efc-48b8-989e-3d390a3b56cb","system_id":"levelo_inurba_marseille","lat":43.29516,"lon":5.394051,"is_reserved":false,"is_disabled":false,"rental_uris":{"android":"levelo://app?vid=67bd4f29-3efc-48b8-989e-3d390a3b56cb","ios":"levelo://app?vid=67bd4f29-3efc-48b8-989e-3d390a3b56cb"},"vehicle_type_id":"4","last_reported":1762636117,"current_range_meters":13600,"station_id":"ce4bh292rcd13ifvqdf0","pricing_plan_id":"cebpf4jnsgd1na2vs0mg"},{"bike_id":"f114550f-0e97-467f-a15f-491fe7ea5021","system_id":"levelo_inurba_marseille","lat":43.29302,"lon":5.37181,"is_reserved":false,"is_disabled":true,"rental_uris":{"android":"levelo://app?vid=f114550f-0e97-467f-a15f-491fe7ea5021","ios":"levelo://app?vid=f114550f-0e97-467f-a15f-491fe7ea5021"},"vehicle_type_id":"4","last_reported":1762636117,"current_range_meters":13600,"station_id":"ce4bgh92rcd13ifvqb40","pricing_plan_id":"cebpf4jnsgd1na2vs0mg"},{"bike_id":"c295835c-1178-4ee2-90dc-18aca0054c03","system_id":"levelo_inurba_marseille","lat":43.29799,"lon":5.44057,"is_reserved":false,"is_disabled":false,"rental_uris":{"android":"levelo://app?vid=c295835c-1178-4ee2-90dc-18aca0054c03","ios":"levelo://app?vid=c295835c-1178-4ee2-90dc-18aca0054c03"},"vehicle_type_id":"4","last_reported":1762636117,"current_range_meters":13600,"station_id":"st_d3jp68qikq2c7381ktn0","pricing_plan_id":"cebpf4jnsgd1na2vs0mg"},{"bike_id":"186f06b7-9a2a-4013-92c3-74ac21b89f0d","system_id":"levelo_inurba_marseille","lat":43.29331,"lon":5.38505,"is_reserved":false,"is_disabled":false,"rental_uris":{"android":"levelo://app?vid=186f06b7-9a2a-4013-92c3-74ac21b89f0d","ios":"levelo://app?vid=186f06b7-9a2a-4013-92c3-74ac21b89f0d"},"vehicle_type_id":"4","last_reported":1762636117,"current_range_meters":13600,"station_id":"","pricing_plan_id":"cebpf4jnsgd1na2vs0mg"},{"bike_id":"c5c2beb1-64b4-42b1-9696-40fae03ac378","system_id":"levelo_inurba_marseille","lat":43.290288,"lon":5.386405,"is_reserved":false,"is_disabled":false,"rental_uris":{"android":"levelo://app?vid=c5c2beb1-64b4-42b1-9696-40fae03ac378","ios":"levelo://app?vid=c5c2beb1-64b4-42b1-9696-40fae03ac378"},"vehicle_type_id":"4","last_reported":1762636117,"current_range_meters":13600,"station_id":"ce4bh4p2rcd13ifvqe0g","pricing_plan_id":"cebpf4jnsgd1na2vs0mg"},{"bike_id":"d00b842c-7a1c-4d04-8ee6-2bd101dd85f9","system_id":"levelo_inurba_marseille","lat":43.337272,"lon":5.391812,"is_reserved":false,"is_disabled":false,"rental_uris":{"android":"levelo://app?vid=d00b842c-7a1c-4d04-8ee6-2bd101dd85f9","ios":"levelo://app?vid=d00b842c-7a1c-4d04-8ee6-2bd101dd85f9"},"vehicle_type_id":"4","last_reported":1762636117,"current_range_meters":13600,"station_id":"ce4bhr92rcd13ifvqhsg","pricing_plan_id":"cebpf4jnsgd1na2vs0mg"},{"bike_id":"a630d70e-d466-46de-bd9f-14c9a7757ee6","system_id":"levelo_inurba_marseille","lat":43.24647,"lon":5.3888,"is_reserved":false,"is_disabled":false,"rental_uris":{"android":"levelo://app?vid=a630d70e-d466-46de-bd9f-14c9a7757ee6","ios":"levelo://app?vid=a630d70e-d466-46de-bd9f-14c9a7757ee6"},"vehicle_type_id":"4","last_reported":1762636117,"current_range_meters":13600,"station_id":"ce4bhg12rcd13ifvqf60","pricing_plan_id":"cebpf4jnsgd1na2vs0mg"},{"bike_id":"5c91f7a5-bf4a-47b4-82be-e1c1e11e7df2","system_id":"levelo_inurba_marseille","lat":43.29493,"lon":5.43291,"is_reserved":false,"is_disabled":false,"rental_uris":{"android":"levelo://app?vid=5c91f7a5-bf4a-47b4-82be-e1c1e11e7df2","ios":"levelo://app?vid=5c91f7a5-bf4a-47b4-82be-e1c1e11e7df2"},"vehicle_type_id":"4","last_reported":1762636117,"current_range_meters":13600,"station_id":"st_d3j5ugp08ojc73fj9d10","pricing_plan_id":"cebpf4jnsgd1na2vs0mg"},{"bike_id":"7e116551-bd2c-4e6e-8d4f-ea2d08961f93","system_id":"levelo_inurba_marseille","lat":43.292311,"lon":5.384486,"is_reserved":false,"is_disabled":false,"rental_uris":{"android":"levelo://app?vid=7e116551-bd2c-4e6e-8d4f-ea2d08961f93","ios":"levelo://app?vid=7e116551-bd2c-4e6e-8d4f-ea2d08961f93"},"vehicle_type_id":"4","last_reported":1762636117,"current_range_meters":13600,"station_id":"ce4bh692rcd13ifvqea0","pricing_plan_id":"cebpf4jnsgd1na2vs0mg"},{"bike_id":"c7d52006-ed2f-4ae5-ae08-b966d64ee716","system_id":"levelo_inurba_marseille","lat":43.307983,"lon":5.381518,"is_reserved":false,"is_disabled":false,"rental_uris":{"android":"levelo://app?vid=c7d52006-ed2f-4ae5-ae08-b966d64ee716","ios":"levelo://app?vid=c7d52006-ed2f-4ae5-ae08-b966d64ee716"},"vehicle_type_id":"4","last_reported":1762636117,"current_range_meters":14000,"station_id":"ce4bgt12rcd13ifvqce0","pricing_plan_id":"cebpf4jnsgd1na2vs0mg"},{"bike_id":"034b45fe-fc8a-40e2-930b-00715a4950c7","system_id":"levelo_inurba_marseille","lat":43.22534,"lon":5.34833,"is_reserved":false,"is_disabled":false,"rental_uris":{"android":"levelo://app?vid=034b45fe-fc8a-40e2-930b-00715a4950c7","ios":"levelo://app?vid=034b45fe-fc8a-40e2-930b-00715a4950c7"},"vehicle_type_id":"4","last_reported":1762636117,"current_range_meters":14000,"station_id":"","pricing_plan_id":"cebpf4jnsgd1na2vs0mg"},{"bike_id":"15db09df-59b0-446a-87c5-e354a3319258","system_id":"levelo_inurba_marseille","lat":43.28473,"lon":5.48405,"is_reserved":false,"is_disabled":false,"rental_uris":{"android":"levelo://app?vid=15db09df-59b0-446a-87c5-e354a3319258","ios":"levelo://app?vid=15db09df-59b0-446a-87c5-e354a3319258"},"vehicle_type_id":"4","last_reported":1762636117,"current_range_meters":14000,"station_id":"","pricing_plan_id":"cebpf4jnsgd1na2vs0mg"},{"bike_id":"504042e1-7087-4300-b2ab-cad689725599","system_id":"levelo_inurba_marseille","lat":43.3031,"lon":5.36886,"is_reserved":false,"is_disabled":false,"rental_uris":{"android":"levelo://app?vid=504042e1-7087-4300-b2ab-cad689725599","ios":"levelo://app?vid=504042e1-7087-4300-b2ab-cad689725599"},"vehicle_type_id":"4","last_reported":1762636117,"current_range_meters":14000,"station_id":"ce4bgqh2rcd13ifvqc5g","pricing_plan_id":"cebpf4jnsgd1na2vs0mg"},{"bike_id":"4accb287-e7e6-47f2-9304-e46449e5d67d","system_id":"levelo_inurba_marseille","lat":43.2954,"lon":5.39032,"is_reserved":false,"is_disabled":false,"rental_uris":{"android":"levelo://app?vid=4accb287-e7e6-47f2-9304-e46449e5d67d","ios":"levelo://app?vid=4accb287-e7e6-47f2-9304-e46449e5d67d"},"vehicle_type_id":"4","last_reported":1762636117,"current_range_meters":14000,"station_id":"ce4bh3p2rcd13ifvqdp0","pricing_plan_id":"cebpf4jnsgd1na2vs0mg"},{"bike_id":"462fd3fb-de6a-4a66-9e94-cfd2b0d801c6","system_id":"levelo_inurba_marseille","lat":43.30302,"lon":5.37681,"is_reserved":false,"is_disabled":false,"rental_uris":{"android":"levelo://app?vid=462fd3fb-de6a-4a66-9e94-cfd2b0d801c6","ios":"levelo://app?vid=462fd3fb-de6a-4a66-9e94-cfd2b0d801c6"},"vehicle_type_id":"4","last_reported":1762636117,"current_range_meters":14000,"station_id":"ce4bguh2rcd13ifvqcj0","pricing_plan_id":"cebpf4jnsgd1na2vs0mg"},{"bike_id":"a07eee62-9d57-4305-a3b9-5271338fd36d","system_id":"levelo_inurba_marseille","lat":43.256367,"lon":5.39394,"is_reserved":false,"is_disabled":false,"rental_uris":{"android":"levelo://app?vid=a07eee62-9d57-4305-a3b9-5271338fd36d","ios":"levelo://app?vid=a07eee62-9d57-4305-a3b9-5271338fd36d"},"vehicle_type_id":"4","last_reported":1762636117,"current_range_meters":14400,"station_id":"","pricing_plan_id":"cebpf4jnsgd1na2vs0mg"},{"bike_id":"d86e902c-a007-43b4-b73e-84d36fd8458a","system_id":"levelo_inurba_marseille","lat":43.298831,"lon":5.397325,"is_reserved":false,"is_disabled":false,"rental_uris":{"android":"levelo://app?vid=d86e902c-a007-43b4-b73e-84d36fd8458a","ios":"levelo://app?vid=d86e902c-a007-43b4-b73e-84d36fd8458a"},"vehicle_type_id":"4","last_reported":1762636117,"current_range_meters":14400,"station_id":"ce4bh0h2rcd13ifvqd50","pricing_plan_id":"cebpf4jnsgd1na2vs0mg"},{"bike_id":"fecd52af-29bb-4bb2-9160-9e83d6376c53","system_id":"levelo_inurba_marseille","lat":43.287428,"lon":5.395923,"is_reserved":false,"is_disabled":false,"rental_uris":{"android":"levelo://app?vid=fecd52af-29bb-4bb2-9160-9e83d6376c53","ios":"levelo://app?vid=fecd52af-29bb-4bb2-9160-9e83d6376c53"},"vehicle_type_id":"4","last_reported":1762636117,"current_range_meters":14400,"station_id":"","pricing_plan_id":"cebpf4jnsgd1na2vs0mg"},{"bike_id":"c73c5513-728d-4700-9395-e31e4399cd51","system_id":"levelo_inurba_marseille","lat":43.29186,"lon":5.40257,"is_reserved":false,"is_disabled":false,"rental_uris":{"android":"levelo://app?vid=c73c5513-728d-4700-9395-e31e4399cd51","ios":"levelo://app?vid=c73c5513-728d-4700-9395-e31e4399cd51"},"vehicle_type_id":"4","last_reported":1762636117,"current_range_meters":14400,"station_id":"","pricing_plan_id":"cebpf4jnsgd1na2vs0mg"},{"bike_id":"bff5af0a-cdba-4b0e-a460-7437023c356b","system_id":"levelo_inurba_marseille","lat":43.30303,"lon":5.36895,"is_reserved":false,"is_disabled":false,"rental_uris":{"android":"levelo://app?vid=bff5af0a-cdba-4b0e-a460-7437023c356b","ios":"levelo://app?vid=bff5af0a-cdba-4b0e-a460-7437023c356b"},"vehicle_type_id":"4","last_reported":1762636117,"current_range_meters":14400,"station_id":"ce4bgqh2rcd13ifvqc5g","pricing_plan_id":"cebpf4jnsgd1na2vs0mg"},{"bike_id":"1d5b947e-2f1a-40e5-8166-542ac5ce448f","system_id":"levelo_inurba_marseille","lat":43.3045,"lon":5.38869,"is_reserved":false,"is_disabled":false,"rental_uris":{"android":"levelo://app?vid=1d5b947e-2f1a-40e5-8166-542ac5ce448f","ios":"levelo://app?vid=1d5b947e-2f1a-40e5-8166-542ac5ce448f"},"vehicle_type_id":"4","last_reported":1762636117,"current_range_meters":14400,"station_id":"ce4bgk12rcd13ifvqbi0","pricing_plan_id":"cebpf4jnsgd1na2vs0mg"},{"bike_id":"966ca86b-9861-4906-be6e-00cd0ec5eb0a","system_id":"levelo_inurba_marseille","lat":43.25501,"lon":5.37649,"is_reserved":false,"is_disabled":false,"rental_uris":{"android":"levelo://app?vid=966ca86b-9861-4906-be6e-00cd0ec5eb0a","ios":"levelo://app?vid=966ca86b-9861-4906-be6e-00cd0ec5eb0a"},"vehicle_type_id":"4","last_reported":1762636117,"current_range_meters":14800,"station_id":"ce4bhh12rcd13ifvqff0","pricing_plan_id":"cebpf4jnsgd1na2vs0mg"},{"bike_id":"8e140702-853d-4aa7-abe8-645805aa250e","system_id":"levelo_inurba_marseille","lat":43.26559,"lon":5.40322,"is_reserved":false,"is_disabled":false,"rental_uris":{"android":"levelo://app?vid=8e140702-853d-4aa7-abe8-645805aa250e","ios":"levelo://app?vid=8e140702-853d-4aa7-abe8-645805aa250e"},"vehicle_type_id":"4","last_reported":1762636117,"current_range_meters":14800,"station_id":"ce4bhmp2rcd13ifvqgng","pricing_plan_id":"cebpf4jnsgd1na2vs0mg"},{"bike_id":"1a85bd73-f6c9-483d-ac28-5d95b6775d78","system_id":"levelo_inurba_marseille","lat":43.28707,"lon":5.37937,"is_reserved":false,"is_disabled":true,"rental_uris":{"android":"levelo://app?vid=1a85bd73-f6c9-483d-ac28-5d95b6775d78","ios":"levelo://app?vid=1a85bd73-f6c9-483d-ac28-5d95b6775d78"},"vehicle_type_id":"4","last_reported":1762636117,"current_range_meters":14800,"station_id":"ce4bh9p2rcd13ifvqec0","pricing_plan_id":"cebpf4jnsgd1na2vs0mg"},{"bike_id":"56919c18-0a5a-4066-aca4-7ee5f3dbf8f4","system_id":"levelo_inurba_marseille","lat":43.30214,"lon":5.39468,"is_reserved":false,"is_disabled":false,"rental_uris":{"android":"levelo://app?vid=56919c18-0a5a-4066-aca4-7ee5f3dbf8f4","ios":"levelo://app?vid=56919c18-0a5a-4066-aca4-7ee5f3dbf8f4"},"vehicle_type_id":"4","last_reported":1762636117,"current_range_meters":14800,"station_id":"ce4bh0p2rcd13ifvqd70","pricing_plan_id":"cebpf4jnsgd1na2vs0mg"},{"bike_id":"351c8aa8-d1dd-4a0a-879f-dc207717c5ea","system_id":"levelo_inurba_marseille","lat":43.2951,"lon":5.37527,"is_reserved":false,"is_disabled":false,"rental_uris":{"android":"levelo://app?vid=351c8aa8-d1dd-4a0a-879f-dc207717c5ea","ios":"levelo://app?vid=351c8aa8-d1dd-4a0a-879f-dc207717c5ea"},"vehicle_type_id":"4","last_reported":1762636117,"current_range_meters":14800,"station_id":"ce4bgkp2rcd13ifvqbmg","pricing_plan_id":"cebpf4jnsgd1na2vs0mg"},{"bike_id":"53529ee7-fa79-4bfe-8ac3-2ffb63a46b11","system_id":"levelo_inurba_marseille","lat":43.31808,"lon":5.38835,"is_reserved":false,"is_disabled":false,"rental_uris":{"android":"levelo://app?vid=53529ee7-fa79-4bfe-8ac3-2ffb63a46b11","ios":"levelo://app?vid=53529ee7-fa79-4bfe-8ac3-2ffb63a46b11"},"vehicle_type_id":"4","last_reported":1762636117,"current_range_meters":14800,"station_id":"","pricing_plan_id":"cebpf4jnsgd1na2vs0mg"},{"bike_id":"25ea1a81-a64d-4e52-93c6-642383ef62b6","system_id":"levelo_inurba_marseille","lat":43.31257,"lon":5.36883,"is_reserved":false,"is_disabled":false,"rental_uris":{"android":"levelo://app?vid=25ea1a81-a64d-4e52-93c6-642383ef62b6","ios":"levelo://app?vid=25ea1a81-a64d-4e52-93c6-642383ef62b6"},"vehicle_type_id":"4","last_reported":1762636117,"current_range_meters":14800,"station_id":"ce4bgl92rcd13ifvqbq0","pricing_plan_id":"cebpf4jnsgd1na2vs0mg"},{"bike_id":"4fa93e58-ad51-41bb-b7cd-c71dad4e22b9","system_id":"levelo_inurba_marseille","lat":43.21191,"lon":5.35069,"is_reserved":false,"is_disabled":true,"rental_uris":{"android":"levelo://app?vid=4fa93e58-ad51-41bb-b7cd-c71dad4e22b9","ios":"levelo://app?vid=4fa93e58-ad51-41bb-b7cd-c71dad4e22b9"},"vehicle_type_id":"4","last_reported":1762636117,"current_range_meters":14800,"station_id":"st_cvj6sg6p6f1abm77japg","pricing_plan_id":"cebpf4jnsgd1na2vs0mg"},{"bike_id":"06b572d6-d95a-4f1a-9a9a-b316897ad6d5","system_id":"levelo_inurba_marseille","lat":43.29545,"lon":5.3752,"is_reserved":false,"is_disabled":false,"rental_uris":{"android":"levelo://app?vid=06b572d6-d95a-4f1a-9a9a-b316897ad6d5","ios":"levelo://app?vid=06b572d6-d95a-4f1a-9a9a-b316897ad6d5"},"vehicle_type_id":"4","last_reported":1762636117,"current_range_meters":14800,"station_id":"ce4bgkp2rcd13ifvqbmg","pricing_plan_id":"cebpf4jnsgd1na2vs0mg"},{"bike_id":"faf0aceb-00d1-4296-8aba-764fb540ed9f","system_id":"levelo_inurba_marseille","lat":43.24069,"lon":5.37761,"is_reserved":false,"is_disabled":false,"rental_uris":{"android":"levelo://app?vid=faf0aceb-00d1-4296-8aba-764fb540ed9f","ios":"levelo://app?vid=faf0aceb-00d1-4296-8aba-764fb540ed9f"},"vehicle_type_id":"4","last_reported":1762636117,"current_range_meters":14800,"station_id":"ce4bhnp2rcd13ifvqgvg","pricing_plan_id":"cebpf4jnsgd1na2vs0mg"},{"bike_id":"23b56c88-76df-4ed5-9285-ca032299efac","system_id":"levelo_inurba_marseille","lat":43.29017,"lon":5.38616,"is_reserved":false,"is_disabled":false,"rental_uris":{"android":"levelo://app?vid=23b56c88-76df-4ed5-9285-ca032299efac","ios":"levelo://app?vid=23b56c88-76df-4ed5-9285-ca032299efac"},"vehicle_type_id":"4","last_reported":1762636117,"current_range_meters":15200,"station_id":"ce4bh4p2rcd13ifvqe0g","pricing_plan_id":"cebpf4jnsgd1na2vs0mg"},{"bike_id":"3e2b6028-a539-4e64-9081-578276ce4315","system_id":"levelo_inurba_marseille","lat":43.245932,"lon":5.421061,"is_reserved":false,"is_disabled":false,"rental_uris":{"android":"levelo://app?vid=3e2b6028-a539-4e64-9081-578276ce4315","ios":"levelo://app?vid=3e2b6028-a539-4e64-9081-578276ce4315"},"vehicle_type_id":"4","last_reported":1762636117,"current_range_meters":15200,"station_id":"","pricing_plan_id":"cebpf4jnsgd1na2vs0mg"},{"bike_id":"69eca13e-d04a-4c62-a061-b856ea7c3dc3","system_id":"levelo_inurba_marseille","lat":43.29538,"lon":5.3855,"is_reserved":false,"is_disabled":false,"rental_uris":{"android":"levelo://app?vid=69eca13e-d04a-4c62-a061-b856ea7c3dc3","ios":"levelo://app?vid=69eca13e-d04a-4c62-a061-b856ea7c3dc3"},"vehicle_type_id":"4","last_reported":1762636117,"current_range_meters":15200,"station_id":"ce4bgih2rcd13ifvqba0","pricing_plan_id":"cebpf4jnsgd1na2vs0mg"},{"bike_id":"6ca580b9-ae87-4e9b-a62c-4e0f6a07370c","system_id":"levelo_inurba_marseille","lat":43.21184,"lon":5.35058,"is_reserved":false,"is_disabled":false,"rental_uris":{"android":"levelo://app?vid=6ca580b9-ae87-4e9b-a62c-4e0f6a07370c","ios":"levelo://app?vid=6ca580b9-ae87-4e9b-a62c-4e0f6a07370c"},"vehicle_type_id":"4","last_reported":1762636117,"current_range_meters":15200,"station_id":"st_cvj6sg6p6f1abm77japg","pricing_plan_id":"cebpf4jnsgd1na2vs0mg"},{"bike_id":"0ad5f10d-6066-4251-9512-01a29d7c2a83","system_id":"levelo_inurba_marseille","lat":43.3095,"lon":5.3904,"is_reserved":false,"is_disabled":false,"rental_uris":{"android":"levelo://app?vid=0ad5f10d-6066-4251-9512-01a29d7c2a83","ios":"levelo://app?vid=0ad5f10d-6066-4251-9512-01a29d7c2a83"},"vehicle_type_id":"4","last_reported":1762636117,"current_range_meters":15200,"station_id":"ce4bgup2rcd13ifvqco0","pricing_plan_id":"cebpf4jnsgd1na2vs0mg"},{"bike_id":"26b0c57e-6c58-491a-893d-44d3fb2332fa","system_id":"levelo_inurba_marseille","lat":43.28077,"lon":5.39647,"is_reserved":false,"is_disabled":false,"rental_uris":{"android":"levelo://app?vid=26b0c57e-6c58-491a-893d-44d3fb2332fa","ios":"levelo://app?vid=26b0c57e-6c58-491a-893d-44d3fb2332fa"},"vehicle_type_id":"4","last_reported":1762636117,"current_range_meters":15200,"station_id":"ce4bho12rcd13ifvqh2g","pricing_plan_id":"cebpf4jnsgd1na2vs0mg"},{"bike_id":"2b1e0c4b-c73b-415a-b52c-8778d2bdbadb","system_id":"levelo_inurba_marseille","lat":43.30029,"lon":5.38162,"is_reserved":false,"is_disabled":false,"rental_uris":{"android":"levelo://app?vid=2b1e0c4b-c73b-415a-b52c-8778d2bdbadb","ios":"levelo://app?vid=2b1e0c4b-c73b-415a-b52c-8778d2bdbadb"},"vehicle_type_id":"4","last_reported":1762636117,"current_range_meters":15200,"station_id":"","pricing_plan_id":"cebpf4jnsgd1na2vs0mg"},{"bike_id":"23b90330-11a8-4e6d-bb65-7ac0cec458dd","system_id":"levelo_inurba_marseille","lat":43.28842,"lon":5.39318,"is_reserved":false,"is_disabled":false,"rental_uris":{"android":"levelo://app?vid=23b90330-11a8-4e6d-bb65-7ac0cec458dd","ios":"levelo://app?vid=23b90330-11a8-4e6d-bb65-7ac0cec458dd"},"vehicle_type_id":"4","last_reported":1762636117,"current_range_meters":15200,"station_id":"ce4bh2p2rcd13ifvqdi0","pricing_plan_id":"cebpf4jnsgd1na2vs0mg"},{"bike_id":"e374f4d6-676c-4d62-af2d-1f0734c48172","system_id":"levelo_inurba_marseille","lat":43.29488,"lon":5.43309,"is_reserved":false,"is_disabled":false,"rental_uris":{"android":"levelo://app?vid=e374f4d6-676c-4d62-af2d-1f0734c48172","ios":"levelo://app?vid=e374f4d6-676c-4d62-af2d-1f0734c48172"},"vehicle_type_id":"4","last_reported":1762636117,"current_range_meters":16000,"station_id":"st_d3j5ugp08ojc73fj9d10","pricing_plan_id":"cebpf4jnsgd1na2vs0mg"},{"bike_id":"d1cbe8b1-b39b-4e6a-b4e1-914b6f778fce","system_id":"levelo_inurba_marseille","lat":43.31579,"lon":5.38825,"is_reserved":false,"is_disabled":true,"rental_uris":{"android":"levelo://app?vid=d1cbe8b1-b39b-4e6a-b4e1-914b6f778fce","ios":"levelo://app?vid=d1cbe8b1-b39b-4e6a-b4e1-914b6f778fce"},"vehicle_type_id":"4","last_reported":1762636117,"current_range_meters":16000,"station_id":"","pricing_plan_id":"cebpf4jnsgd1na2vs0mg"},{"bike_id":"2d5e7a3b-6e99-407b-bc6b-5a56cfb8c08a","system_id":"levelo_inurba_marseille","lat":43.29254,"lon":5.3844,"is_reserved":false,"is_disabled":false,"rental_uris":{"android":"levelo://app?vid=2d5e7a3b-6e99-407b-bc6b-5a56cfb8c08a","ios":"levelo://app?vid=2d5e7a3b-6e99-407b-bc6b-5a56cfb8c08a"},"vehicle_type_id":"4","last_reported":1762636117,"current_range_meters":16000,"station_id":"ce4bh692rcd13ifvqea0","pricing_plan_id":"cebpf4jnsgd1na2vs0mg"},{"bike_id":"c08029aa-0057-4324-8e05-a61f44ee38b5","system_id":"levelo_inurba_marseille","lat":43.28712,"lon":5.37398,"is_reserved":false,"is_disabled":false,"rental_uris":{"android":"levelo://app?vid=c08029aa-0057-4324-8e05-a61f44ee38b5","ios":"levelo://app?vid=c08029aa-0057-4324-8e05-a61f44ee38b5"},"vehicle_type_id":"4","last_reported":1762636117,"current_range_meters":16000,"station_id":"ce4bh3p2rcd13ifvqdq0","pricing_plan_id":"cebpf4jnsgd1na2vs0mg"},{"bike_id":"9af37f50-4b28-477b-a125-5d8744afd33a","system_id":"levelo_inurba_marseille","lat":43.295325,"lon":5.385438,"is_reserved":false,"is_disabled":false,"rental_uris":{"android":"levelo://app?vid=9af37f50-4b28-477b-a125-5d8744afd33a","ios":"levelo://app?vid=9af37f50-4b28-477b-a125-5d8744afd33a"},"vehicle_type_id":"4","last_reported":1762636117,"current_range_meters":16000,"station_id":"ce4bgih2rcd13ifvqba0","pricing_plan_id":"cebpf4jnsgd1na2vs0mg"},{"bike_id":"65d12be1-5512-4cb2-9c5c-cc652dbd6410","system_id":"levelo_inurba_marseille","lat":43.31267,"lon":5.40161,"is_reserved":false,"is_disabled":false,"rental_uris":{"android":"levelo://app?vid=65d12be1-5512-4cb2-9c5c-cc652dbd6410","ios":"levelo://app?vid=65d12be1-5512-4cb2-9c5c-cc652dbd6410"},"vehicle_type_id":"4","last_reported":1762636117,"current_range_meters":16000,"station_id":"ce4bh092rcd13ifvqd30","pricing_plan_id":"cebpf4jnsgd1na2vs0mg"},{"bike_id":"71389d93-aab8-404d-9f5a-241735a369ec","system_id":"levelo_inurba_marseille","lat":43.29294,"lon":5.3745,"is_reserved":false,"is_disabled":false,"rental_uris":{"android":"levelo://app?vid=71389d93-aab8-404d-9f5a-241735a369ec","ios":"levelo://app?vid=71389d93-aab8-404d-9f5a-241735a369ec"},"vehicle_type_id":"4","last_reported":1762636117,"current_range_meters":16000,"station_id":"ce4bgi12rcd13ifvqb70","pricing_plan_id":"cebpf4jnsgd1na2vs0mg"},{"bike_id":"ac1012d0-7872-4c6e-85e6-fc8eaff39396","system_id":"levelo_inurba_marseille","lat":43.28456,"lon":5.35883,"is_reserved":false,"is_disabled":true,"rental_uris":{"android":"levelo://app?vid=ac1012d0-7872-4c6e-85e6-fc8eaff39396","ios":"levelo://app?vid=ac1012d0-7872-4c6e-85e6-fc8eaff39396"},"vehicle_type_id":"4","last_reported":1762636117,"current_range_meters":16000,"station_id":"ce4bhah2rcd13ifvqei0","pricing_plan_id":"cebpf4jnsgd1na2vs0mg"},{"bike_id":"db147f7a-ba0f-4d53-930a-237a2ba808c4","system_id":"levelo_inurba_marseille","lat":43.29254,"lon":5.38431,"is_reserved":false,"is_disabled":false,"rental_uris":{"android":"levelo://app?vid=db147f7a-ba0f-4d53-930a-237a2ba808c4","ios":"levelo://app?vid=db147f7a-ba0f-4d53-930a-237a2ba808c4"},"vehicle_type_id":"4","last_reported":1762636117,"current_range_meters":16400,"station_id":"ce4bh692rcd13ifvqea0","pricing_plan_id":"cebpf4jnsgd1na2vs0mg"},{"bike_id":"c6d5d8d4-4173-4646-a45b-e93034e39692","system_id":"levelo_inurba_marseille","lat":43.23151,"lon":5.43698,"is_reserved":false,"is_disabled":false,"rental_uris":{"android":"levelo://app?vid=c6d5d8d4-4173-4646-a45b-e93034e39692","ios":"levelo://app?vid=c6d5d8d4-4173-4646-a45b-e93034e39692"},"vehicle_type_id":"4","last_reported":1762636117,"current_range_meters":16400,"station_id":"ce4bhmp2rcd13ifvqgog","pricing_plan_id":"cebpf4jnsgd1na2vs0mg"},{"bike_id":"35c1bd61-5acc-46d1-8847-1f3e87136ab3","system_id":"levelo_inurba_marseille","lat":43.29535,"lon":5.38536,"is_reserved":false,"is_disabled":false,"rental_uris":{"android":"levelo://app?vid=35c1bd61-5acc-46d1-8847-1f3e87136ab3","ios":"levelo://app?vid=35c1bd61-5acc-46d1-8847-1f3e87136ab3"},"vehicle_type_id":"4","last_reported":1762636117,"current_range_meters":16400,"station_id":"ce4bgih2rcd13ifvqba0","pricing_plan_id":"cebpf4jnsgd1na2vs0mg"},{"bike_id":"42ca3851-5622-4ac0-9bc7-51a2807cfc48","system_id":"levelo_inurba_marseille","lat":43.29277,"lon":5.40112,"is_reserved":false,"is_disabled":false,"rental_uris":{"android":"levelo://app?vid=42ca3851-5622-4ac0-9bc7-51a2807cfc48","ios":"levelo://app?vid=42ca3851-5622-4ac0-9bc7-51a2807cfc48"},"vehicle_type_id":"4","last_reported":1762636117,"current_range_meters":16400,"station_id":"ce4bh312rcd13ifvqdk0","pricing_plan_id":"cebpf4jnsgd1na2vs0mg"},{"bike_id":"260e08db-ebe0-43dc-841f-0b6cfdac9a2f","system_id":"levelo_inurba_marseille","lat":43.25113,"lon":5.40317,"is_reserved":false,"is_disabled":false,"rental_uris":{"android":"levelo://app?vid=260e08db-ebe0-43dc-841f-0b6cfdac9a2f","ios":"levelo://app?vid=260e08db-ebe0-43dc-841f-0b6cfdac9a2f"},"vehicle_type_id":"4","last_reported":1762636117,"current_range_meters":16400,"station_id":"ce4bhlh2rcd13ifvqgig","pricing_plan_id":"cebpf4jnsgd1na2vs0mg"},{"bike_id":"c412a097-ab5e-410f-a8ae-9c976cca328b","system_id":"levelo_inurba_marseille","lat":43.23157,"lon":5.43712,"is_reserved":false,"is_disabled":false,"rental_uris":{"android":"levelo://app?vid=c412a097-ab5e-410f-a8ae-9c976cca328b","ios":"levelo://app?vid=c412a097-ab5e-410f-a8ae-9c976cca328b"},"vehicle_type_id":"4","last_reported":1762636117,"current_range_meters":16400,"station_id":"ce4bhmp2rcd13ifvqgog","pricing_plan_id":"cebpf4jnsgd1na2vs0mg"},{"bike_id":"7567186c-26e2-4a29-9039-ff1659812cf0","system_id":"levelo_inurba_marseille","lat":43.29591,"lon":5.36742,"is_reserved":false,"is_disabled":false,"rental_uris":{"android":"levelo://app?vid=7567186c-26e2-4a29-9039-ff1659812cf0","ios":"levelo://app?vid=7567186c-26e2-4a29-9039-ff1659812cf0"},"vehicle_type_id":"4","last_reported":1762636117,"current_range_meters":16400,"station_id":"ce4bgph2rcd13ifvqc2g","pricing_plan_id":"cebpf4jnsgd1na2vs0mg"},{"bike_id":"bcb7664a-39c2-46f8-930f-41cebd3d0b86","system_id":"levelo_inurba_marseille","lat":43.21199,"lon":5.35059,"is_reserved":false,"is_disabled":true,"rental_uris":{"android":"levelo://app?vid=bcb7664a-39c2-46f8-930f-41cebd3d0b86","ios":"levelo://app?vid=bcb7664a-39c2-46f8-930f-41cebd3d0b86"},"vehicle_type_id":"4","last_reported":1762636117,"current_range_meters":16400,"station_id":"st_cvj6sg6p6f1abm77japg","pricing_plan_id":"cebpf4jnsgd1na2vs0mg"},{"bike_id":"2ae1bc78-8387-4c1e-84eb-21b0c571c61a","system_id":"levelo_inurba_marseille","lat":43.295319,"lon":5.385484,"is_reserved":false,"is_disabled":false,"rental_uris":{"android":"levelo://app?vid=2ae1bc78-8387-4c1e-84eb-21b0c571c61a","ios":"levelo://app?vid=2ae1bc78-8387-4c1e-84eb-21b0c571c61a"},"vehicle_type_id":"4","last_reported":1762636117,"current_range_meters":16400,"station_id":"ce4bgih2rcd13ifvqba0","pricing_plan_id":"cebpf4jnsgd1na2vs0mg"},{"bike_id":"e4cfe488-02c0-40c7-9b79-06076445ed3b","system_id":"levelo_inurba_marseille","lat":43.29313,"lon":5.3715,"is_reserved":false,"is_disabled":false,"rental_uris":{"android":"levelo://app?vid=e4cfe488-02c0-40c7-9b79-06076445ed3b","ios":"levelo://app?vid=e4cfe488-02c0-40c7-9b79-06076445ed3b"},"vehicle_type_id":"4","last_reported":1762636117,"current_range_meters":16400,"station_id":"ce4bgh92rcd13ifvqb40","pricing_plan_id":"cebpf4jnsgd1na2vs0mg"},{"bike_id":"7251439b-7fee-4423-83ad-8a0dbd1ea6cd","system_id":"levelo_inurba_marseille","lat":43.24056,"lon":5.37701,"is_reserved":false,"is_disabled":false,"rental_uris":{"android":"levelo://app?vid=7251439b-7fee-4423-83ad-8a0dbd1ea6cd","ios":"levelo://app?vid=7251439b-7fee-4423-83ad-8a0dbd1ea6cd"},"vehicle_type_id":"4","last_reported":1762636117,"current_range_meters":16400,"station_id":"ce4bhnp2rcd13ifvqgvg","pricing_plan_id":"cebpf4jnsgd1na2vs0mg"},{"bike_id":"cc68c5ad-a9c0-4e7d-809f-5f6fb2bcf50c","system_id":"levelo_inurba_marseille","lat":43.29028,"lon":5.38631,"is_reserved":false,"is_disabled":false,"rental_uris":{"android":"levelo://app?vid=cc68c5ad-a9c0-4e7d-809f-5f6fb2bcf50c","ios":"levelo://app?vid=cc68c5ad-a9c0-4e7d-809f-5f6fb2bcf50c"},"vehicle_type_id":"4","last_reported":1762636117,"current_range_meters":16400,"station_id":"ce4bh4p2rcd13ifvqe0g","pricing_plan_id":"cebpf4jnsgd1na2vs0mg"},{"bike_id":"901bdbd3-4581-47c6-8c93-1089825f556a","system_id":"levelo_inurba_marseille","lat":43.30975,"lon":5.39036,"is_reserved":false,"is_disabled":false,"rental_uris":{"android":"levelo://app?vid=901bdbd3-4581-47c6-8c93-1089825f556a","ios":"levelo://app?vid=901bdbd3-4581-47c6-8c93-1089825f556a"},"vehicle_type_id":"4","last_reported":1762636117,"current_range_meters":16800,"station_id":"ce4bgup2rcd13ifvqco0","pricing_plan_id":"cebpf4jnsgd1na2vs0mg"},{"bike_id":"80a07f3d-310d-420a-ab06-0ae9bbb66cec","system_id":"levelo_inurba_marseille","lat":43.29024,"lon":5.38103,"is_reserved":false,"is_disabled":false,"rental_uris":{"android":"levelo://app?vid=80a07f3d-310d-420a-ab06-0ae9bbb66cec","ios":"levelo://app?vid=80a07f3d-310d-420a-ab06-0ae9bbb66cec"},"vehicle_type_id":"4","last_reported":1762636117,"current_range_meters":16800,"station_id":"ce4bh4p2rcd13ifvqe1g","pricing_plan_id":"cebpf4jnsgd1na2vs0mg"},{"bike_id":"8b49b149-2bf5-4f9e-8f2d-ff53d8c0a4f2","system_id":"levelo_inurba_marseille","lat":43.295327,"lon":5.385479,"is_reserved":false,"is_disabled":false,"rental_uris":{"android":"levelo://app?vid=8b49b149-2bf5-4f9e-8f2d-ff53d8c0a4f2","ios":"levelo://app?vid=8b49b149-2bf5-4f9e-8f2d-ff53d8c0a4f2"},"vehicle_type_id":"4","last_reported":1762636117,"current_range_meters":16800,"station_id":"ce4bgih2rcd13ifvqba0","pricing_plan_id":"cebpf4jnsgd1na2vs0mg"},{"bike_id":"b3a538a2-ce5b-44ca-92e8-7177ee03979a","system_id":"levelo_inurba_marseille","lat":43.29316,"lon":5.37183,"is_reserved":false,"is_disabled":false,"rental_uris":{"android":"levelo://app?vid=b3a538a2-ce5b-44ca-92e8-7177ee03979a","ios":"levelo://app?vid=b3a538a2-ce5b-44ca-92e8-7177ee03979a"},"vehicle_type_id":"4","last_reported":1762636117,"current_range_meters":16800,"station_id":"ce4bgh92rcd13ifvqb40","pricing_plan_id":"cebpf4jnsgd1na2vs0mg"},{"bike_id":"90e75491-f300-4cd4-95d9-4fcce675996b","system_id":"levelo_inurba_marseille","lat":43.28416,"lon":5.3753,"is_reserved":false,"is_disabled":true,"rental_uris":{"android":"levelo://app?vid=90e75491-f300-4cd4-95d9-4fcce675996b","ios":"levelo://app?vid=90e75491-f300-4cd4-95d9-4fcce675996b"},"vehicle_type_id":"4","last_reported":1762636117,"current_range_meters":16800,"station_id":"ce4bh412rcd13ifvqds0","pricing_plan_id":"cebpf4jnsgd1na2vs0mg"},{"bike_id":"317822ad-eebe-4d49-be47-de3738a7f974","system_id":"levelo_inurba_marseille","lat":43.33145,"lon":5.37703,"is_reserved":false,"is_disabled":false,"rental_uris":{"android":"levelo://app?vid=317822ad-eebe-4d49-be47-de3738a7f974","ios":"levelo://app?vid=317822ad-eebe-4d49-be47-de3738a7f974"},"vehicle_type_id":"4","last_reported":1762636117,"current_range_meters":16800,"station_id":"st_d46cu089ee8s73dldbu0","pricing_plan_id":"cebpf4jnsgd1na2vs0mg"},{"bike_id":"72450100-b75f-4c3c-9938-4999d8b3dc13","system_id":"levelo_inurba_marseille","lat":43.28109,"lon":5.37832,"is_reserved":false,"is_disabled":false,"rental_uris":{"android":"levelo://app?vid=72450100-b75f-4c3c-9938-4999d8b3dc13","ios":"levelo://app?vid=72450100-b75f-4c3c-9938-4999d8b3dc13"},"vehicle_type_id":"4","last_reported":1762636117,"current_range_meters":16800,"station_id":"ce4bha12rcd13ifvqee0","pricing_plan_id":"cebpf4jnsgd1na2vs0mg"},{"bike_id":"3b857a77-e1e4-4d3b-b5d1-172e4243bac9","system_id":"levelo_inurba_marseille","lat":43.29833,"lon":5.36285,"is_reserved":false,"is_disabled":false,"rental_uris":{"android":"levelo://app?vid=3b857a77-e1e4-4d3b-b5d1-172e4243bac9","ios":"levelo://app?vid=3b857a77-e1e4-4d3b-b5d1-172e4243bac9"},"vehicle_type_id":"4","last_reported":1762636117,"current_range_meters":16800,"station_id":"ce4bgpp2rcd13ifvqc3g","pricing_plan_id":"cebpf4jnsgd1na2vs0mg"},{"bike_id":"e25c8d24-42e0-4430-b493-f493da7be2c1","system_id":"levelo_inurba_marseille","lat":43.29971,"lon":5.38489,"is_reserved":false,"is_disabled":false,"rental_uris":{"android":"levelo://app?vid=e25c8d24-42e0-4430-b493-f493da7be2c1","ios":"levelo://app?vid=e25c8d24-42e0-4430-b493-f493da7be2c1"},"vehicle_type_id":"4","last_reported":1762636117,"current_range_meters":16800,"station_id":"ce4bgj92rcd13ifvqbd0","pricing_plan_id":"cebpf4jnsgd1na2vs0mg"},{"bike_id":"5d65fd6c-fce1-4217-a442-8dc14b401600","system_id":"levelo_inurba_marseille","lat":43.29845,"lon":5.36304,"is_reserved":false,"is_disabled":false,"rental_uris":{"android":"levelo://app?vid=5d65fd6c-fce1-4217-a442-8dc14b401600","ios":"levelo://app?vid=5d65fd6c-fce1-4217-a442-8dc14b401600"},"vehicle_type_id":"4","last_reported":1762636117,"current_range_meters":16800,"station_id":"ce4bgpp2rcd13ifvqc3g","pricing_plan_id":"cebpf4jnsgd1na2vs0mg"},{"bike_id":"9411d5cb-39b7-429d-9da1-4afe5a7f9ab3","system_id":"levelo_inurba_marseille","lat":43.29299,"lon":5.37446,"is_reserved":false,"is_disabled":false,"rental_uris":{"android":"levelo://app?vid=9411d5cb-39b7-429d-9da1-4afe5a7f9ab3","ios":"levelo://app?vid=9411d5cb-39b7-429d-9da1-4afe5a7f9ab3"},"vehicle_type_id":"4","last_reported":1762636117,"current_range_meters":16800,"station_id":"ce4bgi12rcd13ifvqb70","pricing_plan_id":"cebpf4jnsgd1na2vs0mg"},{"bike_id":"a09e27bc-41cb-4a75-a50c-2a1cf5b0fc7f","system_id":"levelo_inurba_marseille","lat":43.28958,"lon":5.3961,"is_reserved":false,"is_disabled":false,"rental_uris":{"android":"levelo://app?vid=a09e27bc-41cb-4a75-a50c-2a1cf5b0fc7f","ios":"levelo://app?vid=a09e27bc-41cb-4a75-a50c-2a1cf5b0fc7f"},"vehicle_type_id":"4","last_reported":1762636117,"current_range_meters":16800,"station_id":"ce4bh3h2rcd13ifvqdn0","pricing_plan_id":"cebpf4jnsgd1na2vs0mg"},{"bike_id":"d8a2355e-a776-4b85-8a3e-22368796688d","system_id":"levelo_inurba_marseille","lat":43.30799,"lon":5.36832,"is_reserved":false,"is_disabled":false,"rental_uris":{"android":"levelo://app?vid=d8a2355e-a776-4b85-8a3e-22368796688d","ios":"levelo://app?vid=d8a2355e-a776-4b85-8a3e-22368796688d"},"vehicle_type_id":"4","last_reported":1762636117,"current_range_meters":16800,"station_id":"","pricing_plan_id":"cebpf4jnsgd1na2vs0mg"},{"bike_id":"7b9ecb2d-30bc-4f1c-adb6-39eb3c485c41","system_id":"levelo_inurba_marseille","lat":43.22568,"lon":5.41619,"is_reserved":false,"is_disabled":false,"rental_uris":{"android":"levelo://app?vid=7b9ecb2d-30bc-4f1c-adb6-39eb3c485c41","ios":"levelo://app?vid=7b9ecb2d-30bc-4f1c-adb6-39eb3c485c41"},"vehicle_type_id":"4","last_reported":1762636117,"current_range_meters":16800,"station_id":"st_d2o4gvlbi1j2169b742g","pricing_plan_id":"cebpf4jnsgd1na2vs0mg"},{"bike_id":"7c0eb5fa-d003-4f2c-a61c-fe2271753684","system_id":"levelo_inurba_marseille","lat":43.29254,"lon":5.38481,"is_reserved":false,"is_disabled":false,"rental_uris":{"android":"levelo://app?vid=7c0eb5fa-d003-4f2c-a61c-fe2271753684","ios":"levelo://app?vid=7c0eb5fa-d003-4f2c-a61c-fe2271753684"},"vehicle_type_id":"4","last_reported":1762636117,"current_range_meters":17200,"station_id":"ce4bh692rcd13ifvqea0","pricing_plan_id":"cebpf4jnsgd1na2vs0mg"},{"bike_id":"b5ba995a-ad87-4357-80e4-c44c7cd6d7a7","system_id":"levelo_inurba_marseille","lat":43.31748,"lon":5.39,"is_reserved":false,"is_disabled":false,"rental_uris":{"android":"levelo://app?vid=b5ba995a-ad87-4357-80e4-c44c7cd6d7a7","ios":"levelo://app?vid=b5ba995a-ad87-4357-80e4-c44c7cd6d7a7"},"vehicle_type_id":"4","last_reported":1762636117,"current_range_meters":17200,"station_id":"ce4bhqp2rcd13ifvqhng","pricing_plan_id":"cebpf4jnsgd1na2vs0mg"},{"bike_id":"68e2a4eb-9515-41fd-aa1c-8497e40ac482","system_id":"levelo_inurba_marseille","lat":43.29941,"lon":5.38155,"is_reserved":false,"is_disabled":true,"rental_uris":{"android":"levelo://app?vid=68e2a4eb-9515-41fd-aa1c-8497e40ac482","ios":"levelo://app?vid=68e2a4eb-9515-41fd-aa1c-8497e40ac482"},"vehicle_type_id":"4","last_reported":1762636117,"current_range_meters":17200,"station_id":"ce4bgj12rcd13ifvqbc0","pricing_plan_id":"cebpf4jnsgd1na2vs0mg"},{"bike_id":"1f07b8fb-866b-4de3-97cc-0de8573688ec","system_id":"levelo_inurba_marseille","lat":43.29251,"lon":5.38451,"is_reserved":false,"is_disabled":false,"rental_uris":{"android":"levelo://app?vid=1f07b8fb-866b-4de3-97cc-0de8573688ec","ios":"levelo://app?vid=1f07b8fb-866b-4de3-97cc-0de8573688ec"},"vehicle_type_id":"4","last_reported":1762636117,"current_range_meters":17200,"station_id":"ce4bh692rcd13ifvqea0","pricing_plan_id":"cebpf4jnsgd1na2vs0mg"},{"bike_id":"5325f49b-c085-45aa-ab48-292fa71dd74e","system_id":"levelo_inurba_marseille","lat":43.290192,"lon":5.386492,"is_reserved":false,"is_disabled":false,"rental_uris":{"android":"levelo://app?vid=5325f49b-c085-45aa-ab48-292fa71dd74e","ios":"levelo://app?vid=5325f49b-c085-45aa-ab48-292fa71dd74e"},"vehicle_type_id":"4","last_reported":1762636117,"current_range_meters":17200,"station_id":"ce4bh4p2rcd13ifvqe0g","pricing_plan_id":"cebpf4jnsgd1na2vs0mg"},{"bike_id":"07487456-04db-4d2a-9c08-bc3d6a0a4071","system_id":"levelo_inurba_marseille","lat":43.28155,"lon":5.42627,"is_reserved":false,"is_disabled":false,"rental_uris":{"android":"levelo://app?vid=07487456-04db-4d2a-9c08-bc3d6a0a4071","ios":"levelo://app?vid=07487456-04db-4d2a-9c08-bc3d6a0a4071"},"vehicle_type_id":"4","last_reported":1762636117,"current_range_meters":17600,"station_id":"ce4bhnh2rcd13ifvqgug","pricing_plan_id":"cebpf4jnsgd1na2vs0mg"},{"bike_id":"095bc4f5-61ec-4a83-80b5-0edce4ce33da","system_id":"levelo_inurba_marseille","lat":43.30425,"lon":5.39739,"is_reserved":false,"is_disabled":false,"rental_uris":{"android":"levelo://app?vid=095bc4f5-61ec-4a83-80b5-0edce4ce33da","ios":"levelo://app?vid=095bc4f5-61ec-4a83-80b5-0edce4ce33da"},"vehicle_type_id":"4","last_reported":1762636117,"current_range_meters":17600,"station_id":"ce4bh092rcd13ifvqd20","pricing_plan_id":"cebpf4jnsgd1na2vs0mg"},{"bike_id":"f4b3610c-ddfd-461d-9ea3-633c91510343","system_id":"levelo_inurba_marseille","lat":43.24635,"lon":5.43156,"is_reserved":false,"is_disabled":false,"rental_uris":{"android":"levelo://app?vid=f4b3610c-ddfd-461d-9ea3-633c91510343","ios":"levelo://app?vid=f4b3610c-ddfd-461d-9ea3-633c91510343"},"vehicle_type_id":"4","last_reported":1762636117,"current_range_meters":17600,"station_id":"st_d2m6c4gdas8pm72e190g","pricing_plan_id":"cebpf4jnsgd1na2vs0mg"},{"bike_id":"579836f4-1a99-4285-9632-506689f6afcc","system_id":"levelo_inurba_marseille","lat":43.2959,"lon":5.38082,"is_reserved":false,"is_disabled":false,"rental_uris":{"android":"levelo://app?vid=579836f4-1a99-4285-9632-506689f6afcc","ios":"levelo://app?vid=579836f4-1a99-4285-9632-506689f6afcc"},"vehicle_type_id":"4","last_reported":1762636117,"current_range_meters":17600,"station_id":"ce4bgl12rcd13ifvqbo0","pricing_plan_id":"cebpf4jnsgd1na2vs0mg"},{"bike_id":"ced1eb91-122a-4e5f-92e1-f0333841cb5d","system_id":"levelo_inurba_marseille","lat":43.309339,"lon":5.401416,"is_reserved":false,"is_disabled":false,"rental_uris":{"android":"levelo://app?vid=ced1eb91-122a-4e5f-92e1-f0333841cb5d","ios":"levelo://app?vid=ced1eb91-122a-4e5f-92e1-f0333841cb5d"},"vehicle_type_id":"4","last_reported":1762636117,"current_range_meters":17600,"station_id":"ce4bgvp2rcd13ifvqct0","pricing_plan_id":"cebpf4jnsgd1na2vs0mg"},{"bike_id":"f920406d-8f6d-4679-9bba-8f654a055377","system_id":"levelo_inurba_marseille","lat":43.29241,"lon":5.38455,"is_reserved":false,"is_disabled":false,"rental_uris":{"android":"levelo://app?vid=f920406d-8f6d-4679-9bba-8f654a055377","ios":"levelo://app?vid=f920406d-8f6d-4679-9bba-8f654a055377"},"vehicle_type_id":"4","last_reported":1762636117,"current_range_meters":17600,"station_id":"ce4bh692rcd13ifvqea0","pricing_plan_id":"cebpf4jnsgd1na2vs0mg"},{"bike_id":"a5a51bf9-9908-420d-8212-6ef8d2db5d39","system_id":"levelo_inurba_marseille","lat":43.2738,"lon":5.3626,"is_reserved":false,"is_disabled":false,"rental_uris":{"android":"levelo://app?vid=a5a51bf9-9908-420d-8212-6ef8d2db5d39","ios":"levelo://app?vid=a5a51bf9-9908-420d-8212-6ef8d2db5d39"},"vehicle_type_id":"4","last_reported":1762636117,"current_range_meters":17600,"station_id":"ce4bhbh2rcd13ifvqeo0","pricing_plan_id":"cebpf4jnsgd1na2vs0mg"},{"bike_id":"adc728c4-7d88-468c-be89-220c19218372","system_id":"levelo_inurba_marseille","lat":43.30967,"lon":5.38369,"is_reserved":false,"is_disabled":false,"rental_uris":{"android":"levelo://app?vid=adc728c4-7d88-468c-be89-220c19218372","ios":"levelo://app?vid=adc728c4-7d88-468c-be89-220c19218372"},"vehicle_type_id":"4","last_reported":1762636117,"current_range_meters":17600,"station_id":"","pricing_plan_id":"cebpf4jnsgd1na2vs0mg"},{"bike_id":"345285ad-10a7-49ef-b97f-7faa01587ccf","system_id":"levelo_inurba_marseille","lat":43.24648,"lon":5.43138,"is_reserved":false,"is_disabled":false,"rental_uris":{"android":"levelo://app?vid=345285ad-10a7-49ef-b97f-7faa01587ccf","ios":"levelo://app?vid=345285ad-10a7-49ef-b97f-7faa01587ccf"},"vehicle_type_id":"4","last_reported":1762636117,"current_range_meters":17600,"station_id":"st_d2m6c4gdas8pm72e190g","pricing_plan_id":"cebpf4jnsgd1na2vs0mg"},{"bike_id":"9a776a3f-cab6-4283-a416-cc8852920997","system_id":"levelo_inurba_marseille","lat":43.22533,"lon":5.34837,"is_reserved":false,"is_disabled":false,"rental_uris":{"android":"levelo://app?vid=9a776a3f-cab6-4283-a416-cc8852920997","ios":"levelo://app?vid=9a776a3f-cab6-4283-a416-cc8852920997"},"vehicle_type_id":"4","last_reported":1762636117,"current_range_meters":17600,"station_id":"","pricing_plan_id":"cebpf4jnsgd1na2vs0mg"},