{"last_updated":1727435243,"ttl":60,"version":"2.2","data":{"bikes":[{"bike_id":"a6d23b56-a325-41be-825b-985f5703a58c","system_id":"levelo_inurba_marseille","lat":43.30786,"lon":5.37646,"is_reserved":false,"is_disabled":false,"rental_uris":{"android":"levelo://app?vid=a6d23b56-a325-41be-825b-985f5703a58c","ios":"levelo://app?vid=a6d23b56-a325-41be-825b-985f5703a58c"},"vehicle_type_id":"4","last_reported":1727435243,"current_range_meters":20000,"station_id":"ce4bgv92rcd13ifvqcq0","pricing_plan_id":"cebpf4jnsgd1na2vs0mg"},{"bike_id":"292c83bc-2ade-494e-9143-a684ea669474","system_id":"levelo_inurba_marseille","lat":43.2837,"lon":5.38634,"is_reserved":false,"is_disabled":false,"rental_uris":{"android":"levelo://app?vid=292c83bc-2ade-494e-9143-a684ea669474","ios":"levelo://app?vid=292c83bc-2ade-494e-9143-a684ea669474"},"vehicle_type_id":"4","last_reported":1727435243,"current_range_meters":26000,"station_id":"ce4bh492rcd13ifvqdvg","pricing_plan_id":"cebpf4jnsgd1na2vs0mg"},{"bike_id":"33322c55-fcec-44e2-9452-78c59e8fdf9f","system_id":"levelo_inurba_marseille","lat":43.30152,"lon":5.38078,"is_reserved":false,"is_disabled":false,"rental_uris":{"android":"levelo://app?vid=33322c55-fcec-44e2-9452-78c59e8fdf9f","ios":"levelo://app?vid=33322c55-fcec-44e2-9452-78c59e8fdf9f"},"vehicle_type_id":"4","last_reported":1727435243,"current_range_meters":38800,"station_id":"ce4bgjp2rcd13ifvqbh0","pricing_plan_id":"cebpf4jnsgd1na2vs0mg"},{"bike_id":"afeea0c1-eaa7-4b6a-9716-5bb103f13134","system_id":"levelo_inurba_marseille","lat":43.29303,"lon":5.37451,"is_reserved":false,"is_disabled":false,"rental_uris":{"android":"levelo://app?vid=afeea0c1-eaa7-4b6a-9716-5bb103f13134","ios":"levelo://app?vid=afeea0c1-eaa7-4b6a-9716-5bb103f13134"},"vehicle_type_id":"4","last_reported":1727435243,"current_range_meters":38800,"station_id":"ce4bgi12rcd13ifvqb70","pricing_plan_id":"cebpf4jnsgd1na2vs0mg"},{"bike_id":"b7d4c31a-d244-4726-a6c8-7797d4822f89","system_id":"levelo_inurba_marseille","lat":43.25933,"lon":5.40898,"is_reserved":false,"is_disabled":false,"rental_uris":{"android":"levelo://app?vid=b7d4c31a-d244-4726-a6c8-7797d4822f89","ios":"levelo://app?vid=b7d4c31a-d244-4726-a6c8-7797d4822f89"},"vehicle_type_id":"4","last_reported":1727435243,"current_range_meters":33600,"station_id":"ce4bhm92rcd13ifvqglg","pricing_plan_id":"cebpf4jnsgd1na2vs0mg"},{"bike_id":"319a95fd-4cb6-4140-b1df-59a1aab23798","system_id":"levelo_inurba_marseille","lat":43.2315,"lon":5.43713,"is_reserved":false,"is_disabled":false,"rental_uris":{"android":"levelo://app?vid=319a95fd-4cb6-4140-b1df-59a1aab23798","ios":"levelo://app?vid=319a95fd-4cb6-4140-b1df-59a1aab23798"},"vehicle_type_id":"4","last_reported":1727435243,"current_range_meters":14400,"station_id":"ce4bhmp2rcd13ifvqgog","pricing_plan_id":"cebpf4jnsgd1na2vs0mg"},{"bike_id":"df581604-3b4d-42d5-a292-98b0ad5f74eb","system_id":"levelo_inurba_marseille","lat":43.23177,"lon":5.40004,"is_reserved":false,"is_disabled":false,"rental_uris":{"android":"levelo://app?vid=df581604-3b4d-42d5-a292-98b0ad5f74eb","ios":"levelo://app?vid=df581604-3b4d-42d5-a292-98b0ad5f74eb"},"vehicle_type_id":"4","last_reported":1727435243,"current_range_meters":28400,"station_id":"ce4bhn12rcd13ifvqgqg","pricing_plan_id":"cebpf4jnsgd1na2vs0mg"},{"bike_id":"00482625-2a1f-4d9c-b0de-68a86c151684","system_id":"levelo_inurba_marseille","lat":43.2594,"lon":5.40903,"is_reserved":false,"is_disabled":false,"rental_uris":{"android":"levelo://app?vid=00482625-2a1f-4d9c-b0de-68a86c151684","ios":"levelo://app?vid=00482625-2a1f-4d9c-b0de-68a86c151684"},"vehicle_type_id":"4","last_reported":1727435243,"current_range_meters":26800,"station_id":"ce4bhm92rcd13ifvqglg","pricing_plan_id":"cebpf4jnsgd1na2vs0mg"},{"bike_id":"d8ec0b94-9be5-4efd-83d1-d5a1ad0cbb0b","system_id":"levelo_inurba_marseille","lat":43.274212,"lon":5.394104,"is_reserved":false,"is_disabled":false,"rental_uris":{"android":"levelo://app?vid=d8ec0b94-9be5-4efd-83d1-d5a1ad0cbb0b","ios":"levelo://app?vid=d8ec0b94-9be5-4efd-83d1-d5a1ad0cbb0b"},"vehicle_type_id":"4","last_reported":1727435243,"current_range_meters":9200,"station_id":"ce4bhdp2rcd13ifvqf20","pricing_plan_id":"cebpf4jnsgd1na2vs0mg"},{"bike_id":"718b5348-129f-431e-b934-4b3ceb3449fa","system_id":"levelo_inurba_marseille","lat":43.2992,"lon":5.37474,"is_reserved":false,"is_disabled":false,"rental_uris":{"android":"levelo://app?vid=718b5348-129f-431e-b934-4b3ceb3449fa","ios":"levelo://app?vid=718b5348-129f-431e-b934-4b3ceb3449fa"},"vehicle_type_id":"4","last_reported":1727435243,"current_range_meters":24400,"station_id":"ce4bgjh2rcd13ifvqbg0","pricing_plan_id":"cebpf4jnsgd1na2vs0mg"},{"bike_id":"13b5e1b5-2053-4e8b-94a8-86b863d86990","system_id":"levelo_inurba_marseille","lat":43.306042,"lon":5.372126,"is_reserved":false,"is_disabled":false,"rental_uris":{"android":"levelo://app?vid=13b5e1b5-2053-4e8b-94a8-86b863d86990","ios":"levelo://app?vid=13b5e1b5-2053-4e8b-94a8-86b863d86990"},"vehicle_type_id":"4","last_reported":1727435243,"current_range_meters":38800,"station_id":"ce4bgqh2rcd13ifvqc4g","pricing_plan_id":"cebpf4jnsgd1na2vs0mg"},{"bike_id":"485552af-b574-4ac0-86f8-103c81206764","system_id":"levelo_inurba_marseille","lat":43.28676,"lon":5.38661,"is_reserved":false,"is_disabled":false,"rental_uris":{"android":"levelo://app?vid=485552af-b574-4ac0-86f8-103c81206764","ios":"levelo://app?vid=485552af-b574-4ac0-86f8-103c81206764"},"vehicle_type_id":"4","last_reported":1727435243,"current_range_meters":10000,"station_id":"ce4bh492rcd13ifvqdug","pricing_plan_id":"cebpf4jnsgd1na2vs0mg"},{"bike_id":"55f4f50b-d6dd-4e12-86b3-1486da4af7d9","system_id":"levelo_inurba_marseille","lat":43.22929,"lon":5.35377,"is_reserved":false,"is_disabled":false,"rental_uris":{"android":"levelo://app?vid=55f4f50b-d6dd-4e12-86b3-1486da4af7d9","ios":"levelo://app?vid=55f4f50b-d6dd-4e12-86b3-1486da4af7d9"},"vehicle_type_id":"4","last_reported":1727435243,"current_range_meters":36000,"station_id":"cpo3532slgdg3j2ikp40","pricing_plan_id":"cebpf4jnsgd1na2vs0mg"},{"bike_id":"bb41ae0b-b746-40f5-8ba6-008f5f5c173f","system_id":"levelo_inurba_marseille","lat":43.33609,"lon":5.4103,"is_reserved":false,"is_disabled":false,"rental_uris":{"android":"levelo://app?vid=bb41ae0b-b746-40f5-8ba6-008f5f5c173f","ios":"levelo://app?vid=bb41ae0b-b746-40f5-8ba6-008f5f5c173f"},"vehicle_type_id":"4","last_reported":1727435243,"current_range_meters":25200,"station_id":"ce4bhqh2rcd13ifvqhmg","pricing_plan_id":"cebpf4jnsgd1na2vs0mg"},{"bike_id":"6e23f893-b029-44b0-ad88-18870710793f","system_id":"levelo_inurba_marseille","lat":43.264679,"lon":5.379478,"is_reserved":false,"is_disabled":false,"rental_uris":{"android":"levelo://app?vid=6e23f893-b029-44b0-ad88-18870710793f","ios":"levelo://app?vid=6e23f893-b029-44b0-ad88-18870710793f"},"vehicle_type_id":"4","last_reported":1727435243,"current_range_meters":7200,"station_id":"ce4bhmp2rcd13ifvqgog","pricing_plan_id":"cebpf4jnsgd1na2vs0mg"},{"bike_id":"f03813ae-b67f-45be-9bb1-846ca1327581","system_id":"levelo_inurba_marseille","lat":43.29524,"lon":5.37514,"is_reserved":false,"is_disabled":false,"rental_uris":{"android":"levelo://app?vid=f03813ae-b67f-45be-9bb1-846ca1327581","ios":"levelo://app?vid=f03813ae-b67f-45be-9bb1-846ca1327581"},"vehicle_type_id":"4","last_reported":1727435243,"current_range_meters":4800,"station_id":"ce4bgkp2rcd13ifvqbmg","pricing_plan_id":"cebpf4jnsgd1na2vs0mg"},{"bike_id":"4f66d729-4e21-4aef-9c55-53cf0da2285c","system_id":"levelo_inurba_marseille","lat":43.29018,"lon":5.38128,"is_reserved":false,"is_disabled":false,"rental_uris":{"android":"levelo://app?vid=4f66d729-4e21-4aef-9c55-53cf0da2285c","ios":"levelo://app?vid=4f66d729-4e21-4aef-9c55-53cf0da2285c"},"vehicle_type_id":"4","last_reported":1727435243,"current_range_meters":32800,"station_id":"ce4bh4p2rcd13ifvqe1g","pricing_plan_id":"cebpf4jnsgd1na2vs0mg"},{"bike_id":"bdc14df0-220c-4000-9152-3b0d644812ae","system_id":"levelo_inurba_marseille","lat":43.28574,"lon":5.39514,"is_reserved":false,"is_disabled":false,"rental_uris":{"android":"levelo://app?vid=bdc14df0-220c-4000-9152-3b0d644812ae","ios":"levelo://app?vid=bdc14df0-220c-4000-9152-3b0d644812ae"},"vehicle_type_id":"4","last_reported":1727435243,"current_range_meters":16800,"station_id":"ce4bh292rcd13ifvqdg0","pricing_plan_id":"cebpf4jnsgd1na2vs0mg"},{"bike_id":"1cd054ce-a4b1-44d8-afb0-3c23668c603a","system_id":"levelo_inurba_marseille","lat":43.30151,"lon":5.38107,"is_reserved":false,"is_disabled":false,"rental_uris":{"android":"levelo://app?vid=1cd054ce-a4b1-44d8-afb0-3c23668c603a","ios":"levelo://app?vid=1cd054ce-a4b1-44d8-afb0-3c23668c603a"},"vehicle_type_id":"4","last_reported":1727435243,"current_range_meters":19200,"station_id":"ce4bgjp2rcd13ifvqbh0","pricing_plan_id":"cebpf4jnsgd1na2vs0mg"},{"bike_id":"cd4c3ea5-3df9-4ccb-a55d-0c3b17cecce3","system_id":"levelo_inurba_marseille","lat":43.26095,"lon":5.39527,"is_reserved":false,"is_disabled":false,"rental_uris":{"android":"levelo://app?vid=cd4c3ea5-3df9-4ccb-a55d-0c3b17cecce3","ios":"levelo://app?vid=cd4c3ea5-3df9-4ccb-a55d-0c3b17cecce3"},"vehicle_type_id":"4","last_reported":1727435243,"current_range_meters":16800,"station_id":"","pricing_plan_id":"cebpf4jnsgd1na2vs0mg"},{"bike_id":"d930cb37-f5eb-45ce-9e87-9b2c229f49c3","system_id":"levelo_inurba_marseille","lat":43.28504,"lon":5.38361,"is_reserved":false,"is_disabled":false,"rental_uris":{"android":"levelo://app?vid=d930cb37-f5eb-45ce-9e87-9b2c229f49c3","ios":"levelo://app?vid=d930cb37-f5eb-45ce-9e87-9b2c229f49c3"},"vehicle_type_id":"4","last_reported":1727435243,"current_range_meters":34000,"station_id":"ce4bh512rcd13ifvqe3g","pricing_plan_id":"cebpf4jnsgd1na2vs0mg"},{"bike_id":"02faa875-28e5-405c-ac76-162645d82af5","system_id":"levelo_inurba_marseille","lat":43.299,"lon":5.43673,"is_reserved":false,"is_disabled":false,"rental_uris":{"android":"levelo://app?vid=02faa875-28e5-405c-ac76-162645d82af5","ios":"levelo://app?vid=02faa875-28e5-405c-ac76-162645d82af5"},"vehicle_type_id":"4","last_reported":1727435243,"current_range_meters":24800,"station_id":"ce4bhpp2rcd13ifvqhfg","pricing_plan_id":"cebpf4jnsgd1na2vs0mg"},{"bike_id":"4cfed5d5-3370-491e-8c88-d0255b119ad8","system_id":"levelo_inurba_marseille","lat":43.29528,"lon":5.38555,"is_reserved":false,"is_disabled":false,"rental_uris":{"android":"levelo://app?vid=4cfed5d5-3370-491e-8c88-d0255b119ad8","ios":"levelo://app?vid=4cfed5d5-3370-491e-8c88-d0255b119ad8"},"vehicle_type_id":"4","last_reported":1727435243,"current_range_meters":8000,"station_id":"ce4bgih2rcd13ifvqba0","pricing_plan_id":"cebpf4jnsgd1na2vs0mg"},{"bike_id":"e71b2228-487e-43d3-aaad-9eadfa97ebeb","system_id":"levelo_inurba_marseille","lat":43.30161,"lon":5.38077,"is_reserved":false,"is_disabled":false,"rental_uris":{"android":"levelo://app?vid=e71b2228-487e-43d3-aaad-9eadfa97ebeb","ios":"levelo://app?vid=e71b2228-487e-43d3-aaad-9eadfa97ebeb"},"vehicle_type_id":"4","last_reported":1727435243,"current_range_meters":38800,"station_id":"ce4bgjp2rcd13ifvqbh0","pricing_plan_id":"cebpf4jnsgd1na2vs0mg"},{"bike_id":"a7f7acf8-17d5-4757-9dfd-59ffe9768454","system_id":"levelo_inurba_marseille","lat":43.27174,"lon":5.40994,"is_reserved":false,"is_disabled":false,"rental_uris":{"android":"levelo://app?vid=a7f7acf8-17d5-4757-9dfd-59ffe9768454","ios":"levelo://app?vid=a7f7acf8-17d5-4757-9dfd-59ffe9768454"},"vehicle_type_id":"4","last_reported":1727435243,"current_range_meters":36800,"station_id":"ce4bhl12rcd13ifvqgf0","pricing_plan_id":"cebpf4jnsgd1na2vs0mg"},{"bike_id":"6778b2a5-11aa-4dde-a5ef-ce8288153ac1","system_id":"levelo_inurba_marseille","lat":43.26569,"lon":5.39014,"is_reserved":false,"is_disabled":false,"rental_uris":{"android":"levelo://app?vid=6778b2a5-11aa-4dde-a5ef-ce8288153ac1","ios":"levelo://app?vid=6778b2a5-11aa-4dde-a5ef-ce8288153ac1"},"vehicle_type_id":"4","last_reported":1727435243,"current_range_meters":30400,"station_id":"ce4bhe12rcd13ifvqf30","pricing_plan_id":"cebpf4jnsgd1na2vs0mg"},{"bike_id":"a7a97493-0dd4-4566-8609-d194a21ed628","system_id":"levelo_inurba_marseille","lat":43.30472,"lon":5.3791,"is_reserved":false,"is_disabled":false,"rental_uris":{"android":"levelo://app?vid=a7a97493-0dd4-4566-8609-d194a21ed628","ios":"levelo://app?vid=a7a97493-0dd4-4566-8609-d194a21ed628"},"vehicle_type_id":"4","last_reported":1727435243,"current_range_meters":28800,"station_id":"ce4bgup2rcd13ifvqcn0","pricing_plan_id":"cebpf4jnsgd1na2vs0mg"},{"bike_id":"c23cf285-35a8-4baa-80b2-1d40e42782e3","system_id":"levelo_inurba_marseille","lat":43.26219,"lon":5.37442,"is_reserved":false,"is_disabled":false,"rental_uris":{"android":"levelo://app?vid=c23cf285-35a8-4baa-80b2-1d40e42782e3","ios":"levelo://app?vid=c23cf285-35a8-4baa-80b2-1d40e42782e3"},"vehicle_type_id":"4","last_reported":1727435243,"current_range_meters":30800,"station_id":"ce4bhgp2rcd13ifvqfc0","pricing_plan_id":"cebpf4jnsgd1na2vs0mg"},{"bike_id":"4eb0ed09-b60d-404d-8ab2-6dde265f7845","system_id":"levelo_inurba_marseille","lat":43.31711,"lon":5.4371,"is_reserved":false,"is_disabled":false,"rental_uris":{"android":"levelo://app?vid=4eb0ed09-b60d-404d-8ab2-6dde265f7845","ios":"levelo://app?vid=4eb0ed09-b60d-404d-8ab2-6dde265f7845"},"vehicle_type_id":"4","last_reported":1727435243,"current_range_meters":38800,"station_id":"ce4bhp92rcd13ifvqhcg","pricing_plan_id":"cebpf4jnsgd1na2vs0mg"},{"bike_id":"69abde98-4227-4071-99c0-b60926b0a40b","system_id":"levelo_inurba_marseille","lat":43.33615,"lon":5.41032,"is_reserved":false,"is_disabled":false,"rental_uris":{"android":"levelo://app?vid=69abde98-4227-4071-99c0-b60926b0a40b","ios":"levelo://app?vid=69abde98-4227-4071-99c0-b60926b0a40b"},"vehicle_type_id":"4","last_reported":1727435243,"current_range_meters":25200,"station_id":"ce4bhqh2rcd13ifvqhmg","pricing_plan_id":"cebpf4jnsgd1na2vs0mg"},{"bike_id":"6ba32efa-6d37-483d-8ad4-ed2b26d64ece","system_id":"levelo_inurba_marseille","lat":43.27812,"lon":5.40704,"is_reserved":false,"is_disabled":false,"rental_uris":{"android":"levelo://app?vid=6ba32efa-6d37-483d-8ad4-ed2b26d64ece","ios":"levelo://app?vid=6ba32efa-6d37-483d-8ad4-ed2b26d64ece"},"vehicle_type_id":"4","last_reported":1727435243,"current_range_meters":34000,"station_id":"ce4bhnh2rcd13ifvqgtg","pricing_plan_id":"cebpf4jnsgd1na2vs0mg"},{"bike_id":"728f6ab9-db1d-4d7c-8982-a492398d4e89","system_id":"levelo_inurba_marseille","lat":43.33027,"lon":5.39046,"is_reserved":false,"is_disabled":false,"rental_uris":{"android":"levelo://app?vid=728f6ab9-db1d-4d7c-8982-a492398d4e89","ios":"levelo://app?vid=728f6ab9-db1d-4d7c-8982-a492398d4e89"},"vehicle_type_id":"4","last_reported":1727435243,"current_range_meters":33600,"station_id":"ce4bhr92rcd13ifvqhrg","pricing_plan_id":"cebpf4jnsgd1na2vs0mg"},{"bike_id":"b6daf4df-7c90-4c5e-b397-06a87d15013f","system_id":"levelo_inurba_marseille","lat":43.33752,"lon":5.37361,"is_reserved":false,"is_disabled":false,"rental_uris":{"android":"levelo://app?vid=b6daf4df-7c90-4c5e-b397-06a87d15013f","ios":"levelo://app?vid=b6daf4df-7c90-4c5e-b397-06a87d15013f"},"vehicle_type_id":"4","last_reported":1727435243,"current_range_meters":27200,"station_id":"","pricing_plan_id":"cebpf4jnsgd1na2vs0mg"},{"bike_id":"653216d4-1edd-4b74-8b77-0b5e4e2266fe","system_id":"levelo_inurba_marseille","lat":43.26212,"lon":5.37445,"is_reserved":false,"is_disabled":false,"rental_uris":{"android":"levelo://app?vid=653216d4-1edd-4b74-8b77-0b5e4e2266fe","ios":"levelo://app?vid=653216d4-1edd-4b74-8b77-0b5e4e2266fe"},"vehicle_type_id":"4","last_reported":1727435243,"current_range_meters":38000,"station_id":"ce4bhgp2rcd13ifvqfc0","pricing_plan_id":"cebpf4jnsgd1na2vs0mg"},{"bike_id":"c6a8f01e-009f-4613-948c-2dd4d8bd2d71","system_id":"levelo_inurba_marseille","lat":43.30173,"lon":5.38089,"is_reserved":false,"is_disabled":false,"rental_uris":{"android":"levelo://app?vid=c6a8f01e-009f-4613-948c-2dd4d8bd2d71","ios":"levelo://app?vid=c6a8f01e-009f-4613-948c-2dd4d8bd2d71"},"vehicle_type_id":"4","last_reported":1727435243,"current_range_meters":36800,"station_id":"ce4bgjp2rcd13ifvqbh0","pricing_plan_id":"cebpf4jnsgd1na2vs0mg"},{"bike_id":"01958bcc-1114-44e7-a1de-ed0825d11990","system_id":"levelo_inurba_marseille","lat":43.33608,"lon":5.41035,"is_reserved":false,"is_disabled":false,"rental_uris":{"android":"levelo://app?vid=01958bcc-1114-44e7-a1de-ed0825d11990","ios":"levelo://app?vid=01958bcc-1114-44e7-a1de-ed0825d11990"},"vehicle_type_id":"4","last_reported":1727435243,"current_range_meters":38800,"station_id":"ce4bhqh2rcd13ifvqhmg","pricing_plan_id":"cebpf4jnsgd1na2vs0mg"},{"bike_id":"9df07d3d-6900-4fa9-bf9d-c92701d233e1","system_id":"levelo_inurba_marseille","lat":43.27808,"lon":5.40713,"is_reserved":false,"is_disabled":false,"rental_uris":{"android":"levelo://app?vid=9df07d3d-6900-4fa9-bf9d-c92701d233e1","ios":"levelo://app?vid=9df07d3d-6900-4fa9-bf9d-c92701d233e1"},"vehicle_type_id":"4","last_reported":1727435243,"current_range_meters":15200,"station_id":"ce4bhnh2rcd13ifvqgtg","pricing_plan_id":"cebpf4jnsgd1na2vs0mg"},{"bike_id":"14d3e19f-e124-4bdf-bf80-30263322f082","system_id":"levelo_inurba_marseille","lat":43.24165,"lon":5.36393,"is_reserved":false,"is_disabled":false,"rental_uris":{"android":"levelo://app?vid=14d3e19f-e124-4bdf-bf80-30263322f082","ios":"levelo://app?vid=14d3e19f-e124-4bdf-bf80-30263322f082"},"vehicle_type_id":"4","last_reported":1727435243,"current_range_meters":23200,"station_id":"cpo36qri1sfpv3e86is0","pricing_plan_id":"cebpf4jnsgd1na2vs0mg"},{"bike_id":"7a8458d5-44ac-4f2e-abef-3f01eb31f7ca","system_id":"levelo_inurba_marseille","lat":43.337444,"lon":5.374475,"is_reserved":false,"is_disabled":false,"rental_uris":{"android":"levelo://app?vid=7a8458d5-44ac-4f2e-abef-3f01eb31f7ca","ios":"levelo://app?vid=7a8458d5-44ac-4f2e-abef-3f01eb31f7ca"},"vehicle_type_id":"4","last_reported":1727435243,"current_range_meters":16800,"station_id":"","pricing_plan_id":"cebpf4jnsgd1na2vs0mg"},{"bike_id":"de437223-e58f-46f4-b08c-b288b0890a60","system_id":"levelo_inurba_marseille","lat":43.27183,"lon":5.40992,"is_reserved":false,"is_disabled":false,"rental_uris":{"android":"levelo://app?vid=de437223-e58f-46f4-b08c-b288b0890a60","ios":"levelo://app?vid=de437223-e58f-46f4-b08c-b288b0890a60"},"vehicle_type_id":"4","last_reported":1727435243,"current_range_meters":37600,"station_id":"ce4bhl12rcd13ifvqgf0","pricing_plan_id":"cebpf4jnsgd1na2vs0mg"},{"bike_id":"245322ad-98ce-4a03-920e-f8861ea4255a","system_id":"levelo_inurba_marseille","lat":43.23061,"lon":5.35495,"is_reserved":false,"is_disabled":false,"rental_uris":{"android":"levelo://app?vid=245322ad-98ce-4a03-920e-f8861ea4255a","ios":"levelo://app?vid=245322ad-98ce-4a03-920e-f8861ea4255a"},"vehicle_type_id":"4","last_reported":1727435243,"current_range_meters":37600,"station_id":"cpo3342slgdg3j2ifvpg","pricing_plan_id":"cebpf4jnsgd1na2vs0mg"},{"bike_id":"43e3c695-2f7e-4690-9983-99afd8dbea20","system_id":"levelo_inurba_marseille","lat":43.29564,"lon":5.3629,"is_reserved":false,"is_disabled":false,"rental_uris":{"android":"levelo://app?vid=43e3c695-2f7e-4690-9983-99afd8dbea20","ios":"levelo://app?vid=43e3c695-2f7e-4690-9983-99afd8dbea20"},"vehicle_type_id":"4","last_reported":1727435243,"current_range_meters":17200,"station_id":"","pricing_plan_id":"cebpf4jnsgd1na2vs0mg"},{"bike_id":"b7b92fbd-cffd-4a1f-9948-3e7f9639c013","system_id":"levelo_inurba_marseille","lat":43.30306,"lon":5.36903,"is_reserved":false,"is_disabled":false,"rental_uris":{"android":"levelo://app?vid=b7b92fbd-cffd-4a1f-9948-3e7f9639c013","ios":"levelo://app?vid=b7b92fbd-cffd-4a1f-9948-3e7f9639c013"},"vehicle_type_id":"4","last_reported":1727435243,"current_range_meters":28400,"station_id":"ce4bgqh2rcd13ifvqc5g","pricing_plan_id":"cebpf4jnsgd1na2vs0mg"},{"bike_id":"b478bdab-ddff-4645-a824-4bd76b643799","system_id":"levelo_inurba_marseille","lat":43.31996,"lon":5.38155,"is_reserved":false,"is_disabled":false,"rental_uris":{"android":"levelo://app?vid=b478bdab-ddff-4645-a824-4bd76b643799","ios":"levelo://app?vid=b478bdab-ddff-4645-a824-4bd76b643799"},"vehicle_type_id":"4","last_reported":1727435243,"current_range_meters":25200,"station_id":"ce4bhr12rcd13ifvqhpg","pricing_plan_id":"cebpf4jnsgd1na2vs0mg"},{"bike_id":"e8a17bc3-deec-496b-9893-54da3f4fee7d","system_id":"levelo_inurba_marseille","lat":43.26795,"lon":5.39407,"is_reserved":false,"is_disabled":false,"rental_uris":{"android":"levelo://app?vid=e8a17bc3-deec-496b-9893-54da3f4fee7d","ios":"levelo://app?vid=e8a17bc3-deec-496b-9893-54da3f4fee7d"},"vehicle_type_id":"4","last_reported":1727435243,"current_range_meters":16800,"station_id":"ce4bhh12rcd13ifvqfg0","pricing_plan_id":"cebpf4jnsgd1na2vs0mg"},{"bike_id":"ad57d398-f324-4e99-9bbc-14810e148f72","system_id":"levelo_inurba_marseille","lat":43.29903,"lon":5.38131,"is_reserved":false,"is_disabled":false,"rental_uris":{"android":"levelo://app?vid=ad57d398-f324-4e99-9bbc-14810e148f72","ios":"levelo://app?vid=ad57d398-f324-4e99-9bbc-14810e148f72"},"vehicle_type_id":"4","last_reported":1727435243,"current_range_meters":20800,"station_id":"ce4bgj12rcd13ifvqbc0","pricing_plan_id":"cebpf4jnsgd1na2vs0mg"},{"bike_id":"2f7b62a5-8053-41b3-932b-599e6c502bd8","system_id":"levelo_inurba_marseille","lat":43.31116,"lon":5.3777,"is_reserved":false,"is_disabled":false,"rental_uris":{"android":"levelo://app?vid=2f7b62a5-8053-41b3-932b-599e6c502bd8","ios":"levelo://app?vid=2f7b62a5-8053-41b3-932b-599e6c502bd8"},"vehicle_type_id":"4","last_reported":1727435243,"current_range_meters":30800,"station_id":"ce4bgt92rcd13ifvqcg0","pricing_plan_id":"cebpf4jnsgd1na2vs0mg"},{"bike_id":"d69c4e96-06b8-47c0-b384-736b98acbf55","system_id":"levelo_inurba_marseille","lat":43.26202,"lon":5.37933,"is_reserved":false,"is_disabled":false,"rental_uris":{"android":"levelo://app?vid=d69c4e96-06b8-47c0-b384-736b98acbf55","ios":"levelo://app?vid=d69c4e96-06b8-47c0-b384-736b98acbf55"},"vehicle_type_id":"4","last_reported":1727435243,"current_range_meters":16000,"station_id":"ce4bhjp2rcd13ifvqg90","pricing_plan_id":"cebpf4jnsgd1na2vs0mg"},{"bike_id":"efbd935f-3092-48d2-ba34-d39bc1da69e6","system_id":"levelo_inurba_marseille","lat":43.28002,"lon":5.40006,"is_reserved":false,"is_disabled":false,"rental_uris":{"android":"levelo://app?vid=efbd935f-3092-48d2-ba34-d39bc1da69e6","ios":"levelo://app?vid=efbd935f-3092-48d2-ba34-d39bc1da69e6"},"vehicle_type_id":"4","last_reported":1727435243,"current_range_meters":16800,"station_id":"ce4bho92rcd13ifvqh4g","pricing_plan_id":"cebpf4jnsgd1na2vs0mg"},{"bike_id":"ef333548-5b42-4805-a9c0-dab49a7bfdc3","system_id":"levelo_inurba_marseille","lat":43.32477,"lon":5.36558,"is_reserved":false,"is_disabled":false,"rental_uris":{"android":"levelo://app?vid=ef333548-5b42-4805-a9c0-dab49a7bfdc3","ios":"levelo://app?vid=ef333548-5b42-4805-a9c0-dab49a7bfdc3"},"vehicle_type_id":"4","last_reported":1727435243,"current_range_meters":38800,"station_id":"ce4bhs12rcd13ifvqhvg","pricing_plan_id":"cebpf4jnsgd1na2vs0mg"},{"bike_id":"740c8093-7907-4694-893a-7128cab2c2c5","system_id":"levelo_inurba_marseille","lat":43.30545,"lon":5.36707,"is_reserved":false,"is_disabled":false,"rental_uris":{"android":"levelo://app?vid=740c8093-7907-4694-893a-7128cab2c2c5","ios":"levelo://app?vid=740c8093-7907-4694-893a-7128cab2c2c5"},"vehicle_type_id":"4","last_reported":1727435243,"current_range_meters":17200,"station_id":"ce4bgrp2rcd13ifvqc9g","pricing_plan_id":"cebpf4jnsgd1na2vs0mg"},{"bike_id":"0968ebbe-bb82-4446-8d24-0ab8271c7a4b","system_id":"levelo_inurba_marseille","lat":43.23147,"lon":5.43707,"is_reserved":false,"is_disabled":false,"rental_uris":{"android":"levelo://app?vid=0968ebbe-bb82-4446-8d24-0ab8271c7a4b","ios":"levelo://app?vid=0968ebbe-bb82-4446-8d24-0ab8271c7a4b"},"vehicle_type_id":"4","last_reported":1727435243,"current_range_meters":23200,"station_id":"ce4bhmp2rcd13ifvqgog","pricing_plan_id":"cebpf4jnsgd1na2vs0mg"},{"bike_id":"703b22ab-29de-42a7-b7f5-8a13f2ce66da","system_id":"levelo_inurba_marseille","lat":43.25823,"lon":5.39433,"is_reserved":false,"is_disabled":false,"rental_uris":{"android":"levelo://app?vid=703b22ab-29de-42a7-b7f5-8a13f2ce66da","ios":"levelo://app?vid=703b22ab-29de-42a7-b7f5-8a13f2ce66da"},"vehicle_type_id":"4","last_reported":1727435243,"current_range_meters":16000,"station_id":"ce4bhip2rcd13ifvqft0","pricing_plan_id":"cebpf4jnsgd1na2vs0mg"},{"bike_id":"5f008ff2-9db7-4c5d-bdd3-0dd3c9cf5943","system_id":"levelo_inurba_marseille","lat":43.32658,"lon":5.40995,"is_reserved":false,"is_disabled":false,"rental_uris":{"android":"levelo://app?vid=5f008ff2-9db7-4c5d-bdd3-0dd3c9cf5943","ios":"levelo://app?vid=5f008ff2-9db7-4c5d-bdd3-0dd3c9cf5943"},"vehicle_type_id":"4","last_reported":1727435243,"current_range_meters":38800,"station_id":"ce4bhpp2rcd13ifvqhgg","pricing_plan_id":"cebpf4jnsgd1na2vs0mg"},{"bike_id":"591039d5-67c5-43df-ae6f-f1c141c3a597","system_id":"levelo_inurba_marseille","lat":43.25938,"lon":5.40898,"is_reserved":false,"is_disabled":false,"rental_uris":{"android":"levelo://app?vid=591039d5-67c5-43df-ae6f-f1c141c3a597","ios":"levelo://app?vid=591039d5-67c5-43df-ae6f-f1c141c3a597"},"vehicle_type_id":"4","last_reported":1727435243,"current_range_meters":22800,"station_id":"ce4bhm92rcd13ifvqglg","pricing_plan_id":"cebpf4jnsgd1na2vs0mg"},{"bike_id":"0315447b-7d21-4718-a157-4a50c8ad7cf1","system_id":"levelo_inurba_marseille","lat":43.23156,"lon":5.43699,"is_reserved":false,"is_disabled":false,"rental_uris":{"android":"levelo://app?vid=0315447b-7d21-4718-a157-4a50c8ad7cf1","ios":"levelo://app?vid=0315447b-7d21-4718-a157-4a50c8ad7cf1"},"vehicle_type_id":"4","last_reported":1727435243,"current_range_meters":16000,"station_id":"ce4bhmp2rcd13ifvqgog","pricing_plan_id":"cebpf4jnsgd1na2vs0mg"},{"bike_id":"bba7de10-169e-4f05-8c77-3ae54a142318","system_id":"levelo_inurba_marseille","lat":43.30153,"lon":5.38104,"is_reserved":false,"is_disabled":false,"rental_uris":{"android":"levelo://app?vid=bba7de10-169e-4f05-8c77-3ae54a142318","ios":"levelo://app?vid=bba7de10-169e-4f05-8c77-3ae54a142318"},"vehicle_type_id":"4","last_reported":1727435243,"current_range_meters":29600,"station_id":"ce4bgjp2rcd13ifvqbh0","pricing_plan_id":"cebpf4jnsgd1na2vs0mg"},{"bike_id":"c6853b38-4f63-4c97-9007-9b8f2cbf5293","system_id":"levelo_inurba_marseille","lat":43.23152,"lon":5.43723,"is_reserved":false,"is_disabled":false,"rental_uris":{"android":"levelo://app?vid=c6853b38-4f63-4c97-9007-9b8f2cbf5293","ios":"levelo://app?vid=c6853b38-4f63-4c97-9007-9b8f2cbf5293"},"vehicle_type_id":"4","last_reported":1727435243,"current_range_meters":12400,"station_id":"ce4bhmp2rcd13ifvqgog","pricing_plan_id":"cebpf4jnsgd1na2vs0mg"},{"bike_id":"7a90e818-af27-47dd-8e0e-c3655fb3be53","system_id":"levelo_inurba_marseille","lat":43.30156,"lon":5.38081,"is_reserved":false,"is_disabled":false,"rental_uris":{"android":"levelo://app?vid=7a90e818-af27-47dd-8e0e-c3655fb3be53","ios":"levelo://app?vid=7a90e818-af27-47dd-8e0e-c3655fb3be53"},"vehicle_type_id":"4","last_reported":1727435243,"current_range_meters":30800,"station_id":"ce4bgjp2rcd13ifvqbh0","pricing_plan_id":"cebpf4jnsgd1na2vs0mg"},{"bike_id":"f85a6a52-06e5-47a1-a03b-9da263684559","system_id":"levelo_inurba_marseille","lat":43.30591,"lon":5.39365,"is_reserved":false,"is_disabled":false,"rental_uris":{"android":"levelo://app?vid=f85a6a52-06e5-47a1-a03b-9da263684559","ios":"levelo://app?vid=f85a6a52-06e5-47a1-a03b-9da263684559"},"vehicle_type_id":"4","last_reported":1727435243,"current_range_meters":33600,"station_id":"ce4bh0p2rcd13ifvqd80","pricing_plan_id":"cebpf4jnsgd1na2vs0mg"},{"bike_id":"b7a5db4d-04b8-4b7f-bceb-75d22901e6c6","system_id":"levelo_inurba_marseille","lat":43.32661,"lon":5.40994,"is_reserved":false,"is_disabled":false,"rental_uris":{"android":"levelo://app?vid=b7a5db4d-04b8-4b7f-bceb-75d22901e6c6","ios":"levelo://app?vid=b7a5db4d-04b8-4b7f-bceb-75d22901e6c6"},"vehicle_type_id":"4","last_reported":1727435243,"current_range_meters":10800,"station_id":"ce4bhpp2rcd13ifvqhgg","pricing_plan_id":"cebpf4jnsgd1na2vs0mg"},{"bike_id":"76dbb97a-8e0b-4660-a2d6-b2ec5605d89d","system_id":"levelo_inurba_marseille","lat":43.28263,"lon":5.35072,"is_reserved":false,"is_disabled":false,"rental_uris":{"android":"levelo://app?vid=76dbb97a-8e0b-4660-a2d6-b2ec5605d89d","ios":"levelo://app?vid=76dbb97a-8e0b-4660-a2d6-b2ec5605d89d"},"vehicle_type_id":"4","last_reported":1727435243,"current_range_meters":36000,"station_id":"ce4bhbp2rcd13ifvqerg","pricing_plan_id":"cebpf4jnsgd1na2vs0mg"},{"bike_id":"102483dd-b4e9-43b9-85c9-f8208b777957","system_id":"levelo_inurba_marseille","lat":43.32482,"lon":5.36558,"is_reserved":false,"is_disabled":false,"rental_uris":{"android":"levelo://app?vid=102483dd-b4e9-43b9-85c9-f8208b777957","ios":"levelo://app?vid=102483dd-b4e9-43b9-85c9-f8208b777957"},"vehicle_type_id":"4","last_reported":1727435243,"current_range_meters":26000,"station_id":"ce4bhs12rcd13ifvqhvg","pricing_plan_id":"cebpf4jnsgd1na2vs0mg"},{"bike_id":"a992cc41-9928-44b0-bd3c-80a96cab5b60","system_id":"levelo_inurba_marseille","lat":43.24901,"lon":5.40187,"is_reserved":false,"is_disabled":false,"rental_uris":{"android":"levelo://app?vid=a992cc41-9928-44b0-bd3c-80a96cab5b60","ios":"levelo://app?vid=a992cc41-9928-44b0-bd3c-80a96cab5b60"},"vehicle_type_id":"4","last_reported":1727435243,"current_range_meters":17200,"station_id":"ce4bhlh2rcd13ifvqgig","pricing_plan_id":"cebpf4jnsgd1na2vs0mg"},{"bike_id":"57915f32-d649-40b7-b4d1-2dbe157d9f0c","system_id":"levelo_inurba_marseille","lat":43.30535,"lon":5.36553,"is_reserved":false,"is_disabled":false,"rental_uris":{"android":"levelo://app?vid=57915f32-d649-40b7-b4d1-2dbe157d9f0c","ios":"levelo://app?vid=57915f32-d649-40b7-b4d1-2dbe157d9f0c"},"vehicle_type_id":"4","last_reported":1727435243,"current_range_meters":39200,"station_id":"ce4bgs12rcd13ifvqcag","pricing_plan_id":"cebpf4jnsgd1na2vs0mg"},{"bike_id":"640f251a-a555-47e9-8b9e-c07996a50876","system_id":"levelo_inurba_marseille","lat":43.26212,"lon":5.37441,"is_reserved":false,"is_disabled":false,"rental_uris":{"android":"levelo://app?vid=640f251a-a555-47e9-8b9e-c07996a50876","ios":"levelo://app?vid=640f251a-a555-47e9-8b9e-c07996a50876"},"vehicle_type_id":"4","last_reported":1727435243,"current_range_meters":28000,"station_id":"ce4bhgp2rcd13ifvqfc0","pricing_plan_id":"cebpf4jnsgd1na2vs0mg"},{"bike_id":"576a8c88-19be-4d24-82b9-247748b1a846","system_id":"levelo_inurba_marseille","lat":43.308,"lon":5.38155,"is_reserved":false,"is_disabled":false,"rental_uris":{"android":"levelo://app?vid=576a8c88-19be-4d24-82b9-247748b1a846","ios":"levelo://app?vid=576a8c88-19be-4d24-82b9-247748b1a846"},"vehicle_type_id":"4","last_reported":1727435243,"current_range_meters":30400,"station_id":"ce4bgt12rcd13ifvqce0","pricing_plan_id":"cebpf4jnsgd1na2vs0mg"},{"bike_id":"8543372b-a568-4b5b-b4f7-a2bce5a1e33b","system_id":"levelo_inurba_marseille","lat":43.33759,"lon":5.37446,"is_reserved":false,"is_disabled":false,"rental_uris":{"android":"levelo://app?vid=8543372b-a568-4b5b-b4f7-a2bce5a1e33b","ios":"levelo://app?vid=8543372b-a568-4b5b-b4f7-a2bce5a1e33b"},"vehicle_type_id":"4","last_reported":1727435243,"current_range_meters":38800,"station_id":"","pricing_plan_id":"cebpf4jnsgd1na2vs0mg"},{"bike_id":"a6cbb9ab-09cc-4a47-b45d-7c998d78f96c","system_id":"levelo_inurba_marseille","lat":43.29848,"lon":5.36271,"is_reserved":false,"is_disabled":false,"rental_uris":{"android":"levelo://app?vid=a6cbb9ab-09cc-4a47-b45d-7c998d78f96c","ios":"levelo://app?vid=a6cbb9ab-09cc-4a47-b45d-7c998d78f96c"},"vehicle_type_id":"4","last_reported":1727435243,"current_range_meters":36800,"station_id":"ce4bgpp2rcd13ifvqc3g","pricing_plan_id":"cebpf4jnsgd1na2vs0mg"},{"bike_id":"a96c71be-b359-4ce0-a388-f8dd827a330d","system_id":"levelo_inurba_marseille","lat":43.30547,"lon":5.36711,"is_reserved":false,"is_disabled":false,"rental_uris":{"android":"levelo://app?vid=a96c71be-b359-4ce0-a388-f8dd827a330d","ios":"levelo://app?vid=a96c71be-b359-4ce0-a388-f8dd827a330d"},"vehicle_type_id":"4","last_reported":1727435243,"current_range_meters":28800,"station_id":"ce4bgrp2rcd13ifvqc9g","pricing_plan_id":"cebpf4jnsgd1na2vs0mg"},{"bike_id":"932c7b30-012b-4098-90b0-32794be8681f","system_id":"levelo_inurba_marseille","lat":43.33603,"lon":5.41033,"is_reserved":false,"is_disabled":false,"rental_uris":{"android":"levelo://app?vid=932c7b30-012b-4098-90b0-32794be8681f","ios":"levelo://app?vid=932c7b30-012b-4098-90b0-32794be8681f"},"vehicle_type_id":"4","last_reported":1727435243,"current_range_meters":27600,"station_id":"ce4bhqh2rcd13ifvqhmg","pricing_plan_id":"cebpf4jnsgd1na2vs0mg"},{"bike_id":"d9449b01-f75a-424d-9bf8-d5755acad5b7","system_id":"levelo_inurba_marseille","lat":43.320504,"lon":5.415535,"is_reserved":false,"is_disabled":false,"rental_uris":{"android":"levelo://app?vid=d9449b01-f75a-424d-9bf8-d5755acad5b7","ios":"levelo://app?vid=d9449b01-f75a-424d-9bf8-d5755acad5b7"},"vehicle_type_id":"4","last_reported":1727435243,"current_range_meters":34000,"station_id":"ce4bhq92rcd13ifvqhkg","pricing_plan_id":"cebpf4jnsgd1na2vs0mg"},{"bike_id":"8f9c8f73-f353-4d6b-a9fd-7c07c791710f","system_id":"levelo_inurba_marseille","lat":43.29906,"lon":5.3814,"is_reserved":false,"is_disabled":false,"rental_uris":{"android":"levelo://app?vid=8f9c8f73-f353-4d6b-a9fd-7c07c791710f","ios":"levelo://app?vid=8f9c8f73-f353-4d6b-a9fd-7c07c791710f"},"vehicle_type_id":"4","last_reported":1727435243,"current_range_meters":11600,"station_id":"ce4bgj12rcd13ifvqbc0","pricing_plan_id":"cebpf4jnsgd1na2vs0mg"},{"bike_id":"516c93f9-1feb-4f07-9c6f-f9e2125b39a5","system_id":"levelo_inurba_marseille","lat":43.27947,"lon":5.4105,"is_reserved":false,"is_disabled":false,"rental_uris":{"android":"levelo://app?vid=516c93f9-1feb-4f07-9c6f-f9e2125b39a5","ios":"levelo://app?vid=516c93f9-1feb-4f07-9c6f-f9e2125b39a5"},"vehicle_type_id":"4","last_reported":1727435243,"current_range_meters":7200,"station_id":"ce4bhnp2rcd13ifvqh0g","pricing_plan_id":"cebpf4jnsgd1na2vs0mg"},{"bike_id":"720aa0e6-1e56-4dba-825d-68ab81240074","system_id":"levelo_inurba_marseille","lat":43.33614,"lon":5.41039,"is_reserved":false,"is_disabled":false,"rental_uris":{"android":"levelo://app?vid=720aa0e6-1e56-4dba-825d-68ab81240074","ios":"levelo://app?vid=720aa0e6-1e56-4dba-825d-68ab81240074"},"vehicle_type_id":"4","last_reported":1727435243,"current_range_meters":27200,"station_id":"ce4bhqh2rcd13ifvqhmg","pricing_plan_id":"cebpf4jnsgd1na2vs0mg"},{"bike_id":"9912d572-9b23-4d86-b7b7-ecec08ef9891","system_id":"levelo_inurba_marseille","lat":43.24663,"lon":5.38156,"is_reserved":false,"is_disabled":false,"rental_uris":{"android":"levelo://app?vid=9912d572-9b23-4d86-b7b7-ecec08ef9891","ios":"levelo://app?vid=9912d572-9b23-4d86-b7b7-ecec08ef9891"},"vehicle_type_id":"4","last_reported":1727435243,"current_range_meters":38800,"station_id":"ce4bhih2rcd13ifvqfr0","pricing_plan_id":"cebpf4jnsgd1na2vs0mg"},{"bike_id":"dc29cc9b-e464-43f3-8e13-dd21ced846c4","system_id":"levelo_inurba_marseille","lat":43.33739,"lon":5.37468,"is_reserved":false,"is_disabled":false,"rental_uris":{"android":"levelo://app?vid=dc29cc9b-e464-43f3-8e13-dd21ced846c4","ios":"levelo://app?vid=dc29cc9b-e464-43f3-8e13-dd21ced846c4"},"vehicle_type_id":"4","last_reported":1727435243,"current_range_meters":36000,"station_id":"","pricing_plan_id":"cebpf4jnsgd1na2vs0mg"},{"bike_id":"4674fcea-2e76-46b6-acc4-19efb6b88b54","system_id":"levelo_inurba_marseille","lat":43.29846,"lon":5.36283,"is_reserved":false,"is_disabled":false,"rental_uris":{"android":"levelo://app?vid=4674fcea-2e76-46b6-acc4-19efb6b88b54","ios":"levelo://app?vid=4674fcea-2e76-46b6-acc4-19efb6b88b54"},"vehicle_type_id":"4","last_reported":1727435243,"current_range_meters":38800,"station_id":"ce4bgpp2rcd13ifvqc3g","pricing_plan_id":"cebpf4jnsgd1na2vs0mg"},{"bike_id":"17f08afc-009a-4a6e-a3d7-2b9f68f4e878","system_id":"levelo_inurba_marseille","lat":43.23153,"lon":5.43708,"is_reserved":false,"is_disabled":false,"rental_uris":{"android":"levelo://app?vid=17f08afc-009a-4a6e-a3d7-2b9f68f4e878","ios":"levelo://app?vid=17f08afc-009a-4a6e-a3d7-2b9f68f4e878"},"vehicle_type_id":"4","last_reported":1727435243,"current_range_meters":36400,"station_id":"ce4bhmp2rcd13ifvqgog","pricing_plan_id":"cebpf4jnsgd1na2vs0mg"},{"bike_id":"41cf3064-4000-41cc-afad-609972d6df9d","system_id":"levelo_inurba_marseille","lat":43.29229,"lon":5.36058,"is_reserved":false,"is_disabled":false,"rental_uris":{"android":"levelo://app?vid=41cf3064-4000-41cc-afad-609972d6df9d","ios":"levelo://app?vid=41cf3064-4000-41cc-afad-609972d6df9d"},"vehicle_type_id":"4","last_reported":1727435243,"current_range_meters":8400,"station_id":"ce4bhbh2rcd13ifvqeqg","pricing_plan_id":"cebpf4jnsgd1na2vs0mg"},{"bike_id":"49ae1e59-08b3-4859-a392-0191fe810cd9","system_id":"levelo_inurba_marseille","lat":43.25936,"lon":5.40903,"is_reserved":false,"is_disabled":false,"rental_uris":{"android":"levelo://app?vid=49ae1e59-08b3-4859-a392-0191fe810cd9","ios":"levelo://app?vid=49ae1e59-08b3-4859-a392-0191fe810cd9"},"vehicle_type_id":"4","last_reported":1727435243,"current_range_meters":6800,"station_id":"ce4bhm92rcd13ifvqglg","pricing_plan_id":"cebpf4jnsgd1na2vs0mg"},{"bike_id":"3dabe597-7bed-42ce-b402-93f36374a299","system_id":"levelo_inurba_marseille","lat":43.33604,"lon":5.4103,"is_reserved":false,"is_disabled":false,"rental_uris":{"android":"levelo://app?vid=3dabe597-7bed-42ce-b402-93f36374a299","ios":"levelo://app?vid=3dabe597-7bed-42ce-b402-93f36374a299"},"vehicle_type_id":"4","last_reported":1727435243,"current_range_meters":25600,"station_id":"ce4bhqh2rcd13ifvqhmg","pricing_plan_id":"cebpf4jnsgd1na2vs0mg"},{"bike_id":"9309d011-a754-4289-bff6-726d7d0b6601","system_id":"levelo_inurba_marseille","lat":43.3089,"lon":5.37215,"is_reserved":false,"is_disabled":false,"rental_uris":{"android":"levelo://app?vid=9309d011-a754-4289-bff6-726d7d0b6601","ios":"levelo://app?vid=9309d011-a754-4289-bff6-726d7d0b6601"},"vehicle_type_id":"4","last_reported":1727435243,"current_range_meters":38000,"station_id":"ce4bguh2rcd13ifvqckg","pricing_plan_id":"cebpf4jnsgd1na2vs0mg"},{"bike_id":"e39caf3b-7379-47c6-9283-9409d84a4726","system_id":"levelo_inurba_marseille","lat":43.24657,"lon":5.38175,"is_reserved":false,"is_disabled":false,"rental_uris":{"android":"levelo://app?vid=e39caf3b-7379-47c6-9283-9409d84a4726","ios":"levelo://app?vid=e39caf3b-7379-47c6-9283-9409d84a4726"},"vehicle_type_id":"4","last_reported":1727435243,"current_range_meters":6400,"station_id":"ce4bhih2rcd13ifvqfr0","pricing_plan_id":"cebpf4jnsgd1na2vs0mg"},{"bike_id":"19a00fa5-15d9-4cc0-8881-fcbf064ad299","system_id":"levelo_inurba_marseille","lat":43.28397,"lon":5.3752,"is_reserved":false,"is_disabled":false,"rental_uris":{"android":"levelo://app?vid=19a00fa5-15d9-4cc0-8881-fcbf064ad299","ios":"levelo://app?vid=19a00fa5-15d9-4cc0-8881-fcbf064ad299"},"vehicle_type_id":"4","last_reported":1727435243,"current_range_meters":32000,"station_id":"ce4bh412rcd13ifvqds0","pricing_plan_id":"cebpf4jnsgd1na2vs0mg"},{"bike_id":"2c1299ff-80d0-427c-b461-bae83487aa16","system_id":"levelo_inurba_marseille","lat":43.27997,"lon":5.40006,"is_reserved":false,"is_disabled":false,"rental_uris":{"android":"levelo://app?vid=2c1299ff-80d0-427c-b461-bae83487aa16","ios":"levelo://app?vid=2c1299ff-80d0-427c-b461-bae83487aa16"},"vehicle_type_id":"4","last_reported":1727435243,"current_range_meters":10000,"station_id":"ce4bho92rcd13ifvqh4g","pricing_plan_id":"cebpf4jnsgd1na2vs0mg"},{"bike_id":"8285c712-f7e8-4563-8986-9ea9d1dc8a70","system_id":"levelo_inurba_marseille","lat":43.30152,"lon":5.38073,"is_reserved":false,"is_disabled":false,"rental_uris":{"android":"levelo://app?vid=8285c712-f7e8-4563-8986-9ea9d1dc8a70","ios":"levelo://app?vid=8285c712-f7e8-4563-8986-9ea9d1dc8a70"},"vehicle_type_id":"4","last_reported":1727435243,"current_range_meters":26800,"station_id":"ce4bgjp2rcd13ifvqbh0","pricing_plan_id":"cebpf4jnsgd1na2vs0mg"},{"bike_id":"cb4e4b96-8931-4e3f-be83-51d8d7e94071","system_id":"levelo_inurba_marseille","lat":43.24659,"lon":5.38166,"is_reserved":false,"is_disabled":false,"rental_uris":{"android":"levelo://app?vid=cb4e4b96-8931-4e3f-be83-51d8d7e94071","ios":"levelo://app?vid=cb4e4b96-8931-4e3f-be83-51d8d7e94071"},"vehicle_type_id":"4","last_reported":1727435243,"current_range_meters":19600,"station_id":"ce4bhih2rcd13ifvqfr0","pricing_plan_id":"cebpf4jnsgd1na2vs0mg"},{"bike_id":"f25351c5-26de-4c7e-b40b-d22c5a09965d","system_id":"levelo_inurba_marseille","lat":43.30249,"lon":5.412963,"is_reserved":false,"is_disabled":false,"rental_uris":{"android":"levelo://app?vid=f25351c5-26de-4c7e-b40b-d22c5a09965d","ios":"levelo://app?vid=f25351c5-26de-4c7e-b40b-d22c5a09965d"},"vehicle_type_id":"4","last_reported":1727435243,"current_range_meters":4800,"station_id":"","pricing_plan_id":"cebpf4jnsgd1na2vs0mg"},{"bike_id":"6e82d10a-2b66-4ad5-bf22-ea7fead0fb6d","system_id":"levelo_inurba_marseille","lat":43.33763,"lon":5.37438,"is_reserved":false,"is_disabled":false,"rental_uris":{"android":"levelo://app?vid=6e82d10a-2b66-4ad5-bf22-ea7fead0fb6d","ios":"levelo://app?vid=6e82d10a-2b66-4ad5-bf22-ea7fead0fb6d"},"vehicle_type_id":"4","last_reported":1727435243,"current_range_meters":36400,"station_id":"","pricing_plan_id":"cebpf4jnsgd1na2vs0mg"},{"bike_id":"80e09071-95ff-454d-9076-2a605ea174e0","system_id":"levelo_inurba_marseille","lat":43.29843,"lon":5.36263,"is_reserved":false,"is_disabled":false,"rental_uris":{"android":"levelo://app?vid=80e09071-95ff-454d-9076-2a605ea174e0","ios":"levelo://app?vid=80e09071-95ff-454d-9076-2a605ea174e0"},"vehicle_type_id":"4","last_reported":1727435243,"current_range_meters":28400,"station_id":"ce4bgpp2rcd13ifvqc3g","pricing_plan_id":"cebpf4jnsgd1na2vs0mg"},{"bike_id":"bf59dc02-a8ef-429b-acb0-c12a23491503","system_id":"levelo_inurba_marseille","lat":43.29913,"lon":5.38145,"is_reserved":false,"is_disabled":false,"rental_uris":{"android":"levelo://app?vid=bf59dc02-a8ef-429b-acb0-c12a23491503","ios":"levelo://app?vid=bf59dc02-a8ef-429b-acb0-c12a23491503"},"vehicle_type_id":"4","last_reported":1727435243,"current_range_meters":38400,"station_id":"ce4bgj12rcd13ifvqbc0","pricing_plan_id":"cebpf4jnsgd1na2vs0mg"},{"bike_id":"8dd632e2-00ec-4739-bedc-fe9f1684ec29","system_id":"levelo_inurba_marseille","lat":43.29028,"lon":5.3865,"is_reserved":false,"is_disabled":false,"rental_uris":{"android":"levelo://app?vid=8dd632e2-00ec-4739-bedc-fe9f1684ec29","ios":"levelo://app?vid=8dd632e2-00ec-4739-bedc-fe9f1684ec29"},"vehicle_type_id":"4","last_reported":1727435243,"current_range_meters":28400,"station_id":"ce4bh4p2rcd13ifvqe0g","pricing_plan_id":"cebpf4jnsgd1na2vs0mg"},{"bike_id":"32cc1a09-9e45-45f6-9871-5fe0785aa3ec","system_id":"levelo_inurba_marseille","lat":43.31368,"lon":5.38489,"is_reserved":false,"is_disabled":false,"rental_uris":{"android":"levelo://app?vid=32cc1a09-9e45-45f6-9871-5fe0785aa3ec","ios":"levelo://app?vid=32cc1a09-9e45-45f6-9871-5fe0785aa3ec"},"vehicle_type_id":"4","last_reported":1727435243,"current_range_meters":27200,"station_id":"ce4bhr12rcd13ifvqhqg","pricing_plan_id":"cebpf4jnsgd1na2vs0mg"},{"bike_id":"d2f73829-32cd-4020-8cff-e187266f38d9","system_id":"levelo_inurba_marseille","lat":43.33768,"lon":5.37435,"is_reserved":false,"is_disabled":false,"rental_uris":{"android":"levelo://app?vid=d2f73829-32cd-4020-8cff-e187266f38d9","ios":"levelo://app?vid=d2f73829-32cd-4020-8cff-e187266f38d9"},"vehicle_type_id":"4","last_reported":1727435243,"current_range_meters":3200,"station_id":"","pricing_plan_id":"cebpf4jnsgd1na2vs0mg"},{"bike_id":"7dcc681e-687a-4c9a-9ee2-bdf8919d45e7","system_id":"levelo_inurba_marseille","lat":43.3015,"lon":5.38078,"is_reserved":false,"is_disabled":false,"rental_uris":{"android":"levelo://app?vid=7dcc681e-687a-4c9a-9ee2-bdf8919d45e7","ios":"levelo://app?vid=7dcc681e-687a-4c9a-9ee2-bdf8919d45e7"},"vehicle_type_id":"4","last_reported":1727435243,"current_range_meters":36400,"station_id":"ce4bgjp2rcd13ifvqbh0","pricing_plan_id":"cebpf4jnsgd1na2vs0mg"},{"bike_id":"16fd7254-ffe8-4372-95b8-d95732dad704","system_id":"levelo_inurba_marseille","lat":43.305583,"lon":5.365517,"is_reserved":false,"is_disabled":false,"rental_uris":{"android":"levelo://app?vid=16fd7254-ffe8-4372-95b8-d95732dad704","ios":"levelo://app?vid=16fd7254-ffe8-4372-95b8-d95732dad704"},"vehicle_type_id":"4","last_reported":1727435243,"current_range_meters":12000,"station_id":"ce4bgs12rcd13ifvqcag","pricing_plan_id":"cebpf4jnsgd1na2vs0mg"},{"bike_id":"caac2220-f204-42a6-8944-b690878e20a4","system_id":"levelo_inurba_marseille","lat":43.26198,"lon":5.37932,"is_reserved":false,"is_disabled":false,"rental_uris":{"android":"levelo://app?vid=caac2220-f204-42a6-8944-b690878e20a4","ios":"levelo://app?vid=caac2220-f204-42a6-8944-b690878e20a4"},"vehicle_type_id":"4","last_reported":1727435243,"current_range_meters":28000,"station_id":"ce4bhjp2rcd13ifvqg90","pricing_plan_id":"cebpf4jnsgd1na2vs0mg"},{"bike_id":"f916f4ea-109f-491c-b317-68616a4e1aaf","system_id":"levelo_inurba_marseille","lat":43.30602,"lon":5.37236,"is_reserved":false,"is_disabled":false,"rental_uris":{"android":"levelo://app?vid=f916f4ea-109f-491c-b317-68616a4e1aaf","ios":"levelo://app?vid=f916f4ea-109f-491c-b317-68616a4e1aaf"},"vehicle_type_id":"4","last_reported":1727435243,"current_range_meters":17200,"station_id":"ce4bgqh2rcd13ifvqc4g","pricing_plan_id":"cebpf4jnsgd1na2vs0mg"},{"bike_id":"e921ca4d-d46f-4300-820d-ff1dccc2d5dd","system_id":"levelo_inurba_marseille","lat":43.29624,"lon":5.37166,"is_reserved":false,"is_disabled":false,"rental_uris":{"android":"levelo://app?vid=e921ca4d-d46f-4300-820d-ff1dccc2d5dd","ios":"levelo://app?vid=e921ca4d-d46f-4300-820d-ff1dccc2d5dd"},"vehicle_type_id":"4","last_reported":1727435243,"current_range_meters":25600,"station_id":"ce4bgnh2rcd13ifvqc0g","pricing_plan_id":"cebpf4jnsgd1na2vs0mg"},{"bike_id":"a2c55c22-cff9-450f-991c-57d2f1cd2f53","system_id":"levelo_inurba_marseille","lat":43.2978,"lon":5.37105,"is_reserved":false,"is_disabled":false,"rental_uris":{"android":"levelo://app?vid=a2c55c22-cff9-450f-991c-57d2f1cd2f53","ios":"levelo://app?vid=a2c55c22-cff9-450f-991c-57d2f1cd2f53"},"vehicle_type_id":"4","last_reported":1727435243,"current_range_meters":27200,"station_id":"ce4bgop2rcd13ifvqc1g","pricing_plan_id":"cebpf4jnsgd1na2vs0mg"},{"bike_id":"2d21a934-5452-4cd4-9fa3-fb6b2a437943","system_id":"levelo_inurba_marseille","lat":43.23195,"lon":5.35546,"is_reserved":false,"is_disabled":false,"rental_uris":{"android":"levelo://app?vid=2d21a934-5452-4cd4-9fa3-fb6b2a437943","ios":"levelo://app?vid=2d21a934-5452-4cd4-9fa3-fb6b2a437943"},"vehicle_type_id":"4","last_reported":1727435243,"current_range_meters":28400,"station_id":"ce4bhu92rcd13ifvqi70","pricing_plan_id":"cebpf4jnsgd1na2vs0mg"},{"bike_id":"3a9eafd6-6356-4dfc-9fb1-d0f5942a2a35","system_id":"levelo_inurba_marseille","lat":43.26568,"lon":5.3901,"is_reserved":false,"is_disabled":false,"rental_uris":{"android":"levelo://app?vid=3a9eafd6-6356-4dfc-9fb1-d0f5942a2a35","ios":"levelo://app?vid=3a9eafd6-6356-4dfc-9fb1-d0f5942a2a35"},"vehicle_type_id":"4","last_reported":1727435243,"current_range_meters":5600,"station_id":"ce4bhe12rcd13ifvqf30","pricing_plan_id":"cebpf4jnsgd1na2vs0mg"},{"bike_id":"eb7ffbe4-85f3-4670-87ad-9e9ef7f9f6aa","system_id":"levelo_inurba_marseille","lat":43.31997,"lon":5.38156,"is_reserved":false,"is_disabled":false,"rental_uris":{"android":"levelo://app?vid=eb7ffbe4-85f3-4670-87ad-9e9ef7f9f6aa","ios":"levelo://app?vid=eb7ffbe4-85f3-4670-87ad-9e9ef7f9f6aa"},"vehicle_type_id":"4","last_reported":1727435243,"current_range_meters":38800,"station_id":"ce4bhr12rcd13ifvqhpg","pricing_plan_id":"cebpf4jnsgd1na2vs0mg"},{"bike_id":"47b52101-5c5d-4cee-9208-786821a1b453","system_id":"levelo_inurba_marseille","lat":43.29541,"lon":5.37526,"is_reserved":false,"is_disabled":false,"rental_uris":{"android":"levelo://app?vid=47b52101-5c5d-4cee-9208-786821a1b453","ios":"levelo://app?vid=47b52101-5c5d-4cee-9208-786821a1b453"},"vehicle_type_id":"4","last_reported":1727435243,"current_range_meters":22000,"station_id":"ce4bgkp2rcd13ifvqbmg","pricing_plan_id":"cebpf4jnsgd1na2vs0mg"},{"bike_id":"1f0a5685-a018-4839-8cd5-57a1d93d0aca","system_id":"levelo_inurba_marseille","lat":43.2997,"lon":5.37178,"is_reserved":false,"is_disabled":false,"rental_uris":{"android":"levelo://app?vid=1f0a5685-a018-4839-8cd5-57a1d93d0aca","ios":"levelo://app?vid=1f0a5685-a018-4839-8cd5-57a1d93d0aca"},"vehicle_type_id":"4","last_reported":1727435243,"current_range_meters":25600,"station_id":"ce4bgr92rcd13ifvqc7g","pricing_plan_id":"cebpf4jnsgd1na2vs0mg"},{"bike_id":"72359072-049f-4ee9-933b-ad8e0e97f0b4","system_id":"levelo_inurba_marseille","lat":43.26557,"lon":5.37283,"is_reserved":false,"is_disabled":false,"rental_uris":{"android":"levelo://app?vid=72359072-049f-4ee9-933b-ad8e0e97f0b4","ios":"levelo://app?vid=72359072-049f-4ee9-933b-ad8e0e97f0b4"},"vehicle_type_id":"4","last_reported":1727435243,"current_range_meters":12400,"station_id":"ce4bhg12rcd13ifvqf70","pricing_plan_id":"cebpf4jnsgd1na2vs0mg"},{"bike_id":"2d7a9fb7-df81-4f65-9229-4f5ebff4a082","system_id":"levelo_inurba_marseille","lat":43.29559,"lon":5.42292,"is_reserved":false,"is_disabled":false,"rental_uris":{"android":"levelo://app?vid=2d7a9fb7-df81-4f65-9229-4f5ebff4a082","ios":"levelo://app?vid=2d7a9fb7-df81-4f65-9229-4f5ebff4a082"},"vehicle_type_id":"4","last_reported":1727435243,"current_range_meters":32800,"station_id":"ce4bhph2rcd13ifvqhdg","pricing_plan_id":"cebpf4jnsgd1na2vs0mg"},{"bike_id":"4910f43f-97fa-48c1-b1b4-92e8383b5c27","system_id":"levelo_inurba_marseille","lat":43.282684,"lon":5.350612,"is_reserved":false,"is_disabled":false,"rental_uris":{"android":"levelo://app?vid=4910f43f-97fa-48c1-b1b4-92e8383b5c27","ios":"levelo://app?vid=4910f43f-97fa-48c1-b1b4-92e8383b5c27"},"vehicle_type_id":"4","last_reported":1727435243,"current_range_meters":12800,"station_id":"ce4bhbp2rcd13ifvqerg","pricing_plan_id":"cebpf4jnsgd1na2vs0mg"},{"bike_id":"3971a7a6-90c8-4357-991e-a7ab80ec6049","system_id":"levelo_inurba_marseille","lat":43.2318,"lon":5.39989,"is_reserved":false,"is_disabled":false,"rental_uris":{"android":"levelo://app?vid=3971a7a6-90c8-4357-991e-a7ab80ec6049","ios":"levelo://app?vid=3971a7a6-90c8-4357-991e-a7ab80ec6049"},"vehicle_type_id":"4","last_reported":1727435243,"current_range_meters":4400,"station_id":"ce4bhn12rcd13ifvqgqg","pricing_plan_id":"cebpf4jnsgd1na2vs0mg"},{"bike_id":"7cf4e5ec-03db-4dcc-9169-77d81d4a978c","system_id":"levelo_inurba_marseille","lat":43.23967,"lon":5.36631,"is_reserved":false,"is_disabled":false,"rental_uris":{"android":"levelo://app?vid=7cf4e5ec-03db-4dcc-9169-77d81d4a978c","ios":"levelo://app?vid=7cf4e5ec-03db-4dcc-9169-77d81d4a978c"},"vehicle_type_id":"4","last_reported":1727435243,"current_range_meters":14400,"station_id":"ce4bhi12rcd13ifvqfp0","pricing_plan_id":"cebpf4jnsgd1na2vs0mg"},{"bike_id":"9fd094bc-8ed2-43ca-ba76-524b06869e7b","system_id":"levelo_inurba_marseille","lat":43.27492,"lon":5.42456,"is_reserved":false,"is_disabled":false,"rental_uris":{"android":"levelo://app?vid=9fd094bc-8ed2-43ca-ba76-524b06869e7b","ios":"levelo://app?vid=9fd094bc-8ed2-43ca-ba76-524b06869e7b"},"vehicle_type_id":"4","last_reported":1727435243,"current_range_meters":9200,"station_id":"ce4bhn92rcd13ifvqgrg","pricing_plan_id":"cebpf4jnsgd1na2vs0mg"},{"bike_id":"1b4b0178-3a24-4b33-98ef-05aef8dad5fc","system_id":"levelo_inurba_marseille","lat":43.26199,"lon":5.37923,"is_reserved":false,"is_disabled":false,"rental_uris":{"android":"levelo://app?vid=1b4b0178-3a24-4b33-98ef-05aef8dad5fc","ios":"levelo://app?vid=1b4b0178-3a24-4b33-98ef-05aef8dad5fc"},"vehicle_type_id":"4","last_reported":1727435243,"current_range_meters":39200,"station_id":"ce4bhjp2rcd13ifvqg90","pricing_plan_id":"cebpf4jnsgd1na2vs0mg"},{"bike_id":"ca70ca90-bdc6-4be9-aa84-1d36e8f0163e","system_id":"levelo_inurba_marseille","lat":43.2694,"lon":5.40249,"is_reserved":false,"is_disabled":false,"rental_uris":{"android":"levelo://app?vid=ca70ca90-bdc6-4be9-aa84-1d36e8f0163e","ios":"levelo://app?vid=ca70ca90-bdc6-4be9-aa84-1d36e8f0163e"},"vehicle_type_id":"4","last_reported":1727435243,"current_range_meters":29600,"station_id":"cjm6bp8fraef2m0cb0m0","pricing_plan_id":"cebpf4jnsgd1na2vs0mg"},{"bike_id":"fd862933-d712-4813-8866-a7ed5682df20","system_id":"levelo_inurba_marseille","lat":43.23158,"lon":5.43696,"is_reserved":false,"is_disabled":false,"rental_uris":{"android":"levelo://app?vid=fd862933-d712-4813-8866-a7ed5682df20","ios":"levelo://app?vid=fd862933-d712-4813-8866-a7ed5682df20"},"vehicle_type_id":"4","last_reported":1727435243,"current_range_meters":6800,"station_id":"ce4bhmp2rcd13ifvqgog","pricing_plan_id":"cebpf4jnsgd1na2vs0mg"},{"bike_id":"7a40f9ce-c405-4173-b3bb-cf9557e56e0e","system_id":"levelo_inurba_marseille","lat":43.29029,"lon":5.38127,"is_reserved":false,"is_disabled":false,"rental_uris":{"android":"levelo://app?vid=7a40f9ce-c405-4173-b3bb-cf9557e56e0e","ios":"levelo://app?vid=7a40f9ce-c405-4173-b3bb-cf9557e56e0e"},"vehicle_type_id":"4","last_reported":1727435243,"current_range_meters":38400,"station_id":"ce4bh4p2rcd13ifvqe1g","pricing_plan_id":"cebpf4jnsgd1na2vs0mg"},{"bike_id":"67c7a892-c737-4c2d-9eda-1aa1051d8375","system_id":"levelo_inurba_marseille","lat":43.31822,"lon":5.40633,"is_reserved":false,"is_disabled":false,"rental_uris":{"android":"levelo://app?vid=67c7a892-c737-4c2d-9eda-1aa1051d8375","ios":"levelo://app?vid=67c7a892-c737-4c2d-9eda-1aa1051d8375"},"vehicle_type_id":"4","last_reported":1727435243,"current_range_meters":18800,"station_id":"ce4bh012rcd13ifvqd00","pricing_plan_id":"cebpf4jnsgd1na2vs0mg"},{"bike_id":"e1ebbe16-c4b9-44f0-a16c-400e496e9192","system_id":"levelo_inurba_marseille","lat":43.28395,"lon":5.37528,"is_reserved":false,"is_disabled":false,"rental_uris":{"android":"levelo://app?vid=e1ebbe16-c4b9-44f0-a16c-400e496e9192","ios":"levelo://app?vid=e1ebbe16-c4b9-44f0-a16c-400e496e9192"},"vehicle_type_id":"4","last_reported":1727435243,"current_range_meters":38400,"station_id":"ce4bh412rcd13ifvqds0","pricing_plan_id":"cebpf4jnsgd1na2vs0mg"},{"bike_id":"012a6d82-a3f5-4660-81ee-e3b23dd04012","system_id":"levelo_inurba_marseille","lat":43.30599,"lon":5.37238,"is_reserved":false,"is_disabled":false,"rental_uris":{"android":"levelo://app?vid=012a6d82-a3f5-4660-81ee-e3b23dd04012","ios":"levelo://app?vid=012a6d82-a3f5-4660-81ee-e3b23dd04012"},"vehicle_type_id":"4","last_reported":1727435243,"current_range_meters":32000,"station_id":"ce4bgqh2rcd13ifvqc4g","pricing_plan_id":"cebpf4jnsgd1na2vs0mg"},{"bike_id":"b880c358-4fe6-4c45-b6e3-c8a2f25482f2","system_id":"levelo_inurba_marseille","lat":43.2985,"lon":5.36285,"is_reserved":false,"is_disabled":false,"rental_uris":{"android":"levelo://app?vid=b880c358-4fe6-4c45-b6e3-c8a2f25482f2","ios":"levelo://app?vid=b880c358-4fe6-4c45-b6e3-c8a2f25482f2"},"vehicle_type_id":"4","last_reported":1727435243,"current_range_meters":30000,"station_id":"ce4bgpp2rcd13ifvqc3g","pricing_plan_id":"cebpf4jnsgd1na2vs0mg"},{"bike_id":"1f04ef12-b2a0-46b4-a299-de413ade19e1","system_id":"levelo_inurba_marseille","lat":43.30595,"lon":5.39364,"is_reserved":false,"is_disabled":false,"rental_uris":{"android":"levelo://app?vid=1f04ef12-b2a0-46b4-a299-de413ade19e1","ios":"levelo://app?vid=1f04ef12-b2a0-46b4-a299-de413ade19e1"},"vehicle_type_id":"4","last_reported":1727435243,"current_range_meters":24800,"station_id":"ce4bh0p2rcd13ifvqd80","pricing_plan_id":"cebpf4jnsgd1na2vs0mg"},{"bike_id":"4dc181bc-4891-4aa2-81b0-c1e663266bbc","system_id":"levelo_inurba_marseille","lat":43.30603,"lon":5.37225,"is_reserved":false,"is_disabled":false,"rental_uris":{"android":"levelo://app?vid=4dc181bc-4891-4aa2-81b0-c1e663266bbc","ios":"levelo://app?vid=4dc181bc-4891-4aa2-81b0-c1e663266bbc"},"vehicle_type_id":"4","last_reported":1727435243,"current_range_meters":19200,"station_id":"ce4bgqh2rcd13ifvqc4g","pricing_plan_id":"cebpf4jnsgd1na2vs0mg"},{"bike_id":"d21e75e6-6b6a-48f2-9a01-53bf100c1c33","system_id":"levelo_inurba_marseille","lat":43.299103,"lon":5.381454,"is_reserved":false,"is_disabled":false,"rental_uris":{"android":"levelo://app?vid=d21e75e6-6b6a-48f2-9a01-53bf100c1c33","ios":"levelo://app?vid=d21e75e6-6b6a-48f2-9a01-53bf100c1c33"},"vehicle_type_id":"4","last_reported":1727435243,"current_range_meters":28400,"station_id":"ce4bgj12rcd13ifvqbc0","pricing_plan_id":"cebpf4jnsgd1na2vs0mg"},{"bike_id":"1d7629ad-fdde-4e79-ab08-0465ee498199","system_id":"levelo_inurba_marseille","lat":43.28274,"lon":5.35069,"is_reserved":false,"is_disabled":false,"rental_uris":{"android":"levelo://app?vid=1d7629ad-fdde-4e79-ab08-0465ee498199","ios":"levelo://app?vid=1d7629ad-fdde-4e79-ab08-0465ee498199"},"vehicle_type_id":"4","last_reported":1727435243,"current_range_meters":26800,"station_id":"ce4bhbp2rcd13ifvqerg","pricing_plan_id":"cebpf4jnsgd1na2vs0mg"},{"bike_id":"bfc8fb79-9ca1-4291-8373-72c30ee282e8","system_id":"levelo_inurba_marseille","lat":43.28503,"lon":5.38276,"is_reserved":false,"is_disabled":false,"rental_uris":{"android":"levelo://app?vid=bfc8fb79-9ca1-4291-8373-72c30ee282e8","ios":"levelo://app?vid=bfc8fb79-9ca1-4291-8373-72c30ee282e8"},"vehicle_type_id":"4","last_reported":1727435243,"current_range_meters":16800,"station_id":"ce4bh512rcd13ifvqe3g","pricing_plan_id":"cebpf4jnsgd1na2vs0mg"},{"bike_id":"77cb1e36-d95a-45a7-87d2-a03cfed005d3","system_id":"levelo_inurba_marseille","lat":43.29717,"lon":5.37698,"is_reserved":false,"is_disabled":false,"rental_uris":{"android":"levelo://app?vid=77cb1e36-d95a-45a7-87d2-a03cfed005d3","ios":"levelo://app?vid=77cb1e36-d95a-45a7-87d2-a03cfed005d3"},"vehicle_type_id":"4","last_reported":1727435243,"current_range_meters":18000,"station_id":"ce4bgkh2rcd13ifvqbl0","pricing_plan_id":"cebpf4jnsgd1na2vs0mg"},{"bike_id":"fd512eb4-5978-476b-856d-3199680a82b6","system_id":"levelo_inurba_marseille","lat":43.23153,"lon":5.43702,"is_reserved":false,"is_disabled":false,"rental_uris":{"android":"levelo://app?vid=fd512eb4-5978-476b-856d-3199680a82b6","ios":"levelo://app?vid=fd512eb4-5978-476b-856d-3199680a82b6"},"vehicle_type_id":"4","last_reported":1727435243,"current_range_meters":16800,"station_id":"ce4bhmp2rcd13ifvqgog","pricing_plan_id":"cebpf4jnsgd1na2vs0mg"},{"bike_id":"e5edb00e-cafc-4a47-9e5b-004b7d4e67c3","system_id":"levelo_inurba_marseille","lat":43.29931,"lon":5.36554,"is_reserved":false,"is_disabled":false,"rental_uris":{"android":"levelo://app?vid=e5edb00e-cafc-4a47-9e5b-004b7d4e67c3","ios":"levelo://app?vid=e5edb00e-cafc-4a47-9e5b-004b7d4e67c3"},"vehicle_type_id":"4","last_reported":1727435243,"current_range_meters":30800,"station_id":"ce4bgm92rcd13ifvqbr0","pricing_plan_id":"cebpf4jnsgd1na2vs0mg"},{"bike_id":"ed66d76c-51ef-4cad-8afb-1603d160846a","system_id":"levelo_inurba_marseille","lat":43.336,"lon":5.41041,"is_reserved":false,"is_disabled":false,"rental_uris":{"android":"levelo://app?vid=ed66d76c-51ef-4cad-8afb-1603d160846a","ios":"levelo://app?vid=ed66d76c-51ef-4cad-8afb-1603d160846a"},"vehicle_type_id":"4","last_reported":1727435243,"current_range_meters":8000,"station_id":"ce4bhqh2rcd13ifvqhmg","pricing_plan_id":"cebpf4jnsgd1na2vs0mg"},{"bike_id":"63e7ff08-7f73-432e-80be-ddf733d28c13","system_id":"levelo_inurba_marseille","lat":43.2511,"lon":5.40322,"is_reserved":false,"is_disabled":false,"rental_uris":{"android":"levelo://app?vid=63e7ff08-7f73-432e-80be-ddf733d28c13","ios":"levelo://app?vid=63e7ff08-7f73-432e-80be-ddf733d28c13"},"vehicle_type_id":"4","last_reported":1727435243,"current_range_meters":7200,"station_id":"ce4bhlh2rcd13ifvqgig","pricing_plan_id":"cebpf4jnsgd1na2vs0mg"},{"bike_id":"cf938e2a-101c-40cf-b669-39bdb6a89997","system_id":"levelo_inurba_marseille","lat":43.29574,"lon":5.37522,"is_reserved":false,"is_disabled":false,"rental_uris":{"android":"levelo://app?vid=cf938e2a-101c-40cf-b669-39bdb6a89997","ios":"levelo://app?vid=cf938e2a-101c-40cf-b669-39bdb6a89997"},"vehicle_type_id":"4","last_reported":1727435243,"current_range_meters":30000,"station_id":"ce4bgh92rcd13ifvqb50","pricing_plan_id":"cebpf4jnsgd1na2vs0mg"},{"bike_id":"79f1521a-1338-417b-a91b-231c9648f517","system_id":"levelo_inurba_marseille","lat":43.29621,"lon":5.37172,"is_reserved":false,"is_disabled":false,"rental_uris":{"android":"levelo://app?vid=79f1521a-1338-417b-a91b-231c9648f517","ios":"levelo://app?vid=79f1521a-1338-417b-a91b-231c9648f517"},"vehicle_type_id":"4","last_reported":1727435243,"current_range_meters":38800,"station_id":"ce4bgnh2rcd13ifvqc0g","pricing_plan_id":"cebpf4jnsgd1na2vs0mg"},{"bike_id":"0063fe01-858d-4928-86ed-1b78fd587000","system_id":"levelo_inurba_marseille","lat":43.30359,"lon":5.41869,"is_reserved":false,"is_disabled":false,"rental_uris":{"android":"levelo://app?vid=0063fe01-858d-4928-86ed-1b78fd587000","ios":"levelo://app?vid=0063fe01-858d-4928-86ed-1b78fd587000"},"vehicle_type_id":"4","last_reported":1727435243,"current_range_meters":8800,"station_id":"ce4bhop2rcd13ifvqh7g","pricing_plan_id":"cebpf4jnsgd1na2vs0mg"},{"bike_id":"7fc62455-2129-4459-93ea-44e36d53f76e","system_id":"levelo_inurba_marseille","lat":43.29223,"lon":5.36081,"is_reserved":false,"is_disabled":false,"rental_uris":{"android":"levelo://app?vid=7fc62455-2129-4459-93ea-44e36d53f76e","ios":"levelo://app?vid=7fc62455-2129-4459-93ea-44e36d53f76e"},"vehicle_type_id":"4","last_reported":1727435243,"current_range_meters":38800,"station_id":"ce4bhbh2rcd13ifvqeqg","pricing_plan_id":"cebpf4jnsgd1na2vs0mg"},{"bike_id":"f91410d2-1845-47df-bf5d-99a37d76559d","system_id":"levelo_inurba_marseille","lat":43.26957,"lon":5.38631,"is_reserved":false,"is_disabled":false,"rental_uris":{"android":"levelo://app?vid=f91410d2-1845-47df-bf5d-99a37d76559d","ios":"levelo://app?vid=f91410d2-1845-47df-bf5d-99a37d76559d"},"vehicle_type_id":"4","last_reported":1727435243,"current_range_meters":30400,"station_id":"ce4bhh92rcd13ifvqfh0","pricing_plan_id":"cebpf4jnsgd1na2vs0mg"},{"bike_id":"96599f13-8ddf-47f5-bc28-e6ee4e28298c","system_id":"levelo_inurba_marseille","lat":43.29991,"lon":5.36899,"is_reserved":false,"is_disabled":false,"rental_uris":{"android":"levelo://app?vid=96599f13-8ddf-47f5-bc28-e6ee4e28298c","ios":"levelo://app?vid=96599f13-8ddf-47f5-bc28-e6ee4e28298c"},"vehicle_type_id":"4","last_reported":1727435243,"current_range_meters":7200,"station_id":"ce4bgs92rcd13ifvqcc0","pricing_plan_id":"cebpf4jnsgd1na2vs0mg"},{"bike_id":"04e276ae-eb40-48e4-ace3-240fedba017a","system_id":"levelo_inurba_marseille","lat":43.29858,"lon":5.39749,"is_reserved":false,"is_disabled":false,"rental_uris":{"android":"levelo://app?vid=04e276ae-eb40-48e4-ace3-240fedba017a","ios":"levelo://app?vid=04e276ae-eb40-48e4-ace3-240fedba017a"},"vehicle_type_id":"4","last_reported":1727435243,"current_range_meters":15200,"station_id":"ce4bh0h2rcd13ifvqd50","pricing_plan_id":"cebpf4jnsgd1na2vs0mg"},{"bike_id":"e36ab6a4-3228-494a-b3c0-bfbc992aa76a","system_id":"levelo_inurba_marseille","lat":43.26556,"lon":5.37286,"is_reserved":false,"is_disabled":false,"rental_uris":{"android":"levelo://app?vid=e36ab6a4-3228-494a-b3c0-bfbc992aa76a","ios":"levelo://app?vid=e36ab6a4-3228-494a-b3c0-bfbc992aa76a"},"vehicle_type_id":"4","last_reported":1727435243,"current_range_meters":18800,"station_id":"ce4bhg12rcd13ifvqf70","pricing_plan_id":"cebpf4jnsgd1na2vs0mg"},{"bike_id":"3e46566b-a6b2-4db8-88d5-db5606f3b81d","system_id":"levelo_inurba_marseille","lat":43.27901,"lon":5.38006,"is_reserved":false,"is_disabled":false,"rental_uris":{"android":"levelo://app?vid=3e46566b-a6b2-4db8-88d5-db5606f3b81d","ios":"levelo://app?vid=3e46566b-a6b2-4db8-88d5-db5606f3b81d"},"vehicle_type_id":"4","last_reported":1727435243,"current_range_meters":32000,"station_id":"ce4bhf92rcd13ifvqf50","pricing_plan_id":"cebpf4jnsgd1na2vs0mg"},{"bike_id":"d6006c8f-615a-40da-b2e6-86bb0ae52e5d","system_id":"levelo_inurba_marseille","lat":43.29366,"lon":5.37842,"is_reserved":false,"is_disabled":false,"rental_uris":{"android":"levelo://app?vid=d6006c8f-615a-40da-b2e6-86bb0ae52e5d","ios":"levelo://app?vid=d6006c8f-615a-40da-b2e6-86bb0ae52e5d"},"vehicle_type_id":"4","last_reported":1727435243,"current_range_meters":3600,"station_id":"ce4bgjh2rcd13ifvqbf0","pricing_plan_id":"cebpf4jnsgd1na2vs0mg"},{"bike_id":"ea8a11af-f23f-456d-a030-770bcb36a7f9","system_id":"levelo_inurba_marseille","lat":43.2572,"lon":5.4111,"is_reserved":false,"is_disabled":false,"rental_uris":{"android":"levelo://app?vid=ea8a11af-f23f-456d-a030-770bcb36a7f9","ios":"levelo://app?vid=ea8a11af-f23f-456d-a030-770bcb36a7f9"},"vehicle_type_id":"4","last_reported":1727435243,"current_range_meters":32800,"station_id":"ce4bhkp2rcd13ifvqgd0","pricing_plan_id":"cebpf4jnsgd1na2vs0mg"},{"bike_id":"1f272fe6-9f2b-44bc-a21d-dc22f0f17d24","system_id":"levelo_inurba_marseille","lat":43.25727,"lon":5.41108,"is_reserved":false,"is_disabled":false,"rental_uris":{"android":"levelo://app?vid=1f272fe6-9f2b-44bc-a21d-dc22f0f17d24","ios":"levelo://app?vid=1f272fe6-9f2b-44bc-a21d-dc22f0f17d24"},"vehicle_type_id":"4","last_reported":1727435243,"current_range_meters":26800,"station_id":"ce4bhkp2rcd13ifvqgd0","pricing_plan_id":"cebpf4jnsgd1na2vs0mg"},{"bike_id":"4357a4d2-e506-4065-98ed-bf310eb23075","system_id":"levelo_inurba_marseille","lat":43.28087,"lon":5.39715,"is_reserved":false,"is_disabled":false,"rental_uris":{"android":"levelo://app?vid=4357a4d2-e506-4065-98ed-bf310eb23075","ios":"levelo://app?vid=4357a4d2-e506-4065-98ed-bf310eb23075"},"vehicle_type_id":"4","last_reported":1727435243,"current_range_meters":32000,"station_id":"ce4bhnh2rcd13ifvqgug","pricing_plan_id":"cebpf4jnsgd1na2vs0mg"},{"bike_id":"48016dda-b4da-40b1-842c-1465ee8a37b3","system_id":"levelo_inurba_marseille","lat":43.29018,"lon":5.38647,"is_reserved":false,"is_disabled":false,"rental_uris":{"android":"levelo://app?vid=48016dda-b4da-40b1-842c-1465ee8a37b3","ios":"levelo://app?vid=48016dda-b4da-40b1-842c-1465ee8a37b3"},"vehicle_type_id":"4","last_reported":1727435243,"current_range_meters":28400,"station_id":"ce4bh4p2rcd13ifvqe0g","pricing_plan_id":"cebpf4jnsgd1na2vs0mg"},{"bike_id":"949118ac-52df-4286-b826-aedfdc939133","system_id":"levelo_inurba_marseille","lat":43.27179,"lon":5.40987,"is_reserved":false,"is_disabled":false,"rental_uris":{"android":"levelo://app?vid=949118ac-52df-4286-b826-aedfdc939133","ios":"levelo://app?vid=949118ac-52df-4286-b826-aedfdc939133"},"vehicle_type_id":"4","last_reported":1727435243,"current_range_meters":39200,"station_id":"ce4bhl12rcd13ifvqgf0","pricing_plan_id":"cebpf4jnsgd1na2vs0mg"},{"bike_id":"3ebd26d3-ec80-404b-af3f-5fe8a8f85450","system_id":"levelo_inurba_marseille","lat":43.298,"lon":5.38102,"is_reserved":false,"is_disabled":false,"rental_uris":{"android":"levelo://app?vid=3ebd26d3-ec80-404b-af3f-5fe8a8f85450","ios":"levelo://app?vid=3ebd26d3-ec80-404b-af3f-5fe8a8f85450"},"vehicle_type_id":"4","last_reported":1727435243,"current_range_meters":39200,"station_id":"ce4bgip2rcd13ifvqbb0","pricing_plan_id":"cebpf4jnsgd1na2vs0mg"},{"bike_id":"58f90b36-6150-40b2-93bf-5ec49ac2a368","system_id":"levelo_inurba_marseille","lat":43.31501,"lon":5.37306,"is_reserved":false,"is_disabled":false,"rental_uris":{"android":"levelo://app?vid=58f90b36-6150-40b2-93bf-5ec49ac2a368","ios":"levelo://app?vid=58f90b36-6150-40b2-93bf-5ec49ac2a368"},"vehicle_type_id":"4","last_reported":1727435243,"current_range_meters":12800,"station_id":"ce4bgt12rcd13ifvqcd0","pricing_plan_id":"cebpf4jnsgd1na2vs0mg"},{"bike_id":"f4c55d09-c8a6-4e7c-891d-787770099936","system_id":"levelo_inurba_marseille","lat":43.31074,"lon":5.38365,"is_reserved":false,"is_disabled":false,"rental_uris":{"android":"levelo://app?vid=f4c55d09-c8a6-4e7c-891d-787770099936","ios":"levelo://app?vid=f4c55d09-c8a6-4e7c-891d-787770099936"},"vehicle_type_id":"4","last_reported":1727435243,"current_range_meters":28800,"station_id":"ce4bgv92rcd13ifvqcr0","pricing_plan_id":"cebpf4jnsgd1na2vs0mg"},{"bike_id":"7a221aff-a308-4e51-bd6c-3606a6928c42","system_id":"levelo_inurba_marseille","lat":43.28496,"lon":5.3898,"is_reserved":false,"is_disabled":false,"rental_uris":{"android":"levelo://app?vid=7a221aff-a308-4e51-bd6c-3606a6928c42","ios":"levelo://app?vid=7a221aff-a308-4e51-bd6c-3606a6928c42"},"vehicle_type_id":"4","last_reported":1727435243,"current_range_meters":36800,"station_id":"","pricing_plan_id":"cebpf4jnsgd1na2vs0mg"},{"bike_id":"baaaeeb2-4303-420d-953d-fbe42e6cb360","system_id":"levelo_inurba_marseille","lat":43.31723,"lon":5.37785,"is_reserved":false,"is_disabled":false,"rental_uris":{"android":"levelo://app?vid=baaaeeb2-4303-420d-953d-fbe42e6cb360","ios":"levelo://app?vid=baaaeeb2-4303-420d-953d-fbe42e6cb360"},"vehicle_type_id":"4","last_reported":1727435243,"current_range_meters":11200,"station_id":"ce4bgth2rcd13ifvqch0","pricing_plan_id":"cebpf4jnsgd1na2vs0mg"},{"bike_id":"07e39731-448f-40d5-9d06-91facf9fcb8e","system_id":"levelo_inurba_marseille","lat":43.31993,"lon":5.38147,"is_reserved":false,"is_disabled":false,"rental_uris":{"android":"levelo://app?vid=07e39731-448f-40d5-9d06-91facf9fcb8e","ios":"levelo://app?vid=07e39731-448f-40d5-9d06-91facf9fcb8e"},"vehicle_type_id":"4","last_reported":1727435243,"current_range_meters":27600,"station_id":"ce4bhr12rcd13ifvqhpg","pricing_plan_id":"cebpf4jnsgd1na2vs0mg"},{"bike_id":"7929c9e3-bb6a-4882-be87-1f7a2fd18468","system_id":"levelo_inurba_marseille","lat":43.29274,"lon":5.36846,"is_reserved":false,"is_disabled":false,"rental_uris":{"android":"levelo://app?vid=7929c9e3-bb6a-4882-be87-1f7a2fd18468","ios":"levelo://app?vid=7929c9e3-bb6a-4882-be87-1f7a2fd18468"},"vehicle_type_id":"4","last_reported":1727435243,"current_range_meters":17200,"station_id":"ce4bhbp2rcd13ifvqesg","pricing_plan_id":"cebpf4jnsgd1na2vs0mg"},{"bike_id":"8a5475e3-6fbf-4e9b-b650-accf3a939b49","system_id":"levelo_inurba_marseille","lat":43.32477,"lon":5.3657,"is_reserved":false,"is_disabled":false,"rental_uris":{"android":"levelo://app?vid=8a5475e3-6fbf-4e9b-b650-accf3a939b49","ios":"levelo://app?vid=8a5475e3-6fbf-4e9b-b650-accf3a939b49"},"vehicle_type_id":"4","last_reported":1727435243,"current_range_meters":38800,"station_id":"ce4bhs12rcd13ifvqhvg","pricing_plan_id":"cebpf4jnsgd1na2vs0mg"},{"bike_id":"027699da-6e1a-43b1-ae68-183b1e03550f","system_id":"levelo_inurba_marseille","lat":43.28994,"lon":5.37593,"is_reserved":false,"is_disabled":false,"rental_uris":{"android":"levelo://app?vid=027699da-6e1a-43b1-ae68-183b1e03550f","ios":"levelo://app?vid=027699da-6e1a-43b1-ae68-183b1e03550f"},"vehicle_type_id":"4","last_reported":1727435243,"current_range_meters":33600,"station_id":"ce4bh692rcd13ifvqe90","pricing_plan_id":"cebpf4jnsgd1na2vs0mg"},{"bike_id":"7cac87a3-8f4e-483a-8d7a-7601b0c2f64f","system_id":"levelo_inurba_marseille","lat":43.24073,"lon":5.37761,"is_reserved":false,"is_disabled":false,"rental_uris":{"android":"levelo://app?vid=7cac87a3-8f4e-483a-8d7a-7601b0c2f64f","ios":"levelo://app?vid=7cac87a3-8f4e-483a-8d7a-7601b0c2f64f"},"vehicle_type_id":"4","last_reported":1727435243,"current_range_meters":38000,"station_id":"ce4bhnp2rcd13ifvqgvg","pricing_plan_id":"cebpf4jnsgd1na2vs0mg"},{"bike_id":"f38663f5-0f6c-413c-be81-35ccd2c6c2fc","system_id":"levelo_inurba_marseille","lat":43.29608,"lon":5.37721,"is_reserved":false,"is_disabled":false,"rental_uris":{"android":"levelo://app?vid=f38663f5-0f6c-413c-be81-35ccd2c6c2fc","ios":"levelo://app?vid=f38663f5-0f6c-413c-be81-35ccd2c6c2fc"},"vehicle_type_id":"4","last_reported":1727435243,"current_range_meters":28400,"station_id":"ce4bgi92rcd13ifvqb90","pricing_plan_id":"cebpf4jnsgd1na2vs0mg"},{"bike_id":"079eae73-c155-4655-a2a6-6306ceb09a5a","system_id":"levelo_inurba_marseille","lat":43.29841,"lon":5.36281,"is_reserved":false,"is_disabled":false,"rental_uris":{"android":"levelo://app?vid=079eae73-c155-4655-a2a6-6306ceb09a5a","ios":"levelo://app?vid=079eae73-c155-4655-a2a6-6306ceb09a5a"},"vehicle_type_id":"4","last_reported":1727435243,"current_range_meters":39200,"station_id":"ce4bgpp2rcd13ifvqc3g","pricing_plan_id":"cebpf4jnsgd1na2vs0mg"},{"bike_id":"e6c0f65a-33be-415d-a1ea-248fe959262e","system_id":"levelo_inurba_marseille","lat":43.29618,"lon":5.37161,"is_reserved":false,"is_disabled":false,"rental_uris":{"android":"levelo://app?vid=e6c0f65a-33be-415d-a1ea-248fe959262e","ios":"levelo://app?vid=e6c0f65a-33be-415d-a1ea-248fe959262e"},"vehicle_type_id":"4","last_reported":1727435243,"current_range_meters":38800,"station_id":"ce4bgnh2rcd13ifvqc0g","pricing_plan_id":"cebpf4jnsgd1na2vs0mg"},{"bike_id":"acc73a6c-9246-491f-a928-d2a1e999ed3f","system_id":"levelo_inurba_marseille","lat":43.2586,"lon":5.39901,"is_reserved":false,"is_disabled":false,"rental_uris":{"android":"levelo://app?vid=acc73a6c-9246-491f-a928-d2a1e999ed3f","ios":"levelo://app?vid=acc73a6c-9246-491f-a928-d2a1e999ed3f"},"vehicle_type_id":"4","last_reported":1727435243,"current_range_meters":9600,"station_id":"ce4bhl92rcd13ifvqghg","pricing_plan_id":"cebpf4jnsgd1na2vs0mg"},{"bike_id":"b721e921-074f-403a-bad1-46bc383cd1ce","system_id":"levelo_inurba_marseille","lat":43.29934,"lon":5.36556,"is_reserved":false,"is_disabled":false,"rental_uris":{"android":"levelo://app?vid=b721e921-074f-403a-bad1-46bc383cd1ce","ios":"levelo://app?vid=b721e921-074f-403a-bad1-46bc383cd1ce"},"vehicle_type_id":"4","last_reported":1727435243,"current_range_meters":27200,"station_id":"ce4bgm92rcd13ifvqbr0","pricing_plan_id":"cebpf4jnsgd1na2vs0mg"},{"bike_id":"c4361181-c6b9-4075-be45-d1ccbdfdb580","system_id":"levelo_inurba_marseille","lat":43.24084,"lon":5.37745,"is_reserved":false,"is_disabled":false,"rental_uris":{"android":"levelo://app?vid=c4361181-c6b9-4075-be45-d1ccbdfdb580","ios":"levelo://app?vid=c4361181-c6b9-4075-be45-d1ccbdfdb580"},"vehicle_type_id":"4","last_reported":1727435243,"current_range_meters":28400,"station_id":"ce4bhnp2rcd13ifvqgvg","pricing_plan_id":"cebpf4jnsgd1na2vs0mg"},{"bike_id":"37a3adab-d5a4-40be-963c-64b75fb764aa","system_id":"levelo_inurba_marseille","lat":43.30162,"lon":5.38085,"is_reserved":false,"is_disabled":false,"rental_uris":{"android":"levelo://app?vid=37a3adab-d5a4-40be-963c-64b75fb764aa","ios":"levelo://app?vid=37a3adab-d5a4-40be-963c-64b75fb764aa"},"vehicle_type_id":"4","last_reported":1727435243,"current_range_meters":27600,"station_id":"ce4bgjp2rcd13ifvqbh0","pricing_plan_id":"cebpf4jnsgd1na2vs0mg"},{"bike_id":"55804fa0-8ed8-4495-a5b9-4c289be0968c","system_id":"levelo_inurba_marseille","lat":43.33708,"lon":5.39169,"is_reserved":false,"is_disabled":false,"rental_uris":{"android":"levelo://app?vid=55804fa0-8ed8-4495-a5b9-4c289be0968c","ios":"levelo://app?vid=55804fa0-8ed8-4495-a5b9-4c289be0968c"},"vehicle_type_id":"4","last_reported":1727435243,"current_range_meters":24000,"station_id":"ce4bhr92rcd13ifvqhsg","pricing_plan_id":"cebpf4jnsgd1na2vs0mg"},{"bike_id":"f244f90b-399e-4afd-a4ad-c99eb858a55e","system_id":"levelo_inurba_marseille","lat":43.30603,"lon":5.37242,"is_reserved":false,"is_disabled":false,"rental_uris":{"android":"levelo://app?vid=f244f90b-399e-4afd-a4ad-c99eb858a55e","ios":"levelo://app?vid=f244f90b-399e-4afd-a4ad-c99eb858a55e"},"vehicle_type_id":"4","last_reported":1727435243,"current_range_meters":35600,"station_id":"ce4bgqh2rcd13ifvqc4g","pricing_plan_id":"cebpf4jnsgd1na2vs0mg"},{"bike_id":"0079eec2-8e7b-49cd-9d17-2ee313aa92f8","system_id":"levelo_inurba_marseille","lat":43.28,"lon":5.40018,"is_reserved":false,"is_disabled":false,"rental_uris":{"android":"levelo://app?vid=0079eec2-8e7b-49cd-9d17-2ee313aa92f8","ios":"levelo://app?vid=0079eec2-8e7b-49cd-9d17-2ee313aa92f8"},"vehicle_type_id":"4","last_reported":1727435243,"current_range_meters":38400,"station_id":"ce4bho92rcd13ifvqh4g","pricing_plan_id":"cebpf4jnsgd1na2vs0mg"},{"bike_id":"9f56332c-e480-41ed-8af2-29e749c4b9ad","system_id":"levelo_inurba_marseille","lat":43.25826,"lon":5.39441,"is_reserved":false,"is_disabled":false,"rental_uris":{"android":"levelo://app?vid=9f56332c-e480-41ed-8af2-29e749c4b9ad","ios":"levelo://app?vid=9f56332c-e480-41ed-8af2-29e749c4b9ad"},"vehicle_type_id":"4","last_reported":1727435243,"current_range_meters":37600,"station_id":"ce4bhip2rcd13ifvqft0","pricing_plan_id":"cebpf4jnsgd1na2vs0mg"},{"bike_id":"7d187923-6629-4a06-bd67-979066577e39","system_id":"levelo_inurba_marseille","lat":43.25497,"lon":5.3765,"is_reserved":false,"is_disabled":false,"rental_uris":{"android":"levelo://app?vid=7d187923-6629-4a06-bd67-979066577e39","ios":"levelo://app?vid=7d187923-6629-4a06-bd67-979066577e39"},"vehicle_type_id":"4","last_reported":1727435243,"current_range_meters":38800,"station_id":"ce4bhh12rcd13ifvqff0","pricing_plan_id":"cebpf4jnsgd1na2vs0mg"},{"bike_id":"a7bca3df-0344-4204-86d7-b742d4769839","system_id":"levelo_inurba_marseille","lat":43.30863,"lon":5.3685,"is_reserved":false,"is_disabled":false,"rental_uris":{"android":"levelo://app?vid=a7bca3df-0344-4204-86d7-b742d4769839","ios":"levelo://app?vid=a7bca3df-0344-4204-86d7-b742d4769839"},"vehicle_type_id":"4","last_reported":1727435243,"current_range_meters":16800,"station_id":"ce4bgn92rcd13ifvqbvg","pricing_plan_id":"cebpf4jnsgd1na2vs0mg"},{"bike_id":"384d7833-ec97-4d0d-aaed-0b5dca6a0cf1","system_id":"levelo_inurba_marseille","lat":43.28723,"lon":5.36096,"is_reserved":false,"is_disabled":false,"rental_uris":{"android":"levelo://app?vid=384d7833-ec97-4d0d-aaed-0b5dca6a0cf1","ios":"levelo://app?vid=384d7833-ec97-4d0d-aaed-0b5dca6a0cf1"},"vehicle_type_id":"4","last_reported":1727435243,"current_range_meters":30400,"station_id":"cki0cbj6b192h4jlfktg","pricing_plan_id":"cebpf4jnsgd1na2vs0mg"},{"bike_id":"546a1bb6-ec80-485c-8b1e-bb866a56741e","system_id":"levelo_inurba_marseille","lat":43.33603,"lon":5.4103,"is_reserved":false,"is_disabled":false,"rental_uris":{"android":"levelo://app?vid=546a1bb6-ec80-485c-8b1e-bb866a56741e","ios":"levelo://app?vid=546a1bb6-ec80-485c-8b1e-bb866a56741e"},"vehicle_type_id":"4","last_reported":1727435243,"current_range_meters":20400,"station_id":"ce4bhqh2rcd13ifvqhmg","pricing_plan_id":"cebpf4jnsgd1na2vs0mg"},{"bike_id":"8ef8e8ed-f3c2-4d40-8570-a2045f01d8fb","system_id":"levelo_inurba_marseille","lat":43.27208,"lon":5.3917,"is_reserved":false,"is_disabled":false,"rental_uris":{"android":"levelo://app?vid=8ef8e8ed-f3c2-4d40-8570-a2045f01d8fb","ios":"levelo://app?vid=8ef8e8ed-f3c2-4d40-8570-a2045f01d8fb"},"vehicle_type_id":"4","last_reported":1727435243,"current_range_meters":22000,"station_id":"ce4bhhp2rcd13ifvqfm0","pricing_plan_id":"cebpf4jnsgd1na2vs0mg"},{"bike_id":"765e38c3-e5dc-45d3-89d1-6e97ef7e3cd0","system_id":"levelo_inurba_marseille","lat":43.27816,"lon":5.40708,"is_reserved":false,"is_disabled":false,"rental_uris":{"android":"levelo://app?vid=765e38c3-e5dc-45d3-89d1-6e97ef7e3cd0","ios":"levelo://app?vid=765e38c3-e5dc-45d3-89d1-6e97ef7e3cd0"},"vehicle_type_id":"4","last_reported":1727435243,"current_range_meters":32400,"station_id":"ce4bhnh2rcd13ifvqgtg","pricing_plan_id":"cebpf4jnsgd1na2vs0mg"},{"bike_id":"3b0f75d7-b032-48e9-91b9-97f33bb9bc88","system_id":"levelo_inurba_marseille","lat":43.326623,"lon":5.409963,"is_reserved":false,"is_disabled":false,"rental_uris":{"android":"levelo://app?vid=3b0f75d7-b032-48e9-91b9-97f33bb9bc88","ios":"levelo://app?vid=3b0f75d7-b032-48e9-91b9-97f33bb9bc88"},"vehicle_type_id":"4","last_reported":1727435243,"current_range_meters":8000,"station_id":"ce4bhpp2rcd13ifvqhgg","pricing_plan_id":"cebpf4jnsgd1na2vs0mg"},{"bike_id":"fbd4045d-8d8c-4da6-a914-28afc7f2a202","system_id":"levelo_inurba_marseille","lat":43.26553,"lon":5.3901,"is_reserved":false,"is_disabled":false,"rental_uris":{"android":"levelo://app?vid=fbd4045d-8d8c-4da6-a914-28afc7f2a202","ios":"levelo://app?vid=fbd4045d-8d8c-4da6-a914-28afc7f2a202"},"vehicle_type_id":"4","last_reported":1727435243,"current_range_meters":18800,"station_id":"ce4bhe12rcd13ifvqf30","pricing_plan_id":"cebpf4jnsgd1na2vs0mg"},{"bike_id":"f27d7da4-71be-4f13-a382-953a0f89230d","system_id":"levelo_inurba_marseille","lat":43.24806,"lon":5.37459,"is_reserved":false,"is_disabled":false,"rental_uris":{"android":"levelo://app?vid=f27d7da4-71be-4f13-a382-953a0f89230d","ios":"levelo://app?vid=f27d7da4-71be-4f13-a382-953a0f89230d"},"vehicle_type_id":"4","last_reported":1727435243,"current_range_meters":19200,"station_id":"ce4bhgh2rcd13ifvqfb0","pricing_plan_id":"cebpf4jnsgd1na2vs0mg"},{"bike_id":"c1612d84-0827-4862-913d-90b47cbd08c9","system_id":"levelo_inurba_marseille","lat":43.28039,"lon":5.36946,"is_reserved":false,"is_disabled":false,"rental_uris":{"android":"levelo://app?vid=c1612d84-0827-4862-913d-90b47cbd08c9","ios":"levelo://app?vid=c1612d84-0827-4862-913d-90b47cbd08c9"},"vehicle_type_id":"4","last_reported":1727435243,"current_range_meters":19200,"station_id":"ce4bha12rcd13ifvqef0","pricing_plan_id":"cebpf4jnsgd1na2vs0mg"},{"bike_id":"054f024a-b7fa-4b2d-a295-6fb6fa62a641","system_id":"levelo_inurba_marseille","lat":43.25503,"lon":5.37653,"is_reserved":false,"is_disabled":false,"rental_uris":{"android":"levelo://app?vid=054f024a-b7fa-4b2d-a295-6fb6fa62a641","ios":"levelo://app?vid=054f024a-b7fa-4b2d-a295-6fb6fa62a641"},"vehicle_type_id":"4","last_reported":1727435243,"current_range_meters":36800,"station_id":"ce4bhh12rcd13ifvqff0","pricing_plan_id":"cebpf4jnsgd1na2vs0mg"},{"bike_id":"a930195c-17c1-438b-9d09-5b9a99516b12","system_id":"levelo_inurba_marseille","lat":43.284165,"lon":5.349775,"is_reserved":false,"is_disabled":false,"rental_uris":{"android":"levelo://app?vid=a930195c-17c1-438b-9d09-5b9a99516b12","ios":"levelo://app?vid=a930195c-17c1-438b-9d09-5b9a99516b12"},"vehicle_type_id":"4","last_reported":1727435243,"current_range_meters":10800,"station_id":"ce4bhbh2rcd13ifvqepg","pricing_plan_id":"cebpf4jnsgd1na2vs0mg"},{"bike_id":"cb0c5f3b-d106-4009-86f7-a06e25c48729","system_id":"levelo_inurba_marseille","lat":43.26685,"lon":5.38273,"is_reserved":false,"is_disabled":false,"rental_uris":{"android":"levelo://app?vid=cb0c5f3b-d106-4009-86f7-a06e25c48729","ios":"levelo://app?vid=cb0c5f3b-d106-4009-86f7-a06e25c48729"},"vehicle_type_id":"4","last_reported":1727435243,"current_range_meters":18000,"station_id":"ce4bhg92rcd13ifvqf90","pricing_plan_id":"cebpf4jnsgd1na2vs0mg"},{"bike_id":"4a4bfd88-bdfc-4802-b3a8-e798e4274727","system_id":"levelo_inurba_marseille","lat":43.32294,"lon":5.38267,"is_reserved":false,"is_disabled":false,"rental_uris":{"android":"levelo://app?vid=4a4bfd88-bdfc-4802-b3a8-e798e4274727","ios":"levelo://app?vid=4a4bfd88-bdfc-4802-b3a8-e798e4274727"},"vehicle_type_id":"4","last_reported":1727435243,"current_range_meters":18800,"station_id":"ce4bhr12rcd13ifvqhqg","pricing_plan_id":"cebpf4jnsgd1na2vs0mg"},{"bike_id":"ae90ba2a-63ce-4955-a33a-daceb115ab99","system_id":"levelo_inurba_marseille","lat":43.27943,"lon":5.41041,"is_reserved":false,"is_disabled":false,"rental_uris":{"android":"levelo://app?vid=ae90ba2a-63ce-4955-a33a-daceb115ab99","ios":"levelo://app?vid=ae90ba2a-63ce-4955-a33a-daceb115ab99"},"vehicle_type_id":"4","last_reported":1727435243,"current_range_meters":35200,"station_id":"ce4bhnp2rcd13ifvqh0g","pricing_plan_id":"cebpf4jnsgd1na2vs0mg"},{"bike_id":"8a0d9a1a-839f-47d7-bbb5-59157c7ef034","system_id":"levelo_inurba_marseille","lat":43.29895,"lon":5.43662,"is_reserved":false,"is_disabled":false,"rental_uris":{"android":"levelo://app?vid=8a0d9a1a-839f-47d7-bbb5-59157c7ef034","ios":"levelo://app?vid=8a0d9a1a-839f-47d7-bbb5-59157c7ef034"},"vehicle_type_id":"4","last_reported":1727435243,"current_range_meters":8800,"station_id":"ce4bhpp2rcd13ifvqhfg","pricing_plan_id":"cebpf4jnsgd1na2vs0mg"},{"bike_id":"182f6043-9d3b-4424-aec1-875d25d84c7a","system_id":"levelo_inurba_marseille","lat":43.29629,"lon":5.37162,"is_reserved":false,"is_disabled":false,"rental_uris":{"android":"levelo://app?vid=182f6043-9d3b-4424-aec1-875d25d84c7a","ios":"levelo://app?vid=182f6043-9d3b-4424-aec1-875d25d84c7a"},"vehicle_type_id":"4","last_reported":1727435243,"current_range_meters":24400,"station_id":"ce4bgnh2rcd13ifvqc0g","pricing_plan_id":"cebpf4jnsgd1na2vs0mg"},{"bike_id":"a9c4e24c-3075-44cf-b093-5d41d9eb8555","system_id":"levelo_inurba_marseille","lat":43.29273,"lon":5.40117,"is_reserved":false,"is_disabled":false,"rental_uris":{"android":"levelo://app?vid=a9c4e24c-3075-44cf-b093-5d41d9eb8555","ios":"levelo://app?vid=a9c4e24c-3075-44cf-b093-5d41d9eb8555"},"vehicle_type_id":"4","last_reported":1727435243,"current_range_meters":18000,"station_id":"ce4bh312rcd13ifvqdk0","pricing_plan_id":"cebpf4jnsgd1na2vs0mg"},{"bike_id":"9cc24bcf-e985-4005-b81d-ef29241c98ab","system_id":"levelo_inurba_marseille","lat":43.337444,"lon":5.374475,"is_reserved":false,"is_disabled":false,"rental_uris":{"android":"levelo://app?vid=9cc24bcf-e985-4005-b81d-ef29241c98ab","ios":"levelo://app?vid=9cc24bcf-e985-4005-b81d-ef29241c98ab"},"vehicle_type_id":"4","last_reported":1727435243,"current_range_meters":35600,"station_id":"","pricing_plan_id":"cebpf4jnsgd1na2vs0mg"},{"bike_id":"b8d4cfe5-fa00-4798-bb3b-a5cd96b0fee5","system_id":"levelo_inurba_marseille","lat":43.24214,"lon":5.3843,"is_reserved":false,"is_disabled":false,"rental_uris":{"android":"levelo://app?vid=b8d4cfe5-fa00-4798-bb3b-a5cd96b0fee5","ios":"levelo://app?vid=b8d4cfe5-fa00-4798-bb3b-a5cd96b0fee5"},"vehicle_type_id":"4","last_reported":1727435243,"current_range_meters":3200,"station_id":"","pricing_plan_id":"cebpf4jnsgd1na2vs0mg"},{"bike_id":"f013f297-ae65-4756-9660-efa090481ee3","system_id":"levelo_inurba_marseille","lat":43.30607,"lon":5.37219,"is_reserved":false,"is_disabled":false,"rental_uris":{"android":"levelo://app?vid=f013f297-ae65-4756-9660-efa090481ee3","ios":"levelo://app?vid=f013f297-ae65-4756-9660-efa090481ee3"},"vehicle_type_id":"4","last_reported":1727435243,"current_range_meters":28800,"station_id":"ce4bgqh2rcd13ifvqc4g","pricing_plan_id":"cebpf4jnsgd1na2vs0mg"},{"bike_id":"b556a894-1394-4da7-a929-eb3c16e6c4e2","system_id":"levelo_inurba_marseille","lat":43.29115,"lon":5.36891,"is_reserved":false,"is_disabled":false,"rental_uris":{"android":"levelo://app?vid=b556a894-1394-4da7-a929-eb3c16e6c4e2","ios":"levelo://app?vid=b556a894-1394-4da7-a929-eb3c16e6c4e2"},"vehicle_type_id":"4","last_reported":1727435243,"current_range_meters":27200,"station_id":"ce4bhbh2rcd13ifvqepg","pricing_plan_id":"cebpf4jnsgd1na2vs0mg"},{"bike_id":"9a85af26-51f9-4ef7-ad9d-83a785042cfc","system_id":"levelo_inurba_marseille","lat":43.24174,"lon":5.39725,"is_reserved":false,"is_disabled":false,"rental_uris":{"android":"levelo://app?vid=9a85af26-51f9-4ef7-ad9d-83a785042cfc","ios":"levelo://app?vid=9a85af26-51f9-4ef7-ad9d-83a785042cfc"},"vehicle_type_id":"4","last_reported":1727435243,"current_range_meters":25600,"station_id":"ce4bhn12rcd13ifvqgpg","pricing_plan_id":"cebpf4jnsgd1na2vs0mg"},{"bike_id":"5499265d-5415-4650-985f-c310c8664445","system_id":"levelo_inurba_marseille","lat":43.27809,"lon":5.40711,"is_reserved":false,"is_disabled":false,"rental_uris":{"android":"levelo://app?vid=5499265d-5415-4650-985f-c310c8664445","ios":"levelo://app?vid=5499265d-5415-4650-985f-c310c8664445"},"vehicle_type_id":"4","last_reported":1727435243,"current_range_meters":39200,"station_id":"ce4bhnh2rcd13ifvqgtg","pricing_plan_id":"cebpf4jnsgd1na2vs0mg"},{"bike_id":"629094d1-79db-4945-85f1-34ceabe0e523","system_id":"levelo_inurba_marseille","lat":43.28669,"lon":5.38673,"is_reserved":false,"is_disabled":false,"rental_uris":{"android":"levelo://app?vid=629094d1-79db-4945-85f1-34ceabe0e523","ios":"levelo://app?vid=629094d1-79db-4945-85f1-34ceabe0e523"},"vehicle_type_id":"4","last_reported":1727435243,"current_range_meters":22400,"station_id":"ce4bh492rcd13ifvqdug","pricing_plan_id":"cebpf4jnsgd1na2vs0mg"},{"bike_id":"f6a8a1c2-c7e6-4359-a864-953ba812b13b","system_id":"levelo_inurba_marseille","lat":43.30185,"lon":5.36614,"is_reserved":false,"is_disabled":false,"rental_uris":{"android":"levelo://app?vid=f6a8a1c2-c7e6-4359-a864-953ba812b13b","ios":"levelo://app?vid=f6a8a1c2-c7e6-4359-a864-953ba812b13b"},"vehicle_type_id":"4","last_reported":1727435243,"current_range_meters":38800,"station_id":"ce4bgrh2rcd13ifvqc8g","pricing_plan_id":"cebpf4jnsgd1na2vs0mg"},{"bike_id":"d3433f76-0eb8-4606-a483-16c86ca5653b","system_id":"levelo_inurba_marseille","lat":43.32656,"lon":5.40997,"is_reserved":false,"is_disabled":false,"rental_uris":{"android":"levelo://app?vid=d3433f76-0eb8-4606-a483-16c86ca5653b","ios":"levelo://app?vid=d3433f76-0eb8-4606-a483-16c86ca5653b"},"vehicle_type_id":"4","last_reported":1727435243,"current_range_meters":9600,"station_id":"ce4bhpp2rcd13ifvqhgg","pricing_plan_id":"cebpf4jnsgd1na2vs0mg"},{"bike_id":"9d6e063b-a371-4df3-9cc9-2c9d2149d196","system_id":"levelo_inurba_marseille","lat":43.28719,"lon":5.37948,"is_reserved":false,"is_disabled":false,"rental_uris":{"android":"levelo://app?vid=9d6e063b-a371-4df3-9cc9-2c9d2149d196","ios":"levelo://app?vid=9d6e063b-a371-4df3-9cc9-2c9d2149d196"},"vehicle_type_id":"4","last_reported":1727435243,"current_range_meters":21600,"station_id":"ce4bh9p2rcd13ifvqec0","pricing_plan_id":"cebpf4jnsgd1na2vs0mg"},{"bike_id":"0b25545b-6309-4e19-84a7-3959f3cf1cd0","system_id":"levelo_inurba_marseille","lat":43.297708,"lon":5.37348,"is_reserved":false,"is_disabled":false,"rental_uris":{"android":"levelo://app?vid=0b25545b-6309-4e19-84a7-3959f3cf1cd0","ios":"levelo://app?vid=0b25545b-6309-4e19-84a7-3959f3cf1cd0"},"vehicle_type_id":"4","last_reported":1727435243,"current_range_meters":17200,"station_id":"","pricing_plan_id":"cebpf4jnsgd1na2vs0mg"},{"bike_id":"48102119-5628-4dfb-a64b-f8bc5f8fa22d","system_id":"levelo_inurba_marseille","lat":43.24179,"lon":5.39729,"is_reserved":false,"is_disabled":false,"rental_uris":{"android":"levelo://app?vid=48102119-5628-4dfb-a64b-f8bc5f8fa22d","ios":"levelo://app?vid=48102119-5628-4dfb-a64b-f8bc5f8fa22d"},"vehicle_type_id":"4","last_reported":1727435243,"current_range_meters":29600,"station_id":"ce4bhn12rcd13ifvqgpg","pricing_plan_id":"cebpf4jnsgd1na2vs0mg"},{"bike_id":"fbf59984-32a9-43ff-9ea3-7cd1e707c19c","system_id":"levelo_inurba_marseille","lat":43.23181,"lon":5.39987,"is_reserved":false,"is_disabled":false,"rental_uris":{"android":"levelo://app?vid=fbf59984-32a9-43ff-9ea3-7cd1e707c19c","ios":"levelo://app?vid=fbf59984-32a9-43ff-9ea3-7cd1e707c19c"},"vehicle_type_id":"4","last_reported":1727435243,"current_range_meters":20800,"station_id":"ce4bhn12rcd13ifvqgqg","pricing_plan_id":"cebpf4jnsgd1na2vs0mg"},{"bike_id":"aeb05550-f878-4143-be2c-115d32951d7a","system_id":"levelo_inurba_marseille","lat":43.23151,"lon":5.43704,"is_reserved":false,"is_disabled":false,"rental_uris":{"android":"levelo://app?vid=aeb05550-f878-4143-be2c-115d32951d7a","ios":"levelo://app?vid=aeb05550-f878-4143-be2c-115d32951d7a"},"vehicle_type_id":"4","last_reported":1727435243,"current_range_meters":37600,"station_id":"ce4bhmp2rcd13ifvqgog","pricing_plan_id":"cebpf4jnsgd1na2vs0mg"},{"bike_id":"cbed7d35-31a3-4777-95dd-7b4af024de4e","system_id":"levelo_inurba_marseille","lat":43.30608,"lon":5.37168,"is_reserved":false,"is_disabled":false,"rental_uris":{"android":"levelo://app?vid=cbed7d35-31a3-4777-95dd-7b4af024de4e","ios":"levelo://app?vid=cbed7d35-31a3-4777-95dd-7b4af024de4e"},"vehicle_type_id":"4","last_reported":1727435243,"current_range_meters":10800,"station_id":"ce4bgqh2rcd13ifvqc4g","pricing_plan_id":"cebpf4jnsgd1na2vs0mg"},{"bike_id":"d39dd564-fa97-4ff8-a663-1e71434564ac","system_id":"levelo_inurba_marseille","lat":43.3018,"lon":5.366,"is_reserved":false,"is_disabled":false,"rental_uris":{"android":"levelo://app?vid=d39dd564-fa97-4ff8-a663-1e71434564ac","ios":"levelo://app?vid=d39dd564-fa97-4ff8-a663-1e71434564ac"},"vehicle_type_id":"4","last_reported":1727435243,"current_range_meters":35600,"station_id":"ce4bgrh2rcd13ifvqc8g","pricing_plan_id":"cebpf4jnsgd1na2vs0mg"},{"bike_id":"70eca911-0ae7-4fbc-bad3-fadd23bdcdc0","system_id":"levelo_inurba_marseille","lat":43.24999,"lon":5.38925,"is_reserved":false,"is_disabled":false,"rental_uris":{"android":"levelo://app?vid=70eca911-0ae7-4fbc-bad3-fadd23bdcdc0","ios":"levelo://app?vid=70eca911-0ae7-4fbc-bad3-fadd23bdcdc0"},"vehicle_type_id":"4","last_reported":1727435243,"current_range_meters":11200,"station_id":"ce4bhgp2rcd13ifvqfd0","pricing_plan_id":"cebpf4jnsgd1na2vs0mg"},{"bike_id":"f40bf1fa-1f69-4f14-8be3-78cac1d0015b","system_id":"levelo_inurba_marseille","lat":43.30601,"lon":5.37232,"is_reserved":false,"is_disabled":false,"rental_uris":{"android":"levelo://app?vid=f40bf1fa-1f69-4f14-8be3-78cac1d0015b","ios":"levelo://app?vid=f40bf1fa-1f69-4f14-8be3-78cac1d0015b"},"vehicle_type_id":"4","last_reported":1727435243,"current_range_meters":38800,"station_id":"ce4bgqh2rcd13ifvqc4g","pricing_plan_id":"cebpf4jnsgd1na2vs0mg"},{"bike_id":"dcfb8154-409e-49bd-88bd-62c311623afd","system_id":"levelo_inurba_marseille","lat":43.30608,"lon":5.39368,"is_reserved":false,"is_disabled":false,"rental_uris":{"android":"levelo://app?vid=dcfb8154-409e-49bd-88bd-62c311623afd","ios":"levelo://app?vid=dcfb8154-409e-49bd-88bd-62c311623afd"},"vehicle_type_id":"4","last_reported":1727435243,"current_range_meters":32800,"station_id":"ce4bh0p2rcd13ifvqd80","pricing_plan_id":"cebpf4jnsgd1na2vs0mg"},{"bike_id":"1c4200ac-da5b-4d76-9053-310d0246caea","system_id":"levelo_inurba_marseille","lat":43.3171,"lon":5.37733,"is_reserved":false,"is_disabled":false,"rental_uris":{"android":"levelo://app?vid=1c4200ac-da5b-4d76-9053-310d0246caea","ios":"levelo://app?vid=1c4200ac-da5b-4d76-9053-310d0246caea"},"vehicle_type_id":"4","last_reported":1727435243,"current_range_meters":36000,"station_id":"ce4bgth2rcd13ifvqch0","pricing_plan_id":"cebpf4jnsgd1na2vs0mg"},{"bike_id":"10cd40b7-5439-4132-a96d-d869fb307201","system_id":"levelo_inurba_marseille","lat":43.2985,"lon":5.36283,"is_reserved":false,"is_disabled":false,"rental_uris":{"android":"levelo://app?vid=10cd40b7-5439-4132-a96d-d869fb307201","ios":"levelo://app?vid=10cd40b7-5439-4132-a96d-d869fb307201"},"vehicle_type_id":"4","last_reported":1727435243,"current_range_meters":23200,"station_id":"ce4bgpp2rcd13ifvqc3g","pricing_plan_id":"cebpf4jnsgd1na2vs0mg"},{"bike_id":"0285d682-ecf9-45ad-b031-1050a50d989c","system_id":"levelo_inurba_marseille","lat":43.27814,"lon":5.40711,"is_reserved":false,"is_disabled":false,"rental_uris":{"android":"levelo://app?vid=0285d682-ecf9-45ad-b031-1050a50d989c","ios":"levelo://app?vid=0285d682-ecf9-45ad-b031-1050a50d989c"},"vehicle_type_id":"4","last_reported":1727435243,"current_range_meters":26000,"station_id":"ce4bhnh2rcd13ifvqgtg","pricing_plan_id":"cebpf4jnsgd1na2vs0mg"},{"bike_id":"5822b073-a21a-46c1-aded-92ebf36560c6","system_id":"levelo_inurba_marseille","lat":43.29525,"lon":5.39034,"is_reserved":false,"is_disabled":false,"rental_uris":{"android":"levelo://app?vid=5822b073-a21a-46c1-aded-92ebf36560c6","ios":"levelo://app?vid=5822b073-a21a-46c1-aded-92ebf36560c6"},"vehicle_type_id":"4","last_reported":1727435243,"current_range_meters":32000,"station_id":"ce4bh3p2rcd13ifvqdp0","pricing_plan_id":"cebpf4jnsgd1na2vs0mg"},{"bike_id":"5e3ea835-90c8-43bd-aeda-cd1344a5ef76","system_id":"levelo_inurba_marseille","lat":43.33607,"lon":5.41034,"is_reserved":false,"is_disabled":false,"rental_uris":{"android":"levelo://app?vid=5e3ea835-90c8-43bd-aeda-cd1344a5ef76","ios":"levelo://app?vid=5e3ea835-90c8-43bd-aeda-cd1344a5ef76"},"vehicle_type_id":"4","last_reported":1727435243,"current_range_meters":28000,"station_id":"ce4bhqh2rcd13ifvqhmg","pricing_plan_id":"cebpf4jnsgd1na2vs0mg"},{"bike_id":"fb57c025-328c-4412-b8c8-acd31ec519bd","system_id":"levelo_inurba_marseille","lat":43.25847,"lon":5.38868,"is_reserved":false,"is_disabled":false,"rental_uris":{"android":"levelo://app?vid=fb57c025-328c-4412-b8c8-acd31ec519bd","ios":"levelo://app?vid=fb57c025-328c-4412-b8c8-acd31ec519bd"},"vehicle_type_id":"4","last_reported":1727435243,"current_range_meters":36800,"station_id":"","pricing_plan_id":"cebpf4jnsgd1na2vs0mg"},{"bike_id":"013e6cdd-ae35-4bd7-b069-da3827343411","system_id":"levelo_inurba_marseille","lat":43.27499,"lon":5.42456,"is_reserved":false,"is_disabled":false,"rental_uris":{"android":"levelo://app?vid=013e6cdd-ae35-4bd7-b069-da3827343411","ios":"levelo://app?vid=013e6cdd-ae35-4bd7-b069-da3827343411"},"vehicle_type_id":"4","last_reported":1727435243,"current_range_meters":33600,"station_id":"ce4bhn92rcd13ifvqgrg","pricing_plan_id":"cebpf4jnsgd1na2vs0mg"},{"bike_id":"67f3f48c-ed78-424e-81e5-fbc2199fb5f7","system_id":"levelo_inurba_marseille","lat":43.31196,"lon":5.38282,"is_reserved":false,"is_disabled":false,"rental_uris":{"android":"levelo://app?vid=67f3f48c-ed78-424e-81e5-fbc2199fb5f7","ios":"levelo://app?vid=67f3f48c-ed78-424e-81e5-fbc2199fb5f7"},"vehicle_type_id":"4","last_reported":1727435243,"current_range_meters":32800,"station_id":"","pricing_plan_id":"cebpf4jnsgd1na2vs0mg"},{"bike_id":"6c1fda78-a27a-41ea-9d99-03a440f5f874","system_id":"levelo_inurba_marseille","lat":43.23059,"lon":5.35498,"is_reserved":false,"is_disabled":false,"rental_uris":{"android":"levelo://app?vid=6c1fda78-a27a-41ea-9d99-03a440f5f874","ios":"levelo://app?vid=6c1fda78-a27a-41ea-9d99-03a440f5f874"},"vehicle_type_id":"4","last_reported":1727435243,"current_range_meters":36800,"station_id":"cpo3342slgdg3j2ifvpg","pricing_plan_id":"cebpf4jnsgd1na2vs0mg"},{"bike_id":"d8c933b6-4dc6-478d-bfef-0ee0bdfc7232","system_id":"levelo_inurba_marseille","lat":43.33611,"lon":5.41036,"is_reserved":false,"is_disabled":false,"rental_uris":{"android":"levelo://app?vid=d8c933b6-4dc6-478d-bfef-0ee0bdfc7232","ios":"levelo://app?vid=d8c933b6-4dc6-478d-bfef-0ee0bdfc7232"},"vehicle_type_id":"4","last_reported":1727435243,"current_range_meters":12800,"station_id":"ce4bhqh2rcd13ifvqhmg","pricing_plan_id":"cebpf4jnsgd1na2vs0mg"},{"bike_id":"2ba06829-d072-4ff5-b321-99f0814530a5","system_id":"levelo_inurba_marseille","lat":43.23061,"lon":5.35498,"is_reserved":false,"is_disabled":false,"rental_uris":{"android":"levelo://app?vid=2ba06829-d072-4ff5-b321-99f0814530a5","ios":"levelo://app?vid=2ba06829-d072-4ff5-b321-99f0814530a5"},"vehicle_type_id":"4","last_reported":1727435243,"current_range_meters":26800,"station_id":"cpo3342slgdg3j2ifvpg","pricing_plan_id":"cebpf4jnsgd1na2vs0mg"},{"bike_id":"defeb7a8-1bce-481a-acf1-7006c0ae2951","system_id":"levelo_inurba_marseille","lat":43.314575,"lon":5.372975,"is_reserved":false,"is_disabled":false,"rental_uris":{"android":"levelo://app?vid=defeb7a8-1bce-481a-acf1-7006c0ae2951","ios":"levelo://app?vid=defeb7a8-1bce-481a-acf1-7006c0ae2951"},"vehicle_type_id":"4","last_reported":1727435243,"current_range_meters":16800,"station_id":"ce4bgt12rcd13ifvqcd0","pricing_plan_id":"cebpf4jnsgd1na2vs0mg"},{"bike_id":"39b3f1e5-dd1c-459b-9035-630967af0570","system_id":"levelo_inurba_marseille","lat":43.31689,"lon":5.40475,"is_reserved":false,"is_disabled":false,"rental_uris":{"android":"levelo://app?vid=39b3f1e5-dd1c-459b-9035-630967af0570","ios":"levelo://app?vid=39b3f1e5-dd1c-459b-9035-630967af0570"},"vehicle_type_id":"4","last_reported":1727435243,"current_range_meters":14000,"station_id":"ce4bh012rcd13ifvqd00","pricing_plan_id":"cebpf4jnsgd1na2vs0mg"},{"bike_id":"951a4a31-f5bf-4298-9140-9b3fb7fd8545","system_id":"levelo_inurba_marseille","lat":43.25936,"lon":5.40905,"is_reserved":false,"is_disabled":false,"rental_uris":{"android":"levelo://app?vid=951a4a31-f5bf-4298-9140-9b3fb7fd8545","ios":"levelo://app?vid=951a4a31-f5bf-4298-9140-9b3fb7fd8545"},"vehicle_type_id":"4","last_reported":1727435243,"current_range_meters":11200,"station_id":"ce4bhm92rcd13ifvqglg","pricing_plan_id":"cebpf4jnsgd1na2vs0mg"},{"bike_id":"411a5b31-f7d4-4a24-a3e4-001d7b1dbac5","system_id":"levelo_inurba_marseille","lat":43.30155,"lon":5.3809,"is_reserved":false,"is_disabled":false,"rental_uris":{"android":"levelo://app?vid=411a5b31-f7d4-4a24-a3e4-001d7b1dbac5","ios":"levelo://app?vid=411a5b31-f7d4-4a24-a3e4-001d7b1dbac5"},"vehicle_type_id":"4","last_reported":1727435243,"current_range_meters":32800,"station_id":"ce4bgjp2rcd13ifvqbh0","pricing_plan_id":"cebpf4jnsgd1na2vs0mg"},{"bike_id":"52f23513-04f8-4899-b8b1-913e44384e99","system_id":"levelo_inurba_marseille","lat":43.29293,"lon":5.37465,"is_reserved":false,"is_disabled":false,"rental_uris":{"android":"levelo://app?vid=52f23513-04f8-4899-b8b1-913e44384e99","ios":"levelo://app?vid=52f23513-04f8-4899-b8b1-913e44384e99"},"vehicle_type_id":"4","last_reported":1727435243,"current_range_meters":38800,"station_id":"ce4bgi12rcd13ifvqb70","pricing_plan_id":"cebpf4jnsgd1na2vs0mg"},