{"last_updated":1701605544,"ttl":30,"version":"2.2","data":{"bikes":[{"bike_id":"19337c19-12ca-4f3b-a568-40a561779510","system_id":"levelo_inurba_marseille","lat":43.310633,"lon":5.367759,"is_reserved":false,"is_disabled":false,"rental_uris":{"android":"levelo://app?vid=19337c19-12ca-4f3b-a568-40a561779510","ios":"levelo://app?vid=19337c19-12ca-4f3b-a568-40a561779510"},"vehicle_type_id":"4","last_reported":1701605544,"current_range_meters":24400,"station_id":"","pricing_plan_id":"free"},{"bike_id":"546e31e1-8b79-4456-bc8c-510bd198cb12","system_id":"levelo_inurba_marseille","lat":43.309076,"lon":5.368465,"is_reserved":false,"is_disabled":false,"rental_uris":{"android":"levelo://app?vid=546e31e1-8b79-4456-bc8c-510bd198cb12","ios":"levelo://app?vid=546e31e1-8b79-4456-bc8c-510bd198cb12"},"vehicle_type_id":"4","last_reported":1701605544,"current_range_meters":17600,"station_id":"ce4bgn92rcd13ifvqbvg","pricing_plan_id":"free"},{"bike_id":"6356df45-65a8-439b-9f05-13452734ea87","system_id":"levelo_inurba_marseille","lat":43.305368,"lon":5.367343,"is_reserved":false,"is_disabled":false,"rental_uris":{"android":"levelo://app?vid=6356df45-65a8-439b-9f05-13452734ea87","ios":"levelo://app?vid=6356df45-65a8-439b-9f05-13452734ea87"},"vehicle_type_id":"4","last_reported":1701605544,"current_range_meters":24000,"station_id":"ce4bgrp2rcd13ifvqc9g","pricing_plan_id":"free"},{"bike_id":"a5b64cde-5e05-4dbd-a209-5280cacc5dbb","system_id":"levelo_inurba_marseille","lat":43.305714,"lon":5.365633,"is_reserved":false,"is_disabled":false,"rental_uris":{"android":"levelo://app?vid=a5b64cde-5e05-4dbd-a209-5280cacc5dbb","ios":"levelo://app?vid=a5b64cde-5e05-4dbd-a209-5280cacc5dbb"},"vehicle_type_id":"4","last_reported":1701605544,"current_range_meters":31200,"station_id":"ce4bgs12rcd13ifvqcag","pricing_plan_id":"free"},{"bike_id":"eff553d8-767a-4d1a-ae67-e4b853ad9610","system_id":"levelo_inurba_marseille","lat":43.305338,"lon":5.365457,"is_reserved":false,"is_disabled":false,"rental_uris":{"android":"levelo://app?vid=eff553d8-767a-4d1a-ae67-e4b853ad9610","ios":"levelo://app?vid=eff553d8-767a-4d1a-ae67-e4b853ad9610"},"vehicle_type_id":"4","last_reported":1701605544,"current_range_meters":23600,"station_id":"ce4bgs12rcd13ifvqcag","pricing_plan_id":"free"},{"bike_id":"f427a2c3-6e4a-446b-ae2f-9be8aa7f4122","system_id":"levelo_inurba_marseille","lat":43.31719,"lon":5.376813,"is_reserved":false,"is_disabled":false,"rental_uris":{"android":"levelo://app?vid=f427a2c3-6e4a-446b-ae2f-9be8aa7f4122","ios":"levelo://app?vid=f427a2c3-6e4a-446b-ae2f-9be8aa7f4122"},"vehicle_type_id":"4","last_reported":1701605544,"current_range_meters":0,"station_id":"","pricing_plan_id":"free"},{"bike_id":"e913f328-1e31-4c22-bd87-f809ea246de4","system_id":"levelo_inurba_marseille","lat":43.317168,"lon":5.376883,"is_reserved":false,"is_disabled":false,"rental_uris":{"android":"levelo://app?vid=e913f328-1e31-4c22-bd87-f809ea246de4","ios":"levelo://app?vid=e913f328-1e31-4c22-bd87-f809ea246de4"},"vehicle_type_id":"4","last_reported":1701605544,"current_range_meters":0,"station_id":"","pricing_plan_id":"free"},{"bike_id":"fb6fd937-527b-4585-9058-0dfdc6436ac8","system_id":"levelo_inurba_marseille","lat":43.31351,"lon":5.37909,"is_reserved":false,"is_disabled":false,"rental_uris":{"android":"levelo://app?vid=fb6fd937-527b-4585-9058-0dfdc6436ac8","ios":"levelo://app?vid=fb6fd937-527b-4585-9058-0dfdc6436ac8"},"vehicle_type_id":"4","last_reported":1701605544,"current_range_meters":18000,"station_id":"","pricing_plan_id":"free"},{"bike_id":"1c5be127-a170-451f-a718-647108f14db1","system_id":"levelo_inurba_marseille","lat":43.317075,"lon":5.377367,"is_reserved":false,"is_disabled":false,"rental_uris":{"android":"levelo://app?vid=1c5be127-a170-451f-a718-647108f14db1","ios":"levelo://app?vid=1c5be127-a170-451f-a718-647108f14db1"},"vehicle_type_id":"4","last_reported":1701605544,"current_range_meters":28000,"station_id":"ce4bgth2rcd13ifvqch0","pricing_plan_id":"free"},{"bike_id":"3dc508d7-ea8d-4cae-838a-f763e74ba73a","system_id":"levelo_inurba_marseille","lat":43.308012,"lon":5.381511,"is_reserved":false,"is_disabled":false,"rental_uris":{"android":"levelo://app?vid=3dc508d7-ea8d-4cae-838a-f763e74ba73a","ios":"levelo://app?vid=3dc508d7-ea8d-4cae-838a-f763e74ba73a"},"vehicle_type_id":"4","last_reported":1701605544,"current_range_meters":9200,"station_id":"ce4bgt12rcd13ifvqce0","pricing_plan_id":"free"},{"bike_id":"bc8eac31-4b5b-48b3-aa99-5c3fdd18d82e","system_id":"levelo_inurba_marseille","lat":43.324771,"lon":5.36557,"is_reserved":false,"is_disabled":false,"rental_uris":{"android":"levelo://app?vid=bc8eac31-4b5b-48b3-aa99-5c3fdd18d82e","ios":"levelo://app?vid=bc8eac31-4b5b-48b3-aa99-5c3fdd18d82e"},"vehicle_type_id":"4","last_reported":1701605544,"current_range_meters":13200,"station_id":"ce4bhs12rcd13ifvqhvg","pricing_plan_id":"free"},{"bike_id":"deaa75bb-e8cc-4d8e-b131-8eb8fa374502","system_id":"levelo_inurba_marseille","lat":43.324771,"lon":5.36557,"is_reserved":false,"is_disabled":false,"rental_uris":{"android":"levelo://app?vid=deaa75bb-e8cc-4d8e-b131-8eb8fa374502","ios":"levelo://app?vid=deaa75bb-e8cc-4d8e-b131-8eb8fa374502"},"vehicle_type_id":"4","last_reported":1701605544,"current_range_meters":29600,"station_id":"ce4bhs12rcd13ifvqhvg","pricing_plan_id":"free"},{"bike_id":"8c6725c5-5ff6-4a6a-9768-66e32939cf43","system_id":"levelo_inurba_marseille","lat":43.32479,"lon":5.36561,"is_reserved":false,"is_disabled":false,"rental_uris":{"android":"levelo://app?vid=8c6725c5-5ff6-4a6a-9768-66e32939cf43","ios":"levelo://app?vid=8c6725c5-5ff6-4a6a-9768-66e32939cf43"},"vehicle_type_id":"4","last_reported":1701605544,"current_range_meters":22000,"station_id":"ce4bhs12rcd13ifvqhvg","pricing_plan_id":"free"},{"bike_id":"b46baf0f-4cb7-437a-9b73-cd59f6baba59","system_id":"levelo_inurba_marseille","lat":43.302784,"lon":5.377158,"is_reserved":false,"is_disabled":false,"rental_uris":{"android":"levelo://app?vid=b46baf0f-4cb7-437a-9b73-cd59f6baba59","ios":"levelo://app?vid=b46baf0f-4cb7-437a-9b73-cd59f6baba59"},"vehicle_type_id":"4","last_reported":1701605544,"current_range_meters":28800,"station_id":"ce4bguh2rcd13ifvqcj0","pricing_plan_id":"free"},{"bike_id":"256493ec-3fc9-470e-b82a-a6501772fe9c","system_id":"levelo_inurba_marseille","lat":43.30139,"lon":5.3742,"is_reserved":false,"is_disabled":false,"rental_uris":{"android":"levelo://app?vid=256493ec-3fc9-470e-b82a-a6501772fe9c","ios":"levelo://app?vid=256493ec-3fc9-470e-b82a-a6501772fe9c"},"vehicle_type_id":"4","last_reported":1701605544,"current_range_meters":22000,"station_id":"ce4bgs92rcd13ifvqcc0","pricing_plan_id":"free"},{"bike_id":"3e23d073-c6ae-47ef-b224-45e6b030f825","system_id":"levelo_inurba_marseille","lat":43.319935,"lon":5.381699,"is_reserved":false,"is_disabled":false,"rental_uris":{"android":"levelo://app?vid=3e23d073-c6ae-47ef-b224-45e6b030f825","ios":"levelo://app?vid=3e23d073-c6ae-47ef-b224-45e6b030f825"},"vehicle_type_id":"4","last_reported":1701605544,"current_range_meters":22400,"station_id":"ce4bhr12rcd13ifvqhpg","pricing_plan_id":"free"},{"bike_id":"2275aca5-3158-4c2c-8022-ca5d2714bc86","system_id":"levelo_inurba_marseille","lat":43.319997,"lon":5.381594,"is_reserved":false,"is_disabled":false,"rental_uris":{"android":"levelo://app?vid=2275aca5-3158-4c2c-8022-ca5d2714bc86","ios":"levelo://app?vid=2275aca5-3158-4c2c-8022-ca5d2714bc86"},"vehicle_type_id":"4","last_reported":1701605544,"current_range_meters":11600,"station_id":"ce4bhr12rcd13ifvqhpg","pricing_plan_id":"free"},{"bike_id":"0d3794ed-18f1-4eb8-ab46-7bed5cb45500","system_id":"levelo_inurba_marseille","lat":43.313571,"lon":5.384829,"is_reserved":false,"is_disabled":false,"rental_uris":{"android":"levelo://app?vid=0d3794ed-18f1-4eb8-ab46-7bed5cb45500","ios":"levelo://app?vid=0d3794ed-18f1-4eb8-ab46-7bed5cb45500"},"vehicle_type_id":"4","last_reported":1701605544,"current_range_meters":30400,"station_id":"ce4bgt92rcd13ifvqcf0","pricing_plan_id":"free"},{"bike_id":"290650b3-753e-40fd-b2c4-18ff5d81baa9","system_id":"levelo_inurba_marseille","lat":43.313571,"lon":5.384829,"is_reserved":false,"is_disabled":false,"rental_uris":{"android":"levelo://app?vid=290650b3-753e-40fd-b2c4-18ff5d81baa9","ios":"levelo://app?vid=290650b3-753e-40fd-b2c4-18ff5d81baa9"},"vehicle_type_id":"4","last_reported":1701605544,"current_range_meters":15600,"station_id":"ce4bgt92rcd13ifvqcf0","pricing_plan_id":"free"},{"bike_id":"9fdb7f97-586d-42d2-befd-15216ba2e422","system_id":"levelo_inurba_marseille","lat":43.31183,"lon":5.38523,"is_reserved":false,"is_disabled":false,"rental_uris":{"android":"levelo://app?vid=9fdb7f97-586d-42d2-befd-15216ba2e422","ios":"levelo://app?vid=9fdb7f97-586d-42d2-befd-15216ba2e422"},"vehicle_type_id":"4","last_reported":1701605544,"current_range_meters":0,"station_id":"","pricing_plan_id":"free"},{"bike_id":"4609545a-b557-4a81-9600-2398a44cfdb0","system_id":"levelo_inurba_marseille","lat":43.29977,"lon":5.37171,"is_reserved":false,"is_disabled":false,"rental_uris":{"android":"levelo://app?vid=4609545a-b557-4a81-9600-2398a44cfdb0","ios":"levelo://app?vid=4609545a-b557-4a81-9600-2398a44cfdb0"},"vehicle_type_id":"4","last_reported":1701605544,"current_range_meters":14800,"station_id":"ce4bgr92rcd13ifvqc7g","pricing_plan_id":"free"},{"bike_id":"748d12ab-8e09-4ecd-b2d2-cbe0ea9624f6","system_id":"levelo_inurba_marseille","lat":43.298969,"lon":5.367265,"is_reserved":false,"is_disabled":false,"rental_uris":{"android":"levelo://app?vid=748d12ab-8e09-4ecd-b2d2-cbe0ea9624f6","ios":"levelo://app?vid=748d12ab-8e09-4ecd-b2d2-cbe0ea9624f6"},"vehicle_type_id":"4","last_reported":1701605544,"current_range_meters":2000,"station_id":"","pricing_plan_id":"free"},{"bike_id":"14aa6f0e-730b-45b2-aaa7-f935cdbea959","system_id":"levelo_inurba_marseille","lat":43.29843,"lon":5.36276,"is_reserved":false,"is_disabled":false,"rental_uris":{"android":"levelo://app?vid=14aa6f0e-730b-45b2-aaa7-f935cdbea959","ios":"levelo://app?vid=14aa6f0e-730b-45b2-aaa7-f935cdbea959"},"vehicle_type_id":"4","last_reported":1701605544,"current_range_meters":27200,"station_id":"ce4bgpp2rcd13ifvqc3g","pricing_plan_id":"free"},{"bike_id":"e2364d93-97d5-4ad1-b58b-7a1979a0a00d","system_id":"levelo_inurba_marseille","lat":43.31188,"lon":5.38715,"is_reserved":false,"is_disabled":false,"rental_uris":{"android":"levelo://app?vid=e2364d93-97d5-4ad1-b58b-7a1979a0a00d","ios":"levelo://app?vid=e2364d93-97d5-4ad1-b58b-7a1979a0a00d"},"vehicle_type_id":"4","last_reported":1701605544,"current_range_meters":26000,"station_id":"ce4bgv12rcd13ifvqcp0","pricing_plan_id":"free"},{"bike_id":"af5e9766-cc13-442f-8b44-5f4d192517ef","system_id":"levelo_inurba_marseille","lat":43.3117,"lon":5.3872,"is_reserved":false,"is_disabled":false,"rental_uris":{"android":"levelo://app?vid=af5e9766-cc13-442f-8b44-5f4d192517ef","ios":"levelo://app?vid=af5e9766-cc13-442f-8b44-5f4d192517ef"},"vehicle_type_id":"4","last_reported":1701605544,"current_range_meters":22400,"station_id":"ce4bgv12rcd13ifvqcp0","pricing_plan_id":"free"},{"bike_id":"5c26bdfb-7b7c-43fb-8a01-250128a1a6f8","system_id":"levelo_inurba_marseille","lat":43.32825,"lon":5.36676,"is_reserved":false,"is_disabled":false,"rental_uris":{"android":"levelo://app?vid=5c26bdfb-7b7c-43fb-8a01-250128a1a6f8","ios":"levelo://app?vid=5c26bdfb-7b7c-43fb-8a01-250128a1a6f8"},"vehicle_type_id":"4","last_reported":1701605544,"current_range_meters":19200,"station_id":"ce4bhs92rcd13ifvqi0g","pricing_plan_id":"free"},{"bike_id":"08a721db-bf5d-46b3-9ba3-2a9c6c13bcf6","system_id":"levelo_inurba_marseille","lat":43.328256,"lon":5.366905,"is_reserved":false,"is_disabled":false,"rental_uris":{"android":"levelo://app?vid=08a721db-bf5d-46b3-9ba3-2a9c6c13bcf6","ios":"levelo://app?vid=08a721db-bf5d-46b3-9ba3-2a9c6c13bcf6"},"vehicle_type_id":"4","last_reported":1701605544,"current_range_meters":25200,"station_id":"","pricing_plan_id":"free"},{"bike_id":"50451858-4fd4-406d-badc-776a2e8a63c3","system_id":"levelo_inurba_marseille","lat":43.32827,"lon":5.36689,"is_reserved":false,"is_disabled":false,"rental_uris":{"android":"levelo://app?vid=50451858-4fd4-406d-badc-776a2e8a63c3","ios":"levelo://app?vid=50451858-4fd4-406d-badc-776a2e8a63c3"},"vehicle_type_id":"4","last_reported":1701605544,"current_range_meters":17200,"station_id":"ce4bhs92rcd13ifvqi0g","pricing_plan_id":"free"},{"bike_id":"021e8e54-77b7-4194-bf29-b6398399a7f0","system_id":"levelo_inurba_marseille","lat":43.297163,"lon":5.365866,"is_reserved":false,"is_disabled":false,"rental_uris":{"android":"levelo://app?vid=021e8e54-77b7-4194-bf29-b6398399a7f0","ios":"levelo://app?vid=021e8e54-77b7-4194-bf29-b6398399a7f0"},"vehicle_type_id":"4","last_reported":1701605544,"current_range_meters":25200,"station_id":"ce4bgn12rcd13ifvqbt0","pricing_plan_id":"free"},{"bike_id":"da8005c7-4853-40d2-ba0d-499906d38c21","system_id":"levelo_inurba_marseille","lat":43.297163,"lon":5.365866,"is_reserved":false,"is_disabled":false,"rental_uris":{"android":"levelo://app?vid=da8005c7-4853-40d2-ba0d-499906d38c21","ios":"levelo://app?vid=da8005c7-4853-40d2-ba0d-499906d38c21"},"vehicle_type_id":"4","last_reported":1701605544,"current_range_meters":19600,"station_id":"ce4bgn12rcd13ifvqbt0","pricing_plan_id":"free"},{"bike_id":"56c27ac6-d3be-4b1b-a869-2d0f1759ad4a","system_id":"levelo_inurba_marseille","lat":43.29815,"lon":5.37652,"is_reserved":false,"is_disabled":false,"rental_uris":{"android":"levelo://app?vid=56c27ac6-d3be-4b1b-a869-2d0f1759ad4a","ios":"levelo://app?vid=56c27ac6-d3be-4b1b-a869-2d0f1759ad4a"},"vehicle_type_id":"4","last_reported":1701605544,"current_range_meters":800,"station_id":"","pricing_plan_id":"free"},{"bike_id":"fd49fb9b-94f2-46a4-b728-7bfbf7485d55","system_id":"levelo_inurba_marseille","lat":43.2968,"lon":5.37291,"is_reserved":false,"is_disabled":false,"rental_uris":{"android":"levelo://app?vid=fd49fb9b-94f2-46a4-b728-7bfbf7485d55","ios":"levelo://app?vid=fd49fb9b-94f2-46a4-b728-7bfbf7485d55"},"vehicle_type_id":"4","last_reported":1701605544,"current_range_meters":24000,"station_id":"ce4bgk12rcd13ifvqbj0","pricing_plan_id":"free"},{"bike_id":"eaa0e7e7-2390-47fa-909b-7b240952cbef","system_id":"levelo_inurba_marseille","lat":43.316511,"lon":5.3896,"is_reserved":false,"is_disabled":false,"rental_uris":{"android":"levelo://app?vid=eaa0e7e7-2390-47fa-909b-7b240952cbef","ios":"levelo://app?vid=eaa0e7e7-2390-47fa-909b-7b240952cbef"},"vehicle_type_id":"4","last_reported":1701605544,"current_range_meters":18800,"station_id":"","pricing_plan_id":"free"},{"bike_id":"ee70d6b3-e875-4b5b-9677-1171da053cdf","system_id":"levelo_inurba_marseille","lat":43.29573,"lon":5.367355,"is_reserved":false,"is_disabled":false,"rental_uris":{"android":"levelo://app?vid=ee70d6b3-e875-4b5b-9677-1171da053cdf","ios":"levelo://app?vid=ee70d6b3-e875-4b5b-9677-1171da053cdf"},"vehicle_type_id":"4","last_reported":1701605544,"current_range_meters":30800,"station_id":"ce4bgph2rcd13ifvqc2g","pricing_plan_id":"free"},{"bike_id":"4c5c75e3-5362-4e54-9bb5-b52aef62bd3f","system_id":"levelo_inurba_marseille","lat":43.29573,"lon":5.367355,"is_reserved":false,"is_disabled":false,"rental_uris":{"android":"levelo://app?vid=4c5c75e3-5362-4e54-9bb5-b52aef62bd3f","ios":"levelo://app?vid=4c5c75e3-5362-4e54-9bb5-b52aef62bd3f"},"vehicle_type_id":"4","last_reported":1701605544,"current_range_meters":28800,"station_id":"ce4bgph2rcd13ifvqc2g","pricing_plan_id":"free"},{"bike_id":"84ab027f-6b2d-4143-a115-bc5e7abc0826","system_id":"levelo_inurba_marseille","lat":43.296921,"lon":5.376579,"is_reserved":false,"is_disabled":false,"rental_uris":{"android":"levelo://app?vid=84ab027f-6b2d-4143-a115-bc5e7abc0826","ios":"levelo://app?vid=84ab027f-6b2d-4143-a115-bc5e7abc0826"},"vehicle_type_id":"4","last_reported":1701605544,"current_range_meters":12400,"station_id":"ce4bgkh2rcd13ifvqbl0","pricing_plan_id":"free"},{"bike_id":"5cb39d04-de9b-4969-86c2-c2e9c3258726","system_id":"levelo_inurba_marseille","lat":43.299028,"lon":5.381509,"is_reserved":false,"is_disabled":false,"rental_uris":{"android":"levelo://app?vid=5cb39d04-de9b-4969-86c2-c2e9c3258726","ios":"levelo://app?vid=5cb39d04-de9b-4969-86c2-c2e9c3258726"},"vehicle_type_id":"4","last_reported":1701605544,"current_range_meters":28800,"station_id":"ce4bgj12rcd13ifvqbc0","pricing_plan_id":"free"},{"bike_id":"8a58158b-6cb9-404c-aed6-e25263692a26","system_id":"levelo_inurba_marseille","lat":43.298037,"lon":5.381066,"is_reserved":false,"is_disabled":false,"rental_uris":{"android":"levelo://app?vid=8a58158b-6cb9-404c-aed6-e25263692a26","ios":"levelo://app?vid=8a58158b-6cb9-404c-aed6-e25263692a26"},"vehicle_type_id":"4","last_reported":1701605544,"current_range_meters":22000,"station_id":"ce4bgip2rcd13ifvqbb0","pricing_plan_id":"free"},{"bike_id":"1a37d468-4db5-45a1-8da8-5d36ead86ec1","system_id":"levelo_inurba_marseille","lat":43.299707,"lon":5.384859,"is_reserved":false,"is_disabled":false,"rental_uris":{"android":"levelo://app?vid=1a37d468-4db5-45a1-8da8-5d36ead86ec1","ios":"levelo://app?vid=1a37d468-4db5-45a1-8da8-5d36ead86ec1"},"vehicle_type_id":"4","last_reported":1701605544,"current_range_meters":18400,"station_id":"ce4bgj92rcd13ifvqbd0","pricing_plan_id":"free"},{"bike_id":"6d3ee4f6-5734-458c-8845-98288f5693b5","system_id":"levelo_inurba_marseille","lat":43.295279,"lon":5.375048,"is_reserved":false,"is_disabled":false,"rental_uris":{"android":"levelo://app?vid=6d3ee4f6-5734-458c-8845-98288f5693b5","ios":"levelo://app?vid=6d3ee4f6-5734-458c-8845-98288f5693b5"},"vehicle_type_id":"4","last_reported":1701605544,"current_range_meters":12000,"station_id":"ce4bgkp2rcd13ifvqbmg","pricing_plan_id":"free"},{"bike_id":"f11a4338-d24b-4b08-a9a8-ac4051b50fd5","system_id":"levelo_inurba_marseille","lat":43.29277,"lon":5.36843,"is_reserved":false,"is_disabled":false,"rental_uris":{"android":"levelo://app?vid=f11a4338-d24b-4b08-a9a8-ac4051b50fd5","ios":"levelo://app?vid=f11a4338-d24b-4b08-a9a8-ac4051b50fd5"},"vehicle_type_id":"4","last_reported":1701605544,"current_range_meters":10400,"station_id":"ce4bhbp2rcd13ifvqesg","pricing_plan_id":"free"},{"bike_id":"2e7c15b7-0e7c-4d1f-81df-93e8cf046c35","system_id":"levelo_inurba_marseille","lat":43.29276,"lon":5.36834,"is_reserved":false,"is_disabled":false,"rental_uris":{"android":"levelo://app?vid=2e7c15b7-0e7c-4d1f-81df-93e8cf046c35","ios":"levelo://app?vid=2e7c15b7-0e7c-4d1f-81df-93e8cf046c35"},"vehicle_type_id":"4","last_reported":1701605544,"current_range_meters":4400,"station_id":"ce4bhbp2rcd13ifvqesg","pricing_plan_id":"free"},{"bike_id":"596e950b-4a96-45c8-8bc2-548dbaa9a3c6","system_id":"levelo_inurba_marseille","lat":43.29533,"lon":5.38152,"is_reserved":false,"is_disabled":false,"rental_uris":{"android":"levelo://app?vid=596e950b-4a96-45c8-8bc2-548dbaa9a3c6","ios":"levelo://app?vid=596e950b-4a96-45c8-8bc2-548dbaa9a3c6"},"vehicle_type_id":"4","last_reported":1701605544,"current_range_meters":15200,"station_id":"","pricing_plan_id":"free"},{"bike_id":"50e725f1-477b-4ea8-8d26-0ce708e6cbd0","system_id":"levelo_inurba_marseille","lat":43.293009,"lon":5.374584,"is_reserved":false,"is_disabled":false,"rental_uris":{"android":"levelo://app?vid=50e725f1-477b-4ea8-8d26-0ce708e6cbd0","ios":"levelo://app?vid=50e725f1-477b-4ea8-8d26-0ce708e6cbd0"},"vehicle_type_id":"4","last_reported":1701605544,"current_range_meters":24000,"station_id":"ce4bgi12rcd13ifvqb70","pricing_plan_id":"free"},{"bike_id":"6075b541-9586-4a44-9637-552d565523e0","system_id":"levelo_inurba_marseille","lat":43.291994,"lon":5.392907,"is_reserved":false,"is_disabled":false,"rental_uris":{"android":"levelo://app?vid=6075b541-9586-4a44-9637-552d565523e0","ios":"levelo://app?vid=6075b541-9586-4a44-9637-552d565523e0"},"vehicle_type_id":"4","last_reported":1701605544,"current_range_meters":17600,"station_id":"ce4bh192rcd13ifvqdd0","pricing_plan_id":"free"},{"bike_id":"a6ef0bda-d265-4310-a8d8-3cbf93ef3403","system_id":"levelo_inurba_marseille","lat":43.2936,"lon":5.37835,"is_reserved":false,"is_disabled":false,"rental_uris":{"android":"levelo://app?vid=a6ef0bda-d265-4310-a8d8-3cbf93ef3403","ios":"levelo://app?vid=a6ef0bda-d265-4310-a8d8-3cbf93ef3403"},"vehicle_type_id":"4","last_reported":1701605544,"current_range_meters":21200,"station_id":"ce4bgjh2rcd13ifvqbf0","pricing_plan_id":"free"},{"bike_id":"640d1fd9-5db3-489a-9110-9398ed2c690b","system_id":"levelo_inurba_marseille","lat":43.292311,"lon":5.360731,"is_reserved":false,"is_disabled":false,"rental_uris":{"android":"levelo://app?vid=640d1fd9-5db3-489a-9110-9398ed2c690b","ios":"levelo://app?vid=640d1fd9-5db3-489a-9110-9398ed2c690b"},"vehicle_type_id":"4","last_reported":1701605544,"current_range_meters":24000,"station_id":"ce4bhbh2rcd13ifvqeqg","pricing_plan_id":"free"},{"bike_id":"88b7d98d-4c92-4008-94ac-b394cc9f441d","system_id":"levelo_inurba_marseille","lat":43.290327,"lon":5.375711,"is_reserved":false,"is_disabled":false,"rental_uris":{"android":"levelo://app?vid=88b7d98d-4c92-4008-94ac-b394cc9f441d","ios":"levelo://app?vid=88b7d98d-4c92-4008-94ac-b394cc9f441d"},"vehicle_type_id":"4","last_reported":1701605544,"current_range_meters":4400,"station_id":"ce4bh692rcd13ifvqe90","pricing_plan_id":"free"},{"bike_id":"f443de99-382c-4b08-9260-7dce08b159a4","system_id":"levelo_inurba_marseille","lat":43.290327,"lon":5.375711,"is_reserved":false,"is_disabled":false,"rental_uris":{"android":"levelo://app?vid=f443de99-382c-4b08-9260-7dce08b159a4","ios":"levelo://app?vid=f443de99-382c-4b08-9260-7dce08b159a4"},"vehicle_type_id":"4","last_reported":1701605544,"current_range_meters":25600,"station_id":"ce4bh692rcd13ifvqe90","pricing_plan_id":"free"},{"bike_id":"df9468f3-cdb5-4733-b1c4-ec3379fcf173","system_id":"levelo_inurba_marseille","lat":43.289468,"lon":5.363719,"is_reserved":false,"is_disabled":false,"rental_uris":{"android":"levelo://app?vid=df9468f3-cdb5-4733-b1c4-ec3379fcf173","ios":"levelo://app?vid=df9468f3-cdb5-4733-b1c4-ec3379fcf173"},"vehicle_type_id":"4","last_reported":1701605544,"current_range_meters":22800,"station_id":"ce4bhc92rcd13ifvqetg","pricing_plan_id":"free"},{"bike_id":"957df183-74ff-425b-8b41-21356877fbe4","system_id":"levelo_inurba_marseille","lat":43.292644,"lon":5.384257,"is_reserved":false,"is_disabled":false,"rental_uris":{"android":"levelo://app?vid=957df183-74ff-425b-8b41-21356877fbe4","ios":"levelo://app?vid=957df183-74ff-425b-8b41-21356877fbe4"},"vehicle_type_id":"4","last_reported":1701605544,"current_range_meters":17200,"station_id":"ce4bh692rcd13ifvqea0","pricing_plan_id":"free"},{"bike_id":"48515b03-c41d-4923-a48d-ecbac8315d0a","system_id":"levelo_inurba_marseille","lat":43.291043,"lon":5.380351,"is_reserved":false,"is_disabled":false,"rental_uris":{"android":"levelo://app?vid=48515b03-c41d-4923-a48d-ecbac8315d0a","ios":"levelo://app?vid=48515b03-c41d-4923-a48d-ecbac8315d0a"},"vehicle_type_id":"4","last_reported":1701605544,"current_range_meters":16400,"station_id":"","pricing_plan_id":"free"},{"bike_id":"109ecc8a-2201-4301-bfe5-afb0a482f60a","system_id":"levelo_inurba_marseille","lat":43.295169,"lon":5.390426,"is_reserved":false,"is_disabled":false,"rental_uris":{"android":"levelo://app?vid=109ecc8a-2201-4301-bfe5-afb0a482f60a","ios":"levelo://app?vid=109ecc8a-2201-4301-bfe5-afb0a482f60a"},"vehicle_type_id":"4","last_reported":1701605544,"current_range_meters":24400,"station_id":"ce4bh3p2rcd13ifvqdp0","pricing_plan_id":"free"},{"bike_id":"076f3d8b-0b11-4546-894a-5116c71bd2fe","system_id":"levelo_inurba_marseille","lat":43.295169,"lon":5.390426,"is_reserved":false,"is_disabled":false,"rental_uris":{"android":"levelo://app?vid=076f3d8b-0b11-4546-894a-5116c71bd2fe","ios":"levelo://app?vid=076f3d8b-0b11-4546-894a-5116c71bd2fe"},"vehicle_type_id":"4","last_reported":1701605544,"current_range_meters":25600,"station_id":"ce4bh3p2rcd13ifvqdp0","pricing_plan_id":"free"},{"bike_id":"696b28e8-d306-4b1f-be44-ccb9c335bfc7","system_id":"levelo_inurba_marseille","lat":43.295169,"lon":5.390426,"is_reserved":false,"is_disabled":false,"rental_uris":{"android":"levelo://app?vid=696b28e8-d306-4b1f-be44-ccb9c335bfc7","ios":"levelo://app?vid=696b28e8-d306-4b1f-be44-ccb9c335bfc7"},"vehicle_type_id":"4","last_reported":1701605544,"current_range_meters":18400,"station_id":"ce4bh3p2rcd13ifvqdp0","pricing_plan_id":"free"},{"bike_id":"3b7d9a65-b4b2-48ab-9ee8-d025c39922a0","system_id":"levelo_inurba_marseille","lat":43.28849,"lon":5.3585,"is_reserved":false,"is_disabled":false,"rental_uris":{"android":"levelo://app?vid=3b7d9a65-b4b2-48ab-9ee8-d025c39922a0","ios":"levelo://app?vid=3b7d9a65-b4b2-48ab-9ee8-d025c39922a0"},"vehicle_type_id":"4","last_reported":1701605544,"current_range_meters":20800,"station_id":"ce4bhb12rcd13ifvqem0","pricing_plan_id":"free"},{"bike_id":"e5f8ed81-4726-4ee9-ba4e-af1310e8d80e","system_id":"levelo_inurba_marseille","lat":43.337639,"lon":5.374376,"is_reserved":false,"is_disabled":false,"rental_uris":{"android":"levelo://app?vid=e5f8ed81-4726-4ee9-ba4e-af1310e8d80e","ios":"levelo://app?vid=e5f8ed81-4726-4ee9-ba4e-af1310e8d80e"},"vehicle_type_id":"4","last_reported":1701605544,"current_range_meters":30400,"station_id":"","pricing_plan_id":"free"},{"bike_id":"2b0510fb-295c-40ba-8891-c0b7a18c180c","system_id":"levelo_inurba_marseille","lat":43.33771,"lon":5.374425,"is_reserved":false,"is_disabled":false,"rental_uris":{"android":"levelo://app?vid=2b0510fb-295c-40ba-8891-c0b7a18c180c","ios":"levelo://app?vid=2b0510fb-295c-40ba-8891-c0b7a18c180c"},"vehicle_type_id":"4","last_reported":1701605544,"current_range_meters":20400,"station_id":"","pricing_plan_id":"free"},{"bike_id":"2fba8100-c1b1-4c0f-9781-3c473f993886","system_id":"levelo_inurba_marseille","lat":43.30642,"lon":5.401031,"is_reserved":false,"is_disabled":false,"rental_uris":{"android":"levelo://app?vid=2fba8100-c1b1-4c0f-9781-3c473f993886","ios":"levelo://app?vid=2fba8100-c1b1-4c0f-9781-3c473f993886"},"vehicle_type_id":"4","last_reported":1701605544,"current_range_meters":26800,"station_id":"ce4bh112rcd13ifvqda0","pricing_plan_id":"free"},{"bike_id":"e0a87a07-d339-4858-8d5c-7329ba23fe0d","system_id":"levelo_inurba_marseille","lat":43.28727,"lon":5.36078,"is_reserved":false,"is_disabled":false,"rental_uris":{"android":"levelo://app?vid=e0a87a07-d339-4858-8d5c-7329ba23fe0d","ios":"levelo://app?vid=e0a87a07-d339-4858-8d5c-7329ba23fe0d"},"vehicle_type_id":"4","last_reported":1701605544,"current_range_meters":26000,"station_id":"cki0cbj6b192h4jlfktg","pricing_plan_id":"free"},{"bike_id":"ce4e3963-f63e-492e-afad-5c99b42e015f","system_id":"levelo_inurba_marseille","lat":43.286961,"lon":5.373785,"is_reserved":false,"is_disabled":false,"rental_uris":{"android":"levelo://app?vid=ce4e3963-f63e-492e-afad-5c99b42e015f","ios":"levelo://app?vid=ce4e3963-f63e-492e-afad-5c99b42e015f"},"vehicle_type_id":"4","last_reported":1701605544,"current_range_meters":25200,"station_id":"ce4bh3p2rcd13ifvqdq0","pricing_plan_id":"free"},{"bike_id":"9d990460-dbb7-4494-a8e0-74ac41adadaa","system_id":"levelo_inurba_marseille","lat":43.286591,"lon":5.363346,"is_reserved":false,"is_disabled":false,"rental_uris":{"android":"levelo://app?vid=9d990460-dbb7-4494-a8e0-74ac41adadaa","ios":"levelo://app?vid=9d990460-dbb7-4494-a8e0-74ac41adadaa"},"vehicle_type_id":"4","last_reported":1701605544,"current_range_meters":30400,"station_id":"ce4bhah2rcd13ifvqej0","pricing_plan_id":"free"},{"bike_id":"cdf9302b-3331-4089-8c42-6ff0a575fabd","system_id":"levelo_inurba_marseille","lat":43.30254,"lon":5.40069,"is_reserved":false,"is_disabled":false,"rental_uris":{"android":"levelo://app?vid=cdf9302b-3331-4089-8c42-6ff0a575fabd","ios":"levelo://app?vid=cdf9302b-3331-4089-8c42-6ff0a575fabd"},"vehicle_type_id":"4","last_reported":1701605544,"current_range_meters":0,"station_id":"ce4bgvh2rcd13ifvqcs0","pricing_plan_id":"free"},{"bike_id":"2be91397-ef40-47ef-ab1b-6e8978fd5e28","system_id":"levelo_inurba_marseille","lat":43.286039,"lon":5.370681,"is_reserved":false,"is_disabled":false,"rental_uris":{"android":"levelo://app?vid=2be91397-ef40-47ef-ab1b-6e8978fd5e28","ios":"levelo://app?vid=2be91397-ef40-47ef-ab1b-6e8978fd5e28"},"vehicle_type_id":"4","last_reported":1701605544,"current_range_meters":20800,"station_id":"ce4bht12rcd13ifvqi60","pricing_plan_id":"free"},{"bike_id":"1c294869-d99a-468e-9622-5fd7d725f398","system_id":"levelo_inurba_marseille","lat":43.287185,"lon":5.379373,"is_reserved":false,"is_disabled":false,"rental_uris":{"android":"levelo://app?vid=1c294869-d99a-468e-9622-5fd7d725f398","ios":"levelo://app?vid=1c294869-d99a-468e-9622-5fd7d725f398"},"vehicle_type_id":"4","last_reported":1701605544,"current_range_meters":20000,"station_id":"ce4bh9p2rcd13ifvqec0","pricing_plan_id":"free"},{"bike_id":"80825b74-638f-411d-86c1-a426a7745733","system_id":"levelo_inurba_marseille","lat":43.29001,"lon":5.388786,"is_reserved":false,"is_disabled":false,"rental_uris":{"android":"levelo://app?vid=80825b74-638f-411d-86c1-a426a7745733","ios":"levelo://app?vid=80825b74-638f-411d-86c1-a426a7745733"},"vehicle_type_id":"4","last_reported":1701605544,"current_range_meters":20800,"station_id":"ce4bhn12rcd13ifvqgpg","pricing_plan_id":"free"},{"bike_id":"67c6fe0a-7c17-4aa7-87a6-d8bf6745b5d9","system_id":"levelo_inurba_marseille","lat":43.285856,"lon":5.350771,"is_reserved":false,"is_disabled":false,"rental_uris":{"android":"levelo://app?vid=67c6fe0a-7c17-4aa7-87a6-d8bf6745b5d9","ios":"levelo://app?vid=67c6fe0a-7c17-4aa7-87a6-d8bf6745b5d9"},"vehicle_type_id":"4","last_reported":1701605544,"current_range_meters":2400,"station_id":"ce4bhch2rcd13ifvqeug","pricing_plan_id":"free"},{"bike_id":"ec4a356d-404d-4d08-b7ea-c4d5ef67fac6","system_id":"levelo_inurba_marseille","lat":43.295713,"lon":5.399639,"is_reserved":false,"is_disabled":false,"rental_uris":{"android":"levelo://app?vid=ec4a356d-404d-4d08-b7ea-c4d5ef67fac6","ios":"levelo://app?vid=ec4a356d-404d-4d08-b7ea-c4d5ef67fac6"},"vehicle_type_id":"4","last_reported":1701605544,"current_range_meters":12400,"station_id":"ce4bh312rcd13ifvqdj0","pricing_plan_id":"free"},{"bike_id":"75ee5a35-25e5-4210-a426-2d92cbb1b782","system_id":"levelo_inurba_marseille","lat":43.333185,"lon":5.396126,"is_reserved":false,"is_disabled":false,"rental_uris":{"android":"levelo://app?vid=75ee5a35-25e5-4210-a426-2d92cbb1b782","ios":"levelo://app?vid=75ee5a35-25e5-4210-a426-2d92cbb1b782"},"vehicle_type_id":"4","last_reported":1701605544,"current_range_meters":0,"station_id":"","pricing_plan_id":"free"},{"bike_id":"23a6e18e-5ad6-40cf-b6fb-7a4b1a6034c9","system_id":"levelo_inurba_marseille","lat":43.33717,"lon":5.391857,"is_reserved":false,"is_disabled":false,"rental_uris":{"android":"levelo://app?vid=23a6e18e-5ad6-40cf-b6fb-7a4b1a6034c9","ios":"levelo://app?vid=23a6e18e-5ad6-40cf-b6fb-7a4b1a6034c9"},"vehicle_type_id":"4","last_reported":1701605544,"current_range_meters":28400,"station_id":"ce4bhr92rcd13ifvqhsg","pricing_plan_id":"free"},{"bike_id":"ef8b2cf2-0711-4227-b7af-f411b85a8354","system_id":"levelo_inurba_marseille","lat":43.323464,"lon":5.406297,"is_reserved":false,"is_disabled":false,"rental_uris":{"android":"levelo://app?vid=ef8b2cf2-0711-4227-b7af-f411b85a8354","ios":"levelo://app?vid=ef8b2cf2-0711-4227-b7af-f411b85a8354"},"vehicle_type_id":"4","last_reported":1701605544,"current_range_meters":30400,"station_id":"ce4bhq92rcd13ifvqhjg","pricing_plan_id":"free"},{"bike_id":"75241a60-1b9a-427a-8940-6d8ab50eb652","system_id":"levelo_inurba_marseille","lat":43.284793,"lon":5.384113,"is_reserved":false,"is_disabled":false,"rental_uris":{"android":"levelo://app?vid=75241a60-1b9a-427a-8940-6d8ab50eb652","ios":"levelo://app?vid=75241a60-1b9a-427a-8940-6d8ab50eb652"},"vehicle_type_id":"4","last_reported":1701605544,"current_range_meters":28800,"station_id":"ce4bh512rcd13ifvqe3g","pricing_plan_id":"free"},{"bike_id":"8f63b758-8599-407d-bfc9-b09f07c0db29","system_id":"levelo_inurba_marseille","lat":43.284793,"lon":5.384113,"is_reserved":false,"is_disabled":false,"rental_uris":{"android":"levelo://app?vid=8f63b758-8599-407d-bfc9-b09f07c0db29","ios":"levelo://app?vid=8f63b758-8599-407d-bfc9-b09f07c0db29"},"vehicle_type_id":"4","last_reported":1701605544,"current_range_meters":29600,"station_id":"ce4bh512rcd13ifvqe3g","pricing_plan_id":"free"},{"bike_id":"35aa189c-d42c-40ec-92df-e5a0df1dd768","system_id":"levelo_inurba_marseille","lat":43.283494,"lon":5.380945,"is_reserved":false,"is_disabled":false,"rental_uris":{"android":"levelo://app?vid=35aa189c-d42c-40ec-92df-e5a0df1dd768","ios":"levelo://app?vid=35aa189c-d42c-40ec-92df-e5a0df1dd768"},"vehicle_type_id":"4","last_reported":1701605544,"current_range_meters":12000,"station_id":"ce4bh412rcd13ifvqdr0","pricing_plan_id":"free"},{"bike_id":"3ed8b37a-4d0d-4474-bbf2-3d9789764602","system_id":"levelo_inurba_marseille","lat":43.283498,"lon":5.380948,"is_reserved":false,"is_disabled":false,"rental_uris":{"android":"levelo://app?vid=3ed8b37a-4d0d-4474-bbf2-3d9789764602","ios":"levelo://app?vid=3ed8b37a-4d0d-4474-bbf2-3d9789764602"},"vehicle_type_id":"4","last_reported":1701605544,"current_range_meters":6000,"station_id":"ce4bh412rcd13ifvqdr0","pricing_plan_id":"free"},{"bike_id":"94aff64a-47b7-4223-9cc9-7aa50fdaa8b1","system_id":"levelo_inurba_marseille","lat":43.284219,"lon":5.3497,"is_reserved":false,"is_disabled":false,"rental_uris":{"android":"levelo://app?vid=94aff64a-47b7-4223-9cc9-7aa50fdaa8b1","ios":"levelo://app?vid=94aff64a-47b7-4223-9cc9-7aa50fdaa8b1"},"vehicle_type_id":"4","last_reported":1701605544,"current_range_meters":15200,"station_id":"ce4bhbh2rcd13ifvqepg","pricing_plan_id":"free"},{"bike_id":"a0b56e60-09c5-4968-aeff-b123c4847d41","system_id":"levelo_inurba_marseille","lat":43.282744,"lon":5.350533,"is_reserved":false,"is_disabled":false,"rental_uris":{"android":"levelo://app?vid=a0b56e60-09c5-4968-aeff-b123c4847d41","ios":"levelo://app?vid=a0b56e60-09c5-4968-aeff-b123c4847d41"},"vehicle_type_id":"4","last_reported":1701605544,"current_range_meters":21200,"station_id":"ce4bhbp2rcd13ifvqerg","pricing_plan_id":"free"},{"bike_id":"488267b6-a470-4606-a28b-dfafdc216873","system_id":"levelo_inurba_marseille","lat":43.282744,"lon":5.350533,"is_reserved":false,"is_disabled":false,"rental_uris":{"android":"levelo://app?vid=488267b6-a470-4606-a28b-dfafdc216873","ios":"levelo://app?vid=488267b6-a470-4606-a28b-dfafdc216873"},"vehicle_type_id":"4","last_reported":1701605544,"current_range_meters":22000,"station_id":"ce4bhbp2rcd13ifvqerg","pricing_plan_id":"free"},{"bike_id":"0c9d4d08-9580-40e4-b5f5-2cc11af637c5","system_id":"levelo_inurba_marseille","lat":43.281044,"lon":5.378308,"is_reserved":false,"is_disabled":false,"rental_uris":{"android":"levelo://app?vid=0c9d4d08-9580-40e4-b5f5-2cc11af637c5","ios":"levelo://app?vid=0c9d4d08-9580-40e4-b5f5-2cc11af637c5"},"vehicle_type_id":"4","last_reported":1701605544,"current_range_meters":14800,"station_id":"ce4bha12rcd13ifvqee0","pricing_plan_id":"free"},{"bike_id":"b21af117-871c-4901-957f-0ecb4fff2209","system_id":"levelo_inurba_marseille","lat":43.279087,"lon":5.380114,"is_reserved":false,"is_disabled":false,"rental_uris":{"android":"levelo://app?vid=b21af117-871c-4901-957f-0ecb4fff2209","ios":"levelo://app?vid=b21af117-871c-4901-957f-0ecb4fff2209"},"vehicle_type_id":"4","last_reported":1701605544,"current_range_meters":30400,"station_id":"ce4bhf92rcd13ifvqf50","pricing_plan_id":"free"},{"bike_id":"bacc721e-8520-4060-af16-91de5dee00f1","system_id":"levelo_inurba_marseille","lat":43.320045,"lon":5.415046,"is_reserved":false,"is_disabled":false,"rental_uris":{"android":"levelo://app?vid=bacc721e-8520-4060-af16-91de5dee00f1","ios":"levelo://app?vid=bacc721e-8520-4060-af16-91de5dee00f1"},"vehicle_type_id":"4","last_reported":1701605544,"current_range_meters":26800,"station_id":"ce4bhq92rcd13ifvqhkg","pricing_plan_id":"free"},{"bike_id":"b43c0748-11a3-4c91-854d-ab9ab625e13b","system_id":"levelo_inurba_marseille","lat":43.320045,"lon":5.415046,"is_reserved":false,"is_disabled":false,"rental_uris":{"android":"levelo://app?vid=b43c0748-11a3-4c91-854d-ab9ab625e13b","ios":"levelo://app?vid=b43c0748-11a3-4c91-854d-ab9ab625e13b"},"vehicle_type_id":"4","last_reported":1701605544,"current_range_meters":20800,"station_id":"ce4bhq92rcd13ifvqhkg","pricing_plan_id":"free"},{"bike_id":"32382e28-e31d-4617-84f9-1d6d09c3f25d","system_id":"levelo_inurba_marseille","lat":43.320045,"lon":5.415046,"is_reserved":false,"is_disabled":false,"rental_uris":{"android":"levelo://app?vid=32382e28-e31d-4617-84f9-1d6d09c3f25d","ios":"levelo://app?vid=32382e28-e31d-4617-84f9-1d6d09c3f25d"},"vehicle_type_id":"4","last_reported":1701605544,"current_range_meters":31600,"station_id":"ce4bhq92rcd13ifvqhkg","pricing_plan_id":"free"},{"bike_id":"94e8a404-f2fa-4fd2-82a6-f864cda2b0a5","system_id":"levelo_inurba_marseille","lat":43.320045,"lon":5.415046,"is_reserved":false,"is_disabled":false,"rental_uris":{"android":"levelo://app?vid=94e8a404-f2fa-4fd2-82a6-f864cda2b0a5","ios":"levelo://app?vid=94e8a404-f2fa-4fd2-82a6-f864cda2b0a5"},"vehicle_type_id":"4","last_reported":1701605544,"current_range_meters":30400,"station_id":"ce4bhq92rcd13ifvqhkg","pricing_plan_id":"free"},{"bike_id":"451e5711-912b-4e6f-ba92-14f20d0093e3","system_id":"levelo_inurba_marseille","lat":43.336924,"lon":5.406476,"is_reserved":false,"is_disabled":false,"rental_uris":{"android":"levelo://app?vid=451e5711-912b-4e6f-ba92-14f20d0093e3","ios":"levelo://app?vid=451e5711-912b-4e6f-ba92-14f20d0093e3"},"vehicle_type_id":"4","last_reported":1701605544,"current_range_meters":15600,"station_id":"","pricing_plan_id":"free"},{"bike_id":"2ed76bd7-5d2e-4837-811d-65417a6f33c7","system_id":"levelo_inurba_marseille","lat":43.280784,"lon":5.396622,"is_reserved":false,"is_disabled":false,"rental_uris":{"android":"levelo://app?vid=2ed76bd7-5d2e-4837-811d-65417a6f33c7","ios":"levelo://app?vid=2ed76bd7-5d2e-4837-811d-65417a6f33c7"},"vehicle_type_id":"4","last_reported":1701605544,"current_range_meters":18800,"station_id":"ce4bho12rcd13ifvqh2g","pricing_plan_id":"free"},{"bike_id":"15382840-239d-45a7-a22f-c7121b0d47ab","system_id":"levelo_inurba_marseille","lat":43.276771,"lon":5.388799,"is_reserved":false,"is_disabled":false,"rental_uris":{"android":"levelo://app?vid=15382840-239d-45a7-a22f-c7121b0d47ab","ios":"levelo://app?vid=15382840-239d-45a7-a22f-c7121b0d47ab"},"vehicle_type_id":"4","last_reported":1701605544,"current_range_meters":24400,"station_id":"ce4bhi12rcd13ifvqfo0","pricing_plan_id":"free"},{"bike_id":"2255962e-f1ca-471b-ab08-aa4b990c6808","system_id":"levelo_inurba_marseille","lat":43.310785,"lon":5.424305,"is_reserved":false,"is_disabled":false,"rental_uris":{"android":"levelo://app?vid=2255962e-f1ca-471b-ab08-aa4b990c6808","ios":"levelo://app?vid=2255962e-f1ca-471b-ab08-aa4b990c6808"},"vehicle_type_id":"4","last_reported":1701605544,"current_range_meters":20800,"station_id":"ce4bhp92rcd13ifvqhag","pricing_plan_id":"free"},{"bike_id":"75269014-fd84-4a1f-9fa5-95a0080041c8","system_id":"levelo_inurba_marseille","lat":43.310785,"lon":5.424305,"is_reserved":false,"is_disabled":false,"rental_uris":{"android":"levelo://app?vid=75269014-fd84-4a1f-9fa5-95a0080041c8","ios":"levelo://app?vid=75269014-fd84-4a1f-9fa5-95a0080041c8"},"vehicle_type_id":"4","last_reported":1701605544,"current_range_meters":31200,"station_id":"ce4bhp92rcd13ifvqhag","pricing_plan_id":"free"},{"bike_id":"910fd3aa-d2e0-4553-894a-6161d41c7fcd","system_id":"levelo_inurba_marseille","lat":43.27609,"lon":5.39475,"is_reserved":false,"is_disabled":false,"rental_uris":{"android":"levelo://app?vid=910fd3aa-d2e0-4553-894a-6161d41c7fcd","ios":"levelo://app?vid=910fd3aa-d2e0-4553-894a-6161d41c7fcd"},"vehicle_type_id":"4","last_reported":1701605544,"current_range_meters":16000,"station_id":"","pricing_plan_id":"free"},{"bike_id":"cf67250d-8162-46ba-8e74-b0a6aa74ce09","system_id":"levelo_inurba_marseille","lat":43.30411,"lon":5.42543,"is_reserved":false,"is_disabled":false,"rental_uris":{"android":"levelo://app?vid=cf67250d-8162-46ba-8e74-b0a6aa74ce09","ios":"levelo://app?vid=cf67250d-8162-46ba-8e74-b0a6aa74ce09"},"vehicle_type_id":"4","last_reported":1701605544,"current_range_meters":26000,"station_id":"ce4bhoh2rcd13ifvqh6g","pricing_plan_id":"free"},{"bike_id":"e876b5e4-88b5-4658-9659-37390ef9bc11","system_id":"levelo_inurba_marseille","lat":43.26681,"lon":5.382694,"is_reserved":false,"is_disabled":false,"rental_uris":{"android":"levelo://app?vid=e876b5e4-88b5-4658-9659-37390ef9bc11","ios":"levelo://app?vid=e876b5e4-88b5-4658-9659-37390ef9bc11"},"vehicle_type_id":"4","last_reported":1701605544,"current_range_meters":24800,"station_id":"ce4bhg92rcd13ifvqf90","pricing_plan_id":"free"},{"bike_id":"5dbbf92f-9b4b-41f2-ac74-84df7cec22a4","system_id":"levelo_inurba_marseille","lat":43.279971,"lon":5.416627,"is_reserved":false,"is_disabled":false,"rental_uris":{"android":"levelo://app?vid=5dbbf92f-9b4b-41f2-ac74-84df7cec22a4","ios":"levelo://app?vid=5dbbf92f-9b4b-41f2-ac74-84df7cec22a4"},"vehicle_type_id":"4","last_reported":1701605544,"current_range_meters":25600,"station_id":"ce4bho12rcd13ifvqh1g","pricing_plan_id":"free"},{"bike_id":"f600ae2f-60bb-4340-bdab-4173ff5d62b6","system_id":"levelo_inurba_marseille","lat":43.317104,"lon":5.436818,"is_reserved":false,"is_disabled":false,"rental_uris":{"android":"levelo://app?vid=f600ae2f-60bb-4340-bdab-4173ff5d62b6","ios":"levelo://app?vid=f600ae2f-60bb-4340-bdab-4173ff5d62b6"},"vehicle_type_id":"4","last_reported":1701605544,"current_range_meters":29600,"station_id":"ce4bhp92rcd13ifvqhcg","pricing_plan_id":"free"},{"bike_id":"a4dcfb43-7dd2-4f3a-94fa-d47edecb08ad","system_id":"levelo_inurba_marseille","lat":43.262078,"lon":5.379316,"is_reserved":false,"is_disabled":false,"rental_uris":{"android":"levelo://app?vid=a4dcfb43-7dd2-4f3a-94fa-d47edecb08ad","ios":"levelo://app?vid=a4dcfb43-7dd2-4f3a-94fa-d47edecb08ad"},"vehicle_type_id":"4","last_reported":1701605544,"current_range_meters":23600,"station_id":"","pricing_plan_id":"free"},{"bike_id":"1b980bd0-3712-4abb-8257-c24c25a53de0","system_id":"levelo_inurba_marseille","lat":43.262012,"lon":5.379307,"is_reserved":false,"is_disabled":false,"rental_uris":{"android":"levelo://app?vid=1b980bd0-3712-4abb-8257-c24c25a53de0","ios":"levelo://app?vid=1b980bd0-3712-4abb-8257-c24c25a53de0"},"vehicle_type_id":"4","last_reported":1701605544,"current_range_meters":22800,"station_id":"ce4bhjp2rcd13ifvqg90","pricing_plan_id":"free"},{"bike_id":"f9505c4b-c2ce-4bca-bead-e0efb1f24e15","system_id":"levelo_inurba_marseille","lat":43.271368,"lon":5.40928,"is_reserved":false,"is_disabled":false,"rental_uris":{"android":"levelo://app?vid=f9505c4b-c2ce-4bca-bead-e0efb1f24e15","ios":"levelo://app?vid=f9505c4b-c2ce-4bca-bead-e0efb1f24e15"},"vehicle_type_id":"4","last_reported":1701605544,"current_range_meters":2400,"station_id":"ce4bhl12rcd13ifvqgf0","pricing_plan_id":"free"},{"bike_id":"a98d30d8-b713-4eff-b37c-5b1e12aff3eb","system_id":"levelo_inurba_marseille","lat":43.298768,"lon":5.43643,"is_reserved":false,"is_disabled":false,"rental_uris":{"android":"levelo://app?vid=a98d30d8-b713-4eff-b37c-5b1e12aff3eb","ios":"levelo://app?vid=a98d30d8-b713-4eff-b37c-5b1e12aff3eb"},"vehicle_type_id":"4","last_reported":1701605544,"current_range_meters":18000,"station_id":"ce4bhpp2rcd13ifvqhfg","pricing_plan_id":"free"},{"bike_id":"38d19c8f-2b57-4d49-83b0-41ee724c0c97","system_id":"levelo_inurba_marseille","lat":43.281548,"lon":5.42643,"is_reserved":false,"is_disabled":false,"rental_uris":{"android":"levelo://app?vid=38d19c8f-2b57-4d49-83b0-41ee724c0c97","ios":"levelo://app?vid=38d19c8f-2b57-4d49-83b0-41ee724c0c97"},"vehicle_type_id":"4","last_reported":1701605544,"current_range_meters":27200,"station_id":"ce4bhnh2rcd13ifvqgug","pricing_plan_id":"free"},{"bike_id":"17c18cdf-4e49-4d62-8dce-a709034b3c76","system_id":"levelo_inurba_marseille","lat":43.281548,"lon":5.42643,"is_reserved":false,"is_disabled":false,"rental_uris":{"android":"levelo://app?vid=17c18cdf-4e49-4d62-8dce-a709034b3c76","ios":"levelo://app?vid=17c18cdf-4e49-4d62-8dce-a709034b3c76"},"vehicle_type_id":"4","last_reported":1701605544,"current_range_meters":30000,"station_id":"ce4bhnh2rcd13ifvqgug","pricing_plan_id":"free"},{"bike_id":"0f78e933-a87b-4f26-acd5-472e6ced09a7","system_id":"levelo_inurba_marseille","lat":43.2607,"lon":5.393983,"is_reserved":false,"is_disabled":false,"rental_uris":{"android":"levelo://app?vid=0f78e933-a87b-4f26-acd5-472e6ced09a7","ios":"levelo://app?vid=0f78e933-a87b-4f26-acd5-472e6ced09a7"},"vehicle_type_id":"4","last_reported":1701605544,"current_range_meters":28400,"station_id":"ce4bhh92rcd13ifvqfj0","pricing_plan_id":"free"},{"bike_id":"4bc7791d-be5f-4e52-a276-f29cc9305fdf","system_id":"levelo_inurba_marseille","lat":43.275028,"lon":5.424534,"is_reserved":false,"is_disabled":false,"rental_uris":{"android":"levelo://app?vid=4bc7791d-be5f-4e52-a276-f29cc9305fdf","ios":"levelo://app?vid=4bc7791d-be5f-4e52-a276-f29cc9305fdf"},"vehicle_type_id":"4","last_reported":1701605544,"current_range_meters":30400,"station_id":"ce4bhn92rcd13ifvqgrg","pricing_plan_id":"free"},{"bike_id":"c6d509a4-0052-46c4-a36a-f95be4f7be99","system_id":"levelo_inurba_marseille","lat":43.25579,"lon":5.382291,"is_reserved":false,"is_disabled":false,"rental_uris":{"android":"levelo://app?vid=c6d509a4-0052-46c4-a36a-f95be4f7be99","ios":"levelo://app?vid=c6d509a4-0052-46c4-a36a-f95be4f7be99"},"vehicle_type_id":"4","last_reported":1701605544,"current_range_meters":13200,"station_id":"ce4bhih2rcd13ifvqfs0","pricing_plan_id":"free"},{"bike_id":"eaa5030d-0486-418c-bd34-f9cf4bba9952","system_id":"levelo_inurba_marseille","lat":43.295279,"lon":5.375048,"is_reserved":false,"is_disabled":false,"rental_uris":{"android":"levelo://app?vid=eaa5030d-0486-418c-bd34-f9cf4bba9952","ios":"levelo://app?vid=eaa5030d-0486-418c-bd34-f9cf4bba9952"},"vehicle_type_id":"4","last_reported":1701605544,"current_range_meters":6000,"station_id":"ce4bgkp2rcd13ifvqbmg","pricing_plan_id":"free"},{"bike_id":"01c427c1-9270-485e-a023-955d854888f4","system_id":"levelo_inurba_marseille","lat":43.258224,"lon":5.394369,"is_reserved":false,"is_disabled":false,"rental_uris":{"android":"levelo://app?vid=01c427c1-9270-485e-a023-955d854888f4","ios":"levelo://app?vid=01c427c1-9270-485e-a023-955d854888f4"},"vehicle_type_id":"4","last_reported":1701605544,"current_range_meters":8400,"station_id":"ce4bhip2rcd13ifvqft0","pricing_plan_id":"free"},{"bike_id":"114666cb-2642-431d-8141-20b67e23c44d","system_id":"levelo_inurba_marseille","lat":43.258224,"lon":5.394369,"is_reserved":false,"is_disabled":false,"rental_uris":{"android":"levelo://app?vid=114666cb-2642-431d-8141-20b67e23c44d","ios":"levelo://app?vid=114666cb-2642-431d-8141-20b67e23c44d"},"vehicle_type_id":"4","last_reported":1701605544,"current_range_meters":21200,"station_id":"ce4bhip2rcd13ifvqft0","pricing_plan_id":"free"},{"bike_id":"aaf3d669-7ed7-4990-96f5-4e015364d860","system_id":"levelo_inurba_marseille","lat":43.25502,"lon":5.37649,"is_reserved":false,"is_disabled":false,"rental_uris":{"android":"levelo://app?vid=aaf3d669-7ed7-4990-96f5-4e015364d860","ios":"levelo://app?vid=aaf3d669-7ed7-4990-96f5-4e015364d860"},"vehicle_type_id":"4","last_reported":1701605544,"current_range_meters":5200,"station_id":"ce4bhh12rcd13ifvqff0","pricing_plan_id":"free"},{"bike_id":"8cb04362-21d9-4ad7-bd3b-f55b40ae40e4","system_id":"levelo_inurba_marseille","lat":43.258224,"lon":5.394369,"is_reserved":false,"is_disabled":false,"rental_uris":{"android":"levelo://app?vid=8cb04362-21d9-4ad7-bd3b-f55b40ae40e4","ios":"levelo://app?vid=8cb04362-21d9-4ad7-bd3b-f55b40ae40e4"},"vehicle_type_id":"4","last_reported":1701605544,"current_range_meters":30400,"station_id":"ce4bhip2rcd13ifvqft0","pricing_plan_id":"free"},{"bike_id":"969b980a-412f-46dd-bf4b-b39670f9d171","system_id":"levelo_inurba_marseille","lat":43.254988,"lon":5.376484,"is_reserved":false,"is_disabled":false,"rental_uris":{"android":"levelo://app?vid=969b980a-412f-46dd-bf4b-b39670f9d171","ios":"levelo://app?vid=969b980a-412f-46dd-bf4b-b39670f9d171"},"vehicle_type_id":"4","last_reported":1701605544,"current_range_meters":23600,"station_id":"","pricing_plan_id":"free"},{"bike_id":"1351cf23-2758-454c-aeeb-05955c57e0da","system_id":"levelo_inurba_marseille","lat":43.270721,"lon":5.422764,"is_reserved":false,"is_disabled":false,"rental_uris":{"android":"levelo://app?vid=1351cf23-2758-454c-aeeb-05955c57e0da","ios":"levelo://app?vid=1351cf23-2758-454c-aeeb-05955c57e0da"},"vehicle_type_id":"4","last_reported":1701605544,"current_range_meters":29600,"station_id":"ce4bhk92rcd13ifvqgb0","pricing_plan_id":"free"},{"bike_id":"bdc72d7c-9d46-4016-8a92-851cd50823f9","system_id":"levelo_inurba_marseille","lat":43.259296,"lon":5.409058,"is_reserved":false,"is_disabled":false,"rental_uris":{"android":"levelo://app?vid=bdc72d7c-9d46-4016-8a92-851cd50823f9","ios":"levelo://app?vid=bdc72d7c-9d46-4016-8a92-851cd50823f9"},"vehicle_type_id":"4","last_reported":1701605544,"current_range_meters":24000,"station_id":"ce4bhm92rcd13ifvqglg","pricing_plan_id":"free"},{"bike_id":"05ffcfcb-20c3-4466-b79e-af248191fe78","system_id":"levelo_inurba_marseille","lat":43.257079,"lon":5.411051,"is_reserved":false,"is_disabled":false,"rental_uris":{"android":"levelo://app?vid=05ffcfcb-20c3-4466-b79e-af248191fe78","ios":"levelo://app?vid=05ffcfcb-20c3-4466-b79e-af248191fe78"},"vehicle_type_id":"4","last_reported":1701605544,"current_range_meters":30000,"station_id":"ce4bhkp2rcd13ifvqgd0","pricing_plan_id":"free"},{"bike_id":"e77397ee-bffc-4358-898c-7ebab9cdc3f5","system_id":"levelo_inurba_marseille","lat":43.257079,"lon":5.411051,"is_reserved":false,"is_disabled":false,"rental_uris":{"android":"levelo://app?vid=e77397ee-bffc-4358-898c-7ebab9cdc3f5","ios":"levelo://app?vid=e77397ee-bffc-4358-898c-7ebab9cdc3f5"},"vehicle_type_id":"4","last_reported":1701605544,"current_range_meters":24800,"station_id":"ce4bhkp2rcd13ifvqgd0","pricing_plan_id":"free"},{"bike_id":"9d00540b-ee54-4050-9a7d-12cc3ac46588","system_id":"levelo_inurba_marseille","lat":43.24812,"lon":5.37457,"is_reserved":false,"is_disabled":false,"rental_uris":{"android":"levelo://app?vid=9d00540b-ee54-4050-9a7d-12cc3ac46588","ios":"levelo://app?vid=9d00540b-ee54-4050-9a7d-12cc3ac46588"},"vehicle_type_id":"4","last_reported":1701605544,"current_range_meters":22800,"station_id":"ce4bhgh2rcd13ifvqfb0","pricing_plan_id":"free"},{"bike_id":"47fe5043-ab51-4fa6-8cb4-f219e62fede6","system_id":"levelo_inurba_marseille","lat":43.24807,"lon":5.37453,"is_reserved":false,"is_disabled":false,"rental_uris":{"android":"levelo://app?vid=47fe5043-ab51-4fa6-8cb4-f219e62fede6","ios":"levelo://app?vid=47fe5043-ab51-4fa6-8cb4-f219e62fede6"},"vehicle_type_id":"4","last_reported":1701605544,"current_range_meters":14000,"station_id":"ce4bhgh2rcd13ifvqfb0","pricing_plan_id":"free"},{"bike_id":"1fe9f4ed-4401-4dfb-a0b7-fa6c7584af6a","system_id":"levelo_inurba_marseille","lat":43.24807,"lon":5.37453,"is_reserved":false,"is_disabled":false,"rental_uris":{"android":"levelo://app?vid=1fe9f4ed-4401-4dfb-a0b7-fa6c7584af6a","ios":"levelo://app?vid=1fe9f4ed-4401-4dfb-a0b7-fa6c7584af6a"},"vehicle_type_id":"4","last_reported":1701605544,"current_range_meters":21200,"station_id":"ce4bhgh2rcd13ifvqfb0","pricing_plan_id":"free"},{"bike_id":"8d7a849d-d75b-49e8-8a06-ba3e35d09f67","system_id":"levelo_inurba_marseille","lat":43.24804,"lon":5.37456,"is_reserved":false,"is_disabled":false,"rental_uris":{"android":"levelo://app?vid=8d7a849d-d75b-49e8-8a06-ba3e35d09f67","ios":"levelo://app?vid=8d7a849d-d75b-49e8-8a06-ba3e35d09f67"},"vehicle_type_id":"4","last_reported":1701605544,"current_range_meters":31200,"station_id":"ce4bhgh2rcd13ifvqfb0","pricing_plan_id":"free"},{"bike_id":"8e19b02e-3ee4-4035-84a7-d382315e4a01","system_id":"levelo_inurba_marseille","lat":43.250966,"lon":5.395186,"is_reserved":false,"is_disabled":false,"rental_uris":{"android":"levelo://app?vid=8e19b02e-3ee4-4035-84a7-d382315e4a01","ios":"levelo://app?vid=8e19b02e-3ee4-4035-84a7-d382315e4a01"},"vehicle_type_id":"4","last_reported":1701605544,"current_range_meters":15600,"station_id":"ce4bhm12rcd13ifvqgkg","pricing_plan_id":"free"},{"bike_id":"f7b7af54-47dc-473b-9889-f6994c6ce1f7","system_id":"levelo_inurba_marseille","lat":43.250966,"lon":5.395186,"is_reserved":false,"is_disabled":false,"rental_uris":{"android":"levelo://app?vid=f7b7af54-47dc-473b-9889-f6994c6ce1f7","ios":"levelo://app?vid=f7b7af54-47dc-473b-9889-f6994c6ce1f7"},"vehicle_type_id":"4","last_reported":1701605544,"current_range_meters":21200,"station_id":"ce4bhm12rcd13ifvqgkg","pricing_plan_id":"free"},{"bike_id":"317a5e10-b4f0-4b21-84fd-20965563253f","system_id":"levelo_inurba_marseille","lat":43.250966,"lon":5.395186,"is_reserved":false,"is_disabled":false,"rental_uris":{"android":"levelo://app?vid=317a5e10-b4f0-4b21-84fd-20965563253f","ios":"levelo://app?vid=317a5e10-b4f0-4b21-84fd-20965563253f"},"vehicle_type_id":"4","last_reported":1701605544,"current_range_meters":16000,"station_id":"ce4bhm12rcd13ifvqgkg","pricing_plan_id":"free"},{"bike_id":"d43dee25-9a9a-4632-a4b5-0f0a92b8c810","system_id":"levelo_inurba_marseille","lat":43.25102,"lon":5.403214,"is_reserved":false,"is_disabled":false,"rental_uris":{"android":"levelo://app?vid=d43dee25-9a9a-4632-a4b5-0f0a92b8c810","ios":"levelo://app?vid=d43dee25-9a9a-4632-a4b5-0f0a92b8c810"},"vehicle_type_id":"4","last_reported":1701605544,"current_range_meters":13200,"station_id":"ce4bhlh2rcd13ifvqgig","pricing_plan_id":"free"},{"bike_id":"344d2e4e-b54d-4897-ad5f-02f90554f1ce","system_id":"levelo_inurba_marseille","lat":43.24651,"lon":5.38892,"is_reserved":false,"is_disabled":false,"rental_uris":{"android":"levelo://app?vid=344d2e4e-b54d-4897-ad5f-02f90554f1ce","ios":"levelo://app?vid=344d2e4e-b54d-4897-ad5f-02f90554f1ce"},"vehicle_type_id":"4","last_reported":1701605544,"current_range_meters":4400,"station_id":"ce4bhg12rcd13ifvqf60","pricing_plan_id":"free"},{"bike_id":"61a9e6b0-f435-4470-83bd-a67a85c1a979","system_id":"levelo_inurba_marseille","lat":43.243884,"lon":5.370736,"is_reserved":false,"is_disabled":false,"rental_uris":{"android":"levelo://app?vid=61a9e6b0-f435-4470-83bd-a67a85c1a979","ios":"levelo://app?vid=61a9e6b0-f435-4470-83bd-a67a85c1a979"},"vehicle_type_id":"4","last_reported":1701605544,"current_range_meters":31600,"station_id":"ce4bhhh2rcd13ifvqfk0","pricing_plan_id":"free"},{"bike_id":"6579f0ea-c0df-4b2b-b5ec-d26334381be3","system_id":"levelo_inurba_marseille","lat":43.243884,"lon":5.370737,"is_reserved":false,"is_disabled":false,"rental_uris":{"android":"levelo://app?vid=6579f0ea-c0df-4b2b-b5ec-d26334381be3","ios":"levelo://app?vid=6579f0ea-c0df-4b2b-b5ec-d26334381be3"},"vehicle_type_id":"4","last_reported":1701605544,"current_range_meters":14800,"station_id":"ce4bhhh2rcd13ifvqfk0","pricing_plan_id":"free"},{"bike_id":"906eb523-6642-4f1f-bea7-1d9c586e77f4","system_id":"levelo_inurba_marseille","lat":43.24389,"lon":5.37057,"is_reserved":false,"is_disabled":false,"rental_uris":{"android":"levelo://app?vid=906eb523-6642-4f1f-bea7-1d9c586e77f4","ios":"levelo://app?vid=906eb523-6642-4f1f-bea7-1d9c586e77f4"},"vehicle_type_id":"4","last_reported":1701605544,"current_range_meters":31200,"station_id":"ce4bhhh2rcd13ifvqfk0","pricing_plan_id":"free"},{"bike_id":"581b3e3c-f49b-4afa-b904-b2b4fac016e9","system_id":"levelo_inurba_marseille","lat":43.243884,"lon":5.370736,"is_reserved":false,"is_disabled":false,"rental_uris":{"android":"levelo://app?vid=581b3e3c-f49b-4afa-b904-b2b4fac016e9","ios":"levelo://app?vid=581b3e3c-f49b-4afa-b904-b2b4fac016e9"},"vehicle_type_id":"4","last_reported":1701605544,"current_range_meters":18800,"station_id":"ce4bhhh2rcd13ifvqfk0","pricing_plan_id":"free"},{"bike_id":"a468bfa3-0f10-4318-9c6f-0ec62d97356c","system_id":"levelo_inurba_marseille","lat":43.243884,"lon":5.370737,"is_reserved":false,"is_disabled":false,"rental_uris":{"android":"levelo://app?vid=a468bfa3-0f10-4318-9c6f-0ec62d97356c","ios":"levelo://app?vid=a468bfa3-0f10-4318-9c6f-0ec62d97356c"},"vehicle_type_id":"4","last_reported":1701605544,"current_range_meters":30400,"station_id":"ce4bhhh2rcd13ifvqfk0","pricing_plan_id":"free"},{"bike_id":"84bd67a2-517e-4820-a194-7b5c271e738b","system_id":"levelo_inurba_marseille","lat":43.245581,"lon":5.395069,"is_reserved":false,"is_disabled":false,"rental_uris":{"android":"levelo://app?vid=84bd67a2-517e-4820-a194-7b5c271e738b","ios":"levelo://app?vid=84bd67a2-517e-4820-a194-7b5c271e738b"},"vehicle_type_id":"4","last_reported":1701605544,"current_range_meters":15200,"station_id":"ce4bhlp2rcd13ifvqgjg","pricing_plan_id":"free"},{"bike_id":"52479e7a-7c60-4252-b912-b253df9b275f","system_id":"levelo_inurba_marseille","lat":43.245581,"lon":5.395069,"is_reserved":false,"is_disabled":false,"rental_uris":{"android":"levelo://app?vid=52479e7a-7c60-4252-b912-b253df9b275f","ios":"levelo://app?vid=52479e7a-7c60-4252-b912-b253df9b275f"},"vehicle_type_id":"4","last_reported":1701605544,"current_range_meters":22400,"station_id":"ce4bhlp2rcd13ifvqgjg","pricing_plan_id":"free"},{"bike_id":"16a090c0-6d2f-4d0f-bd13-7a556ed6b6d5","system_id":"levelo_inurba_marseille","lat":43.24074,"lon":5.37761,"is_reserved":false,"is_disabled":false,"rental_uris":{"android":"levelo://app?vid=16a090c0-6d2f-4d0f-bd13-7a556ed6b6d5","ios":"levelo://app?vid=16a090c0-6d2f-4d0f-bd13-7a556ed6b6d5"},"vehicle_type_id":"4","last_reported":1701605544,"current_range_meters":14400,"station_id":"ce4bhnp2rcd13ifvqgvg","pricing_plan_id":"free"},{"bike_id":"6fcbaadf-3494-4341-92cc-db3cbef715ce","system_id":"levelo_inurba_marseille","lat":43.24073,"lon":5.37759,"is_reserved":false,"is_disabled":false,"rental_uris":{"android":"levelo://app?vid=6fcbaadf-3494-4341-92cc-db3cbef715ce","ios":"levelo://app?vid=6fcbaadf-3494-4341-92cc-db3cbef715ce"},"vehicle_type_id":"4","last_reported":1701605544,"current_range_meters":19600,"station_id":"ce4bhnp2rcd13ifvqgvg","pricing_plan_id":"free"},{"bike_id":"6f3d42e4-68d5-44b5-8df7-d97878840c89","system_id":"levelo_inurba_marseille","lat":43.240623,"lon":5.377642,"is_reserved":false,"is_disabled":false,"rental_uris":{"android":"levelo://app?vid=6f3d42e4-68d5-44b5-8df7-d97878840c89","ios":"levelo://app?vid=6f3d42e4-68d5-44b5-8df7-d97878840c89"},"vehicle_type_id":"4","last_reported":1701605544,"current_range_meters":18400,"station_id":"ce4bhnp2rcd13ifvqgvg","pricing_plan_id":"free"},{"bike_id":"155e6110-990b-4911-9866-e301eb91228d","system_id":"levelo_inurba_marseille","lat":43.240623,"lon":5.377642,"is_reserved":false,"is_disabled":false,"rental_uris":{"android":"levelo://app?vid=155e6110-990b-4911-9866-e301eb91228d","ios":"levelo://app?vid=155e6110-990b-4911-9866-e301eb91228d"},"vehicle_type_id":"4","last_reported":1701605544,"current_range_meters":13200,"station_id":"ce4bhnp2rcd13ifvqgvg","pricing_plan_id":"free"},{"bike_id":"b35e7f80-a6b5-4c37-aa6a-7c53399b0c14","system_id":"levelo_inurba_marseille","lat":43.23971,"lon":5.36619,"is_reserved":false,"is_disabled":false,"rental_uris":{"android":"levelo://app?vid=b35e7f80-a6b5-4c37-aa6a-7c53399b0c14","ios":"levelo://app?vid=b35e7f80-a6b5-4c37-aa6a-7c53399b0c14"},"vehicle_type_id":"4","last_reported":1701605544,"current_range_meters":24800,"station_id":"ce4bhi12rcd13ifvqfp0","pricing_plan_id":"free"},{"bike_id":"9e541f21-e105-49bf-9d2f-715124c5b6bc","system_id":"levelo_inurba_marseille","lat":43.239588,"lon":5.366238,"is_reserved":false,"is_disabled":false,"rental_uris":{"android":"levelo://app?vid=9e541f21-e105-49bf-9d2f-715124c5b6bc","ios":"levelo://app?vid=9e541f21-e105-49bf-9d2f-715124c5b6bc"},"vehicle_type_id":"4","last_reported":1701605544,"current_range_meters":25200,"station_id":"ce4bhi12rcd13ifvqfp0","pricing_plan_id":"free"},{"bike_id":"66d07158-1c05-469e-a266-b66692f04cb5","system_id":"levelo_inurba_marseille","lat":43.239588,"lon":5.366238,"is_reserved":false,"is_disabled":false,"rental_uris":{"android":"levelo://app?vid=66d07158-1c05-469e-a266-b66692f04cb5","ios":"levelo://app?vid=66d07158-1c05-469e-a266-b66692f04cb5"},"vehicle_type_id":"4","last_reported":1701605544,"current_range_meters":31600,"station_id":"ce4bhi12rcd13ifvqfp0","pricing_plan_id":"free"},{"bike_id":"9616335e-129b-4f75-ae72-69ae36567887","system_id":"levelo_inurba_marseille","lat":43.239588,"lon":5.366238,"is_reserved":false,"is_disabled":false,"rental_uris":{"android":"levelo://app?vid=9616335e-129b-4f75-ae72-69ae36567887","ios":"levelo://app?vid=9616335e-129b-4f75-ae72-69ae36567887"},"vehicle_type_id":"4","last_reported":1701605544,"current_range_meters":18400,"station_id":"ce4bhi12rcd13ifvqfp0","pricing_plan_id":"free"},{"bike_id":"1f902112-6458-49ba-828e-85a6ba25a536","system_id":"levelo_inurba_marseille","lat":43.239588,"lon":5.366238,"is_reserved":false,"is_disabled":false,"rental_uris":{"android":"levelo://app?vid=1f902112-6458-49ba-828e-85a6ba25a536","ios":"levelo://app?vid=1f902112-6458-49ba-828e-85a6ba25a536"},"vehicle_type_id":"4","last_reported":1701605544,"current_range_meters":3200,"station_id":"ce4bhi12rcd13ifvqfp0","pricing_plan_id":"free"},{"bike_id":"9141e2c9-f6d8-4a9a-8982-1fcda7e3d976","system_id":"levelo_inurba_marseille","lat":43.239588,"lon":5.366238,"is_reserved":false,"is_disabled":false,"rental_uris":{"android":"levelo://app?vid=9141e2c9-f6d8-4a9a-8982-1fcda7e3d976","ios":"levelo://app?vid=9141e2c9-f6d8-4a9a-8982-1fcda7e3d976"},"vehicle_type_id":"4","last_reported":1701605544,"current_range_meters":26800,"station_id":"ce4bhi12rcd13ifvqfp0","pricing_plan_id":"free"},{"bike_id":"b101f295-ac85-402a-8afe-c635c176f114","system_id":"levelo_inurba_marseille","lat":43.28531,"lon":5.46056,"is_reserved":false,"is_disabled":false,"rental_uris":{"android":"levelo://app?vid=b101f295-ac85-402a-8afe-c635c176f114","ios":"levelo://app?vid=b101f295-ac85-402a-8afe-c635c176f114"},"vehicle_type_id":"4","last_reported":1701605544,"current_range_meters":19600,"station_id":"","pricing_plan_id":"free"},{"bike_id":"fc251cc6-b82e-4992-a6b9-4acc14900355","system_id":"levelo_inurba_marseille","lat":43.241782,"lon":5.397261,"is_reserved":false,"is_disabled":false,"rental_uris":{"android":"levelo://app?vid=fc251cc6-b82e-4992-a6b9-4acc14900355","ios":"levelo://app?vid=fc251cc6-b82e-4992-a6b9-4acc14900355"},"vehicle_type_id":"4","last_reported":1701605544,"current_range_meters":22800,"station_id":"ce4bhn12rcd13ifvqgpg","pricing_plan_id":"free"},{"bike_id":"9f7746be-aa54-4a37-ad70-7bf88b7714fd","system_id":"levelo_inurba_marseille","lat":43.241782,"lon":5.397261,"is_reserved":false,"is_disabled":false,"rental_uris":{"android":"levelo://app?vid=9f7746be-aa54-4a37-ad70-7bf88b7714fd","ios":"levelo://app?vid=9f7746be-aa54-4a37-ad70-7bf88b7714fd"},"vehicle_type_id":"4","last_reported":1701605544,"current_range_meters":16400,"station_id":"ce4bhn12rcd13ifvqgpg","pricing_plan_id":"free"},{"bike_id":"efab28f3-6bbe-4dfe-9e31-ccdc6083347d","system_id":"levelo_inurba_marseille","lat":43.241782,"lon":5.397261,"is_reserved":false,"is_disabled":false,"rental_uris":{"android":"levelo://app?vid=efab28f3-6bbe-4dfe-9e31-ccdc6083347d","ios":"levelo://app?vid=efab28f3-6bbe-4dfe-9e31-ccdc6083347d"},"vehicle_type_id":"4","last_reported":1701605544,"current_range_meters":400,"station_id":"ce4bhn12rcd13ifvqgpg","pricing_plan_id":"free"},{"bike_id":"9e01ee59-41e6-425c-ae1f-3e33312fefcd","system_id":"levelo_inurba_marseille","lat":43.231923,"lon":5.355545,"is_reserved":false,"is_disabled":false,"rental_uris":{"android":"levelo://app?vid=9e01ee59-41e6-425c-ae1f-3e33312fefcd","ios":"levelo://app?vid=9e01ee59-41e6-425c-ae1f-3e33312fefcd"},"vehicle_type_id":"4","last_reported":1701605544,"current_range_meters":16800,"station_id":"ce4bhu92rcd13ifvqi70","pricing_plan_id":"free"},{"bike_id":"58d4edcd-4441-486c-8457-28ebda4ac431","system_id":"levelo_inurba_marseille","lat":43.23198,"lon":5.35551,"is_reserved":false,"is_disabled":false,"rental_uris":{"android":"levelo://app?vid=58d4edcd-4441-486c-8457-28ebda4ac431","ios":"levelo://app?vid=58d4edcd-4441-486c-8457-28ebda4ac431"},"vehicle_type_id":"4","last_reported":1701605544,"current_range_meters":20400,"station_id":"ce4bhu92rcd13ifvqi70","pricing_plan_id":"free"},{"bike_id":"6573cb36-3c40-4042-8b0f-1356381ee019","system_id":"levelo_inurba_marseille","lat":43.231923,"lon":5.355545,"is_reserved":false,"is_disabled":false,"rental_uris":{"android":"levelo://app?vid=6573cb36-3c40-4042-8b0f-1356381ee019","ios":"levelo://app?vid=6573cb36-3c40-4042-8b0f-1356381ee019"},"vehicle_type_id":"4","last_reported":1701605544,"current_range_meters":28800,"station_id":"ce4bhu92rcd13ifvqi70","pricing_plan_id":"free"},{"bike_id":"cc63aece-497e-49db-86a0-e2c21e8d86af","system_id":"levelo_inurba_marseille","lat":43.231919,"lon":5.355532,"is_reserved":false,"is_disabled":false,"rental_uris":{"android":"levelo://app?vid=cc63aece-497e-49db-86a0-e2c21e8d86af","ios":"levelo://app?vid=cc63aece-497e-49db-86a0-e2c21e8d86af"},"vehicle_type_id":"4","last_reported":1701605544,"current_range_meters":20000,"station_id":"ce4bhu92rcd13ifvqi70","pricing_plan_id":"free"},{"bike_id":"6041d620-664b-4836-b597-a0e62593a032","system_id":"levelo_inurba_marseille","lat":43.231923,"lon":5.355545,"is_reserved":false,"is_disabled":false,"rental_uris":{"android":"levelo://app?vid=6041d620-664b-4836-b597-a0e62593a032","ios":"levelo://app?vid=6041d620-664b-4836-b597-a0e62593a032"},"vehicle_type_id":"4","last_reported":1701605544,"current_range_meters":29200,"station_id":"ce4bhu92rcd13ifvqi70","pricing_plan_id":"free"},{"bike_id":"6462fbc5-ceb8-47e3-b56d-fc1e69bef19f","system_id":"levelo_inurba_marseille","lat":43.231919,"lon":5.355532,"is_reserved":false,"is_disabled":false,"rental_uris":{"android":"levelo://app?vid=6462fbc5-ceb8-47e3-b56d-fc1e69bef19f","ios":"levelo://app?vid=6462fbc5-ceb8-47e3-b56d-fc1e69bef19f"},"vehicle_type_id":"4","last_reported":1701605544,"current_range_meters":26000,"station_id":"ce4bhu92rcd13ifvqi70","pricing_plan_id":"free"},{"bike_id":"c384cc79-d05c-49b7-9293-603bcf5d3796","system_id":"levelo_inurba_marseille","lat":43.231919,"lon":5.355532,"is_reserved":false,"is_disabled":false,"rental_uris":{"android":"levelo://app?vid=c384cc79-d05c-49b7-9293-603bcf5d3796","ios":"levelo://app?vid=c384cc79-d05c-49b7-9293-603bcf5d3796"},"vehicle_type_id":"4","last_reported":1701605544,"current_range_meters":6800,"station_id":"ce4bhu92rcd13ifvqi70","pricing_plan_id":"free"},{"bike_id":"4506c45e-2d09-462d-97b5-d051c36d1044","system_id":"levelo_inurba_marseille","lat":43.231919,"lon":5.355532,"is_reserved":false,"is_disabled":false,"rental_uris":{"android":"levelo://app?vid=4506c45e-2d09-462d-97b5-d051c36d1044","ios":"levelo://app?vid=4506c45e-2d09-462d-97b5-d051c36d1044"},"vehicle_type_id":"4","last_reported":1701605544,"current_range_meters":28000,"station_id":"ce4bhu92rcd13ifvqi70","pricing_plan_id":"free"},{"bike_id":"177a82e2-68da-4975-a68b-b32649f3d1f2","system_id":"levelo_inurba_marseille","lat":43.231923,"lon":5.355545,"is_reserved":false,"is_disabled":false,"rental_uris":{"android":"levelo://app?vid=177a82e2-68da-4975-a68b-b32649f3d1f2","ios":"levelo://app?vid=177a82e2-68da-4975-a68b-b32649f3d1f2"},"vehicle_type_id":"4","last_reported":1701605544,"current_range_meters":9200,"station_id":"ce4bhu92rcd13ifvqi70","pricing_plan_id":"free"},{"bike_id":"6382809b-45d0-4ad2-8be7-697249f82077","system_id":"levelo_inurba_marseille","lat":43.231919,"lon":5.355532,"is_reserved":false,"is_disabled":false,"rental_uris":{"android":"levelo://app?vid=6382809b-45d0-4ad2-8be7-697249f82077","ios":"levelo://app?vid=6382809b-45d0-4ad2-8be7-697249f82077"},"vehicle_type_id":"4","last_reported":1701605544,"current_range_meters":31600,"station_id":"ce4bhu92rcd13ifvqi70","pricing_plan_id":"free"},{"bike_id":"4dae0f2e-3beb-46e8-877b-0143e05c3e8e","system_id":"levelo_inurba_marseille","lat":43.231919,"lon":5.355532,"is_reserved":false,"is_disabled":false,"rental_uris":{"android":"levelo://app?vid=4dae0f2e-3beb-46e8-877b-0143e05c3e8e","ios":"levelo://app?vid=4dae0f2e-3beb-46e8-877b-0143e05c3e8e"},"vehicle_type_id":"4","last_reported":1701605544,"current_range_meters":28800,"station_id":"ce4bhu92rcd13ifvqi70","pricing_plan_id":"free"},{"bike_id":"cf3102c4-88e0-4a41-86b7-69a76932d3e6","system_id":"levelo_inurba_marseille","lat":43.231923,"lon":5.355545,"is_reserved":false,"is_disabled":false,"rental_uris":{"android":"levelo://app?vid=cf3102c4-88e0-4a41-86b7-69a76932d3e6","ios":"levelo://app?vid=cf3102c4-88e0-4a41-86b7-69a76932d3e6"},"vehicle_type_id":"4","last_reported":1701605544,"current_range_meters":31600,"station_id":"ce4bhu92rcd13ifvqi70","pricing_plan_id":"free"},{"bike_id":"90a66033-92d6-4ce5-9800-5d20674c66dd","system_id":"levelo_inurba_marseille","lat":43.231929,"lon":5.355484,"is_reserved":false,"is_disabled":false,"rental_uris":{"android":"levelo://app?vid=90a66033-92d6-4ce5-9800-5d20674c66dd","ios":"levelo://app?vid=90a66033-92d6-4ce5-9800-5d20674c66dd"},"vehicle_type_id":"4","last_reported":1701605544,"current_range_meters":29600,"station_id":"ce4bhu92rcd13ifvqi70","pricing_plan_id":"free"},{"bike_id":"b8f295a9-10f8-4746-b4a0-4491480d1fc4","system_id":"levelo_inurba_marseille","lat":43.231919,"lon":5.355532,"is_reserved":false,"is_disabled":false,"rental_uris":{"android":"levelo://app?vid=b8f295a9-10f8-4746-b4a0-4491480d1fc4","ios":"levelo://app?vid=b8f295a9-10f8-4746-b4a0-4491480d1fc4"},"vehicle_type_id":"4","last_reported":1701605544,"current_range_meters":20800,"station_id":"ce4bhu92rcd13ifvqi70","pricing_plan_id":"free"},{"bike_id":"a2778a75-2f32-457d-810c-ad5c32010803","system_id":"levelo_inurba_marseille","lat":43.23192,"lon":5.35553,"is_reserved":false,"is_disabled":false,"rental_uris":{"android":"levelo://app?vid=a2778a75-2f32-457d-810c-ad5c32010803","ios":"levelo://app?vid=a2778a75-2f32-457d-810c-ad5c32010803"},"vehicle_type_id":"4","last_reported":1701605544,"current_range_meters":20400,"station_id":"ce4bhu92rcd13ifvqi70","pricing_plan_id":"free"},{"bike_id":"71bf2f34-6f1d-4c95-bf1c-5bb61de13cd3","system_id":"levelo_inurba_marseille","lat":43.231919,"lon":5.355532,"is_reserved":false,"is_disabled":false,"rental_uris":{"android":"levelo://app?vid=71bf2f34-6f1d-4c95-bf1c-5bb61de13cd3","ios":"levelo://app?vid=71bf2f34-6f1d-4c95-bf1c-5bb61de13cd3"},"vehicle_type_id":"4","last_reported":1701605544,"current_range_meters":9200,"station_id":"ce4bhu92rcd13ifvqi70","pricing_plan_id":"free"},{"bike_id":"384a17af-27e8-4164-b8c0-d8b51c5b0eac","system_id":"levelo_inurba_marseille","lat":43.231923,"lon":5.355545,"is_reserved":false,"is_disabled":false,"rental_uris":{"android":"levelo://app?vid=384a17af-27e8-4164-b8c0-d8b51c5b0eac","ios":"levelo://app?vid=384a17af-27e8-4164-b8c0-d8b51c5b0eac"},"vehicle_type_id":"4","last_reported":1701605544,"current_range_meters":8000,"station_id":"ce4bhu92rcd13ifvqi70","pricing_plan_id":"free"},{"bike_id":"df76bb33-a4ef-4a36-a72d-84c57504fc7a","system_id":"levelo_inurba_marseille","lat":43.231895,"lon":5.355438,"is_reserved":false,"is_disabled":false,"rental_uris":{"android":"levelo://app?vid=df76bb33-a4ef-4a36-a72d-84c57504fc7a","ios":"levelo://app?vid=df76bb33-a4ef-4a36-a72d-84c57504fc7a"},"vehicle_type_id":"4","last_reported":1701605544,"current_range_meters":29600,"station_id":"ce4bhu92rcd13ifvqi70","pricing_plan_id":"free"},{"bike_id":"4e176977-ccb9-4a01-b3da-279fd61eadf6","system_id":"levelo_inurba_marseille","lat":43.231919,"lon":5.355532,"is_reserved":false,"is_disabled":false,"rental_uris":{"android":"levelo://app?vid=4e176977-ccb9-4a01-b3da-279fd61eadf6","ios":"levelo://app?vid=4e176977-ccb9-4a01-b3da-279fd61eadf6"},"vehicle_type_id":"4","last_reported":1701605544,"current_range_meters":19200,"station_id":"ce4bhu92rcd13ifvqi70","pricing_plan_id":"free"},{"bike_id":"cb3c5614-5a37-4ab8-a51e-8b81ebb4f897","system_id":"levelo_inurba_marseille","lat":43.231919,"lon":5.355532,"is_reserved":false,"is_disabled":false,"rental_uris":{"android":"levelo://app?vid=cb3c5614-5a37-4ab8-a51e-8b81ebb4f897","ios":"levelo://app?vid=cb3c5614-5a37-4ab8-a51e-8b81ebb4f897"},"vehicle_type_id":"4","last_reported":1701605544,"current_range_meters":12800,"station_id":"ce4bhu92rcd13ifvqi70","pricing_plan_id":"free"},{"bike_id":"8d45e79f-ff9f-47c8-88d6-90acf191ca53","system_id":"levelo_inurba_marseille","lat":43.231919,"lon":5.355532,"is_reserved":false,"is_disabled":false,"rental_uris":{"android":"levelo://app?vid=8d45e79f-ff9f-47c8-88d6-90acf191ca53","ios":"levelo://app?vid=8d45e79f-ff9f-47c8-88d6-90acf191ca53"},"vehicle_type_id":"4","last_reported":1701605544,"current_range_meters":13200,"station_id":"ce4bhu92rcd13ifvqi70","pricing_plan_id":"free"},{"bike_id":"2b04708e-eed8-4471-916a-9fdeea01eec7","system_id":"levelo_inurba_marseille","lat":43.231923,"lon":5.355545,"is_reserved":false,"is_disabled":false,"rental_uris":{"android":"levelo://app?vid=2b04708e-eed8-4471-916a-9fdeea01eec7","ios":"levelo://app?vid=2b04708e-eed8-4471-916a-9fdeea01eec7"},"vehicle_type_id":"4","last_reported":1701605544,"current_range_meters":14400,"station_id":"ce4bhu92rcd13ifvqi70","pricing_plan_id":"free"},{"bike_id":"c94cd651-5b31-4f60-81a4-da3f4ff98e56","system_id":"levelo_inurba_marseille","lat":43.231817,"lon":5.355457,"is_reserved":false,"is_disabled":false,"rental_uris":{"android":"levelo://app?vid=c94cd651-5b31-4f60-81a4-da3f4ff98e56","ios":"levelo://app?vid=c94cd651-5b31-4f60-81a4-da3f4ff98e56"},"vehicle_type_id":"4","last_reported":1701605544,"current_range_meters":11200,"station_id":"ce4bhu92rcd13ifvqi70","pricing_plan_id":"free"},{"bike_id":"88cf855f-bb31-40e0-8afc-686df3c193ab","system_id":"levelo_inurba_marseille","lat":43.231794,"lon":5.400052,"is_reserved":false,"is_disabled":false,"rental_uris":{"android":"levelo://app?vid=88cf855f-bb31-40e0-8afc-686df3c193ab","ios":"levelo://app?vid=88cf855f-bb31-40e0-8afc-686df3c193ab"},"vehicle_type_id":"4","last_reported":1701605544,"current_range_meters":28400,"station_id":"ce4bhn12rcd13ifvqgqg","pricing_plan_id":"free"},{"bike_id":"a926f4bb-1e59-4822-80ea-1d5ff6f2a5c5","system_id":"levelo_inurba_marseille","lat":43.231889,"lon":5.399816,"is_reserved":false,"is_disabled":false,"rental_uris":{"android":"levelo://app?vid=a926f4bb-1e59-4822-80ea-1d5ff6f2a5c5","ios":"levelo://app?vid=a926f4bb-1e59-4822-80ea-1d5ff6f2a5c5"},"vehicle_type_id":"4","last_reported":1701605544,"current_range_meters":15200,"station_id":"ce4bhn12rcd13ifvqgqg","pricing_plan_id":"free"},{"bike_id":"f6a4d21f-0207-4de1-809a-2aeb708eeda4","system_id":"levelo_inurba_marseille","lat":43.23189,"lon":5.39988,"is_reserved":false,"is_disabled":false,"rental_uris":{"android":"levelo://app?vid=f6a4d21f-0207-4de1-809a-2aeb708eeda4","ios":"levelo://app?vid=f6a4d21f-0207-4de1-809a-2aeb708eeda4"},"vehicle_type_id":"4","last_reported":1701605544,"current_range_meters":16000,"station_id":"ce4bhn12rcd13ifvqgqg","pricing_plan_id":"free"},{"bike_id":"27852c29-47dc-4826-817e-c88bd3a0386e","system_id":"levelo_inurba_marseille","lat":43.231874,"lon":5.399822,"is_reserved":false,"is_disabled":false,"rental_uris":{"android":"levelo://app?vid=27852c29-47dc-4826-817e-c88bd3a0386e","ios":"levelo://app?vid=27852c29-47dc-4826-817e-c88bd3a0386e"},"vehicle_type_id":"4","last_reported":1701605544,"current_range_meters":18400,"station_id":"ce4bhn12rcd13ifvqgqg","pricing_plan_id":"free"},{"bike_id":"22bd98e3-c33f-4c44-ae2b-f96729d36f4f","system_id":"levelo_inurba_marseille","lat":43.231793,"lon":5.400044,"is_reserved":false,"is_disabled":false,"rental_uris":{"android":"levelo://app?vid=22bd98e3-c33f-4c44-ae2b-f96729d36f4f","ios":"levelo://app?vid=22bd98e3-c33f-4c44-ae2b-f96729d36f4f"},"vehicle_type_id":"4","last_reported":1701605544,"current_range_meters":30400,"station_id":"ce4bhn12rcd13ifvqgqg","pricing_plan_id":"free"},{"bike_id":"d7955d6f-88ae-4e83-97c1-4a0668d076f6","system_id":"levelo_inurba_marseille","lat":43.23188,"lon":5.39986,"is_reserved":false,"is_disabled":false,"rental_uris":{"android":"levelo://app?vid=d7955d6f-88ae-4e83-97c1-4a0668d076f6","ios":"levelo://app?vid=d7955d6f-88ae-4e83-97c1-4a0668d076f6"},"vehicle_type_id":"4","last_reported":1701605544,"current_range_meters":19200,"station_id":"ce4bhn12rcd13ifvqgqg","pricing_plan_id":"free"},{"bike_id":"e47e98e0-4256-4c41-ae86-e531a41b9213","system_id":"levelo_inurba_marseille","lat":43.231794,"lon":5.400052,"is_reserved":false,"is_disabled":false,"rental_uris":{"android":"levelo://app?vid=e47e98e0-4256-4c41-ae86-e531a41b9213","ios":"levelo://app?vid=e47e98e0-4256-4c41-ae86-e531a41b9213"},"vehicle_type_id":"4","last_reported":1701605544,"current_range_meters":31600,"station_id":"ce4bhn12rcd13ifvqgqg","pricing_plan_id":"free"},{"bike_id":"77b1a551-da7f-429a-980e-bfc6767a5958","system_id":"levelo_inurba_marseille","lat":43.231794,"lon":5.400052,"is_reserved":false,"is_disabled":false,"rental_uris":{"android":"levelo://app?vid=77b1a551-da7f-429a-980e-bfc6767a5958","ios":"levelo://app?vid=77b1a551-da7f-429a-980e-bfc6767a5958"},"vehicle_type_id":"4","last_reported":1701605544,"current_range_meters":31600,"station_id":"ce4bhn12rcd13ifvqgqg","pricing_plan_id":"free"},{"bike_id":"d0b35396-6769-42d4-8160-8b44cb829902","system_id":"levelo_inurba_marseille","lat":43.231866,"lon":5.399881,"is_reserved":false,"is_disabled":false,"rental_uris":{"android":"levelo://app?vid=d0b35396-6769-42d4-8160-8b44cb829902","ios":"levelo://app?vid=d0b35396-6769-42d4-8160-8b44cb829902"},"vehicle_type_id":"4","last_reported":1701605544,"current_range_meters":29200,"station_id":"ce4bhn12rcd13ifvqgqg","pricing_plan_id":"free"},{"bike_id":"3fdd6789-d52a-4c7f-96f4-f754cbf436d6","system_id":"levelo_inurba_marseille","lat":43.23183,"lon":5.39977,"is_reserved":false,"is_disabled":false,"rental_uris":{"android":"levelo://app?vid=3fdd6789-d52a-4c7f-96f4-f754cbf436d6","ios":"levelo://app?vid=3fdd6789-d52a-4c7f-96f4-f754cbf436d6"},"vehicle_type_id":"4","last_reported":1701605544,"current_range_meters":12400,"station_id":"ce4bhn12rcd13ifvqgqg","pricing_plan_id":"free"},{"bike_id":"6bd9f065-50d9-4657-9ca0-a006f413d305","system_id":"levelo_inurba_marseille","lat":43.231794,"lon":5.400052,"is_reserved":false,"is_disabled":false,"rental_uris":{"android":"levelo://app?vid=6bd9f065-50d9-4657-9ca0-a006f413d305","ios":"levelo://app?vid=6bd9f065-50d9-4657-9ca0-a006f413d305"},"vehicle_type_id":"4","last_reported":1701605544,"current_range_meters":31600,"station_id":"ce4bhn12rcd13ifvqgqg","pricing_plan_id":"free"},{"bike_id":"4ee99995-f63f-4ddb-ac4b-88a5ee23324c","system_id":"levelo_inurba_marseille","lat":43.231826,"lon":5.399824,"is_reserved":false,"is_disabled":false,"rental_uris":{"android":"levelo://app?vid=4ee99995-f63f-4ddb-ac4b-88a5ee23324c","ios":"levelo://app?vid=4ee99995-f63f-4ddb-ac4b-88a5ee23324c"},"vehicle_type_id":"4","last_reported":1701605544,"current_range_meters":14000,"station_id":"ce4bhn12rcd13ifvqgqg","pricing_plan_id":"free"},{"bike_id":"ddecb7a7-8295-4a56-96b7-ae63ab6d05c4","system_id":"levelo_inurba_marseille","lat":43.231794,"lon":5.400052,"is_reserved":false,"is_disabled":false,"rental_uris":{"android":"levelo://app?vid=ddecb7a7-8295-4a56-96b7-ae63ab6d05c4","ios":"levelo://app?vid=ddecb7a7-8295-4a56-96b7-ae63ab6d05c4"},"vehicle_type_id":"4","last_reported":1701605544,"current_range_meters":20800,"station_id":"ce4bhn12rcd13ifvqgqg","pricing_plan_id":"free"},{"bike_id":"83862a0a-d647-45eb-9884-693fce6366ab","system_id":"levelo_inurba_marseille","lat":43.23183,"lon":5.39985,"is_reserved":false,"is_disabled":false,"rental_uris":{"android":"levelo://app?vid=83862a0a-d647-45eb-9884-693fce6366ab","ios":"levelo://app?vid=83862a0a-d647-45eb-9884-693fce6366ab"},"vehicle_type_id":"4","last_reported":1701605544,"current_range_meters":14000,"station_id":"ce4bhn12rcd13ifvqgqg","pricing_plan_id":"free"},{"bike_id":"d8ad9864-eb6b-4faa-b8e1-e2e245ce7f97","system_id":"levelo_inurba_marseille","lat":43.23184,"lon":5.39992,"is_reserved":false,"is_disabled":false,"rental_uris":{"android":"levelo://app?vid=d8ad9864-eb6b-4faa-b8e1-e2e245ce7f97","ios":"levelo://app?vid=d8ad9864-eb6b-4faa-b8e1-e2e245ce7f97"},"vehicle_type_id":"4","last_reported":1701605544,"current_range_meters":16000,"station_id":"ce4bhn12rcd13ifvqgqg","pricing_plan_id":"free"},{"bike_id":"b2dc27fe-d3dd-4dd0-b015-108c88d15d4b","system_id":"levelo_inurba_marseille","lat":43.23182,"lon":5.39985,"is_reserved":false,"is_disabled":false,"rental_uris":{"android":"levelo://app?vid=b2dc27fe-d3dd-4dd0-b015-108c88d15d4b","ios":"levelo://app?vid=b2dc27fe-d3dd-4dd0-b015-108c88d15d4b"},"vehicle_type_id":"4","last_reported":1701605544,"current_range_meters":11200,"station_id":"ce4bhn12rcd13ifvqgqg","pricing_plan_id":"free"},{"bike_id":"3ca2546c-f9ed-464d-b941-53a82f5e8048","system_id":"levelo_inurba_marseille","lat":43.231794,"lon":5.400052,"is_reserved":false,"is_disabled":false,"rental_uris":{"android":"levelo://app?vid=3ca2546c-f9ed-464d-b941-53a82f5e8048","ios":"levelo://app?vid=3ca2546c-f9ed-464d-b941-53a82f5e8048"},"vehicle_type_id":"4","last_reported":1701605544,"current_range_meters":10400,"station_id":"ce4bhn12rcd13ifvqgqg","pricing_plan_id":"free"},{"bike_id":"b105d208-97c4-48d5-92c0-d47140eb7ea4","system_id":"levelo_inurba_marseille","lat":43.23178,"lon":5.39983,"is_reserved":false,"is_disabled":false,"rental_uris":{"android":"levelo://app?vid=b105d208-97c4-48d5-92c0-d47140eb7ea4","ios":"levelo://app?vid=b105d208-97c4-48d5-92c0-d47140eb7ea4"},"vehicle_type_id":"4","last_reported":1701605544,"current_range_meters":20400,"station_id":"ce4bhn12rcd13ifvqgqg","pricing_plan_id":"free"},{"bike_id":"457c552c-8af5-4b7b-9f6b-8c901265a623","system_id":"levelo_inurba_marseille","lat":43.2318,"lon":5.39993,"is_reserved":false,"is_disabled":false,"rental_uris":{"android":"levelo://app?vid=457c552c-8af5-4b7b-9f6b-8c901265a623","ios":"levelo://app?vid=457c552c-8af5-4b7b-9f6b-8c901265a623"},"vehicle_type_id":"4","last_reported":1701605544,"current_range_meters":28800,"station_id":"ce4bhn12rcd13ifvqgqg","pricing_plan_id":"free"},{"bike_id":"c843e4be-9452-47bc-86e6-0971bd283d7a","system_id":"levelo_inurba_marseille","lat":43.290345,"lon":5.38646,"is_reserved":false,"is_disabled":false,"rental_uris":{"android":"levelo://app?vid=c843e4be-9452-47bc-86e6-0971bd283d7a","ios":"levelo://app?vid=c843e4be-9452-47bc-86e6-0971bd283d7a"},"vehicle_type_id":"4","last_reported":1701605544,"current_range_meters":26800,"station_id":"ce4bh4p2rcd13ifvqe0g","pricing_plan_id":"free"},{"bike_id":"1d24308f-8432-4b71-8a23-8e0a6011ea0d","system_id":"levelo_inurba_marseille","lat":43.231562,"lon":5.436933,"is_reserved":false,"is_disabled":false,"rental_uris":{"android":"levelo://app?vid=1d24308f-8432-4b71-8a23-8e0a6011ea0d","ios":"levelo://app?vid=1d24308f-8432-4b71-8a23-8e0a6011ea0d"},"vehicle_type_id":"4","last_reported":1701605544,"current_range_meters":26400,"station_id":"ce4bhmp2rcd13ifvqgog","pricing_plan_id":"free"},{"bike_id":"419c9e3c-50b9-4549-9036-421367ac4707","system_id":"levelo_inurba_marseille","lat":43.231562,"lon":5.436933,"is_reserved":false,"is_disabled":false,"rental_uris":{"android":"levelo://app?vid=419c9e3c-50b9-4549-9036-421367ac4707","ios":"levelo://app?vid=419c9e3c-50b9-4549-9036-421367ac4707"},"vehicle_type_id":"4","last_reported":1701605544,"current_range_meters":28800,"station_id":"ce4bhmp2rcd13ifvqgog","pricing_plan_id":"free"}]}}