{"last_updated":1684184755,"ttl":30,"version":"2.2","data":{"bikes":[{"bike_id":"f63fca29-6f7b-4ca0-adfe-788c81c4c7fb","system_id":"levelo_inurba_marseille","lat":43.31341,"lon":5.367098,"is_reserved":false,"is_disabled":false,"rental_uris":{"android":"levelo://app?vid=f63fca29-6f7b-4ca0-adfe-788c81c4c7fb","ios":"levelo://app?vid=f63fca29-6f7b-4ca0-adfe-788c81c4c7fb"},"vehicle_type_id":"4","last_reported":1684184756,"current_range_meters":31600,"station_id":"ce4bgr92rcd13ifvqc6g","pricing_plan_id":"free"},{"bike_id":"af9f2914-0cd2-4259-bdbc-4b3a542c928e","system_id":"levelo_inurba_marseille","lat":43.31225,"lon":5.368624,"is_reserved":false,"is_disabled":false,"rental_uris":{"android":"levelo://app?vid=af9f2914-0cd2-4259-bdbc-4b3a542c928e","ios":"levelo://app?vid=af9f2914-0cd2-4259-bdbc-4b3a542c928e"},"vehicle_type_id":"4","last_reported":1684184756,"current_range_meters":26000,"station_id":"ce4bgl92rcd13ifvqbq0","pricing_plan_id":"free"},{"bike_id":"b5d3d762-fcff-4158-96a6-ae743a5faf77","system_id":"levelo_inurba_marseille","lat":43.312239,"lon":5.368562,"is_reserved":false,"is_disabled":false,"rental_uris":{"android":"levelo://app?vid=b5d3d762-fcff-4158-96a6-ae743a5faf77","ios":"levelo://app?vid=b5d3d762-fcff-4158-96a6-ae743a5faf77"},"vehicle_type_id":"4","last_reported":1684184756,"current_range_meters":18400,"station_id":"ce4bgl92rcd13ifvqbq0","pricing_plan_id":"free"},{"bike_id":"1252d705-6be9-493d-9977-2129c2ff0ef7","system_id":"levelo_inurba_marseille","lat":43.312239,"lon":5.368562,"is_reserved":false,"is_disabled":false,"rental_uris":{"android":"levelo://app?vid=1252d705-6be9-493d-9977-2129c2ff0ef7","ios":"levelo://app?vid=1252d705-6be9-493d-9977-2129c2ff0ef7"},"vehicle_type_id":"4","last_reported":1684184756,"current_range_meters":24800,"station_id":"ce4bgl92rcd13ifvqbq0","pricing_plan_id":"free"},{"bike_id":"d4c39e0d-39df-4688-a500-9b2045e3cfe7","system_id":"levelo_inurba_marseille","lat":43.312239,"lon":5.368562,"is_reserved":false,"is_disabled":false,"rental_uris":{"android":"levelo://app?vid=d4c39e0d-39df-4688-a500-9b2045e3cfe7","ios":"levelo://app?vid=d4c39e0d-39df-4688-a500-9b2045e3cfe7"},"vehicle_type_id":"4","last_reported":1684184756,"current_range_meters":30800,"station_id":"ce4bgl92rcd13ifvqbq0","pricing_plan_id":"free"},{"bike_id":"a4f0640b-35b4-4f72-8100-0fdcab0314d8","system_id":"levelo_inurba_marseille","lat":43.312239,"lon":5.368562,"is_reserved":false,"is_disabled":false,"rental_uris":{"android":"levelo://app?vid=a4f0640b-35b4-4f72-8100-0fdcab0314d8","ios":"levelo://app?vid=a4f0640b-35b4-4f72-8100-0fdcab0314d8"},"vehicle_type_id":"4","last_reported":1684184756,"current_range_meters":31200,"station_id":"ce4bgl92rcd13ifvqbq0","pricing_plan_id":"free"},{"bike_id":"60df91d9-3e8d-4ee3-a49d-83aa6488cc9e","system_id":"levelo_inurba_marseille","lat":43.312239,"lon":5.368562,"is_reserved":false,"is_disabled":false,"rental_uris":{"android":"levelo://app?vid=60df91d9-3e8d-4ee3-a49d-83aa6488cc9e","ios":"levelo://app?vid=60df91d9-3e8d-4ee3-a49d-83aa6488cc9e"},"vehicle_type_id":"4","last_reported":1684184756,"current_range_meters":31200,"station_id":"ce4bgl92rcd13ifvqbq0","pricing_plan_id":"free"},{"bike_id":"74c57665-a6b8-4059-b3a2-7ef849f5e564","system_id":"levelo_inurba_marseille","lat":43.309076,"lon":5.368465,"is_reserved":false,"is_disabled":false,"rental_uris":{"android":"levelo://app?vid=74c57665-a6b8-4059-b3a2-7ef849f5e564","ios":"levelo://app?vid=74c57665-a6b8-4059-b3a2-7ef849f5e564"},"vehicle_type_id":"4","last_reported":1684184756,"current_range_meters":19200,"station_id":"ce4bgn92rcd13ifvqbvg","pricing_plan_id":"free"},{"bike_id":"a3efde57-184a-409b-9639-411a67cfc638","system_id":"levelo_inurba_marseille","lat":43.309076,"lon":5.368465,"is_reserved":false,"is_disabled":false,"rental_uris":{"android":"levelo://app?vid=a3efde57-184a-409b-9639-411a67cfc638","ios":"levelo://app?vid=a3efde57-184a-409b-9639-411a67cfc638"},"vehicle_type_id":"4","last_reported":1684184756,"current_range_meters":3200,"station_id":"ce4bgn92rcd13ifvqbvg","pricing_plan_id":"free"},{"bike_id":"78f2603f-0cf2-43a3-8696-18ee262e331f","system_id":"levelo_inurba_marseille","lat":43.314811,"lon":5.373103,"is_reserved":false,"is_disabled":false,"rental_uris":{"android":"levelo://app?vid=78f2603f-0cf2-43a3-8696-18ee262e331f","ios":"levelo://app?vid=78f2603f-0cf2-43a3-8696-18ee262e331f"},"vehicle_type_id":"4","last_reported":1684184756,"current_range_meters":27200,"station_id":"ce4bgt12rcd13ifvqcd0","pricing_plan_id":"free"},{"bike_id":"7ed5f53c-6549-48cf-a757-580d2fcfbc0d","system_id":"levelo_inurba_marseille","lat":43.314811,"lon":5.373104,"is_reserved":false,"is_disabled":false,"rental_uris":{"android":"levelo://app?vid=7ed5f53c-6549-48cf-a757-580d2fcfbc0d","ios":"levelo://app?vid=7ed5f53c-6549-48cf-a757-580d2fcfbc0d"},"vehicle_type_id":"4","last_reported":1684184756,"current_range_meters":31200,"station_id":"ce4bgt12rcd13ifvqcd0","pricing_plan_id":"free"},{"bike_id":"2f11cd2c-4d01-4456-b483-9c5ecce10f33","system_id":"levelo_inurba_marseille","lat":43.30889,"lon":5.37204,"is_reserved":false,"is_disabled":false,"rental_uris":{"android":"levelo://app?vid=2f11cd2c-4d01-4456-b483-9c5ecce10f33","ios":"levelo://app?vid=2f11cd2c-4d01-4456-b483-9c5ecce10f33"},"vehicle_type_id":"4","last_reported":1684184756,"current_range_meters":0,"station_id":"","pricing_plan_id":"free"},{"bike_id":"f560fd9d-9152-48da-b6b7-132a7a4e1e57","system_id":"levelo_inurba_marseille","lat":43.30588,"lon":5.36563,"is_reserved":false,"is_disabled":false,"rental_uris":{"android":"levelo://app?vid=f560fd9d-9152-48da-b6b7-132a7a4e1e57","ios":"levelo://app?vid=f560fd9d-9152-48da-b6b7-132a7a4e1e57"},"vehicle_type_id":"4","last_reported":1684184756,"current_range_meters":6000,"station_id":"","pricing_plan_id":"free"},{"bike_id":"1304d0f2-c274-46f5-a132-e09d87ce3505","system_id":"levelo_inurba_marseille","lat":43.317075,"lon":5.377367,"is_reserved":false,"is_disabled":false,"rental_uris":{"android":"levelo://app?vid=1304d0f2-c274-46f5-a132-e09d87ce3505","ios":"levelo://app?vid=1304d0f2-c274-46f5-a132-e09d87ce3505"},"vehicle_type_id":"4","last_reported":1684184756,"current_range_meters":27600,"station_id":"ce4bgth2rcd13ifvqch0","pricing_plan_id":"free"},{"bike_id":"3cbf67f6-453f-436d-9a58-299854b35a9f","system_id":"levelo_inurba_marseille","lat":43.317075,"lon":5.377367,"is_reserved":false,"is_disabled":false,"rental_uris":{"android":"levelo://app?vid=3cbf67f6-453f-436d-9a58-299854b35a9f","ios":"levelo://app?vid=3cbf67f6-453f-436d-9a58-299854b35a9f"},"vehicle_type_id":"4","last_reported":1684184756,"current_range_meters":4400,"station_id":"ce4bgth2rcd13ifvqch0","pricing_plan_id":"free"},{"bike_id":"7fe0f161-39e0-4dfb-84cd-2ce3032115c5","system_id":"levelo_inurba_marseille","lat":43.315293,"lon":5.380349,"is_reserved":false,"is_disabled":false,"rental_uris":{"android":"levelo://app?vid=7fe0f161-39e0-4dfb-84cd-2ce3032115c5","ios":"levelo://app?vid=7fe0f161-39e0-4dfb-84cd-2ce3032115c5"},"vehicle_type_id":"4","last_reported":1684184756,"current_range_meters":25200,"station_id":"ce4bhsp2rcd13ifvqi50","pricing_plan_id":"free"},{"bike_id":"1122582c-f0c4-46cd-9c26-99113451f015","system_id":"levelo_inurba_marseille","lat":43.315289,"lon":5.380349,"is_reserved":false,"is_disabled":false,"rental_uris":{"android":"levelo://app?vid=1122582c-f0c4-46cd-9c26-99113451f015","ios":"levelo://app?vid=1122582c-f0c4-46cd-9c26-99113451f015"},"vehicle_type_id":"4","last_reported":1684184756,"current_range_meters":28000,"station_id":"ce4bhsp2rcd13ifvqi50","pricing_plan_id":"free"},{"bike_id":"445c95fc-b94a-4950-b24b-2d77f26609bc","system_id":"levelo_inurba_marseille","lat":43.315293,"lon":5.380349,"is_reserved":false,"is_disabled":false,"rental_uris":{"android":"levelo://app?vid=445c95fc-b94a-4950-b24b-2d77f26609bc","ios":"levelo://app?vid=445c95fc-b94a-4950-b24b-2d77f26609bc"},"vehicle_type_id":"4","last_reported":1684184756,"current_range_meters":29200,"station_id":"ce4bhsp2rcd13ifvqi50","pricing_plan_id":"free"},{"bike_id":"4d3e410c-a3a1-4498-ae6f-14d5ba23bc5d","system_id":"levelo_inurba_marseille","lat":43.308012,"lon":5.381511,"is_reserved":false,"is_disabled":false,"rental_uris":{"android":"levelo://app?vid=4d3e410c-a3a1-4498-ae6f-14d5ba23bc5d","ios":"levelo://app?vid=4d3e410c-a3a1-4498-ae6f-14d5ba23bc5d"},"vehicle_type_id":"4","last_reported":1684184756,"current_range_meters":5200,"station_id":"ce4bgt12rcd13ifvqce0","pricing_plan_id":"free"},{"bike_id":"1718ff96-2162-40e4-9e92-3e64f8dc9fcf","system_id":"levelo_inurba_marseille","lat":43.30153,"lon":5.3741,"is_reserved":false,"is_disabled":false,"rental_uris":{"android":"levelo://app?vid=1718ff96-2162-40e4-9e92-3e64f8dc9fcf","ios":"levelo://app?vid=1718ff96-2162-40e4-9e92-3e64f8dc9fcf"},"vehicle_type_id":"4","last_reported":1684184756,"current_range_meters":23200,"station_id":"ce4bgs92rcd13ifvqcc0","pricing_plan_id":"free"},{"bike_id":"97c53de3-9810-49b5-837a-e5153410aac6","system_id":"levelo_inurba_marseille","lat":43.30147,"lon":5.37407,"is_reserved":false,"is_disabled":false,"rental_uris":{"android":"levelo://app?vid=97c53de3-9810-49b5-837a-e5153410aac6","ios":"levelo://app?vid=97c53de3-9810-49b5-837a-e5153410aac6"},"vehicle_type_id":"4","last_reported":1684184756,"current_range_meters":31600,"station_id":"ce4bgs92rcd13ifvqcc0","pricing_plan_id":"free"},{"bike_id":"42fe2c01-aea3-49b5-af7d-1d1b8de4e683","system_id":"levelo_inurba_marseille","lat":43.30146,"lon":5.37407,"is_reserved":false,"is_disabled":false,"rental_uris":{"android":"levelo://app?vid=42fe2c01-aea3-49b5-af7d-1d1b8de4e683","ios":"levelo://app?vid=42fe2c01-aea3-49b5-af7d-1d1b8de4e683"},"vehicle_type_id":"4","last_reported":1684184756,"current_range_meters":26400,"station_id":"ce4bgs92rcd13ifvqcc0","pricing_plan_id":"free"},{"bike_id":"ef7d5f5b-7911-47d9-8509-75a1d4ff30b5","system_id":"levelo_inurba_marseille","lat":43.30134,"lon":5.37393,"is_reserved":false,"is_disabled":false,"rental_uris":{"android":"levelo://app?vid=ef7d5f5b-7911-47d9-8509-75a1d4ff30b5","ios":"levelo://app?vid=ef7d5f5b-7911-47d9-8509-75a1d4ff30b5"},"vehicle_type_id":"4","last_reported":1684184756,"current_range_meters":20400,"station_id":"ce4bgs92rcd13ifvqcc0","pricing_plan_id":"free"},{"bike_id":"57e7f6e1-3e0f-4508-8c16-cb20af70c700","system_id":"levelo_inurba_marseille","lat":43.30136,"lon":5.37407,"is_reserved":false,"is_disabled":false,"rental_uris":{"android":"levelo://app?vid=57e7f6e1-3e0f-4508-8c16-cb20af70c700","ios":"levelo://app?vid=57e7f6e1-3e0f-4508-8c16-cb20af70c700"},"vehicle_type_id":"4","last_reported":1684184756,"current_range_meters":30000,"station_id":"ce4bgs92rcd13ifvqcc0","pricing_plan_id":"free"},{"bike_id":"78c286be-81c9-41a3-8b83-024604eb9a44","system_id":"levelo_inurba_marseille","lat":43.30139,"lon":5.37418,"is_reserved":false,"is_disabled":false,"rental_uris":{"android":"levelo://app?vid=78c286be-81c9-41a3-8b83-024604eb9a44","ios":"levelo://app?vid=78c286be-81c9-41a3-8b83-024604eb9a44"},"vehicle_type_id":"4","last_reported":1684184756,"current_range_meters":16400,"station_id":"ce4bgs92rcd13ifvqcc0","pricing_plan_id":"free"},{"bike_id":"db780dad-7730-4ad5-b8ef-44ed8deee61d","system_id":"levelo_inurba_marseille","lat":43.30135,"lon":5.37426,"is_reserved":false,"is_disabled":false,"rental_uris":{"android":"levelo://app?vid=db780dad-7730-4ad5-b8ef-44ed8deee61d","ios":"levelo://app?vid=db780dad-7730-4ad5-b8ef-44ed8deee61d"},"vehicle_type_id":"4","last_reported":1684184756,"current_range_meters":22400,"station_id":"ce4bgs92rcd13ifvqcc0","pricing_plan_id":"free"},{"bike_id":"77356d28-3dad-4b14-a737-190bd3b8267a","system_id":"levelo_inurba_marseille","lat":43.31992,"lon":5.38154,"is_reserved":false,"is_disabled":false,"rental_uris":{"android":"levelo://app?vid=77356d28-3dad-4b14-a737-190bd3b8267a","ios":"levelo://app?vid=77356d28-3dad-4b14-a737-190bd3b8267a"},"vehicle_type_id":"4","last_reported":1684184756,"current_range_meters":18800,"station_id":"ce4bhr12rcd13ifvqhpg","pricing_plan_id":"free"},{"bike_id":"83e634e6-beb2-44b5-844b-b43276431dbc","system_id":"levelo_inurba_marseille","lat":43.31995,"lon":5.38152,"is_reserved":false,"is_disabled":false,"rental_uris":{"android":"levelo://app?vid=83e634e6-beb2-44b5-844b-b43276431dbc","ios":"levelo://app?vid=83e634e6-beb2-44b5-844b-b43276431dbc"},"vehicle_type_id":"4","last_reported":1684184756,"current_range_meters":4000,"station_id":"ce4bhr12rcd13ifvqhpg","pricing_plan_id":"free"},{"bike_id":"953e1eca-f2c9-400b-b52b-d22c3d2e0eba","system_id":"levelo_inurba_marseille","lat":43.319935,"lon":5.381699,"is_reserved":false,"is_disabled":false,"rental_uris":{"android":"levelo://app?vid=953e1eca-f2c9-400b-b52b-d22c3d2e0eba","ios":"levelo://app?vid=953e1eca-f2c9-400b-b52b-d22c3d2e0eba"},"vehicle_type_id":"4","last_reported":1684184756,"current_range_meters":13600,"station_id":"ce4bhr12rcd13ifvqhpg","pricing_plan_id":"free"},{"bike_id":"72ed1e8f-0564-452f-bca3-accafaaf0115","system_id":"levelo_inurba_marseille","lat":43.313571,"lon":5.384829,"is_reserved":false,"is_disabled":false,"rental_uris":{"android":"levelo://app?vid=72ed1e8f-0564-452f-bca3-accafaaf0115","ios":"levelo://app?vid=72ed1e8f-0564-452f-bca3-accafaaf0115"},"vehicle_type_id":"4","last_reported":1684184756,"current_range_meters":26400,"station_id":"ce4bgt92rcd13ifvqcf0","pricing_plan_id":"free"},{"bike_id":"ac2832dc-d468-4d5e-b78f-ebe0d25212f3","system_id":"levelo_inurba_marseille","lat":43.313571,"lon":5.384829,"is_reserved":false,"is_disabled":false,"rental_uris":{"android":"levelo://app?vid=ac2832dc-d468-4d5e-b78f-ebe0d25212f3","ios":"levelo://app?vid=ac2832dc-d468-4d5e-b78f-ebe0d25212f3"},"vehicle_type_id":"4","last_reported":1684184756,"current_range_meters":29200,"station_id":"ce4bgt92rcd13ifvqcf0","pricing_plan_id":"free"},{"bike_id":"c016c99e-0fc2-4c4c-b85c-cd98e5178f3c","system_id":"levelo_inurba_marseille","lat":43.31361,"lon":5.38498,"is_reserved":false,"is_disabled":false,"rental_uris":{"android":"levelo://app?vid=c016c99e-0fc2-4c4c-b85c-cd98e5178f3c","ios":"levelo://app?vid=c016c99e-0fc2-4c4c-b85c-cd98e5178f3c"},"vehicle_type_id":"4","last_reported":1684184756,"current_range_meters":20400,"station_id":"ce4bgt92rcd13ifvqcf0","pricing_plan_id":"free"},{"bike_id":"88a7438d-9720-4204-809d-a94b04c4e6a1","system_id":"levelo_inurba_marseille","lat":43.313571,"lon":5.384829,"is_reserved":false,"is_disabled":false,"rental_uris":{"android":"levelo://app?vid=88a7438d-9720-4204-809d-a94b04c4e6a1","ios":"levelo://app?vid=88a7438d-9720-4204-809d-a94b04c4e6a1"},"vehicle_type_id":"4","last_reported":1684184756,"current_range_meters":31200,"station_id":"ce4bgt92rcd13ifvqcf0","pricing_plan_id":"free"},{"bike_id":"2d76b389-8968-415c-8ed7-b9840391ad8e","system_id":"levelo_inurba_marseille","lat":43.305364,"lon":5.384119,"is_reserved":false,"is_disabled":false,"rental_uris":{"android":"levelo://app?vid=2d76b389-8968-415c-8ed7-b9840391ad8e","ios":"levelo://app?vid=2d76b389-8968-415c-8ed7-b9840391ad8e"},"vehicle_type_id":"4","last_reported":1684184756,"current_range_meters":25600,"station_id":"ce4bgg92rcd13ifvqb30","pricing_plan_id":"free"},{"bike_id":"ac2cf184-11a7-4d3c-a0fa-a9b16ab41d1b","system_id":"levelo_inurba_marseille","lat":43.298433,"lon":5.362774,"is_reserved":false,"is_disabled":false,"rental_uris":{"android":"levelo://app?vid=ac2cf184-11a7-4d3c-a0fa-a9b16ab41d1b","ios":"levelo://app?vid=ac2cf184-11a7-4d3c-a0fa-a9b16ab41d1b"},"vehicle_type_id":"4","last_reported":1684184756,"current_range_meters":31200,"station_id":"ce4bgpp2rcd13ifvqc3g","pricing_plan_id":"free"},{"bike_id":"987babfe-1bff-4d24-8ee7-15902190ac34","system_id":"levelo_inurba_marseille","lat":43.298433,"lon":5.362774,"is_reserved":false,"is_disabled":false,"rental_uris":{"android":"levelo://app?vid=987babfe-1bff-4d24-8ee7-15902190ac34","ios":"levelo://app?vid=987babfe-1bff-4d24-8ee7-15902190ac34"},"vehicle_type_id":"4","last_reported":1684184756,"current_range_meters":26800,"station_id":"ce4bgpp2rcd13ifvqc3g","pricing_plan_id":"free"},{"bike_id":"56c48c5b-c82c-4cbb-81b4-97a23add6012","system_id":"levelo_inurba_marseille","lat":43.305364,"lon":5.384119,"is_reserved":false,"is_disabled":false,"rental_uris":{"android":"levelo://app?vid=56c48c5b-c82c-4cbb-81b4-97a23add6012","ios":"levelo://app?vid=56c48c5b-c82c-4cbb-81b4-97a23add6012"},"vehicle_type_id":"4","last_reported":1684184756,"current_range_meters":9200,"station_id":"ce4bgg92rcd13ifvqb30","pricing_plan_id":"free"},{"bike_id":"e9230023-feb2-4293-ac65-b7da3f0b20e5","system_id":"levelo_inurba_marseille","lat":43.311722,"lon":5.387247,"is_reserved":false,"is_disabled":false,"rental_uris":{"android":"levelo://app?vid=e9230023-feb2-4293-ac65-b7da3f0b20e5","ios":"levelo://app?vid=e9230023-feb2-4293-ac65-b7da3f0b20e5"},"vehicle_type_id":"4","last_reported":1684184756,"current_range_meters":30000,"station_id":"ce4bgv12rcd13ifvqcp0","pricing_plan_id":"free"},{"bike_id":"9b0f4e9a-bf75-4540-94b3-76f884074c11","system_id":"levelo_inurba_marseille","lat":43.311722,"lon":5.387247,"is_reserved":false,"is_disabled":false,"rental_uris":{"android":"levelo://app?vid=9b0f4e9a-bf75-4540-94b3-76f884074c11","ios":"levelo://app?vid=9b0f4e9a-bf75-4540-94b3-76f884074c11"},"vehicle_type_id":"4","last_reported":1684184756,"current_range_meters":25600,"station_id":"ce4bgv12rcd13ifvqcp0","pricing_plan_id":"free"},{"bike_id":"be840c93-0dae-4113-b065-6e63692db62c","system_id":"levelo_inurba_marseille","lat":43.32755,"lon":5.36689,"is_reserved":false,"is_disabled":false,"rental_uris":{"android":"levelo://app?vid=be840c93-0dae-4113-b065-6e63692db62c","ios":"levelo://app?vid=be840c93-0dae-4113-b065-6e63692db62c"},"vehicle_type_id":"4","last_reported":1684184756,"current_range_meters":2400,"station_id":"","pricing_plan_id":"free"},{"bike_id":"5a954b97-b9b6-4e5f-8f76-6d318459fec1","system_id":"levelo_inurba_marseille","lat":43.311722,"lon":5.387247,"is_reserved":false,"is_disabled":false,"rental_uris":{"android":"levelo://app?vid=5a954b97-b9b6-4e5f-8f76-6d318459fec1","ios":"levelo://app?vid=5a954b97-b9b6-4e5f-8f76-6d318459fec1"},"vehicle_type_id":"4","last_reported":1684184756,"current_range_meters":28400,"station_id":"ce4bgv12rcd13ifvqcp0","pricing_plan_id":"free"},{"bike_id":"223a3942-eae0-44ef-a497-aa5c208469bf","system_id":"levelo_inurba_marseille","lat":43.3282,"lon":5.36692,"is_reserved":false,"is_disabled":false,"rental_uris":{"android":"levelo://app?vid=223a3942-eae0-44ef-a497-aa5c208469bf","ios":"levelo://app?vid=223a3942-eae0-44ef-a497-aa5c208469bf"},"vehicle_type_id":"4","last_reported":1684184756,"current_range_meters":14800,"station_id":"ce4bhs92rcd13ifvqi0g","pricing_plan_id":"free"},{"bike_id":"e7f2b6eb-fd3e-4f84-a542-cc68dc37093a","system_id":"levelo_inurba_marseille","lat":43.32829,"lon":5.36692,"is_reserved":false,"is_disabled":false,"rental_uris":{"android":"levelo://app?vid=e7f2b6eb-fd3e-4f84-a542-cc68dc37093a","ios":"levelo://app?vid=e7f2b6eb-fd3e-4f84-a542-cc68dc37093a"},"vehicle_type_id":"4","last_reported":1684184756,"current_range_meters":20400,"station_id":"ce4bhs92rcd13ifvqi0g","pricing_plan_id":"free"},{"bike_id":"f7f5e7cd-f784-4de0-9ab3-dfe3cf921004","system_id":"levelo_inurba_marseille","lat":43.32833,"lon":5.36691,"is_reserved":false,"is_disabled":false,"rental_uris":{"android":"levelo://app?vid=f7f5e7cd-f784-4de0-9ab3-dfe3cf921004","ios":"levelo://app?vid=f7f5e7cd-f784-4de0-9ab3-dfe3cf921004"},"vehicle_type_id":"4","last_reported":1684184756,"current_range_meters":4800,"station_id":"ce4bhs92rcd13ifvqi0g","pricing_plan_id":"free"},{"bike_id":"93e9ff74-0e8c-4677-9eaf-6b297a31e7b0","system_id":"levelo_inurba_marseille","lat":43.29713,"lon":5.36609,"is_reserved":false,"is_disabled":false,"rental_uris":{"android":"levelo://app?vid=93e9ff74-0e8c-4677-9eaf-6b297a31e7b0","ios":"levelo://app?vid=93e9ff74-0e8c-4677-9eaf-6b297a31e7b0"},"vehicle_type_id":"4","last_reported":1684184756,"current_range_meters":11600,"station_id":"ce4bgn12rcd13ifvqbt0","pricing_plan_id":"free"},{"bike_id":"2e3b9d51-8c66-4a9a-8612-ff9a723ae0cb","system_id":"levelo_inurba_marseille","lat":43.29704,"lon":5.36666,"is_reserved":false,"is_disabled":false,"rental_uris":{"android":"levelo://app?vid=2e3b9d51-8c66-4a9a-8612-ff9a723ae0cb","ios":"levelo://app?vid=2e3b9d51-8c66-4a9a-8612-ff9a723ae0cb"},"vehicle_type_id":"4","last_reported":1684184756,"current_range_meters":0,"station_id":"","pricing_plan_id":"free"},{"bike_id":"a7355f43-ae3a-43df-8c1b-a6c20f3779a1","system_id":"levelo_inurba_marseille","lat":43.309589,"lon":5.390258,"is_reserved":false,"is_disabled":false,"rental_uris":{"android":"levelo://app?vid=a7355f43-ae3a-43df-8c1b-a6c20f3779a1","ios":"levelo://app?vid=a7355f43-ae3a-43df-8c1b-a6c20f3779a1"},"vehicle_type_id":"4","last_reported":1684184756,"current_range_meters":10000,"station_id":"ce4bgup2rcd13ifvqco0","pricing_plan_id":"free"},{"bike_id":"e3019985-f829-4815-9201-83882c88077c","system_id":"levelo_inurba_marseille","lat":43.317557,"lon":5.390173,"is_reserved":false,"is_disabled":false,"rental_uris":{"android":"levelo://app?vid=e3019985-f829-4815-9201-83882c88077c","ios":"levelo://app?vid=e3019985-f829-4815-9201-83882c88077c"},"vehicle_type_id":"4","last_reported":1684184756,"current_range_meters":0,"station_id":"ce4bhqp2rcd13ifvqhng","pricing_plan_id":"free"},{"bike_id":"b4da915a-45d4-4861-8168-7a6b0ea7c274","system_id":"levelo_inurba_marseille","lat":43.317557,"lon":5.390173,"is_reserved":false,"is_disabled":false,"rental_uris":{"android":"levelo://app?vid=b4da915a-45d4-4861-8168-7a6b0ea7c274","ios":"levelo://app?vid=b4da915a-45d4-4861-8168-7a6b0ea7c274"},"vehicle_type_id":"4","last_reported":1684184756,"current_range_meters":1600,"station_id":"ce4bhqp2rcd13ifvqhng","pricing_plan_id":"free"},{"bike_id":"7d232b6c-ade1-4f84-852f-9ece1a04e9b4","system_id":"levelo_inurba_marseille","lat":43.317557,"lon":5.390173,"is_reserved":false,"is_disabled":false,"rental_uris":{"android":"levelo://app?vid=7d232b6c-ade1-4f84-852f-9ece1a04e9b4","ios":"levelo://app?vid=7d232b6c-ade1-4f84-852f-9ece1a04e9b4"},"vehicle_type_id":"4","last_reported":1684184756,"current_range_meters":400,"station_id":"ce4bhqp2rcd13ifvqhng","pricing_plan_id":"free"},{"bike_id":"cf4cf2a7-f6d5-4bad-a1b9-b1b00f4cc020","system_id":"levelo_inurba_marseille","lat":43.317557,"lon":5.390173,"is_reserved":false,"is_disabled":false,"rental_uris":{"android":"levelo://app?vid=cf4cf2a7-f6d5-4bad-a1b9-b1b00f4cc020","ios":"levelo://app?vid=cf4cf2a7-f6d5-4bad-a1b9-b1b00f4cc020"},"vehicle_type_id":"4","last_reported":1684184756,"current_range_meters":31200,"station_id":"ce4bhqp2rcd13ifvqhng","pricing_plan_id":"free"},{"bike_id":"44e74a91-a6e8-4fde-8748-2e47402ee350","system_id":"levelo_inurba_marseille","lat":43.317557,"lon":5.390173,"is_reserved":false,"is_disabled":false,"rental_uris":{"android":"levelo://app?vid=44e74a91-a6e8-4fde-8748-2e47402ee350","ios":"levelo://app?vid=44e74a91-a6e8-4fde-8748-2e47402ee350"},"vehicle_type_id":"4","last_reported":1684184756,"current_range_meters":30800,"station_id":"ce4bhqp2rcd13ifvqhng","pricing_plan_id":"free"},{"bike_id":"7ff6d02f-eb57-4401-a16e-a4890a923b71","system_id":"levelo_inurba_marseille","lat":43.317557,"lon":5.390173,"is_reserved":false,"is_disabled":false,"rental_uris":{"android":"levelo://app?vid=7ff6d02f-eb57-4401-a16e-a4890a923b71","ios":"levelo://app?vid=7ff6d02f-eb57-4401-a16e-a4890a923b71"},"vehicle_type_id":"4","last_reported":1684184756,"current_range_meters":8400,"station_id":"ce4bhqp2rcd13ifvqhng","pricing_plan_id":"free"},{"bike_id":"50e395ca-5c1c-44ad-b888-45c845f567b6","system_id":"levelo_inurba_marseille","lat":43.304278,"lon":5.388868,"is_reserved":false,"is_disabled":false,"rental_uris":{"android":"levelo://app?vid=50e395ca-5c1c-44ad-b888-45c845f567b6","ios":"levelo://app?vid=50e395ca-5c1c-44ad-b888-45c845f567b6"},"vehicle_type_id":"4","last_reported":1684184756,"current_range_meters":31200,"station_id":"ce4bgk12rcd13ifvqbi0","pricing_plan_id":"free"},{"bike_id":"614d4247-ee89-43b6-ac7a-151cdf68a950","system_id":"levelo_inurba_marseille","lat":43.304278,"lon":5.388868,"is_reserved":false,"is_disabled":false,"rental_uris":{"android":"levelo://app?vid=614d4247-ee89-43b6-ac7a-151cdf68a950","ios":"levelo://app?vid=614d4247-ee89-43b6-ac7a-151cdf68a950"},"vehicle_type_id":"4","last_reported":1684184756,"current_range_meters":6800,"station_id":"ce4bgk12rcd13ifvqbi0","pricing_plan_id":"free"},{"bike_id":"e2998c71-5940-49ed-a035-e5d26b8d7dd0","system_id":"levelo_inurba_marseille","lat":43.299724,"lon":5.384848,"is_reserved":false,"is_disabled":false,"rental_uris":{"android":"levelo://app?vid=e2998c71-5940-49ed-a035-e5d26b8d7dd0","ios":"levelo://app?vid=e2998c71-5940-49ed-a035-e5d26b8d7dd0"},"vehicle_type_id":"4","last_reported":1684184756,"current_range_meters":5600,"station_id":"ce4bgj92rcd13ifvqbd0","pricing_plan_id":"free"},{"bike_id":"1435b8f7-7384-44ba-ae10-0d8e734bc0d1","system_id":"levelo_inurba_marseille","lat":43.299724,"lon":5.384848,"is_reserved":false,"is_disabled":false,"rental_uris":{"android":"levelo://app?vid=1435b8f7-7384-44ba-ae10-0d8e734bc0d1","ios":"levelo://app?vid=1435b8f7-7384-44ba-ae10-0d8e734bc0d1"},"vehicle_type_id":"4","last_reported":1684184756,"current_range_meters":16400,"station_id":"ce4bgj92rcd13ifvqbd0","pricing_plan_id":"free"},{"bike_id":"5a09d5d9-cf75-4fd0-8215-8ed6a2ada486","system_id":"levelo_inurba_marseille","lat":43.32359,"lon":5.38871,"is_reserved":false,"is_disabled":false,"rental_uris":{"android":"levelo://app?vid=5a09d5d9-cf75-4fd0-8215-8ed6a2ada486","ios":"levelo://app?vid=5a09d5d9-cf75-4fd0-8215-8ed6a2ada486"},"vehicle_type_id":"4","last_reported":1684184756,"current_range_meters":9600,"station_id":"ce4bhqp2rcd13ifvqhog","pricing_plan_id":"free"},{"bike_id":"1dfa9dcc-ad43-4366-80ee-5c7f154611fc","system_id":"levelo_inurba_marseille","lat":43.32364,"lon":5.38878,"is_reserved":false,"is_disabled":false,"rental_uris":{"android":"levelo://app?vid=1dfa9dcc-ad43-4366-80ee-5c7f154611fc","ios":"levelo://app?vid=1dfa9dcc-ad43-4366-80ee-5c7f154611fc"},"vehicle_type_id":"4","last_reported":1684184756,"current_range_meters":25200,"station_id":"ce4bhqp2rcd13ifvqhog","pricing_plan_id":"free"},{"bike_id":"368dad79-014b-46e3-b946-93453ee151a4","system_id":"levelo_inurba_marseille","lat":43.32364,"lon":5.38879,"is_reserved":false,"is_disabled":false,"rental_uris":{"android":"levelo://app?vid=368dad79-014b-46e3-b946-93453ee151a4","ios":"levelo://app?vid=368dad79-014b-46e3-b946-93453ee151a4"},"vehicle_type_id":"4","last_reported":1684184756,"current_range_meters":0,"station_id":"ce4bhqp2rcd13ifvqhog","pricing_plan_id":"free"},{"bike_id":"57788115-387d-40a2-a807-a902fa910e3a","system_id":"levelo_inurba_marseille","lat":43.32366,"lon":5.38879,"is_reserved":false,"is_disabled":false,"rental_uris":{"android":"levelo://app?vid=57788115-387d-40a2-a807-a902fa910e3a","ios":"levelo://app?vid=57788115-387d-40a2-a807-a902fa910e3a"},"vehicle_type_id":"4","last_reported":1684184756,"current_range_meters":12800,"station_id":"ce4bhqp2rcd13ifvqhog","pricing_plan_id":"free"},{"bike_id":"8c83af73-e52b-455d-a488-2dcd7b769ae0","system_id":"levelo_inurba_marseille","lat":43.32366,"lon":5.38881,"is_reserved":false,"is_disabled":false,"rental_uris":{"android":"levelo://app?vid=8c83af73-e52b-455d-a488-2dcd7b769ae0","ios":"levelo://app?vid=8c83af73-e52b-455d-a488-2dcd7b769ae0"},"vehicle_type_id":"4","last_reported":1684184756,"current_range_meters":6800,"station_id":"ce4bhqp2rcd13ifvqhog","pricing_plan_id":"free"},{"bike_id":"b598aa41-f21a-44ab-bfa6-d8292decfa6d","system_id":"levelo_inurba_marseille","lat":43.32362,"lon":5.38887,"is_reserved":false,"is_disabled":false,"rental_uris":{"android":"levelo://app?vid=b598aa41-f21a-44ab-bfa6-d8292decfa6d","ios":"levelo://app?vid=b598aa41-f21a-44ab-bfa6-d8292decfa6d"},"vehicle_type_id":"4","last_reported":1684184756,"current_range_meters":0,"station_id":"","pricing_plan_id":"free"},{"bike_id":"cc25496d-8593-433d-a9e2-a643a228371f","system_id":"levelo_inurba_marseille","lat":43.32367,"lon":5.38884,"is_reserved":false,"is_disabled":false,"rental_uris":{"android":"levelo://app?vid=cc25496d-8593-433d-a9e2-a643a228371f","ios":"levelo://app?vid=cc25496d-8593-433d-a9e2-a643a228371f"},"vehicle_type_id":"4","last_reported":1684184756,"current_range_meters":30400,"station_id":"ce4bhqp2rcd13ifvqhog","pricing_plan_id":"free"},{"bike_id":"1a705e8e-b254-4ef5-ac1a-3b23d1742151","system_id":"levelo_inurba_marseille","lat":43.32369,"lon":5.38887,"is_reserved":false,"is_disabled":false,"rental_uris":{"android":"levelo://app?vid=1a705e8e-b254-4ef5-ac1a-3b23d1742151","ios":"levelo://app?vid=1a705e8e-b254-4ef5-ac1a-3b23d1742151"},"vehicle_type_id":"4","last_reported":1684184756,"current_range_meters":27200,"station_id":"","pricing_plan_id":"free"},{"bike_id":"fe99866c-5886-47ea-8108-029cf4169c67","system_id":"levelo_inurba_marseille","lat":43.293249,"lon":5.371578,"is_reserved":false,"is_disabled":false,"rental_uris":{"android":"levelo://app?vid=fe99866c-5886-47ea-8108-029cf4169c67","ios":"levelo://app?vid=fe99866c-5886-47ea-8108-029cf4169c67"},"vehicle_type_id":"4","last_reported":1684184756,"current_range_meters":24400,"station_id":"ce4bgh92rcd13ifvqb40","pricing_plan_id":"free"},{"bike_id":"f442a9b7-17ad-47d2-967d-e0d2296bd9c5","system_id":"levelo_inurba_marseille","lat":43.293249,"lon":5.371578,"is_reserved":false,"is_disabled":false,"rental_uris":{"android":"levelo://app?vid=f442a9b7-17ad-47d2-967d-e0d2296bd9c5","ios":"levelo://app?vid=f442a9b7-17ad-47d2-967d-e0d2296bd9c5"},"vehicle_type_id":"4","last_reported":1684184756,"current_range_meters":4000,"station_id":"ce4bgh92rcd13ifvqb40","pricing_plan_id":"free"},{"bike_id":"608a7e6a-0ea5-45e8-b12d-c5d5f6f87403","system_id":"levelo_inurba_marseille","lat":43.305994,"lon":5.393687,"is_reserved":false,"is_disabled":false,"rental_uris":{"android":"levelo://app?vid=608a7e6a-0ea5-45e8-b12d-c5d5f6f87403","ios":"levelo://app?vid=608a7e6a-0ea5-45e8-b12d-c5d5f6f87403"},"vehicle_type_id":"4","last_reported":1684184756,"current_range_meters":22800,"station_id":"ce4bh0p2rcd13ifvqd80","pricing_plan_id":"free"},{"bike_id":"ace3aca3-fd2b-43e6-86bc-4268f7ea76e4","system_id":"levelo_inurba_marseille","lat":43.305994,"lon":5.393687,"is_reserved":false,"is_disabled":false,"rental_uris":{"android":"levelo://app?vid=ace3aca3-fd2b-43e6-86bc-4268f7ea76e4","ios":"levelo://app?vid=ace3aca3-fd2b-43e6-86bc-4268f7ea76e4"},"vehicle_type_id":"4","last_reported":1684184756,"current_range_meters":22400,"station_id":"ce4bh0p2rcd13ifvqd80","pricing_plan_id":"free"},{"bike_id":"2585252f-7fab-4447-992c-c09254a66ea3","system_id":"levelo_inurba_marseille","lat":43.305994,"lon":5.393687,"is_reserved":false,"is_disabled":false,"rental_uris":{"android":"levelo://app?vid=2585252f-7fab-4447-992c-c09254a66ea3","ios":"levelo://app?vid=2585252f-7fab-4447-992c-c09254a66ea3"},"vehicle_type_id":"4","last_reported":1684184756,"current_range_meters":26400,"station_id":"ce4bh0p2rcd13ifvqd80","pricing_plan_id":"free"},{"bike_id":"a4503d57-1be7-40bd-8b0c-bf9e33bbb253","system_id":"levelo_inurba_marseille","lat":43.305903,"lon":5.393647,"is_reserved":false,"is_disabled":false,"rental_uris":{"android":"levelo://app?vid=a4503d57-1be7-40bd-8b0c-bf9e33bbb253","ios":"levelo://app?vid=a4503d57-1be7-40bd-8b0c-bf9e33bbb253"},"vehicle_type_id":"4","last_reported":1684184756,"current_range_meters":7200,"station_id":"","pricing_plan_id":"free"},{"bike_id":"935b8a27-df62-458f-8e12-cd61a61ed362","system_id":"levelo_inurba_marseille","lat":43.300852,"lon":5.390859,"is_reserved":false,"is_disabled":false,"rental_uris":{"android":"levelo://app?vid=935b8a27-df62-458f-8e12-cd61a61ed362","ios":"levelo://app?vid=935b8a27-df62-458f-8e12-cd61a61ed362"},"vehicle_type_id":"4","last_reported":1684184756,"current_range_meters":21200,"station_id":"ce4bh192rcd13ifvqdb0","pricing_plan_id":"free"},{"bike_id":"98fdf128-bfb9-4fb9-ba85-ffec4cba2f18","system_id":"levelo_inurba_marseille","lat":43.298764,"lon":5.388973,"is_reserved":false,"is_disabled":false,"rental_uris":{"android":"levelo://app?vid=98fdf128-bfb9-4fb9-ba85-ffec4cba2f18","ios":"levelo://app?vid=98fdf128-bfb9-4fb9-ba85-ffec4cba2f18"},"vehicle_type_id":"4","last_reported":1684184756,"current_range_meters":23600,"station_id":"ce4bh392rcd13ifvqdl0","pricing_plan_id":"free"},{"bike_id":"4682325f-23ab-4a17-b7b3-d560ec943311","system_id":"levelo_inurba_marseille","lat":43.298764,"lon":5.388973,"is_reserved":false,"is_disabled":false,"rental_uris":{"android":"levelo://app?vid=4682325f-23ab-4a17-b7b3-d560ec943311","ios":"levelo://app?vid=4682325f-23ab-4a17-b7b3-d560ec943311"},"vehicle_type_id":"4","last_reported":1684184756,"current_range_meters":18400,"station_id":"ce4bh392rcd13ifvqdl0","pricing_plan_id":"free"},{"bike_id":"8a306b44-f0f2-4620-9888-48c4623426fd","system_id":"levelo_inurba_marseille","lat":43.298764,"lon":5.388973,"is_reserved":false,"is_disabled":false,"rental_uris":{"android":"levelo://app?vid=8a306b44-f0f2-4620-9888-48c4623426fd","ios":"levelo://app?vid=8a306b44-f0f2-4620-9888-48c4623426fd"},"vehicle_type_id":"4","last_reported":1684184756,"current_range_meters":4400,"station_id":"ce4bh392rcd13ifvqdl0","pricing_plan_id":"free"},{"bike_id":"ea5c4ae7-d198-46e9-b507-971bfe199315","system_id":"levelo_inurba_marseille","lat":43.298764,"lon":5.388973,"is_reserved":false,"is_disabled":false,"rental_uris":{"android":"levelo://app?vid=ea5c4ae7-d198-46e9-b507-971bfe199315","ios":"levelo://app?vid=ea5c4ae7-d198-46e9-b507-971bfe199315"},"vehicle_type_id":"4","last_reported":1684184756,"current_range_meters":28000,"station_id":"ce4bh392rcd13ifvqdl0","pricing_plan_id":"free"},{"bike_id":"dd383d7e-35af-48ef-9a1e-fadd2d5e6a0e","system_id":"levelo_inurba_marseille","lat":43.298764,"lon":5.388973,"is_reserved":false,"is_disabled":false,"rental_uris":{"android":"levelo://app?vid=dd383d7e-35af-48ef-9a1e-fadd2d5e6a0e","ios":"levelo://app?vid=dd383d7e-35af-48ef-9a1e-fadd2d5e6a0e"},"vehicle_type_id":"4","last_reported":1684184756,"current_range_meters":17200,"station_id":"ce4bh392rcd13ifvqdl0","pricing_plan_id":"free"},{"bike_id":"8676002f-bc24-4d8b-8cc2-c704a9c33796","system_id":"levelo_inurba_marseille","lat":43.298764,"lon":5.388973,"is_reserved":false,"is_disabled":false,"rental_uris":{"android":"levelo://app?vid=8676002f-bc24-4d8b-8cc2-c704a9c33796","ios":"levelo://app?vid=8676002f-bc24-4d8b-8cc2-c704a9c33796"},"vehicle_type_id":"4","last_reported":1684184756,"current_range_meters":20800,"station_id":"ce4bh392rcd13ifvqdl0","pricing_plan_id":"free"},{"bike_id":"e284ada4-469b-403a-8c9f-7388febaac16","system_id":"levelo_inurba_marseille","lat":43.31329,"lon":5.39683,"is_reserved":false,"is_disabled":false,"rental_uris":{"android":"levelo://app?vid=e284ada4-469b-403a-8c9f-7388febaac16","ios":"levelo://app?vid=e284ada4-469b-403a-8c9f-7388febaac16"},"vehicle_type_id":"4","last_reported":1684184756,"current_range_meters":0,"station_id":"ce4bgvp2rcd13ifvqcu0","pricing_plan_id":"free"},{"bike_id":"47a85c20-b211-4db3-bf39-41aea6d463db","system_id":"levelo_inurba_marseille","lat":43.31327,"lon":5.39689,"is_reserved":false,"is_disabled":false,"rental_uris":{"android":"levelo://app?vid=47a85c20-b211-4db3-bf39-41aea6d463db","ios":"levelo://app?vid=47a85c20-b211-4db3-bf39-41aea6d463db"},"vehicle_type_id":"4","last_reported":1684184756,"current_range_meters":4800,"station_id":"ce4bgvp2rcd13ifvqcu0","pricing_plan_id":"free"},{"bike_id":"e5a2e30a-2405-4196-bd11-1c352a15df42","system_id":"levelo_inurba_marseille","lat":43.31322,"lon":5.39691,"is_reserved":false,"is_disabled":false,"rental_uris":{"android":"levelo://app?vid=e5a2e30a-2405-4196-bd11-1c352a15df42","ios":"levelo://app?vid=e5a2e30a-2405-4196-bd11-1c352a15df42"},"vehicle_type_id":"4","last_reported":1684184756,"current_range_meters":20400,"station_id":"ce4bgvp2rcd13ifvqcu0","pricing_plan_id":"free"},{"bike_id":"f732d9a4-2e98-4ae2-ad41-ac892c11ff42","system_id":"levelo_inurba_marseille","lat":43.31327,"lon":5.39692,"is_reserved":false,"is_disabled":false,"rental_uris":{"android":"levelo://app?vid=f732d9a4-2e98-4ae2-ad41-ac892c11ff42","ios":"levelo://app?vid=f732d9a4-2e98-4ae2-ad41-ac892c11ff42"},"vehicle_type_id":"4","last_reported":1684184756,"current_range_meters":11600,"station_id":"ce4bgvp2rcd13ifvqcu0","pricing_plan_id":"free"},{"bike_id":"3606d9de-177c-42bd-94c2-84554e5a9411","system_id":"levelo_inurba_marseille","lat":43.31318,"lon":5.39694,"is_reserved":false,"is_disabled":false,"rental_uris":{"android":"levelo://app?vid=3606d9de-177c-42bd-94c2-84554e5a9411","ios":"levelo://app?vid=3606d9de-177c-42bd-94c2-84554e5a9411"},"vehicle_type_id":"4","last_reported":1684184756,"current_range_meters":16800,"station_id":"ce4bgvp2rcd13ifvqcu0","pricing_plan_id":"free"},{"bike_id":"3bbf8571-c3ca-4f06-baee-bc5cd88e056a","system_id":"levelo_inurba_marseille","lat":43.3133,"lon":5.39694,"is_reserved":false,"is_disabled":false,"rental_uris":{"android":"levelo://app?vid=3bbf8571-c3ca-4f06-baee-bc5cd88e056a","ios":"levelo://app?vid=3bbf8571-c3ca-4f06-baee-bc5cd88e056a"},"vehicle_type_id":"4","last_reported":1684184756,"current_range_meters":9600,"station_id":"ce4bgvp2rcd13ifvqcu0","pricing_plan_id":"free"},{"bike_id":"8c331635-570f-4fea-a291-134922223915","system_id":"levelo_inurba_marseille","lat":43.313291,"lon":5.396838,"is_reserved":false,"is_disabled":false,"rental_uris":{"android":"levelo://app?vid=8c331635-570f-4fea-a291-134922223915","ios":"levelo://app?vid=8c331635-570f-4fea-a291-134922223915"},"vehicle_type_id":"4","last_reported":1684184756,"current_range_meters":6800,"station_id":"ce4bgvp2rcd13ifvqcu0","pricing_plan_id":"free"},{"bike_id":"d1e3cb8b-55f8-40b0-a409-b74d193856ea","system_id":"levelo_inurba_marseille","lat":43.31323,"lon":5.39697,"is_reserved":false,"is_disabled":false,"rental_uris":{"android":"levelo://app?vid=d1e3cb8b-55f8-40b0-a409-b74d193856ea","ios":"levelo://app?vid=d1e3cb8b-55f8-40b0-a409-b74d193856ea"},"vehicle_type_id":"4","last_reported":1684184756,"current_range_meters":20800,"station_id":"ce4bgvp2rcd13ifvqcu0","pricing_plan_id":"free"},{"bike_id":"52ac4585-c689-4bbd-b451-ea4231d99aae","system_id":"levelo_inurba_marseille","lat":43.31326,"lon":5.39699,"is_reserved":false,"is_disabled":false,"rental_uris":{"android":"levelo://app?vid=52ac4585-c689-4bbd-b451-ea4231d99aae","ios":"levelo://app?vid=52ac4585-c689-4bbd-b451-ea4231d99aae"},"vehicle_type_id":"4","last_reported":1684184756,"current_range_meters":15200,"station_id":"ce4bgvp2rcd13ifvqcu0","pricing_plan_id":"free"},{"bike_id":"b65dc5a9-b161-4858-bd32-8682daa54c2c","system_id":"levelo_inurba_marseille","lat":43.309038,"lon":5.396546,"is_reserved":false,"is_disabled":false,"rental_uris":{"android":"levelo://app?vid=b65dc5a9-b161-4858-bd32-8682daa54c2c","ios":"levelo://app?vid=b65dc5a9-b161-4858-bd32-8682daa54c2c"},"vehicle_type_id":"4","last_reported":1684184756,"current_range_meters":19200,"station_id":"ce4bh012rcd13ifvqcv0","pricing_plan_id":"free"},{"bike_id":"6d2bb92d-58a4-4619-9e46-f46813fb14a3","system_id":"levelo_inurba_marseille","lat":43.31323,"lon":5.397,"is_reserved":false,"is_disabled":false,"rental_uris":{"android":"levelo://app?vid=6d2bb92d-58a4-4619-9e46-f46813fb14a3","ios":"levelo://app?vid=6d2bb92d-58a4-4619-9e46-f46813fb14a3"},"vehicle_type_id":"4","last_reported":1684184756,"current_range_meters":11200,"station_id":"ce4bgvp2rcd13ifvqcu0","pricing_plan_id":"free"},{"bike_id":"536f814f-4b19-4750-a500-28ac8e4536e4","system_id":"levelo_inurba_marseille","lat":43.3133,"lon":5.397,"is_reserved":false,"is_disabled":false,"rental_uris":{"android":"levelo://app?vid=536f814f-4b19-4750-a500-28ac8e4536e4","ios":"levelo://app?vid=536f814f-4b19-4750-a500-28ac8e4536e4"},"vehicle_type_id":"4","last_reported":1684184756,"current_range_meters":2400,"station_id":"ce4bgvp2rcd13ifvqcu0","pricing_plan_id":"free"},{"bike_id":"92c78910-71d1-4306-bf2c-3c5ab2dfa5e3","system_id":"levelo_inurba_marseille","lat":43.309038,"lon":5.396546,"is_reserved":false,"is_disabled":false,"rental_uris":{"android":"levelo://app?vid=92c78910-71d1-4306-bf2c-3c5ab2dfa5e3","ios":"levelo://app?vid=92c78910-71d1-4306-bf2c-3c5ab2dfa5e3"},"vehicle_type_id":"4","last_reported":1684184756,"current_range_meters":31200,"station_id":"ce4bh012rcd13ifvqcv0","pricing_plan_id":"free"},{"bike_id":"4812123a-7a58-422c-9f51-d1b21e7dc78e","system_id":"levelo_inurba_marseille","lat":43.309038,"lon":5.396546,"is_reserved":false,"is_disabled":false,"rental_uris":{"android":"levelo://app?vid=4812123a-7a58-422c-9f51-d1b21e7dc78e","ios":"levelo://app?vid=4812123a-7a58-422c-9f51-d1b21e7dc78e"},"vehicle_type_id":"4","last_reported":1684184756,"current_range_meters":24000,"station_id":"ce4bh012rcd13ifvqcv0","pricing_plan_id":"free"},{"bike_id":"f25a5e64-9f9a-4df9-bfb7-039579b2c099","system_id":"levelo_inurba_marseille","lat":43.309038,"lon":5.396546,"is_reserved":false,"is_disabled":false,"rental_uris":{"android":"levelo://app?vid=f25a5e64-9f9a-4df9-bfb7-039579b2c099","ios":"levelo://app?vid=f25a5e64-9f9a-4df9-bfb7-039579b2c099"},"vehicle_type_id":"4","last_reported":1684184756,"current_range_meters":20800,"station_id":"ce4bh012rcd13ifvqcv0","pricing_plan_id":"free"},{"bike_id":"aff46fc3-fe79-4dde-a350-f4f9502815ad","system_id":"levelo_inurba_marseille","lat":43.309038,"lon":5.396546,"is_reserved":false,"is_disabled":false,"rental_uris":{"android":"levelo://app?vid=aff46fc3-fe79-4dde-a350-f4f9502815ad","ios":"levelo://app?vid=aff46fc3-fe79-4dde-a350-f4f9502815ad"},"vehicle_type_id":"4","last_reported":1684184756,"current_range_meters":31200,"station_id":"ce4bh012rcd13ifvqcv0","pricing_plan_id":"free"},{"bike_id":"eb0359cb-6e17-4d84-b9fc-ff0c56f14f1f","system_id":"levelo_inurba_marseille","lat":43.309038,"lon":5.396546,"is_reserved":false,"is_disabled":false,"rental_uris":{"android":"levelo://app?vid=eb0359cb-6e17-4d84-b9fc-ff0c56f14f1f","ios":"levelo://app?vid=eb0359cb-6e17-4d84-b9fc-ff0c56f14f1f"},"vehicle_type_id":"4","last_reported":1684184756,"current_range_meters":31200,"station_id":"ce4bh012rcd13ifvqcv0","pricing_plan_id":"free"},{"bike_id":"6825e468-bd2a-4601-8b1e-b07d648dc187","system_id":"levelo_inurba_marseille","lat":43.309038,"lon":5.396546,"is_reserved":false,"is_disabled":false,"rental_uris":{"android":"levelo://app?vid=6825e468-bd2a-4601-8b1e-b07d648dc187","ios":"levelo://app?vid=6825e468-bd2a-4601-8b1e-b07d648dc187"},"vehicle_type_id":"4","last_reported":1684184756,"current_range_meters":20400,"station_id":"ce4bh012rcd13ifvqcv0","pricing_plan_id":"free"},{"bike_id":"8cec4b6e-4f8c-409f-8354-db91ca933785","system_id":"levelo_inurba_marseille","lat":43.309038,"lon":5.396546,"is_reserved":false,"is_disabled":false,"rental_uris":{"android":"levelo://app?vid=8cec4b6e-4f8c-409f-8354-db91ca933785","ios":"levelo://app?vid=8cec4b6e-4f8c-409f-8354-db91ca933785"},"vehicle_type_id":"4","last_reported":1684184756,"current_range_meters":29600,"station_id":"ce4bh012rcd13ifvqcv0","pricing_plan_id":"free"},{"bike_id":"acd1c982-a181-4c89-94c8-19bad1ee8422","system_id":"levelo_inurba_marseille","lat":43.309038,"lon":5.396546,"is_reserved":false,"is_disabled":false,"rental_uris":{"android":"levelo://app?vid=acd1c982-a181-4c89-94c8-19bad1ee8422","ios":"levelo://app?vid=acd1c982-a181-4c89-94c8-19bad1ee8422"},"vehicle_type_id":"4","last_reported":1684184756,"current_range_meters":31200,"station_id":"ce4bh012rcd13ifvqcv0","pricing_plan_id":"free"},{"bike_id":"cd2df9ae-feac-4d5c-8a4a-bcd924ca78ae","system_id":"levelo_inurba_marseille","lat":43.309038,"lon":5.396546,"is_reserved":false,"is_disabled":false,"rental_uris":{"android":"levelo://app?vid=cd2df9ae-feac-4d5c-8a4a-bcd924ca78ae","ios":"levelo://app?vid=cd2df9ae-feac-4d5c-8a4a-bcd924ca78ae"},"vehicle_type_id":"4","last_reported":1684184756,"current_range_meters":21200,"station_id":"ce4bh012rcd13ifvqcv0","pricing_plan_id":"free"},{"bike_id":"5bb394b4-a5ac-4e3b-a34c-f7d07a2ba07b","system_id":"levelo_inurba_marseille","lat":43.309038,"lon":5.396546,"is_reserved":false,"is_disabled":false,"rental_uris":{"android":"levelo://app?vid=5bb394b4-a5ac-4e3b-a34c-f7d07a2ba07b","ios":"levelo://app?vid=5bb394b4-a5ac-4e3b-a34c-f7d07a2ba07b"},"vehicle_type_id":"4","last_reported":1684184756,"current_range_meters":30800,"station_id":"ce4bh012rcd13ifvqcv0","pricing_plan_id":"free"},{"bike_id":"945a7229-f7de-4ecb-ad16-394f39ce166e","system_id":"levelo_inurba_marseille","lat":43.309038,"lon":5.396546,"is_reserved":false,"is_disabled":false,"rental_uris":{"android":"levelo://app?vid=945a7229-f7de-4ecb-ad16-394f39ce166e","ios":"levelo://app?vid=945a7229-f7de-4ecb-ad16-394f39ce166e"},"vehicle_type_id":"4","last_reported":1684184756,"current_range_meters":30400,"station_id":"ce4bh012rcd13ifvqcv0","pricing_plan_id":"free"},{"bike_id":"97e70b12-e5de-4d8a-998e-f5aae8d87c92","system_id":"levelo_inurba_marseille","lat":43.29529,"lon":5.385581,"is_reserved":false,"is_disabled":false,"rental_uris":{"android":"levelo://app?vid=97e70b12-e5de-4d8a-998e-f5aae8d87c92","ios":"levelo://app?vid=97e70b12-e5de-4d8a-998e-f5aae8d87c92"},"vehicle_type_id":"4","last_reported":1684184756,"current_range_meters":1600,"station_id":"ce4bgih2rcd13ifvqba0","pricing_plan_id":"free"},{"bike_id":"19fef844-16c3-4332-80b1-7b2c90ede161","system_id":"levelo_inurba_marseille","lat":43.309038,"lon":5.396546,"is_reserved":false,"is_disabled":false,"rental_uris":{"android":"levelo://app?vid=19fef844-16c3-4332-80b1-7b2c90ede161","ios":"levelo://app?vid=19fef844-16c3-4332-80b1-7b2c90ede161"},"vehicle_type_id":"4","last_reported":1684184756,"current_range_meters":31200,"station_id":"ce4bh012rcd13ifvqcv0","pricing_plan_id":"free"},{"bike_id":"99ae06cd-bad4-49da-bb06-c53b08021cec","system_id":"levelo_inurba_marseille","lat":43.29529,"lon":5.385581,"is_reserved":false,"is_disabled":false,"rental_uris":{"android":"levelo://app?vid=99ae06cd-bad4-49da-bb06-c53b08021cec","ios":"levelo://app?vid=99ae06cd-bad4-49da-bb06-c53b08021cec"},"vehicle_type_id":"4","last_reported":1684184756,"current_range_meters":4800,"station_id":"ce4bgih2rcd13ifvqba0","pricing_plan_id":"free"},{"bike_id":"cca14db1-076d-422d-9664-b6ead26b8a22","system_id":"levelo_inurba_marseille","lat":43.29529,"lon":5.385581,"is_reserved":false,"is_disabled":false,"rental_uris":{"android":"levelo://app?vid=cca14db1-076d-422d-9664-b6ead26b8a22","ios":"levelo://app?vid=cca14db1-076d-422d-9664-b6ead26b8a22"},"vehicle_type_id":"4","last_reported":1684184756,"current_range_meters":24400,"station_id":"ce4bgih2rcd13ifvqba0","pricing_plan_id":"free"},{"bike_id":"4e7105e3-641f-48e8-94be-1ec370d8c17a","system_id":"levelo_inurba_marseille","lat":43.29529,"lon":5.385581,"is_reserved":false,"is_disabled":false,"rental_uris":{"android":"levelo://app?vid=4e7105e3-641f-48e8-94be-1ec370d8c17a","ios":"levelo://app?vid=4e7105e3-641f-48e8-94be-1ec370d8c17a"},"vehicle_type_id":"4","last_reported":1684184756,"current_range_meters":3600,"station_id":"ce4bgih2rcd13ifvqba0","pricing_plan_id":"free"},{"bike_id":"964055a0-e3d4-4c38-ae55-1da1ac0b47ef","system_id":"levelo_inurba_marseille","lat":43.29529,"lon":5.385581,"is_reserved":false,"is_disabled":false,"rental_uris":{"android":"levelo://app?vid=964055a0-e3d4-4c38-ae55-1da1ac0b47ef","ios":"levelo://app?vid=964055a0-e3d4-4c38-ae55-1da1ac0b47ef"},"vehicle_type_id":"4","last_reported":1684184756,"current_range_meters":5600,"station_id":"ce4bgih2rcd13ifvqba0","pricing_plan_id":"free"},{"bike_id":"6babafec-d0ab-4bf7-8b61-ab6b01283afe","system_id":"levelo_inurba_marseille","lat":43.302008,"lon":5.394694,"is_reserved":false,"is_disabled":false,"rental_uris":{"android":"levelo://app?vid=6babafec-d0ab-4bf7-8b61-ab6b01283afe","ios":"levelo://app?vid=6babafec-d0ab-4bf7-8b61-ab6b01283afe"},"vehicle_type_id":"4","last_reported":1684184756,"current_range_meters":21200,"station_id":"ce4bh0p2rcd13ifvqd70","pricing_plan_id":"free"},{"bike_id":"cfbf11a9-ac74-4250-b907-ae1c33cca58d","system_id":"levelo_inurba_marseille","lat":43.289468,"lon":5.363719,"is_reserved":false,"is_disabled":false,"rental_uris":{"android":"levelo://app?vid=cfbf11a9-ac74-4250-b907-ae1c33cca58d","ios":"levelo://app?vid=cfbf11a9-ac74-4250-b907-ae1c33cca58d"},"vehicle_type_id":"4","last_reported":1684184756,"current_range_meters":7200,"station_id":"ce4bhc92rcd13ifvqetg","pricing_plan_id":"free"},{"bike_id":"c70c5592-9ab0-4de4-96b9-0b53a335216b","system_id":"levelo_inurba_marseille","lat":43.289468,"lon":5.363719,"is_reserved":false,"is_disabled":false,"rental_uris":{"android":"levelo://app?vid=c70c5592-9ab0-4de4-96b9-0b53a335216b","ios":"levelo://app?vid=c70c5592-9ab0-4de4-96b9-0b53a335216b"},"vehicle_type_id":"4","last_reported":1684184756,"current_range_meters":22000,"station_id":"ce4bhc92rcd13ifvqetg","pricing_plan_id":"free"},{"bike_id":"26590f43-dcfa-4683-935a-13ee4a2cf22a","system_id":"levelo_inurba_marseille","lat":43.289468,"lon":5.363719,"is_reserved":false,"is_disabled":false,"rental_uris":{"android":"levelo://app?vid=26590f43-dcfa-4683-935a-13ee4a2cf22a","ios":"levelo://app?vid=26590f43-dcfa-4683-935a-13ee4a2cf22a"},"vehicle_type_id":"4","last_reported":1684184756,"current_range_meters":28400,"station_id":"ce4bhc92rcd13ifvqetg","pricing_plan_id":"free"},{"bike_id":"dc811be1-f27e-44b8-a981-b26decf78c4c","system_id":"levelo_inurba_marseille","lat":43.33039,"lon":5.38916,"is_reserved":false,"is_disabled":false,"rental_uris":{"android":"levelo://app?vid=dc811be1-f27e-44b8-a981-b26decf78c4c","ios":"levelo://app?vid=dc811be1-f27e-44b8-a981-b26decf78c4c"},"vehicle_type_id":"4","last_reported":1684184756,"current_range_meters":31200,"station_id":"ce4bhr92rcd13ifvqhrg","pricing_plan_id":"free"},{"bike_id":"7caaf9c3-313c-46f8-9371-f28dca77d2c2","system_id":"levelo_inurba_marseille","lat":43.33035,"lon":5.38924,"is_reserved":false,"is_disabled":false,"rental_uris":{"android":"levelo://app?vid=7caaf9c3-313c-46f8-9371-f28dca77d2c2","ios":"levelo://app?vid=7caaf9c3-313c-46f8-9371-f28dca77d2c2"},"vehicle_type_id":"4","last_reported":1684184756,"current_range_meters":400,"station_id":"ce4bhr92rcd13ifvqhrg","pricing_plan_id":"free"},{"bike_id":"030b9231-c3b2-411e-ae6d-e65516608c7a","system_id":"levelo_inurba_marseille","lat":43.33041,"lon":5.38916,"is_reserved":false,"is_disabled":false,"rental_uris":{"android":"levelo://app?vid=030b9231-c3b2-411e-ae6d-e65516608c7a","ios":"levelo://app?vid=030b9231-c3b2-411e-ae6d-e65516608c7a"},"vehicle_type_id":"4","last_reported":1684184756,"current_range_meters":19600,"station_id":"ce4bhr92rcd13ifvqhrg","pricing_plan_id":"free"},{"bike_id":"a0d2163e-1f3c-45fb-ac7a-b360ff538a92","system_id":"levelo_inurba_marseille","lat":43.33041,"lon":5.38919,"is_reserved":false,"is_disabled":false,"rental_uris":{"android":"levelo://app?vid=a0d2163e-1f3c-45fb-ac7a-b360ff538a92","ios":"levelo://app?vid=a0d2163e-1f3c-45fb-ac7a-b360ff538a92"},"vehicle_type_id":"4","last_reported":1684184756,"current_range_meters":31200,"station_id":"ce4bhr92rcd13ifvqhrg","pricing_plan_id":"free"},{"bike_id":"8fed593d-e041-48a5-97b4-87fa0bd07169","system_id":"levelo_inurba_marseille","lat":43.33043,"lon":5.38916,"is_reserved":false,"is_disabled":false,"rental_uris":{"android":"levelo://app?vid=8fed593d-e041-48a5-97b4-87fa0bd07169","ios":"levelo://app?vid=8fed593d-e041-48a5-97b4-87fa0bd07169"},"vehicle_type_id":"4","last_reported":1684184756,"current_range_meters":28400,"station_id":"ce4bhr92rcd13ifvqhrg","pricing_plan_id":"free"},{"bike_id":"d1207b2e-3cb5-421b-ba98-79f633aa28c4","system_id":"levelo_inurba_marseille","lat":43.33041,"lon":5.38921,"is_reserved":false,"is_disabled":false,"rental_uris":{"android":"levelo://app?vid=d1207b2e-3cb5-421b-ba98-79f633aa28c4","ios":"levelo://app?vid=d1207b2e-3cb5-421b-ba98-79f633aa28c4"},"vehicle_type_id":"4","last_reported":1684184756,"current_range_meters":28400,"station_id":"ce4bhr92rcd13ifvqhrg","pricing_plan_id":"free"},{"bike_id":"3fc78135-1c2f-474f-af58-b4816d3b2bfc","system_id":"levelo_inurba_marseille","lat":43.33039,"lon":5.38924,"is_reserved":false,"is_disabled":false,"rental_uris":{"android":"levelo://app?vid=3fc78135-1c2f-474f-af58-b4816d3b2bfc","ios":"levelo://app?vid=3fc78135-1c2f-474f-af58-b4816d3b2bfc"},"vehicle_type_id":"4","last_reported":1684184756,"current_range_meters":19200,"station_id":"ce4bhr92rcd13ifvqhrg","pricing_plan_id":"free"},{"bike_id":"afca707a-2a39-4583-8f52-8cdf756651d3","system_id":"levelo_inurba_marseille","lat":43.292644,"lon":5.384257,"is_reserved":false,"is_disabled":false,"rental_uris":{"android":"levelo://app?vid=afca707a-2a39-4583-8f52-8cdf756651d3","ios":"levelo://app?vid=afca707a-2a39-4583-8f52-8cdf756651d3"},"vehicle_type_id":"4","last_reported":1684184756,"current_range_meters":12800,"station_id":"ce4bh692rcd13ifvqea0","pricing_plan_id":"free"},{"bike_id":"7c9f71ef-b77f-4c03-9f45-a7decfddcc77","system_id":"levelo_inurba_marseille","lat":43.33042,"lon":5.38923,"is_reserved":false,"is_disabled":false,"rental_uris":{"android":"levelo://app?vid=7c9f71ef-b77f-4c03-9f45-a7decfddcc77","ios":"levelo://app?vid=7c9f71ef-b77f-4c03-9f45-a7decfddcc77"},"vehicle_type_id":"4","last_reported":1684184756,"current_range_meters":30400,"station_id":"ce4bhr92rcd13ifvqhrg","pricing_plan_id":"free"},{"bike_id":"a74fe238-49b4-423f-b430-742b76a50cd5","system_id":"levelo_inurba_marseille","lat":43.29096,"lon":5.38107,"is_reserved":false,"is_disabled":false,"rental_uris":{"android":"levelo://app?vid=a74fe238-49b4-423f-b430-742b76a50cd5","ios":"levelo://app?vid=a74fe238-49b4-423f-b430-742b76a50cd5"},"vehicle_type_id":"4","last_reported":1684184756,"current_range_meters":20800,"station_id":"ce4bh512rcd13ifvqe2g","pricing_plan_id":"free"},{"bike_id":"1cbadb00-6d3f-4e9a-9529-e9bccf68aa2f","system_id":"levelo_inurba_marseille","lat":43.290995,"lon":5.381361,"is_reserved":false,"is_disabled":false,"rental_uris":{"android":"levelo://app?vid=1cbadb00-6d3f-4e9a-9529-e9bccf68aa2f","ios":"levelo://app?vid=1cbadb00-6d3f-4e9a-9529-e9bccf68aa2f"},"vehicle_type_id":"4","last_reported":1684184756,"current_range_meters":6800,"station_id":"ce4bh512rcd13ifvqe2g","pricing_plan_id":"free"},{"bike_id":"d954ef62-058e-4179-9c77-91ffae014595","system_id":"levelo_inurba_marseille","lat":43.290995,"lon":5.381361,"is_reserved":false,"is_disabled":false,"rental_uris":{"android":"levelo://app?vid=d954ef62-058e-4179-9c77-91ffae014595","ios":"levelo://app?vid=d954ef62-058e-4179-9c77-91ffae014595"},"vehicle_type_id":"4","last_reported":1684184756,"current_range_meters":0,"station_id":"ce4bh512rcd13ifvqe2g","pricing_plan_id":"free"},{"bike_id":"04faf0bb-e8f8-4345-a8d8-d7ec4b89ac19","system_id":"levelo_inurba_marseille","lat":43.290995,"lon":5.381361,"is_reserved":false,"is_disabled":false,"rental_uris":{"android":"levelo://app?vid=04faf0bb-e8f8-4345-a8d8-d7ec4b89ac19","ios":"levelo://app?vid=04faf0bb-e8f8-4345-a8d8-d7ec4b89ac19"},"vehicle_type_id":"4","last_reported":1684184756,"current_range_meters":1200,"station_id":"ce4bh512rcd13ifvqe2g","pricing_plan_id":"free"},{"bike_id":"ff80f65b-2b1e-4aea-a21d-dde4e0c26c13","system_id":"levelo_inurba_marseille","lat":43.29093,"lon":5.38143,"is_reserved":false,"is_disabled":false,"rental_uris":{"android":"levelo://app?vid=ff80f65b-2b1e-4aea-a21d-dde4e0c26c13","ios":"levelo://app?vid=ff80f65b-2b1e-4aea-a21d-dde4e0c26c13"},"vehicle_type_id":"4","last_reported":1684184756,"current_range_meters":3600,"station_id":"ce4bh512rcd13ifvqe2g","pricing_plan_id":"free"},{"bike_id":"64828839-76b5-4c64-b4eb-d0123573055a","system_id":"levelo_inurba_marseille","lat":43.289743,"lon":5.378304,"is_reserved":false,"is_disabled":false,"rental_uris":{"android":"levelo://app?vid=64828839-76b5-4c64-b4eb-d0123573055a","ios":"levelo://app?vid=64828839-76b5-4c64-b4eb-d0123573055a"},"vehicle_type_id":"4","last_reported":1684184756,"current_range_meters":12000,"station_id":"ce4bh9p2rcd13ifvqed0","pricing_plan_id":"free"},{"bike_id":"be876b72-fedc-44ca-9f7f-2c161fb7bd1d","system_id":"levelo_inurba_marseille","lat":43.295169,"lon":5.390426,"is_reserved":false,"is_disabled":false,"rental_uris":{"android":"levelo://app?vid=be876b72-fedc-44ca-9f7f-2c161fb7bd1d","ios":"levelo://app?vid=be876b72-fedc-44ca-9f7f-2c161fb7bd1d"},"vehicle_type_id":"4","last_reported":1684184756,"current_range_meters":10400,"station_id":"ce4bh3p2rcd13ifvqdp0","pricing_plan_id":"free"},{"bike_id":"53cebd48-f495-44eb-b056-4474e0d08ed7","system_id":"levelo_inurba_marseille","lat":43.2901,"lon":5.381269,"is_reserved":false,"is_disabled":false,"rental_uris":{"android":"levelo://app?vid=53cebd48-f495-44eb-b056-4474e0d08ed7","ios":"levelo://app?vid=53cebd48-f495-44eb-b056-4474e0d08ed7"},"vehicle_type_id":"4","last_reported":1684184756,"current_range_meters":400,"station_id":"ce4bh4p2rcd13ifvqe1g","pricing_plan_id":"free"},{"bike_id":"86c8a9ee-1a10-46ec-b868-27575c54b98e","system_id":"levelo_inurba_marseille","lat":43.29026,"lon":5.38145,"is_reserved":false,"is_disabled":false,"rental_uris":{"android":"levelo://app?vid=86c8a9ee-1a10-46ec-b868-27575c54b98e","ios":"levelo://app?vid=86c8a9ee-1a10-46ec-b868-27575c54b98e"},"vehicle_type_id":"4","last_reported":1684184756,"current_range_meters":23600,"station_id":"ce4bh4p2rcd13ifvqe1g","pricing_plan_id":"free"},{"bike_id":"4adcb9aa-c791-46a8-97bc-8b5f3542c749","system_id":"levelo_inurba_marseille","lat":43.2901,"lon":5.381269,"is_reserved":false,"is_disabled":false,"rental_uris":{"android":"levelo://app?vid=4adcb9aa-c791-46a8-97bc-8b5f3542c749","ios":"levelo://app?vid=4adcb9aa-c791-46a8-97bc-8b5f3542c749"},"vehicle_type_id":"4","last_reported":1684184756,"current_range_meters":26400,"station_id":"ce4bh4p2rcd13ifvqe1g","pricing_plan_id":"free"},{"bike_id":"3431c570-2a1c-4d76-ba02-6d7f79482ce9","system_id":"levelo_inurba_marseille","lat":43.28856,"lon":5.358371,"is_reserved":false,"is_disabled":false,"rental_uris":{"android":"levelo://app?vid=3431c570-2a1c-4d76-ba02-6d7f79482ce9","ios":"levelo://app?vid=3431c570-2a1c-4d76-ba02-6d7f79482ce9"},"vehicle_type_id":"4","last_reported":1684184756,"current_range_meters":0,"station_id":"ce4bhb12rcd13ifvqem0","pricing_plan_id":"free"},{"bike_id":"574df616-888c-4728-a3b2-398f0b5bf3ea","system_id":"levelo_inurba_marseille","lat":43.28856,"lon":5.358371,"is_reserved":false,"is_disabled":false,"rental_uris":{"android":"levelo://app?vid=574df616-888c-4728-a3b2-398f0b5bf3ea","ios":"levelo://app?vid=574df616-888c-4728-a3b2-398f0b5bf3ea"},"vehicle_type_id":"4","last_reported":1684184756,"current_range_meters":4400,"station_id":"ce4bhb12rcd13ifvqem0","pricing_plan_id":"free"},{"bike_id":"a644ae46-7eab-4ece-b842-a78fc03eaa6b","system_id":"levelo_inurba_marseille","lat":43.337328,"lon":5.374538,"is_reserved":false,"is_disabled":false,"rental_uris":{"android":"levelo://app?vid=a644ae46-7eab-4ece-b842-a78fc03eaa6b","ios":"levelo://app?vid=a644ae46-7eab-4ece-b842-a78fc03eaa6b"},"vehicle_type_id":"4","last_reported":1684184756,"current_range_meters":22400,"station_id":"ce4bhah2rcd13ifvqei0","pricing_plan_id":"free"},{"bike_id":"0aaf129a-7f4a-4b0c-837f-833be83b7a49","system_id":"levelo_inurba_marseille","lat":43.337436,"lon":5.374627,"is_reserved":false,"is_disabled":false,"rental_uris":{"android":"levelo://app?vid=0aaf129a-7f4a-4b0c-837f-833be83b7a49","ios":"levelo://app?vid=0aaf129a-7f4a-4b0c-837f-833be83b7a49"},"vehicle_type_id":"4","last_reported":1684184756,"current_range_meters":22800,"station_id":"ce4bhnp2rcd13ifvqgvg","pricing_plan_id":"free"},{"bike_id":"e76dbf32-115d-472e-8e1f-40fff4c31414","system_id":"levelo_inurba_marseille","lat":43.33751,"lon":5.37468,"is_reserved":false,"is_disabled":false,"rental_uris":{"android":"levelo://app?vid=e76dbf32-115d-472e-8e1f-40fff4c31414","ios":"levelo://app?vid=e76dbf32-115d-472e-8e1f-40fff4c31414"},"vehicle_type_id":"4","last_reported":1684184756,"current_range_meters":25600,"station_id":"","pricing_plan_id":"free"},{"bike_id":"657660a4-c2a1-49cf-8add-f475689f8832","system_id":"levelo_inurba_marseille","lat":43.30648,"lon":5.4008,"is_reserved":false,"is_disabled":false,"rental_uris":{"android":"levelo://app?vid=657660a4-c2a1-49cf-8add-f475689f8832","ios":"levelo://app?vid=657660a4-c2a1-49cf-8add-f475689f8832"},"vehicle_type_id":"4","last_reported":1684184756,"current_range_meters":6000,"station_id":"ce4bh112rcd13ifvqda0","pricing_plan_id":"free"},{"bike_id":"813d4a8b-9ad8-4d3a-8b70-7af3f4d37c5c","system_id":"levelo_inurba_marseille","lat":43.33769,"lon":5.37411,"is_reserved":false,"is_disabled":false,"rental_uris":{"android":"levelo://app?vid=813d4a8b-9ad8-4d3a-8b70-7af3f4d37c5c","ios":"levelo://app?vid=813d4a8b-9ad8-4d3a-8b70-7af3f4d37c5c"},"vehicle_type_id":"4","last_reported":1684184756,"current_range_meters":28800,"station_id":"ce4rr2p2rcd13i802rgg","pricing_plan_id":"free"},{"bike_id":"d1a01f7c-cf50-464c-acd5-d6f602ca54cd","system_id":"levelo_inurba_marseille","lat":43.30642,"lon":5.401031,"is_reserved":false,"is_disabled":false,"rental_uris":{"android":"levelo://app?vid=d1a01f7c-cf50-464c-acd5-d6f602ca54cd","ios":"levelo://app?vid=d1a01f7c-cf50-464c-acd5-d6f602ca54cd"},"vehicle_type_id":"4","last_reported":1684184756,"current_range_meters":15200,"station_id":"ce4bh112rcd13ifvqda0","pricing_plan_id":"free"},{"bike_id":"a9fb45a3-de0c-4f8a-a181-c9af155f0323","system_id":"levelo_inurba_marseille","lat":43.301117,"lon":5.398795,"is_reserved":false,"is_disabled":false,"rental_uris":{"android":"levelo://app?vid=a9fb45a3-de0c-4f8a-a181-c9af155f0323","ios":"levelo://app?vid=a9fb45a3-de0c-4f8a-a181-c9af155f0323"},"vehicle_type_id":"4","last_reported":1684184756,"current_range_meters":4000,"station_id":"ce4bh0h2rcd13ifvqd40","pricing_plan_id":"free"},{"bike_id":"118ab1e3-fd46-4cdd-96c1-46aee1334ff7","system_id":"levelo_inurba_marseille","lat":43.301117,"lon":5.398795,"is_reserved":false,"is_disabled":false,"rental_uris":{"android":"levelo://app?vid=118ab1e3-fd46-4cdd-96c1-46aee1334ff7","ios":"levelo://app?vid=118ab1e3-fd46-4cdd-96c1-46aee1334ff7"},"vehicle_type_id":"4","last_reported":1684184756,"current_range_meters":2400,"station_id":"ce4bh0h2rcd13ifvqd40","pricing_plan_id":"free"},{"bike_id":"270ccf34-b46f-4209-9787-0d26cc06f2e7","system_id":"levelo_inurba_marseille","lat":43.301117,"lon":5.398795,"is_reserved":false,"is_disabled":false,"rental_uris":{"android":"levelo://app?vid=270ccf34-b46f-4209-9787-0d26cc06f2e7","ios":"levelo://app?vid=270ccf34-b46f-4209-9787-0d26cc06f2e7"},"vehicle_type_id":"4","last_reported":1684184756,"current_range_meters":18800,"station_id":"ce4bh0h2rcd13ifvqd40","pricing_plan_id":"free"},{"bike_id":"615ca6c4-65cb-4b8f-87b6-8e6e436c5b1f","system_id":"levelo_inurba_marseille","lat":43.301117,"lon":5.398795,"is_reserved":false,"is_disabled":false,"rental_uris":{"android":"levelo://app?vid=615ca6c4-65cb-4b8f-87b6-8e6e436c5b1f","ios":"levelo://app?vid=615ca6c4-65cb-4b8f-87b6-8e6e436c5b1f"},"vehicle_type_id":"4","last_reported":1684184756,"current_range_meters":3200,"station_id":"ce4bh0h2rcd13ifvqd40","pricing_plan_id":"free"},{"bike_id":"1488fdda-dde1-47a0-a5fd-8b53c8346fb8","system_id":"levelo_inurba_marseille","lat":43.287184,"lon":5.37937,"is_reserved":false,"is_disabled":false,"rental_uris":{"android":"levelo://app?vid=1488fdda-dde1-47a0-a5fd-8b53c8346fb8","ios":"levelo://app?vid=1488fdda-dde1-47a0-a5fd-8b53c8346fb8"},"vehicle_type_id":"4","last_reported":1684184756,"current_range_meters":28000,"station_id":"ce4bh9p2rcd13ifvqec0","pricing_plan_id":"free"},{"bike_id":"da7311f0-50f9-45c7-9cda-84447bc44ae4","system_id":"levelo_inurba_marseille","lat":43.298681,"lon":5.397225,"is_reserved":false,"is_disabled":false,"rental_uris":{"android":"levelo://app?vid=da7311f0-50f9-45c7-9cda-84447bc44ae4","ios":"levelo://app?vid=da7311f0-50f9-45c7-9cda-84447bc44ae4"},"vehicle_type_id":"4","last_reported":1684184756,"current_range_meters":23200,"station_id":"ce4bh0h2rcd13ifvqd50","pricing_plan_id":"free"},{"bike_id":"c428c559-7f01-4beb-87e6-64eb4d3dcc87","system_id":"levelo_inurba_marseille","lat":43.298681,"lon":5.397225,"is_reserved":false,"is_disabled":false,"rental_uris":{"android":"levelo://app?vid=c428c559-7f01-4beb-87e6-64eb4d3dcc87","ios":"levelo://app?vid=c428c559-7f01-4beb-87e6-64eb4d3dcc87"},"vehicle_type_id":"4","last_reported":1684184756,"current_range_meters":24000,"station_id":"ce4bh0h2rcd13ifvqd50","pricing_plan_id":"free"},{"bike_id":"e2818edc-4c89-4b9f-92e1-db069f3f6a89","system_id":"levelo_inurba_marseille","lat":43.298681,"lon":5.397225,"is_reserved":false,"is_disabled":false,"rental_uris":{"android":"levelo://app?vid=e2818edc-4c89-4b9f-92e1-db069f3f6a89","ios":"levelo://app?vid=e2818edc-4c89-4b9f-92e1-db069f3f6a89"},"vehicle_type_id":"4","last_reported":1684184756,"current_range_meters":13600,"station_id":"ce4bh0h2rcd13ifvqd50","pricing_plan_id":"free"},{"bike_id":"1ba60ae9-dbc6-458c-8e6b-235bedf4b102","system_id":"levelo_inurba_marseille","lat":43.298681,"lon":5.397225,"is_reserved":false,"is_disabled":false,"rental_uris":{"android":"levelo://app?vid=1ba60ae9-dbc6-458c-8e6b-235bedf4b102","ios":"levelo://app?vid=1ba60ae9-dbc6-458c-8e6b-235bedf4b102"},"vehicle_type_id":"4","last_reported":1684184756,"current_range_meters":9200,"station_id":"ce4bh0h2rcd13ifvqd50","pricing_plan_id":"free"},{"bike_id":"b9cad181-6f93-4687-8cfc-2807ff743c71","system_id":"levelo_inurba_marseille","lat":43.286593,"lon":5.363346,"is_reserved":false,"is_disabled":false,"rental_uris":{"android":"levelo://app?vid=b9cad181-6f93-4687-8cfc-2807ff743c71","ios":"levelo://app?vid=b9cad181-6f93-4687-8cfc-2807ff743c71"},"vehicle_type_id":"4","last_reported":1684184756,"current_range_meters":18000,"station_id":"ce4bhah2rcd13ifvqej0","pricing_plan_id":"free"},{"bike_id":"142eaaf3-cd11-4d3e-af8e-2ec758d0f074","system_id":"levelo_inurba_marseille","lat":43.29527,"lon":5.39391,"is_reserved":false,"is_disabled":false,"rental_uris":{"android":"levelo://app?vid=142eaaf3-cd11-4d3e-af8e-2ec758d0f074","ios":"levelo://app?vid=142eaaf3-cd11-4d3e-af8e-2ec758d0f074"},"vehicle_type_id":"4","last_reported":1684184756,"current_range_meters":17600,"station_id":"ce4bh292rcd13ifvqdf0","pricing_plan_id":"free"},{"bike_id":"fcb2a5bb-dbc7-4f79-bbc6-10607388eeb5","system_id":"levelo_inurba_marseille","lat":43.295196,"lon":5.39397,"is_reserved":false,"is_disabled":false,"rental_uris":{"android":"levelo://app?vid=fcb2a5bb-dbc7-4f79-bbc6-10607388eeb5","ios":"levelo://app?vid=fcb2a5bb-dbc7-4f79-bbc6-10607388eeb5"},"vehicle_type_id":"4","last_reported":1684184756,"current_range_meters":30800,"station_id":"ce4bh292rcd13ifvqdf0","pricing_plan_id":"free"},{"bike_id":"de576ebb-dddf-44bb-bffc-bf22d4afe3f9","system_id":"levelo_inurba_marseille","lat":43.298681,"lon":5.397225,"is_reserved":false,"is_disabled":false,"rental_uris":{"android":"levelo://app?vid=de576ebb-dddf-44bb-bffc-bf22d4afe3f9","ios":"levelo://app?vid=de576ebb-dddf-44bb-bffc-bf22d4afe3f9"},"vehicle_type_id":"4","last_reported":1684184756,"current_range_meters":17600,"station_id":"ce4bh0h2rcd13ifvqd50","pricing_plan_id":"free"},{"bike_id":"ef4d4385-d924-459c-9f32-87cafb724cec","system_id":"levelo_inurba_marseille","lat":43.298681,"lon":5.397225,"is_reserved":false,"is_disabled":false,"rental_uris":{"android":"levelo://app?vid=ef4d4385-d924-459c-9f32-87cafb724cec","ios":"levelo://app?vid=ef4d4385-d924-459c-9f32-87cafb724cec"},"vehicle_type_id":"4","last_reported":1684184756,"current_range_meters":27600,"station_id":"ce4bh0h2rcd13ifvqd50","pricing_plan_id":"free"},{"bike_id":"0f62c7b5-3368-4913-8c4d-d7afd7309714","system_id":"levelo_inurba_marseille","lat":43.29521,"lon":5.39401,"is_reserved":false,"is_disabled":false,"rental_uris":{"android":"levelo://app?vid=0f62c7b5-3368-4913-8c4d-d7afd7309714","ios":"levelo://app?vid=0f62c7b5-3368-4913-8c4d-d7afd7309714"},"vehicle_type_id":"4","last_reported":1684184756,"current_range_meters":4800,"station_id":"ce4bh292rcd13ifvqdf0","pricing_plan_id":"free"},{"bike_id":"d32d3d76-cd04-4c1e-9b0e-5b5af0f227b6","system_id":"levelo_inurba_marseille","lat":43.295194,"lon":5.39397,"is_reserved":false,"is_disabled":false,"rental_uris":{"android":"levelo://app?vid=d32d3d76-cd04-4c1e-9b0e-5b5af0f227b6","ios":"levelo://app?vid=d32d3d76-cd04-4c1e-9b0e-5b5af0f227b6"},"vehicle_type_id":"4","last_reported":1684184756,"current_range_meters":22400,"station_id":"ce4bh292rcd13ifvqdf0","pricing_plan_id":"free"},{"bike_id":"f4f9158e-2480-45ae-a4ff-48a0306434f1","system_id":"levelo_inurba_marseille","lat":43.295196,"lon":5.39397,"is_reserved":false,"is_disabled":false,"rental_uris":{"android":"levelo://app?vid=f4f9158e-2480-45ae-a4ff-48a0306434f1","ios":"levelo://app?vid=f4f9158e-2480-45ae-a4ff-48a0306434f1"},"vehicle_type_id":"4","last_reported":1684184756,"current_range_meters":31600,"station_id":"ce4bh292rcd13ifvqdf0","pricing_plan_id":"free"},{"bike_id":"ae28b5f1-5a14-4ac0-919a-f7af664062dd","system_id":"levelo_inurba_marseille","lat":43.295196,"lon":5.39397,"is_reserved":false,"is_disabled":false,"rental_uris":{"android":"levelo://app?vid=ae28b5f1-5a14-4ac0-919a-f7af664062dd","ios":"levelo://app?vid=ae28b5f1-5a14-4ac0-919a-f7af664062dd"},"vehicle_type_id":"4","last_reported":1684184756,"current_range_meters":23200,"station_id":"ce4bh292rcd13ifvqdf0","pricing_plan_id":"free"},{"bike_id":"590173a9-6fb4-47cc-b8c3-a3d3029b974b","system_id":"levelo_inurba_marseille","lat":43.2951,"lon":5.39413,"is_reserved":false,"is_disabled":false,"rental_uris":{"android":"levelo://app?vid=590173a9-6fb4-47cc-b8c3-a3d3029b974b","ios":"levelo://app?vid=590173a9-6fb4-47cc-b8c3-a3d3029b974b"},"vehicle_type_id":"4","last_reported":1684184756,"current_range_meters":22000,"station_id":"ce4bh292rcd13ifvqdf0","pricing_plan_id":"free"},{"bike_id":"a893aa3a-8a11-4732-9ef1-47e10478da44","system_id":"levelo_inurba_marseille","lat":43.295194,"lon":5.39397,"is_reserved":false,"is_disabled":false,"rental_uris":{"android":"levelo://app?vid=a893aa3a-8a11-4732-9ef1-47e10478da44","ios":"levelo://app?vid=a893aa3a-8a11-4732-9ef1-47e10478da44"},"vehicle_type_id":"4","last_reported":1684184756,"current_range_meters":15600,"station_id":"ce4bh292rcd13ifvqdf0","pricing_plan_id":"free"},{"bike_id":"f169553e-5c54-4bd0-b153-780c69aded98","system_id":"levelo_inurba_marseille","lat":43.290336,"lon":5.386425,"is_reserved":false,"is_disabled":false,"rental_uris":{"android":"levelo://app?vid=f169553e-5c54-4bd0-b153-780c69aded98","ios":"levelo://app?vid=f169553e-5c54-4bd0-b153-780c69aded98"},"vehicle_type_id":"4","last_reported":1684184756,"current_range_meters":14800,"station_id":"ce4bh4p2rcd13ifvqe0g","pricing_plan_id":"free"},{"bike_id":"6d4bc18a-c6f1-4019-a672-6826f4f37fbc","system_id":"levelo_inurba_marseille","lat":43.290336,"lon":5.386425,"is_reserved":false,"is_disabled":false,"rental_uris":{"android":"levelo://app?vid=6d4bc18a-c6f1-4019-a672-6826f4f37fbc","ios":"levelo://app?vid=6d4bc18a-c6f1-4019-a672-6826f4f37fbc"},"vehicle_type_id":"4","last_reported":1684184756,"current_range_meters":9600,"station_id":"ce4bh4p2rcd13ifvqe0g","pricing_plan_id":"free"},{"bike_id":"d7713585-46da-4941-94ca-093503e02051","system_id":"levelo_inurba_marseille","lat":43.29026,"lon":5.38637,"is_reserved":false,"is_disabled":false,"rental_uris":{"android":"levelo://app?vid=d7713585-46da-4941-94ca-093503e02051","ios":"levelo://app?vid=d7713585-46da-4941-94ca-093503e02051"},"vehicle_type_id":"4","last_reported":1684184756,"current_range_meters":30800,"station_id":"","pricing_plan_id":"free"},{"bike_id":"be0275ce-f12e-4860-8283-35b491f9fdb9","system_id":"levelo_inurba_marseille","lat":43.290336,"lon":5.386425,"is_reserved":false,"is_disabled":false,"rental_uris":{"android":"levelo://app?vid=be0275ce-f12e-4860-8283-35b491f9fdb9","ios":"levelo://app?vid=be0275ce-f12e-4860-8283-35b491f9fdb9"},"vehicle_type_id":"4","last_reported":1684184756,"current_range_meters":4400,"station_id":"ce4bh4p2rcd13ifvqe0g","pricing_plan_id":"free"},{"bike_id":"34ca1db8-19fa-4f27-8627-0eeb522354af","system_id":"levelo_inurba_marseille","lat":43.290336,"lon":5.386425,"is_reserved":false,"is_disabled":false,"rental_uris":{"android":"levelo://app?vid=34ca1db8-19fa-4f27-8627-0eeb522354af","ios":"levelo://app?vid=34ca1db8-19fa-4f27-8627-0eeb522354af"},"vehicle_type_id":"4","last_reported":1684184756,"current_range_meters":1600,"station_id":"ce4bh4p2rcd13ifvqe0g","pricing_plan_id":"free"},{"bike_id":"08c620f9-42c7-467d-9000-66adf2d601f5","system_id":"levelo_inurba_marseille","lat":43.290336,"lon":5.386425,"is_reserved":false,"is_disabled":false,"rental_uris":{"android":"levelo://app?vid=08c620f9-42c7-467d-9000-66adf2d601f5","ios":"levelo://app?vid=08c620f9-42c7-467d-9000-66adf2d601f5"},"vehicle_type_id":"4","last_reported":1684184756,"current_range_meters":17600,"station_id":"ce4bh4p2rcd13ifvqe0g","pricing_plan_id":"free"},{"bike_id":"d8d8092a-5061-4630-86e5-9f4d33db4bf7","system_id":"levelo_inurba_marseille","lat":43.302759,"lon":5.400793,"is_reserved":false,"is_disabled":false,"rental_uris":{"android":"levelo://app?vid=d8d8092a-5061-4630-86e5-9f4d33db4bf7","ios":"levelo://app?vid=d8d8092a-5061-4630-86e5-9f4d33db4bf7"},"vehicle_type_id":"4","last_reported":1684184756,"current_range_meters":8400,"station_id":"ce4bgvh2rcd13ifvqcs0","pricing_plan_id":"free"},{"bike_id":"6c0f6ca4-245d-41c0-83f8-62a228edf4a2","system_id":"levelo_inurba_marseille","lat":43.302759,"lon":5.400793,"is_reserved":false,"is_disabled":false,"rental_uris":{"android":"levelo://app?vid=6c0f6ca4-245d-41c0-83f8-62a228edf4a2","ios":"levelo://app?vid=6c0f6ca4-245d-41c0-83f8-62a228edf4a2"},"vehicle_type_id":"4","last_reported":1684184756,"current_range_meters":0,"station_id":"ce4bgvh2rcd13ifvqcs0","pricing_plan_id":"free"},{"bike_id":"e1b3f592-b526-44d6-becf-bc6793bd7dcc","system_id":"levelo_inurba_marseille","lat":43.302759,"lon":5.400793,"is_reserved":false,"is_disabled":false,"rental_uris":{"android":"levelo://app?vid=e1b3f592-b526-44d6-becf-bc6793bd7dcc","ios":"levelo://app?vid=e1b3f592-b526-44d6-becf-bc6793bd7dcc"},"vehicle_type_id":"4","last_reported":1684184756,"current_range_meters":19200,"station_id":"ce4bgvh2rcd13ifvqcs0","pricing_plan_id":"free"},{"bike_id":"aa63693b-4deb-4e6d-8ea5-284927b6e055","system_id":"levelo_inurba_marseille","lat":43.302759,"lon":5.400793,"is_reserved":false,"is_disabled":false,"rental_uris":{"android":"levelo://app?vid=aa63693b-4deb-4e6d-8ea5-284927b6e055","ios":"levelo://app?vid=aa63693b-4deb-4e6d-8ea5-284927b6e055"},"vehicle_type_id":"4","last_reported":1684184756,"current_range_meters":31200,"station_id":"ce4bgvh2rcd13ifvqcs0","pricing_plan_id":"free"},{"bike_id":"3af4188a-ec87-4167-a387-fce6cee55c80","system_id":"levelo_inurba_marseille","lat":43.302759,"lon":5.400793,"is_reserved":false,"is_disabled":false,"rental_uris":{"android":"levelo://app?vid=3af4188a-ec87-4167-a387-fce6cee55c80","ios":"levelo://app?vid=3af4188a-ec87-4167-a387-fce6cee55c80"},"vehicle_type_id":"4","last_reported":1684184756,"current_range_meters":800,"station_id":"ce4bgvh2rcd13ifvqcs0","pricing_plan_id":"free"},{"bike_id":"395c2fc3-2817-43de-a0cb-ffe3893c0190","system_id":"levelo_inurba_marseille","lat":43.287185,"lon":5.379373,"is_reserved":false,"is_disabled":false,"rental_uris":{"android":"levelo://app?vid=395c2fc3-2817-43de-a0cb-ffe3893c0190","ios":"levelo://app?vid=395c2fc3-2817-43de-a0cb-ffe3893c0190"},"vehicle_type_id":"4","last_reported":1684184756,"current_range_meters":18400,"station_id":"ce4bh9p2rcd13ifvqec0","pricing_plan_id":"free"},{"bike_id":"fb71d2b5-b27d-4139-b9dc-e6c08d223ecd","system_id":"levelo_inurba_marseille","lat":43.287184,"lon":5.37937,"is_reserved":false,"is_disabled":false,"rental_uris":{"android":"levelo://app?vid=fb71d2b5-b27d-4139-b9dc-e6c08d223ecd","ios":"levelo://app?vid=fb71d2b5-b27d-4139-b9dc-e6c08d223ecd"},"vehicle_type_id":"4","last_reported":1684184756,"current_range_meters":17200,"station_id":"ce4bh9p2rcd13ifvqec0","pricing_plan_id":"free"},{"bike_id":"fde899de-0f2b-47bd-8eb7-dae066e40b1e","system_id":"levelo_inurba_marseille","lat":43.287185,"lon":5.379373,"is_reserved":false,"is_disabled":false,"rental_uris":{"android":"levelo://app?vid=fde899de-0f2b-47bd-8eb7-dae066e40b1e","ios":"levelo://app?vid=fde899de-0f2b-47bd-8eb7-dae066e40b1e"},"vehicle_type_id":"4","last_reported":1684184756,"current_range_meters":30800,"station_id":"ce4bh9p2rcd13ifvqec0","pricing_plan_id":"free"},{"bike_id":"2a28f531-c6b2-4f64-b306-9e693ff1435a","system_id":"levelo_inurba_marseille","lat":43.287185,"lon":5.379373,"is_reserved":false,"is_disabled":false,"rental_uris":{"android":"levelo://app?vid=2a28f531-c6b2-4f64-b306-9e693ff1435a","ios":"levelo://app?vid=2a28f531-c6b2-4f64-b306-9e693ff1435a"},"vehicle_type_id":"4","last_reported":1684184756,"current_range_meters":10800,"station_id":"ce4bh9p2rcd13ifvqec0","pricing_plan_id":"free"},{"bike_id":"19c10a87-75b0-4637-8d3f-de96ddb941ef","system_id":"levelo_inurba_marseille","lat":43.287184,"lon":5.37937,"is_reserved":false,"is_disabled":false,"rental_uris":{"android":"levelo://app?vid=19c10a87-75b0-4637-8d3f-de96ddb941ef","ios":"levelo://app?vid=19c10a87-75b0-4637-8d3f-de96ddb941ef"},"vehicle_type_id":"4","last_reported":1684184756,"current_range_meters":30000,"station_id":"ce4bh9p2rcd13ifvqec0","pricing_plan_id":"free"},{"bike_id":"33e7f1b7-b523-4ef3-b6d9-04e6a726ea72","system_id":"levelo_inurba_marseille","lat":43.287185,"lon":5.379373,"is_reserved":false,"is_disabled":false,"rental_uris":{"android":"levelo://app?vid=33e7f1b7-b523-4ef3-b6d9-04e6a726ea72","ios":"levelo://app?vid=33e7f1b7-b523-4ef3-b6d9-04e6a726ea72"},"vehicle_type_id":"4","last_reported":1684184756,"current_range_meters":10400,"station_id":"ce4bh9p2rcd13ifvqec0","pricing_plan_id":"free"},{"bike_id":"e1521b20-58e9-490b-8406-dedc8f9e94f9","system_id":"levelo_inurba_marseille","lat":43.287185,"lon":5.379373,"is_reserved":false,"is_disabled":false,"rental_uris":{"android":"levelo://app?vid=e1521b20-58e9-490b-8406-dedc8f9e94f9","ios":"levelo://app?vid=e1521b20-58e9-490b-8406-dedc8f9e94f9"},"vehicle_type_id":"4","last_reported":1684184756,"current_range_meters":4000,"station_id":"ce4bh9p2rcd13ifvqec0","pricing_plan_id":"free"},{"bike_id":"70cd5c5c-9ca7-49b4-ae44-e0ce806bffe2","system_id":"levelo_inurba_marseille","lat":43.316447,"lon":5.404321,"is_reserved":false,"is_disabled":false,"rental_uris":{"android":"levelo://app?vid=70cd5c5c-9ca7-49b4-ae44-e0ce806bffe2","ios":"levelo://app?vid=70cd5c5c-9ca7-49b4-ae44-e0ce806bffe2"},"vehicle_type_id":"4","last_reported":1684184756,"current_range_meters":4400,"station_id":"","pricing_plan_id":"free"},{"bike_id":"403985ce-7977-4e08-bb4c-21fbd91014eb","system_id":"levelo_inurba_marseille","lat":43.316517,"lon":5.404375,"is_reserved":false,"is_disabled":false,"rental_uris":{"android":"levelo://app?vid=403985ce-7977-4e08-bb4c-21fbd91014eb","ios":"levelo://app?vid=403985ce-7977-4e08-bb4c-21fbd91014eb"},"vehicle_type_id":"4","last_reported":1684184756,"current_range_meters":30400,"station_id":"ce4bh012rcd13ifvqd00","pricing_plan_id":"free"},{"bike_id":"3a221707-bb4e-45f0-a7a2-fb9bcb81da3d","system_id":"levelo_inurba_marseille","lat":43.316517,"lon":5.404375,"is_reserved":false,"is_disabled":false,"rental_uris":{"android":"levelo://app?vid=3a221707-bb4e-45f0-a7a2-fb9bcb81da3d","ios":"levelo://app?vid=3a221707-bb4e-45f0-a7a2-fb9bcb81da3d"},"vehicle_type_id":"4","last_reported":1684184756,"current_range_meters":6400,"station_id":"ce4bh012rcd13ifvqd00","pricing_plan_id":"free"},{"bike_id":"91d10efa-f5c0-468c-8c23-dd728787f52c","system_id":"levelo_inurba_marseille","lat":43.291994,"lon":5.392907,"is_reserved":false,"is_disabled":false,"rental_uris":{"android":"levelo://app?vid=91d10efa-f5c0-468c-8c23-dd728787f52c","ios":"levelo://app?vid=91d10efa-f5c0-468c-8c23-dd728787f52c"},"vehicle_type_id":"4","last_reported":1684184756,"current_range_meters":31200,"station_id":"ce4bh192rcd13ifvqdd0","pricing_plan_id":"free"},{"bike_id":"09f056af-07be-42df-bcaf-fc65d3909d48","system_id":"levelo_inurba_marseille","lat":43.291994,"lon":5.392907,"is_reserved":false,"is_disabled":false,"rental_uris":{"android":"levelo://app?vid=09f056af-07be-42df-bcaf-fc65d3909d48","ios":"levelo://app?vid=09f056af-07be-42df-bcaf-fc65d3909d48"},"vehicle_type_id":"4","last_reported":1684184756,"current_range_meters":14000,"station_id":"ce4bh192rcd13ifvqdd0","pricing_plan_id":"free"},{"bike_id":"ab71db90-45eb-45c9-b4e0-ae6149c1fd53","system_id":"levelo_inurba_marseille","lat":43.284534,"lon":5.358662,"is_reserved":false,"is_disabled":false,"rental_uris":{"android":"levelo://app?vid=ab71db90-45eb-45c9-b4e0-ae6149c1fd53","ios":"levelo://app?vid=ab71db90-45eb-45c9-b4e0-ae6149c1fd53"},"vehicle_type_id":"4","last_reported":1684184756,"current_range_meters":4000,"station_id":"ce4bhah2rcd13ifvqei0","pricing_plan_id":"free"},{"bike_id":"f5db6993-8753-42ea-a5cf-414f4b2bfce5","system_id":"levelo_inurba_marseille","lat":43.284534,"lon":5.358662,"is_reserved":false,"is_disabled":false,"rental_uris":{"android":"levelo://app?vid=f5db6993-8753-42ea-a5cf-414f4b2bfce5","ios":"levelo://app?vid=f5db6993-8753-42ea-a5cf-414f4b2bfce5"},"vehicle_type_id":"4","last_reported":1684184756,"current_range_meters":19200,"station_id":"ce4bhah2rcd13ifvqei0","pricing_plan_id":"free"},{"bike_id":"42007403-c963-4369-8d3f-6f07d3069a78","system_id":"levelo_inurba_marseille","lat":43.284534,"lon":5.358662,"is_reserved":false,"is_disabled":false,"rental_uris":{"android":"levelo://app?vid=42007403-c963-4369-8d3f-6f07d3069a78","ios":"levelo://app?vid=42007403-c963-4369-8d3f-6f07d3069a78"},"vehicle_type_id":"4","last_reported":1684184756,"current_range_meters":15600,"station_id":"ce4bhah2rcd13ifvqei0","pricing_plan_id":"free"},{"bike_id":"14225d95-0809-4d1c-932b-6940116a5a01","system_id":"levelo_inurba_marseille","lat":43.284534,"lon":5.358662,"is_reserved":false,"is_disabled":false,"rental_uris":{"android":"levelo://app?vid=14225d95-0809-4d1c-932b-6940116a5a01","ios":"levelo://app?vid=14225d95-0809-4d1c-932b-6940116a5a01"},"vehicle_type_id":"4","last_reported":1684184756,"current_range_meters":8000,"station_id":"ce4bhah2rcd13ifvqei0","pricing_plan_id":"free"},{"bike_id":"84a6cafb-20e0-4a3a-8cbc-b5459a59de3d","system_id":"levelo_inurba_marseille","lat":43.284534,"lon":5.358662,"is_reserved":false,"is_disabled":false,"rental_uris":{"android":"levelo://app?vid=84a6cafb-20e0-4a3a-8cbc-b5459a59de3d","ios":"levelo://app?vid=84a6cafb-20e0-4a3a-8cbc-b5459a59de3d"},"vehicle_type_id":"4","last_reported":1684184756,"current_range_meters":26800,"station_id":"ce4bhah2rcd13ifvqei0","pricing_plan_id":"free"},{"bike_id":"ccb9128c-8228-4e69-9b3f-7f67f557f281","system_id":"levelo_inurba_marseille","lat":43.284534,"lon":5.358662,"is_reserved":false,"is_disabled":false,"rental_uris":{"android":"levelo://app?vid=ccb9128c-8228-4e69-9b3f-7f67f557f281","ios":"levelo://app?vid=ccb9128c-8228-4e69-9b3f-7f67f557f281"},"vehicle_type_id":"4","last_reported":1684184756,"current_range_meters":15200,"station_id":"ce4bhah2rcd13ifvqei0","pricing_plan_id":"free"},{"bike_id":"cf74449a-ea5a-4eef-a2dc-d7e2fc44a13b","system_id":"levelo_inurba_marseille","lat":43.28456,"lon":5.35885,"is_reserved":false,"is_disabled":false,"rental_uris":{"android":"levelo://app?vid=cf74449a-ea5a-4eef-a2dc-d7e2fc44a13b","ios":"levelo://app?vid=cf74449a-ea5a-4eef-a2dc-d7e2fc44a13b"},"vehicle_type_id":"4","last_reported":1684184756,"current_range_meters":8000,"station_id":"ce4bhah2rcd13ifvqei0","pricing_plan_id":"free"},{"bike_id":"1a1fedfb-bc1b-4438-8983-b7abc439a0a2","system_id":"levelo_inurba_marseille","lat":43.284534,"lon":5.358662,"is_reserved":false,"is_disabled":false,"rental_uris":{"android":"levelo://app?vid=1a1fedfb-bc1b-4438-8983-b7abc439a0a2","ios":"levelo://app?vid=1a1fedfb-bc1b-4438-8983-b7abc439a0a2"},"vehicle_type_id":"4","last_reported":1684184756,"current_range_meters":2400,"station_id":"ce4bhah2rcd13ifvqei0","pricing_plan_id":"free"},{"bike_id":"f284ab26-209f-4e96-affb-4da1015d0eff","system_id":"levelo_inurba_marseille","lat":43.284534,"lon":5.358662,"is_reserved":false,"is_disabled":false,"rental_uris":{"android":"levelo://app?vid=f284ab26-209f-4e96-affb-4da1015d0eff","ios":"levelo://app?vid=f284ab26-209f-4e96-affb-4da1015d0eff"},"vehicle_type_id":"4","last_reported":1684184756,"current_range_meters":19200,"station_id":"ce4bhah2rcd13ifvqei0","pricing_plan_id":"free"},{"bike_id":"69ffbfe8-0090-4d0d-949d-2f9c75be4925","system_id":"levelo_inurba_marseille","lat":43.28452,"lon":5.35888,"is_reserved":false,"is_disabled":false,"rental_uris":{"android":"levelo://app?vid=69ffbfe8-0090-4d0d-949d-2f9c75be4925","ios":"levelo://app?vid=69ffbfe8-0090-4d0d-949d-2f9c75be4925"},"vehicle_type_id":"4","last_reported":1684184756,"current_range_meters":6800,"station_id":"ce4bhah2rcd13ifvqei0","pricing_plan_id":"free"},{"bike_id":"be8ee11f-dbf4-4ed8-9afe-232e89f2f7fd","system_id":"levelo_inurba_marseille","lat":43.28451,"lon":5.35892,"is_reserved":false,"is_disabled":false,"rental_uris":{"android":"levelo://app?vid=be8ee11f-dbf4-4ed8-9afe-232e89f2f7fd","ios":"levelo://app?vid=be8ee11f-dbf4-4ed8-9afe-232e89f2f7fd"},"vehicle_type_id":"4","last_reported":1684184756,"current_range_meters":7600,"station_id":"ce4bhah2rcd13ifvqei0","pricing_plan_id":"free"},{"bike_id":"2cf4b41e-bedc-4825-a7da-3cbde0c261d8","system_id":"levelo_inurba_marseille","lat":43.284534,"lon":5.358662,"is_reserved":false,"is_disabled":false,"rental_uris":{"android":"levelo://app?vid=2cf4b41e-bedc-4825-a7da-3cbde0c261d8","ios":"levelo://app?vid=2cf4b41e-bedc-4825-a7da-3cbde0c261d8"},"vehicle_type_id":"4","last_reported":1684184756,"current_range_meters":26800,"station_id":"ce4bhah2rcd13ifvqei0","pricing_plan_id":"free"},{"bike_id":"3cf2c17e-13cf-4fea-b032-b5f73fc330f2","system_id":"levelo_inurba_marseille","lat":43.28449,"lon":5.35888,"is_reserved":false,"is_disabled":false,"rental_uris":{"android":"levelo://app?vid=3cf2c17e-13cf-4fea-b032-b5f73fc330f2","ios":"levelo://app?vid=3cf2c17e-13cf-4fea-b032-b5f73fc330f2"},"vehicle_type_id":"4","last_reported":1684184756,"current_range_meters":14400,"station_id":"ce4bhah2rcd13ifvqei0","pricing_plan_id":"free"},{"bike_id":"5a64992d-4f81-4576-9167-4fdf51d97a63","system_id":"levelo_inurba_marseille","lat":43.28619,"lon":5.35103,"is_reserved":false,"is_disabled":false,"rental_uris":{"android":"levelo://app?vid=5a64992d-4f81-4576-9167-4fdf51d97a63","ios":"levelo://app?vid=5a64992d-4f81-4576-9167-4fdf51d97a63"},"vehicle_type_id":"4","last_reported":1684184756,"current_range_meters":30000,"station_id":"","pricing_plan_id":"free"},{"bike_id":"98eadbde-d5ff-4b7d-a2f2-f073c9242783","system_id":"levelo_inurba_marseille","lat":43.28619,"lon":5.35094,"is_reserved":false,"is_disabled":false,"rental_uris":{"android":"levelo://app?vid=98eadbde-d5ff-4b7d-a2f2-f073c9242783","ios":"levelo://app?vid=98eadbde-d5ff-4b7d-a2f2-f073c9242783"},"vehicle_type_id":"4","last_reported":1684184756,"current_range_meters":24800,"station_id":"","pricing_plan_id":"free"},{"bike_id":"bbd7436b-1f5c-4d85-a8ea-79bcb268f93e","system_id":"levelo_inurba_marseille","lat":43.285856,"lon":5.350771,"is_reserved":false,"is_disabled":false,"rental_uris":{"android":"levelo://app?vid=bbd7436b-1f5c-4d85-a8ea-79bcb268f93e","ios":"levelo://app?vid=bbd7436b-1f5c-4d85-a8ea-79bcb268f93e"},"vehicle_type_id":"4","last_reported":1684184756,"current_range_meters":31200,"station_id":"ce4bhch2rcd13ifvqeug","pricing_plan_id":"free"},{"bike_id":"3a242261-0216-45db-a1b0-f80d4648ccbb","system_id":"levelo_inurba_marseille","lat":43.28618,"lon":5.35094,"is_reserved":false,"is_disabled":false,"rental_uris":{"android":"levelo://app?vid=3a242261-0216-45db-a1b0-f80d4648ccbb","ios":"levelo://app?vid=3a242261-0216-45db-a1b0-f80d4648ccbb"},"vehicle_type_id":"4","last_reported":1684184756,"current_range_meters":27200,"station_id":"","pricing_plan_id":"free"},{"bike_id":"28bfd4b4-deeb-41fa-902d-d824483a1341","system_id":"levelo_inurba_marseille","lat":43.28615,"lon":5.35101,"is_reserved":false,"is_disabled":false,"rental_uris":{"android":"levelo://app?vid=28bfd4b4-deeb-41fa-902d-d824483a1341","ios":"levelo://app?vid=28bfd4b4-deeb-41fa-902d-d824483a1341"},"vehicle_type_id":"4","last_reported":1684184756,"current_range_meters":29200,"station_id":"","pricing_plan_id":"free"},{"bike_id":"672e127f-74f2-42f0-8989-a203b15ee704","system_id":"levelo_inurba_marseille","lat":43.286151,"lon":5.351006,"is_reserved":false,"is_disabled":false,"rental_uris":{"android":"levelo://app?vid=672e127f-74f2-42f0-8989-a203b15ee704","ios":"levelo://app?vid=672e127f-74f2-42f0-8989-a203b15ee704"},"vehicle_type_id":"4","last_reported":1684184756,"current_range_meters":9600,"station_id":"ce4bhbp2rcd13ifvqerg","pricing_plan_id":"free"},{"bike_id":"bba7301f-0db3-4383-9c18-8aa016fc37d5","system_id":"levelo_inurba_marseille","lat":43.28614,"lon":5.35098,"is_reserved":false,"is_disabled":false,"rental_uris":{"android":"levelo://app?vid=bba7301f-0db3-4383-9c18-8aa016fc37d5","ios":"levelo://app?vid=bba7301f-0db3-4383-9c18-8aa016fc37d5"},"vehicle_type_id":"4","last_reported":1684184756,"current_range_meters":30000,"station_id":"","pricing_plan_id":"free"},{"bike_id":"5110c4ba-4653-4a8b-a5ae-20f4280c9edd","system_id":"levelo_inurba_marseille","lat":43.28614,"lon":5.35097,"is_reserved":false,"is_disabled":false,"rental_uris":{"android":"levelo://app?vid=5110c4ba-4653-4a8b-a5ae-20f4280c9edd","ios":"levelo://app?vid=5110c4ba-4653-4a8b-a5ae-20f4280c9edd"},"vehicle_type_id":"4","last_reported":1684184756,"current_range_meters":800,"station_id":"","pricing_plan_id":"free"},{"bike_id":"3c34687f-2d3a-4ab9-ad4a-f37f3ffd4f2d","system_id":"levelo_inurba_marseille","lat":43.28613,"lon":5.35094,"is_reserved":false,"is_disabled":false,"rental_uris":{"android":"levelo://app?vid=3c34687f-2d3a-4ab9-ad4a-f37f3ffd4f2d","ios":"levelo://app?vid=3c34687f-2d3a-4ab9-ad4a-f37f3ffd4f2d"},"vehicle_type_id":"4","last_reported":1684184756,"current_range_meters":25600,"station_id":"","pricing_plan_id":"free"},{"bike_id":"2b665aec-e325-45fd-bbae-d3c8aca91a22","system_id":"levelo_inurba_marseille","lat":43.28609,"lon":5.35097,"is_reserved":false,"is_disabled":false,"rental_uris":{"android":"levelo://app?vid=2b665aec-e325-45fd-bbae-d3c8aca91a22","ios":"levelo://app?vid=2b665aec-e325-45fd-bbae-d3c8aca91a22"},"vehicle_type_id":"4","last_reported":1684184756,"current_range_meters":20400,"station_id":"","pricing_plan_id":"free"},{"bike_id":"1a23bbb8-1e7d-407d-874c-192e8f180c52","system_id":"levelo_inurba_marseille","lat":43.295713,"lon":5.399639,"is_reserved":false,"is_disabled":false,"rental_uris":{"android":"levelo://app?vid=1a23bbb8-1e7d-407d-874c-192e8f180c52","ios":"levelo://app?vid=1a23bbb8-1e7d-407d-874c-192e8f180c52"},"vehicle_type_id":"4","last_reported":1684184756,"current_range_meters":4400,"station_id":"ce4bh312rcd13ifvqdj0","pricing_plan_id":"free"},{"bike_id":"f284b1ee-defc-445e-9581-0f49b7c9b35f","system_id":"levelo_inurba_marseille","lat":43.286595,"lon":5.386795,"is_reserved":false,"is_disabled":false,"rental_uris":{"android":"levelo://app?vid=f284b1ee-defc-445e-9581-0f49b7c9b35f","ios":"levelo://app?vid=f284b1ee-defc-445e-9581-0f49b7c9b35f"},"vehicle_type_id":"4","last_reported":1684184756,"current_range_meters":2800,"station_id":"ce4bh492rcd13ifvqdug","pricing_plan_id":"free"},{"bike_id":"17e7dc15-428d-4c23-86d8-98285bd02285","system_id":"levelo_inurba_marseille","lat":43.286595,"lon":5.386795,"is_reserved":false,"is_disabled":false,"rental_uris":{"android":"levelo://app?vid=17e7dc15-428d-4c23-86d8-98285bd02285","ios":"levelo://app?vid=17e7dc15-428d-4c23-86d8-98285bd02285"},"vehicle_type_id":"4","last_reported":1684184756,"current_range_meters":24800,"station_id":"ce4bh492rcd13ifvqdug","pricing_plan_id":"free"},{"bike_id":"17f3f2eb-2398-4496-9303-c11f7a0d058c","system_id":"levelo_inurba_marseille","lat":43.286595,"lon":5.386795,"is_reserved":false,"is_disabled":false,"rental_uris":{"android":"levelo://app?vid=17f3f2eb-2398-4496-9303-c11f7a0d058c","ios":"levelo://app?vid=17f3f2eb-2398-4496-9303-c11f7a0d058c"},"vehicle_type_id":"4","last_reported":1684184756,"current_range_meters":30000,"station_id":"ce4bh492rcd13ifvqdug","pricing_plan_id":"free"},{"bike_id":"fa472c99-f4cf-47e3-9ce8-da1c4074cf69","system_id":"levelo_inurba_marseille","lat":43.32336,"lon":5.4062,"is_reserved":false,"is_disabled":false,"rental_uris":{"android":"levelo://app?vid=fa472c99-f4cf-47e3-9ce8-da1c4074cf69","ios":"levelo://app?vid=fa472c99-f4cf-47e3-9ce8-da1c4074cf69"},"vehicle_type_id":"4","last_reported":1684184756,"current_range_meters":12400,"station_id":"ce4bhq92rcd13ifvqhjg","pricing_plan_id":"free"},{"bike_id":"7c2566a0-db64-4f8d-8530-1ada6bf1bd13","system_id":"levelo_inurba_marseille","lat":43.32336,"lon":5.4062,"is_reserved":false,"is_disabled":false,"rental_uris":{"android":"levelo://app?vid=7c2566a0-db64-4f8d-8530-1ada6bf1bd13","ios":"levelo://app?vid=7c2566a0-db64-4f8d-8530-1ada6bf1bd13"},"vehicle_type_id":"4","last_reported":1684184756,"current_range_meters":6800,"station_id":"ce4bhq92rcd13ifvqhjg","pricing_plan_id":"free"},{"bike_id":"696b598f-70db-4ab9-8719-41e755525fe3","system_id":"levelo_inurba_marseille","lat":43.3372,"lon":5.39194,"is_reserved":false,"is_disabled":false,"rental_uris":{"android":"levelo://app?vid=696b598f-70db-4ab9-8719-41e755525fe3","ios":"levelo://app?vid=696b598f-70db-4ab9-8719-41e755525fe3"},"vehicle_type_id":"4","last_reported":1684184756,"current_range_meters":0,"station_id":"ce4bhr92rcd13ifvqhsg","pricing_plan_id":"free"},{"bike_id":"3fe91a58-5cb8-4fc5-b1c0-fcd89c9efb0b","system_id":"levelo_inurba_marseille","lat":43.283494,"lon":5.380945,"is_reserved":false,"is_disabled":false,"rental_uris":{"android":"levelo://app?vid=3fe91a58-5cb8-4fc5-b1c0-fcd89c9efb0b","ios":"levelo://app?vid=3fe91a58-5cb8-4fc5-b1c0-fcd89c9efb0b"},"vehicle_type_id":"4","last_reported":1684184756,"current_range_meters":10800,"station_id":"ce4bh412rcd13ifvqdr0","pricing_plan_id":"free"},{"bike_id":"f43e699c-565a-4722-a0b4-8e65bb5ca5af","system_id":"levelo_inurba_marseille","lat":43.283494,"lon":5.380945,"is_reserved":false,"is_disabled":false,"rental_uris":{"android":"levelo://app?vid=f43e699c-565a-4722-a0b4-8e65bb5ca5af","ios":"levelo://app?vid=f43e699c-565a-4722-a0b4-8e65bb5ca5af"},"vehicle_type_id":"4","last_reported":1684184756,"current_range_meters":17200,"station_id":"ce4bh412rcd13ifvqdr0","pricing_plan_id":"free"},{"bike_id":"67eb2624-d352-4767-8a4a-0c0ac7062f77","system_id":"levelo_inurba_marseille","lat":43.283498,"lon":5.380948,"is_reserved":false,"is_disabled":false,"rental_uris":{"android":"levelo://app?vid=67eb2624-d352-4767-8a4a-0c0ac7062f77","ios":"levelo://app?vid=67eb2624-d352-4767-8a4a-0c0ac7062f77"},"vehicle_type_id":"4","last_reported":1684184756,"current_range_meters":27200,"station_id":"ce4bh412rcd13ifvqdr0","pricing_plan_id":"free"},{"bike_id":"ce1250a4-8e94-4778-bd7b-c785aba9d986","system_id":"levelo_inurba_marseille","lat":43.283494,"lon":5.380945,"is_reserved":false,"is_disabled":false,"rental_uris":{"android":"levelo://app?vid=ce1250a4-8e94-4778-bd7b-c785aba9d986","ios":"levelo://app?vid=ce1250a4-8e94-4778-bd7b-c785aba9d986"},"vehicle_type_id":"4","last_reported":1684184756,"current_range_meters":13200,"station_id":"ce4bh412rcd13ifvqdr0","pricing_plan_id":"free"},{"bike_id":"745c47b5-5ff6-4b45-980d-bb78aed144db","system_id":"levelo_inurba_marseille","lat":43.283494,"lon":5.380945,"is_reserved":false,"is_disabled":false,"rental_uris":{"android":"levelo://app?vid=745c47b5-5ff6-4b45-980d-bb78aed144db","ios":"levelo://app?vid=745c47b5-5ff6-4b45-980d-bb78aed144db"},"vehicle_type_id":"4","last_reported":1684184756,"current_range_meters":26800,"station_id":"ce4bh412rcd13ifvqdr0","pricing_plan_id":"free"},{"bike_id":"09683308-546a-4671-ae27-c14c2c22b610","system_id":"levelo_inurba_marseille","lat":43.283494,"lon":5.380945,"is_reserved":false,"is_disabled":false,"rental_uris":{"android":"levelo://app?vid=09683308-546a-4671-ae27-c14c2c22b610","ios":"levelo://app?vid=09683308-546a-4671-ae27-c14c2c22b610"},"vehicle_type_id":"4","last_reported":1684184756,"current_range_meters":22000,"station_id":"ce4bh412rcd13ifvqdr0","pricing_plan_id":"free"},{"bike_id":"62eb235e-5f9c-4982-a521-06ac25edfd39","system_id":"levelo_inurba_marseille","lat":43.28432,"lon":5.34982,"is_reserved":false,"is_disabled":false,"rental_uris":{"android":"levelo://app?vid=62eb235e-5f9c-4982-a521-06ac25edfd39","ios":"levelo://app?vid=62eb235e-5f9c-4982-a521-06ac25edfd39"},"vehicle_type_id":"4","last_reported":1684184756,"current_range_meters":20000,"station_id":"ce4bhbh2rcd13ifvqepg","pricing_plan_id":"free"},{"bike_id":"25d3f0c2-a677-47ae-8627-c6a36dd0e124","system_id":"levelo_inurba_marseille","lat":43.284219,"lon":5.3497,"is_reserved":false,"is_disabled":false,"rental_uris":{"android":"levelo://app?vid=25d3f0c2-a677-47ae-8627-c6a36dd0e124","ios":"levelo://app?vid=25d3f0c2-a677-47ae-8627-c6a36dd0e124"},"vehicle_type_id":"4","last_reported":1684184756,"current_range_meters":28000,"station_id":"ce4bhbh2rcd13ifvqepg","pricing_plan_id":"free"},{"bike_id":"f03f0090-2415-4841-9756-b9fcd5c9ac30","system_id":"levelo_inurba_marseille","lat":43.283498,"lon":5.380948,"is_reserved":false,"is_disabled":false,"rental_uris":{"android":"levelo://app?vid=f03f0090-2415-4841-9756-b9fcd5c9ac30","ios":"levelo://app?vid=f03f0090-2415-4841-9756-b9fcd5c9ac30"},"vehicle_type_id":"4","last_reported":1684184756,"current_range_meters":28800,"station_id":"ce4bh412rcd13ifvqdr0","pricing_plan_id":"free"},{"bike_id":"9e669dce-c083-4c21-bca9-c56f1097660d","system_id":"levelo_inurba_marseille","lat":43.28424,"lon":5.34995,"is_reserved":false,"is_disabled":false,"rental_uris":{"android":"levelo://app?vid=9e669dce-c083-4c21-bca9-c56f1097660d","ios":"levelo://app?vid=9e669dce-c083-4c21-bca9-c56f1097660d"},"vehicle_type_id":"4","last_reported":1684184756,"current_range_meters":28400,"station_id":"ce4bhbh2rcd13ifvqepg","pricing_plan_id":"free"},{"bike_id":"b3c5cdf8-ed54-40f2-bd35-edcd7fcdf94c","system_id":"levelo_inurba_marseille","lat":43.284219,"lon":5.3497,"is_reserved":false,"is_disabled":false,"rental_uris":{"android":"levelo://app?vid=b3c5cdf8-ed54-40f2-bd35-edcd7fcdf94c","ios":"levelo://app?vid=b3c5cdf8-ed54-40f2-bd35-edcd7fcdf94c"},"vehicle_type_id":"4","last_reported":1684184756,"current_range_meters":800,"station_id":"ce4bhbh2rcd13ifvqepg","pricing_plan_id":"free"},{"bike_id":"bbb0c2bc-de98-45ab-816b-b14b9e0389f1","system_id":"levelo_inurba_marseille","lat":43.28423,"lon":5.3499,"is_reserved":false,"is_disabled":false,"rental_uris":{"android":"levelo://app?vid=bbb0c2bc-de98-45ab-816b-b14b9e0389f1","ios":"levelo://app?vid=bbb0c2bc-de98-45ab-816b-b14b9e0389f1"},"vehicle_type_id":"4","last_reported":1684184756,"current_range_meters":19200,"station_id":"ce4bhbh2rcd13ifvqepg","pricing_plan_id":"free"},{"bike_id":"858374cb-cfee-4f68-a770-bd6e01270211","system_id":"levelo_inurba_marseille","lat":43.284219,"lon":5.3497,"is_reserved":false,"is_disabled":false,"rental_uris":{"android":"levelo://app?vid=858374cb-cfee-4f68-a770-bd6e01270211","ios":"levelo://app?vid=858374cb-cfee-4f68-a770-bd6e01270211"},"vehicle_type_id":"4","last_reported":1684184756,"current_range_meters":30000,"station_id":"ce4bhbh2rcd13ifvqepg","pricing_plan_id":"free"},{"bike_id":"8b7bb9fd-73fb-41be-868a-86b4fd445df3","system_id":"levelo_inurba_marseille","lat":43.284217,"lon":5.349697,"is_reserved":false,"is_disabled":false,"rental_uris":{"android":"levelo://app?vid=8b7bb9fd-73fb-41be-868a-86b4fd445df3","ios":"levelo://app?vid=8b7bb9fd-73fb-41be-868a-86b4fd445df3"},"vehicle_type_id":"4","last_reported":1684184756,"current_range_meters":31200,"station_id":"ce4bhbh2rcd13ifvqepg","pricing_plan_id":"free"},{"bike_id":"b557dae2-3d4d-44b6-a788-6ef45dc42c42","system_id":"levelo_inurba_marseille","lat":43.284219,"lon":5.3497,"is_reserved":false,"is_disabled":false,"rental_uris":{"android":"levelo://app?vid=b557dae2-3d4d-44b6-a788-6ef45dc42c42","ios":"levelo://app?vid=b557dae2-3d4d-44b6-a788-6ef45dc42c42"},"vehicle_type_id":"4","last_reported":1684184756,"current_range_meters":16400,"station_id":"ce4bhbh2rcd13ifvqepg","pricing_plan_id":"free"},{"bike_id":"df7de2f6-a6f6-4c34-96f2-f1a8e36d1aea","system_id":"levelo_inurba_marseille","lat":43.284219,"lon":5.3497,"is_reserved":false,"is_disabled":false,"rental_uris":{"android":"levelo://app?vid=df7de2f6-a6f6-4c34-96f2-f1a8e36d1aea","ios":"levelo://app?vid=df7de2f6-a6f6-4c34-96f2-f1a8e36d1aea"},"vehicle_type_id":"4","last_reported":1684184756,"current_range_meters":31200,"station_id":"ce4bhbh2rcd13ifvqepg","pricing_plan_id":"free"},