{"last_updated":1714421251,"ttl":30,"version":"2.2","data":{"bikes":[{"bike_id":"dad55c46-1605-4555-b113-9518069fbf85","system_id":"levelo_inurba_marseille","lat":43.31221,"lon":5.36856,"is_reserved":false,"is_disabled":false,"rental_uris":{"android":"levelo://app?vid=dad55c46-1605-4555-b113-9518069fbf85","ios":"levelo://app?vid=dad55c46-1605-4555-b113-9518069fbf85"},"vehicle_type_id":"4","last_reported":1714421251,"current_range_meters":10000,"station_id":"ce4bgl92rcd13ifvqbq0","pricing_plan_id":"cebpf4jnsgd1na2vs0mg"},{"bike_id":"308f9884-7503-4071-8cfb-48f040afffd7","system_id":"levelo_inurba_marseille","lat":43.312239,"lon":5.368562,"is_reserved":false,"is_disabled":false,"rental_uris":{"android":"levelo://app?vid=308f9884-7503-4071-8cfb-48f040afffd7","ios":"levelo://app?vid=308f9884-7503-4071-8cfb-48f040afffd7"},"vehicle_type_id":"4","last_reported":1714421251,"current_range_meters":8400,"station_id":"ce4bgl92rcd13ifvqbq0","pricing_plan_id":"cebpf4jnsgd1na2vs0mg"},{"bike_id":"f9a3562c-1d94-4e3a-a462-a164a7b28a17","system_id":"levelo_inurba_marseille","lat":43.314811,"lon":5.373103,"is_reserved":false,"is_disabled":false,"rental_uris":{"android":"levelo://app?vid=f9a3562c-1d94-4e3a-a462-a164a7b28a17","ios":"levelo://app?vid=f9a3562c-1d94-4e3a-a462-a164a7b28a17"},"vehicle_type_id":"4","last_reported":1714421251,"current_range_meters":15200,"station_id":"ce4bgt12rcd13ifvqcd0","pricing_plan_id":"cebpf4jnsgd1na2vs0mg"},{"bike_id":"75286648-de16-495f-9886-a80ece7937d5","system_id":"levelo_inurba_marseille","lat":43.31494,"lon":5.37314,"is_reserved":false,"is_disabled":false,"rental_uris":{"android":"levelo://app?vid=75286648-de16-495f-9886-a80ece7937d5","ios":"levelo://app?vid=75286648-de16-495f-9886-a80ece7937d5"},"vehicle_type_id":"4","last_reported":1714421251,"current_range_meters":0,"station_id":"ce4bgt12rcd13ifvqcd0","pricing_plan_id":"cebpf4jnsgd1na2vs0mg"},{"bike_id":"c53494e6-ec61-4e42-8306-f0a91f35eafb","system_id":"levelo_inurba_marseille","lat":43.309039,"lon":5.371797,"is_reserved":false,"is_disabled":false,"rental_uris":{"android":"levelo://app?vid=c53494e6-ec61-4e42-8306-f0a91f35eafb","ios":"levelo://app?vid=c53494e6-ec61-4e42-8306-f0a91f35eafb"},"vehicle_type_id":"4","last_reported":1714421251,"current_range_meters":22000,"station_id":"ce4bguh2rcd13ifvqckg","pricing_plan_id":"cebpf4jnsgd1na2vs0mg"},{"bike_id":"6fb99de2-0321-4d71-b4c3-b3c3f6df4b82","system_id":"levelo_inurba_marseille","lat":43.309039,"lon":5.371797,"is_reserved":false,"is_disabled":false,"rental_uris":{"android":"levelo://app?vid=6fb99de2-0321-4d71-b4c3-b3c3f6df4b82","ios":"levelo://app?vid=6fb99de2-0321-4d71-b4c3-b3c3f6df4b82"},"vehicle_type_id":"4","last_reported":1714421251,"current_range_meters":30000,"station_id":"ce4bguh2rcd13ifvqckg","pricing_plan_id":"cebpf4jnsgd1na2vs0mg"},{"bike_id":"a0048416-0412-47ed-b23e-fb48345b00e6","system_id":"levelo_inurba_marseille","lat":43.309039,"lon":5.371797,"is_reserved":false,"is_disabled":false,"rental_uris":{"android":"levelo://app?vid=a0048416-0412-47ed-b23e-fb48345b00e6","ios":"levelo://app?vid=a0048416-0412-47ed-b23e-fb48345b00e6"},"vehicle_type_id":"4","last_reported":1714421251,"current_range_meters":10000,"station_id":"ce4bguh2rcd13ifvqckg","pricing_plan_id":"cebpf4jnsgd1na2vs0mg"},{"bike_id":"f16709be-5797-4c2a-a579-00063b725ac6","system_id":"levelo_inurba_marseille","lat":43.309039,"lon":5.371797,"is_reserved":false,"is_disabled":false,"rental_uris":{"android":"levelo://app?vid=f16709be-5797-4c2a-a579-00063b725ac6","ios":"levelo://app?vid=f16709be-5797-4c2a-a579-00063b725ac6"},"vehicle_type_id":"4","last_reported":1714421251,"current_range_meters":8800,"station_id":"ce4bguh2rcd13ifvqckg","pricing_plan_id":"cebpf4jnsgd1na2vs0mg"},{"bike_id":"3081906e-5969-458f-9859-f4b48e6b7945","system_id":"levelo_inurba_marseille","lat":43.309039,"lon":5.371797,"is_reserved":false,"is_disabled":false,"rental_uris":{"android":"levelo://app?vid=3081906e-5969-458f-9859-f4b48e6b7945","ios":"levelo://app?vid=3081906e-5969-458f-9859-f4b48e6b7945"},"vehicle_type_id":"4","last_reported":1714421251,"current_range_meters":29600,"station_id":"ce4bguh2rcd13ifvqckg","pricing_plan_id":"cebpf4jnsgd1na2vs0mg"},{"bike_id":"efa65134-71a0-4849-ad72-1e3b684b6267","system_id":"levelo_inurba_marseille","lat":43.309034,"lon":5.371783,"is_reserved":false,"is_disabled":false,"rental_uris":{"android":"levelo://app?vid=efa65134-71a0-4849-ad72-1e3b684b6267","ios":"levelo://app?vid=efa65134-71a0-4849-ad72-1e3b684b6267"},"vehicle_type_id":"4","last_reported":1714421251,"current_range_meters":22400,"station_id":"ce4bguh2rcd13ifvqckg","pricing_plan_id":"cebpf4jnsgd1na2vs0mg"},{"bike_id":"9382f6c8-3c1a-4086-8d1f-52499c180347","system_id":"levelo_inurba_marseille","lat":43.309039,"lon":5.371797,"is_reserved":false,"is_disabled":false,"rental_uris":{"android":"levelo://app?vid=9382f6c8-3c1a-4086-8d1f-52499c180347","ios":"levelo://app?vid=9382f6c8-3c1a-4086-8d1f-52499c180347"},"vehicle_type_id":"4","last_reported":1714421251,"current_range_meters":28000,"station_id":"ce4bguh2rcd13ifvqckg","pricing_plan_id":"cebpf4jnsgd1na2vs0mg"},{"bike_id":"ac0922ee-bc8a-40fd-9187-f6babee55240","system_id":"levelo_inurba_marseille","lat":43.30537,"lon":5.367063,"is_reserved":false,"is_disabled":false,"rental_uris":{"android":"levelo://app?vid=ac0922ee-bc8a-40fd-9187-f6babee55240","ios":"levelo://app?vid=ac0922ee-bc8a-40fd-9187-f6babee55240"},"vehicle_type_id":"4","last_reported":1714421251,"current_range_meters":29600,"station_id":"","pricing_plan_id":"cebpf4jnsgd1na2vs0mg"},{"bike_id":"85f74e5e-b8ef-4ac3-9666-f73579c3b14a","system_id":"levelo_inurba_marseille","lat":43.305714,"lon":5.365633,"is_reserved":false,"is_disabled":false,"rental_uris":{"android":"levelo://app?vid=85f74e5e-b8ef-4ac3-9666-f73579c3b14a","ios":"levelo://app?vid=85f74e5e-b8ef-4ac3-9666-f73579c3b14a"},"vehicle_type_id":"4","last_reported":1714421251,"current_range_meters":31200,"station_id":"ce4bgs12rcd13ifvqcag","pricing_plan_id":"cebpf4jnsgd1na2vs0mg"},{"bike_id":"47279d0b-11a3-408e-a106-845129bfc062","system_id":"levelo_inurba_marseille","lat":43.305706,"lon":5.365654,"is_reserved":false,"is_disabled":false,"rental_uris":{"android":"levelo://app?vid=47279d0b-11a3-408e-a106-845129bfc062","ios":"levelo://app?vid=47279d0b-11a3-408e-a106-845129bfc062"},"vehicle_type_id":"4","last_reported":1714421251,"current_range_meters":0,"station_id":"ce4bgs12rcd13ifvqcag","pricing_plan_id":"cebpf4jnsgd1na2vs0mg"},{"bike_id":"7f2f2fce-b85c-4a0a-aa6e-8b67b3397e60","system_id":"levelo_inurba_marseille","lat":43.305989,"lon":5.37225,"is_reserved":false,"is_disabled":false,"rental_uris":{"android":"levelo://app?vid=7f2f2fce-b85c-4a0a-aa6e-8b67b3397e60","ios":"levelo://app?vid=7f2f2fce-b85c-4a0a-aa6e-8b67b3397e60"},"vehicle_type_id":"4","last_reported":1714421251,"current_range_meters":16800,"station_id":"ce4bgqh2rcd13ifvqc4g","pricing_plan_id":"cebpf4jnsgd1na2vs0mg"},{"bike_id":"609eb668-04cd-4e7a-b282-da9cf321e63f","system_id":"levelo_inurba_marseille","lat":43.305989,"lon":5.37225,"is_reserved":false,"is_disabled":false,"rental_uris":{"android":"levelo://app?vid=609eb668-04cd-4e7a-b282-da9cf321e63f","ios":"levelo://app?vid=609eb668-04cd-4e7a-b282-da9cf321e63f"},"vehicle_type_id":"4","last_reported":1714421251,"current_range_meters":10800,"station_id":"ce4bgqh2rcd13ifvqc4g","pricing_plan_id":"cebpf4jnsgd1na2vs0mg"},{"bike_id":"54201881-c4a9-4a8a-b32c-7e69fea2bc14","system_id":"levelo_inurba_marseille","lat":43.305989,"lon":5.37225,"is_reserved":false,"is_disabled":false,"rental_uris":{"android":"levelo://app?vid=54201881-c4a9-4a8a-b32c-7e69fea2bc14","ios":"levelo://app?vid=54201881-c4a9-4a8a-b32c-7e69fea2bc14"},"vehicle_type_id":"4","last_reported":1714421251,"current_range_meters":2400,"station_id":"ce4bgqh2rcd13ifvqc4g","pricing_plan_id":"cebpf4jnsgd1na2vs0mg"},{"bike_id":"18a7fb3b-959f-4308-a2aa-b61d116b6dcb","system_id":"levelo_inurba_marseille","lat":43.305989,"lon":5.37225,"is_reserved":false,"is_disabled":false,"rental_uris":{"android":"levelo://app?vid=18a7fb3b-959f-4308-a2aa-b61d116b6dcb","ios":"levelo://app?vid=18a7fb3b-959f-4308-a2aa-b61d116b6dcb"},"vehicle_type_id":"4","last_reported":1714421251,"current_range_meters":29600,"station_id":"ce4bgqh2rcd13ifvqc4g","pricing_plan_id":"cebpf4jnsgd1na2vs0mg"},{"bike_id":"fc46b0b6-b832-4c63-930d-8f70e5719491","system_id":"levelo_inurba_marseille","lat":43.305989,"lon":5.37225,"is_reserved":false,"is_disabled":false,"rental_uris":{"android":"levelo://app?vid=fc46b0b6-b832-4c63-930d-8f70e5719491","ios":"levelo://app?vid=fc46b0b6-b832-4c63-930d-8f70e5719491"},"vehicle_type_id":"4","last_reported":1714421251,"current_range_meters":19200,"station_id":"ce4bgqh2rcd13ifvqc4g","pricing_plan_id":"cebpf4jnsgd1na2vs0mg"},{"bike_id":"a35f8b71-4a69-45f7-ac86-d6b219ba9b76","system_id":"levelo_inurba_marseille","lat":43.311131,"lon":5.377651,"is_reserved":false,"is_disabled":false,"rental_uris":{"android":"levelo://app?vid=a35f8b71-4a69-45f7-ac86-d6b219ba9b76","ios":"levelo://app?vid=a35f8b71-4a69-45f7-ac86-d6b219ba9b76"},"vehicle_type_id":"4","last_reported":1714421251,"current_range_meters":28800,"station_id":"ce4bgt92rcd13ifvqcg0","pricing_plan_id":"cebpf4jnsgd1na2vs0mg"},{"bike_id":"c4484a60-1f63-4c39-90ca-7ca16ae77489","system_id":"levelo_inurba_marseille","lat":43.307945,"lon":5.376487,"is_reserved":false,"is_disabled":false,"rental_uris":{"android":"levelo://app?vid=c4484a60-1f63-4c39-90ca-7ca16ae77489","ios":"levelo://app?vid=c4484a60-1f63-4c39-90ca-7ca16ae77489"},"vehicle_type_id":"4","last_reported":1714421251,"current_range_meters":30000,"station_id":"ce4bgv92rcd13ifvqcq0","pricing_plan_id":"cebpf4jnsgd1na2vs0mg"},{"bike_id":"eddb8e1a-0191-4a56-9bfc-45631c4e8e46","system_id":"levelo_inurba_marseille","lat":43.303046,"lon":5.368981,"is_reserved":false,"is_disabled":false,"rental_uris":{"android":"levelo://app?vid=eddb8e1a-0191-4a56-9bfc-45631c4e8e46","ios":"levelo://app?vid=eddb8e1a-0191-4a56-9bfc-45631c4e8e46"},"vehicle_type_id":"4","last_reported":1714421251,"current_range_meters":0,"station_id":"ce4bgqh2rcd13ifvqc5g","pricing_plan_id":"cebpf4jnsgd1na2vs0mg"},{"bike_id":"06e0efcf-97b3-4525-82f0-45e62b3060e0","system_id":"levelo_inurba_marseille","lat":43.30317,"lon":5.36905,"is_reserved":false,"is_disabled":false,"rental_uris":{"android":"levelo://app?vid=06e0efcf-97b3-4525-82f0-45e62b3060e0","ios":"levelo://app?vid=06e0efcf-97b3-4525-82f0-45e62b3060e0"},"vehicle_type_id":"4","last_reported":1714421251,"current_range_meters":0,"station_id":"ce4bgqh2rcd13ifvqc5g","pricing_plan_id":"cebpf4jnsgd1na2vs0mg"},{"bike_id":"6217c7be-3f74-4df0-9f8d-54071ca21eb5","system_id":"levelo_inurba_marseille","lat":43.31542,"lon":5.38023,"is_reserved":false,"is_disabled":false,"rental_uris":{"android":"levelo://app?vid=6217c7be-3f74-4df0-9f8d-54071ca21eb5","ios":"levelo://app?vid=6217c7be-3f74-4df0-9f8d-54071ca21eb5"},"vehicle_type_id":"4","last_reported":1714421251,"current_range_meters":0,"station_id":"ce4bhsp2rcd13ifvqi50","pricing_plan_id":"cebpf4jnsgd1na2vs0mg"},{"bike_id":"a9bba24e-9f68-4b5d-89f2-c74ac4657b37","system_id":"levelo_inurba_marseille","lat":43.315289,"lon":5.380349,"is_reserved":false,"is_disabled":false,"rental_uris":{"android":"levelo://app?vid=a9bba24e-9f68-4b5d-89f2-c74ac4657b37","ios":"levelo://app?vid=a9bba24e-9f68-4b5d-89f2-c74ac4657b37"},"vehicle_type_id":"4","last_reported":1714421251,"current_range_meters":26400,"station_id":"ce4bhsp2rcd13ifvqi50","pricing_plan_id":"cebpf4jnsgd1na2vs0mg"},{"bike_id":"9cc3551d-27ac-4f24-997a-f9f769a76e96","system_id":"levelo_inurba_marseille","lat":43.315289,"lon":5.380349,"is_reserved":false,"is_disabled":false,"rental_uris":{"android":"levelo://app?vid=9cc3551d-27ac-4f24-997a-f9f769a76e96","ios":"levelo://app?vid=9cc3551d-27ac-4f24-997a-f9f769a76e96"},"vehicle_type_id":"4","last_reported":1714421251,"current_range_meters":24000,"station_id":"ce4bhsp2rcd13ifvqi50","pricing_plan_id":"cebpf4jnsgd1na2vs0mg"},{"bike_id":"86cd7304-286c-4bb0-9778-6764435dfac1","system_id":"levelo_inurba_marseille","lat":43.308012,"lon":5.381511,"is_reserved":false,"is_disabled":false,"rental_uris":{"android":"levelo://app?vid=86cd7304-286c-4bb0-9778-6764435dfac1","ios":"levelo://app?vid=86cd7304-286c-4bb0-9778-6764435dfac1"},"vehicle_type_id":"4","last_reported":1714421251,"current_range_meters":0,"station_id":"ce4bgt12rcd13ifvqce0","pricing_plan_id":"cebpf4jnsgd1na2vs0mg"},{"bike_id":"928aa698-83d7-4093-99c9-a6c08385e4a8","system_id":"levelo_inurba_marseille","lat":43.308012,"lon":5.381511,"is_reserved":false,"is_disabled":false,"rental_uris":{"android":"levelo://app?vid=928aa698-83d7-4093-99c9-a6c08385e4a8","ios":"levelo://app?vid=928aa698-83d7-4093-99c9-a6c08385e4a8"},"vehicle_type_id":"4","last_reported":1714421251,"current_range_meters":28400,"station_id":"ce4bgt12rcd13ifvqce0","pricing_plan_id":"cebpf4jnsgd1na2vs0mg"},{"bike_id":"3bad2b1f-9044-485c-9c17-1491a5fa2b54","system_id":"levelo_inurba_marseille","lat":43.304606,"lon":5.379026,"is_reserved":false,"is_disabled":false,"rental_uris":{"android":"levelo://app?vid=3bad2b1f-9044-485c-9c17-1491a5fa2b54","ios":"levelo://app?vid=3bad2b1f-9044-485c-9c17-1491a5fa2b54"},"vehicle_type_id":"4","last_reported":1714421251,"current_range_meters":4800,"station_id":"ce4bgup2rcd13ifvqcn0","pricing_plan_id":"cebpf4jnsgd1na2vs0mg"},{"bike_id":"e0ede942-260a-443a-978c-152e3c4e1b53","system_id":"levelo_inurba_marseille","lat":43.304606,"lon":5.379026,"is_reserved":false,"is_disabled":false,"rental_uris":{"android":"levelo://app?vid=e0ede942-260a-443a-978c-152e3c4e1b53","ios":"levelo://app?vid=e0ede942-260a-443a-978c-152e3c4e1b53"},"vehicle_type_id":"4","last_reported":1714421251,"current_range_meters":18800,"station_id":"ce4bgup2rcd13ifvqcn0","pricing_plan_id":"cebpf4jnsgd1na2vs0mg"},{"bike_id":"79f36e95-2040-4745-8de2-8a4e60ea27b3","system_id":"levelo_inurba_marseille","lat":43.304606,"lon":5.379026,"is_reserved":false,"is_disabled":false,"rental_uris":{"android":"levelo://app?vid=79f36e95-2040-4745-8de2-8a4e60ea27b3","ios":"levelo://app?vid=79f36e95-2040-4745-8de2-8a4e60ea27b3"},"vehicle_type_id":"4","last_reported":1714421251,"current_range_meters":17600,"station_id":"ce4bgup2rcd13ifvqcn0","pricing_plan_id":"cebpf4jnsgd1na2vs0mg"},{"bike_id":"e73c16d2-3e2c-4371-98ae-f2b70ee9d561","system_id":"levelo_inurba_marseille","lat":43.324771,"lon":5.36557,"is_reserved":false,"is_disabled":false,"rental_uris":{"android":"levelo://app?vid=e73c16d2-3e2c-4371-98ae-f2b70ee9d561","ios":"levelo://app?vid=e73c16d2-3e2c-4371-98ae-f2b70ee9d561"},"vehicle_type_id":"4","last_reported":1714421251,"current_range_meters":6800,"station_id":"ce4bhs12rcd13ifvqhvg","pricing_plan_id":"cebpf4jnsgd1na2vs0mg"},{"bike_id":"132bacdc-8e73-4afa-9890-359e4c1c3ca1","system_id":"levelo_inurba_marseille","lat":43.324771,"lon":5.36557,"is_reserved":false,"is_disabled":false,"rental_uris":{"android":"levelo://app?vid=132bacdc-8e73-4afa-9890-359e4c1c3ca1","ios":"levelo://app?vid=132bacdc-8e73-4afa-9890-359e4c1c3ca1"},"vehicle_type_id":"4","last_reported":1714421251,"current_range_meters":10000,"station_id":"ce4bhs12rcd13ifvqhvg","pricing_plan_id":"cebpf4jnsgd1na2vs0mg"},{"bike_id":"da7cf71b-c76d-435c-8bcc-78ee9cc66204","system_id":"levelo_inurba_marseille","lat":43.324771,"lon":5.36557,"is_reserved":false,"is_disabled":false,"rental_uris":{"android":"levelo://app?vid=da7cf71b-c76d-435c-8bcc-78ee9cc66204","ios":"levelo://app?vid=da7cf71b-c76d-435c-8bcc-78ee9cc66204"},"vehicle_type_id":"4","last_reported":1714421251,"current_range_meters":14000,"station_id":"ce4bhs12rcd13ifvqhvg","pricing_plan_id":"cebpf4jnsgd1na2vs0mg"},{"bike_id":"2bd54964-39ec-4baf-8d62-ee67fc4efecf","system_id":"levelo_inurba_marseille","lat":43.324771,"lon":5.36557,"is_reserved":false,"is_disabled":false,"rental_uris":{"android":"levelo://app?vid=2bd54964-39ec-4baf-8d62-ee67fc4efecf","ios":"levelo://app?vid=2bd54964-39ec-4baf-8d62-ee67fc4efecf"},"vehicle_type_id":"4","last_reported":1714421251,"current_range_meters":19200,"station_id":"ce4bhs12rcd13ifvqhvg","pricing_plan_id":"cebpf4jnsgd1na2vs0mg"},{"bike_id":"fed24aee-80a4-4b73-a424-9a65cb9ef4bf","system_id":"levelo_inurba_marseille","lat":43.324771,"lon":5.36557,"is_reserved":false,"is_disabled":false,"rental_uris":{"android":"levelo://app?vid=fed24aee-80a4-4b73-a424-9a65cb9ef4bf","ios":"levelo://app?vid=fed24aee-80a4-4b73-a424-9a65cb9ef4bf"},"vehicle_type_id":"4","last_reported":1714421251,"current_range_meters":23200,"station_id":"ce4bhs12rcd13ifvqhvg","pricing_plan_id":"cebpf4jnsgd1na2vs0mg"},{"bike_id":"214b2267-7b04-49b0-ab9a-94a7af076243","system_id":"levelo_inurba_marseille","lat":43.324807,"lon":5.365693,"is_reserved":false,"is_disabled":false,"rental_uris":{"android":"levelo://app?vid=214b2267-7b04-49b0-ab9a-94a7af076243","ios":"levelo://app?vid=214b2267-7b04-49b0-ab9a-94a7af076243"},"vehicle_type_id":"4","last_reported":1714421251,"current_range_meters":29600,"station_id":"ce4bhs12rcd13ifvqhvg","pricing_plan_id":"cebpf4jnsgd1na2vs0mg"},{"bike_id":"ea9f8f61-be81-43ec-8055-fdf55dd5c39f","system_id":"levelo_inurba_marseille","lat":43.324771,"lon":5.36557,"is_reserved":false,"is_disabled":false,"rental_uris":{"android":"levelo://app?vid=ea9f8f61-be81-43ec-8055-fdf55dd5c39f","ios":"levelo://app?vid=ea9f8f61-be81-43ec-8055-fdf55dd5c39f"},"vehicle_type_id":"4","last_reported":1714421251,"current_range_meters":28000,"station_id":"ce4bhs12rcd13ifvqhvg","pricing_plan_id":"cebpf4jnsgd1na2vs0mg"},{"bike_id":"b84ccaf2-f52d-43b2-8c19-ab25afebfda2","system_id":"levelo_inurba_marseille","lat":43.324771,"lon":5.36557,"is_reserved":false,"is_disabled":false,"rental_uris":{"android":"levelo://app?vid=b84ccaf2-f52d-43b2-8c19-ab25afebfda2","ios":"levelo://app?vid=b84ccaf2-f52d-43b2-8c19-ab25afebfda2"},"vehicle_type_id":"4","last_reported":1714421251,"current_range_meters":19200,"station_id":"ce4bhs12rcd13ifvqhvg","pricing_plan_id":"cebpf4jnsgd1na2vs0mg"},{"bike_id":"43b64350-638b-4fde-955e-6a2365e245df","system_id":"levelo_inurba_marseille","lat":43.324771,"lon":5.36557,"is_reserved":false,"is_disabled":false,"rental_uris":{"android":"levelo://app?vid=43b64350-638b-4fde-955e-6a2365e245df","ios":"levelo://app?vid=43b64350-638b-4fde-955e-6a2365e245df"},"vehicle_type_id":"4","last_reported":1714421251,"current_range_meters":13200,"station_id":"ce4bhs12rcd13ifvqhvg","pricing_plan_id":"cebpf4jnsgd1na2vs0mg"},{"bike_id":"7d2182b4-dbc2-4a24-a45c-47ca0cb96df7","system_id":"levelo_inurba_marseille","lat":43.324771,"lon":5.36557,"is_reserved":false,"is_disabled":false,"rental_uris":{"android":"levelo://app?vid=7d2182b4-dbc2-4a24-a45c-47ca0cb96df7","ios":"levelo://app?vid=7d2182b4-dbc2-4a24-a45c-47ca0cb96df7"},"vehicle_type_id":"4","last_reported":1714421251,"current_range_meters":8800,"station_id":"ce4bhs12rcd13ifvqhvg","pricing_plan_id":"cebpf4jnsgd1na2vs0mg"},{"bike_id":"0a99ee72-e43a-44c1-9027-262098246010","system_id":"levelo_inurba_marseille","lat":43.324771,"lon":5.36557,"is_reserved":false,"is_disabled":false,"rental_uris":{"android":"levelo://app?vid=0a99ee72-e43a-44c1-9027-262098246010","ios":"levelo://app?vid=0a99ee72-e43a-44c1-9027-262098246010"},"vehicle_type_id":"4","last_reported":1714421251,"current_range_meters":18400,"station_id":"ce4bhs12rcd13ifvqhvg","pricing_plan_id":"cebpf4jnsgd1na2vs0mg"},{"bike_id":"e2f0d488-485b-42ce-a5eb-a605ce20dfe8","system_id":"levelo_inurba_marseille","lat":43.324771,"lon":5.36557,"is_reserved":false,"is_disabled":false,"rental_uris":{"android":"levelo://app?vid=e2f0d488-485b-42ce-a5eb-a605ce20dfe8","ios":"levelo://app?vid=e2f0d488-485b-42ce-a5eb-a605ce20dfe8"},"vehicle_type_id":"4","last_reported":1714421251,"current_range_meters":13600,"station_id":"ce4bhs12rcd13ifvqhvg","pricing_plan_id":"cebpf4jnsgd1na2vs0mg"},{"bike_id":"5a1e7eae-de16-40e4-8f25-124bfbb8516e","system_id":"levelo_inurba_marseille","lat":43.324771,"lon":5.36557,"is_reserved":false,"is_disabled":false,"rental_uris":{"android":"levelo://app?vid=5a1e7eae-de16-40e4-8f25-124bfbb8516e","ios":"levelo://app?vid=5a1e7eae-de16-40e4-8f25-124bfbb8516e"},"vehicle_type_id":"4","last_reported":1714421251,"current_range_meters":15200,"station_id":"ce4bhs12rcd13ifvqhvg","pricing_plan_id":"cebpf4jnsgd1na2vs0mg"},{"bike_id":"8b58a7c2-18e3-45ad-acbd-655ea693af73","system_id":"levelo_inurba_marseille","lat":43.324771,"lon":5.36557,"is_reserved":false,"is_disabled":false,"rental_uris":{"android":"levelo://app?vid=8b58a7c2-18e3-45ad-acbd-655ea693af73","ios":"levelo://app?vid=8b58a7c2-18e3-45ad-acbd-655ea693af73"},"vehicle_type_id":"4","last_reported":1714421251,"current_range_meters":22800,"station_id":"ce4bhs12rcd13ifvqhvg","pricing_plan_id":"cebpf4jnsgd1na2vs0mg"},{"bike_id":"990e7b59-0333-4854-a267-1d421a56d48a","system_id":"levelo_inurba_marseille","lat":43.324843,"lon":5.365643,"is_reserved":false,"is_disabled":false,"rental_uris":{"android":"levelo://app?vid=990e7b59-0333-4854-a267-1d421a56d48a","ios":"levelo://app?vid=990e7b59-0333-4854-a267-1d421a56d48a"},"vehicle_type_id":"4","last_reported":1714421251,"current_range_meters":14000,"station_id":"ce4bhs12rcd13ifvqhvg","pricing_plan_id":"cebpf4jnsgd1na2vs0mg"},{"bike_id":"cf0f8186-3423-4c8b-bbb6-5d421d0e57bf","system_id":"levelo_inurba_marseille","lat":43.324771,"lon":5.36557,"is_reserved":false,"is_disabled":false,"rental_uris":{"android":"levelo://app?vid=cf0f8186-3423-4c8b-bbb6-5d421d0e57bf","ios":"levelo://app?vid=cf0f8186-3423-4c8b-bbb6-5d421d0e57bf"},"vehicle_type_id":"4","last_reported":1714421251,"current_range_meters":9600,"station_id":"ce4bhs12rcd13ifvqhvg","pricing_plan_id":"cebpf4jnsgd1na2vs0mg"},{"bike_id":"48dd3ec6-b180-43ee-a7ce-834648a3ca81","system_id":"levelo_inurba_marseille","lat":43.32485,"lon":5.36573,"is_reserved":false,"is_disabled":false,"rental_uris":{"android":"levelo://app?vid=48dd3ec6-b180-43ee-a7ce-834648a3ca81","ios":"levelo://app?vid=48dd3ec6-b180-43ee-a7ce-834648a3ca81"},"vehicle_type_id":"4","last_reported":1714421251,"current_range_meters":4000,"station_id":"ce4bhs12rcd13ifvqhvg","pricing_plan_id":"cebpf4jnsgd1na2vs0mg"},{"bike_id":"0c158e1b-4722-4f12-8396-1c9d9f4a29d5","system_id":"levelo_inurba_marseille","lat":43.324771,"lon":5.36557,"is_reserved":false,"is_disabled":false,"rental_uris":{"android":"levelo://app?vid=0c158e1b-4722-4f12-8396-1c9d9f4a29d5","ios":"levelo://app?vid=0c158e1b-4722-4f12-8396-1c9d9f4a29d5"},"vehicle_type_id":"4","last_reported":1714421251,"current_range_meters":12800,"station_id":"ce4bhs12rcd13ifvqhvg","pricing_plan_id":"cebpf4jnsgd1na2vs0mg"},{"bike_id":"fd1360a1-fed0-4851-b9bf-5735671c98cc","system_id":"levelo_inurba_marseille","lat":43.324771,"lon":5.36557,"is_reserved":false,"is_disabled":false,"rental_uris":{"android":"levelo://app?vid=fd1360a1-fed0-4851-b9bf-5735671c98cc","ios":"levelo://app?vid=fd1360a1-fed0-4851-b9bf-5735671c98cc"},"vehicle_type_id":"4","last_reported":1714421251,"current_range_meters":12400,"station_id":"ce4bhs12rcd13ifvqhvg","pricing_plan_id":"cebpf4jnsgd1na2vs0mg"},{"bike_id":"70fb4549-3b6d-4d72-b915-ed8e6cd24dd8","system_id":"levelo_inurba_marseille","lat":43.324771,"lon":5.36557,"is_reserved":false,"is_disabled":false,"rental_uris":{"android":"levelo://app?vid=70fb4549-3b6d-4d72-b915-ed8e6cd24dd8","ios":"levelo://app?vid=70fb4549-3b6d-4d72-b915-ed8e6cd24dd8"},"vehicle_type_id":"4","last_reported":1714421251,"current_range_meters":17200,"station_id":"ce4bhs12rcd13ifvqhvg","pricing_plan_id":"cebpf4jnsgd1na2vs0mg"},{"bike_id":"1b4acdb9-b533-4fbe-be14-3d235a47355f","system_id":"levelo_inurba_marseille","lat":43.324771,"lon":5.36557,"is_reserved":false,"is_disabled":false,"rental_uris":{"android":"levelo://app?vid=1b4acdb9-b533-4fbe-be14-3d235a47355f","ios":"levelo://app?vid=1b4acdb9-b533-4fbe-be14-3d235a47355f"},"vehicle_type_id":"4","last_reported":1714421251,"current_range_meters":27600,"station_id":"ce4bhs12rcd13ifvqhvg","pricing_plan_id":"cebpf4jnsgd1na2vs0mg"},{"bike_id":"543576bd-b295-4580-81b0-e36e0805c360","system_id":"levelo_inurba_marseille","lat":43.324863,"lon":5.365798,"is_reserved":false,"is_disabled":false,"rental_uris":{"android":"levelo://app?vid=543576bd-b295-4580-81b0-e36e0805c360","ios":"levelo://app?vid=543576bd-b295-4580-81b0-e36e0805c360"},"vehicle_type_id":"4","last_reported":1714421251,"current_range_meters":11200,"station_id":"ce4bhs12rcd13ifvqhvg","pricing_plan_id":"cebpf4jnsgd1na2vs0mg"},{"bike_id":"bf86c245-53a6-4c88-a168-0d313437f078","system_id":"levelo_inurba_marseille","lat":43.324771,"lon":5.36557,"is_reserved":false,"is_disabled":false,"rental_uris":{"android":"levelo://app?vid=bf86c245-53a6-4c88-a168-0d313437f078","ios":"levelo://app?vid=bf86c245-53a6-4c88-a168-0d313437f078"},"vehicle_type_id":"4","last_reported":1714421251,"current_range_meters":8400,"station_id":"ce4bhs12rcd13ifvqhvg","pricing_plan_id":"cebpf4jnsgd1na2vs0mg"},{"bike_id":"b144120d-38dd-4e64-847f-ed76d7dcc561","system_id":"levelo_inurba_marseille","lat":43.324771,"lon":5.36557,"is_reserved":false,"is_disabled":false,"rental_uris":{"android":"levelo://app?vid=b144120d-38dd-4e64-847f-ed76d7dcc561","ios":"levelo://app?vid=b144120d-38dd-4e64-847f-ed76d7dcc561"},"vehicle_type_id":"4","last_reported":1714421251,"current_range_meters":8000,"station_id":"ce4bhs12rcd13ifvqhvg","pricing_plan_id":"cebpf4jnsgd1na2vs0mg"},{"bike_id":"3c56a522-3f22-41a4-9398-70a099542c97","system_id":"levelo_inurba_marseille","lat":43.310804,"lon":5.38359,"is_reserved":false,"is_disabled":false,"rental_uris":{"android":"levelo://app?vid=3c56a522-3f22-41a4-9398-70a099542c97","ios":"levelo://app?vid=3c56a522-3f22-41a4-9398-70a099542c97"},"vehicle_type_id":"4","last_reported":1714421251,"current_range_meters":21600,"station_id":"ce4bgv92rcd13ifvqcr0","pricing_plan_id":"cebpf4jnsgd1na2vs0mg"},{"bike_id":"60ed96fa-2aec-44dd-b62c-04bc6124f2f1","system_id":"levelo_inurba_marseille","lat":43.310804,"lon":5.38359,"is_reserved":false,"is_disabled":false,"rental_uris":{"android":"levelo://app?vid=60ed96fa-2aec-44dd-b62c-04bc6124f2f1","ios":"levelo://app?vid=60ed96fa-2aec-44dd-b62c-04bc6124f2f1"},"vehicle_type_id":"4","last_reported":1714421251,"current_range_meters":3200,"station_id":"ce4bgv92rcd13ifvqcr0","pricing_plan_id":"cebpf4jnsgd1na2vs0mg"},{"bike_id":"4c57d7e5-2e4c-43ca-a759-4b90d060fa55","system_id":"levelo_inurba_marseille","lat":43.310804,"lon":5.38359,"is_reserved":false,"is_disabled":false,"rental_uris":{"android":"levelo://app?vid=4c57d7e5-2e4c-43ca-a759-4b90d060fa55","ios":"levelo://app?vid=4c57d7e5-2e4c-43ca-a759-4b90d060fa55"},"vehicle_type_id":"4","last_reported":1714421251,"current_range_meters":3600,"station_id":"ce4bgv92rcd13ifvqcr0","pricing_plan_id":"cebpf4jnsgd1na2vs0mg"},{"bike_id":"1c623b89-3b51-40bc-b579-667b95e40365","system_id":"levelo_inurba_marseille","lat":43.302784,"lon":5.377158,"is_reserved":false,"is_disabled":false,"rental_uris":{"android":"levelo://app?vid=1c623b89-3b51-40bc-b579-667b95e40365","ios":"levelo://app?vid=1c623b89-3b51-40bc-b579-667b95e40365"},"vehicle_type_id":"4","last_reported":1714421251,"current_range_meters":6400,"station_id":"ce4bguh2rcd13ifvqcj0","pricing_plan_id":"cebpf4jnsgd1na2vs0mg"},{"bike_id":"42d80d52-9336-4b7d-ba99-a287e766ed74","system_id":"levelo_inurba_marseille","lat":43.30143,"lon":5.37413,"is_reserved":false,"is_disabled":false,"rental_uris":{"android":"levelo://app?vid=42d80d52-9336-4b7d-ba99-a287e766ed74","ios":"levelo://app?vid=42d80d52-9336-4b7d-ba99-a287e766ed74"},"vehicle_type_id":"4","last_reported":1714421251,"current_range_meters":28800,"station_id":"ce4bgs92rcd13ifvqcc0","pricing_plan_id":"cebpf4jnsgd1na2vs0mg"},{"bike_id":"60828d06-5569-4e58-b94d-3778f0d9e518","system_id":"levelo_inurba_marseille","lat":43.301429,"lon":5.37413,"is_reserved":false,"is_disabled":false,"rental_uris":{"android":"levelo://app?vid=60828d06-5569-4e58-b94d-3778f0d9e518","ios":"levelo://app?vid=60828d06-5569-4e58-b94d-3778f0d9e518"},"vehicle_type_id":"4","last_reported":1714421251,"current_range_meters":8800,"station_id":"ce4bgs92rcd13ifvqcc0","pricing_plan_id":"cebpf4jnsgd1na2vs0mg"},{"bike_id":"246112fa-fdc1-4741-a0e1-d3ab3d623a5d","system_id":"levelo_inurba_marseille","lat":43.30258,"lon":5.3771,"is_reserved":false,"is_disabled":false,"rental_uris":{"android":"levelo://app?vid=246112fa-fdc1-4741-a0e1-d3ab3d623a5d","ios":"levelo://app?vid=246112fa-fdc1-4741-a0e1-d3ab3d623a5d"},"vehicle_type_id":"4","last_reported":1714421251,"current_range_meters":0,"station_id":"ce4bguh2rcd13ifvqcj0","pricing_plan_id":"cebpf4jnsgd1na2vs0mg"},{"bike_id":"57564487-dc35-4e27-8f50-deca87251429","system_id":"levelo_inurba_marseille","lat":43.319935,"lon":5.381699,"is_reserved":false,"is_disabled":false,"rental_uris":{"android":"levelo://app?vid=57564487-dc35-4e27-8f50-deca87251429","ios":"levelo://app?vid=57564487-dc35-4e27-8f50-deca87251429"},"vehicle_type_id":"4","last_reported":1714421251,"current_range_meters":14000,"station_id":"ce4bhr12rcd13ifvqhpg","pricing_plan_id":"cebpf4jnsgd1na2vs0mg"},{"bike_id":"3a0dd3af-d859-4d73-9903-f7eeb8ebaee4","system_id":"levelo_inurba_marseille","lat":43.319935,"lon":5.381699,"is_reserved":false,"is_disabled":false,"rental_uris":{"android":"levelo://app?vid=3a0dd3af-d859-4d73-9903-f7eeb8ebaee4","ios":"levelo://app?vid=3a0dd3af-d859-4d73-9903-f7eeb8ebaee4"},"vehicle_type_id":"4","last_reported":1714421251,"current_range_meters":30400,"station_id":"ce4bhr12rcd13ifvqhpg","pricing_plan_id":"cebpf4jnsgd1na2vs0mg"},{"bike_id":"7896ab24-a320-4c14-82c9-b3055bad100e","system_id":"levelo_inurba_marseille","lat":43.319935,"lon":5.381699,"is_reserved":false,"is_disabled":false,"rental_uris":{"android":"levelo://app?vid=7896ab24-a320-4c14-82c9-b3055bad100e","ios":"levelo://app?vid=7896ab24-a320-4c14-82c9-b3055bad100e"},"vehicle_type_id":"4","last_reported":1714421251,"current_range_meters":14000,"station_id":"ce4bhr12rcd13ifvqhpg","pricing_plan_id":"cebpf4jnsgd1na2vs0mg"},{"bike_id":"d4a93352-25cf-45d9-be28-f962b9e65449","system_id":"levelo_inurba_marseille","lat":43.319935,"lon":5.381699,"is_reserved":false,"is_disabled":false,"rental_uris":{"android":"levelo://app?vid=d4a93352-25cf-45d9-be28-f962b9e65449","ios":"levelo://app?vid=d4a93352-25cf-45d9-be28-f962b9e65449"},"vehicle_type_id":"4","last_reported":1714421251,"current_range_meters":17200,"station_id":"ce4bhr12rcd13ifvqhpg","pricing_plan_id":"cebpf4jnsgd1na2vs0mg"},{"bike_id":"35f3037a-152f-4d88-bb9d-49cc6789ad6a","system_id":"levelo_inurba_marseille","lat":43.296921,"lon":5.376579,"is_reserved":false,"is_disabled":false,"rental_uris":{"android":"levelo://app?vid=35f3037a-152f-4d88-bb9d-49cc6789ad6a","ios":"levelo://app?vid=35f3037a-152f-4d88-bb9d-49cc6789ad6a"},"vehicle_type_id":"4","last_reported":1714421251,"current_range_meters":15600,"station_id":"ce4bgkh2rcd13ifvqbl0","pricing_plan_id":"cebpf4jnsgd1na2vs0mg"},{"bike_id":"fc6162f4-55f4-48bb-827f-041237fff73f","system_id":"levelo_inurba_marseille","lat":43.313571,"lon":5.384829,"is_reserved":false,"is_disabled":false,"rental_uris":{"android":"levelo://app?vid=fc6162f4-55f4-48bb-827f-041237fff73f","ios":"levelo://app?vid=fc6162f4-55f4-48bb-827f-041237fff73f"},"vehicle_type_id":"4","last_reported":1714421251,"current_range_meters":11200,"station_id":"ce4bgt92rcd13ifvqcf0","pricing_plan_id":"cebpf4jnsgd1na2vs0mg"},{"bike_id":"afe3ffca-d1d1-43c5-86b2-34093dff5fb4","system_id":"levelo_inurba_marseille","lat":43.313571,"lon":5.384829,"is_reserved":false,"is_disabled":false,"rental_uris":{"android":"levelo://app?vid=afe3ffca-d1d1-43c5-86b2-34093dff5fb4","ios":"levelo://app?vid=afe3ffca-d1d1-43c5-86b2-34093dff5fb4"},"vehicle_type_id":"4","last_reported":1714421251,"current_range_meters":6000,"station_id":"ce4bgt92rcd13ifvqcf0","pricing_plan_id":"cebpf4jnsgd1na2vs0mg"},{"bike_id":"225e7c15-398f-4c19-97ce-792e0b9ea0f3","system_id":"levelo_inurba_marseille","lat":43.313571,"lon":5.384829,"is_reserved":false,"is_disabled":false,"rental_uris":{"android":"levelo://app?vid=225e7c15-398f-4c19-97ce-792e0b9ea0f3","ios":"levelo://app?vid=225e7c15-398f-4c19-97ce-792e0b9ea0f3"},"vehicle_type_id":"4","last_reported":1714421251,"current_range_meters":31200,"station_id":"ce4bgt92rcd13ifvqcf0","pricing_plan_id":"cebpf4jnsgd1na2vs0mg"},{"bike_id":"962a4b7f-7040-4679-ad3c-62d0395f99e0","system_id":"levelo_inurba_marseille","lat":43.313571,"lon":5.384829,"is_reserved":false,"is_disabled":false,"rental_uris":{"android":"levelo://app?vid=962a4b7f-7040-4679-ad3c-62d0395f99e0","ios":"levelo://app?vid=962a4b7f-7040-4679-ad3c-62d0395f99e0"},"vehicle_type_id":"4","last_reported":1714421251,"current_range_meters":25200,"station_id":"ce4bgt92rcd13ifvqcf0","pricing_plan_id":"cebpf4jnsgd1na2vs0mg"},{"bike_id":"0726bd2d-0d2d-42f4-968f-f9cff53d9053","system_id":"levelo_inurba_marseille","lat":43.313571,"lon":5.384829,"is_reserved":false,"is_disabled":false,"rental_uris":{"android":"levelo://app?vid=0726bd2d-0d2d-42f4-968f-f9cff53d9053","ios":"levelo://app?vid=0726bd2d-0d2d-42f4-968f-f9cff53d9053"},"vehicle_type_id":"4","last_reported":1714421251,"current_range_meters":5200,"station_id":"ce4bgt92rcd13ifvqcf0","pricing_plan_id":"cebpf4jnsgd1na2vs0mg"},{"bike_id":"82a9d743-4d85-4b5c-9f9e-d6506f3058f7","system_id":"levelo_inurba_marseille","lat":43.29985,"lon":5.3719,"is_reserved":false,"is_disabled":false,"rental_uris":{"android":"levelo://app?vid=82a9d743-4d85-4b5c-9f9e-d6506f3058f7","ios":"levelo://app?vid=82a9d743-4d85-4b5c-9f9e-d6506f3058f7"},"vehicle_type_id":"4","last_reported":1714421251,"current_range_meters":0,"station_id":"ce4bgr92rcd13ifvqc7g","pricing_plan_id":"cebpf4jnsgd1na2vs0mg"},{"bike_id":"c0122c56-5601-4d1e-9fcf-aad05404a1a8","system_id":"levelo_inurba_marseille","lat":43.29976,"lon":5.37176,"is_reserved":false,"is_disabled":false,"rental_uris":{"android":"levelo://app?vid=c0122c56-5601-4d1e-9fcf-aad05404a1a8","ios":"levelo://app?vid=c0122c56-5601-4d1e-9fcf-aad05404a1a8"},"vehicle_type_id":"4","last_reported":1714421251,"current_range_meters":22800,"station_id":"ce4bgr92rcd13ifvqc7g","pricing_plan_id":"cebpf4jnsgd1na2vs0mg"},{"bike_id":"4cc97d39-f47c-4672-9942-eebe67ac1f04","system_id":"levelo_inurba_marseille","lat":43.29976,"lon":5.3718,"is_reserved":false,"is_disabled":false,"rental_uris":{"android":"levelo://app?vid=4cc97d39-f47c-4672-9942-eebe67ac1f04","ios":"levelo://app?vid=4cc97d39-f47c-4672-9942-eebe67ac1f04"},"vehicle_type_id":"4","last_reported":1714421251,"current_range_meters":0,"station_id":"ce4bgr92rcd13ifvqc7g","pricing_plan_id":"cebpf4jnsgd1na2vs0mg"},{"bike_id":"2465dd71-d485-4823-be5e-8b5962cedd4c","system_id":"levelo_inurba_marseille","lat":43.299222,"lon":5.365554,"is_reserved":false,"is_disabled":false,"rental_uris":{"android":"levelo://app?vid=2465dd71-d485-4823-be5e-8b5962cedd4c","ios":"levelo://app?vid=2465dd71-d485-4823-be5e-8b5962cedd4c"},"vehicle_type_id":"4","last_reported":1714421251,"current_range_meters":4800,"station_id":"ce4bgm92rcd13ifvqbr0","pricing_plan_id":"cebpf4jnsgd1na2vs0mg"},{"bike_id":"31bd3781-2ce2-466a-b5c5-f01a195973b4","system_id":"levelo_inurba_marseille","lat":43.299222,"lon":5.365554,"is_reserved":false,"is_disabled":false,"rental_uris":{"android":"levelo://app?vid=31bd3781-2ce2-466a-b5c5-f01a195973b4","ios":"levelo://app?vid=31bd3781-2ce2-466a-b5c5-f01a195973b4"},"vehicle_type_id":"4","last_reported":1714421251,"current_range_meters":10000,"station_id":"ce4bgm92rcd13ifvqbr0","pricing_plan_id":"cebpf4jnsgd1na2vs0mg"},{"bike_id":"d38e480f-9afd-4957-b1e0-afe52e676b51","system_id":"levelo_inurba_marseille","lat":43.300137,"lon":5.376988,"is_reserved":false,"is_disabled":false,"rental_uris":{"android":"levelo://app?vid=d38e480f-9afd-4957-b1e0-afe52e676b51","ios":"levelo://app?vid=d38e480f-9afd-4957-b1e0-afe52e676b51"},"vehicle_type_id":"4","last_reported":1714421251,"current_range_meters":7200,"station_id":"","pricing_plan_id":"cebpf4jnsgd1na2vs0mg"},{"bike_id":"aad9cfb8-144c-45de-9e6c-24c589bc869a","system_id":"levelo_inurba_marseille","lat":43.29844,"lon":5.36264,"is_reserved":false,"is_disabled":false,"rental_uris":{"android":"levelo://app?vid=aad9cfb8-144c-45de-9e6c-24c589bc869a","ios":"levelo://app?vid=aad9cfb8-144c-45de-9e6c-24c589bc869a"},"vehicle_type_id":"4","last_reported":1714421251,"current_range_meters":6000,"station_id":"ce4bgpp2rcd13ifvqc3g","pricing_plan_id":"cebpf4jnsgd1na2vs0mg"},{"bike_id":"b7d0e160-abfe-4c66-a2c5-ffdaa5431faa","system_id":"levelo_inurba_marseille","lat":43.299178,"lon":5.37473,"is_reserved":false,"is_disabled":false,"rental_uris":{"android":"levelo://app?vid=b7d0e160-abfe-4c66-a2c5-ffdaa5431faa","ios":"levelo://app?vid=b7d0e160-abfe-4c66-a2c5-ffdaa5431faa"},"vehicle_type_id":"4","last_reported":1714421251,"current_range_meters":0,"station_id":"ce4bgjh2rcd13ifvqbg0","pricing_plan_id":"cebpf4jnsgd1na2vs0mg"},{"bike_id":"62e3672a-5145-4461-b9f7-3cc81b1d10f3","system_id":"levelo_inurba_marseille","lat":43.31177,"lon":5.387148,"is_reserved":false,"is_disabled":false,"rental_uris":{"android":"levelo://app?vid=62e3672a-5145-4461-b9f7-3cc81b1d10f3","ios":"levelo://app?vid=62e3672a-5145-4461-b9f7-3cc81b1d10f3"},"vehicle_type_id":"4","last_reported":1714421251,"current_range_meters":0,"station_id":"ce4bgv12rcd13ifvqcp0","pricing_plan_id":"cebpf4jnsgd1na2vs0mg"},{"bike_id":"7a770c05-0fd6-4f2d-aee6-f9a028dada4a","system_id":"levelo_inurba_marseille","lat":43.311722,"lon":5.387247,"is_reserved":false,"is_disabled":false,"rental_uris":{"android":"levelo://app?vid=7a770c05-0fd6-4f2d-aee6-f9a028dada4a","ios":"levelo://app?vid=7a770c05-0fd6-4f2d-aee6-f9a028dada4a"},"vehicle_type_id":"4","last_reported":1714421251,"current_range_meters":31200,"station_id":"ce4bgv12rcd13ifvqcp0","pricing_plan_id":"cebpf4jnsgd1na2vs0mg"},{"bike_id":"ea8c3766-208b-4134-9d04-9ec6437d2de8","system_id":"levelo_inurba_marseille","lat":43.311722,"lon":5.387247,"is_reserved":false,"is_disabled":false,"rental_uris":{"android":"levelo://app?vid=ea8c3766-208b-4134-9d04-9ec6437d2de8","ios":"levelo://app?vid=ea8c3766-208b-4134-9d04-9ec6437d2de8"},"vehicle_type_id":"4","last_reported":1714421251,"current_range_meters":11600,"station_id":"ce4bgv12rcd13ifvqcp0","pricing_plan_id":"cebpf4jnsgd1na2vs0mg"},{"bike_id":"20e59999-fa3e-410f-b099-14c631a674ab","system_id":"levelo_inurba_marseille","lat":43.311722,"lon":5.387247,"is_reserved":false,"is_disabled":false,"rental_uris":{"android":"levelo://app?vid=20e59999-fa3e-410f-b099-14c631a674ab","ios":"levelo://app?vid=20e59999-fa3e-410f-b099-14c631a674ab"},"vehicle_type_id":"4","last_reported":1714421251,"current_range_meters":21600,"station_id":"ce4bgv12rcd13ifvqcp0","pricing_plan_id":"cebpf4jnsgd1na2vs0mg"},{"bike_id":"857a7113-e781-4819-9bd0-b27805f2bd58","system_id":"levelo_inurba_marseille","lat":43.311722,"lon":5.387247,"is_reserved":false,"is_disabled":false,"rental_uris":{"android":"levelo://app?vid=857a7113-e781-4819-9bd0-b27805f2bd58","ios":"levelo://app?vid=857a7113-e781-4819-9bd0-b27805f2bd58"},"vehicle_type_id":"4","last_reported":1714421251,"current_range_meters":31600,"station_id":"ce4bgv12rcd13ifvqcp0","pricing_plan_id":"cebpf4jnsgd1na2vs0mg"},{"bike_id":"038b5b50-8f5e-4db0-8103-f34ca384bc52","system_id":"levelo_inurba_marseille","lat":43.311722,"lon":5.387247,"is_reserved":false,"is_disabled":false,"rental_uris":{"android":"levelo://app?vid=038b5b50-8f5e-4db0-8103-f34ca384bc52","ios":"levelo://app?vid=038b5b50-8f5e-4db0-8103-f34ca384bc52"},"vehicle_type_id":"4","last_reported":1714421251,"current_range_meters":2400,"station_id":"ce4bgv12rcd13ifvqcp0","pricing_plan_id":"cebpf4jnsgd1na2vs0mg"},{"bike_id":"e7a71085-4475-4f7c-b3af-2139a6fca8ab","system_id":"levelo_inurba_marseille","lat":43.311722,"lon":5.387247,"is_reserved":false,"is_disabled":false,"rental_uris":{"android":"levelo://app?vid=e7a71085-4475-4f7c-b3af-2139a6fca8ab","ios":"levelo://app?vid=e7a71085-4475-4f7c-b3af-2139a6fca8ab"},"vehicle_type_id":"4","last_reported":1714421251,"current_range_meters":12800,"station_id":"ce4bgv12rcd13ifvqcp0","pricing_plan_id":"cebpf4jnsgd1na2vs0mg"},{"bike_id":"2eeac0cc-eca0-4b71-894e-8b6bdc7cbd22","system_id":"levelo_inurba_marseille","lat":43.311722,"lon":5.387247,"is_reserved":false,"is_disabled":false,"rental_uris":{"android":"levelo://app?vid=2eeac0cc-eca0-4b71-894e-8b6bdc7cbd22","ios":"levelo://app?vid=2eeac0cc-eca0-4b71-894e-8b6bdc7cbd22"},"vehicle_type_id":"4","last_reported":1714421251,"current_range_meters":31600,"station_id":"ce4bgv12rcd13ifvqcp0","pricing_plan_id":"cebpf4jnsgd1na2vs0mg"},{"bike_id":"87d95746-78cb-4d70-956a-eeed9aaf9233","system_id":"levelo_inurba_marseille","lat":43.311722,"lon":5.387247,"is_reserved":false,"is_disabled":false,"rental_uris":{"android":"levelo://app?vid=87d95746-78cb-4d70-956a-eeed9aaf9233","ios":"levelo://app?vid=87d95746-78cb-4d70-956a-eeed9aaf9233"},"vehicle_type_id":"4","last_reported":1714421251,"current_range_meters":30400,"station_id":"ce4bgv12rcd13ifvqcp0","pricing_plan_id":"cebpf4jnsgd1na2vs0mg"},{"bike_id":"1c8c8ef4-7ad7-40b5-ad96-0f5d102b6629","system_id":"levelo_inurba_marseille","lat":43.311722,"lon":5.387247,"is_reserved":false,"is_disabled":false,"rental_uris":{"android":"levelo://app?vid=1c8c8ef4-7ad7-40b5-ad96-0f5d102b6629","ios":"levelo://app?vid=1c8c8ef4-7ad7-40b5-ad96-0f5d102b6629"},"vehicle_type_id":"4","last_reported":1714421251,"current_range_meters":11200,"station_id":"ce4bgv12rcd13ifvqcp0","pricing_plan_id":"cebpf4jnsgd1na2vs0mg"},{"bike_id":"ec7a60fe-cd7d-482a-b330-4fb420b3a6e8","system_id":"levelo_inurba_marseille","lat":43.322872,"lon":5.382756,"is_reserved":false,"is_disabled":false,"rental_uris":{"android":"levelo://app?vid=ec7a60fe-cd7d-482a-b330-4fb420b3a6e8","ios":"levelo://app?vid=ec7a60fe-cd7d-482a-b330-4fb420b3a6e8"},"vehicle_type_id":"4","last_reported":1714421251,"current_range_meters":6800,"station_id":"ce4bhr12rcd13ifvqhqg","pricing_plan_id":"cebpf4jnsgd1na2vs0mg"},{"bike_id":"7d0dc6e4-237d-4e2c-9f6d-5a67d8478718","system_id":"levelo_inurba_marseille","lat":43.322872,"lon":5.382756,"is_reserved":false,"is_disabled":false,"rental_uris":{"android":"levelo://app?vid=7d0dc6e4-237d-4e2c-9f6d-5a67d8478718","ios":"levelo://app?vid=7d0dc6e4-237d-4e2c-9f6d-5a67d8478718"},"vehicle_type_id":"4","last_reported":1714421251,"current_range_meters":22800,"station_id":"ce4bhr12rcd13ifvqhqg","pricing_plan_id":"cebpf4jnsgd1na2vs0mg"},{"bike_id":"90f46afa-97a4-48f2-84a2-899bcf460e9a","system_id":"levelo_inurba_marseille","lat":43.322872,"lon":5.382756,"is_reserved":false,"is_disabled":false,"rental_uris":{"android":"levelo://app?vid=90f46afa-97a4-48f2-84a2-899bcf460e9a","ios":"levelo://app?vid=90f46afa-97a4-48f2-84a2-899bcf460e9a"},"vehicle_type_id":"4","last_reported":1714421251,"current_range_meters":24800,"station_id":"ce4bhr12rcd13ifvqhqg","pricing_plan_id":"cebpf4jnsgd1na2vs0mg"},{"bike_id":"b46b8a58-bd5d-4598-90cd-10c626b528ca","system_id":"levelo_inurba_marseille","lat":43.322872,"lon":5.382756,"is_reserved":false,"is_disabled":false,"rental_uris":{"android":"levelo://app?vid=b46b8a58-bd5d-4598-90cd-10c626b528ca","ios":"levelo://app?vid=b46b8a58-bd5d-4598-90cd-10c626b528ca"},"vehicle_type_id":"4","last_reported":1714421251,"current_range_meters":31200,"station_id":"ce4bhr12rcd13ifvqhqg","pricing_plan_id":"cebpf4jnsgd1na2vs0mg"},{"bike_id":"f02e7649-dc40-48fa-8c4d-12d98c304645","system_id":"levelo_inurba_marseille","lat":43.32295,"lon":5.38266,"is_reserved":false,"is_disabled":false,"rental_uris":{"android":"levelo://app?vid=f02e7649-dc40-48fa-8c4d-12d98c304645","ios":"levelo://app?vid=f02e7649-dc40-48fa-8c4d-12d98c304645"},"vehicle_type_id":"4","last_reported":1714421251,"current_range_meters":27200,"station_id":"ce4bhr12rcd13ifvqhqg","pricing_plan_id":"cebpf4jnsgd1na2vs0mg"},{"bike_id":"e7620d48-0589-458f-9112-8f2d8a96c05b","system_id":"levelo_inurba_marseille","lat":43.322872,"lon":5.382756,"is_reserved":false,"is_disabled":false,"rental_uris":{"android":"levelo://app?vid=e7620d48-0589-458f-9112-8f2d8a96c05b","ios":"levelo://app?vid=e7620d48-0589-458f-9112-8f2d8a96c05b"},"vehicle_type_id":"4","last_reported":1714421251,"current_range_meters":6800,"station_id":"ce4bhr12rcd13ifvqhqg","pricing_plan_id":"cebpf4jnsgd1na2vs0mg"},{"bike_id":"1eb014b0-d233-4917-a9dc-6a24e8b31219","system_id":"levelo_inurba_marseille","lat":43.322872,"lon":5.382756,"is_reserved":false,"is_disabled":false,"rental_uris":{"android":"levelo://app?vid=1eb014b0-d233-4917-a9dc-6a24e8b31219","ios":"levelo://app?vid=1eb014b0-d233-4917-a9dc-6a24e8b31219"},"vehicle_type_id":"4","last_reported":1714421251,"current_range_meters":31200,"station_id":"ce4bhr12rcd13ifvqhqg","pricing_plan_id":"cebpf4jnsgd1na2vs0mg"},{"bike_id":"20a74c7a-b479-474c-a985-443ff7e353c9","system_id":"levelo_inurba_marseille","lat":43.322872,"lon":5.382756,"is_reserved":false,"is_disabled":false,"rental_uris":{"android":"levelo://app?vid=20a74c7a-b479-474c-a985-443ff7e353c9","ios":"levelo://app?vid=20a74c7a-b479-474c-a985-443ff7e353c9"},"vehicle_type_id":"4","last_reported":1714421251,"current_range_meters":0,"station_id":"ce4bhr12rcd13ifvqhqg","pricing_plan_id":"cebpf4jnsgd1na2vs0mg"},{"bike_id":"9a6bb00e-5211-429a-a8ac-ad941b9f0e0c","system_id":"levelo_inurba_marseille","lat":43.297163,"lon":5.365866,"is_reserved":false,"is_disabled":false,"rental_uris":{"android":"levelo://app?vid=9a6bb00e-5211-429a-a8ac-ad941b9f0e0c","ios":"levelo://app?vid=9a6bb00e-5211-429a-a8ac-ad941b9f0e0c"},"vehicle_type_id":"4","last_reported":1714421251,"current_range_meters":4800,"station_id":"ce4bgn12rcd13ifvqbt0","pricing_plan_id":"cebpf4jnsgd1na2vs0mg"},{"bike_id":"f8e5790e-31c4-4dbf-92fb-91ba31baa3e7","system_id":"levelo_inurba_marseille","lat":43.297163,"lon":5.365866,"is_reserved":false,"is_disabled":false,"rental_uris":{"android":"levelo://app?vid=f8e5790e-31c4-4dbf-92fb-91ba31baa3e7","ios":"levelo://app?vid=f8e5790e-31c4-4dbf-92fb-91ba31baa3e7"},"vehicle_type_id":"4","last_reported":1714421251,"current_range_meters":6800,"station_id":"ce4bgn12rcd13ifvqbt0","pricing_plan_id":"cebpf4jnsgd1na2vs0mg"},{"bike_id":"3d8ff6be-78e2-4b99-83c4-2b0a0d0af2e1","system_id":"levelo_inurba_marseille","lat":43.29573,"lon":5.367355,"is_reserved":false,"is_disabled":false,"rental_uris":{"android":"levelo://app?vid=3d8ff6be-78e2-4b99-83c4-2b0a0d0af2e1","ios":"levelo://app?vid=3d8ff6be-78e2-4b99-83c4-2b0a0d0af2e1"},"vehicle_type_id":"4","last_reported":1714421251,"current_range_meters":0,"station_id":"ce4bgph2rcd13ifvqc2g","pricing_plan_id":"cebpf4jnsgd1na2vs0mg"},{"bike_id":"2abb7890-2f8c-4821-87c9-bd06e26d5230","system_id":"levelo_inurba_marseille","lat":43.29573,"lon":5.367355,"is_reserved":false,"is_disabled":false,"rental_uris":{"android":"levelo://app?vid=2abb7890-2f8c-4821-87c9-bd06e26d5230","ios":"levelo://app?vid=2abb7890-2f8c-4821-87c9-bd06e26d5230"},"vehicle_type_id":"4","last_reported":1714421251,"current_range_meters":20400,"station_id":"ce4bgph2rcd13ifvqc2g","pricing_plan_id":"cebpf4jnsgd1na2vs0mg"},{"bike_id":"a348bb8e-bec6-404c-a83d-c12049f9ebae","system_id":"levelo_inurba_marseille","lat":43.2973,"lon":5.37678,"is_reserved":false,"is_disabled":false,"rental_uris":{"android":"levelo://app?vid=a348bb8e-bec6-404c-a83d-c12049f9ebae","ios":"levelo://app?vid=a348bb8e-bec6-404c-a83d-c12049f9ebae"},"vehicle_type_id":"4","last_reported":1714421251,"current_range_meters":0,"station_id":"ce4bgkh2rcd13ifvqbl0","pricing_plan_id":"cebpf4jnsgd1na2vs0mg"},{"bike_id":"a2b4ddee-e4d9-4360-8973-73b9fca89ccd","system_id":"levelo_inurba_marseille","lat":43.299111,"lon":5.381387,"is_reserved":false,"is_disabled":false,"rental_uris":{"android":"levelo://app?vid=a2b4ddee-e4d9-4360-8973-73b9fca89ccd","ios":"levelo://app?vid=a2b4ddee-e4d9-4360-8973-73b9fca89ccd"},"vehicle_type_id":"4","last_reported":1714421251,"current_range_meters":0,"station_id":"ce4bgj12rcd13ifvqbc0","pricing_plan_id":"cebpf4jnsgd1na2vs0mg"},{"bike_id":"52c6dc32-1f29-44ac-aa8e-cd37951533b1","system_id":"levelo_inurba_marseille","lat":43.293259,"lon":5.371586,"is_reserved":false,"is_disabled":false,"rental_uris":{"android":"levelo://app?vid=52c6dc32-1f29-44ac-aa8e-cd37951533b1","ios":"levelo://app?vid=52c6dc32-1f29-44ac-aa8e-cd37951533b1"},"vehicle_type_id":"4","last_reported":1714421251,"current_range_meters":2000,"station_id":"ce4bgh92rcd13ifvqb40","pricing_plan_id":"cebpf4jnsgd1na2vs0mg"},{"bike_id":"cf472e77-4f9e-4957-85a6-8ce13666956f","system_id":"levelo_inurba_marseille","lat":43.30957,"lon":5.39021,"is_reserved":false,"is_disabled":false,"rental_uris":{"android":"levelo://app?vid=cf472e77-4f9e-4957-85a6-8ce13666956f","ios":"levelo://app?vid=cf472e77-4f9e-4957-85a6-8ce13666956f"},"vehicle_type_id":"4","last_reported":1714421251,"current_range_meters":0,"station_id":"ce4bgup2rcd13ifvqco0","pricing_plan_id":"cebpf4jnsgd1na2vs0mg"},{"bike_id":"3b6f2692-cb13-41d0-8b3e-f65ae2d9efee","system_id":"levelo_inurba_marseille","lat":43.29905,"lon":5.38136,"is_reserved":false,"is_disabled":false,"rental_uris":{"android":"levelo://app?vid=3b6f2692-cb13-41d0-8b3e-f65ae2d9efee","ios":"levelo://app?vid=3b6f2692-cb13-41d0-8b3e-f65ae2d9efee"},"vehicle_type_id":"4","last_reported":1714421251,"current_range_meters":0,"station_id":"ce4bgj12rcd13ifvqbc0","pricing_plan_id":"cebpf4jnsgd1na2vs0mg"},{"bike_id":"ffa7f5ee-a945-44b8-88f8-218ec7958e26","system_id":"levelo_inurba_marseille","lat":43.309589,"lon":5.390258,"is_reserved":false,"is_disabled":false,"rental_uris":{"android":"levelo://app?vid=ffa7f5ee-a945-44b8-88f8-218ec7958e26","ios":"levelo://app?vid=ffa7f5ee-a945-44b8-88f8-218ec7958e26"},"vehicle_type_id":"4","last_reported":1714421251,"current_range_meters":4000,"station_id":"ce4bgup2rcd13ifvqco0","pricing_plan_id":"cebpf4jnsgd1na2vs0mg"},{"bike_id":"caf183ad-aa55-48c4-a1e0-e91881b42789","system_id":"levelo_inurba_marseille","lat":43.299028,"lon":5.381509,"is_reserved":false,"is_disabled":false,"rental_uris":{"android":"levelo://app?vid=caf183ad-aa55-48c4-a1e0-e91881b42789","ios":"levelo://app?vid=caf183ad-aa55-48c4-a1e0-e91881b42789"},"vehicle_type_id":"4","last_reported":1714421251,"current_range_meters":4800,"station_id":"ce4bgj12rcd13ifvqbc0","pricing_plan_id":"cebpf4jnsgd1na2vs0mg"},{"bike_id":"20be3f98-3f0a-41f5-977f-aba1ab19bcad","system_id":"levelo_inurba_marseille","lat":43.299028,"lon":5.381509,"is_reserved":false,"is_disabled":false,"rental_uris":{"android":"levelo://app?vid=20be3f98-3f0a-41f5-977f-aba1ab19bcad","ios":"levelo://app?vid=20be3f98-3f0a-41f5-977f-aba1ab19bcad"},"vehicle_type_id":"4","last_reported":1714421251,"current_range_meters":16000,"station_id":"ce4bgj12rcd13ifvqbc0","pricing_plan_id":"cebpf4jnsgd1na2vs0mg"},{"bike_id":"ac627d4d-59f3-4d07-bc88-7966db063435","system_id":"levelo_inurba_marseille","lat":43.309589,"lon":5.390258,"is_reserved":false,"is_disabled":false,"rental_uris":{"android":"levelo://app?vid=ac627d4d-59f3-4d07-bc88-7966db063435","ios":"levelo://app?vid=ac627d4d-59f3-4d07-bc88-7966db063435"},"vehicle_type_id":"4","last_reported":1714421251,"current_range_meters":12800,"station_id":"ce4bgup2rcd13ifvqco0","pricing_plan_id":"cebpf4jnsgd1na2vs0mg"},{"bike_id":"191bf1c6-a572-40da-9563-24f8587195e4","system_id":"levelo_inurba_marseille","lat":43.299028,"lon":5.381509,"is_reserved":false,"is_disabled":false,"rental_uris":{"android":"levelo://app?vid=191bf1c6-a572-40da-9563-24f8587195e4","ios":"levelo://app?vid=191bf1c6-a572-40da-9563-24f8587195e4"},"vehicle_type_id":"4","last_reported":1714421251,"current_range_meters":12000,"station_id":"ce4bgj12rcd13ifvqbc0","pricing_plan_id":"cebpf4jnsgd1na2vs0mg"},{"bike_id":"89b236f4-6376-4265-bbd9-a0f613b5f15f","system_id":"levelo_inurba_marseille","lat":43.305994,"lon":5.393687,"is_reserved":false,"is_disabled":false,"rental_uris":{"android":"levelo://app?vid=89b236f4-6376-4265-bbd9-a0f613b5f15f","ios":"levelo://app?vid=89b236f4-6376-4265-bbd9-a0f613b5f15f"},"vehicle_type_id":"4","last_reported":1714421251,"current_range_meters":23600,"station_id":"ce4bh0p2rcd13ifvqd80","pricing_plan_id":"cebpf4jnsgd1na2vs0mg"},{"bike_id":"0e64e9c7-dbe1-43a1-9b1d-8549274ccaa2","system_id":"levelo_inurba_marseille","lat":43.31743,"lon":5.3902,"is_reserved":false,"is_disabled":false,"rental_uris":{"android":"levelo://app?vid=0e64e9c7-dbe1-43a1-9b1d-8549274ccaa2","ios":"levelo://app?vid=0e64e9c7-dbe1-43a1-9b1d-8549274ccaa2"},"vehicle_type_id":"4","last_reported":1714421251,"current_range_meters":26000,"station_id":"ce4bhqp2rcd13ifvqhng","pricing_plan_id":"cebpf4jnsgd1na2vs0mg"},{"bike_id":"6fa7a514-c868-4b6b-824d-e2fd32f77b7e","system_id":"levelo_inurba_marseille","lat":43.31757,"lon":5.39016,"is_reserved":false,"is_disabled":false,"rental_uris":{"android":"levelo://app?vid=6fa7a514-c868-4b6b-824d-e2fd32f77b7e","ios":"levelo://app?vid=6fa7a514-c868-4b6b-824d-e2fd32f77b7e"},"vehicle_type_id":"4","last_reported":1714421251,"current_range_meters":22800,"station_id":"ce4bhqp2rcd13ifvqhng","pricing_plan_id":"cebpf4jnsgd1na2vs0mg"},{"bike_id":"34fa1cb8-d6c4-4996-b288-134de4a53dd8","system_id":"levelo_inurba_marseille","lat":43.317557,"lon":5.390173,"is_reserved":false,"is_disabled":false,"rental_uris":{"android":"levelo://app?vid=34fa1cb8-d6c4-4996-b288-134de4a53dd8","ios":"levelo://app?vid=34fa1cb8-d6c4-4996-b288-134de4a53dd8"},"vehicle_type_id":"4","last_reported":1714421251,"current_range_meters":18000,"station_id":"ce4bhqp2rcd13ifvqhng","pricing_plan_id":"cebpf4jnsgd1na2vs0mg"},{"bike_id":"a6f7ad73-c585-4e2d-8a35-6604a83b7104","system_id":"levelo_inurba_marseille","lat":43.31757,"lon":5.39019,"is_reserved":false,"is_disabled":false,"rental_uris":{"android":"levelo://app?vid=a6f7ad73-c585-4e2d-8a35-6604a83b7104","ios":"levelo://app?vid=a6f7ad73-c585-4e2d-8a35-6604a83b7104"},"vehicle_type_id":"4","last_reported":1714421251,"current_range_meters":5200,"station_id":"ce4bhqp2rcd13ifvqhng","pricing_plan_id":"cebpf4jnsgd1na2vs0mg"},{"bike_id":"3312060f-961b-4e89-ba23-464e92092e30","system_id":"levelo_inurba_marseille","lat":43.317557,"lon":5.390173,"is_reserved":false,"is_disabled":false,"rental_uris":{"android":"levelo://app?vid=3312060f-961b-4e89-ba23-464e92092e30","ios":"levelo://app?vid=3312060f-961b-4e89-ba23-464e92092e30"},"vehicle_type_id":"4","last_reported":1714421251,"current_range_meters":3200,"station_id":"ce4bhqp2rcd13ifvqhng","pricing_plan_id":"cebpf4jnsgd1na2vs0mg"},{"bike_id":"ab0d2e41-fdad-4489-beb8-58ccc13d9420","system_id":"levelo_inurba_marseille","lat":43.317557,"lon":5.390173,"is_reserved":false,"is_disabled":false,"rental_uris":{"android":"levelo://app?vid=ab0d2e41-fdad-4489-beb8-58ccc13d9420","ios":"levelo://app?vid=ab0d2e41-fdad-4489-beb8-58ccc13d9420"},"vehicle_type_id":"4","last_reported":1714421251,"current_range_meters":4000,"station_id":"ce4bhqp2rcd13ifvqhng","pricing_plan_id":"cebpf4jnsgd1na2vs0mg"},{"bike_id":"c53d716a-cdec-41a4-a6f3-72219a5ee3a5","system_id":"levelo_inurba_marseille","lat":43.317557,"lon":5.390173,"is_reserved":false,"is_disabled":false,"rental_uris":{"android":"levelo://app?vid=c53d716a-cdec-41a4-a6f3-72219a5ee3a5","ios":"levelo://app?vid=c53d716a-cdec-41a4-a6f3-72219a5ee3a5"},"vehicle_type_id":"4","last_reported":1714421251,"current_range_meters":12400,"station_id":"ce4bhqp2rcd13ifvqhng","pricing_plan_id":"cebpf4jnsgd1na2vs0mg"},{"bike_id":"d63bbd91-6e5f-4d34-93e8-eb3619db06a8","system_id":"levelo_inurba_marseille","lat":43.317557,"lon":5.390173,"is_reserved":false,"is_disabled":false,"rental_uris":{"android":"levelo://app?vid=d63bbd91-6e5f-4d34-93e8-eb3619db06a8","ios":"levelo://app?vid=d63bbd91-6e5f-4d34-93e8-eb3619db06a8"},"vehicle_type_id":"4","last_reported":1714421251,"current_range_meters":27200,"station_id":"ce4bhqp2rcd13ifvqhng","pricing_plan_id":"cebpf4jnsgd1na2vs0mg"},{"bike_id":"0381cdcb-ebbd-48d0-a9b0-cf07d8bd5cee","system_id":"levelo_inurba_marseille","lat":43.317557,"lon":5.390173,"is_reserved":false,"is_disabled":false,"rental_uris":{"android":"levelo://app?vid=0381cdcb-ebbd-48d0-a9b0-cf07d8bd5cee","ios":"levelo://app?vid=0381cdcb-ebbd-48d0-a9b0-cf07d8bd5cee"},"vehicle_type_id":"4","last_reported":1714421251,"current_range_meters":17600,"station_id":"ce4bhqp2rcd13ifvqhng","pricing_plan_id":"cebpf4jnsgd1na2vs0mg"},{"bike_id":"8862cb81-7bdf-40db-af2b-9e8876463bc5","system_id":"levelo_inurba_marseille","lat":43.317627,"lon":5.39023,"is_reserved":false,"is_disabled":false,"rental_uris":{"android":"levelo://app?vid=8862cb81-7bdf-40db-af2b-9e8876463bc5","ios":"levelo://app?vid=8862cb81-7bdf-40db-af2b-9e8876463bc5"},"vehicle_type_id":"4","last_reported":1714421251,"current_range_meters":10000,"station_id":"ce4bhqp2rcd13ifvqhng","pricing_plan_id":"cebpf4jnsgd1na2vs0mg"},{"bike_id":"efa5404d-c775-4ee3-bcb0-826368ae11c9","system_id":"levelo_inurba_marseille","lat":43.305364,"lon":5.384119,"is_reserved":false,"is_disabled":false,"rental_uris":{"android":"levelo://app?vid=efa5404d-c775-4ee3-bcb0-826368ae11c9","ios":"levelo://app?vid=efa5404d-c775-4ee3-bcb0-826368ae11c9"},"vehicle_type_id":"4","last_reported":1714421251,"current_range_meters":16800,"station_id":"ce4bgg92rcd13ifvqb30","pricing_plan_id":"cebpf4jnsgd1na2vs0mg"},{"bike_id":"ced9ec54-4987-4fa2-bfae-0a77a1f75ab5","system_id":"levelo_inurba_marseille","lat":43.298037,"lon":5.381066,"is_reserved":false,"is_disabled":false,"rental_uris":{"android":"levelo://app?vid=ced9ec54-4987-4fa2-bfae-0a77a1f75ab5","ios":"levelo://app?vid=ced9ec54-4987-4fa2-bfae-0a77a1f75ab5"},"vehicle_type_id":"4","last_reported":1714421251,"current_range_meters":11600,"station_id":"ce4bgip2rcd13ifvqbb0","pricing_plan_id":"cebpf4jnsgd1na2vs0mg"},{"bike_id":"23b6b848-4a3f-4247-9235-da92414cff3f","system_id":"levelo_inurba_marseille","lat":43.29807,"lon":5.38093,"is_reserved":false,"is_disabled":false,"rental_uris":{"android":"levelo://app?vid=23b6b848-4a3f-4247-9235-da92414cff3f","ios":"levelo://app?vid=23b6b848-4a3f-4247-9235-da92414cff3f"},"vehicle_type_id":"4","last_reported":1714421251,"current_range_meters":8800,"station_id":"ce4bgr92rcd13ifvqc7g","pricing_plan_id":"cebpf4jnsgd1na2vs0mg"},{"bike_id":"f2d97e3a-8f0a-4f85-b893-38414f42a5dd","system_id":"levelo_inurba_marseille","lat":43.29797,"lon":5.38093,"is_reserved":false,"is_disabled":false,"rental_uris":{"android":"levelo://app?vid=f2d97e3a-8f0a-4f85-b893-38414f42a5dd","ios":"levelo://app?vid=f2d97e3a-8f0a-4f85-b893-38414f42a5dd"},"vehicle_type_id":"4","last_reported":1714421251,"current_range_meters":0,"station_id":"ce4bgip2rcd13ifvqbb0","pricing_plan_id":"cebpf4jnsgd1na2vs0mg"},{"bike_id":"3bb9883e-3e5b-4b28-a2bd-73fae6ebe227","system_id":"levelo_inurba_marseille","lat":43.29793,"lon":5.38095,"is_reserved":false,"is_disabled":false,"rental_uris":{"android":"levelo://app?vid=3bb9883e-3e5b-4b28-a2bd-73fae6ebe227","ios":"levelo://app?vid=3bb9883e-3e5b-4b28-a2bd-73fae6ebe227"},"vehicle_type_id":"4","last_reported":1714421251,"current_range_meters":0,"station_id":"ce4bgip2rcd13ifvqbb0","pricing_plan_id":"cebpf4jnsgd1na2vs0mg"},{"bike_id":"7548b995-d75c-42d1-b71a-039b8f9be37b","system_id":"levelo_inurba_marseille","lat":43.296263,"lon":5.377094,"is_reserved":false,"is_disabled":false,"rental_uris":{"android":"levelo://app?vid=7548b995-d75c-42d1-b71a-039b8f9be37b","ios":"levelo://app?vid=7548b995-d75c-42d1-b71a-039b8f9be37b"},"vehicle_type_id":"4","last_reported":1714421251,"current_range_meters":22400,"station_id":"ce4bgi92rcd13ifvqb90","pricing_plan_id":"cebpf4jnsgd1na2vs0mg"},{"bike_id":"df746ca3-74fd-4019-b96d-b759189ca73f","system_id":"levelo_inurba_marseille","lat":43.304274,"lon":5.388873,"is_reserved":false,"is_disabled":false,"rental_uris":{"android":"levelo://app?vid=df746ca3-74fd-4019-b96d-b759189ca73f","ios":"levelo://app?vid=df746ca3-74fd-4019-b96d-b759189ca73f"},"vehicle_type_id":"4","last_reported":1714421251,"current_range_meters":25600,"station_id":"ce4bgk12rcd13ifvqbi0","pricing_plan_id":"cebpf4jnsgd1na2vs0mg"},{"bike_id":"40b47af7-7675-485c-befd-457b2fd90cd3","system_id":"levelo_inurba_marseille","lat":43.304274,"lon":5.388873,"is_reserved":false,"is_disabled":false,"rental_uris":{"android":"levelo://app?vid=40b47af7-7675-485c-befd-457b2fd90cd3","ios":"levelo://app?vid=40b47af7-7675-485c-befd-457b2fd90cd3"},"vehicle_type_id":"4","last_reported":1714421251,"current_range_meters":9600,"station_id":"ce4bgk12rcd13ifvqbi0","pricing_plan_id":"cebpf4jnsgd1na2vs0mg"},{"bike_id":"e288db24-ebab-4c04-b801-8ceb6436f35d","system_id":"levelo_inurba_marseille","lat":43.296277,"lon":5.377108,"is_reserved":false,"is_disabled":false,"rental_uris":{"android":"levelo://app?vid=e288db24-ebab-4c04-b801-8ceb6436f35d","ios":"levelo://app?vid=e288db24-ebab-4c04-b801-8ceb6436f35d"},"vehicle_type_id":"4","last_reported":1714421251,"current_range_meters":12400,"station_id":"ce4bgi92rcd13ifvqb90","pricing_plan_id":"cebpf4jnsgd1na2vs0mg"},{"bike_id":"cf91edd0-acc0-46fb-ad7b-967a260b1436","system_id":"levelo_inurba_marseille","lat":43.296173,"lon":5.37718,"is_reserved":false,"is_disabled":false,"rental_uris":{"android":"levelo://app?vid=cf91edd0-acc0-46fb-ad7b-967a260b1436","ios":"levelo://app?vid=cf91edd0-acc0-46fb-ad7b-967a260b1436"},"vehicle_type_id":"4","last_reported":1714421251,"current_range_meters":0,"station_id":"ce4bgi92rcd13ifvqb90","pricing_plan_id":"cebpf4jnsgd1na2vs0mg"},{"bike_id":"178ac4b7-6175-4970-b337-7fa3336c6b74","system_id":"levelo_inurba_marseille","lat":43.296277,"lon":5.377108,"is_reserved":false,"is_disabled":false,"rental_uris":{"android":"levelo://app?vid=178ac4b7-6175-4970-b337-7fa3336c6b74","ios":"levelo://app?vid=178ac4b7-6175-4970-b337-7fa3336c6b74"},"vehicle_type_id":"4","last_reported":1714421251,"current_range_meters":7200,"station_id":"ce4bgi92rcd13ifvqb90","pricing_plan_id":"cebpf4jnsgd1na2vs0mg"},{"bike_id":"824cd453-c14e-4060-9488-8b3ee46c442f","system_id":"levelo_inurba_marseille","lat":43.296263,"lon":5.377094,"is_reserved":false,"is_disabled":false,"rental_uris":{"android":"levelo://app?vid=824cd453-c14e-4060-9488-8b3ee46c442f","ios":"levelo://app?vid=824cd453-c14e-4060-9488-8b3ee46c442f"},"vehicle_type_id":"4","last_reported":1714421251,"current_range_meters":0,"station_id":"ce4bgi92rcd13ifvqb90","pricing_plan_id":"cebpf4jnsgd1na2vs0mg"},{"bike_id":"a8049ac0-b051-4b7e-9a24-36d972e22af5","system_id":"levelo_inurba_marseille","lat":43.260225,"lon":5.375455,"is_reserved":false,"is_disabled":false,"rental_uris":{"android":"levelo://app?vid=a8049ac0-b051-4b7e-9a24-36d972e22af5","ios":"levelo://app?vid=a8049ac0-b051-4b7e-9a24-36d972e22af5"},"vehicle_type_id":"4","last_reported":1714421251,"current_range_meters":8400,"station_id":"ce4bhgh2rcd13ifvqfa0","pricing_plan_id":"cebpf4jnsgd1na2vs0mg"},{"bike_id":"7ca20631-1cfc-4a4b-beb7-623e93188943","system_id":"levelo_inurba_marseille","lat":43.2997,"lon":5.38493,"is_reserved":false,"is_disabled":false,"rental_uris":{"android":"levelo://app?vid=7ca20631-1cfc-4a4b-beb7-623e93188943","ios":"levelo://app?vid=7ca20631-1cfc-4a4b-beb7-623e93188943"},"vehicle_type_id":"4","last_reported":1714421251,"current_range_meters":22000,"station_id":"ce4bgj92rcd13ifvqbd0","pricing_plan_id":"cebpf4jnsgd1na2vs0mg"},{"bike_id":"7cfe4cd9-bda3-457d-9412-f3daa5cf7f4f","system_id":"levelo_inurba_marseille","lat":43.299717,"lon":5.384845,"is_reserved":false,"is_disabled":false,"rental_uris":{"android":"levelo://app?vid=7cfe4cd9-bda3-457d-9412-f3daa5cf7f4f","ios":"levelo://app?vid=7cfe4cd9-bda3-457d-9412-f3daa5cf7f4f"},"vehicle_type_id":"4","last_reported":1714421251,"current_range_meters":12800,"station_id":"ce4bgj92rcd13ifvqbd0","pricing_plan_id":"cebpf4jnsgd1na2vs0mg"},{"bike_id":"acc20490-0855-4d40-89e1-01a60227bf0e","system_id":"levelo_inurba_marseille","lat":43.299717,"lon":5.384845,"is_reserved":false,"is_disabled":false,"rental_uris":{"android":"levelo://app?vid=acc20490-0855-4d40-89e1-01a60227bf0e","ios":"levelo://app?vid=acc20490-0855-4d40-89e1-01a60227bf0e"},"vehicle_type_id":"4","last_reported":1714421251,"current_range_meters":28000,"station_id":"ce4bgj92rcd13ifvqbd0","pricing_plan_id":"cebpf4jnsgd1na2vs0mg"},{"bike_id":"412cae72-9b5f-466b-91c4-921a36268d42","system_id":"levelo_inurba_marseille","lat":43.299724,"lon":5.384848,"is_reserved":false,"is_disabled":false,"rental_uris":{"android":"levelo://app?vid=412cae72-9b5f-466b-91c4-921a36268d42","ios":"levelo://app?vid=412cae72-9b5f-466b-91c4-921a36268d42"},"vehicle_type_id":"4","last_reported":1714421251,"current_range_meters":0,"station_id":"ce4bgj92rcd13ifvqbd0","pricing_plan_id":"cebpf4jnsgd1na2vs0mg"},{"bike_id":"f50dce22-be4a-4d8a-9fd4-66a5ef9fda71","system_id":"levelo_inurba_marseille","lat":43.299724,"lon":5.384848,"is_reserved":false,"is_disabled":false,"rental_uris":{"android":"levelo://app?vid=f50dce22-be4a-4d8a-9fd4-66a5ef9fda71","ios":"levelo://app?vid=f50dce22-be4a-4d8a-9fd4-66a5ef9fda71"},"vehicle_type_id":"4","last_reported":1714421251,"current_range_meters":0,"station_id":"ce4bgj92rcd13ifvqbd0","pricing_plan_id":"cebpf4jnsgd1na2vs0mg"},{"bike_id":"73b37800-277b-4d68-afd4-4b2ddd3b798e","system_id":"levelo_inurba_marseille","lat":43.296167,"lon":5.379727,"is_reserved":false,"is_disabled":false,"rental_uris":{"android":"levelo://app?vid=73b37800-277b-4d68-afd4-4b2ddd3b798e","ios":"levelo://app?vid=73b37800-277b-4d68-afd4-4b2ddd3b798e"},"vehicle_type_id":"4","last_reported":1714421251,"current_range_meters":6800,"station_id":"","pricing_plan_id":"cebpf4jnsgd1na2vs0mg"},{"bike_id":"703cc1c7-ab3a-4301-9124-b1c6807136e2","system_id":"levelo_inurba_marseille","lat":43.304278,"lon":5.388868,"is_reserved":false,"is_disabled":false,"rental_uris":{"android":"levelo://app?vid=703cc1c7-ab3a-4301-9124-b1c6807136e2","ios":"levelo://app?vid=703cc1c7-ab3a-4301-9124-b1c6807136e2"},"vehicle_type_id":"4","last_reported":1714421251,"current_range_meters":9600,"station_id":"ce4bgk12rcd13ifvqbi0","pricing_plan_id":"cebpf4jnsgd1na2vs0mg"},{"bike_id":"1e90664a-dafe-4aeb-9f16-5ddf47cf772f","system_id":"levelo_inurba_marseille","lat":43.29685,"lon":5.38149,"is_reserved":false,"is_disabled":false,"rental_uris":{"android":"levelo://app?vid=1e90664a-dafe-4aeb-9f16-5ddf47cf772f","ios":"levelo://app?vid=1e90664a-dafe-4aeb-9f16-5ddf47cf772f"},"vehicle_type_id":"4","last_reported":1714421251,"current_range_meters":23200,"station_id":"","pricing_plan_id":"cebpf4jnsgd1na2vs0mg"},{"bike_id":"cf757777-9c25-46da-950e-efe0d0ea145d","system_id":"levelo_inurba_marseille","lat":43.309589,"lon":5.390258,"is_reserved":false,"is_disabled":false,"rental_uris":{"android":"levelo://app?vid=cf757777-9c25-46da-950e-efe0d0ea145d","ios":"levelo://app?vid=cf757777-9c25-46da-950e-efe0d0ea145d"},"vehicle_type_id":"4","last_reported":1714421251,"current_range_meters":16000,"station_id":"ce4bgup2rcd13ifvqco0","pricing_plan_id":"cebpf4jnsgd1na2vs0mg"},{"bike_id":"4580c721-75e9-4831-ac7d-f2a4a5c98afc","system_id":"levelo_inurba_marseille","lat":43.296412,"lon":5.381118,"is_reserved":false,"is_disabled":false,"rental_uris":{"android":"levelo://app?vid=4580c721-75e9-4831-ac7d-f2a4a5c98afc","ios":"levelo://app?vid=4580c721-75e9-4831-ac7d-f2a4a5c98afc"},"vehicle_type_id":"4","last_reported":1714421251,"current_range_meters":0,"station_id":"ce4bhnp2rcd13ifvqgvg","pricing_plan_id":"cebpf4jnsgd1na2vs0mg"},{"bike_id":"cdb9b4c0-b1f7-4c28-8c72-c3fba037cf28","system_id":"levelo_inurba_marseille","lat":43.32368,"lon":5.38882,"is_reserved":false,"is_disabled":false,"rental_uris":{"android":"levelo://app?vid=cdb9b4c0-b1f7-4c28-8c72-c3fba037cf28","ios":"levelo://app?vid=cdb9b4c0-b1f7-4c28-8c72-c3fba037cf28"},"vehicle_type_id":"4","last_reported":1714421251,"current_range_meters":2000,"station_id":"ce4bhqp2rcd13ifvqhog","pricing_plan_id":"cebpf4jnsgd1na2vs0mg"},{"bike_id":"b7575f07-1688-43d7-b1e8-ffdf504beab1","system_id":"levelo_inurba_marseille","lat":43.32366,"lon":5.38884,"is_reserved":false,"is_disabled":false,"rental_uris":{"android":"levelo://app?vid=b7575f07-1688-43d7-b1e8-ffdf504beab1","ios":"levelo://app?vid=b7575f07-1688-43d7-b1e8-ffdf504beab1"},"vehicle_type_id":"4","last_reported":1714421251,"current_range_meters":0,"station_id":"ce4bhqp2rcd13ifvqhog","pricing_plan_id":"cebpf4jnsgd1na2vs0mg"},{"bike_id":"32d9b063-7292-4386-9a8e-7d0d8cd0efeb","system_id":"levelo_inurba_marseille","lat":43.32367,"lon":5.38886,"is_reserved":false,"is_disabled":false,"rental_uris":{"android":"levelo://app?vid=32d9b063-7292-4386-9a8e-7d0d8cd0efeb","ios":"levelo://app?vid=32d9b063-7292-4386-9a8e-7d0d8cd0efeb"},"vehicle_type_id":"4","last_reported":1714421251,"current_range_meters":0,"station_id":"ce4bhqp2rcd13ifvqhog","pricing_plan_id":"cebpf4jnsgd1na2vs0mg"},{"bike_id":"087d8383-b66d-48b4-b066-be0321234331","system_id":"levelo_inurba_marseille","lat":43.32367,"lon":5.388836,"is_reserved":false,"is_disabled":false,"rental_uris":{"android":"levelo://app?vid=087d8383-b66d-48b4-b066-be0321234331","ios":"levelo://app?vid=087d8383-b66d-48b4-b066-be0321234331"},"vehicle_type_id":"4","last_reported":1714421251,"current_range_meters":0,"station_id":"ce4bhqp2rcd13ifvqhog","pricing_plan_id":"cebpf4jnsgd1na2vs0mg"},{"bike_id":"36ade41e-d99d-4725-a1d7-c35ddbe4143a","system_id":"levelo_inurba_marseille","lat":43.29586,"lon":5.38106,"is_reserved":false,"is_disabled":false,"rental_uris":{"android":"levelo://app?vid=36ade41e-d99d-4725-a1d7-c35ddbe4143a","ios":"levelo://app?vid=36ade41e-d99d-4725-a1d7-c35ddbe4143a"},"vehicle_type_id":"4","last_reported":1714421251,"current_range_meters":0,"station_id":"ce4bgl12rcd13ifvqbo0","pricing_plan_id":"cebpf4jnsgd1na2vs0mg"},{"bike_id":"a045c8ae-4b44-47c9-9b98-37ef5aa153c6","system_id":"levelo_inurba_marseille","lat":43.29319,"lon":5.37166,"is_reserved":false,"is_disabled":false,"rental_uris":{"android":"levelo://app?vid=a045c8ae-4b44-47c9-9b98-37ef5aa153c6","ios":"levelo://app?vid=a045c8ae-4b44-47c9-9b98-37ef5aa153c6"},"vehicle_type_id":"4","last_reported":1714421251,"current_range_meters":0,"station_id":"ce4bgh92rcd13ifvqb40","pricing_plan_id":"cebpf4jnsgd1na2vs0mg"},{"bike_id":"d1d99b0b-259c-4b95-9de2-34300198536b","system_id":"levelo_inurba_marseille","lat":43.27996,"lon":5.416624,"is_reserved":false,"is_disabled":false,"rental_uris":{"android":"levelo://app?vid=d1d99b0b-259c-4b95-9de2-34300198536b","ios":"levelo://app?vid=d1d99b0b-259c-4b95-9de2-34300198536b"},"vehicle_type_id":"4","last_reported":1714421251,"current_range_meters":18000,"station_id":"ce4bho12rcd13ifvqh1g","pricing_plan_id":"cebpf4jnsgd1na2vs0mg"},{"bike_id":"3190e011-9d54-48c3-8df4-24c375041388","system_id":"levelo_inurba_marseille","lat":43.292749,"lon":5.368402,"is_reserved":false,"is_disabled":false,"rental_uris":{"android":"levelo://app?vid=3190e011-9d54-48c3-8df4-24c375041388","ios":"levelo://app?vid=3190e011-9d54-48c3-8df4-24c375041388"},"vehicle_type_id":"4","last_reported":1714421251,"current_range_meters":25200,"station_id":"ce4bhbp2rcd13ifvqesg","pricing_plan_id":"cebpf4jnsgd1na2vs0mg"},{"bike_id":"78041d76-70bd-40a2-ba75-607be61e6114","system_id":"levelo_inurba_marseille","lat":43.293009,"lon":5.374584,"is_reserved":false,"is_disabled":false,"rental_uris":{"android":"levelo://app?vid=78041d76-70bd-40a2-ba75-607be61e6114","ios":"levelo://app?vid=78041d76-70bd-40a2-ba75-607be61e6114"},"vehicle_type_id":"4","last_reported":1714421251,"current_range_meters":18800,"station_id":"ce4bgi12rcd13ifvqb70","pricing_plan_id":"cebpf4jnsgd1na2vs0mg"},{"bike_id":"58fe4c75-ec50-4c1c-b5da-12356cdd90b2","system_id":"levelo_inurba_marseille","lat":43.303002,"lon":5.392142,"is_reserved":false,"is_disabled":false,"rental_uris":{"android":"levelo://app?vid=58fe4c75-ec50-4c1c-b5da-12356cdd90b2","ios":"levelo://app?vid=58fe4c75-ec50-4c1c-b5da-12356cdd90b2"},"vehicle_type_id":"4","last_reported":1714421251,"current_range_meters":9600,"station_id":"ce4bgkh2rcd13ifvqbk0","pricing_plan_id":"cebpf4jnsgd1na2vs0mg"},{"bike_id":"83063f64-251b-4f04-bb88-9cabe5e42b5c","system_id":"levelo_inurba_marseille","lat":43.303002,"lon":5.392142,"is_reserved":false,"is_disabled":false,"rental_uris":{"android":"levelo://app?vid=83063f64-251b-4f04-bb88-9cabe5e42b5c","ios":"levelo://app?vid=83063f64-251b-4f04-bb88-9cabe5e42b5c"},"vehicle_type_id":"4","last_reported":1714421251,"current_range_meters":20800,"station_id":"ce4bgkh2rcd13ifvqbk0","pricing_plan_id":"cebpf4jnsgd1na2vs0mg"},{"bike_id":"3547d498-533b-40bd-ba78-29d84b99549e","system_id":"levelo_inurba_marseille","lat":43.302992,"lon":5.392136,"is_reserved":false,"is_disabled":false,"rental_uris":{"android":"levelo://app?vid=3547d498-533b-40bd-ba78-29d84b99549e","ios":"levelo://app?vid=3547d498-533b-40bd-ba78-29d84b99549e"},"vehicle_type_id":"4","last_reported":1714421251,"current_range_meters":7200,"station_id":"ce4bgkh2rcd13ifvqbk0","pricing_plan_id":"cebpf4jnsgd1na2vs0mg"},{"bike_id":"d92720cf-069d-447b-921c-25409d626bce","system_id":"levelo_inurba_marseille","lat":43.303002,"lon":5.392142,"is_reserved":false,"is_disabled":false,"rental_uris":{"android":"levelo://app?vid=d92720cf-069d-447b-921c-25409d626bce","ios":"levelo://app?vid=d92720cf-069d-447b-921c-25409d626bce"},"vehicle_type_id":"4","last_reported":1714421251,"current_range_meters":15200,"station_id":"ce4bgkh2rcd13ifvqbk0","pricing_plan_id":"cebpf4jnsgd1na2vs0mg"},{"bike_id":"75fa71c4-2cf2-42a5-8581-605031ea7a30","system_id":"levelo_inurba_marseille","lat":43.303002,"lon":5.392142,"is_reserved":false,"is_disabled":false,"rental_uris":{"android":"levelo://app?vid=75fa71c4-2cf2-42a5-8581-605031ea7a30","ios":"levelo://app?vid=75fa71c4-2cf2-42a5-8581-605031ea7a30"},"vehicle_type_id":"4","last_reported":1714421251,"current_range_meters":31200,"station_id":"ce4bgkh2rcd13ifvqbk0","pricing_plan_id":"cebpf4jnsgd1na2vs0mg"},{"bike_id":"ae58078f-cf7d-41d3-a847-f5e998644713","system_id":"levelo_inurba_marseille","lat":43.303002,"lon":5.392142,"is_reserved":false,"is_disabled":false,"rental_uris":{"android":"levelo://app?vid=ae58078f-cf7d-41d3-a847-f5e998644713","ios":"levelo://app?vid=ae58078f-cf7d-41d3-a847-f5e998644713"},"vehicle_type_id":"4","last_reported":1714421251,"current_range_meters":24000,"station_id":"ce4bgkh2rcd13ifvqbk0","pricing_plan_id":"cebpf4jnsgd1na2vs0mg"},{"bike_id":"043f7501-4db8-489c-a100-74700dc5cbe7","system_id":"levelo_inurba_marseille","lat":43.2936,"lon":5.37835,"is_reserved":false,"is_disabled":false,"rental_uris":{"android":"levelo://app?vid=043f7501-4db8-489c-a100-74700dc5cbe7","ios":"levelo://app?vid=043f7501-4db8-489c-a100-74700dc5cbe7"},"vehicle_type_id":"4","last_reported":1714421251,"current_range_meters":0,"station_id":"ce4bgjh2rcd13ifvqbf0","pricing_plan_id":"cebpf4jnsgd1na2vs0mg"},{"bike_id":"d19b95aa-b45c-49ce-8c0e-f3ce7515e227","system_id":"levelo_inurba_marseille","lat":43.300852,"lon":5.390859,"is_reserved":false,"is_disabled":false,"rental_uris":{"android":"levelo://app?vid=d19b95aa-b45c-49ce-8c0e-f3ce7515e227","ios":"levelo://app?vid=d19b95aa-b45c-49ce-8c0e-f3ce7515e227"},"vehicle_type_id":"4","last_reported":1714421251,"current_range_meters":23200,"station_id":"ce4bh192rcd13ifvqdb0","pricing_plan_id":"cebpf4jnsgd1na2vs0mg"},{"bike_id":"433b0005-867c-4ddf-98c6-8a718b6f6dc2","system_id":"levelo_inurba_marseille","lat":43.300852,"lon":5.390859,"is_reserved":false,"is_disabled":false,"rental_uris":{"android":"levelo://app?vid=433b0005-867c-4ddf-98c6-8a718b6f6dc2","ios":"levelo://app?vid=433b0005-867c-4ddf-98c6-8a718b6f6dc2"},"vehicle_type_id":"4","last_reported":1714421251,"current_range_meters":14400,"station_id":"ce4bh192rcd13ifvqdb0","pricing_plan_id":"cebpf4jnsgd1na2vs0mg"},{"bike_id":"f842b22a-58a7-44c2-8f8b-49f097de9797","system_id":"levelo_inurba_marseille","lat":43.292311,"lon":5.360731,"is_reserved":false,"is_disabled":false,"rental_uris":{"android":"levelo://app?vid=f842b22a-58a7-44c2-8f8b-49f097de9797","ios":"levelo://app?vid=f842b22a-58a7-44c2-8f8b-49f097de9797"},"vehicle_type_id":"4","last_reported":1714421251,"current_range_meters":7200,"station_id":"ce4bhbh2rcd13ifvqeqg","pricing_plan_id":"cebpf4jnsgd1na2vs0mg"},{"bike_id":"7859810e-2c4a-45ae-b940-54376e56d41b","system_id":"levelo_inurba_marseille","lat":43.300852,"lon":5.390859,"is_reserved":false,"is_disabled":false,"rental_uris":{"android":"levelo://app?vid=7859810e-2c4a-45ae-b940-54376e56d41b","ios":"levelo://app?vid=7859810e-2c4a-45ae-b940-54376e56d41b"},"vehicle_type_id":"4","last_reported":1714421251,"current_range_meters":9600,"station_id":"ce4bh192rcd13ifvqdb0","pricing_plan_id":"cebpf4jnsgd1na2vs0mg"},{"bike_id":"5c3fdbe7-e583-4072-aa0b-a4da7a9e9cec","system_id":"levelo_inurba_marseille","lat":43.30085,"lon":5.390856,"is_reserved":false,"is_disabled":false,"rental_uris":{"android":"levelo://app?vid=5c3fdbe7-e583-4072-aa0b-a4da7a9e9cec","ios":"levelo://app?vid=5c3fdbe7-e583-4072-aa0b-a4da7a9e9cec"},"vehicle_type_id":"4","last_reported":1714421251,"current_range_meters":18400,"station_id":"ce4bh192rcd13ifvqdb0","pricing_plan_id":"cebpf4jnsgd1na2vs0mg"},{"bike_id":"07177bca-9b3a-4fcf-8ad4-e8a069733f59","system_id":"levelo_inurba_marseille","lat":43.30085,"lon":5.390856,"is_reserved":false,"is_disabled":false,"rental_uris":{"android":"levelo://app?vid=07177bca-9b3a-4fcf-8ad4-e8a069733f59","ios":"levelo://app?vid=07177bca-9b3a-4fcf-8ad4-e8a069733f59"},"vehicle_type_id":"4","last_reported":1714421251,"current_range_meters":9200,"station_id":"ce4bh192rcd13ifvqdb0","pricing_plan_id":"cebpf4jnsgd1na2vs0mg"},{"bike_id":"0dd11895-49b9-43d6-a2ec-6fded8485b01","system_id":"levelo_inurba_marseille","lat":43.300852,"lon":5.390859,"is_reserved":false,"is_disabled":false,"rental_uris":{"android":"levelo://app?vid=0dd11895-49b9-43d6-a2ec-6fded8485b01","ios":"levelo://app?vid=0dd11895-49b9-43d6-a2ec-6fded8485b01"},"vehicle_type_id":"4","last_reported":1714421251,"current_range_meters":18000,"station_id":"ce4bh192rcd13ifvqdb0","pricing_plan_id":"cebpf4jnsgd1na2vs0mg"},{"bike_id":"5d93b2b0-2159-4ebf-9b50-8daccff37ce2","system_id":"levelo_inurba_marseille","lat":43.292618,"lon":5.376208,"is_reserved":false,"is_disabled":false,"rental_uris":{"android":"levelo://app?vid=5d93b2b0-2159-4ebf-9b50-8daccff37ce2","ios":"levelo://app?vid=5d93b2b0-2159-4ebf-9b50-8daccff37ce2"},"vehicle_type_id":"4","last_reported":1714421251,"current_range_meters":19600,"station_id":"","pricing_plan_id":"cebpf4jnsgd1na2vs0mg"},{"bike_id":"c7803f6d-c935-4d0d-ad98-1a4270cf1eda","system_id":"levelo_inurba_marseille","lat":43.300852,"lon":5.390859,"is_reserved":false,"is_disabled":false,"rental_uris":{"android":"levelo://app?vid=c7803f6d-c935-4d0d-ad98-1a4270cf1eda","ios":"levelo://app?vid=c7803f6d-c935-4d0d-ad98-1a4270cf1eda"},"vehicle_type_id":"4","last_reported":1714421251,"current_range_meters":3600,"station_id":"ce4bh192rcd13ifvqdb0","pricing_plan_id":"cebpf4jnsgd1na2vs0mg"},{"bike_id":"8c4204fb-45a0-45c0-9155-66b3e50c5423","system_id":"levelo_inurba_marseille","lat":43.298764,"lon":5.388973,"is_reserved":false,"is_disabled":false,"rental_uris":{"android":"levelo://app?vid=8c4204fb-45a0-45c0-9155-66b3e50c5423","ios":"levelo://app?vid=8c4204fb-45a0-45c0-9155-66b3e50c5423"},"vehicle_type_id":"4","last_reported":1714421251,"current_range_meters":16400,"station_id":"ce4bh392rcd13ifvqdl0","pricing_plan_id":"cebpf4jnsgd1na2vs0mg"},{"bike_id":"3c8d3d12-4d98-422d-bb95-f0c59113c1b5","system_id":"levelo_inurba_marseille","lat":43.291675,"lon":5.371583,"is_reserved":false,"is_disabled":false,"rental_uris":{"android":"levelo://app?vid=3c8d3d12-4d98-422d-bb95-f0c59113c1b5","ios":"levelo://app?vid=3c8d3d12-4d98-422d-bb95-f0c59113c1b5"},"vehicle_type_id":"4","last_reported":1714421251,"current_range_meters":24400,"station_id":"ce4bha92rcd13ifvqeh0","pricing_plan_id":"cebpf4jnsgd1na2vs0mg"},{"bike_id":"3d7044c3-1c30-4009-b2e0-c60405d844e9","system_id":"levelo_inurba_marseille","lat":43.298764,"lon":5.388973,"is_reserved":false,"is_disabled":false,"rental_uris":{"android":"levelo://app?vid=3d7044c3-1c30-4009-b2e0-c60405d844e9","ios":"levelo://app?vid=3d7044c3-1c30-4009-b2e0-c60405d844e9"},"vehicle_type_id":"4","last_reported":1714421251,"current_range_meters":18800,"station_id":"ce4bh392rcd13ifvqdl0","pricing_plan_id":"cebpf4jnsgd1na2vs0mg"},{"bike_id":"c10bb9ee-3c1d-47c3-8743-c7925ee13e12","system_id":"levelo_inurba_marseille","lat":43.298764,"lon":5.388973,"is_reserved":false,"is_disabled":false,"rental_uris":{"android":"levelo://app?vid=c10bb9ee-3c1d-47c3-8743-c7925ee13e12","ios":"levelo://app?vid=c10bb9ee-3c1d-47c3-8743-c7925ee13e12"},"vehicle_type_id":"4","last_reported":1714421251,"current_range_meters":29200,"station_id":"ce4bh392rcd13ifvqdl0","pricing_plan_id":"cebpf4jnsgd1na2vs0mg"},{"bike_id":"5c57c915-9bd0-4409-a16a-59215b9fc796","system_id":"levelo_inurba_marseille","lat":43.298764,"lon":5.388973,"is_reserved":false,"is_disabled":false,"rental_uris":{"android":"levelo://app?vid=5c57c915-9bd0-4409-a16a-59215b9fc796","ios":"levelo://app?vid=5c57c915-9bd0-4409-a16a-59215b9fc796"},"vehicle_type_id":"4","last_reported":1714421251,"current_range_meters":10800,"station_id":"ce4bh392rcd13ifvqdl0","pricing_plan_id":"cebpf4jnsgd1na2vs0mg"},{"bike_id":"0fa59905-b1d0-4f53-9a5a-64c46f5c53e3","system_id":"levelo_inurba_marseille","lat":43.298764,"lon":5.388973,"is_reserved":false,"is_disabled":false,"rental_uris":{"android":"levelo://app?vid=0fa59905-b1d0-4f53-9a5a-64c46f5c53e3","ios":"levelo://app?vid=0fa59905-b1d0-4f53-9a5a-64c46f5c53e3"},"vehicle_type_id":"4","last_reported":1714421251,"current_range_meters":21600,"station_id":"ce4bh392rcd13ifvqdl0","pricing_plan_id":"cebpf4jnsgd1na2vs0mg"},{"bike_id":"f6765142-5b23-4b54-9bba-0df9e449507c","system_id":"levelo_inurba_marseille","lat":43.298764,"lon":5.388973,"is_reserved":false,"is_disabled":false,"rental_uris":{"android":"levelo://app?vid=f6765142-5b23-4b54-9bba-0df9e449507c","ios":"levelo://app?vid=f6765142-5b23-4b54-9bba-0df9e449507c"},"vehicle_type_id":"4","last_reported":1714421251,"current_range_meters":20800,"station_id":"ce4bh392rcd13ifvqdl0","pricing_plan_id":"cebpf4jnsgd1na2vs0mg"},{"bike_id":"2e83fba3-f2a9-43d8-bbd9-56def08b1699","system_id":"levelo_inurba_marseille","lat":43.298764,"lon":5.388973,"is_reserved":false,"is_disabled":false,"rental_uris":{"android":"levelo://app?vid=2e83fba3-f2a9-43d8-bbd9-56def08b1699","ios":"levelo://app?vid=2e83fba3-f2a9-43d8-bbd9-56def08b1699"},"vehicle_type_id":"4","last_reported":1714421251,"current_range_meters":13200,"station_id":"ce4bh392rcd13ifvqdl0","pricing_plan_id":"cebpf4jnsgd1na2vs0mg"},{"bike_id":"cb246417-578b-4ecf-ad8e-6d4a298bbb72","system_id":"levelo_inurba_marseille","lat":43.298764,"lon":5.388973,"is_reserved":false,"is_disabled":false,"rental_uris":{"android":"levelo://app?vid=cb246417-578b-4ecf-ad8e-6d4a298bbb72","ios":"levelo://app?vid=cb246417-578b-4ecf-ad8e-6d4a298bbb72"},"vehicle_type_id":"4","last_reported":1714421251,"current_range_meters":30000,"station_id":"ce4bh392rcd13ifvqdl0","pricing_plan_id":"cebpf4jnsgd1na2vs0mg"},{"bike_id":"da035387-eb51-4396-a134-744db37f7c5e","system_id":"levelo_inurba_marseille","lat":43.291671,"lon":5.371575,"is_reserved":false,"is_disabled":false,"rental_uris":{"android":"levelo://app?vid=da035387-eb51-4396-a134-744db37f7c5e","ios":"levelo://app?vid=da035387-eb51-4396-a134-744db37f7c5e"},"vehicle_type_id":"4","last_reported":1714421251,"current_range_meters":14000,"station_id":"ce4bha92rcd13ifvqeh0","pricing_plan_id":"cebpf4jnsgd1na2vs0mg"},{"bike_id":"668a459b-167b-4dd6-a6a7-877c62a56a1f","system_id":"levelo_inurba_marseille","lat":43.298764,"lon":5.388973,"is_reserved":false,"is_disabled":false,"rental_uris":{"android":"levelo://app?vid=668a459b-167b-4dd6-a6a7-877c62a56a1f","ios":"levelo://app?vid=668a459b-167b-4dd6-a6a7-877c62a56a1f"},"vehicle_type_id":"4","last_reported":1714421251,"current_range_meters":8000,"station_id":"ce4bh392rcd13ifvqdl0","pricing_plan_id":"cebpf4jnsgd1na2vs0mg"},{"bike_id":"2286348a-eeaf-4188-89c6-889034f9b5ec","system_id":"levelo_inurba_marseille","lat":43.298764,"lon":5.388973,"is_reserved":false,"is_disabled":false,"rental_uris":{"android":"levelo://app?vid=2286348a-eeaf-4188-89c6-889034f9b5ec","ios":"levelo://app?vid=2286348a-eeaf-4188-89c6-889034f9b5ec"},"vehicle_type_id":"4","last_reported":1714421251,"current_range_meters":21200,"station_id":"ce4bh392rcd13ifvqdl0","pricing_plan_id":"cebpf4jnsgd1na2vs0mg"},{"bike_id":"5bda9a79-38c7-4c01-9881-49c760af767d","system_id":"levelo_inurba_marseille","lat":43.298764,"lon":5.388973,"is_reserved":false,"is_disabled":false,"rental_uris":{"android":"levelo://app?vid=5bda9a79-38c7-4c01-9881-49c760af767d","ios":"levelo://app?vid=5bda9a79-38c7-4c01-9881-49c760af767d"},"vehicle_type_id":"4","last_reported":1714421251,"current_range_meters":28000,"station_id":"ce4bh392rcd13ifvqdl0","pricing_plan_id":"cebpf4jnsgd1na2vs0mg"},{"bike_id":"1dd05304-80e3-4cf1-819b-f6147a6ae56f","system_id":"levelo_inurba_marseille","lat":43.298764,"lon":5.388973,"is_reserved":false,"is_disabled":false,"rental_uris":{"android":"levelo://app?vid=1dd05304-80e3-4cf1-819b-f6147a6ae56f","ios":"levelo://app?vid=1dd05304-80e3-4cf1-819b-f6147a6ae56f"},"vehicle_type_id":"4","last_reported":1714421251,"current_range_meters":22000,"station_id":"ce4bh392rcd13ifvqdl0","pricing_plan_id":"cebpf4jnsgd1na2vs0mg"},{"bike_id":"c3e9b1ee-4197-4d01-af41-da1b959ecbe0","system_id":"levelo_inurba_marseille","lat":43.298764,"lon":5.388973,"is_reserved":false,"is_disabled":false,"rental_uris":{"android":"levelo://app?vid=c3e9b1ee-4197-4d01-af41-da1b959ecbe0","ios":"levelo://app?vid=c3e9b1ee-4197-4d01-af41-da1b959ecbe0"},"vehicle_type_id":"4","last_reported":1714421251,"current_range_meters":1600,"station_id":"ce4bh392rcd13ifvqdl0","pricing_plan_id":"cebpf4jnsgd1na2vs0mg"},{"bike_id":"942f4c2e-6bc8-4522-b312-b846782e3ec5","system_id":"levelo_inurba_marseille","lat":43.298764,"lon":5.388973,"is_reserved":false,"is_disabled":false,"rental_uris":{"android":"levelo://app?vid=942f4c2e-6bc8-4522-b312-b846782e3ec5","ios":"levelo://app?vid=942f4c2e-6bc8-4522-b312-b846782e3ec5"},"vehicle_type_id":"4","last_reported":1714421251,"current_range_meters":12000,"station_id":"ce4bh392rcd13ifvqdl0","pricing_plan_id":"cebpf4jnsgd1na2vs0mg"},{"bike_id":"217b056e-08aa-4a77-8773-7caa944aa03d","system_id":"levelo_inurba_marseille","lat":43.298764,"lon":5.388973,"is_reserved":false,"is_disabled":false,"rental_uris":{"android":"levelo://app?vid=217b056e-08aa-4a77-8773-7caa944aa03d","ios":"levelo://app?vid=217b056e-08aa-4a77-8773-7caa944aa03d"},"vehicle_type_id":"4","last_reported":1714421251,"current_range_meters":10400,"station_id":"ce4bh392rcd13ifvqdl0","pricing_plan_id":"cebpf4jnsgd1na2vs0mg"},{"bike_id":"5c75ed9c-294c-4ac2-be4f-fa2625ffa4d6","system_id":"levelo_inurba_marseille","lat":43.298764,"lon":5.388973,"is_reserved":false,"is_disabled":false,"rental_uris":{"android":"levelo://app?vid=5c75ed9c-294c-4ac2-be4f-fa2625ffa4d6","ios":"levelo://app?vid=5c75ed9c-294c-4ac2-be4f-fa2625ffa4d6"},"vehicle_type_id":"4","last_reported":1714421251,"current_range_meters":31200,"station_id":"ce4bh392rcd13ifvqdl0","pricing_plan_id":"cebpf4jnsgd1na2vs0mg"},{"bike_id":"f066ac3f-da69-4e71-a014-d2d0f5d7edb3","system_id":"levelo_inurba_marseille","lat":43.298764,"lon":5.388973,"is_reserved":false,"is_disabled":false,"rental_uris":{"android":"levelo://app?vid=f066ac3f-da69-4e71-a014-d2d0f5d7edb3","ios":"levelo://app?vid=f066ac3f-da69-4e71-a014-d2d0f5d7edb3"},"vehicle_type_id":"4","last_reported":1714421251,"current_range_meters":30400,"station_id":"ce4bh392rcd13ifvqdl0","pricing_plan_id":"cebpf4jnsgd1na2vs0mg"},{"bike_id":"e8dfbcf2-f81a-42b3-a7e2-9b39b42c5552","system_id":"levelo_inurba_marseille","lat":43.298764,"lon":5.388973,"is_reserved":false,"is_disabled":false,"rental_uris":{"android":"levelo://app?vid=e8dfbcf2-f81a-42b3-a7e2-9b39b42c5552","ios":"levelo://app?vid=e8dfbcf2-f81a-42b3-a7e2-9b39b42c5552"},"vehicle_type_id":"4","last_reported":1714421251,"current_range_meters":27600,"station_id":"ce4bh392rcd13ifvqdl0","pricing_plan_id":"cebpf4jnsgd1na2vs0mg"},{"bike_id":"858b34ff-e26a-414e-a2f4-87c99a1122be","system_id":"levelo_inurba_marseille","lat":43.28727,"lon":5.36078,"is_reserved":false,"is_disabled":false,"rental_uris":{"android":"levelo://app?vid=858b34ff-e26a-414e-a2f4-87c99a1122be","ios":"levelo://app?vid=858b34ff-e26a-414e-a2f4-87c99a1122be"},"vehicle_type_id":"4","last_reported":1714421251,"current_range_meters":30000,"station_id":"cki0cbj6b192h4jlfktg","pricing_plan_id":"cebpf4jnsgd1na2vs0mg"},{"bike_id":"9010b2f1-01a2-448d-a0a0-0030b7eee01c","system_id":"levelo_inurba_marseille","lat":43.30884,"lon":5.39639,"is_reserved":false,"is_disabled":false,"rental_uris":{"android":"levelo://app?vid=9010b2f1-01a2-448d-a0a0-0030b7eee01c","ios":"levelo://app?vid=9010b2f1-01a2-448d-a0a0-0030b7eee01c"},"vehicle_type_id":"4","last_reported":1714421251,"current_range_meters":0,"station_id":"ce4bh012rcd13ifvqcv0","pricing_plan_id":"cebpf4jnsgd1na2vs0mg"},{"bike_id":"ec575c12-06c2-445d-a2f9-6a99ece276c0","system_id":"levelo_inurba_marseille","lat":43.313291,"lon":5.396838,"is_reserved":false,"is_disabled":false,"rental_uris":{"android":"levelo://app?vid=ec575c12-06c2-445d-a2f9-6a99ece276c0","ios":"levelo://app?vid=ec575c12-06c2-445d-a2f9-6a99ece276c0"},"vehicle_type_id":"4","last_reported":1714421251,"current_range_meters":13200,"station_id":"ce4bgvp2rcd13ifvqcu0","pricing_plan_id":"cebpf4jnsgd1na2vs0mg"},{"bike_id":"7630cc94-f5ba-492e-8fa9-6a45eeb2ca97","system_id":"levelo_inurba_marseille","lat":43.313291,"lon":5.396838,"is_reserved":false,"is_disabled":false,"rental_uris":{"android":"levelo://app?vid=7630cc94-f5ba-492e-8fa9-6a45eeb2ca97","ios":"levelo://app?vid=7630cc94-f5ba-492e-8fa9-6a45eeb2ca97"},"vehicle_type_id":"4","last_reported":1714421251,"current_range_meters":30800,"station_id":"ce4bgvp2rcd13ifvqcu0","pricing_plan_id":"cebpf4jnsgd1na2vs0mg"},{"bike_id":"a168d0c3-9fe5-4266-971f-0a0c9ce4b072","system_id":"levelo_inurba_marseille","lat":43.309047,"lon":5.396551,"is_reserved":false,"is_disabled":false,"rental_uris":{"android":"levelo://app?vid=a168d0c3-9fe5-4266-971f-0a0c9ce4b072","ios":"levelo://app?vid=a168d0c3-9fe5-4266-971f-0a0c9ce4b072"},"vehicle_type_id":"4","last_reported":1714421251,"current_range_meters":2000,"station_id":"ce4bh012rcd13ifvqcv0","pricing_plan_id":"cebpf4jnsgd1na2vs0mg"},{"bike_id":"1acafa09-1a5b-4081-9059-0697a18f33b0","system_id":"levelo_inurba_marseille","lat":43.313291,"lon":5.396838,"is_reserved":false,"is_disabled":false,"rental_uris":{"android":"levelo://app?vid=1acafa09-1a5b-4081-9059-0697a18f33b0","ios":"levelo://app?vid=1acafa09-1a5b-4081-9059-0697a18f33b0"},"vehicle_type_id":"4","last_reported":1714421251,"current_range_meters":17200,"station_id":"ce4bgvp2rcd13ifvqcu0","pricing_plan_id":"cebpf4jnsgd1na2vs0mg"},{"bike_id":"6874f0d0-953d-4688-9289-44b0bda730f9","system_id":"levelo_inurba_marseille","lat":43.292005,"lon":5.357875,"is_reserved":false,"is_disabled":false,"rental_uris":{"android":"levelo://app?vid=6874f0d0-953d-4688-9289-44b0bda730f9","ios":"levelo://app?vid=6874f0d0-953d-4688-9289-44b0bda730f9"},"vehicle_type_id":"4","last_reported":1714421251,"current_range_meters":10400,"station_id":"ce4bhb12rcd13ifvqel0","pricing_plan_id":"cebpf4jnsgd1na2vs0mg"},{"bike_id":"2c93879d-d982-4d54-b218-ac3794909aef","system_id":"levelo_inurba_marseille","lat":43.313291,"lon":5.396838,"is_reserved":false,"is_disabled":false,"rental_uris":{"android":"levelo://app?vid=2c93879d-d982-4d54-b218-ac3794909aef","ios":"levelo://app?vid=2c93879d-d982-4d54-b218-ac3794909aef"},"vehicle_type_id":"4","last_reported":1714421251,"current_range_meters":14400,"station_id":"ce4bgvp2rcd13ifvqcu0","pricing_plan_id":"cebpf4jnsgd1na2vs0mg"},{"bike_id":"c65a3419-5e80-4d25-92f7-ab4409f96734","system_id":"levelo_inurba_marseille","lat":43.308865,"lon":5.396525,"is_reserved":false,"is_disabled":false,"rental_uris":{"android":"levelo://app?vid=c65a3419-5e80-4d25-92f7-ab4409f96734","ios":"levelo://app?vid=c65a3419-5e80-4d25-92f7-ab4409f96734"},"vehicle_type_id":"4","last_reported":1714421251,"current_range_meters":18400,"station_id":"ce4bh012rcd13ifvqcv0","pricing_plan_id":"cebpf4jnsgd1na2vs0mg"},{"bike_id":"37366f13-3a70-4230-a50a-279070dd6bfe","system_id":"levelo_inurba_marseille","lat":43.29541,"lon":5.38535,"is_reserved":false,"is_disabled":false,"rental_uris":{"android":"levelo://app?vid=37366f13-3a70-4230-a50a-279070dd6bfe","ios":"levelo://app?vid=37366f13-3a70-4230-a50a-279070dd6bfe"},"vehicle_type_id":"4","last_reported":1714421251,"current_range_meters":2800,"station_id":"ce4bgih2rcd13ifvqba0","pricing_plan_id":"cebpf4jnsgd1na2vs0mg"},{"bike_id":"4ddbff96-8557-466f-81bf-4330d2963f4f","system_id":"levelo_inurba_marseille","lat":43.309047,"lon":5.396551,"is_reserved":false,"is_disabled":false,"rental_uris":{"android":"levelo://app?vid=4ddbff96-8557-466f-81bf-4330d2963f4f","ios":"levelo://app?vid=4ddbff96-8557-466f-81bf-4330d2963f4f"},"vehicle_type_id":"4","last_reported":1714421251,"current_range_meters":14400,"station_id":"ce4bh012rcd13ifvqcv0","pricing_plan_id":"cebpf4jnsgd1na2vs0mg"},{"bike_id":"d3f92643-5f91-40b6-a9d7-4e75107133b3","system_id":"levelo_inurba_marseille","lat":43.30884,"lon":5.39657,"is_reserved":false,"is_disabled":false,"rental_uris":{"android":"levelo://app?vid=d3f92643-5f91-40b6-a9d7-4e75107133b3","ios":"levelo://app?vid=d3f92643-5f91-40b6-a9d7-4e75107133b3"},"vehicle_type_id":"4","last_reported":1714421251,"current_range_meters":0,"station_id":"ce4bh012rcd13ifvqcv0","pricing_plan_id":"cebpf4jnsgd1na2vs0mg"},{"bike_id":"258b7e55-45ad-4848-916a-25be0cfcb529","system_id":"levelo_inurba_marseille","lat":43.309047,"lon":5.396551,"is_reserved":false,"is_disabled":false,"rental_uris":{"android":"levelo://app?vid=258b7e55-45ad-4848-916a-25be0cfcb529","ios":"levelo://app?vid=258b7e55-45ad-4848-916a-25be0cfcb529"},"vehicle_type_id":"4","last_reported":1714421251,"current_range_meters":0,"station_id":"ce4bh012rcd13ifvqcv0","pricing_plan_id":"cebpf4jnsgd1na2vs0mg"},{"bike_id":"5551551b-a26b-4d06-b906-f5dfa7c7aa6c","system_id":"levelo_inurba_marseille","lat":43.295442,"lon":5.38546,"is_reserved":false,"is_disabled":false,"rental_uris":{"android":"levelo://app?vid=5551551b-a26b-4d06-b906-f5dfa7c7aa6c","ios":"levelo://app?vid=5551551b-a26b-4d06-b906-f5dfa7c7aa6c"},"vehicle_type_id":"4","last_reported":1714421251,"current_range_meters":20000,"station_id":"ce4bgih2rcd13ifvqba0","pricing_plan_id":"cebpf4jnsgd1na2vs0mg"},{"bike_id":"87f8db0c-7730-4d55-a541-a4bbe79113c6","system_id":"levelo_inurba_marseille","lat":43.29543,"lon":5.385443,"is_reserved":false,"is_disabled":false,"rental_uris":{"android":"levelo://app?vid=87f8db0c-7730-4d55-a541-a4bbe79113c6","ios":"levelo://app?vid=87f8db0c-7730-4d55-a541-a4bbe79113c6"},"vehicle_type_id":"4","last_reported":1714421251,"current_range_meters":6800,"station_id":"ce4bgih2rcd13ifvqba0","pricing_plan_id":"cebpf4jnsgd1na2vs0mg"},{"bike_id":"515246b9-3865-4bbb-9771-92febcffcc57","system_id":"levelo_inurba_marseille","lat":43.29529,"lon":5.385581,"is_reserved":false,"is_disabled":false,"rental_uris":{"android":"levelo://app?vid=515246b9-3865-4bbb-9771-92febcffcc57","ios":"levelo://app?vid=515246b9-3865-4bbb-9771-92febcffcc57"},"vehicle_type_id":"4","last_reported":1714421251,"current_range_meters":28000,"station_id":"ce4bgih2rcd13ifvqba0","pricing_plan_id":"cebpf4jnsgd1na2vs0mg"},{"bike_id":"ebf1cb2b-71aa-4c3c-9daf-9ae15c6ac9cb","system_id":"levelo_inurba_marseille","lat":43.29529,"lon":5.385581,"is_reserved":false,"is_disabled":false,"rental_uris":{"android":"levelo://app?vid=ebf1cb2b-71aa-4c3c-9daf-9ae15c6ac9cb","ios":"levelo://app?vid=ebf1cb2b-71aa-4c3c-9daf-9ae15c6ac9cb"},"vehicle_type_id":"4","last_reported":1714421251,"current_range_meters":8400,"station_id":"ce4bgih2rcd13ifvqba0","pricing_plan_id":"cebpf4jnsgd1na2vs0mg"},{"bike_id":"7048c132-e021-4875-883c-a23f2b30a66f","system_id":"levelo_inurba_marseille","lat":43.295376,"lon":5.38538,"is_reserved":false,"is_disabled":false,"rental_uris":{"android":"levelo://app?vid=7048c132-e021-4875-883c-a23f2b30a66f","ios":"levelo://app?vid=7048c132-e021-4875-883c-a23f2b30a66f"},"vehicle_type_id":"4","last_reported":1714421251,"current_range_meters":23600,"station_id":"ce4bgih2rcd13ifvqba0","pricing_plan_id":"cebpf4jnsgd1na2vs0mg"},{"bike_id":"acb31884-f82c-4bd2-bc44-79899bd91d0d","system_id":"levelo_inurba_marseille","lat":43.29529,"lon":5.38524,"is_reserved":false,"is_disabled":false,"rental_uris":{"android":"levelo://app?vid=acb31884-f82c-4bd2-bc44-79899bd91d0d","ios":"levelo://app?vid=acb31884-f82c-4bd2-bc44-79899bd91d0d"},"vehicle_type_id":"4","last_reported":1714421251,"current_range_meters":27200,"station_id":"ce4bgih2rcd13ifvqba0","pricing_plan_id":"cebpf4jnsgd1na2vs0mg"},{"bike_id":"7779c310-5a2d-46db-b2be-cad9af31ec2d","system_id":"levelo_inurba_marseille","lat":43.30882,"lon":5.39662,"is_reserved":false,"is_disabled":false,"rental_uris":{"android":"levelo://app?vid=7779c310-5a2d-46db-b2be-cad9af31ec2d","ios":"levelo://app?vid=7779c310-5a2d-46db-b2be-cad9af31ec2d"},"vehicle_type_id":"4","last_reported":1714421251,"current_range_meters":400,"station_id":"ce4bh012rcd13ifvqcv0","pricing_plan_id":"cebpf4jnsgd1na2vs0mg"},{"bike_id":"0ba399a7-acb9-46a5-b828-7d61dad25319","system_id":"levelo_inurba_marseille","lat":43.29529,"lon":5.385581,"is_reserved":false,"is_disabled":false,"rental_uris":{"android":"levelo://app?vid=0ba399a7-acb9-46a5-b828-7d61dad25319","ios":"levelo://app?vid=0ba399a7-acb9-46a5-b828-7d61dad25319"},"vehicle_type_id":"4","last_reported":1714421251,"current_range_meters":6000,"station_id":"ce4bgih2rcd13ifvqba0","pricing_plan_id":"cebpf4jnsgd1na2vs0mg"},{"bike_id":"40c3ca83-a07b-4b02-9272-f70178a7dd4c","system_id":"levelo_inurba_marseille","lat":43.29529,"lon":5.385581,"is_reserved":false,"is_disabled":false,"rental_uris":{"android":"levelo://app?vid=40c3ca83-a07b-4b02-9272-f70178a7dd4c","ios":"levelo://app?vid=40c3ca83-a07b-4b02-9272-f70178a7dd4c"},"vehicle_type_id":"4","last_reported":1714421251,"current_range_meters":28400,"station_id":"ce4bgih2rcd13ifvqba0","pricing_plan_id":"cebpf4jnsgd1na2vs0mg"},{"bike_id":"30b235e8-6443-4e5d-86f0-6b08aff3f0a3","system_id":"levelo_inurba_marseille","lat":43.29529,"lon":5.385581,"is_reserved":false,"is_disabled":false,"rental_uris":{"android":"levelo://app?vid=30b235e8-6443-4e5d-86f0-6b08aff3f0a3","ios":"levelo://app?vid=30b235e8-6443-4e5d-86f0-6b08aff3f0a3"},"vehicle_type_id":"4","last_reported":1714421251,"current_range_meters":24400,"station_id":"ce4bgih2rcd13ifvqba0","pricing_plan_id":"cebpf4jnsgd1na2vs0mg"},{"bike_id":"2ba430de-a3d3-4163-b2e3-6f80e8976de5","system_id":"levelo_inurba_marseille","lat":43.29529,"lon":5.385581,"is_reserved":false,"is_disabled":false,"rental_uris":{"android":"levelo://app?vid=2ba430de-a3d3-4163-b2e3-6f80e8976de5","ios":"levelo://app?vid=2ba430de-a3d3-4163-b2e3-6f80e8976de5"},"vehicle_type_id":"4","last_reported":1714421251,"current_range_meters":21600,"station_id":"ce4bgih2rcd13ifvqba0","pricing_plan_id":"cebpf4jnsgd1na2vs0mg"},{"bike_id":"7e0a526e-9f0c-4794-bc17-fcc5a3d7ef8d","system_id":"levelo_inurba_marseille","lat":43.29529,"lon":5.385581,"is_reserved":false,"is_disabled":false,"rental_uris":{"android":"levelo://app?vid=7e0a526e-9f0c-4794-bc17-fcc5a3d7ef8d","ios":"levelo://app?vid=7e0a526e-9f0c-4794-bc17-fcc5a3d7ef8d"},"vehicle_type_id":"4","last_reported":1714421251,"current_range_meters":5600,"station_id":"ce4bgih2rcd13ifvqba0","pricing_plan_id":"cebpf4jnsgd1na2vs0mg"},{"bike_id":"adc4c840-3492-4bc3-b1aa-9a7bfc4d17ea","system_id":"levelo_inurba_marseille","lat":43.29533,"lon":5.3854,"is_reserved":false,"is_disabled":false,"rental_uris":{"android":"levelo://app?vid=adc4c840-3492-4bc3-b1aa-9a7bfc4d17ea","ios":"levelo://app?vid=adc4c840-3492-4bc3-b1aa-9a7bfc4d17ea"},"vehicle_type_id":"4","last_reported":1714421251,"current_range_meters":12400,"station_id":"ce4bgih2rcd13ifvqba0","pricing_plan_id":"cebpf4jnsgd1na2vs0mg"},{"bike_id":"e8b744ba-f73d-45a0-bc09-b035b387f0d0","system_id":"levelo_inurba_marseille","lat":43.29529,"lon":5.385581,"is_reserved":false,"is_disabled":false,"rental_uris":{"android":"levelo://app?vid=e8b744ba-f73d-45a0-bc09-b035b387f0d0","ios":"levelo://app?vid=e8b744ba-f73d-45a0-bc09-b035b387f0d0"},"vehicle_type_id":"4","last_reported":1714421251,"current_range_meters":12000,"station_id":"ce4bgih2rcd13ifvqba0","pricing_plan_id":"cebpf4jnsgd1na2vs0mg"},