{"last_updated":1685876672,"ttl":30,"version":"2.2","data":{"bikes":[{"bike_id":"6d633af9-b883-42dc-86dd-44e95352383d","system_id":"levelo_inurba_marseille","lat":43.31358,"lon":5.37101,"is_reserved":false,"is_disabled":false,"rental_uris":{"android":"levelo://app?vid=6d633af9-b883-42dc-86dd-44e95352383d","ios":"levelo://app?vid=6d633af9-b883-42dc-86dd-44e95352383d"},"vehicle_type_id":"4","last_reported":1685876672,"current_range_meters":22400,"station_id":"","pricing_plan_id":"free"},{"bike_id":"a18aebef-f749-4351-ae2d-233334ecf930","system_id":"levelo_inurba_marseille","lat":43.309076,"lon":5.368465,"is_reserved":false,"is_disabled":false,"rental_uris":{"android":"levelo://app?vid=a18aebef-f749-4351-ae2d-233334ecf930","ios":"levelo://app?vid=a18aebef-f749-4351-ae2d-233334ecf930"},"vehicle_type_id":"4","last_reported":1685876672,"current_range_meters":16400,"station_id":"ce4bgn92rcd13ifvqbvg","pricing_plan_id":"free"},{"bike_id":"5f0e8a51-251f-4603-8f7d-d2f9948aae28","system_id":"levelo_inurba_marseille","lat":43.308614,"lon":5.372098,"is_reserved":false,"is_disabled":false,"rental_uris":{"android":"levelo://app?vid=5f0e8a51-251f-4603-8f7d-d2f9948aae28","ios":"levelo://app?vid=5f0e8a51-251f-4603-8f7d-d2f9948aae28"},"vehicle_type_id":"4","last_reported":1685876672,"current_range_meters":20400,"station_id":"ce4bguh2rcd13ifvqckg","pricing_plan_id":"free"},{"bike_id":"4d43e892-ec90-4fce-8475-f727fed3851f","system_id":"levelo_inurba_marseille","lat":43.31975,"lon":5.36593,"is_reserved":false,"is_disabled":false,"rental_uris":{"android":"levelo://app?vid=4d43e892-ec90-4fce-8475-f727fed3851f","ios":"levelo://app?vid=4d43e892-ec90-4fce-8475-f727fed3851f"},"vehicle_type_id":"4","last_reported":1685876672,"current_range_meters":1200,"station_id":"","pricing_plan_id":"free"},{"bike_id":"cd6ad8cf-eb66-4297-bf6b-6df26dc162bc","system_id":"levelo_inurba_marseille","lat":43.30546,"lon":5.367,"is_reserved":false,"is_disabled":false,"rental_uris":{"android":"levelo://app?vid=cd6ad8cf-eb66-4297-bf6b-6df26dc162bc","ios":"levelo://app?vid=cd6ad8cf-eb66-4297-bf6b-6df26dc162bc"},"vehicle_type_id":"4","last_reported":1685876672,"current_range_meters":31200,"station_id":"","pricing_plan_id":"free"},{"bike_id":"cecc6c76-e46b-4e3a-853d-756734fb791e","system_id":"levelo_inurba_marseille","lat":43.30532,"lon":5.36707,"is_reserved":false,"is_disabled":false,"rental_uris":{"android":"levelo://app?vid=cecc6c76-e46b-4e3a-853d-756734fb791e","ios":"levelo://app?vid=cecc6c76-e46b-4e3a-853d-756734fb791e"},"vehicle_type_id":"4","last_reported":1685876672,"current_range_meters":30400,"station_id":"ce4bgrp2rcd13ifvqc9g","pricing_plan_id":"free"},{"bike_id":"2af28e47-65bc-4844-ab4b-21b2becc22db","system_id":"levelo_inurba_marseille","lat":43.305368,"lon":5.367343,"is_reserved":false,"is_disabled":false,"rental_uris":{"android":"levelo://app?vid=2af28e47-65bc-4844-ab4b-21b2becc22db","ios":"levelo://app?vid=2af28e47-65bc-4844-ab4b-21b2becc22db"},"vehicle_type_id":"4","last_reported":1685876672,"current_range_meters":21200,"station_id":"ce4bgrp2rcd13ifvqc9g","pricing_plan_id":"free"},{"bike_id":"41063197-04e0-44b1-a577-20890bd85bf6","system_id":"levelo_inurba_marseille","lat":43.30604,"lon":5.37139,"is_reserved":false,"is_disabled":false,"rental_uris":{"android":"levelo://app?vid=41063197-04e0-44b1-a577-20890bd85bf6","ios":"levelo://app?vid=41063197-04e0-44b1-a577-20890bd85bf6"},"vehicle_type_id":"4","last_reported":1685876672,"current_range_meters":28800,"station_id":"","pricing_plan_id":"free"},{"bike_id":"eeffbaa8-591b-46e8-8e62-b7c9333cefee","system_id":"levelo_inurba_marseille","lat":43.311175,"lon":5.377713,"is_reserved":false,"is_disabled":false,"rental_uris":{"android":"levelo://app?vid=eeffbaa8-591b-46e8-8e62-b7c9333cefee","ios":"levelo://app?vid=eeffbaa8-591b-46e8-8e62-b7c9333cefee"},"vehicle_type_id":"4","last_reported":1685876672,"current_range_meters":17600,"station_id":"","pricing_plan_id":"free"},{"bike_id":"a2bcefb7-d80b-474e-a9b3-abecb50796eb","system_id":"levelo_inurba_marseille","lat":43.31706,"lon":5.37742,"is_reserved":false,"is_disabled":false,"rental_uris":{"android":"levelo://app?vid=a2bcefb7-d80b-474e-a9b3-abecb50796eb","ios":"levelo://app?vid=a2bcefb7-d80b-474e-a9b3-abecb50796eb"},"vehicle_type_id":"4","last_reported":1685876672,"current_range_meters":30000,"station_id":"","pricing_plan_id":"free"},{"bike_id":"80f8aa5e-f1b0-42c3-b61d-2336c201b2db","system_id":"levelo_inurba_marseille","lat":43.317075,"lon":5.377367,"is_reserved":false,"is_disabled":false,"rental_uris":{"android":"levelo://app?vid=80f8aa5e-f1b0-42c3-b61d-2336c201b2db","ios":"levelo://app?vid=80f8aa5e-f1b0-42c3-b61d-2336c201b2db"},"vehicle_type_id":"4","last_reported":1685876672,"current_range_meters":30400,"station_id":"ce4bgth2rcd13ifvqch0","pricing_plan_id":"free"},{"bike_id":"813ddbb1-c3af-419f-aca1-2b06aee9ee39","system_id":"levelo_inurba_marseille","lat":43.30304,"lon":5.368987,"is_reserved":false,"is_disabled":false,"rental_uris":{"android":"levelo://app?vid=813ddbb1-c3af-419f-aca1-2b06aee9ee39","ios":"levelo://app?vid=813ddbb1-c3af-419f-aca1-2b06aee9ee39"},"vehicle_type_id":"4","last_reported":1685876672,"current_range_meters":17600,"station_id":"ce4bgqh2rcd13ifvqc5g","pricing_plan_id":"free"},{"bike_id":"15f7bfa4-1544-4cf5-9e64-53077f061091","system_id":"levelo_inurba_marseille","lat":43.315289,"lon":5.380349,"is_reserved":false,"is_disabled":false,"rental_uris":{"android":"levelo://app?vid=15f7bfa4-1544-4cf5-9e64-53077f061091","ios":"levelo://app?vid=15f7bfa4-1544-4cf5-9e64-53077f061091"},"vehicle_type_id":"4","last_reported":1685876672,"current_range_meters":28400,"station_id":"ce4bhsp2rcd13ifvqi50","pricing_plan_id":"free"},{"bike_id":"048be98a-d3e1-4397-bf58-9e37d125046f","system_id":"levelo_inurba_marseille","lat":43.31641,"lon":5.38331,"is_reserved":false,"is_disabled":false,"rental_uris":{"android":"levelo://app?vid=048be98a-d3e1-4397-bf58-9e37d125046f","ios":"levelo://app?vid=048be98a-d3e1-4397-bf58-9e37d125046f"},"vehicle_type_id":"4","last_reported":1685876672,"current_range_meters":12000,"station_id":"","pricing_plan_id":"free"},{"bike_id":"994fd81e-6db6-4408-acc8-bec511d624f9","system_id":"levelo_inurba_marseille","lat":43.31986,"lon":5.38142,"is_reserved":false,"is_disabled":false,"rental_uris":{"android":"levelo://app?vid=994fd81e-6db6-4408-acc8-bec511d624f9","ios":"levelo://app?vid=994fd81e-6db6-4408-acc8-bec511d624f9"},"vehicle_type_id":"4","last_reported":1685876672,"current_range_meters":17200,"station_id":"ce4bhr12rcd13ifvqhpg","pricing_plan_id":"free"},{"bike_id":"ce0eafea-7a28-40e5-b49f-bbdc4e411c48","system_id":"levelo_inurba_marseille","lat":43.31995,"lon":5.38141,"is_reserved":false,"is_disabled":false,"rental_uris":{"android":"levelo://app?vid=ce0eafea-7a28-40e5-b49f-bbdc4e411c48","ios":"levelo://app?vid=ce0eafea-7a28-40e5-b49f-bbdc4e411c48"},"vehicle_type_id":"4","last_reported":1685876672,"current_range_meters":10800,"station_id":"ce4bhr12rcd13ifvqhpg","pricing_plan_id":"free"},{"bike_id":"1f1dc83b-8ccb-4689-a2db-9ce7e1fda49c","system_id":"levelo_inurba_marseille","lat":43.319935,"lon":5.381699,"is_reserved":false,"is_disabled":false,"rental_uris":{"android":"levelo://app?vid=1f1dc83b-8ccb-4689-a2db-9ce7e1fda49c","ios":"levelo://app?vid=1f1dc83b-8ccb-4689-a2db-9ce7e1fda49c"},"vehicle_type_id":"4","last_reported":1685876672,"current_range_meters":3600,"station_id":"ce4bhr12rcd13ifvqhpg","pricing_plan_id":"free"},{"bike_id":"580c91f6-6c87-4823-b79b-d87cf2e683c9","system_id":"levelo_inurba_marseille","lat":43.31993,"lon":5.38145,"is_reserved":false,"is_disabled":false,"rental_uris":{"android":"levelo://app?vid=580c91f6-6c87-4823-b79b-d87cf2e683c9","ios":"levelo://app?vid=580c91f6-6c87-4823-b79b-d87cf2e683c9"},"vehicle_type_id":"4","last_reported":1685876672,"current_range_meters":0,"station_id":"ce4bhr12rcd13ifvqhpg","pricing_plan_id":"free"},{"bike_id":"e83b9514-b6a7-4d8e-b424-41cbc171d544","system_id":"levelo_inurba_marseille","lat":43.31997,"lon":5.38146,"is_reserved":false,"is_disabled":false,"rental_uris":{"android":"levelo://app?vid=e83b9514-b6a7-4d8e-b424-41cbc171d544","ios":"levelo://app?vid=e83b9514-b6a7-4d8e-b424-41cbc171d544"},"vehicle_type_id":"4","last_reported":1685876672,"current_range_meters":19600,"station_id":"ce4bhr12rcd13ifvqhpg","pricing_plan_id":"free"},{"bike_id":"c52d9867-cea2-4999-abc6-5b6e7de5366d","system_id":"levelo_inurba_marseille","lat":43.32,"lon":5.38172,"is_reserved":false,"is_disabled":false,"rental_uris":{"android":"levelo://app?vid=c52d9867-cea2-4999-abc6-5b6e7de5366d","ios":"levelo://app?vid=c52d9867-cea2-4999-abc6-5b6e7de5366d"},"vehicle_type_id":"4","last_reported":1685876672,"current_range_meters":19600,"station_id":"ce4bhr12rcd13ifvqhpg","pricing_plan_id":"free"},{"bike_id":"36136d78-2be3-4b19-a90a-7711a04c3c3a","system_id":"levelo_inurba_marseille","lat":43.31378,"lon":5.3852,"is_reserved":false,"is_disabled":false,"rental_uris":{"android":"levelo://app?vid=36136d78-2be3-4b19-a90a-7711a04c3c3a","ios":"levelo://app?vid=36136d78-2be3-4b19-a90a-7711a04c3c3a"},"vehicle_type_id":"4","last_reported":1685876672,"current_range_meters":16400,"station_id":"","pricing_plan_id":"free"},{"bike_id":"099067ed-ea82-4ae9-9385-4df3b8365fef","system_id":"levelo_inurba_marseille","lat":43.299222,"lon":5.365554,"is_reserved":false,"is_disabled":false,"rental_uris":{"android":"levelo://app?vid=099067ed-ea82-4ae9-9385-4df3b8365fef","ios":"levelo://app?vid=099067ed-ea82-4ae9-9385-4df3b8365fef"},"vehicle_type_id":"4","last_reported":1685876672,"current_range_meters":21600,"station_id":"ce4bgm92rcd13ifvqbr0","pricing_plan_id":"free"},{"bike_id":"65b3ab3e-1d90-4bc4-9997-1aa5d67618e1","system_id":"levelo_inurba_marseille","lat":43.298433,"lon":5.362774,"is_reserved":false,"is_disabled":false,"rental_uris":{"android":"levelo://app?vid=65b3ab3e-1d90-4bc4-9997-1aa5d67618e1","ios":"levelo://app?vid=65b3ab3e-1d90-4bc4-9997-1aa5d67618e1"},"vehicle_type_id":"4","last_reported":1685876672,"current_range_meters":30000,"station_id":"ce4bgpp2rcd13ifvqc3g","pricing_plan_id":"free"},{"bike_id":"1c135fe6-598b-40b1-8d5f-76dd9aad31fe","system_id":"levelo_inurba_marseille","lat":43.298433,"lon":5.362774,"is_reserved":false,"is_disabled":false,"rental_uris":{"android":"levelo://app?vid=1c135fe6-598b-40b1-8d5f-76dd9aad31fe","ios":"levelo://app?vid=1c135fe6-598b-40b1-8d5f-76dd9aad31fe"},"vehicle_type_id":"4","last_reported":1685876672,"current_range_meters":18800,"station_id":"ce4bgpp2rcd13ifvqc3g","pricing_plan_id":"free"},{"bike_id":"3365f076-7d55-4428-a83b-f5df7637a9ab","system_id":"levelo_inurba_marseille","lat":43.298433,"lon":5.362774,"is_reserved":false,"is_disabled":false,"rental_uris":{"android":"levelo://app?vid=3365f076-7d55-4428-a83b-f5df7637a9ab","ios":"levelo://app?vid=3365f076-7d55-4428-a83b-f5df7637a9ab"},"vehicle_type_id":"4","last_reported":1685876672,"current_range_meters":12000,"station_id":"ce4bgpp2rcd13ifvqc3g","pricing_plan_id":"free"},{"bike_id":"98b96cce-75e5-4ac8-a39e-46ae0e559c4e","system_id":"levelo_inurba_marseille","lat":43.298433,"lon":5.362774,"is_reserved":false,"is_disabled":false,"rental_uris":{"android":"levelo://app?vid=98b96cce-75e5-4ac8-a39e-46ae0e559c4e","ios":"levelo://app?vid=98b96cce-75e5-4ac8-a39e-46ae0e559c4e"},"vehicle_type_id":"4","last_reported":1685876672,"current_range_meters":24400,"station_id":"ce4bgpp2rcd13ifvqc3g","pricing_plan_id":"free"},{"bike_id":"1cf9f231-7184-476a-872c-4d45c5bf57f7","system_id":"levelo_inurba_marseille","lat":43.298433,"lon":5.362774,"is_reserved":false,"is_disabled":false,"rental_uris":{"android":"levelo://app?vid=1cf9f231-7184-476a-872c-4d45c5bf57f7","ios":"levelo://app?vid=1cf9f231-7184-476a-872c-4d45c5bf57f7"},"vehicle_type_id":"4","last_reported":1685876672,"current_range_meters":30000,"station_id":"ce4bgpp2rcd13ifvqc3g","pricing_plan_id":"free"},{"bike_id":"1a95f679-7d3a-4032-adb7-862e41572194","system_id":"levelo_inurba_marseille","lat":43.298433,"lon":5.362774,"is_reserved":false,"is_disabled":false,"rental_uris":{"android":"levelo://app?vid=1a95f679-7d3a-4032-adb7-862e41572194","ios":"levelo://app?vid=1a95f679-7d3a-4032-adb7-862e41572194"},"vehicle_type_id":"4","last_reported":1685876672,"current_range_meters":31600,"station_id":"ce4bgpp2rcd13ifvqc3g","pricing_plan_id":"free"},{"bike_id":"08d68c3c-1539-454e-8b0c-cf7e292a11ad","system_id":"levelo_inurba_marseille","lat":43.298433,"lon":5.362774,"is_reserved":false,"is_disabled":false,"rental_uris":{"android":"levelo://app?vid=08d68c3c-1539-454e-8b0c-cf7e292a11ad","ios":"levelo://app?vid=08d68c3c-1539-454e-8b0c-cf7e292a11ad"},"vehicle_type_id":"4","last_reported":1685876672,"current_range_meters":21600,"station_id":"ce4bgpp2rcd13ifvqc3g","pricing_plan_id":"free"},{"bike_id":"73561192-3d3a-4c1e-8198-16bb41021519","system_id":"levelo_inurba_marseille","lat":43.298433,"lon":5.362774,"is_reserved":false,"is_disabled":false,"rental_uris":{"android":"levelo://app?vid=73561192-3d3a-4c1e-8198-16bb41021519","ios":"levelo://app?vid=73561192-3d3a-4c1e-8198-16bb41021519"},"vehicle_type_id":"4","last_reported":1685876672,"current_range_meters":31200,"station_id":"ce4bgpp2rcd13ifvqc3g","pricing_plan_id":"free"},{"bike_id":"74eadea3-4cb9-4f98-b9e6-07226615fcfe","system_id":"levelo_inurba_marseille","lat":43.298433,"lon":5.362774,"is_reserved":false,"is_disabled":false,"rental_uris":{"android":"levelo://app?vid=74eadea3-4cb9-4f98-b9e6-07226615fcfe","ios":"levelo://app?vid=74eadea3-4cb9-4f98-b9e6-07226615fcfe"},"vehicle_type_id":"4","last_reported":1685876672,"current_range_meters":29200,"station_id":"ce4bgpp2rcd13ifvqc3g","pricing_plan_id":"free"},{"bike_id":"7f4c1f3f-7ba8-4655-9663-55e05147e0ed","system_id":"levelo_inurba_marseille","lat":43.298433,"lon":5.362774,"is_reserved":false,"is_disabled":false,"rental_uris":{"android":"levelo://app?vid=7f4c1f3f-7ba8-4655-9663-55e05147e0ed","ios":"levelo://app?vid=7f4c1f3f-7ba8-4655-9663-55e05147e0ed"},"vehicle_type_id":"4","last_reported":1685876672,"current_range_meters":31600,"station_id":"ce4bgpp2rcd13ifvqc3g","pricing_plan_id":"free"},{"bike_id":"26595df3-b32f-4e20-945b-be995a1cfe51","system_id":"levelo_inurba_marseille","lat":43.299243,"lon":5.37481,"is_reserved":false,"is_disabled":false,"rental_uris":{"android":"levelo://app?vid=26595df3-b32f-4e20-945b-be995a1cfe51","ios":"levelo://app?vid=26595df3-b32f-4e20-945b-be995a1cfe51"},"vehicle_type_id":"4","last_reported":1685876672,"current_range_meters":11600,"station_id":"ce4bgjh2rcd13ifvqbg0","pricing_plan_id":"free"},{"bike_id":"a8e5f311-2a2c-431c-a7fc-fc61985ea0d3","system_id":"levelo_inurba_marseille","lat":43.311722,"lon":5.387247,"is_reserved":false,"is_disabled":false,"rental_uris":{"android":"levelo://app?vid=a8e5f311-2a2c-431c-a7fc-fc61985ea0d3","ios":"levelo://app?vid=a8e5f311-2a2c-431c-a7fc-fc61985ea0d3"},"vehicle_type_id":"4","last_reported":1685876672,"current_range_meters":18000,"station_id":"ce4bgv12rcd13ifvqcp0","pricing_plan_id":"free"},{"bike_id":"a1e0b41d-3738-422d-8e23-3ffdcabee451","system_id":"levelo_inurba_marseille","lat":43.2979,"lon":5.37103,"is_reserved":false,"is_disabled":false,"rental_uris":{"android":"levelo://app?vid=a1e0b41d-3738-422d-8e23-3ffdcabee451","ios":"levelo://app?vid=a1e0b41d-3738-422d-8e23-3ffdcabee451"},"vehicle_type_id":"4","last_reported":1685876672,"current_range_meters":30400,"station_id":"ce4bgop2rcd13ifvqc1g","pricing_plan_id":"free"},{"bike_id":"b7579141-7635-4189-ae3f-d614b645b58e","system_id":"levelo_inurba_marseille","lat":43.29781,"lon":5.37105,"is_reserved":false,"is_disabled":false,"rental_uris":{"android":"levelo://app?vid=b7579141-7635-4189-ae3f-d614b645b58e","ios":"levelo://app?vid=b7579141-7635-4189-ae3f-d614b645b58e"},"vehicle_type_id":"4","last_reported":1685876672,"current_range_meters":22000,"station_id":"ce4bgop2rcd13ifvqc1g","pricing_plan_id":"free"},{"bike_id":"06810386-657b-4f7a-a3ef-27e8eb088644","system_id":"levelo_inurba_marseille","lat":43.328371,"lon":5.366912,"is_reserved":false,"is_disabled":false,"rental_uris":{"android":"levelo://app?vid=06810386-657b-4f7a-a3ef-27e8eb088644","ios":"levelo://app?vid=06810386-657b-4f7a-a3ef-27e8eb088644"},"vehicle_type_id":"4","last_reported":1685876672,"current_range_meters":7600,"station_id":"ce4bhs92rcd13ifvqi0g","pricing_plan_id":"free"},{"bike_id":"cb0f0ec2-75c0-44dc-80f7-2b87cd212352","system_id":"levelo_inurba_marseille","lat":43.328371,"lon":5.366912,"is_reserved":false,"is_disabled":false,"rental_uris":{"android":"levelo://app?vid=cb0f0ec2-75c0-44dc-80f7-2b87cd212352","ios":"levelo://app?vid=cb0f0ec2-75c0-44dc-80f7-2b87cd212352"},"vehicle_type_id":"4","last_reported":1685876672,"current_range_meters":12000,"station_id":"ce4bhs92rcd13ifvqi0g","pricing_plan_id":"free"},{"bike_id":"c280ad7b-c290-4548-bfbd-9eddf498f966","system_id":"levelo_inurba_marseille","lat":43.328371,"lon":5.366912,"is_reserved":false,"is_disabled":false,"rental_uris":{"android":"levelo://app?vid=c280ad7b-c290-4548-bfbd-9eddf498f966","ios":"levelo://app?vid=c280ad7b-c290-4548-bfbd-9eddf498f966"},"vehicle_type_id":"4","last_reported":1685876672,"current_range_meters":13600,"station_id":"ce4bhs92rcd13ifvqi0g","pricing_plan_id":"free"},{"bike_id":"c1490444-e945-4d29-9ff9-84fb18a2385b","system_id":"levelo_inurba_marseille","lat":43.32827,"lon":5.36673,"is_reserved":false,"is_disabled":false,"rental_uris":{"android":"levelo://app?vid=c1490444-e945-4d29-9ff9-84fb18a2385b","ios":"levelo://app?vid=c1490444-e945-4d29-9ff9-84fb18a2385b"},"vehicle_type_id":"4","last_reported":1685876672,"current_range_meters":22400,"station_id":"ce4bhs92rcd13ifvqi0g","pricing_plan_id":"free"},{"bike_id":"c957c23a-5f71-48b3-920d-3eb9d16491cd","system_id":"levelo_inurba_marseille","lat":43.32829,"lon":5.36686,"is_reserved":false,"is_disabled":false,"rental_uris":{"android":"levelo://app?vid=c957c23a-5f71-48b3-920d-3eb9d16491cd","ios":"levelo://app?vid=c957c23a-5f71-48b3-920d-3eb9d16491cd"},"vehicle_type_id":"4","last_reported":1685876672,"current_range_meters":26400,"station_id":"ce4bhs92rcd13ifvqi0g","pricing_plan_id":"free"},{"bike_id":"93fe580d-71c0-4856-a27e-71bfe60b8232","system_id":"levelo_inurba_marseille","lat":43.328371,"lon":5.366912,"is_reserved":false,"is_disabled":false,"rental_uris":{"android":"levelo://app?vid=93fe580d-71c0-4856-a27e-71bfe60b8232","ios":"levelo://app?vid=93fe580d-71c0-4856-a27e-71bfe60b8232"},"vehicle_type_id":"4","last_reported":1685876672,"current_range_meters":21200,"station_id":"ce4bhs92rcd13ifvqi0g","pricing_plan_id":"free"},{"bike_id":"c02c03d9-6482-4fb0-b3f9-b71bfdb30108","system_id":"levelo_inurba_marseille","lat":43.3283,"lon":5.36688,"is_reserved":false,"is_disabled":false,"rental_uris":{"android":"levelo://app?vid=c02c03d9-6482-4fb0-b3f9-b71bfdb30108","ios":"levelo://app?vid=c02c03d9-6482-4fb0-b3f9-b71bfdb30108"},"vehicle_type_id":"4","last_reported":1685876672,"current_range_meters":26800,"station_id":"ce4bhs92rcd13ifvqi0g","pricing_plan_id":"free"},{"bike_id":"3e27a8ae-0c70-4baf-a61b-7c5ecd0800cd","system_id":"levelo_inurba_marseille","lat":43.3283,"lon":5.36684,"is_reserved":false,"is_disabled":false,"rental_uris":{"android":"levelo://app?vid=3e27a8ae-0c70-4baf-a61b-7c5ecd0800cd","ios":"levelo://app?vid=3e27a8ae-0c70-4baf-a61b-7c5ecd0800cd"},"vehicle_type_id":"4","last_reported":1685876672,"current_range_meters":800,"station_id":"ce4bhs92rcd13ifvqi0g","pricing_plan_id":"free"},{"bike_id":"b9cf6557-2db2-4828-97f1-13a369745ef6","system_id":"levelo_inurba_marseille","lat":43.32766,"lon":5.3748,"is_reserved":false,"is_disabled":false,"rental_uris":{"android":"levelo://app?vid=b9cf6557-2db2-4828-97f1-13a369745ef6","ios":"levelo://app?vid=b9cf6557-2db2-4828-97f1-13a369745ef6"},"vehicle_type_id":"4","last_reported":1685876672,"current_range_meters":5200,"station_id":"","pricing_plan_id":"free"},{"bike_id":"6ce6fc79-bb7b-46b5-bfef-65dd2fd57f6b","system_id":"levelo_inurba_marseille","lat":43.29573,"lon":5.367355,"is_reserved":false,"is_disabled":false,"rental_uris":{"android":"levelo://app?vid=6ce6fc79-bb7b-46b5-bfef-65dd2fd57f6b","ios":"levelo://app?vid=6ce6fc79-bb7b-46b5-bfef-65dd2fd57f6b"},"vehicle_type_id":"4","last_reported":1685876672,"current_range_meters":10400,"station_id":"ce4bgph2rcd13ifvqc2g","pricing_plan_id":"free"},{"bike_id":"0ee689db-2dc6-43fe-b411-56c878d03ce6","system_id":"levelo_inurba_marseille","lat":43.29573,"lon":5.367355,"is_reserved":false,"is_disabled":false,"rental_uris":{"android":"levelo://app?vid=0ee689db-2dc6-43fe-b411-56c878d03ce6","ios":"levelo://app?vid=0ee689db-2dc6-43fe-b411-56c878d03ce6"},"vehicle_type_id":"4","last_reported":1685876672,"current_range_meters":2000,"station_id":"ce4bgph2rcd13ifvqc2g","pricing_plan_id":"free"},{"bike_id":"0eeb22d1-c524-40f8-ae6d-2f1698e30ba9","system_id":"levelo_inurba_marseille","lat":43.29573,"lon":5.367355,"is_reserved":false,"is_disabled":false,"rental_uris":{"android":"levelo://app?vid=0eeb22d1-c524-40f8-ae6d-2f1698e30ba9","ios":"levelo://app?vid=0eeb22d1-c524-40f8-ae6d-2f1698e30ba9"},"vehicle_type_id":"4","last_reported":1685876672,"current_range_meters":24400,"station_id":"ce4bgph2rcd13ifvqc2g","pricing_plan_id":"free"},{"bike_id":"3407c053-4729-4a42-8ec5-073525c14d02","system_id":"levelo_inurba_marseille","lat":43.29573,"lon":5.367355,"is_reserved":false,"is_disabled":false,"rental_uris":{"android":"levelo://app?vid=3407c053-4729-4a42-8ec5-073525c14d02","ios":"levelo://app?vid=3407c053-4729-4a42-8ec5-073525c14d02"},"vehicle_type_id":"4","last_reported":1685876672,"current_range_meters":28800,"station_id":"ce4bgph2rcd13ifvqc2g","pricing_plan_id":"free"},{"bike_id":"ed85ff6a-f271-4127-900f-573825e4b298","system_id":"levelo_inurba_marseille","lat":43.296131,"lon":5.370773,"is_reserved":false,"is_disabled":false,"rental_uris":{"android":"levelo://app?vid=ed85ff6a-f271-4127-900f-573825e4b298","ios":"levelo://app?vid=ed85ff6a-f271-4127-900f-573825e4b298"},"vehicle_type_id":"4","last_reported":1685876672,"current_range_meters":27200,"station_id":"ce4bgnh2rcd13ifvqc0g","pricing_plan_id":"free"},{"bike_id":"2fa35967-d5ab-40ce-99f4-1ef6e5d20662","system_id":"levelo_inurba_marseille","lat":43.29573,"lon":5.367355,"is_reserved":false,"is_disabled":false,"rental_uris":{"android":"levelo://app?vid=2fa35967-d5ab-40ce-99f4-1ef6e5d20662","ios":"levelo://app?vid=2fa35967-d5ab-40ce-99f4-1ef6e5d20662"},"vehicle_type_id":"4","last_reported":1685876672,"current_range_meters":12400,"station_id":"ce4bgph2rcd13ifvqc2g","pricing_plan_id":"free"},{"bike_id":"12db4a3b-dff5-45d2-9008-e79075a5f090","system_id":"levelo_inurba_marseille","lat":43.29573,"lon":5.367355,"is_reserved":false,"is_disabled":false,"rental_uris":{"android":"levelo://app?vid=12db4a3b-dff5-45d2-9008-e79075a5f090","ios":"levelo://app?vid=12db4a3b-dff5-45d2-9008-e79075a5f090"},"vehicle_type_id":"4","last_reported":1685876672,"current_range_meters":16800,"station_id":"ce4bgph2rcd13ifvqc2g","pricing_plan_id":"free"},{"bike_id":"c48ec57e-0edb-47eb-bc7f-78c0c145feef","system_id":"levelo_inurba_marseille","lat":43.29573,"lon":5.367355,"is_reserved":false,"is_disabled":false,"rental_uris":{"android":"levelo://app?vid=c48ec57e-0edb-47eb-bc7f-78c0c145feef","ios":"levelo://app?vid=c48ec57e-0edb-47eb-bc7f-78c0c145feef"},"vehicle_type_id":"4","last_reported":1685876672,"current_range_meters":10800,"station_id":"ce4bgph2rcd13ifvqc2g","pricing_plan_id":"free"},{"bike_id":"ece83f57-afd1-41c0-88e5-89531467d922","system_id":"levelo_inurba_marseille","lat":43.296935,"lon":5.376544,"is_reserved":false,"is_disabled":false,"rental_uris":{"android":"levelo://app?vid=ece83f57-afd1-41c0-88e5-89531467d922","ios":"levelo://app?vid=ece83f57-afd1-41c0-88e5-89531467d922"},"vehicle_type_id":"4","last_reported":1685876672,"current_range_meters":25200,"station_id":"ce4bgkh2rcd13ifvqbl0","pricing_plan_id":"free"},{"bike_id":"283cff05-7cb5-4aeb-92b6-3c39f8cdf3af","system_id":"levelo_inurba_marseille","lat":43.309589,"lon":5.390258,"is_reserved":false,"is_disabled":false,"rental_uris":{"android":"levelo://app?vid=283cff05-7cb5-4aeb-92b6-3c39f8cdf3af","ios":"levelo://app?vid=283cff05-7cb5-4aeb-92b6-3c39f8cdf3af"},"vehicle_type_id":"4","last_reported":1685876672,"current_range_meters":3600,"station_id":"ce4bgup2rcd13ifvqco0","pricing_plan_id":"free"},{"bike_id":"79430c94-7e7f-4f8d-83e0-a14f7c936c6c","system_id":"levelo_inurba_marseille","lat":43.317557,"lon":5.390173,"is_reserved":false,"is_disabled":false,"rental_uris":{"android":"levelo://app?vid=79430c94-7e7f-4f8d-83e0-a14f7c936c6c","ios":"levelo://app?vid=79430c94-7e7f-4f8d-83e0-a14f7c936c6c"},"vehicle_type_id":"4","last_reported":1685876672,"current_range_meters":0,"station_id":"ce4bhqp2rcd13ifvqhng","pricing_plan_id":"free"},{"bike_id":"07f62f98-919e-4b71-a429-5882e11679b6","system_id":"levelo_inurba_marseille","lat":43.317557,"lon":5.390173,"is_reserved":false,"is_disabled":false,"rental_uris":{"android":"levelo://app?vid=07f62f98-919e-4b71-a429-5882e11679b6","ios":"levelo://app?vid=07f62f98-919e-4b71-a429-5882e11679b6"},"vehicle_type_id":"4","last_reported":1685876672,"current_range_meters":27200,"station_id":"ce4bhqp2rcd13ifvqhng","pricing_plan_id":"free"},{"bike_id":"48afc275-f3a5-48bd-a716-5578c7ef2240","system_id":"levelo_inurba_marseille","lat":43.296277,"lon":5.377108,"is_reserved":false,"is_disabled":false,"rental_uris":{"android":"levelo://app?vid=48afc275-f3a5-48bd-a716-5578c7ef2240","ios":"levelo://app?vid=48afc275-f3a5-48bd-a716-5578c7ef2240"},"vehicle_type_id":"4","last_reported":1685876672,"current_range_meters":14800,"station_id":"ce4bgi92rcd13ifvqb90","pricing_plan_id":"free"},{"bike_id":"04beff01-6c15-495f-abf7-d113fcf68e70","system_id":"levelo_inurba_marseille","lat":43.296277,"lon":5.377108,"is_reserved":false,"is_disabled":false,"rental_uris":{"android":"levelo://app?vid=04beff01-6c15-495f-abf7-d113fcf68e70","ios":"levelo://app?vid=04beff01-6c15-495f-abf7-d113fcf68e70"},"vehicle_type_id":"4","last_reported":1685876672,"current_range_meters":23200,"station_id":"ce4bgi92rcd13ifvqb90","pricing_plan_id":"free"},{"bike_id":"251cf12c-69e9-45cf-86d5-b847bf28ae0a","system_id":"levelo_inurba_marseille","lat":43.296277,"lon":5.377108,"is_reserved":false,"is_disabled":false,"rental_uris":{"android":"levelo://app?vid=251cf12c-69e9-45cf-86d5-b847bf28ae0a","ios":"levelo://app?vid=251cf12c-69e9-45cf-86d5-b847bf28ae0a"},"vehicle_type_id":"4","last_reported":1685876672,"current_range_meters":11600,"station_id":"ce4bgi92rcd13ifvqb90","pricing_plan_id":"free"},{"bike_id":"5437566a-e475-460a-a41a-79f2142d1e35","system_id":"levelo_inurba_marseille","lat":43.296277,"lon":5.377108,"is_reserved":false,"is_disabled":false,"rental_uris":{"android":"levelo://app?vid=5437566a-e475-460a-a41a-79f2142d1e35","ios":"levelo://app?vid=5437566a-e475-460a-a41a-79f2142d1e35"},"vehicle_type_id":"4","last_reported":1685876672,"current_range_meters":12000,"station_id":"ce4bgi92rcd13ifvqb90","pricing_plan_id":"free"},{"bike_id":"9a8d3226-2e7b-43a7-81ef-8ec0bc8a9137","system_id":"levelo_inurba_marseille","lat":43.299692,"lon":5.384828,"is_reserved":false,"is_disabled":false,"rental_uris":{"android":"levelo://app?vid=9a8d3226-2e7b-43a7-81ef-8ec0bc8a9137","ios":"levelo://app?vid=9a8d3226-2e7b-43a7-81ef-8ec0bc8a9137"},"vehicle_type_id":"4","last_reported":1685876672,"current_range_meters":21600,"station_id":"ce4bh2h2rcd13ifvqdh0","pricing_plan_id":"free"},{"bike_id":"d92a5cdb-e9ba-47a9-9790-f452dda29ec7","system_id":"levelo_inurba_marseille","lat":43.299707,"lon":5.384859,"is_reserved":false,"is_disabled":false,"rental_uris":{"android":"levelo://app?vid=d92a5cdb-e9ba-47a9-9790-f452dda29ec7","ios":"levelo://app?vid=d92a5cdb-e9ba-47a9-9790-f452dda29ec7"},"vehicle_type_id":"4","last_reported":1685876672,"current_range_meters":25200,"station_id":"ce4bgj92rcd13ifvqbd0","pricing_plan_id":"free"},{"bike_id":"eaa30da0-f484-424a-924f-f4e4a99c90c3","system_id":"levelo_inurba_marseille","lat":43.295279,"lon":5.375048,"is_reserved":false,"is_disabled":false,"rental_uris":{"android":"levelo://app?vid=eaa30da0-f484-424a-924f-f4e4a99c90c3","ios":"levelo://app?vid=eaa30da0-f484-424a-924f-f4e4a99c90c3"},"vehicle_type_id":"4","last_reported":1685876672,"current_range_meters":13600,"station_id":"ce4bgkp2rcd13ifvqbmg","pricing_plan_id":"free"},{"bike_id":"74f93b3d-c96e-40c5-ace8-29c643ba33cb","system_id":"levelo_inurba_marseille","lat":43.29914,"lon":5.38553,"is_reserved":false,"is_disabled":false,"rental_uris":{"android":"levelo://app?vid=74f93b3d-c96e-40c5-ace8-29c643ba33cb","ios":"levelo://app?vid=74f93b3d-c96e-40c5-ace8-29c643ba33cb"},"vehicle_type_id":"4","last_reported":1685876672,"current_range_meters":16800,"station_id":"","pricing_plan_id":"free"},{"bike_id":"aeb5ead0-c09c-49ca-84ce-d23b7cb0491f","system_id":"levelo_inurba_marseille","lat":43.32367,"lon":5.388836,"is_reserved":false,"is_disabled":false,"rental_uris":{"android":"levelo://app?vid=aeb5ead0-c09c-49ca-84ce-d23b7cb0491f","ios":"levelo://app?vid=aeb5ead0-c09c-49ca-84ce-d23b7cb0491f"},"vehicle_type_id":"4","last_reported":1685876672,"current_range_meters":11600,"station_id":"ce4bhqp2rcd13ifvqhog","pricing_plan_id":"free"},{"bike_id":"3ffed195-1cf7-4fd9-9162-80dee4e1fc92","system_id":"levelo_inurba_marseille","lat":43.32367,"lon":5.388836,"is_reserved":false,"is_disabled":false,"rental_uris":{"android":"levelo://app?vid=3ffed195-1cf7-4fd9-9162-80dee4e1fc92","ios":"levelo://app?vid=3ffed195-1cf7-4fd9-9162-80dee4e1fc92"},"vehicle_type_id":"4","last_reported":1685876672,"current_range_meters":0,"station_id":"ce4bhqp2rcd13ifvqhog","pricing_plan_id":"free"},{"bike_id":"1619b961-36bd-4a7d-a354-b4d8cf39a904","system_id":"levelo_inurba_marseille","lat":43.32367,"lon":5.388836,"is_reserved":false,"is_disabled":false,"rental_uris":{"android":"levelo://app?vid=1619b961-36bd-4a7d-a354-b4d8cf39a904","ios":"levelo://app?vid=1619b961-36bd-4a7d-a354-b4d8cf39a904"},"vehicle_type_id":"4","last_reported":1685876672,"current_range_meters":8400,"station_id":"ce4bhqp2rcd13ifvqhog","pricing_plan_id":"free"},{"bike_id":"7100a76d-d92f-4b1d-8712-7ccde8f6e092","system_id":"levelo_inurba_marseille","lat":43.32367,"lon":5.388836,"is_reserved":false,"is_disabled":false,"rental_uris":{"android":"levelo://app?vid=7100a76d-d92f-4b1d-8712-7ccde8f6e092","ios":"levelo://app?vid=7100a76d-d92f-4b1d-8712-7ccde8f6e092"},"vehicle_type_id":"4","last_reported":1685876672,"current_range_meters":2000,"station_id":"ce4bhqp2rcd13ifvqhog","pricing_plan_id":"free"},{"bike_id":"8b05e7c1-e161-4bf2-812b-205c953b88a8","system_id":"levelo_inurba_marseille","lat":43.32367,"lon":5.388836,"is_reserved":false,"is_disabled":false,"rental_uris":{"android":"levelo://app?vid=8b05e7c1-e161-4bf2-812b-205c953b88a8","ios":"levelo://app?vid=8b05e7c1-e161-4bf2-812b-205c953b88a8"},"vehicle_type_id":"4","last_reported":1685876672,"current_range_meters":23200,"station_id":"ce4bhqp2rcd13ifvqhog","pricing_plan_id":"free"},{"bike_id":"864280d9-9373-4533-aeaf-5c390998710a","system_id":"levelo_inurba_marseille","lat":43.32367,"lon":5.388836,"is_reserved":false,"is_disabled":false,"rental_uris":{"android":"levelo://app?vid=864280d9-9373-4533-aeaf-5c390998710a","ios":"levelo://app?vid=864280d9-9373-4533-aeaf-5c390998710a"},"vehicle_type_id":"4","last_reported":1685876672,"current_range_meters":24000,"station_id":"ce4bhqp2rcd13ifvqhog","pricing_plan_id":"free"},{"bike_id":"ca5c96cf-d537-4892-966b-16fbd05b64ae","system_id":"levelo_inurba_marseille","lat":43.29602,"lon":5.381,"is_reserved":false,"is_disabled":false,"rental_uris":{"android":"levelo://app?vid=ca5c96cf-d537-4892-966b-16fbd05b64ae","ios":"levelo://app?vid=ca5c96cf-d537-4892-966b-16fbd05b64ae"},"vehicle_type_id":"4","last_reported":1685876672,"current_range_meters":23200,"station_id":"ce4bgl12rcd13ifvqbo0","pricing_plan_id":"free"},{"bike_id":"95f706c7-2092-48e0-8431-16d12ea5b931","system_id":"levelo_inurba_marseille","lat":43.29902,"lon":5.38637,"is_reserved":false,"is_disabled":false,"rental_uris":{"android":"levelo://app?vid=95f706c7-2092-48e0-8431-16d12ea5b931","ios":"levelo://app?vid=95f706c7-2092-48e0-8431-16d12ea5b931"},"vehicle_type_id":"4","last_reported":1685876672,"current_range_meters":13600,"station_id":"","pricing_plan_id":"free"},{"bike_id":"07fd9495-8bb9-4045-b3ef-b9a773d04ed8","system_id":"levelo_inurba_marseille","lat":43.292749,"lon":5.368398,"is_reserved":false,"is_disabled":false,"rental_uris":{"android":"levelo://app?vid=07fd9495-8bb9-4045-b3ef-b9a773d04ed8","ios":"levelo://app?vid=07fd9495-8bb9-4045-b3ef-b9a773d04ed8"},"vehicle_type_id":"4","last_reported":1685876672,"current_range_meters":8000,"station_id":"ce4bhbp2rcd13ifvqesg","pricing_plan_id":"free"},{"bike_id":"e86cab1c-a62c-4bc3-9f19-2d61b8e77b14","system_id":"levelo_inurba_marseille","lat":43.292749,"lon":5.368402,"is_reserved":false,"is_disabled":false,"rental_uris":{"android":"levelo://app?vid=e86cab1c-a62c-4bc3-9f19-2d61b8e77b14","ios":"levelo://app?vid=e86cab1c-a62c-4bc3-9f19-2d61b8e77b14"},"vehicle_type_id":"4","last_reported":1685876672,"current_range_meters":27200,"station_id":"ce4bhbp2rcd13ifvqesg","pricing_plan_id":"free"},{"bike_id":"02c8f000-c6d7-478a-b85c-c876e24ea238","system_id":"levelo_inurba_marseille","lat":43.293009,"lon":5.374584,"is_reserved":false,"is_disabled":false,"rental_uris":{"android":"levelo://app?vid=02c8f000-c6d7-478a-b85c-c876e24ea238","ios":"levelo://app?vid=02c8f000-c6d7-478a-b85c-c876e24ea238"},"vehicle_type_id":"4","last_reported":1685876672,"current_range_meters":2000,"station_id":"ce4bgi12rcd13ifvqb70","pricing_plan_id":"free"},{"bike_id":"ae4d8ae0-5e25-4613-be42-36ff174e4f58","system_id":"levelo_inurba_marseille","lat":43.293009,"lon":5.374584,"is_reserved":false,"is_disabled":false,"rental_uris":{"android":"levelo://app?vid=ae4d8ae0-5e25-4613-be42-36ff174e4f58","ios":"levelo://app?vid=ae4d8ae0-5e25-4613-be42-36ff174e4f58"},"vehicle_type_id":"4","last_reported":1685876672,"current_range_meters":9200,"station_id":"ce4bgi12rcd13ifvqb70","pricing_plan_id":"free"},{"bike_id":"6ecb2eef-5575-4def-af2c-c89e0e3b0459","system_id":"levelo_inurba_marseille","lat":43.292749,"lon":5.368398,"is_reserved":false,"is_disabled":false,"rental_uris":{"android":"levelo://app?vid=6ecb2eef-5575-4def-af2c-c89e0e3b0459","ios":"levelo://app?vid=6ecb2eef-5575-4def-af2c-c89e0e3b0459"},"vehicle_type_id":"4","last_reported":1685876672,"current_range_meters":0,"station_id":"ce4bhbp2rcd13ifvqesg","pricing_plan_id":"free"},{"bike_id":"a4c2cc4f-cf68-4427-a9f1-fd1f8b332900","system_id":"levelo_inurba_marseille","lat":43.302992,"lon":5.392136,"is_reserved":false,"is_disabled":false,"rental_uris":{"android":"levelo://app?vid=a4c2cc4f-cf68-4427-a9f1-fd1f8b332900","ios":"levelo://app?vid=a4c2cc4f-cf68-4427-a9f1-fd1f8b332900"},"vehicle_type_id":"4","last_reported":1685876672,"current_range_meters":24800,"station_id":"ce4bgkh2rcd13ifvqbk0","pricing_plan_id":"free"},{"bike_id":"a38bdd59-6d7c-42e6-a21c-67151b41f436","system_id":"levelo_inurba_marseille","lat":43.2936,"lon":5.37835,"is_reserved":false,"is_disabled":false,"rental_uris":{"android":"levelo://app?vid=a38bdd59-6d7c-42e6-a21c-67151b41f436","ios":"levelo://app?vid=a38bdd59-6d7c-42e6-a21c-67151b41f436"},"vehicle_type_id":"4","last_reported":1685876672,"current_range_meters":4000,"station_id":"ce4bgjh2rcd13ifvqbf0","pricing_plan_id":"free"},{"bike_id":"60775fdf-a700-4528-ace4-e8df7034670d","system_id":"levelo_inurba_marseille","lat":43.2936,"lon":5.37835,"is_reserved":false,"is_disabled":false,"rental_uris":{"android":"levelo://app?vid=60775fdf-a700-4528-ace4-e8df7034670d","ios":"levelo://app?vid=60775fdf-a700-4528-ace4-e8df7034670d"},"vehicle_type_id":"4","last_reported":1685876672,"current_range_meters":28400,"station_id":"ce4bgjh2rcd13ifvqbf0","pricing_plan_id":"free"},{"bike_id":"16796b61-283a-46f0-a7bb-e5a1e851d7ca","system_id":"levelo_inurba_marseille","lat":43.303002,"lon":5.392142,"is_reserved":false,"is_disabled":false,"rental_uris":{"android":"levelo://app?vid=16796b61-283a-46f0-a7bb-e5a1e851d7ca","ios":"levelo://app?vid=16796b61-283a-46f0-a7bb-e5a1e851d7ca"},"vehicle_type_id":"4","last_reported":1685876672,"current_range_meters":14000,"station_id":"ce4bgkh2rcd13ifvqbk0","pricing_plan_id":"free"},{"bike_id":"219fcbe1-3ab0-43b3-9644-d378cefa29f2","system_id":"levelo_inurba_marseille","lat":43.29361,"lon":5.37835,"is_reserved":false,"is_disabled":false,"rental_uris":{"android":"levelo://app?vid=219fcbe1-3ab0-43b3-9644-d378cefa29f2","ios":"levelo://app?vid=219fcbe1-3ab0-43b3-9644-d378cefa29f2"},"vehicle_type_id":"4","last_reported":1685876672,"current_range_meters":20000,"station_id":"ce4bgjh2rcd13ifvqbf0","pricing_plan_id":"free"},{"bike_id":"8cfb6699-aa83-47ed-8a76-4804e686b560","system_id":"levelo_inurba_marseille","lat":43.292311,"lon":5.360731,"is_reserved":false,"is_disabled":false,"rental_uris":{"android":"levelo://app?vid=8cfb6699-aa83-47ed-8a76-4804e686b560","ios":"levelo://app?vid=8cfb6699-aa83-47ed-8a76-4804e686b560"},"vehicle_type_id":"4","last_reported":1685876672,"current_range_meters":16000,"station_id":"ce4bhbh2rcd13ifvqeqg","pricing_plan_id":"free"},{"bike_id":"4f3f68aa-db53-4d87-890d-ef8940409b5a","system_id":"levelo_inurba_marseille","lat":43.29351,"lon":5.37836,"is_reserved":false,"is_disabled":false,"rental_uris":{"android":"levelo://app?vid=4f3f68aa-db53-4d87-890d-ef8940409b5a","ios":"levelo://app?vid=4f3f68aa-db53-4d87-890d-ef8940409b5a"},"vehicle_type_id":"4","last_reported":1685876672,"current_range_meters":13200,"station_id":"ce4bgjh2rcd13ifvqbf0","pricing_plan_id":"free"},{"bike_id":"c848173f-09c7-4b4d-8672-dba7ea854f0f","system_id":"levelo_inurba_marseille","lat":43.292311,"lon":5.360731,"is_reserved":false,"is_disabled":false,"rental_uris":{"android":"levelo://app?vid=c848173f-09c7-4b4d-8672-dba7ea854f0f","ios":"levelo://app?vid=c848173f-09c7-4b4d-8672-dba7ea854f0f"},"vehicle_type_id":"4","last_reported":1685876672,"current_range_meters":0,"station_id":"ce4bhbh2rcd13ifvqeqg","pricing_plan_id":"free"},{"bike_id":"9e49ea35-2457-412c-a4f6-0cdefe8ea5e0","system_id":"levelo_inurba_marseille","lat":43.30085,"lon":5.390856,"is_reserved":false,"is_disabled":false,"rental_uris":{"android":"levelo://app?vid=9e49ea35-2457-412c-a4f6-0cdefe8ea5e0","ios":"levelo://app?vid=9e49ea35-2457-412c-a4f6-0cdefe8ea5e0"},"vehicle_type_id":"4","last_reported":1685876672,"current_range_meters":23200,"station_id":"ce4bh192rcd13ifvqdb0","pricing_plan_id":"free"},{"bike_id":"c857dbd0-b690-4380-b18b-31ee2243b422","system_id":"levelo_inurba_marseille","lat":43.291675,"lon":5.371583,"is_reserved":false,"is_disabled":false,"rental_uris":{"android":"levelo://app?vid=c857dbd0-b690-4380-b18b-31ee2243b422","ios":"levelo://app?vid=c857dbd0-b690-4380-b18b-31ee2243b422"},"vehicle_type_id":"4","last_reported":1685876672,"current_range_meters":21600,"station_id":"ce4bha92rcd13ifvqeh0","pricing_plan_id":"free"},{"bike_id":"3c0b1094-3081-4c0f-bf4a-cdebb85d75dc","system_id":"levelo_inurba_marseille","lat":43.291675,"lon":5.371583,"is_reserved":false,"is_disabled":false,"rental_uris":{"android":"levelo://app?vid=3c0b1094-3081-4c0f-bf4a-cdebb85d75dc","ios":"levelo://app?vid=3c0b1094-3081-4c0f-bf4a-cdebb85d75dc"},"vehicle_type_id":"4","last_reported":1685876672,"current_range_meters":20400,"station_id":"ce4bha92rcd13ifvqeh0","pricing_plan_id":"free"},{"bike_id":"b18730f9-d36e-4be5-9191-f25446837297","system_id":"levelo_inurba_marseille","lat":43.298764,"lon":5.388973,"is_reserved":false,"is_disabled":false,"rental_uris":{"android":"levelo://app?vid=b18730f9-d36e-4be5-9191-f25446837297","ios":"levelo://app?vid=b18730f9-d36e-4be5-9191-f25446837297"},"vehicle_type_id":"4","last_reported":1685876672,"current_range_meters":15200,"station_id":"ce4bh392rcd13ifvqdl0","pricing_plan_id":"free"},{"bike_id":"69a6dcd9-5a33-4b32-907d-4b364270d703","system_id":"levelo_inurba_marseille","lat":43.291994,"lon":5.357886,"is_reserved":false,"is_disabled":false,"rental_uris":{"android":"levelo://app?vid=69a6dcd9-5a33-4b32-907d-4b364270d703","ios":"levelo://app?vid=69a6dcd9-5a33-4b32-907d-4b364270d703"},"vehicle_type_id":"4","last_reported":1685876672,"current_range_meters":0,"station_id":"ce4bhb12rcd13ifvqel0","pricing_plan_id":"free"},{"bike_id":"3e265e19-ee58-4810-b200-92f1aae7c8b6","system_id":"levelo_inurba_marseille","lat":43.291994,"lon":5.357886,"is_reserved":false,"is_disabled":false,"rental_uris":{"android":"levelo://app?vid=3e265e19-ee58-4810-b200-92f1aae7c8b6","ios":"levelo://app?vid=3e265e19-ee58-4810-b200-92f1aae7c8b6"},"vehicle_type_id":"4","last_reported":1685876672,"current_range_meters":10800,"station_id":"ce4bhb12rcd13ifvqel0","pricing_plan_id":"free"},{"bike_id":"e590b2fb-237f-4659-9ceb-a32ea7e48e92","system_id":"levelo_inurba_marseille","lat":43.29188,"lon":5.35802,"is_reserved":false,"is_disabled":false,"rental_uris":{"android":"levelo://app?vid=e590b2fb-237f-4659-9ceb-a32ea7e48e92","ios":"levelo://app?vid=e590b2fb-237f-4659-9ceb-a32ea7e48e92"},"vehicle_type_id":"4","last_reported":1685876672,"current_range_meters":0,"station_id":"ce4bhb12rcd13ifvqel0","pricing_plan_id":"free"},{"bike_id":"f8adf0c0-d0ef-4476-aecf-5e31309f0a18","system_id":"levelo_inurba_marseille","lat":43.289184,"lon":5.366408,"is_reserved":false,"is_disabled":false,"rental_uris":{"android":"levelo://app?vid=f8adf0c0-d0ef-4476-aecf-5e31309f0a18","ios":"levelo://app?vid=f8adf0c0-d0ef-4476-aecf-5e31309f0a18"},"vehicle_type_id":"4","last_reported":1685876672,"current_range_meters":21200,"station_id":"ce4bhap2rcd13ifvqek0","pricing_plan_id":"free"},{"bike_id":"9791fbaf-5fe1-4cd3-b336-60ca93db0943","system_id":"levelo_inurba_marseille","lat":43.289184,"lon":5.366408,"is_reserved":false,"is_disabled":false,"rental_uris":{"android":"levelo://app?vid=9791fbaf-5fe1-4cd3-b336-60ca93db0943","ios":"levelo://app?vid=9791fbaf-5fe1-4cd3-b336-60ca93db0943"},"vehicle_type_id":"4","last_reported":1685876672,"current_range_meters":23600,"station_id":"ce4bhap2rcd13ifvqek0","pricing_plan_id":"free"},{"bike_id":"26efe50c-4e11-46bf-aa1a-46b244ff9189","system_id":"levelo_inurba_marseille","lat":43.290327,"lon":5.375711,"is_reserved":false,"is_disabled":false,"rental_uris":{"android":"levelo://app?vid=26efe50c-4e11-46bf-aa1a-46b244ff9189","ios":"levelo://app?vid=26efe50c-4e11-46bf-aa1a-46b244ff9189"},"vehicle_type_id":"4","last_reported":1685876672,"current_range_meters":28800,"station_id":"ce4bh692rcd13ifvqe90","pricing_plan_id":"free"},{"bike_id":"eb8e4412-a3fa-4a69-9d75-1a8b980ed125","system_id":"levelo_inurba_marseille","lat":43.29169,"lon":5.38053,"is_reserved":false,"is_disabled":false,"rental_uris":{"android":"levelo://app?vid=eb8e4412-a3fa-4a69-9d75-1a8b980ed125","ios":"levelo://app?vid=eb8e4412-a3fa-4a69-9d75-1a8b980ed125"},"vehicle_type_id":"4","last_reported":1685876672,"current_range_meters":26800,"station_id":"","pricing_plan_id":"free"},{"bike_id":"5ef323bd-d2a7-4fd7-9683-b11ca4342699","system_id":"levelo_inurba_marseille","lat":43.294162,"lon":5.386292,"is_reserved":false,"is_disabled":false,"rental_uris":{"android":"levelo://app?vid=5ef323bd-d2a7-4fd7-9683-b11ca4342699","ios":"levelo://app?vid=5ef323bd-d2a7-4fd7-9683-b11ca4342699"},"vehicle_type_id":"4","last_reported":1685876672,"current_range_meters":11200,"station_id":"ce4bh2h2rcd13ifvqdh0","pricing_plan_id":"free"},{"bike_id":"1d5e91d1-39c8-4e74-ba09-b4ca23bc9438","system_id":"levelo_inurba_marseille","lat":43.289184,"lon":5.366408,"is_reserved":false,"is_disabled":false,"rental_uris":{"android":"levelo://app?vid=1d5e91d1-39c8-4e74-ba09-b4ca23bc9438","ios":"levelo://app?vid=1d5e91d1-39c8-4e74-ba09-b4ca23bc9438"},"vehicle_type_id":"4","last_reported":1685876672,"current_range_meters":18800,"station_id":"ce4bhap2rcd13ifvqek0","pricing_plan_id":"free"},{"bike_id":"f73005d4-7ca0-4a7d-a263-3aa8a17767ec","system_id":"levelo_inurba_marseille","lat":43.330442,"lon":5.389148,"is_reserved":false,"is_disabled":false,"rental_uris":{"android":"levelo://app?vid=f73005d4-7ca0-4a7d-a263-3aa8a17767ec","ios":"levelo://app?vid=f73005d4-7ca0-4a7d-a263-3aa8a17767ec"},"vehicle_type_id":"4","last_reported":1685876672,"current_range_meters":4000,"station_id":"ce4bhr92rcd13ifvqhrg","pricing_plan_id":"free"},{"bike_id":"ace95963-59e8-47b7-947a-1e161ad5664c","system_id":"levelo_inurba_marseille","lat":43.304274,"lon":5.397513,"is_reserved":false,"is_disabled":false,"rental_uris":{"android":"levelo://app?vid=ace95963-59e8-47b7-947a-1e161ad5664c","ios":"levelo://app?vid=ace95963-59e8-47b7-947a-1e161ad5664c"},"vehicle_type_id":"4","last_reported":1685876672,"current_range_meters":20800,"station_id":"ce4bh092rcd13ifvqd20","pricing_plan_id":"free"},{"bike_id":"0a8aba60-b51b-427d-be66-8709066b23d1","system_id":"levelo_inurba_marseille","lat":43.33263,"lon":5.38495,"is_reserved":false,"is_disabled":false,"rental_uris":{"android":"levelo://app?vid=0a8aba60-b51b-427d-be66-8709066b23d1","ios":"levelo://app?vid=0a8aba60-b51b-427d-be66-8709066b23d1"},"vehicle_type_id":"4","last_reported":1685876672,"current_range_meters":26000,"station_id":"","pricing_plan_id":"free"},{"bike_id":"0456b2c1-8a4f-4e94-ae33-a548e7711bcf","system_id":"levelo_inurba_marseille","lat":43.33041,"lon":5.38914,"is_reserved":false,"is_disabled":false,"rental_uris":{"android":"levelo://app?vid=0456b2c1-8a4f-4e94-ae33-a548e7711bcf","ios":"levelo://app?vid=0456b2c1-8a4f-4e94-ae33-a548e7711bcf"},"vehicle_type_id":"4","last_reported":1685876672,"current_range_meters":12800,"station_id":"ce4bhr92rcd13ifvqhrg","pricing_plan_id":"free"},{"bike_id":"e2b942e0-3901-4124-a71d-a8535684af38","system_id":"levelo_inurba_marseille","lat":43.33044,"lon":5.38916,"is_reserved":false,"is_disabled":false,"rental_uris":{"android":"levelo://app?vid=e2b942e0-3901-4124-a71d-a8535684af38","ios":"levelo://app?vid=e2b942e0-3901-4124-a71d-a8535684af38"},"vehicle_type_id":"4","last_reported":1685876672,"current_range_meters":26800,"station_id":"ce4bhr92rcd13ifvqhrg","pricing_plan_id":"free"},{"bike_id":"dcb00244-aef9-4eec-91cd-42ea75ebd82c","system_id":"levelo_inurba_marseille","lat":43.3305,"lon":5.3891,"is_reserved":false,"is_disabled":false,"rental_uris":{"android":"levelo://app?vid=dcb00244-aef9-4eec-91cd-42ea75ebd82c","ios":"levelo://app?vid=dcb00244-aef9-4eec-91cd-42ea75ebd82c"},"vehicle_type_id":"4","last_reported":1685876672,"current_range_meters":4400,"station_id":"ce4bhr92rcd13ifvqhrg","pricing_plan_id":"free"},{"bike_id":"2abe8fef-b53b-46af-b060-d3ed479c0d2b","system_id":"levelo_inurba_marseille","lat":43.33042,"lon":5.38923,"is_reserved":false,"is_disabled":false,"rental_uris":{"android":"levelo://app?vid=2abe8fef-b53b-46af-b060-d3ed479c0d2b","ios":"levelo://app?vid=2abe8fef-b53b-46af-b060-d3ed479c0d2b"},"vehicle_type_id":"4","last_reported":1685876672,"current_range_meters":25200,"station_id":"ce4bhr92rcd13ifvqhrg","pricing_plan_id":"free"},{"bike_id":"5eb44668-ea88-4a82-84dd-2c64de5193ca","system_id":"levelo_inurba_marseille","lat":43.290103,"lon":5.356114,"is_reserved":false,"is_disabled":false,"rental_uris":{"android":"levelo://app?vid=5eb44668-ea88-4a82-84dd-2c64de5193ca","ios":"levelo://app?vid=5eb44668-ea88-4a82-84dd-2c64de5193ca"},"vehicle_type_id":"4","last_reported":1685876672,"current_range_meters":16400,"station_id":"ce4bhb92rcd13ifvqen0","pricing_plan_id":"free"},{"bike_id":"3d4069a4-1034-48ea-9980-d454f5d874e4","system_id":"levelo_inurba_marseille","lat":43.297814,"lon":5.393513,"is_reserved":false,"is_disabled":false,"rental_uris":{"android":"levelo://app?vid=3d4069a4-1034-48ea-9980-d454f5d874e4","ios":"levelo://app?vid=3d4069a4-1034-48ea-9980-d454f5d874e4"},"vehicle_type_id":"4","last_reported":1685876672,"current_range_meters":14800,"station_id":"chh1huq6cuj3fo74tm60","pricing_plan_id":"free"},{"bike_id":"8df1914d-18f4-4b65-bc77-06023919598d","system_id":"levelo_inurba_marseille","lat":43.295169,"lon":5.390426,"is_reserved":false,"is_disabled":false,"rental_uris":{"android":"levelo://app?vid=8df1914d-18f4-4b65-bc77-06023919598d","ios":"levelo://app?vid=8df1914d-18f4-4b65-bc77-06023919598d"},"vehicle_type_id":"4","last_reported":1685876672,"current_range_meters":28800,"station_id":"ce4bh3p2rcd13ifvqdp0","pricing_plan_id":"free"},{"bike_id":"9b85f750-afa9-41e8-b48b-4af59e9d51d4","system_id":"levelo_inurba_marseille","lat":43.29519,"lon":5.3905,"is_reserved":false,"is_disabled":false,"rental_uris":{"android":"levelo://app?vid=9b85f750-afa9-41e8-b48b-4af59e9d51d4","ios":"levelo://app?vid=9b85f750-afa9-41e8-b48b-4af59e9d51d4"},"vehicle_type_id":"4","last_reported":1685876672,"current_range_meters":4000,"station_id":"ce4bh3p2rcd13ifvqdp0","pricing_plan_id":"free"},{"bike_id":"906c92d3-e27e-493a-a6d4-6f465d8a62b6","system_id":"levelo_inurba_marseille","lat":43.29022,"lon":5.38145,"is_reserved":false,"is_disabled":false,"rental_uris":{"android":"levelo://app?vid=906c92d3-e27e-493a-a6d4-6f465d8a62b6","ios":"levelo://app?vid=906c92d3-e27e-493a-a6d4-6f465d8a62b6"},"vehicle_type_id":"4","last_reported":1685876672,"current_range_meters":0,"station_id":"","pricing_plan_id":"free"},{"bike_id":"675927e0-ab95-41a0-80be-7ee111a218f5","system_id":"levelo_inurba_marseille","lat":43.3375,"lon":5.37472,"is_reserved":false,"is_disabled":false,"rental_uris":{"android":"levelo://app?vid=675927e0-ab95-41a0-80be-7ee111a218f5","ios":"levelo://app?vid=675927e0-ab95-41a0-80be-7ee111a218f5"},"vehicle_type_id":"4","last_reported":1685876672,"current_range_meters":28000,"station_id":"","pricing_plan_id":"free"},{"bike_id":"1dc2cc99-6997-4e64-abe8-10878865daff","system_id":"levelo_inurba_marseille","lat":43.30928,"lon":5.40151,"is_reserved":false,"is_disabled":false,"rental_uris":{"android":"levelo://app?vid=1dc2cc99-6997-4e64-abe8-10878865daff","ios":"levelo://app?vid=1dc2cc99-6997-4e64-abe8-10878865daff"},"vehicle_type_id":"4","last_reported":1685876672,"current_range_meters":14000,"station_id":"","pricing_plan_id":"free"},{"bike_id":"ba16ec49-2357-44a7-bfdc-ef7e3f02798d","system_id":"levelo_inurba_marseille","lat":43.306412,"lon":5.401035,"is_reserved":false,"is_disabled":false,"rental_uris":{"android":"levelo://app?vid=ba16ec49-2357-44a7-bfdc-ef7e3f02798d","ios":"levelo://app?vid=ba16ec49-2357-44a7-bfdc-ef7e3f02798d"},"vehicle_type_id":"4","last_reported":1685876672,"current_range_meters":7200,"station_id":"ce4bh112rcd13ifvqda0","pricing_plan_id":"free"},{"bike_id":"cf0caa37-cec8-408b-98f7-37211a80813c","system_id":"levelo_inurba_marseille","lat":43.33768,"lon":5.37445,"is_reserved":false,"is_disabled":false,"rental_uris":{"android":"levelo://app?vid=cf0caa37-cec8-408b-98f7-37211a80813c","ios":"levelo://app?vid=cf0caa37-cec8-408b-98f7-37211a80813c"},"vehicle_type_id":"4","last_reported":1685876672,"current_range_meters":29600,"station_id":"","pricing_plan_id":"free"},{"bike_id":"8864958e-873a-4e01-b135-8cb6f6bb01c2","system_id":"levelo_inurba_marseille","lat":43.306412,"lon":5.401035,"is_reserved":false,"is_disabled":false,"rental_uris":{"android":"levelo://app?vid=8864958e-873a-4e01-b135-8cb6f6bb01c2","ios":"levelo://app?vid=8864958e-873a-4e01-b135-8cb6f6bb01c2"},"vehicle_type_id":"4","last_reported":1685876672,"current_range_meters":5200,"station_id":"ce4bh112rcd13ifvqda0","pricing_plan_id":"free"},{"bike_id":"07285c86-7edd-4a17-b702-55705983b112","system_id":"levelo_inurba_marseille","lat":43.30642,"lon":5.401031,"is_reserved":false,"is_disabled":false,"rental_uris":{"android":"levelo://app?vid=07285c86-7edd-4a17-b702-55705983b112","ios":"levelo://app?vid=07285c86-7edd-4a17-b702-55705983b112"},"vehicle_type_id":"4","last_reported":1685876672,"current_range_meters":800,"station_id":"ce4bh112rcd13ifvqda0","pricing_plan_id":"free"},{"bike_id":"3bddbdc3-f66f-42e0-b5c2-e52ddfd1a1a2","system_id":"levelo_inurba_marseille","lat":43.306412,"lon":5.401035,"is_reserved":false,"is_disabled":false,"rental_uris":{"android":"levelo://app?vid=3bddbdc3-f66f-42e0-b5c2-e52ddfd1a1a2","ios":"levelo://app?vid=3bddbdc3-f66f-42e0-b5c2-e52ddfd1a1a2"},"vehicle_type_id":"4","last_reported":1685876672,"current_range_meters":31200,"station_id":"ce4bh112rcd13ifvqda0","pricing_plan_id":"free"},{"bike_id":"ac513268-0ebe-42c3-874d-32f8b8093ba0","system_id":"levelo_inurba_marseille","lat":43.301117,"lon":5.398795,"is_reserved":false,"is_disabled":false,"rental_uris":{"android":"levelo://app?vid=ac513268-0ebe-42c3-874d-32f8b8093ba0","ios":"levelo://app?vid=ac513268-0ebe-42c3-874d-32f8b8093ba0"},"vehicle_type_id":"4","last_reported":1685876672,"current_range_meters":31600,"station_id":"ce4bh0h2rcd13ifvqd40","pricing_plan_id":"free"},{"bike_id":"af25abb1-3851-4dbd-abce-0cc43e833be9","system_id":"levelo_inurba_marseille","lat":43.30152,"lon":5.39878,"is_reserved":false,"is_disabled":false,"rental_uris":{"android":"levelo://app?vid=af25abb1-3851-4dbd-abce-0cc43e833be9","ios":"levelo://app?vid=af25abb1-3851-4dbd-abce-0cc43e833be9"},"vehicle_type_id":"4","last_reported":1685876672,"current_range_meters":7600,"station_id":"","pricing_plan_id":"free"},{"bike_id":"b42bd667-01f4-4196-839a-a989d1a8e939","system_id":"levelo_inurba_marseille","lat":43.286591,"lon":5.363346,"is_reserved":false,"is_disabled":false,"rental_uris":{"android":"levelo://app?vid=b42bd667-01f4-4196-839a-a989d1a8e939","ios":"levelo://app?vid=b42bd667-01f4-4196-839a-a989d1a8e939"},"vehicle_type_id":"4","last_reported":1685876672,"current_range_meters":17600,"station_id":"ce4bhah2rcd13ifvqej0","pricing_plan_id":"free"},{"bike_id":"dd6eae37-bbdd-4e99-ba20-c30fa31190f9","system_id":"levelo_inurba_marseille","lat":43.286591,"lon":5.363346,"is_reserved":false,"is_disabled":false,"rental_uris":{"android":"levelo://app?vid=dd6eae37-bbdd-4e99-ba20-c30fa31190f9","ios":"levelo://app?vid=dd6eae37-bbdd-4e99-ba20-c30fa31190f9"},"vehicle_type_id":"4","last_reported":1685876672,"current_range_meters":1200,"station_id":"ce4bhah2rcd13ifvqej0","pricing_plan_id":"free"},{"bike_id":"6f10ff8f-060e-49f5-a59d-1618e63d70cc","system_id":"levelo_inurba_marseille","lat":43.29869,"lon":5.39731,"is_reserved":false,"is_disabled":false,"rental_uris":{"android":"levelo://app?vid=6f10ff8f-060e-49f5-a59d-1618e63d70cc","ios":"levelo://app?vid=6f10ff8f-060e-49f5-a59d-1618e63d70cc"},"vehicle_type_id":"4","last_reported":1685876672,"current_range_meters":28800,"station_id":"ce4bh0h2rcd13ifvqd50","pricing_plan_id":"free"},{"bike_id":"6eb3b7fb-ab79-43f9-83a1-f90eb49cff78","system_id":"levelo_inurba_marseille","lat":43.286591,"lon":5.363346,"is_reserved":false,"is_disabled":false,"rental_uris":{"android":"levelo://app?vid=6eb3b7fb-ab79-43f9-83a1-f90eb49cff78","ios":"levelo://app?vid=6eb3b7fb-ab79-43f9-83a1-f90eb49cff78"},"vehicle_type_id":"4","last_reported":1685876672,"current_range_meters":400,"station_id":"ce4bhah2rcd13ifvqej0","pricing_plan_id":"free"},{"bike_id":"9339aca1-135e-4a42-956e-cd8c14a3473a","system_id":"levelo_inurba_marseille","lat":43.286591,"lon":5.363346,"is_reserved":false,"is_disabled":false,"rental_uris":{"android":"levelo://app?vid=9339aca1-135e-4a42-956e-cd8c14a3473a","ios":"levelo://app?vid=9339aca1-135e-4a42-956e-cd8c14a3473a"},"vehicle_type_id":"4","last_reported":1685876672,"current_range_meters":27200,"station_id":"ce4bhah2rcd13ifvqej0","pricing_plan_id":"free"},{"bike_id":"f2226ab7-6d88-4a02-a59c-34cbf715355d","system_id":"levelo_inurba_marseille","lat":43.286591,"lon":5.363346,"is_reserved":false,"is_disabled":false,"rental_uris":{"android":"levelo://app?vid=f2226ab7-6d88-4a02-a59c-34cbf715355d","ios":"levelo://app?vid=f2226ab7-6d88-4a02-a59c-34cbf715355d"},"vehicle_type_id":"4","last_reported":1685876672,"current_range_meters":0,"station_id":"ce4bhah2rcd13ifvqej0","pricing_plan_id":"free"},{"bike_id":"888793a4-8da5-4089-acec-e42c0e362a69","system_id":"levelo_inurba_marseille","lat":43.302759,"lon":5.400793,"is_reserved":false,"is_disabled":false,"rental_uris":{"android":"levelo://app?vid=888793a4-8da5-4089-acec-e42c0e362a69","ios":"levelo://app?vid=888793a4-8da5-4089-acec-e42c0e362a69"},"vehicle_type_id":"4","last_reported":1685876672,"current_range_meters":17200,"station_id":"ce4bgvh2rcd13ifvqcs0","pricing_plan_id":"free"},{"bike_id":"f7bcd008-caa9-44a0-b390-2c349af2bc74","system_id":"levelo_inurba_marseille","lat":43.286039,"lon":5.370679,"is_reserved":false,"is_disabled":false,"rental_uris":{"android":"levelo://app?vid=f7bcd008-caa9-44a0-b390-2c349af2bc74","ios":"levelo://app?vid=f7bcd008-caa9-44a0-b390-2c349af2bc74"},"vehicle_type_id":"4","last_reported":1685876672,"current_range_meters":17600,"station_id":"ce4bht12rcd13ifvqi60","pricing_plan_id":"free"},{"bike_id":"709acbaf-9564-472b-af3a-b65e4411de09","system_id":"levelo_inurba_marseille","lat":43.287184,"lon":5.37937,"is_reserved":false,"is_disabled":false,"rental_uris":{"android":"levelo://app?vid=709acbaf-9564-472b-af3a-b65e4411de09","ios":"levelo://app?vid=709acbaf-9564-472b-af3a-b65e4411de09"},"vehicle_type_id":"4","last_reported":1685876672,"current_range_meters":14400,"station_id":"ce4bh9p2rcd13ifvqec0","pricing_plan_id":"free"},{"bike_id":"f200b9e7-9cb3-4154-84a4-a10fc617c864","system_id":"levelo_inurba_marseille","lat":43.30245,"lon":5.40152,"is_reserved":false,"is_disabled":false,"rental_uris":{"android":"levelo://app?vid=f200b9e7-9cb3-4154-84a4-a10fc617c864","ios":"levelo://app?vid=f200b9e7-9cb3-4154-84a4-a10fc617c864"},"vehicle_type_id":"4","last_reported":1685876672,"current_range_meters":0,"station_id":"","pricing_plan_id":"free"},{"bike_id":"7eeff333-f92a-44d5-843c-f2e248e43835","system_id":"levelo_inurba_marseille","lat":43.29992,"lon":5.40085,"is_reserved":false,"is_disabled":false,"rental_uris":{"android":"levelo://app?vid=7eeff333-f92a-44d5-843c-f2e248e43835","ios":"levelo://app?vid=7eeff333-f92a-44d5-843c-f2e248e43835"},"vehicle_type_id":"4","last_reported":1685876672,"current_range_meters":30000,"station_id":"","pricing_plan_id":"free"},{"bike_id":"624c7f97-b9c2-4be7-8a7c-92c89849910a","system_id":"levelo_inurba_marseille","lat":43.298433,"lon":5.362774,"is_reserved":false,"is_disabled":false,"rental_uris":{"android":"levelo://app?vid=624c7f97-b9c2-4be7-8a7c-92c89849910a","ios":"levelo://app?vid=624c7f97-b9c2-4be7-8a7c-92c89849910a"},"vehicle_type_id":"4","last_reported":1685876672,"current_range_meters":6400,"station_id":"ce4bgpp2rcd13ifvqc3g","pricing_plan_id":"free"},{"bike_id":"69670a0f-aa3a-4420-890c-e4cccc999324","system_id":"levelo_inurba_marseille","lat":43.284534,"lon":5.358662,"is_reserved":false,"is_disabled":false,"rental_uris":{"android":"levelo://app?vid=69670a0f-aa3a-4420-890c-e4cccc999324","ios":"levelo://app?vid=69670a0f-aa3a-4420-890c-e4cccc999324"},"vehicle_type_id":"4","last_reported":1685876672,"current_range_meters":2400,"station_id":"ce4bhah2rcd13ifvqei0","pricing_plan_id":"free"},{"bike_id":"8775a6c4-5a29-493d-9e2b-ee3e52e071b5","system_id":"levelo_inurba_marseille","lat":43.284534,"lon":5.358662,"is_reserved":false,"is_disabled":false,"rental_uris":{"android":"levelo://app?vid=8775a6c4-5a29-493d-9e2b-ee3e52e071b5","ios":"levelo://app?vid=8775a6c4-5a29-493d-9e2b-ee3e52e071b5"},"vehicle_type_id":"4","last_reported":1685876672,"current_range_meters":20000,"station_id":"ce4bhah2rcd13ifvqei0","pricing_plan_id":"free"},{"bike_id":"fea58f93-42e2-4ff0-a562-0ac0a42e23af","system_id":"levelo_inurba_marseille","lat":43.28614,"lon":5.35104,"is_reserved":false,"is_disabled":false,"rental_uris":{"android":"levelo://app?vid=fea58f93-42e2-4ff0-a562-0ac0a42e23af","ios":"levelo://app?vid=fea58f93-42e2-4ff0-a562-0ac0a42e23af"},"vehicle_type_id":"4","last_reported":1685876672,"current_range_meters":26000,"station_id":"","pricing_plan_id":"free"},{"bike_id":"edae1c16-aaf3-4cbd-881f-faa58e50c80b","system_id":"levelo_inurba_marseille","lat":43.295713,"lon":5.399639,"is_reserved":false,"is_disabled":false,"rental_uris":{"android":"levelo://app?vid=edae1c16-aaf3-4cbd-881f-faa58e50c80b","ios":"levelo://app?vid=edae1c16-aaf3-4cbd-881f-faa58e50c80b"},"vehicle_type_id":"4","last_reported":1685876672,"current_range_meters":15200,"station_id":"ce4bh312rcd13ifvqdj0","pricing_plan_id":"free"},{"bike_id":"d4ed72df-dcb6-40cc-a090-127b3ca7dacb","system_id":"levelo_inurba_marseille","lat":43.295713,"lon":5.399639,"is_reserved":false,"is_disabled":false,"rental_uris":{"android":"levelo://app?vid=d4ed72df-dcb6-40cc-a090-127b3ca7dacb","ios":"levelo://app?vid=d4ed72df-dcb6-40cc-a090-127b3ca7dacb"},"vehicle_type_id":"4","last_reported":1685876672,"current_range_meters":15600,"station_id":"ce4bh312rcd13ifvqdj0","pricing_plan_id":"free"},{"bike_id":"a9eb0a98-6404-4edd-b6c0-f4f4f7494546","system_id":"levelo_inurba_marseille","lat":43.295713,"lon":5.399639,"is_reserved":false,"is_disabled":false,"rental_uris":{"android":"levelo://app?vid=a9eb0a98-6404-4edd-b6c0-f4f4f7494546","ios":"levelo://app?vid=a9eb0a98-6404-4edd-b6c0-f4f4f7494546"},"vehicle_type_id":"4","last_reported":1685876672,"current_range_meters":16000,"station_id":"ce4bh312rcd13ifvqdj0","pricing_plan_id":"free"},{"bike_id":"2f8aadd0-a31c-4518-9758-8e02db8aa8a2","system_id":"levelo_inurba_marseille","lat":43.286595,"lon":5.386795,"is_reserved":false,"is_disabled":false,"rental_uris":{"android":"levelo://app?vid=2f8aadd0-a31c-4518-9758-8e02db8aa8a2","ios":"levelo://app?vid=2f8aadd0-a31c-4518-9758-8e02db8aa8a2"},"vehicle_type_id":"4","last_reported":1685876672,"current_range_meters":16400,"station_id":"ce4bh492rcd13ifvqdug","pricing_plan_id":"free"},{"bike_id":"9aa08e52-7275-439d-ab70-f7238a60b5a5","system_id":"levelo_inurba_marseille","lat":43.286595,"lon":5.386795,"is_reserved":false,"is_disabled":false,"rental_uris":{"android":"levelo://app?vid=9aa08e52-7275-439d-ab70-f7238a60b5a5","ios":"levelo://app?vid=9aa08e52-7275-439d-ab70-f7238a60b5a5"},"vehicle_type_id":"4","last_reported":1685876672,"current_range_meters":13600,"station_id":"ce4bh492rcd13ifvqdug","pricing_plan_id":"free"},{"bike_id":"3b93999f-e2a0-45d6-90e7-7f5294b0ea8b","system_id":"levelo_inurba_marseille","lat":43.286595,"lon":5.386795,"is_reserved":false,"is_disabled":false,"rental_uris":{"android":"levelo://app?vid=3b93999f-e2a0-45d6-90e7-7f5294b0ea8b","ios":"levelo://app?vid=3b93999f-e2a0-45d6-90e7-7f5294b0ea8b"},"vehicle_type_id":"4","last_reported":1685876672,"current_range_meters":24800,"station_id":"ce4bh492rcd13ifvqdug","pricing_plan_id":"free"},{"bike_id":"68a367d8-0e7f-4308-9393-9310dbba9749","system_id":"levelo_inurba_marseille","lat":43.286595,"lon":5.386795,"is_reserved":false,"is_disabled":false,"rental_uris":{"android":"levelo://app?vid=68a367d8-0e7f-4308-9393-9310dbba9749","ios":"levelo://app?vid=68a367d8-0e7f-4308-9393-9310dbba9749"},"vehicle_type_id":"4","last_reported":1685876672,"current_range_meters":2000,"station_id":"ce4bh492rcd13ifvqdug","pricing_plan_id":"free"},{"bike_id":"34331d41-8b96-490d-806b-646374c4552d","system_id":"levelo_inurba_marseille","lat":43.286595,"lon":5.386795,"is_reserved":false,"is_disabled":false,"rental_uris":{"android":"levelo://app?vid=34331d41-8b96-490d-806b-646374c4552d","ios":"levelo://app?vid=34331d41-8b96-490d-806b-646374c4552d"},"vehicle_type_id":"4","last_reported":1685876672,"current_range_meters":25600,"station_id":"ce4bh492rcd13ifvqdug","pricing_plan_id":"free"},{"bike_id":"427ce0d4-ef83-4123-a219-06ea3974a08b","system_id":"levelo_inurba_marseille","lat":43.28531,"lon":5.38379,"is_reserved":false,"is_disabled":false,"rental_uris":{"android":"levelo://app?vid=427ce0d4-ef83-4123-a219-06ea3974a08b","ios":"levelo://app?vid=427ce0d4-ef83-4123-a219-06ea3974a08b"},"vehicle_type_id":"4","last_reported":1685876672,"current_range_meters":24400,"station_id":"","pricing_plan_id":"free"},{"bike_id":"b205e703-9cc6-479d-b47b-dcec15459f4d","system_id":"levelo_inurba_marseille","lat":43.32654,"lon":5.40387,"is_reserved":false,"is_disabled":false,"rental_uris":{"android":"levelo://app?vid=b205e703-9cc6-479d-b47b-dcec15459f4d","ios":"levelo://app?vid=b205e703-9cc6-479d-b47b-dcec15459f4d"},"vehicle_type_id":"4","last_reported":1685876672,"current_range_meters":13600,"station_id":"","pricing_plan_id":"free"},{"bike_id":"c57755a8-7ebd-4ece-ab57-ddd6afded290","system_id":"levelo_inurba_marseille","lat":43.284793,"lon":5.384113,"is_reserved":false,"is_disabled":false,"rental_uris":{"android":"levelo://app?vid=c57755a8-7ebd-4ece-ab57-ddd6afded290","ios":"levelo://app?vid=c57755a8-7ebd-4ece-ab57-ddd6afded290"},"vehicle_type_id":"4","last_reported":1685876672,"current_range_meters":0,"station_id":"ce4bh512rcd13ifvqe3g","pricing_plan_id":"free"},{"bike_id":"d661d2a4-b48c-45b9-94f1-2aab580a9d49","system_id":"levelo_inurba_marseille","lat":43.282754,"lon":5.350519,"is_reserved":false,"is_disabled":false,"rental_uris":{"android":"levelo://app?vid=d661d2a4-b48c-45b9-94f1-2aab580a9d49","ios":"levelo://app?vid=d661d2a4-b48c-45b9-94f1-2aab580a9d49"},"vehicle_type_id":"4","last_reported":1685876672,"current_range_meters":8800,"station_id":"ce4bhbp2rcd13ifvqerg","pricing_plan_id":"free"},{"bike_id":"fb9292a9-5ea8-4e09-8bc0-886b19868bca","system_id":"levelo_inurba_marseille","lat":43.282744,"lon":5.350533,"is_reserved":false,"is_disabled":false,"rental_uris":{"android":"levelo://app?vid=fb9292a9-5ea8-4e09-8bc0-886b19868bca","ios":"levelo://app?vid=fb9292a9-5ea8-4e09-8bc0-886b19868bca"},"vehicle_type_id":"4","last_reported":1685876672,"current_range_meters":0,"station_id":"ce4bhbp2rcd13ifvqerg","pricing_plan_id":"free"},{"bike_id":"122bbf3a-dec5-4c12-beb7-3828f5c0ecb0","system_id":"levelo_inurba_marseille","lat":43.289363,"lon":5.396322,"is_reserved":false,"is_disabled":false,"rental_uris":{"android":"levelo://app?vid=122bbf3a-dec5-4c12-beb7-3828f5c0ecb0","ios":"levelo://app?vid=122bbf3a-dec5-4c12-beb7-3828f5c0ecb0"},"vehicle_type_id":"4","last_reported":1685876672,"current_range_meters":21200,"station_id":"ce4bh3h2rcd13ifvqdn0","pricing_plan_id":"free"},{"bike_id":"25e66cfc-0eda-425f-8345-1e1b33e2cb35","system_id":"levelo_inurba_marseille","lat":43.292724,"lon":5.401131,"is_reserved":false,"is_disabled":false,"rental_uris":{"android":"levelo://app?vid=25e66cfc-0eda-425f-8345-1e1b33e2cb35","ios":"levelo://app?vid=25e66cfc-0eda-425f-8345-1e1b33e2cb35"},"vehicle_type_id":"4","last_reported":1685876672,"current_range_meters":15600,"station_id":"ce4bh312rcd13ifvqdk0","pricing_plan_id":"free"},{"bike_id":"c0e09627-fc19-4f58-9abd-d5c63dc2a3ca","system_id":"levelo_inurba_marseille","lat":43.28039,"lon":5.369297,"is_reserved":false,"is_disabled":false,"rental_uris":{"android":"levelo://app?vid=c0e09627-fc19-4f58-9abd-d5c63dc2a3ca","ios":"levelo://app?vid=c0e09627-fc19-4f58-9abd-d5c63dc2a3ca"},"vehicle_type_id":"4","last_reported":1685876672,"current_range_meters":22000,"station_id":"ce4bha12rcd13ifvqef0","pricing_plan_id":"free"},{"bike_id":"51e660b4-5af6-4a69-b543-ff7c60a47188","system_id":"levelo_inurba_marseille","lat":43.28039,"lon":5.369297,"is_reserved":false,"is_disabled":false,"rental_uris":{"android":"levelo://app?vid=51e660b4-5af6-4a69-b543-ff7c60a47188","ios":"levelo://app?vid=51e660b4-5af6-4a69-b543-ff7c60a47188"},"vehicle_type_id":"4","last_reported":1685876672,"current_range_meters":14800,"station_id":"ce4bha12rcd13ifvqef0","pricing_plan_id":"free"},{"bike_id":"fbe194ad-e859-47d5-a0a7-ad284165ae43","system_id":"levelo_inurba_marseille","lat":43.28039,"lon":5.369297,"is_reserved":false,"is_disabled":false,"rental_uris":{"android":"levelo://app?vid=fbe194ad-e859-47d5-a0a7-ad284165ae43","ios":"levelo://app?vid=fbe194ad-e859-47d5-a0a7-ad284165ae43"},"vehicle_type_id":"4","last_reported":1685876672,"current_range_meters":16000,"station_id":"ce4bha12rcd13ifvqef0","pricing_plan_id":"free"},{"bike_id":"09a448cb-10d6-4887-a633-7eb257ace755","system_id":"levelo_inurba_marseille","lat":43.28039,"lon":5.369297,"is_reserved":false,"is_disabled":false,"rental_uris":{"android":"levelo://app?vid=09a448cb-10d6-4887-a633-7eb257ace755","ios":"levelo://app?vid=09a448cb-10d6-4887-a633-7eb257ace755"},"vehicle_type_id":"4","last_reported":1685876672,"current_range_meters":26800,"station_id":"ce4bha12rcd13ifvqef0","pricing_plan_id":"free"},{"bike_id":"ec63d40d-09de-4fdc-97d4-e01ced49a836","system_id":"levelo_inurba_marseille","lat":43.280382,"lon":5.369291,"is_reserved":false,"is_disabled":false,"rental_uris":{"android":"levelo://app?vid=ec63d40d-09de-4fdc-97d4-e01ced49a836","ios":"levelo://app?vid=ec63d40d-09de-4fdc-97d4-e01ced49a836"},"vehicle_type_id":"4","last_reported":1685876672,"current_range_meters":31200,"station_id":"ce4bha12rcd13ifvqef0","pricing_plan_id":"free"},{"bike_id":"c7110565-96fd-43ff-a03b-a953b7591c23","system_id":"levelo_inurba_marseille","lat":43.280382,"lon":5.369291,"is_reserved":false,"is_disabled":false,"rental_uris":{"android":"levelo://app?vid=c7110565-96fd-43ff-a03b-a953b7591c23","ios":"levelo://app?vid=c7110565-96fd-43ff-a03b-a953b7591c23"},"vehicle_type_id":"4","last_reported":1685876672,"current_range_meters":21600,"station_id":"ce4bha12rcd13ifvqef0","pricing_plan_id":"free"},{"bike_id":"3f90ac83-258f-42fb-9027-9fb9da2ce509","system_id":"levelo_inurba_marseille","lat":43.296263,"lon":5.40601,"is_reserved":false,"is_disabled":false,"rental_uris":{"android":"levelo://app?vid=3f90ac83-258f-42fb-9027-9fb9da2ce509","ios":"levelo://app?vid=3f90ac83-258f-42fb-9027-9fb9da2ce509"},"vehicle_type_id":"4","last_reported":1685876672,"current_range_meters":30400,"station_id":"ce4bh0h2rcd13ifvqd60","pricing_plan_id":"free"},{"bike_id":"47487cdc-bd2c-44ca-a604-d3d20b12e27e","system_id":"levelo_inurba_marseille","lat":43.28573,"lon":5.394992,"is_reserved":false,"is_disabled":false,"rental_uris":{"android":"levelo://app?vid=47487cdc-bd2c-44ca-a604-d3d20b12e27e","ios":"levelo://app?vid=47487cdc-bd2c-44ca-a604-d3d20b12e27e"},"vehicle_type_id":"4","last_reported":1685876672,"current_range_meters":3600,"station_id":"ce4bh292rcd13ifvqdg0","pricing_plan_id":"free"},{"bike_id":"a706ea2a-2f80-4ba9-894d-a21b3201e0bc","system_id":"levelo_inurba_marseille","lat":43.320045,"lon":5.415046,"is_reserved":false,"is_disabled":false,"rental_uris":{"android":"levelo://app?vid=a706ea2a-2f80-4ba9-894d-a21b3201e0bc","ios":"levelo://app?vid=a706ea2a-2f80-4ba9-894d-a21b3201e0bc"},"vehicle_type_id":"4","last_reported":1685876672,"current_range_meters":31200,"station_id":"ce4bhq92rcd13ifvqhkg","pricing_plan_id":"free"},{"bike_id":"9dd45f8e-779e-4940-a82e-7005357ecb61","system_id":"levelo_inurba_marseille","lat":43.320045,"lon":5.415046,"is_reserved":false,"is_disabled":false,"rental_uris":{"android":"levelo://app?vid=9dd45f8e-779e-4940-a82e-7005357ecb61","ios":"levelo://app?vid=9dd45f8e-779e-4940-a82e-7005357ecb61"},"vehicle_type_id":"4","last_reported":1685876672,"current_range_meters":31200,"station_id":"ce4bhq92rcd13ifvqhkg","pricing_plan_id":"free"},{"bike_id":"2da5e5a4-1a01-40ae-b6c2-2260b059d0ef","system_id":"levelo_inurba_marseille","lat":43.320045,"lon":5.415046,"is_reserved":false,"is_disabled":false,"rental_uris":{"android":"levelo://app?vid=2da5e5a4-1a01-40ae-b6c2-2260b059d0ef","ios":"levelo://app?vid=2da5e5a4-1a01-40ae-b6c2-2260b059d0ef"},"vehicle_type_id":"4","last_reported":1685876672,"current_range_meters":31200,"station_id":"ce4bhq92rcd13ifvqhkg","pricing_plan_id":"free"},{"bike_id":"9b0864a2-4eed-4b54-8c3c-16e492dcf29d","system_id":"levelo_inurba_marseille","lat":43.32071,"lon":5.41529,"is_reserved":false,"is_disabled":false,"rental_uris":{"android":"levelo://app?vid=9b0864a2-4eed-4b54-8c3c-16e492dcf29d","ios":"levelo://app?vid=9b0864a2-4eed-4b54-8c3c-16e492dcf29d"},"vehicle_type_id":"4","last_reported":1685876672,"current_range_meters":24800,"station_id":"","pricing_plan_id":"free"},{"bike_id":"69fd06fb-c86d-4532-9592-b3e903f20756","system_id":"levelo_inurba_marseille","lat":43.320388,"lon":5.415391,"is_reserved":false,"is_disabled":false,"rental_uris":{"android":"levelo://app?vid=69fd06fb-c86d-4532-9592-b3e903f20756","ios":"levelo://app?vid=69fd06fb-c86d-4532-9592-b3e903f20756"},"vehicle_type_id":"4","last_reported":1685876672,"current_range_meters":19200,"station_id":"","pricing_plan_id":"free"},{"bike_id":"89f41c9a-9f75-4bfa-b9e8-88fc24034e55","system_id":"levelo_inurba_marseille","lat":43.32047,"lon":5.41537,"is_reserved":false,"is_disabled":false,"rental_uris":{"android":"levelo://app?vid=89f41c9a-9f75-4bfa-b9e8-88fc24034e55","ios":"levelo://app?vid=89f41c9a-9f75-4bfa-b9e8-88fc24034e55"},"vehicle_type_id":"4","last_reported":1685876672,"current_range_meters":28800,"station_id":"","pricing_plan_id":"free"},{"bike_id":"87f89cef-e83d-4e70-9805-b26f81a054ea","system_id":"levelo_inurba_marseille","lat":43.299579,"lon":5.413255,"is_reserved":false,"is_disabled":false,"rental_uris":{"android":"levelo://app?vid=87f89cef-e83d-4e70-9805-b26f81a054ea","ios":"levelo://app?vid=87f89cef-e83d-4e70-9805-b26f81a054ea"},"vehicle_type_id":"4","last_reported":1685876672,"current_range_meters":31200,"station_id":"ce4bhp12rcd13ifvqh9g","pricing_plan_id":"free"},{"bike_id":"8f583682-bb3f-4a61-94d0-accd616865d0","system_id":"levelo_inurba_marseille","lat":43.32063,"lon":5.4154,"is_reserved":false,"is_disabled":false,"rental_uris":{"android":"levelo://app?vid=8f583682-bb3f-4a61-94d0-accd616865d0","ios":"levelo://app?vid=8f583682-bb3f-4a61-94d0-accd616865d0"},"vehicle_type_id":"4","last_reported":1685876672,"current_range_meters":18400,"station_id":"","pricing_plan_id":"free"},{"bike_id":"d0af90bf-a9d6-4e0a-bb03-ec3a7c4a21ff","system_id":"levelo_inurba_marseille","lat":43.320045,"lon":5.415046,"is_reserved":false,"is_disabled":false,"rental_uris":{"android":"levelo://app?vid=d0af90bf-a9d6-4e0a-bb03-ec3a7c4a21ff","ios":"levelo://app?vid=d0af90bf-a9d6-4e0a-bb03-ec3a7c4a21ff"},"vehicle_type_id":"4","last_reported":1685876672,"current_range_meters":31200,"station_id":"ce4bhq92rcd13ifvqhkg","pricing_plan_id":"free"},{"bike_id":"bb1a3551-3882-4160-b708-148ec7de5e54","system_id":"levelo_inurba_marseille","lat":43.32038,"lon":5.41549,"is_reserved":false,"is_disabled":false,"rental_uris":{"android":"levelo://app?vid=bb1a3551-3882-4160-b708-148ec7de5e54","ios":"levelo://app?vid=bb1a3551-3882-4160-b708-148ec7de5e54"},"vehicle_type_id":"4","last_reported":1685876672,"current_range_meters":27600,"station_id":"","pricing_plan_id":"free"},{"bike_id":"15292a35-debd-4d55-ab66-e14fe147b2b9","system_id":"levelo_inurba_marseille","lat":43.320045,"lon":5.415046,"is_reserved":false,"is_disabled":false,"rental_uris":{"android":"levelo://app?vid=15292a35-debd-4d55-ab66-e14fe147b2b9","ios":"levelo://app?vid=15292a35-debd-4d55-ab66-e14fe147b2b9"},"vehicle_type_id":"4","last_reported":1685876672,"current_range_meters":31200,"station_id":"ce4bhq92rcd13ifvqhkg","pricing_plan_id":"free"},{"bike_id":"94888bef-8553-4da3-b9a2-441ae92b1bf5","system_id":"levelo_inurba_marseille","lat":43.32043,"lon":5.4155,"is_reserved":false,"is_disabled":false,"rental_uris":{"android":"levelo://app?vid=94888bef-8553-4da3-b9a2-441ae92b1bf5","ios":"levelo://app?vid=94888bef-8553-4da3-b9a2-441ae92b1bf5"},"vehicle_type_id":"4","last_reported":1685876672,"current_range_meters":28800,"station_id":"","pricing_plan_id":"free"},{"bike_id":"dc0e41a2-03bd-4767-ac81-da228ae1b8b5","system_id":"levelo_inurba_marseille","lat":43.32022,"lon":5.41557,"is_reserved":false,"is_disabled":false,"rental_uris":{"android":"levelo://app?vid=dc0e41a2-03bd-4767-ac81-da228ae1b8b5","ios":"levelo://app?vid=dc0e41a2-03bd-4767-ac81-da228ae1b8b5"},"vehicle_type_id":"4","last_reported":1685876672,"current_range_meters":15600,"station_id":"","pricing_plan_id":"free"},{"bike_id":"85080033-a16e-4ce2-a186-35d0563746cb","system_id":"levelo_inurba_marseille","lat":43.320045,"lon":5.415046,"is_reserved":false,"is_disabled":false,"rental_uris":{"android":"levelo://app?vid=85080033-a16e-4ce2-a186-35d0563746cb","ios":"levelo://app?vid=85080033-a16e-4ce2-a186-35d0563746cb"},"vehicle_type_id":"4","last_reported":1685876672,"current_range_meters":30000,"station_id":"ce4bhq92rcd13ifvqhkg","pricing_plan_id":"free"},{"bike_id":"ae6cf5cf-9fd5-42c0-8466-eb012fc96d25","system_id":"levelo_inurba_marseille","lat":43.320045,"lon":5.415046,"is_reserved":false,"is_disabled":false,"rental_uris":{"android":"levelo://app?vid=ae6cf5cf-9fd5-42c0-8466-eb012fc96d25","ios":"levelo://app?vid=ae6cf5cf-9fd5-42c0-8466-eb012fc96d25"},"vehicle_type_id":"4","last_reported":1685876672,"current_range_meters":31200,"station_id":"ce4bhq92rcd13ifvqhkg","pricing_plan_id":"free"},{"bike_id":"69e386d1-7433-4cdc-b124-41af3fb6143d","system_id":"levelo_inurba_marseille","lat":43.32036,"lon":5.41563,"is_reserved":false,"is_disabled":false,"rental_uris":{"android":"levelo://app?vid=69e386d1-7433-4cdc-b124-41af3fb6143d","ios":"levelo://app?vid=69e386d1-7433-4cdc-b124-41af3fb6143d"},"vehicle_type_id":"4","last_reported":1685876672,"current_range_meters":28400,"station_id":"","pricing_plan_id":"free"},{"bike_id":"162f783d-5834-4465-97fd-ba71b3182bf5","system_id":"levelo_inurba_marseille","lat":43.320045,"lon":5.415046,"is_reserved":false,"is_disabled":false,"rental_uris":{"android":"levelo://app?vid=162f783d-5834-4465-97fd-ba71b3182bf5","ios":"levelo://app?vid=162f783d-5834-4465-97fd-ba71b3182bf5"},"vehicle_type_id":"4","last_reported":1685876672,"current_range_meters":31200,"station_id":"ce4bhq92rcd13ifvqhkg","pricing_plan_id":"free"},{"bike_id":"3c811563-1140-4095-9fa7-28db9ea729d8","system_id":"levelo_inurba_marseille","lat":43.32048,"lon":5.41561,"is_reserved":false,"is_disabled":false,"rental_uris":{"android":"levelo://app?vid=3c811563-1140-4095-9fa7-28db9ea729d8","ios":"levelo://app?vid=3c811563-1140-4095-9fa7-28db9ea729d8"},"vehicle_type_id":"4","last_reported":1685876672,"current_range_meters":28800,"station_id":"","pricing_plan_id":"free"},{"bike_id":"02b1a7ea-7b44-40cd-ba44-b50ec278a767","system_id":"levelo_inurba_marseille","lat":43.320336,"lon":5.415704,"is_reserved":false,"is_disabled":false,"rental_uris":{"android":"levelo://app?vid=02b1a7ea-7b44-40cd-ba44-b50ec278a767","ios":"levelo://app?vid=02b1a7ea-7b44-40cd-ba44-b50ec278a767"},"vehicle_type_id":"4","last_reported":1685876672,"current_range_meters":12800,"station_id":"","pricing_plan_id":"free"},{"bike_id":"7cf9dd9a-71a0-4e88-97b5-00af8373e36d","system_id":"levelo_inurba_marseille","lat":43.279742,"lon":5.38744,"is_reserved":false,"is_disabled":false,"rental_uris":{"android":"levelo://app?vid=7cf9dd9a-71a0-4e88-97b5-00af8373e36d","ios":"levelo://app?vid=7cf9dd9a-71a0-4e88-97b5-00af8373e36d"},"vehicle_type_id":"4","last_reported":1685876672,"current_range_meters":22800,"station_id":"ce4bhg12rcd13ifvqf80","pricing_plan_id":"free"},{"bike_id":"bc4dc0e7-b26e-44c4-b47d-2893123703b2","system_id":"levelo_inurba_marseille","lat":43.320045,"lon":5.415046,"is_reserved":false,"is_disabled":false,"rental_uris":{"android":"levelo://app?vid=bc4dc0e7-b26e-44c4-b47d-2893123703b2","ios":"levelo://app?vid=bc4dc0e7-b26e-44c4-b47d-2893123703b2"},"vehicle_type_id":"4","last_reported":1685876672,"current_range_meters":31200,"station_id":"ce4bhq92rcd13ifvqhkg","pricing_plan_id":"free"},{"bike_id":"0c739346-4d08-4d79-a607-c879a11b59ec","system_id":"levelo_inurba_marseille","lat":43.320045,"lon":5.415046,"is_reserved":false,"is_disabled":false,"rental_uris":{"android":"levelo://app?vid=0c739346-4d08-4d79-a607-c879a11b59ec","ios":"levelo://app?vid=0c739346-4d08-4d79-a607-c879a11b59ec"},"vehicle_type_id":"4","last_reported":1685876672,"current_range_meters":30000,"station_id":"ce4bhq92rcd13ifvqhkg","pricing_plan_id":"free"},{"bike_id":"8fca35ff-3e18-4f8c-b8df-a77920280dc1","system_id":"levelo_inurba_marseille","lat":43.279742,"lon":5.38744,"is_reserved":false,"is_disabled":false,"rental_uris":{"android":"levelo://app?vid=8fca35ff-3e18-4f8c-b8df-a77920280dc1","ios":"levelo://app?vid=8fca35ff-3e18-4f8c-b8df-a77920280dc1"},"vehicle_type_id":"4","last_reported":1685876672,"current_range_meters":9200,"station_id":"ce4bhg12rcd13ifvqf80","pricing_plan_id":"free"},{"bike_id":"781b2f7b-81ba-4c34-9163-b045dafe359c","system_id":"levelo_inurba_marseille","lat":43.320045,"lon":5.415046,"is_reserved":false,"is_disabled":false,"rental_uris":{"android":"levelo://app?vid=781b2f7b-81ba-4c34-9163-b045dafe359c","ios":"levelo://app?vid=781b2f7b-81ba-4c34-9163-b045dafe359c"},"vehicle_type_id":"4","last_reported":1685876672,"current_range_meters":31200,"station_id":"ce4bhq92rcd13ifvqhkg","pricing_plan_id":"free"},{"bike_id":"2c14cda1-afff-497c-9564-a70dedfe34b4","system_id":"levelo_inurba_marseille","lat":43.303837,"lon":5.418724,"is_reserved":false,"is_disabled":false,"rental_uris":{"android":"levelo://app?vid=2c14cda1-afff-497c-9564-a70dedfe34b4","ios":"levelo://app?vid=2c14cda1-afff-497c-9564-a70dedfe34b4"},"vehicle_type_id":"4","last_reported":1685876672,"current_range_meters":23600,"station_id":"ce4bhop2rcd13ifvqh7g","pricing_plan_id":"free"},{"bike_id":"8fa90514-a048-49ba-8596-f6b86e1780ed","system_id":"levelo_inurba_marseille","lat":43.303837,"lon":5.418724,"is_reserved":false,"is_disabled":false,"rental_uris":{"android":"levelo://app?vid=8fa90514-a048-49ba-8596-f6b86e1780ed","ios":"levelo://app?vid=8fa90514-a048-49ba-8596-f6b86e1780ed"},"vehicle_type_id":"4","last_reported":1685876672,"current_range_meters":22400,"station_id":"ce4bhop2rcd13ifvqh7g","pricing_plan_id":"free"},{"bike_id":"660d6d14-23ec-4cc0-895f-2e83e4b46c94","system_id":"levelo_inurba_marseille","lat":43.30356,"lon":5.41882,"is_reserved":false,"is_disabled":false,"rental_uris":{"android":"levelo://app?vid=660d6d14-23ec-4cc0-895f-2e83e4b46c94","ios":"levelo://app?vid=660d6d14-23ec-4cc0-895f-2e83e4b46c94"},"vehicle_type_id":"4","last_reported":1685876672,"current_range_meters":0,"station_id":"","pricing_plan_id":"free"},{"bike_id":"2cafdd55-b911-44b8-8f87-c847d4b46672","system_id":"levelo_inurba_marseille","lat":43.273613,"lon":5.362705,"is_reserved":false,"is_disabled":false,"rental_uris":{"android":"levelo://app?vid=2cafdd55-b911-44b8-8f87-c847d4b46672","ios":"levelo://app?vid=2cafdd55-b911-44b8-8f87-c847d4b46672"},"vehicle_type_id":"4","last_reported":1685876672,"current_range_meters":10000,"station_id":"ce4bhbh2rcd13ifvqeo0","pricing_plan_id":"free"},{"bike_id":"05c2154b-7a25-4e96-988d-8f64c7505b13","system_id":"levelo_inurba_marseille","lat":43.273613,"lon":5.362705,"is_reserved":false,"is_disabled":false,"rental_uris":{"android":"levelo://app?vid=05c2154b-7a25-4e96-988d-8f64c7505b13","ios":"levelo://app?vid=05c2154b-7a25-4e96-988d-8f64c7505b13"},"vehicle_type_id":"4","last_reported":1685876672,"current_range_meters":16800,"station_id":"ce4bhbh2rcd13ifvqeo0","pricing_plan_id":"free"},{"bike_id":"0c62c9cf-4412-4128-b996-6af6f89c8e78","system_id":"levelo_inurba_marseille","lat":43.273613,"lon":5.362705,"is_reserved":false,"is_disabled":false,"rental_uris":{"android":"levelo://app?vid=0c62c9cf-4412-4128-b996-6af6f89c8e78","ios":"levelo://app?vid=0c62c9cf-4412-4128-b996-6af6f89c8e78"},"vehicle_type_id":"4","last_reported":1685876672,"current_range_meters":28000,"station_id":"ce4bhbh2rcd13ifvqeo0","pricing_plan_id":"free"},{"bike_id":"ff688b1c-d688-4b00-af5e-989449ed5eff","system_id":"levelo_inurba_marseille","lat":43.27566,"lon":5.38426,"is_reserved":false,"is_disabled":false,"rental_uris":{"android":"levelo://app?vid=ff688b1c-d688-4b00-af5e-989449ed5eff","ios":"levelo://app?vid=ff688b1c-d688-4b00-af5e-989449ed5eff"},"vehicle_type_id":"4","last_reported":1685876672,"current_range_meters":21200,"station_id":"","pricing_plan_id":"free"},{"bike_id":"449eeb59-bd7e-4175-860b-36c5840ef090","system_id":"levelo_inurba_marseille","lat":43.336134,"lon":5.410341,"is_reserved":false,"is_disabled":false,"rental_uris":{"android":"levelo://app?vid=449eeb59-bd7e-4175-860b-36c5840ef090","ios":"levelo://app?vid=449eeb59-bd7e-4175-860b-36c5840ef090"},"vehicle_type_id":"4","last_reported":1685876672,"current_range_meters":31200,"station_id":"ce4bhqh2rcd13ifvqhmg","pricing_plan_id":"free"},{"bike_id":"9908a2eb-cceb-4359-b2f6-31b6ef3dee84","system_id":"levelo_inurba_marseille","lat":43.275243,"lon":5.384237,"is_reserved":false,"is_disabled":false,"rental_uris":{"android":"levelo://app?vid=9908a2eb-cceb-4359-b2f6-31b6ef3dee84","ios":"levelo://app?vid=9908a2eb-cceb-4359-b2f6-31b6ef3dee84"},"vehicle_type_id":"4","last_reported":1685876672,"current_range_meters":22400,"station_id":"ce4bhe12rcd13ifvqf30","pricing_plan_id":"free"},{"bike_id":"2c6a46ce-5902-4760-8d3c-3f4e8d73ad0d","system_id":"levelo_inurba_marseille","lat":43.3172,"lon":5.42396,"is_reserved":false,"is_disabled":false,"rental_uris":{"android":"levelo://app?vid=2c6a46ce-5902-4760-8d3c-3f4e8d73ad0d","ios":"levelo://app?vid=2c6a46ce-5902-4760-8d3c-3f4e8d73ad0d"},"vehicle_type_id":"4","last_reported":1685876672,"current_range_meters":27600,"station_id":"ce4bhp92rcd13ifvqhbg","pricing_plan_id":"free"},{"bike_id":"e59acce4-3c30-4b53-8515-ded770fac2b5","system_id":"levelo_inurba_marseille","lat":43.310785,"lon":5.424305,"is_reserved":false,"is_disabled":false,"rental_uris":{"android":"levelo://app?vid=e59acce4-3c30-4b53-8515-ded770fac2b5","ios":"levelo://app?vid=e59acce4-3c30-4b53-8515-ded770fac2b5"},"vehicle_type_id":"4","last_reported":1685876672,"current_range_meters":20000,"station_id":"ce4bhp92rcd13ifvqhag","pricing_plan_id":"free"},{"bike_id":"4b6abb05-97dd-47d8-814e-64a11f515fb0","system_id":"levelo_inurba_marseille","lat":43.310785,"lon":5.424305,"is_reserved":false,"is_disabled":false,"rental_uris":{"android":"levelo://app?vid=4b6abb05-97dd-47d8-814e-64a11f515fb0","ios":"levelo://app?vid=4b6abb05-97dd-47d8-814e-64a11f515fb0"},"vehicle_type_id":"4","last_reported":1685876672,"current_range_meters":3600,"station_id":"ce4bhp92rcd13ifvqhag","pricing_plan_id":"free"},{"bike_id":"5ece0c99-05fb-4472-88c9-7861d6ab4033","system_id":"levelo_inurba_marseille","lat":43.310785,"lon":5.424305,"is_reserved":false,"is_disabled":false,"rental_uris":{"android":"levelo://app?vid=5ece0c99-05fb-4472-88c9-7861d6ab4033","ios":"levelo://app?vid=5ece0c99-05fb-4472-88c9-7861d6ab4033"},"vehicle_type_id":"4","last_reported":1685876672,"current_range_meters":27600,"station_id":"ce4bhp92rcd13ifvqhag","pricing_plan_id":"free"},{"bike_id":"9db9545d-f63d-42be-a674-9c25625f916b","system_id":"levelo_inurba_marseille","lat":43.2938,"lon":5.41913,"is_reserved":false,"is_disabled":false,"rental_uris":{"android":"levelo://app?vid=9db9545d-f63d-42be-a674-9c25625f916b","ios":"levelo://app?vid=9db9545d-f63d-42be-a674-9c25625f916b"},"vehicle_type_id":"4","last_reported":1685876672,"current_range_meters":8400,"station_id":"","pricing_plan_id":"free"},{"bike_id":"4d80717c-1ab1-4ff1-8e16-4b8981f90281","system_id":"levelo_inurba_marseille","lat":43.32825,"lon":5.42145,"is_reserved":false,"is_disabled":false,"rental_uris":{"android":"levelo://app?vid=4d80717c-1ab1-4ff1-8e16-4b8981f90281","ios":"levelo://app?vid=4d80717c-1ab1-4ff1-8e16-4b8981f90281"},"vehicle_type_id":"4","last_reported":1685876672,"current_range_meters":26800,"station_id":"","pricing_plan_id":"free"},{"bike_id":"9755abb0-c5e8-4353-8eef-283522f568b0","system_id":"levelo_inurba_marseille","lat":43.27322,"lon":5.39069,"is_reserved":false,"is_disabled":false,"rental_uris":{"android":"levelo://app?vid=9755abb0-c5e8-4353-8eef-283522f568b0","ios":"levelo://app?vid=9755abb0-c5e8-4353-8eef-283522f568b0"},"vehicle_type_id":"4","last_reported":1685876672,"current_range_meters":22000,"station_id":"ce4bhgp2rcd13ifvqfe0","pricing_plan_id":"free"},{"bike_id":"79f6d899-7a86-4db8-a63e-bed945f58802","system_id":"levelo_inurba_marseille","lat":43.304096,"lon":5.425385,"is_reserved":false,"is_disabled":false,"rental_uris":{"android":"levelo://app?vid=79f6d899-7a86-4db8-a63e-bed945f58802","ios":"levelo://app?vid=79f6d899-7a86-4db8-a63e-bed945f58802"},"vehicle_type_id":"4","last_reported":1685876672,"current_range_meters":1600,"station_id":"ce4bhoh2rcd13ifvqh6g","pricing_plan_id":"free"},{"bike_id":"86ed3ac6-ddda-449e-b8cd-6cccd66b7b6b","system_id":"levelo_inurba_marseille","lat":43.304096,"lon":5.425385,"is_reserved":false,"is_disabled":false,"rental_uris":{"android":"levelo://app?vid=86ed3ac6-ddda-449e-b8cd-6cccd66b7b6b","ios":"levelo://app?vid=86ed3ac6-ddda-449e-b8cd-6cccd66b7b6b"},"vehicle_type_id":"4","last_reported":1685876672,"current_range_meters":7600,"station_id":"ce4bhoh2rcd13ifvqh6g","pricing_plan_id":"free"},{"bike_id":"d935f588-bf1a-4b68-aadc-8cbb0c944436","system_id":"levelo_inurba_marseille","lat":43.304096,"lon":5.425385,"is_reserved":false,"is_disabled":false,"rental_uris":{"android":"levelo://app?vid=d935f588-bf1a-4b68-aadc-8cbb0c944436","ios":"levelo://app?vid=d935f588-bf1a-4b68-aadc-8cbb0c944436"},"vehicle_type_id":"4","last_reported":1685876672,"current_range_meters":22000,"station_id":"ce4bhoh2rcd13ifvqh6g","pricing_plan_id":"free"},{"bike_id":"7c88a96f-2f62-4c0d-b595-394c20932d71","system_id":"levelo_inurba_marseille","lat":43.295523,"lon":5.422926,"is_reserved":false,"is_disabled":false,"rental_uris":{"android":"levelo://app?vid=7c88a96f-2f62-4c0d-b595-394c20932d71","ios":"levelo://app?vid=7c88a96f-2f62-4c0d-b595-394c20932d71"},"vehicle_type_id":"4","last_reported":1685876672,"current_range_meters":21200,"station_id":"ce4bhph2rcd13ifvqhdg","pricing_plan_id":"free"},{"bike_id":"b8291e34-a018-4a91-b327-8865332a5191","system_id":"levelo_inurba_marseille","lat":43.272124,"lon":5.391768,"is_reserved":false,"is_disabled":false,"rental_uris":{"android":"levelo://app?vid=b8291e34-a018-4a91-b327-8865332a5191","ios":"levelo://app?vid=b8291e34-a018-4a91-b327-8865332a5191"},"vehicle_type_id":"4","last_reported":1685876672,"current_range_meters":24000,"station_id":"ce4bhhp2rcd13ifvqfm0","pricing_plan_id":"free"},{"bike_id":"4def2708-8605-4bd6-820d-89df216b69a6","system_id":"levelo_inurba_marseille","lat":43.272116,"lon":5.391763,"is_reserved":false,"is_disabled":false,"rental_uris":{"android":"levelo://app?vid=4def2708-8605-4bd6-820d-89df216b69a6","ios":"levelo://app?vid=4def2708-8605-4bd6-820d-89df216b69a6"},"vehicle_type_id":"4","last_reported":1685876672,"current_range_meters":12400,"station_id":"ce4bhhp2rcd13ifvqfm0","pricing_plan_id":"free"},{"bike_id":"6c00ef64-c4af-4207-afcc-d20ef4cb903f","system_id":"levelo_inurba_marseille","lat":43.272116,"lon":5.391763,"is_reserved":false,"is_disabled":false,"rental_uris":{"android":"levelo://app?vid=6c00ef64-c4af-4207-afcc-d20ef4cb903f","ios":"levelo://app?vid=6c00ef64-c4af-4207-afcc-d20ef4cb903f"},"vehicle_type_id":"4","last_reported":1685876672,"current_range_meters":8400,"station_id":"ce4bhhp2rcd13ifvqfm0","pricing_plan_id":"free"},{"bike_id":"85f41dc4-488f-4d3d-beec-36e005035462","system_id":"levelo_inurba_marseille","lat":43.272116,"lon":5.391763,"is_reserved":false,"is_disabled":false,"rental_uris":{"android":"levelo://app?vid=85f41dc4-488f-4d3d-beec-36e005035462","ios":"levelo://app?vid=85f41dc4-488f-4d3d-beec-36e005035462"},"vehicle_type_id":"4","last_reported":1685876672,"current_range_meters":13200,"station_id":"ce4bhhp2rcd13ifvqfm0","pricing_plan_id":"free"},{"bike_id":"fb4546d5-5dd5-465a-ac1e-91ab0e73f84e","system_id":"levelo_inurba_marseille","lat":43.272124,"lon":5.391768,"is_reserved":false,"is_disabled":false,"rental_uris":{"android":"levelo://app?vid=fb4546d5-5dd5-465a-ac1e-91ab0e73f84e","ios":"levelo://app?vid=fb4546d5-5dd5-465a-ac1e-91ab0e73f84e"},"vehicle_type_id":"4","last_reported":1685876672,"current_range_meters":17600,"station_id":"ce4bhhp2rcd13ifvqfm0","pricing_plan_id":"free"},{"bike_id":"6c87dbf2-3a58-4ae0-b200-8e1da33a9c17","system_id":"levelo_inurba_marseille","lat":43.272124,"lon":5.391768,"is_reserved":false,"is_disabled":false,"rental_uris":{"android":"levelo://app?vid=6c87dbf2-3a58-4ae0-b200-8e1da33a9c17","ios":"levelo://app?vid=6c87dbf2-3a58-4ae0-b200-8e1da33a9c17"},"vehicle_type_id":"4","last_reported":1685876672,"current_range_meters":5600,"station_id":"ce4bhhp2rcd13ifvqfm0","pricing_plan_id":"free"},{"bike_id":"03529ac8-f6df-4476-9ff6-f6fa44fd33ae","system_id":"levelo_inurba_marseille","lat":43.272118,"lon":5.391758,"is_reserved":false,"is_disabled":false,"rental_uris":{"android":"levelo://app?vid=03529ac8-f6df-4476-9ff6-f6fa44fd33ae","ios":"levelo://app?vid=03529ac8-f6df-4476-9ff6-f6fa44fd33ae"},"vehicle_type_id":"4","last_reported":1685876672,"current_range_meters":20800,"station_id":"ce4bhhp2rcd13ifvqfm0","pricing_plan_id":"free"},{"bike_id":"50d71410-be43-42cd-98a6-0841422a35cf","system_id":"levelo_inurba_marseille","lat":43.272116,"lon":5.391747,"is_reserved":false,"is_disabled":false,"rental_uris":{"android":"levelo://app?vid=50d71410-be43-42cd-98a6-0841422a35cf","ios":"levelo://app?vid=50d71410-be43-42cd-98a6-0841422a35cf"},"vehicle_type_id":"4","last_reported":1685876672,"current_range_meters":0,"station_id":"ce4bhhp2rcd13ifvqfm0","pricing_plan_id":"free"},{"bike_id":"d6797ea4-733a-4961-b05e-8a5feaca5cdf","system_id":"levelo_inurba_marseille","lat":43.272116,"lon":5.391747,"is_reserved":false,"is_disabled":false,"rental_uris":{"android":"levelo://app?vid=d6797ea4-733a-4961-b05e-8a5feaca5cdf","ios":"levelo://app?vid=d6797ea4-733a-4961-b05e-8a5feaca5cdf"},"vehicle_type_id":"4","last_reported":1685876672,"current_range_meters":14400,"station_id":"ce4bhhp2rcd13ifvqfm0","pricing_plan_id":"free"},{"bike_id":"477c9b24-a1bd-4af2-9e3a-7a10b9af13d1","system_id":"levelo_inurba_marseille","lat":43.31705,"lon":5.43324,"is_reserved":false,"is_disabled":false,"rental_uris":{"android":"levelo://app?vid=477c9b24-a1bd-4af2-9e3a-7a10b9af13d1","ios":"levelo://app?vid=477c9b24-a1bd-4af2-9e3a-7a10b9af13d1"},"vehicle_type_id":"4","last_reported":1685876672,"current_range_meters":0,"station_id":"","pricing_plan_id":"free"},{"bike_id":"f85d126b-e407-425e-8f17-1d4b1b34b061","system_id":"levelo_inurba_marseille","lat":43.27992,"lon":5.41658,"is_reserved":false,"is_disabled":false,"rental_uris":{"android":"levelo://app?vid=f85d126b-e407-425e-8f17-1d4b1b34b061","ios":"levelo://app?vid=f85d126b-e407-425e-8f17-1d4b1b34b061"},"vehicle_type_id":"4","last_reported":1685876672,"current_range_meters":22800,"station_id":"ce4bho12rcd13ifvqh1g","pricing_plan_id":"free"},{"bike_id":"57143554-6bd2-4ac3-a9a3-581bc0ed1a91","system_id":"levelo_inurba_marseille","lat":43.27996,"lon":5.416624,"is_reserved":false,"is_disabled":false,"rental_uris":{"android":"levelo://app?vid=57143554-6bd2-4ac3-a9a3-581bc0ed1a91","ios":"levelo://app?vid=57143554-6bd2-4ac3-a9a3-581bc0ed1a91"},"vehicle_type_id":"4","last_reported":1685876672,"current_range_meters":26800,"station_id":"ce4bho12rcd13ifvqh1g","pricing_plan_id":"free"},{"bike_id":"162bbf76-93f1-405e-9171-692f46f54a80","system_id":"levelo_inurba_marseille","lat":43.27993,"lon":5.41661,"is_reserved":false,"is_disabled":false,"rental_uris":{"android":"levelo://app?vid=162bbf76-93f1-405e-9171-692f46f54a80","ios":"levelo://app?vid=162bbf76-93f1-405e-9171-692f46f54a80"},"vehicle_type_id":"4","last_reported":1685876672,"current_range_meters":19200,"station_id":"ce4bho12rcd13ifvqh1g","pricing_plan_id":"free"},{"bike_id":"47f9f9ed-249a-439d-b417-2e62e3013491","system_id":"levelo_inurba_marseille","lat":43.27996,"lon":5.416624,"is_reserved":false,"is_disabled":false,"rental_uris":{"android":"levelo://app?vid=47f9f9ed-249a-439d-b417-2e62e3013491","ios":"levelo://app?vid=47f9f9ed-249a-439d-b417-2e62e3013491"},"vehicle_type_id":"4","last_reported":1685876672,"current_range_meters":30000,"station_id":"ce4bho12rcd13ifvqh1g","pricing_plan_id":"free"},{"bike_id":"b557ba17-de7e-4403-86b9-baf4bf48ed1b","system_id":"levelo_inurba_marseille","lat":43.27984,"lon":5.41661,"is_reserved":false,"is_disabled":false,"rental_uris":{"android":"levelo://app?vid=b557ba17-de7e-4403-86b9-baf4bf48ed1b","ios":"levelo://app?vid=b557ba17-de7e-4403-86b9-baf4bf48ed1b"},"vehicle_type_id":"4","last_reported":1685876672,"current_range_meters":29600,"station_id":"ce4bho12rcd13ifvqh1g","pricing_plan_id":"free"},{"bike_id":"3da936d0-d36c-416a-9c8b-ffa15c6e5529","system_id":"levelo_inurba_marseille","lat":43.267966,"lon":5.393976,"is_reserved":false,"is_disabled":false,"rental_uris":{"android":"levelo://app?vid=3da936d0-d36c-416a-9c8b-ffa15c6e5529","ios":"levelo://app?vid=3da936d0-d36c-416a-9c8b-ffa15c6e5529"},"vehicle_type_id":"4","last_reported":1685876672,"current_range_meters":21600,"station_id":"ce4bhh12rcd13ifvqfg0","pricing_plan_id":"free"},{"bike_id":"c6e71792-da5c-4287-abf6-1eb2863a2a84","system_id":"levelo_inurba_marseille","lat":43.267966,"lon":5.393976,"is_reserved":false,"is_disabled":false,"rental_uris":{"android":"levelo://app?vid=c6e71792-da5c-4287-abf6-1eb2863a2a84","ios":"levelo://app?vid=c6e71792-da5c-4287-abf6-1eb2863a2a84"},"vehicle_type_id":"4","last_reported":1685876672,"current_range_meters":28800,"station_id":"ce4bhh12rcd13ifvqfg0","pricing_plan_id":"free"},{"bike_id":"60a5d7cd-da5e-4e9c-9074-887c09cd39a9","system_id":"levelo_inurba_marseille","lat":43.267966,"lon":5.393976,"is_reserved":false,"is_disabled":false,"rental_uris":{"android":"levelo://app?vid=60a5d7cd-da5e-4e9c-9074-887c09cd39a9","ios":"levelo://app?vid=60a5d7cd-da5e-4e9c-9074-887c09cd39a9"},"vehicle_type_id":"4","last_reported":1685876672,"current_range_meters":16400,"station_id":"ce4bhh12rcd13ifvqfg0","pricing_plan_id":"free"},{"bike_id":"9b028610-6fa9-4032-9e3d-7b6ddaafdbf2","system_id":"levelo_inurba_marseille","lat":43.30793,"lon":5.43527,"is_reserved":false,"is_disabled":false,"rental_uris":{"android":"levelo://app?vid=9b028610-6fa9-4032-9e3d-7b6ddaafdbf2","ios":"levelo://app?vid=9b028610-6fa9-4032-9e3d-7b6ddaafdbf2"},"vehicle_type_id":"4","last_reported":1685876672,"current_range_meters":22800,"station_id":"","pricing_plan_id":"free"},{"bike_id":"2bc36e8d-06f1-44be-a05c-7b46eae24054","system_id":"levelo_inurba_marseille","lat":43.317104,"lon":5.436818,"is_reserved":false,"is_disabled":false,"rental_uris":{"android":"levelo://app?vid=2bc36e8d-06f1-44be-a05c-7b46eae24054","ios":"levelo://app?vid=2bc36e8d-06f1-44be-a05c-7b46eae24054"},"vehicle_type_id":"4","last_reported":1685876672,"current_range_meters":31600,"station_id":"ce4bhp92rcd13ifvqhcg","pricing_plan_id":"free"},{"bike_id":"2a48043e-0223-418b-bf9b-d91374083f1f","system_id":"levelo_inurba_marseille","lat":43.317104,"lon":5.436818,"is_reserved":false,"is_disabled":false,"rental_uris":{"android":"levelo://app?vid=2a48043e-0223-418b-bf9b-d91374083f1f","ios":"levelo://app?vid=2a48043e-0223-418b-bf9b-d91374083f1f"},"vehicle_type_id":"4","last_reported":1685876672,"current_range_meters":25600,"station_id":"ce4bhp92rcd13ifvqhcg","pricing_plan_id":"free"},{"bike_id":"60f8bcc3-24e7-46ad-b6fa-f62478203115","system_id":"levelo_inurba_marseille","lat":43.317104,"lon":5.436818,"is_reserved":false,"is_disabled":false,"rental_uris":{"android":"levelo://app?vid=60f8bcc3-24e7-46ad-b6fa-f62478203115","ios":"levelo://app?vid=60f8bcc3-24e7-46ad-b6fa-f62478203115"},"vehicle_type_id":"4","last_reported":1685876672,"current_range_meters":29600,"station_id":"ce4bhp92rcd13ifvqhcg","pricing_plan_id":"free"},{"bike_id":"34ba6cc8-2bdb-4948-97a3-9696e103b856","system_id":"levelo_inurba_marseille","lat":43.271388,"lon":5.409269,"is_reserved":false,"is_disabled":false,"rental_uris":{"android":"levelo://app?vid=34ba6cc8-2bdb-4948-97a3-9696e103b856","ios":"levelo://app?vid=34ba6cc8-2bdb-4948-97a3-9696e103b856"},"vehicle_type_id":"4","last_reported":1685876672,"current_range_meters":30000,"station_id":"ce4bhl12rcd13ifvqgf0","pricing_plan_id":"free"},{"bike_id":"cd44746c-1052-455b-9cfb-f7ffcb49b35f","system_id":"levelo_inurba_marseille","lat":43.2681,"lon":5.40274,"is_reserved":false,"is_disabled":false,"rental_uris":{"android":"levelo://app?vid=cd44746c-1052-455b-9cfb-f7ffcb49b35f","ios":"levelo://app?vid=cd44746c-1052-455b-9cfb-f7ffcb49b35f"},"vehicle_type_id":"4","last_reported":1685876672,"current_range_meters":0,"station_id":"ce501612rcd8frsf0b60","pricing_plan_id":"free"},{"bike_id":"8a8c415d-1eed-4682-b462-3cd3372ab10b","system_id":"levelo_inurba_marseille","lat":43.267959,"lon":5.402687,"is_reserved":false,"is_disabled":false,"rental_uris":{"android":"levelo://app?vid=8a8c415d-1eed-4682-b462-3cd3372ab10b","ios":"levelo://app?vid=8a8c415d-1eed-4682-b462-3cd3372ab10b"},"vehicle_type_id":"4","last_reported":1685876672,"current_range_meters":25200,"station_id":"ce501612rcd8frsf0b60","pricing_plan_id":"free"},{"bike_id":"77647678-4277-4541-aa04-4b890d8d3dd3","system_id":"levelo_inurba_marseille","lat":43.267959,"lon":5.402685,"is_reserved":false,"is_disabled":false,"rental_uris":{"android":"levelo://app?vid=77647678-4277-4541-aa04-4b890d8d3dd3","ios":"levelo://app?vid=77647678-4277-4541-aa04-4b890d8d3dd3"},