{"last_updated":1700608013,"ttl":30,"version":"2.2","data":{"bikes":[{"bike_id":"452d0500-0114-4433-86a9-63d9b0ac3b65","system_id":"levelo_inurba_marseille","lat":43.313391,"lon":5.36706,"is_reserved":false,"is_disabled":false,"rental_uris":{"android":"levelo://app?vid=452d0500-0114-4433-86a9-63d9b0ac3b65","ios":"levelo://app?vid=452d0500-0114-4433-86a9-63d9b0ac3b65"},"vehicle_type_id":"4","last_reported":1700608013,"current_range_meters":29600,"station_id":"ce4bgr92rcd13ifvqc6g","pricing_plan_id":"free"},{"bike_id":"9287ebcd-15be-4598-af60-a950959562a0","system_id":"levelo_inurba_marseille","lat":43.312239,"lon":5.368562,"is_reserved":false,"is_disabled":false,"rental_uris":{"android":"levelo://app?vid=9287ebcd-15be-4598-af60-a950959562a0","ios":"levelo://app?vid=9287ebcd-15be-4598-af60-a950959562a0"},"vehicle_type_id":"4","last_reported":1700608013,"current_range_meters":6800,"station_id":"ce4bgl92rcd13ifvqbq0","pricing_plan_id":"free"},{"bike_id":"8edbf2d4-c498-48e5-9656-b32fb4d46fed","system_id":"levelo_inurba_marseille","lat":43.312239,"lon":5.368562,"is_reserved":false,"is_disabled":false,"rental_uris":{"android":"levelo://app?vid=8edbf2d4-c498-48e5-9656-b32fb4d46fed","ios":"levelo://app?vid=8edbf2d4-c498-48e5-9656-b32fb4d46fed"},"vehicle_type_id":"4","last_reported":1700608013,"current_range_meters":25200,"station_id":"ce4bgl92rcd13ifvqbq0","pricing_plan_id":"free"},{"bike_id":"b32d8c7a-e17e-4e1c-a8b4-11b257a32eab","system_id":"levelo_inurba_marseille","lat":43.312239,"lon":5.368562,"is_reserved":false,"is_disabled":false,"rental_uris":{"android":"levelo://app?vid=b32d8c7a-e17e-4e1c-a8b4-11b257a32eab","ios":"levelo://app?vid=b32d8c7a-e17e-4e1c-a8b4-11b257a32eab"},"vehicle_type_id":"4","last_reported":1700608013,"current_range_meters":16000,"station_id":"ce4bgl92rcd13ifvqbq0","pricing_plan_id":"free"},{"bike_id":"2fdc401a-d27a-4758-9c91-920dd7748296","system_id":"levelo_inurba_marseille","lat":43.312239,"lon":5.368562,"is_reserved":false,"is_disabled":false,"rental_uris":{"android":"levelo://app?vid=2fdc401a-d27a-4758-9c91-920dd7748296","ios":"levelo://app?vid=2fdc401a-d27a-4758-9c91-920dd7748296"},"vehicle_type_id":"4","last_reported":1700608013,"current_range_meters":19600,"station_id":"ce4bgl92rcd13ifvqbq0","pricing_plan_id":"free"},{"bike_id":"eeef4dbc-7602-4f26-b2c1-c3771c9b5dae","system_id":"levelo_inurba_marseille","lat":43.3115,"lon":5.36889,"is_reserved":false,"is_disabled":false,"rental_uris":{"android":"levelo://app?vid=eeef4dbc-7602-4f26-b2c1-c3771c9b5dae","ios":"levelo://app?vid=eeef4dbc-7602-4f26-b2c1-c3771c9b5dae"},"vehicle_type_id":"4","last_reported":1700608013,"current_range_meters":0,"station_id":"","pricing_plan_id":"free"},{"bike_id":"c1778491-e63e-400f-9d76-1a6d4f2f4e90","system_id":"levelo_inurba_marseille","lat":43.314811,"lon":5.373103,"is_reserved":false,"is_disabled":false,"rental_uris":{"android":"levelo://app?vid=c1778491-e63e-400f-9d76-1a6d4f2f4e90","ios":"levelo://app?vid=c1778491-e63e-400f-9d76-1a6d4f2f4e90"},"vehicle_type_id":"4","last_reported":1700608013,"current_range_meters":9600,"station_id":"ce4bgt12rcd13ifvqcd0","pricing_plan_id":"free"},{"bike_id":"e8bbfcb1-bbae-4ac2-96a6-1c5eebe175f6","system_id":"levelo_inurba_marseille","lat":43.314811,"lon":5.373103,"is_reserved":false,"is_disabled":false,"rental_uris":{"android":"levelo://app?vid=e8bbfcb1-bbae-4ac2-96a6-1c5eebe175f6","ios":"levelo://app?vid=e8bbfcb1-bbae-4ac2-96a6-1c5eebe175f6"},"vehicle_type_id":"4","last_reported":1700608013,"current_range_meters":23200,"station_id":"ce4bgt12rcd13ifvqcd0","pricing_plan_id":"free"},{"bike_id":"e9737a6a-c768-4b39-b286-9f0ea50268ea","system_id":"levelo_inurba_marseille","lat":43.314811,"lon":5.373104,"is_reserved":false,"is_disabled":false,"rental_uris":{"android":"levelo://app?vid=e9737a6a-c768-4b39-b286-9f0ea50268ea","ios":"levelo://app?vid=e9737a6a-c768-4b39-b286-9f0ea50268ea"},"vehicle_type_id":"4","last_reported":1700608013,"current_range_meters":12800,"station_id":"ce4bgt12rcd13ifvqcd0","pricing_plan_id":"free"},{"bike_id":"bb4db2ae-5128-49ba-9109-0e27e8a8c6e6","system_id":"levelo_inurba_marseille","lat":43.309039,"lon":5.371797,"is_reserved":false,"is_disabled":false,"rental_uris":{"android":"levelo://app?vid=bb4db2ae-5128-49ba-9109-0e27e8a8c6e6","ios":"levelo://app?vid=bb4db2ae-5128-49ba-9109-0e27e8a8c6e6"},"vehicle_type_id":"4","last_reported":1700608013,"current_range_meters":6800,"station_id":"ce4bguh2rcd13ifvqckg","pricing_plan_id":"free"},{"bike_id":"2bc311dc-da0b-403e-8cae-84f8764bc67c","system_id":"levelo_inurba_marseille","lat":43.30679,"lon":5.3679,"is_reserved":false,"is_disabled":false,"rental_uris":{"android":"levelo://app?vid=2bc311dc-da0b-403e-8cae-84f8764bc67c","ios":"levelo://app?vid=2bc311dc-da0b-403e-8cae-84f8764bc67c"},"vehicle_type_id":"4","last_reported":1700608013,"current_range_meters":1600,"station_id":"","pricing_plan_id":"free"},{"bike_id":"790d8068-0ca3-4ee2-ac94-5b1995eb78d3","system_id":"levelo_inurba_marseille","lat":43.319631,"lon":5.370533,"is_reserved":false,"is_disabled":false,"rental_uris":{"android":"levelo://app?vid=790d8068-0ca3-4ee2-ac94-5b1995eb78d3","ios":"levelo://app?vid=790d8068-0ca3-4ee2-ac94-5b1995eb78d3"},"vehicle_type_id":"4","last_reported":1700608013,"current_range_meters":0,"station_id":"","pricing_plan_id":"free"},{"bike_id":"89db5ab1-631a-4788-bcf8-d5e1560619c3","system_id":"levelo_inurba_marseille","lat":43.305989,"lon":5.37225,"is_reserved":false,"is_disabled":false,"rental_uris":{"android":"levelo://app?vid=89db5ab1-631a-4788-bcf8-d5e1560619c3","ios":"levelo://app?vid=89db5ab1-631a-4788-bcf8-d5e1560619c3"},"vehicle_type_id":"4","last_reported":1700608013,"current_range_meters":17600,"station_id":"ce4bgqh2rcd13ifvqc4g","pricing_plan_id":"free"},{"bike_id":"bb2bfbcb-eaed-460c-8340-65b8c0a995f2","system_id":"levelo_inurba_marseille","lat":43.305989,"lon":5.37225,"is_reserved":false,"is_disabled":false,"rental_uris":{"android":"levelo://app?vid=bb2bfbcb-eaed-460c-8340-65b8c0a995f2","ios":"levelo://app?vid=bb2bfbcb-eaed-460c-8340-65b8c0a995f2"},"vehicle_type_id":"4","last_reported":1700608013,"current_range_meters":22800,"station_id":"ce4bgqh2rcd13ifvqc4g","pricing_plan_id":"free"},{"bike_id":"e7652eea-828e-4488-ada7-41545981d433","system_id":"levelo_inurba_marseille","lat":43.305989,"lon":5.37225,"is_reserved":false,"is_disabled":false,"rental_uris":{"android":"levelo://app?vid=e7652eea-828e-4488-ada7-41545981d433","ios":"levelo://app?vid=e7652eea-828e-4488-ada7-41545981d433"},"vehicle_type_id":"4","last_reported":1700608013,"current_range_meters":25200,"station_id":"ce4bgqh2rcd13ifvqc4g","pricing_plan_id":"free"},{"bike_id":"becd60c2-af99-4693-9537-74284e313a72","system_id":"levelo_inurba_marseille","lat":43.311125,"lon":5.377624,"is_reserved":false,"is_disabled":false,"rental_uris":{"android":"levelo://app?vid=becd60c2-af99-4693-9537-74284e313a72","ios":"levelo://app?vid=becd60c2-af99-4693-9537-74284e313a72"},"vehicle_type_id":"4","last_reported":1700608013,"current_range_meters":21600,"station_id":"ce4bgt92rcd13ifvqcg0","pricing_plan_id":"free"},{"bike_id":"eaa43a0b-5056-42f3-886f-f3ae58f961aa","system_id":"levelo_inurba_marseille","lat":43.311125,"lon":5.377624,"is_reserved":false,"is_disabled":false,"rental_uris":{"android":"levelo://app?vid=eaa43a0b-5056-42f3-886f-f3ae58f961aa","ios":"levelo://app?vid=eaa43a0b-5056-42f3-886f-f3ae58f961aa"},"vehicle_type_id":"4","last_reported":1700608013,"current_range_meters":30000,"station_id":"ce4bgt92rcd13ifvqcg0","pricing_plan_id":"free"},{"bike_id":"cf206130-73d5-49c7-bb79-d9d5864fb487","system_id":"levelo_inurba_marseille","lat":43.311144,"lon":5.377722,"is_reserved":false,"is_disabled":false,"rental_uris":{"android":"levelo://app?vid=cf206130-73d5-49c7-bb79-d9d5864fb487","ios":"levelo://app?vid=cf206130-73d5-49c7-bb79-d9d5864fb487"},"vehicle_type_id":"4","last_reported":1700608013,"current_range_meters":22800,"station_id":"ce4bgt92rcd13ifvqcg0","pricing_plan_id":"free"},{"bike_id":"06284047-1e80-4933-bc3c-a8606f20a4a9","system_id":"levelo_inurba_marseille","lat":43.308181,"lon":5.376553,"is_reserved":false,"is_disabled":false,"rental_uris":{"android":"levelo://app?vid=06284047-1e80-4933-bc3c-a8606f20a4a9","ios":"levelo://app?vid=06284047-1e80-4933-bc3c-a8606f20a4a9"},"vehicle_type_id":"4","last_reported":1700608013,"current_range_meters":18400,"station_id":"ce4bgv92rcd13ifvqcq0","pricing_plan_id":"free"},{"bike_id":"062b335d-abb8-4a60-8451-39007cb58897","system_id":"levelo_inurba_marseille","lat":43.307945,"lon":5.376487,"is_reserved":false,"is_disabled":false,"rental_uris":{"android":"levelo://app?vid=062b335d-abb8-4a60-8451-39007cb58897","ios":"levelo://app?vid=062b335d-abb8-4a60-8451-39007cb58897"},"vehicle_type_id":"4","last_reported":1700608013,"current_range_meters":16000,"station_id":"ce4bgv92rcd13ifvqcq0","pricing_plan_id":"free"},{"bike_id":"07b3c161-e357-43af-bcf7-eee5965b408d","system_id":"levelo_inurba_marseille","lat":43.307945,"lon":5.376487,"is_reserved":false,"is_disabled":false,"rental_uris":{"android":"levelo://app?vid=07b3c161-e357-43af-bcf7-eee5965b408d","ios":"levelo://app?vid=07b3c161-e357-43af-bcf7-eee5965b408d"},"vehicle_type_id":"4","last_reported":1700608013,"current_range_meters":15600,"station_id":"ce4bgv92rcd13ifvqcq0","pricing_plan_id":"free"},{"bike_id":"0327687b-f51e-4077-bf49-2ec73a6de092","system_id":"levelo_inurba_marseille","lat":43.322331,"lon":5.375581,"is_reserved":false,"is_disabled":false,"rental_uris":{"android":"levelo://app?vid=0327687b-f51e-4077-bf49-2ec73a6de092","ios":"levelo://app?vid=0327687b-f51e-4077-bf49-2ec73a6de092"},"vehicle_type_id":"4","last_reported":1700608013,"current_range_meters":18800,"station_id":"","pricing_plan_id":"free"},{"bike_id":"02029300-6e86-46dc-9d58-86eee0a0e8e6","system_id":"levelo_inurba_marseille","lat":43.30798,"lon":5.3815,"is_reserved":false,"is_disabled":false,"rental_uris":{"android":"levelo://app?vid=02029300-6e86-46dc-9d58-86eee0a0e8e6","ios":"levelo://app?vid=02029300-6e86-46dc-9d58-86eee0a0e8e6"},"vehicle_type_id":"4","last_reported":1700608013,"current_range_meters":0,"station_id":"ce4bgt12rcd13ifvqce0","pricing_plan_id":"free"},{"bike_id":"95c99d2a-5710-4b85-a3a4-85afeb6b644e","system_id":"levelo_inurba_marseille","lat":43.308012,"lon":5.381511,"is_reserved":false,"is_disabled":false,"rental_uris":{"android":"levelo://app?vid=95c99d2a-5710-4b85-a3a4-85afeb6b644e","ios":"levelo://app?vid=95c99d2a-5710-4b85-a3a4-85afeb6b644e"},"vehicle_type_id":"4","last_reported":1700608013,"current_range_meters":0,"station_id":"ce4bgt12rcd13ifvqce0","pricing_plan_id":"free"},{"bike_id":"9228ac2c-515c-4b28-9e78-7d51b484165d","system_id":"levelo_inurba_marseille","lat":43.308012,"lon":5.381511,"is_reserved":false,"is_disabled":false,"rental_uris":{"android":"levelo://app?vid=9228ac2c-515c-4b28-9e78-7d51b484165d","ios":"levelo://app?vid=9228ac2c-515c-4b28-9e78-7d51b484165d"},"vehicle_type_id":"4","last_reported":1700608013,"current_range_meters":26000,"station_id":"ce4bgt12rcd13ifvqce0","pricing_plan_id":"free"},{"bike_id":"3b8c06f7-c389-4cd1-91ab-043ba837e953","system_id":"levelo_inurba_marseille","lat":43.308012,"lon":5.381511,"is_reserved":false,"is_disabled":false,"rental_uris":{"android":"levelo://app?vid=3b8c06f7-c389-4cd1-91ab-043ba837e953","ios":"levelo://app?vid=3b8c06f7-c389-4cd1-91ab-043ba837e953"},"vehicle_type_id":"4","last_reported":1700608013,"current_range_meters":22800,"station_id":"ce4bgt12rcd13ifvqce0","pricing_plan_id":"free"},{"bike_id":"a037806c-504f-410e-8380-5102d23eea79","system_id":"levelo_inurba_marseille","lat":43.324771,"lon":5.36557,"is_reserved":false,"is_disabled":false,"rental_uris":{"android":"levelo://app?vid=a037806c-504f-410e-8380-5102d23eea79","ios":"levelo://app?vid=a037806c-504f-410e-8380-5102d23eea79"},"vehicle_type_id":"4","last_reported":1700608013,"current_range_meters":29200,"station_id":"ce4bhs12rcd13ifvqhvg","pricing_plan_id":"free"},{"bike_id":"afa921fc-ca50-4532-aeb1-1de14ee2fe50","system_id":"levelo_inurba_marseille","lat":43.324775,"lon":5.365608,"is_reserved":false,"is_disabled":false,"rental_uris":{"android":"levelo://app?vid=afa921fc-ca50-4532-aeb1-1de14ee2fe50","ios":"levelo://app?vid=afa921fc-ca50-4532-aeb1-1de14ee2fe50"},"vehicle_type_id":"4","last_reported":1700608013,"current_range_meters":24400,"station_id":"ce4bhs12rcd13ifvqhvg","pricing_plan_id":"free"},{"bike_id":"2b4dd0bf-5899-4155-9d8b-cf5abbf0a68b","system_id":"levelo_inurba_marseille","lat":43.302784,"lon":5.377158,"is_reserved":false,"is_disabled":false,"rental_uris":{"android":"levelo://app?vid=2b4dd0bf-5899-4155-9d8b-cf5abbf0a68b","ios":"levelo://app?vid=2b4dd0bf-5899-4155-9d8b-cf5abbf0a68b"},"vehicle_type_id":"4","last_reported":1700608013,"current_range_meters":21200,"station_id":"ce4bguh2rcd13ifvqcj0","pricing_plan_id":"free"},{"bike_id":"4b4fe3d7-722a-45a1-81fc-9a019167f268","system_id":"levelo_inurba_marseille","lat":43.319925,"lon":5.381401,"is_reserved":false,"is_disabled":false,"rental_uris":{"android":"levelo://app?vid=4b4fe3d7-722a-45a1-81fc-9a019167f268","ios":"levelo://app?vid=4b4fe3d7-722a-45a1-81fc-9a019167f268"},"vehicle_type_id":"4","last_reported":1700608013,"current_range_meters":24400,"station_id":"ce4bhr12rcd13ifvqhpg","pricing_plan_id":"free"},{"bike_id":"510d0105-b866-48bb-8bdb-59b0079c0d7a","system_id":"levelo_inurba_marseille","lat":43.31991,"lon":5.38147,"is_reserved":false,"is_disabled":false,"rental_uris":{"android":"levelo://app?vid=510d0105-b866-48bb-8bdb-59b0079c0d7a","ios":"levelo://app?vid=510d0105-b866-48bb-8bdb-59b0079c0d7a"},"vehicle_type_id":"4","last_reported":1700608013,"current_range_meters":25200,"station_id":"ce4bhr12rcd13ifvqhpg","pricing_plan_id":"free"},{"bike_id":"b6bef19b-9ba8-4d51-8b70-c38bf53a3315","system_id":"levelo_inurba_marseille","lat":43.319949,"lon":5.381473,"is_reserved":false,"is_disabled":false,"rental_uris":{"android":"levelo://app?vid=b6bef19b-9ba8-4d51-8b70-c38bf53a3315","ios":"levelo://app?vid=b6bef19b-9ba8-4d51-8b70-c38bf53a3315"},"vehicle_type_id":"4","last_reported":1700608013,"current_range_meters":9200,"station_id":"ce4bhr12rcd13ifvqhpg","pricing_plan_id":"free"},{"bike_id":"b4e7e8a5-429b-4fa9-b969-621639380068","system_id":"levelo_inurba_marseille","lat":43.313571,"lon":5.384829,"is_reserved":false,"is_disabled":false,"rental_uris":{"android":"levelo://app?vid=b4e7e8a5-429b-4fa9-b969-621639380068","ios":"levelo://app?vid=b4e7e8a5-429b-4fa9-b969-621639380068"},"vehicle_type_id":"4","last_reported":1700608013,"current_range_meters":20800,"station_id":"ce4bgt92rcd13ifvqcf0","pricing_plan_id":"free"},{"bike_id":"60b2ded0-d1a7-45db-9839-4414089d9055","system_id":"levelo_inurba_marseille","lat":43.313571,"lon":5.384829,"is_reserved":false,"is_disabled":false,"rental_uris":{"android":"levelo://app?vid=60b2ded0-d1a7-45db-9839-4414089d9055","ios":"levelo://app?vid=60b2ded0-d1a7-45db-9839-4414089d9055"},"vehicle_type_id":"4","last_reported":1700608013,"current_range_meters":31600,"station_id":"ce4bgt92rcd13ifvqcf0","pricing_plan_id":"free"},{"bike_id":"d44db64d-89f3-4e22-bc23-cdbd9c34a2b1","system_id":"levelo_inurba_marseille","lat":43.313571,"lon":5.384829,"is_reserved":false,"is_disabled":false,"rental_uris":{"android":"levelo://app?vid=d44db64d-89f3-4e22-bc23-cdbd9c34a2b1","ios":"levelo://app?vid=d44db64d-89f3-4e22-bc23-cdbd9c34a2b1"},"vehicle_type_id":"4","last_reported":1700608013,"current_range_meters":25600,"station_id":"ce4bgt92rcd13ifvqcf0","pricing_plan_id":"free"},{"bike_id":"75dbf869-f2eb-4cfe-aa7b-56dd6192ae47","system_id":"levelo_inurba_marseille","lat":43.299222,"lon":5.365554,"is_reserved":false,"is_disabled":false,"rental_uris":{"android":"levelo://app?vid=75dbf869-f2eb-4cfe-aa7b-56dd6192ae47","ios":"levelo://app?vid=75dbf869-f2eb-4cfe-aa7b-56dd6192ae47"},"vehicle_type_id":"4","last_reported":1700608013,"current_range_meters":0,"station_id":"ce4bgm92rcd13ifvqbr0","pricing_plan_id":"free"},{"bike_id":"15bc37da-d11a-48c3-835a-63060e5705e8","system_id":"levelo_inurba_marseille","lat":43.29973,"lon":5.37171,"is_reserved":false,"is_disabled":false,"rental_uris":{"android":"levelo://app?vid=15bc37da-d11a-48c3-835a-63060e5705e8","ios":"levelo://app?vid=15bc37da-d11a-48c3-835a-63060e5705e8"},"vehicle_type_id":"4","last_reported":1700608013,"current_range_meters":7600,"station_id":"ce4bgr92rcd13ifvqc7g","pricing_plan_id":"free"},{"bike_id":"9b94c62a-91f4-40aa-93a7-a8e7d759ccd4","system_id":"levelo_inurba_marseille","lat":43.305364,"lon":5.384119,"is_reserved":false,"is_disabled":false,"rental_uris":{"android":"levelo://app?vid=9b94c62a-91f4-40aa-93a7-a8e7d759ccd4","ios":"levelo://app?vid=9b94c62a-91f4-40aa-93a7-a8e7d759ccd4"},"vehicle_type_id":"4","last_reported":1700608013,"current_range_meters":25600,"station_id":"ce4bgg92rcd13ifvqb30","pricing_plan_id":"free"},{"bike_id":"f1e3122c-c537-4567-b52c-5990aabd6653","system_id":"levelo_inurba_marseille","lat":43.299243,"lon":5.37481,"is_reserved":false,"is_disabled":false,"rental_uris":{"android":"levelo://app?vid=f1e3122c-c537-4567-b52c-5990aabd6653","ios":"levelo://app?vid=f1e3122c-c537-4567-b52c-5990aabd6653"},"vehicle_type_id":"4","last_reported":1700608013,"current_range_meters":20400,"station_id":"ce4bgjh2rcd13ifvqbg0","pricing_plan_id":"free"},{"bike_id":"572a0db2-7ee4-49e3-bc13-bd5516e5135f","system_id":"levelo_inurba_marseille","lat":43.31173,"lon":5.38712,"is_reserved":false,"is_disabled":false,"rental_uris":{"android":"levelo://app?vid=572a0db2-7ee4-49e3-bc13-bd5516e5135f","ios":"levelo://app?vid=572a0db2-7ee4-49e3-bc13-bd5516e5135f"},"vehicle_type_id":"4","last_reported":1700608013,"current_range_meters":24800,"station_id":"ce4bgv12rcd13ifvqcp0","pricing_plan_id":"free"},{"bike_id":"b4d19ff5-b46b-4e12-b086-e4d4ac4c72fc","system_id":"levelo_inurba_marseille","lat":43.311722,"lon":5.387247,"is_reserved":false,"is_disabled":false,"rental_uris":{"android":"levelo://app?vid=b4d19ff5-b46b-4e12-b086-e4d4ac4c72fc","ios":"levelo://app?vid=b4d19ff5-b46b-4e12-b086-e4d4ac4c72fc"},"vehicle_type_id":"4","last_reported":1700608013,"current_range_meters":24400,"station_id":"ce4bgv12rcd13ifvqcp0","pricing_plan_id":"free"},{"bike_id":"134b0f9f-7d93-4cd9-89be-a38c5e0f8770","system_id":"levelo_inurba_marseille","lat":43.31181,"lon":5.38721,"is_reserved":false,"is_disabled":false,"rental_uris":{"android":"levelo://app?vid=134b0f9f-7d93-4cd9-89be-a38c5e0f8770","ios":"levelo://app?vid=134b0f9f-7d93-4cd9-89be-a38c5e0f8770"},"vehicle_type_id":"4","last_reported":1700608013,"current_range_meters":23200,"station_id":"ce4bgv12rcd13ifvqcp0","pricing_plan_id":"free"},{"bike_id":"fa9d0a30-5ff5-4db8-88cb-95e64695ccc9","system_id":"levelo_inurba_marseille","lat":43.311722,"lon":5.387247,"is_reserved":false,"is_disabled":false,"rental_uris":{"android":"levelo://app?vid=fa9d0a30-5ff5-4db8-88cb-95e64695ccc9","ios":"levelo://app?vid=fa9d0a30-5ff5-4db8-88cb-95e64695ccc9"},"vehicle_type_id":"4","last_reported":1700608013,"current_range_meters":10000,"station_id":"ce4bgv12rcd13ifvqcp0","pricing_plan_id":"free"},{"bike_id":"fba27455-dee1-4b26-877d-b9bd46efd025","system_id":"levelo_inurba_marseille","lat":43.311722,"lon":5.387247,"is_reserved":false,"is_disabled":false,"rental_uris":{"android":"levelo://app?vid=fba27455-dee1-4b26-877d-b9bd46efd025","ios":"levelo://app?vid=fba27455-dee1-4b26-877d-b9bd46efd025"},"vehicle_type_id":"4","last_reported":1700608013,"current_range_meters":19600,"station_id":"ce4bgv12rcd13ifvqcp0","pricing_plan_id":"free"},{"bike_id":"02e5d19a-9e76-457a-89b5-da160f5a5ac3","system_id":"levelo_inurba_marseille","lat":43.322872,"lon":5.382756,"is_reserved":false,"is_disabled":false,"rental_uris":{"android":"levelo://app?vid=02e5d19a-9e76-457a-89b5-da160f5a5ac3","ios":"levelo://app?vid=02e5d19a-9e76-457a-89b5-da160f5a5ac3"},"vehicle_type_id":"4","last_reported":1700608013,"current_range_meters":26800,"station_id":"ce4bhr12rcd13ifvqhqg","pricing_plan_id":"free"},{"bike_id":"fb594123-193c-4ab2-aed3-df8f690c0992","system_id":"levelo_inurba_marseille","lat":43.2968,"lon":5.37291,"is_reserved":false,"is_disabled":false,"rental_uris":{"android":"levelo://app?vid=fb594123-193c-4ab2-aed3-df8f690c0992","ios":"levelo://app?vid=fb594123-193c-4ab2-aed3-df8f690c0992"},"vehicle_type_id":"4","last_reported":1700608013,"current_range_meters":30800,"station_id":"ce4bgk12rcd13ifvqbj0","pricing_plan_id":"free"},{"bike_id":"2e0636b9-27d4-4deb-94cf-9c8e48b5d7eb","system_id":"levelo_inurba_marseille","lat":43.29605,"lon":5.367827,"is_reserved":false,"is_disabled":false,"rental_uris":{"android":"levelo://app?vid=2e0636b9-27d4-4deb-94cf-9c8e48b5d7eb","ios":"levelo://app?vid=2e0636b9-27d4-4deb-94cf-9c8e48b5d7eb"},"vehicle_type_id":"4","last_reported":1700608013,"current_range_meters":15600,"station_id":"","pricing_plan_id":"free"},{"bike_id":"639e48e8-2458-4464-bedc-6e2d1d707370","system_id":"levelo_inurba_marseille","lat":43.296935,"lon":5.376544,"is_reserved":false,"is_disabled":false,"rental_uris":{"android":"levelo://app?vid=639e48e8-2458-4464-bedc-6e2d1d707370","ios":"levelo://app?vid=639e48e8-2458-4464-bedc-6e2d1d707370"},"vehicle_type_id":"4","last_reported":1700608013,"current_range_meters":7200,"station_id":"ce4bgkh2rcd13ifvqbl0","pricing_plan_id":"free"},{"bike_id":"3b090d5e-89d4-4e9a-98bc-2ca9ddcd46fc","system_id":"levelo_inurba_marseille","lat":43.299028,"lon":5.381509,"is_reserved":false,"is_disabled":false,"rental_uris":{"android":"levelo://app?vid=3b090d5e-89d4-4e9a-98bc-2ca9ddcd46fc","ios":"levelo://app?vid=3b090d5e-89d4-4e9a-98bc-2ca9ddcd46fc"},"vehicle_type_id":"4","last_reported":1700608013,"current_range_meters":15600,"station_id":"ce4bgj12rcd13ifvqbc0","pricing_plan_id":"free"},{"bike_id":"9fb402a7-7a41-4473-81d2-1fec663a6035","system_id":"levelo_inurba_marseille","lat":43.305576,"lon":5.388694,"is_reserved":false,"is_disabled":false,"rental_uris":{"android":"levelo://app?vid=9fb402a7-7a41-4473-81d2-1fec663a6035","ios":"levelo://app?vid=9fb402a7-7a41-4473-81d2-1fec663a6035"},"vehicle_type_id":"4","last_reported":1700608013,"current_range_meters":27600,"station_id":"","pricing_plan_id":"free"},{"bike_id":"f5687d22-4f10-4dd8-8227-485b35abf619","system_id":"levelo_inurba_marseille","lat":43.317557,"lon":5.390173,"is_reserved":false,"is_disabled":false,"rental_uris":{"android":"levelo://app?vid=f5687d22-4f10-4dd8-8227-485b35abf619","ios":"levelo://app?vid=f5687d22-4f10-4dd8-8227-485b35abf619"},"vehicle_type_id":"4","last_reported":1700608013,"current_range_meters":23200,"station_id":"ce4bhqp2rcd13ifvqhng","pricing_plan_id":"free"},{"bike_id":"79dacdf6-a1f2-4eb4-8209-f5e43bda8af7","system_id":"levelo_inurba_marseille","lat":43.317557,"lon":5.390173,"is_reserved":false,"is_disabled":false,"rental_uris":{"android":"levelo://app?vid=79dacdf6-a1f2-4eb4-8209-f5e43bda8af7","ios":"levelo://app?vid=79dacdf6-a1f2-4eb4-8209-f5e43bda8af7"},"vehicle_type_id":"4","last_reported":1700608013,"current_range_meters":31200,"station_id":"ce4bhqp2rcd13ifvqhng","pricing_plan_id":"free"},{"bike_id":"53708ff1-1e30-4a05-9bb9-f9c63d91fb67","system_id":"levelo_inurba_marseille","lat":43.297846,"lon":5.381109,"is_reserved":false,"is_disabled":false,"rental_uris":{"android":"levelo://app?vid=53708ff1-1e30-4a05-9bb9-f9c63d91fb67","ios":"levelo://app?vid=53708ff1-1e30-4a05-9bb9-f9c63d91fb67"},"vehicle_type_id":"4","last_reported":1700608013,"current_range_meters":0,"station_id":"ce4bgip2rcd13ifvqbb0","pricing_plan_id":"free"},{"bike_id":"3059d4c1-3d42-4321-a339-0fea9a03ef82","system_id":"levelo_inurba_marseille","lat":43.328154,"lon":5.380034,"is_reserved":false,"is_disabled":false,"rental_uris":{"android":"levelo://app?vid=3059d4c1-3d42-4321-a339-0fea9a03ef82","ios":"levelo://app?vid=3059d4c1-3d42-4321-a339-0fea9a03ef82"},"vehicle_type_id":"4","last_reported":1700608013,"current_range_meters":0,"station_id":"","pricing_plan_id":"free"},{"bike_id":"740734f0-9713-4b8a-8810-5364172e83f2","system_id":"levelo_inurba_marseille","lat":43.297534,"lon":5.38102,"is_reserved":false,"is_disabled":false,"rental_uris":{"android":"levelo://app?vid=740734f0-9713-4b8a-8810-5364172e83f2","ios":"levelo://app?vid=740734f0-9713-4b8a-8810-5364172e83f2"},"vehicle_type_id":"4","last_reported":1700608013,"current_range_meters":0,"station_id":"","pricing_plan_id":"free"},{"bike_id":"6b621983-5e9e-42f7-990d-ad5a093820d2","system_id":"levelo_inurba_marseille","lat":43.293801,"lon":5.363066,"is_reserved":false,"is_disabled":false,"rental_uris":{"android":"levelo://app?vid=6b621983-5e9e-42f7-990d-ad5a093820d2","ios":"levelo://app?vid=6b621983-5e9e-42f7-990d-ad5a093820d2"},"vehicle_type_id":"4","last_reported":1700608013,"current_range_meters":14400,"station_id":"","pricing_plan_id":"free"},{"bike_id":"89b29b5a-d802-43db-962f-ffe92f87d98e","system_id":"levelo_inurba_marseille","lat":43.29678,"lon":5.38153,"is_reserved":false,"is_disabled":false,"rental_uris":{"android":"levelo://app?vid=89b29b5a-d802-43db-962f-ffe92f87d98e","ios":"levelo://app?vid=89b29b5a-d802-43db-962f-ffe92f87d98e"},"vehicle_type_id":"4","last_reported":1700608013,"current_range_meters":20000,"station_id":"","pricing_plan_id":"free"},{"bike_id":"7d95fc07-5490-4155-81f0-4ed34361d11a","system_id":"levelo_inurba_marseille","lat":43.32366,"lon":5.38878,"is_reserved":false,"is_disabled":false,"rental_uris":{"android":"levelo://app?vid=7d95fc07-5490-4155-81f0-4ed34361d11a","ios":"levelo://app?vid=7d95fc07-5490-4155-81f0-4ed34361d11a"},"vehicle_type_id":"4","last_reported":1700608013,"current_range_meters":9200,"station_id":"ce4bhqp2rcd13ifvqhog","pricing_plan_id":"free"},{"bike_id":"9cd41476-36bd-46fa-aeba-230fc0671c90","system_id":"levelo_inurba_marseille","lat":43.32365,"lon":5.38881,"is_reserved":false,"is_disabled":false,"rental_uris":{"android":"levelo://app?vid=9cd41476-36bd-46fa-aeba-230fc0671c90","ios":"levelo://app?vid=9cd41476-36bd-46fa-aeba-230fc0671c90"},"vehicle_type_id":"4","last_reported":1700608013,"current_range_meters":1200,"station_id":"ce4bhqp2rcd13ifvqhog","pricing_plan_id":"free"},{"bike_id":"a8278f43-2fa1-44bf-950c-bb3486f33882","system_id":"levelo_inurba_marseille","lat":43.32369,"lon":5.38879,"is_reserved":false,"is_disabled":false,"rental_uris":{"android":"levelo://app?vid=a8278f43-2fa1-44bf-950c-bb3486f33882","ios":"levelo://app?vid=a8278f43-2fa1-44bf-950c-bb3486f33882"},"vehicle_type_id":"4","last_reported":1700608013,"current_range_meters":0,"station_id":"ce4bhqp2rcd13ifvqhog","pricing_plan_id":"free"},{"bike_id":"f00193c2-5784-4660-955b-b60ffa09b900","system_id":"levelo_inurba_marseille","lat":43.32368,"lon":5.38881,"is_reserved":false,"is_disabled":false,"rental_uris":{"android":"levelo://app?vid=f00193c2-5784-4660-955b-b60ffa09b900","ios":"levelo://app?vid=f00193c2-5784-4660-955b-b60ffa09b900"},"vehicle_type_id":"4","last_reported":1700608013,"current_range_meters":0,"station_id":"ce4bhqp2rcd13ifvqhog","pricing_plan_id":"free"},{"bike_id":"9848a84a-e002-4f14-90ee-18e4e6536af8","system_id":"levelo_inurba_marseille","lat":43.32366,"lon":5.38887,"is_reserved":false,"is_disabled":false,"rental_uris":{"android":"levelo://app?vid=9848a84a-e002-4f14-90ee-18e4e6536af8","ios":"levelo://app?vid=9848a84a-e002-4f14-90ee-18e4e6536af8"},"vehicle_type_id":"4","last_reported":1700608013,"current_range_meters":0,"station_id":"ce4bhqp2rcd13ifvqhog","pricing_plan_id":"free"},{"bike_id":"18d12119-6832-40e8-a839-85af965c5a22","system_id":"levelo_inurba_marseille","lat":43.32369,"lon":5.38885,"is_reserved":false,"is_disabled":false,"rental_uris":{"android":"levelo://app?vid=18d12119-6832-40e8-a839-85af965c5a22","ios":"levelo://app?vid=18d12119-6832-40e8-a839-85af965c5a22"},"vehicle_type_id":"4","last_reported":1700608013,"current_range_meters":0,"station_id":"ce4bhqp2rcd13ifvqhog","pricing_plan_id":"free"},{"bike_id":"a17b06cb-c38e-487f-a737-8d03dc7d7e2f","system_id":"levelo_inurba_marseille","lat":43.32367,"lon":5.38888,"is_reserved":false,"is_disabled":false,"rental_uris":{"android":"levelo://app?vid=a17b06cb-c38e-487f-a737-8d03dc7d7e2f","ios":"levelo://app?vid=a17b06cb-c38e-487f-a737-8d03dc7d7e2f"},"vehicle_type_id":"4","last_reported":1700608013,"current_range_meters":12800,"station_id":"ce4bhqp2rcd13ifvqhog","pricing_plan_id":"free"},{"bike_id":"d08f04bf-d1cb-49fb-9aa7-04e7f7676b3c","system_id":"levelo_inurba_marseille","lat":43.32337,"lon":5.38974,"is_reserved":false,"is_disabled":false,"rental_uris":{"android":"levelo://app?vid=d08f04bf-d1cb-49fb-9aa7-04e7f7676b3c","ios":"levelo://app?vid=d08f04bf-d1cb-49fb-9aa7-04e7f7676b3c"},"vehicle_type_id":"4","last_reported":1700608013,"current_range_meters":0,"station_id":"","pricing_plan_id":"free"},{"bike_id":"45bcac0a-b39f-4d9c-a07f-a18628e57c3f","system_id":"levelo_inurba_marseille","lat":43.293249,"lon":5.371578,"is_reserved":false,"is_disabled":false,"rental_uris":{"android":"levelo://app?vid=45bcac0a-b39f-4d9c-a07f-a18628e57c3f","ios":"levelo://app?vid=45bcac0a-b39f-4d9c-a07f-a18628e57c3f"},"vehicle_type_id":"4","last_reported":1700608013,"current_range_meters":20800,"station_id":"ce4bgh92rcd13ifvqb40","pricing_plan_id":"free"},{"bike_id":"2fa1e8ec-4b29-4858-9cca-8ae9b2be984f","system_id":"levelo_inurba_marseille","lat":43.293249,"lon":5.371578,"is_reserved":false,"is_disabled":false,"rental_uris":{"android":"levelo://app?vid=2fa1e8ec-4b29-4858-9cca-8ae9b2be984f","ios":"levelo://app?vid=2fa1e8ec-4b29-4858-9cca-8ae9b2be984f"},"vehicle_type_id":"4","last_reported":1700608013,"current_range_meters":1600,"station_id":"ce4bgh92rcd13ifvqb40","pricing_plan_id":"free"},{"bike_id":"0ecca30a-19a0-4244-bbb6-5a36d12f1055","system_id":"levelo_inurba_marseille","lat":43.30306,"lon":5.39202,"is_reserved":false,"is_disabled":false,"rental_uris":{"android":"levelo://app?vid=0ecca30a-19a0-4244-bbb6-5a36d12f1055","ios":"levelo://app?vid=0ecca30a-19a0-4244-bbb6-5a36d12f1055"},"vehicle_type_id":"4","last_reported":1700608013,"current_range_meters":0,"station_id":"ce4bgkh2rcd13ifvqbk0","pricing_plan_id":"free"},{"bike_id":"a487f86a-74ab-4ca2-b961-d2d3a77a132c","system_id":"levelo_inurba_marseille","lat":43.303002,"lon":5.392142,"is_reserved":false,"is_disabled":false,"rental_uris":{"android":"levelo://app?vid=a487f86a-74ab-4ca2-b961-d2d3a77a132c","ios":"levelo://app?vid=a487f86a-74ab-4ca2-b961-d2d3a77a132c"},"vehicle_type_id":"4","last_reported":1700608013,"current_range_meters":30800,"station_id":"ce4bgkh2rcd13ifvqbk0","pricing_plan_id":"free"},{"bike_id":"ea685827-6ebe-4773-a9ee-6804ded41268","system_id":"levelo_inurba_marseille","lat":43.29877,"lon":5.38907,"is_reserved":false,"is_disabled":false,"rental_uris":{"android":"levelo://app?vid=ea685827-6ebe-4773-a9ee-6804ded41268","ios":"levelo://app?vid=ea685827-6ebe-4773-a9ee-6804ded41268"},"vehicle_type_id":"4","last_reported":1700608013,"current_range_meters":23600,"station_id":"ce4bh392rcd13ifvqdl0","pricing_plan_id":"free"},{"bike_id":"cb33dfcd-9a60-46f4-871d-6659c3334182","system_id":"levelo_inurba_marseille","lat":43.30969,"lon":5.39612,"is_reserved":false,"is_disabled":false,"rental_uris":{"android":"levelo://app?vid=cb33dfcd-9a60-46f4-871d-6659c3334182","ios":"levelo://app?vid=cb33dfcd-9a60-46f4-871d-6659c3334182"},"vehicle_type_id":"4","last_reported":1700608013,"current_range_meters":10400,"station_id":"","pricing_plan_id":"free"},{"bike_id":"db0adf43-bf36-4b36-9fae-b882b22583a6","system_id":"levelo_inurba_marseille","lat":43.309038,"lon":5.396546,"is_reserved":false,"is_disabled":false,"rental_uris":{"android":"levelo://app?vid=db0adf43-bf36-4b36-9fae-b882b22583a6","ios":"levelo://app?vid=db0adf43-bf36-4b36-9fae-b882b22583a6"},"vehicle_type_id":"4","last_reported":1700608013,"current_range_meters":31200,"station_id":"ce4bh012rcd13ifvqcv0","pricing_plan_id":"free"},{"bike_id":"6033fabe-deb9-4d9c-b84a-7b55cb07c336","system_id":"levelo_inurba_marseille","lat":43.309038,"lon":5.396546,"is_reserved":false,"is_disabled":false,"rental_uris":{"android":"levelo://app?vid=6033fabe-deb9-4d9c-b84a-7b55cb07c336","ios":"levelo://app?vid=6033fabe-deb9-4d9c-b84a-7b55cb07c336"},"vehicle_type_id":"4","last_reported":1700608013,"current_range_meters":31200,"station_id":"ce4bh012rcd13ifvqcv0","pricing_plan_id":"free"},{"bike_id":"fbfed483-aabb-48b3-a2ba-6b821d7fe5c9","system_id":"levelo_inurba_marseille","lat":43.309038,"lon":5.396546,"is_reserved":false,"is_disabled":false,"rental_uris":{"android":"levelo://app?vid=fbfed483-aabb-48b3-a2ba-6b821d7fe5c9","ios":"levelo://app?vid=fbfed483-aabb-48b3-a2ba-6b821d7fe5c9"},"vehicle_type_id":"4","last_reported":1700608013,"current_range_meters":31200,"station_id":"ce4bh012rcd13ifvqcv0","pricing_plan_id":"free"},{"bike_id":"bd09ec68-9566-426e-b3ad-131dcfe02d3c","system_id":"levelo_inurba_marseille","lat":43.30879,"lon":5.3963,"is_reserved":false,"is_disabled":false,"rental_uris":{"android":"levelo://app?vid=bd09ec68-9566-426e-b3ad-131dcfe02d3c","ios":"levelo://app?vid=bd09ec68-9566-426e-b3ad-131dcfe02d3c"},"vehicle_type_id":"4","last_reported":1700608013,"current_range_meters":22800,"station_id":"ce4bh012rcd13ifvqcv0","pricing_plan_id":"free"},{"bike_id":"f92a19e5-0f90-44dc-a5c5-efc441e3ba16","system_id":"levelo_inurba_marseille","lat":43.309038,"lon":5.396546,"is_reserved":false,"is_disabled":false,"rental_uris":{"android":"levelo://app?vid=f92a19e5-0f90-44dc-a5c5-efc441e3ba16","ios":"levelo://app?vid=f92a19e5-0f90-44dc-a5c5-efc441e3ba16"},"vehicle_type_id":"4","last_reported":1700608013,"current_range_meters":21600,"station_id":"ce4bh012rcd13ifvqcv0","pricing_plan_id":"free"},{"bike_id":"6d84f195-20fd-4657-b77a-d13c1b7a9220","system_id":"levelo_inurba_marseille","lat":43.309047,"lon":5.396551,"is_reserved":false,"is_disabled":false,"rental_uris":{"android":"levelo://app?vid=6d84f195-20fd-4657-b77a-d13c1b7a9220","ios":"levelo://app?vid=6d84f195-20fd-4657-b77a-d13c1b7a9220"},"vehicle_type_id":"4","last_reported":1700608013,"current_range_meters":31200,"station_id":"ce4bh012rcd13ifvqcv0","pricing_plan_id":"free"},{"bike_id":"eca9d464-6432-40fc-a29a-36bcf5ef2c45","system_id":"levelo_inurba_marseille","lat":43.309038,"lon":5.396546,"is_reserved":false,"is_disabled":false,"rental_uris":{"android":"levelo://app?vid=eca9d464-6432-40fc-a29a-36bcf5ef2c45","ios":"levelo://app?vid=eca9d464-6432-40fc-a29a-36bcf5ef2c45"},"vehicle_type_id":"4","last_reported":1700608013,"current_range_meters":30400,"station_id":"ce4bh012rcd13ifvqcv0","pricing_plan_id":"free"},{"bike_id":"96bad10b-4446-46c8-825f-dc225d0f8e25","system_id":"levelo_inurba_marseille","lat":43.309038,"lon":5.396546,"is_reserved":false,"is_disabled":false,"rental_uris":{"android":"levelo://app?vid=96bad10b-4446-46c8-825f-dc225d0f8e25","ios":"levelo://app?vid=96bad10b-4446-46c8-825f-dc225d0f8e25"},"vehicle_type_id":"4","last_reported":1700608013,"current_range_meters":30800,"station_id":"ce4bh012rcd13ifvqcv0","pricing_plan_id":"free"},{"bike_id":"e784c998-6431-44ab-aa28-0ec688a8db99","system_id":"levelo_inurba_marseille","lat":43.30889,"lon":5.39647,"is_reserved":false,"is_disabled":false,"rental_uris":{"android":"levelo://app?vid=e784c998-6431-44ab-aa28-0ec688a8db99","ios":"levelo://app?vid=e784c998-6431-44ab-aa28-0ec688a8db99"},"vehicle_type_id":"4","last_reported":1700608013,"current_range_meters":26000,"station_id":"ce4bh012rcd13ifvqcv0","pricing_plan_id":"free"},{"bike_id":"39afb53c-6587-42d7-a92c-37a798f86640","system_id":"levelo_inurba_marseille","lat":43.309038,"lon":5.396546,"is_reserved":false,"is_disabled":false,"rental_uris":{"android":"levelo://app?vid=39afb53c-6587-42d7-a92c-37a798f86640","ios":"levelo://app?vid=39afb53c-6587-42d7-a92c-37a798f86640"},"vehicle_type_id":"4","last_reported":1700608013,"current_range_meters":17200,"station_id":"ce4bh012rcd13ifvqcv0","pricing_plan_id":"free"},{"bike_id":"46834e71-1c87-4a6b-a475-611d29179ca2","system_id":"levelo_inurba_marseille","lat":43.308831,"lon":5.396561,"is_reserved":false,"is_disabled":false,"rental_uris":{"android":"levelo://app?vid=46834e71-1c87-4a6b-a475-611d29179ca2","ios":"levelo://app?vid=46834e71-1c87-4a6b-a475-611d29179ca2"},"vehicle_type_id":"4","last_reported":1700608013,"current_range_meters":23600,"station_id":"","pricing_plan_id":"free"},{"bike_id":"df254aa5-eb03-461b-878f-46672409619b","system_id":"levelo_inurba_marseille","lat":43.309038,"lon":5.396546,"is_reserved":false,"is_disabled":false,"rental_uris":{"android":"levelo://app?vid=df254aa5-eb03-461b-878f-46672409619b","ios":"levelo://app?vid=df254aa5-eb03-461b-878f-46672409619b"},"vehicle_type_id":"4","last_reported":1700608013,"current_range_meters":9600,"station_id":"ce4bh012rcd13ifvqcv0","pricing_plan_id":"free"},{"bike_id":"1d10a1b1-d55f-4279-928a-9c6858f32ca9","system_id":"levelo_inurba_marseille","lat":43.33231,"lon":5.380687,"is_reserved":false,"is_disabled":false,"rental_uris":{"android":"levelo://app?vid=1d10a1b1-d55f-4279-928a-9c6858f32ca9","ios":"levelo://app?vid=1d10a1b1-d55f-4279-928a-9c6858f32ca9"},"vehicle_type_id":"4","last_reported":1700608013,"current_range_meters":2000,"station_id":"","pricing_plan_id":"free"},{"bike_id":"66058901-7a57-481e-8d94-1cf150f1c151","system_id":"levelo_inurba_marseille","lat":43.297609,"lon":5.389719,"is_reserved":false,"is_disabled":false,"rental_uris":{"android":"levelo://app?vid=66058901-7a57-481e-8d94-1cf150f1c151","ios":"levelo://app?vid=66058901-7a57-481e-8d94-1cf150f1c151"},"vehicle_type_id":"4","last_reported":1700608013,"current_range_meters":14400,"station_id":"","pricing_plan_id":"free"},{"bike_id":"6819c6bb-a582-4c25-83a0-c33dc968d8b7","system_id":"levelo_inurba_marseille","lat":43.290631,"lon":5.359244,"is_reserved":false,"is_disabled":false,"rental_uris":{"android":"levelo://app?vid=6819c6bb-a582-4c25-83a0-c33dc968d8b7","ios":"levelo://app?vid=6819c6bb-a582-4c25-83a0-c33dc968d8b7"},"vehicle_type_id":"4","last_reported":1700608013,"current_range_meters":27600,"station_id":"ce4bha92rcd13ifvqeg0","pricing_plan_id":"free"},{"bike_id":"5acdbc49-207a-4499-af2e-e22f343b9af4","system_id":"levelo_inurba_marseille","lat":43.294153,"lon":5.386305,"is_reserved":false,"is_disabled":false,"rental_uris":{"android":"levelo://app?vid=5acdbc49-207a-4499-af2e-e22f343b9af4","ios":"levelo://app?vid=5acdbc49-207a-4499-af2e-e22f343b9af4"},"vehicle_type_id":"4","last_reported":1700608013,"current_range_meters":28400,"station_id":"ce4bh2h2rcd13ifvqdh0","pricing_plan_id":"free"},{"bike_id":"391a5844-52c4-4f9e-b667-936d063298e8","system_id":"levelo_inurba_marseille","lat":43.290327,"lon":5.375711,"is_reserved":false,"is_disabled":false,"rental_uris":{"android":"levelo://app?vid=391a5844-52c4-4f9e-b667-936d063298e8","ios":"levelo://app?vid=391a5844-52c4-4f9e-b667-936d063298e8"},"vehicle_type_id":"4","last_reported":1700608013,"current_range_meters":29200,"station_id":"ce4bh692rcd13ifvqe90","pricing_plan_id":"free"},{"bike_id":"41203ff0-7a53-4866-953c-0e19d8a0677f","system_id":"levelo_inurba_marseille","lat":43.304274,"lon":5.397513,"is_reserved":false,"is_disabled":false,"rental_uris":{"android":"levelo://app?vid=41203ff0-7a53-4866-953c-0e19d8a0677f","ios":"levelo://app?vid=41203ff0-7a53-4866-953c-0e19d8a0677f"},"vehicle_type_id":"4","last_reported":1700608013,"current_range_meters":10000,"station_id":"ce4bh092rcd13ifvqd20","pricing_plan_id":"free"},{"bike_id":"34187fa4-dfcf-496b-a9e2-5c1fd2dcf55a","system_id":"levelo_inurba_marseille","lat":43.304296,"lon":5.397513,"is_reserved":false,"is_disabled":false,"rental_uris":{"android":"levelo://app?vid=34187fa4-dfcf-496b-a9e2-5c1fd2dcf55a","ios":"levelo://app?vid=34187fa4-dfcf-496b-a9e2-5c1fd2dcf55a"},"vehicle_type_id":"4","last_reported":1700608013,"current_range_meters":1200,"station_id":"ce4bh092rcd13ifvqd20","pricing_plan_id":"free"},{"bike_id":"d8be73c0-672b-4461-be5b-c63a50657c95","system_id":"levelo_inurba_marseille","lat":43.304296,"lon":5.397513,"is_reserved":false,"is_disabled":false,"rental_uris":{"android":"levelo://app?vid=d8be73c0-672b-4461-be5b-c63a50657c95","ios":"levelo://app?vid=d8be73c0-672b-4461-be5b-c63a50657c95"},"vehicle_type_id":"4","last_reported":1700608013,"current_range_meters":15600,"station_id":"ce4bh092rcd13ifvqd20","pricing_plan_id":"free"},{"bike_id":"9cf0aa2c-b555-4788-8f5d-129a418516a7","system_id":"levelo_inurba_marseille","lat":43.304296,"lon":5.397513,"is_reserved":false,"is_disabled":false,"rental_uris":{"android":"levelo://app?vid=9cf0aa2c-b555-4788-8f5d-129a418516a7","ios":"levelo://app?vid=9cf0aa2c-b555-4788-8f5d-129a418516a7"},"vehicle_type_id":"4","last_reported":1700608013,"current_range_meters":2800,"station_id":"ce4bh092rcd13ifvqd20","pricing_plan_id":"free"},{"bike_id":"3d17e0e9-6f81-49be-ac3d-ef480f488b6c","system_id":"levelo_inurba_marseille","lat":43.330442,"lon":5.389148,"is_reserved":false,"is_disabled":false,"rental_uris":{"android":"levelo://app?vid=3d17e0e9-6f81-49be-ac3d-ef480f488b6c","ios":"levelo://app?vid=3d17e0e9-6f81-49be-ac3d-ef480f488b6c"},"vehicle_type_id":"4","last_reported":1700608013,"current_range_meters":0,"station_id":"ce4bhr92rcd13ifvqhrg","pricing_plan_id":"free"},{"bike_id":"48703d2a-7c7e-4121-a26c-89ff0b617a86","system_id":"levelo_inurba_marseille","lat":43.290995,"lon":5.381361,"is_reserved":false,"is_disabled":false,"rental_uris":{"android":"levelo://app?vid=48703d2a-7c7e-4121-a26c-89ff0b617a86","ios":"levelo://app?vid=48703d2a-7c7e-4121-a26c-89ff0b617a86"},"vehicle_type_id":"4","last_reported":1700608013,"current_range_meters":20400,"station_id":"ce4bh512rcd13ifvqe2g","pricing_plan_id":"free"},{"bike_id":"c0691913-4d43-42af-9fa5-975aa1a8621b","system_id":"levelo_inurba_marseille","lat":43.290927,"lon":5.38155,"is_reserved":false,"is_disabled":false,"rental_uris":{"android":"levelo://app?vid=c0691913-4d43-42af-9fa5-975aa1a8621b","ios":"levelo://app?vid=c0691913-4d43-42af-9fa5-975aa1a8621b"},"vehicle_type_id":"4","last_reported":1700608013,"current_range_meters":0,"station_id":"ce4bh512rcd13ifvqe2g","pricing_plan_id":"free"},{"bike_id":"ae05b056-11d3-4c26-8cff-cc7d91d85217","system_id":"levelo_inurba_marseille","lat":43.297955,"lon":5.39349,"is_reserved":false,"is_disabled":false,"rental_uris":{"android":"levelo://app?vid=ae05b056-11d3-4c26-8cff-cc7d91d85217","ios":"levelo://app?vid=ae05b056-11d3-4c26-8cff-cc7d91d85217"},"vehicle_type_id":"4","last_reported":1700608013,"current_range_meters":14000,"station_id":"chh1huq6cuj3fo74tm60","pricing_plan_id":"free"},{"bike_id":"56ae1ae3-2366-4a70-8b2d-f5360d93553f","system_id":"levelo_inurba_marseille","lat":43.28856,"lon":5.358371,"is_reserved":false,"is_disabled":false,"rental_uris":{"android":"levelo://app?vid=56ae1ae3-2366-4a70-8b2d-f5360d93553f","ios":"levelo://app?vid=56ae1ae3-2366-4a70-8b2d-f5360d93553f"},"vehicle_type_id":"4","last_reported":1700608013,"current_range_meters":25600,"station_id":"ce4bhb12rcd13ifvqem0","pricing_plan_id":"free"},{"bike_id":"aad9a792-6976-4183-919a-aef819ff2e25","system_id":"levelo_inurba_marseille","lat":43.31251,"lon":5.40162,"is_reserved":false,"is_disabled":false,"rental_uris":{"android":"levelo://app?vid=aad9a792-6976-4183-919a-aef819ff2e25","ios":"levelo://app?vid=aad9a792-6976-4183-919a-aef819ff2e25"},"vehicle_type_id":"4","last_reported":1700608013,"current_range_meters":1600,"station_id":"","pricing_plan_id":"free"},{"bike_id":"e5171377-e61c-4752-ac2e-81b3286d3870","system_id":"levelo_inurba_marseille","lat":43.309323,"lon":5.401396,"is_reserved":false,"is_disabled":false,"rental_uris":{"android":"levelo://app?vid=e5171377-e61c-4752-ac2e-81b3286d3870","ios":"levelo://app?vid=e5171377-e61c-4752-ac2e-81b3286d3870"},"vehicle_type_id":"4","last_reported":1700608013,"current_range_meters":10400,"station_id":"ce4bgvp2rcd13ifvqct0","pricing_plan_id":"free"},{"bike_id":"92d64120-be95-4931-8086-a7b60f0b3e4c","system_id":"levelo_inurba_marseille","lat":43.31271,"lon":5.40175,"is_reserved":false,"is_disabled":false,"rental_uris":{"android":"levelo://app?vid=92d64120-be95-4931-8086-a7b60f0b3e4c","ios":"levelo://app?vid=92d64120-be95-4931-8086-a7b60f0b3e4c"},"vehicle_type_id":"4","last_reported":1700608013,"current_range_meters":400,"station_id":"ce4bh092rcd13ifvqd30","pricing_plan_id":"free"},{"bike_id":"345b42fd-1851-433c-89b7-a66455945f21","system_id":"levelo_inurba_marseille","lat":43.30926,"lon":5.40142,"is_reserved":false,"is_disabled":false,"rental_uris":{"android":"levelo://app?vid=345b42fd-1851-433c-89b7-a66455945f21","ios":"levelo://app?vid=345b42fd-1851-433c-89b7-a66455945f21"},"vehicle_type_id":"4","last_reported":1700608013,"current_range_meters":30400,"station_id":"ce4bgvp2rcd13ifvqct0","pricing_plan_id":"free"},{"bike_id":"a5f30c18-250c-4a83-a23e-a923967d5bb2","system_id":"levelo_inurba_marseille","lat":43.30927,"lon":5.40143,"is_reserved":false,"is_disabled":false,"rental_uris":{"android":"levelo://app?vid=a5f30c18-250c-4a83-a23e-a923967d5bb2","ios":"levelo://app?vid=a5f30c18-250c-4a83-a23e-a923967d5bb2"},"vehicle_type_id":"4","last_reported":1700608013,"current_range_meters":28000,"station_id":"ce4bgvp2rcd13ifvqct0","pricing_plan_id":"free"},{"bike_id":"d32a48f0-b3fa-483f-ae3b-286d1c63801d","system_id":"levelo_inurba_marseille","lat":43.309371,"lon":5.401449,"is_reserved":false,"is_disabled":false,"rental_uris":{"android":"levelo://app?vid=d32a48f0-b3fa-483f-ae3b-286d1c63801d","ios":"levelo://app?vid=d32a48f0-b3fa-483f-ae3b-286d1c63801d"},"vehicle_type_id":"4","last_reported":1700608013,"current_range_meters":18000,"station_id":"ce4bgvp2rcd13ifvqct0","pricing_plan_id":"free"},{"bike_id":"4166f851-581a-4a7f-944e-d13829034fa9","system_id":"levelo_inurba_marseille","lat":43.30933,"lon":5.40147,"is_reserved":false,"is_disabled":false,"rental_uris":{"android":"levelo://app?vid=4166f851-581a-4a7f-944e-d13829034fa9","ios":"levelo://app?vid=4166f851-581a-4a7f-944e-d13829034fa9"},"vehicle_type_id":"4","last_reported":1700608013,"current_range_meters":31200,"station_id":"ce4bgvp2rcd13ifvqct0","pricing_plan_id":"free"},{"bike_id":"f0e45f3a-3a31-4b84-b7f2-770281ff8b6b","system_id":"levelo_inurba_marseille","lat":43.30926,"lon":5.40149,"is_reserved":false,"is_disabled":false,"rental_uris":{"android":"levelo://app?vid=f0e45f3a-3a31-4b84-b7f2-770281ff8b6b","ios":"levelo://app?vid=f0e45f3a-3a31-4b84-b7f2-770281ff8b6b"},"vehicle_type_id":"4","last_reported":1700608013,"current_range_meters":800,"station_id":"ce4bgvp2rcd13ifvqct0","pricing_plan_id":"free"},{"bike_id":"34d79e5a-dca6-41fd-92e0-56a8fdd76781","system_id":"levelo_inurba_marseille","lat":43.306412,"lon":5.401035,"is_reserved":false,"is_disabled":false,"rental_uris":{"android":"levelo://app?vid=34d79e5a-dca6-41fd-92e0-56a8fdd76781","ios":"levelo://app?vid=34d79e5a-dca6-41fd-92e0-56a8fdd76781"},"vehicle_type_id":"4","last_reported":1700608013,"current_range_meters":30000,"station_id":"ce4bh112rcd13ifvqda0","pricing_plan_id":"free"},{"bike_id":"29b4743a-25f5-4cbe-9722-f60c772008ce","system_id":"levelo_inurba_marseille","lat":43.30636,"lon":5.40079,"is_reserved":false,"is_disabled":false,"rental_uris":{"android":"levelo://app?vid=29b4743a-25f5-4cbe-9722-f60c772008ce","ios":"levelo://app?vid=29b4743a-25f5-4cbe-9722-f60c772008ce"},"vehicle_type_id":"4","last_reported":1700608013,"current_range_meters":800,"station_id":"ce4bh112rcd13ifvqda0","pricing_plan_id":"free"},{"bike_id":"3e8cb82c-83a5-413f-8d1d-f5d344d41e78","system_id":"levelo_inurba_marseille","lat":43.30648,"lon":5.40084,"is_reserved":false,"is_disabled":false,"rental_uris":{"android":"levelo://app?vid=3e8cb82c-83a5-413f-8d1d-f5d344d41e78","ios":"levelo://app?vid=3e8cb82c-83a5-413f-8d1d-f5d344d41e78"},"vehicle_type_id":"4","last_reported":1700608013,"current_range_meters":24000,"station_id":"","pricing_plan_id":"free"},{"bike_id":"4c0cd722-0125-473a-9a4c-d36bf5346891","system_id":"levelo_inurba_marseille","lat":43.306425,"lon":5.40084,"is_reserved":false,"is_disabled":false,"rental_uris":{"android":"levelo://app?vid=4c0cd722-0125-473a-9a4c-d36bf5346891","ios":"levelo://app?vid=4c0cd722-0125-473a-9a4c-d36bf5346891"},"vehicle_type_id":"4","last_reported":1700608013,"current_range_meters":24000,"station_id":"ce4bh112rcd13ifvqda0","pricing_plan_id":"free"},{"bike_id":"83de3c75-a46c-431d-b09b-e0c1e6d4bfa1","system_id":"levelo_inurba_marseille","lat":43.30644,"lon":5.40091,"is_reserved":false,"is_disabled":false,"rental_uris":{"android":"levelo://app?vid=83de3c75-a46c-431d-b09b-e0c1e6d4bfa1","ios":"levelo://app?vid=83de3c75-a46c-431d-b09b-e0c1e6d4bfa1"},"vehicle_type_id":"4","last_reported":1700608013,"current_range_meters":13600,"station_id":"ce4bh112rcd13ifvqda0","pricing_plan_id":"free"},{"bike_id":"794e65da-cfad-45b6-b3fc-4a90fb21fd3f","system_id":"levelo_inurba_marseille","lat":43.30634,"lon":5.4009,"is_reserved":false,"is_disabled":false,"rental_uris":{"android":"levelo://app?vid=794e65da-cfad-45b6-b3fc-4a90fb21fd3f","ios":"levelo://app?vid=794e65da-cfad-45b6-b3fc-4a90fb21fd3f"},"vehicle_type_id":"4","last_reported":1700608013,"current_range_meters":15600,"station_id":"ce4bh112rcd13ifvqda0","pricing_plan_id":"free"},{"bike_id":"b4b62222-1470-409f-9911-0b9f31add303","system_id":"levelo_inurba_marseille","lat":43.306412,"lon":5.401035,"is_reserved":false,"is_disabled":false,"rental_uris":{"android":"levelo://app?vid=b4b62222-1470-409f-9911-0b9f31add303","ios":"levelo://app?vid=b4b62222-1470-409f-9911-0b9f31add303"},"vehicle_type_id":"4","last_reported":1700608013,"current_range_meters":24400,"station_id":"ce4bh112rcd13ifvqda0","pricing_plan_id":"free"},{"bike_id":"1e5f9b7c-ce69-4d52-80d0-edbd66d45f4f","system_id":"levelo_inurba_marseille","lat":43.28727,"lon":5.36078,"is_reserved":false,"is_disabled":false,"rental_uris":{"android":"levelo://app?vid=1e5f9b7c-ce69-4d52-80d0-edbd66d45f4f","ios":"levelo://app?vid=1e5f9b7c-ce69-4d52-80d0-edbd66d45f4f"},"vehicle_type_id":"4","last_reported":1700608013,"current_range_meters":30000,"station_id":"cki0cbj6b192h4jlfktg","pricing_plan_id":"free"},{"bike_id":"70bf1fd8-c051-4161-a10e-c760b71856cd","system_id":"levelo_inurba_marseille","lat":43.287243,"lon":5.360918,"is_reserved":false,"is_disabled":false,"rental_uris":{"android":"levelo://app?vid=70bf1fd8-c051-4161-a10e-c760b71856cd","ios":"levelo://app?vid=70bf1fd8-c051-4161-a10e-c760b71856cd"},"vehicle_type_id":"4","last_reported":1700608013,"current_range_meters":22000,"station_id":"cki0cbj6b192h4jlfktg","pricing_plan_id":"free"},{"bike_id":"06838c61-dff1-492f-9e47-b56de5108922","system_id":"levelo_inurba_marseille","lat":43.28722,"lon":5.36098,"is_reserved":false,"is_disabled":false,"rental_uris":{"android":"levelo://app?vid=06838c61-dff1-492f-9e47-b56de5108922","ios":"levelo://app?vid=06838c61-dff1-492f-9e47-b56de5108922"},"vehicle_type_id":"4","last_reported":1700608013,"current_range_meters":6400,"station_id":"cki0cbj6b192h4jlfktg","pricing_plan_id":"free"},{"bike_id":"5aa8ff98-98bc-4b95-a8fc-ba24aab95f38","system_id":"levelo_inurba_marseille","lat":43.28723,"lon":5.360799,"is_reserved":false,"is_disabled":false,"rental_uris":{"android":"levelo://app?vid=5aa8ff98-98bc-4b95-a8fc-ba24aab95f38","ios":"levelo://app?vid=5aa8ff98-98bc-4b95-a8fc-ba24aab95f38"},"vehicle_type_id":"4","last_reported":1700608013,"current_range_meters":8400,"station_id":"cki0cbj6b192h4jlfktg","pricing_plan_id":"free"},{"bike_id":"39708262-1435-437e-ad5e-1d060b4fbaa0","system_id":"levelo_inurba_marseille","lat":43.287206,"lon":5.360825,"is_reserved":false,"is_disabled":false,"rental_uris":{"android":"levelo://app?vid=39708262-1435-437e-ad5e-1d060b4fbaa0","ios":"levelo://app?vid=39708262-1435-437e-ad5e-1d060b4fbaa0"},"vehicle_type_id":"4","last_reported":1700608013,"current_range_meters":4400,"station_id":"cki0cbj6b192h4jlfktg","pricing_plan_id":"free"},{"bike_id":"54bafbc3-ecf7-48c0-a614-f8ace818ec52","system_id":"levelo_inurba_marseille","lat":43.287191,"lon":5.360895,"is_reserved":false,"is_disabled":false,"rental_uris":{"android":"levelo://app?vid=54bafbc3-ecf7-48c0-a614-f8ace818ec52","ios":"levelo://app?vid=54bafbc3-ecf7-48c0-a614-f8ace818ec52"},"vehicle_type_id":"4","last_reported":1700608013,"current_range_meters":3600,"station_id":"cki0cbj6b192h4jlfktg","pricing_plan_id":"free"},{"bike_id":"56f48607-d6b8-4a3f-a53b-f232a8f4d97c","system_id":"levelo_inurba_marseille","lat":43.298681,"lon":5.397225,"is_reserved":false,"is_disabled":false,"rental_uris":{"android":"levelo://app?vid=56f48607-d6b8-4a3f-a53b-f232a8f4d97c","ios":"levelo://app?vid=56f48607-d6b8-4a3f-a53b-f232a8f4d97c"},"vehicle_type_id":"4","last_reported":1700608013,"current_range_meters":10000,"station_id":"ce4bh0h2rcd13ifvqd50","pricing_plan_id":"free"},{"bike_id":"768feafc-f143-41fb-af29-de32a72b0505","system_id":"levelo_inurba_marseille","lat":43.298681,"lon":5.397225,"is_reserved":false,"is_disabled":false,"rental_uris":{"android":"levelo://app?vid=768feafc-f143-41fb-af29-de32a72b0505","ios":"levelo://app?vid=768feafc-f143-41fb-af29-de32a72b0505"},"vehicle_type_id":"4","last_reported":1700608013,"current_range_meters":8000,"station_id":"ce4bh0h2rcd13ifvqd50","pricing_plan_id":"free"},{"bike_id":"af911b3b-e063-44b1-b42e-59cc6a5ca4ac","system_id":"levelo_inurba_marseille","lat":43.298681,"lon":5.397225,"is_reserved":false,"is_disabled":false,"rental_uris":{"android":"levelo://app?vid=af911b3b-e063-44b1-b42e-59cc6a5ca4ac","ios":"levelo://app?vid=af911b3b-e063-44b1-b42e-59cc6a5ca4ac"},"vehicle_type_id":"4","last_reported":1700608013,"current_range_meters":3200,"station_id":"ce4bh0h2rcd13ifvqd50","pricing_plan_id":"free"},{"bike_id":"98ac16a6-1833-4a84-8304-e7ec3ba51ad1","system_id":"levelo_inurba_marseille","lat":43.286591,"lon":5.363346,"is_reserved":false,"is_disabled":false,"rental_uris":{"android":"levelo://app?vid=98ac16a6-1833-4a84-8304-e7ec3ba51ad1","ios":"levelo://app?vid=98ac16a6-1833-4a84-8304-e7ec3ba51ad1"},"vehicle_type_id":"4","last_reported":1700608013,"current_range_meters":20400,"station_id":"ce4bhah2rcd13ifvqej0","pricing_plan_id":"free"},{"bike_id":"e83324f8-e9c7-4b22-aa7f-026221ad8a14","system_id":"levelo_inurba_marseille","lat":43.298681,"lon":5.397225,"is_reserved":false,"is_disabled":false,"rental_uris":{"android":"levelo://app?vid=e83324f8-e9c7-4b22-aa7f-026221ad8a14","ios":"levelo://app?vid=e83324f8-e9c7-4b22-aa7f-026221ad8a14"},"vehicle_type_id":"4","last_reported":1700608013,"current_range_meters":24800,"station_id":"ce4bh0h2rcd13ifvqd50","pricing_plan_id":"free"},{"bike_id":"22ea8213-4d84-400c-aece-3f6fd6226cb1","system_id":"levelo_inurba_marseille","lat":43.286591,"lon":5.363346,"is_reserved":false,"is_disabled":false,"rental_uris":{"android":"levelo://app?vid=22ea8213-4d84-400c-aece-3f6fd6226cb1","ios":"levelo://app?vid=22ea8213-4d84-400c-aece-3f6fd6226cb1"},"vehicle_type_id":"4","last_reported":1700608013,"current_range_meters":27200,"station_id":"ce4bhah2rcd13ifvqej0","pricing_plan_id":"free"},{"bike_id":"6977911e-4586-4dfe-9827-04286aab24fd","system_id":"levelo_inurba_marseille","lat":43.29883,"lon":5.39741,"is_reserved":false,"is_disabled":false,"rental_uris":{"android":"levelo://app?vid=6977911e-4586-4dfe-9827-04286aab24fd","ios":"levelo://app?vid=6977911e-4586-4dfe-9827-04286aab24fd"},"vehicle_type_id":"4","last_reported":1700608013,"current_range_meters":31200,"station_id":"ce4bh0h2rcd13ifvqd50","pricing_plan_id":"free"},{"bike_id":"d7785c20-5e3b-48aa-a0ff-7081a0d46569","system_id":"levelo_inurba_marseille","lat":43.286591,"lon":5.363346,"is_reserved":false,"is_disabled":false,"rental_uris":{"android":"levelo://app?vid=d7785c20-5e3b-48aa-a0ff-7081a0d46569","ios":"levelo://app?vid=d7785c20-5e3b-48aa-a0ff-7081a0d46569"},"vehicle_type_id":"4","last_reported":1700608013,"current_range_meters":11200,"station_id":"ce4bhah2rcd13ifvqej0","pricing_plan_id":"free"},{"bike_id":"8e18cbcb-dd96-4a46-acc7-8a7af5066b24","system_id":"levelo_inurba_marseille","lat":43.295196,"lon":5.39397,"is_reserved":false,"is_disabled":false,"rental_uris":{"android":"levelo://app?vid=8e18cbcb-dd96-4a46-acc7-8a7af5066b24","ios":"levelo://app?vid=8e18cbcb-dd96-4a46-acc7-8a7af5066b24"},"vehicle_type_id":"4","last_reported":1700608013,"current_range_meters":28400,"station_id":"ce4bh292rcd13ifvqdf0","pricing_plan_id":"free"},{"bike_id":"34b59785-c597-4fb5-94fe-0a149b62522d","system_id":"levelo_inurba_marseille","lat":43.286591,"lon":5.363346,"is_reserved":false,"is_disabled":false,"rental_uris":{"android":"levelo://app?vid=34b59785-c597-4fb5-94fe-0a149b62522d","ios":"levelo://app?vid=34b59785-c597-4fb5-94fe-0a149b62522d"},"vehicle_type_id":"4","last_reported":1700608013,"current_range_meters":17200,"station_id":"ce4bhah2rcd13ifvqej0","pricing_plan_id":"free"},{"bike_id":"cb9495c2-5520-4068-a36b-748139656237","system_id":"levelo_inurba_marseille","lat":43.286593,"lon":5.363346,"is_reserved":false,"is_disabled":false,"rental_uris":{"android":"levelo://app?vid=cb9495c2-5520-4068-a36b-748139656237","ios":"levelo://app?vid=cb9495c2-5520-4068-a36b-748139656237"},"vehicle_type_id":"4","last_reported":1700608013,"current_range_meters":27200,"station_id":"ce4bhah2rcd13ifvqej0","pricing_plan_id":"free"},{"bike_id":"7570e3da-651d-475a-8350-99e7c14bdbd0","system_id":"levelo_inurba_marseille","lat":43.298681,"lon":5.397225,"is_reserved":false,"is_disabled":false,"rental_uris":{"android":"levelo://app?vid=7570e3da-651d-475a-8350-99e7c14bdbd0","ios":"levelo://app?vid=7570e3da-651d-475a-8350-99e7c14bdbd0"},"vehicle_type_id":"4","last_reported":1700608013,"current_range_meters":13200,"station_id":"ce4bh0h2rcd13ifvqd50","pricing_plan_id":"free"},{"bike_id":"40d278cd-ad00-4ea1-99d5-f098aaff8cd7","system_id":"levelo_inurba_marseille","lat":43.290273,"lon":5.386401,"is_reserved":false,"is_disabled":false,"rental_uris":{"android":"levelo://app?vid=40d278cd-ad00-4ea1-99d5-f098aaff8cd7","ios":"levelo://app?vid=40d278cd-ad00-4ea1-99d5-f098aaff8cd7"},"vehicle_type_id":"4","last_reported":1700608013,"current_range_meters":14800,"station_id":"ce4bh4p2rcd13ifvqe0g","pricing_plan_id":"free"},{"bike_id":"9de7e6f5-071c-4498-bb5b-b9ac84fde505","system_id":"levelo_inurba_marseille","lat":43.289307,"lon":5.38406,"is_reserved":false,"is_disabled":false,"rental_uris":{"android":"levelo://app?vid=9de7e6f5-071c-4498-bb5b-b9ac84fde505","ios":"levelo://app?vid=9de7e6f5-071c-4498-bb5b-b9ac84fde505"},"vehicle_type_id":"4","last_reported":1700608013,"current_range_meters":18000,"station_id":"ce4bh612rcd13ifvqe6g","pricing_plan_id":"free"},{"bike_id":"e290ead7-9b3b-4253-a5d1-af468af82a66","system_id":"levelo_inurba_marseille","lat":43.30245,"lon":5.40061,"is_reserved":false,"is_disabled":false,"rental_uris":{"android":"levelo://app?vid=e290ead7-9b3b-4253-a5d1-af468af82a66","ios":"levelo://app?vid=e290ead7-9b3b-4253-a5d1-af468af82a66"},"vehicle_type_id":"4","last_reported":1700608013,"current_range_meters":5200,"station_id":"ce4bgvh2rcd13ifvqcs0","pricing_plan_id":"free"},{"bike_id":"5a3914f8-6d02-4163-91fb-3288bc9a951d","system_id":"levelo_inurba_marseille","lat":43.29022,"lon":5.38636,"is_reserved":false,"is_disabled":false,"rental_uris":{"android":"levelo://app?vid=5a3914f8-6d02-4163-91fb-3288bc9a951d","ios":"levelo://app?vid=5a3914f8-6d02-4163-91fb-3288bc9a951d"},"vehicle_type_id":"4","last_reported":1700608013,"current_range_meters":13600,"station_id":"","pricing_plan_id":"free"},{"bike_id":"7f747f99-2551-4a7d-91bc-bd240437708e","system_id":"levelo_inurba_marseille","lat":43.29018,"lon":5.3863,"is_reserved":false,"is_disabled":false,"rental_uris":{"android":"levelo://app?vid=7f747f99-2551-4a7d-91bc-bd240437708e","ios":"levelo://app?vid=7f747f99-2551-4a7d-91bc-bd240437708e"},"vehicle_type_id":"4","last_reported":1700608013,"current_range_meters":15600,"station_id":"","pricing_plan_id":"free"},{"bike_id":"e4fe9bfe-c19c-4f53-810f-f315f80ec4be","system_id":"levelo_inurba_marseille","lat":43.29024,"lon":5.386434,"is_reserved":false,"is_disabled":false,"rental_uris":{"android":"levelo://app?vid=e4fe9bfe-c19c-4f53-810f-f315f80ec4be","ios":"levelo://app?vid=e4fe9bfe-c19c-4f53-810f-f315f80ec4be"},"vehicle_type_id":"4","last_reported":1700608013,"current_range_meters":27600,"station_id":"","pricing_plan_id":"free"},{"bike_id":"5d0258df-99b3-4d42-81e1-b2efa3cf9bb1","system_id":"levelo_inurba_marseille","lat":43.302759,"lon":5.400793,"is_reserved":false,"is_disabled":false,"rental_uris":{"android":"levelo://app?vid=5d0258df-99b3-4d42-81e1-b2efa3cf9bb1","ios":"levelo://app?vid=5d0258df-99b3-4d42-81e1-b2efa3cf9bb1"},"vehicle_type_id":"4","last_reported":1700608013,"current_range_meters":3200,"station_id":"ce4bgvh2rcd13ifvqcs0","pricing_plan_id":"free"},{"bike_id":"26bbcf47-c6f0-4582-8f70-40dee225dc16","system_id":"levelo_inurba_marseille","lat":43.30263,"lon":5.40084,"is_reserved":false,"is_disabled":false,"rental_uris":{"android":"levelo://app?vid=26bbcf47-c6f0-4582-8f70-40dee225dc16","ios":"levelo://app?vid=26bbcf47-c6f0-4582-8f70-40dee225dc16"},"vehicle_type_id":"4","last_reported":1700608013,"current_range_meters":5200,"station_id":"ce4bgvh2rcd13ifvqcs0","pricing_plan_id":"free"},{"bike_id":"6ed60ba2-65f1-4dd9-a491-89134d341928","system_id":"levelo_inurba_marseille","lat":43.30259,"lon":5.40087,"is_reserved":false,"is_disabled":false,"rental_uris":{"android":"levelo://app?vid=6ed60ba2-65f1-4dd9-a491-89134d341928","ios":"levelo://app?vid=6ed60ba2-65f1-4dd9-a491-89134d341928"},"vehicle_type_id":"4","last_reported":1700608013,"current_range_meters":2800,"station_id":"ce4bgvh2rcd13ifvqcs0","pricing_plan_id":"free"},{"bike_id":"103037f0-b8c2-4b7e-bb4e-0c3ed55d65e6","system_id":"levelo_inurba_marseille","lat":43.286083,"lon":5.370598,"is_reserved":false,"is_disabled":false,"rental_uris":{"android":"levelo://app?vid=103037f0-b8c2-4b7e-bb4e-0c3ed55d65e6","ios":"levelo://app?vid=103037f0-b8c2-4b7e-bb4e-0c3ed55d65e6"},"vehicle_type_id":"4","last_reported":1700608013,"current_range_meters":17200,"station_id":"ce4bht12rcd13ifvqi60","pricing_plan_id":"free"},{"bike_id":"5efd5a1f-fdf2-4947-9ce7-2043ec3af67a","system_id":"levelo_inurba_marseille","lat":43.287184,"lon":5.37937,"is_reserved":false,"is_disabled":false,"rental_uris":{"android":"levelo://app?vid=5efd5a1f-fdf2-4947-9ce7-2043ec3af67a","ios":"levelo://app?vid=5efd5a1f-fdf2-4947-9ce7-2043ec3af67a"},"vehicle_type_id":"4","last_reported":1700608013,"current_range_meters":20000,"station_id":"ce4bh9p2rcd13ifvqec0","pricing_plan_id":"free"},{"bike_id":"6ab1382f-a475-41d6-a9b8-ade01675336d","system_id":"levelo_inurba_marseille","lat":43.316517,"lon":5.404375,"is_reserved":false,"is_disabled":false,"rental_uris":{"android":"levelo://app?vid=6ab1382f-a475-41d6-a9b8-ade01675336d","ios":"levelo://app?vid=6ab1382f-a475-41d6-a9b8-ade01675336d"},"vehicle_type_id":"4","last_reported":1700608013,"current_range_meters":22400,"station_id":"ce4bh012rcd13ifvqd00","pricing_plan_id":"free"},{"bike_id":"561e2fa9-ddd1-42af-87ab-95e1283ec754","system_id":"levelo_inurba_marseille","lat":43.291994,"lon":5.392907,"is_reserved":false,"is_disabled":false,"rental_uris":{"android":"levelo://app?vid=561e2fa9-ddd1-42af-87ab-95e1283ec754","ios":"levelo://app?vid=561e2fa9-ddd1-42af-87ab-95e1283ec754"},"vehicle_type_id":"4","last_reported":1700608013,"current_range_meters":25600,"station_id":"ce4bh192rcd13ifvqdd0","pricing_plan_id":"free"},{"bike_id":"efdd630f-1343-4828-997f-383c8c417215","system_id":"levelo_inurba_marseille","lat":43.28465,"lon":5.35885,"is_reserved":false,"is_disabled":false,"rental_uris":{"android":"levelo://app?vid=efdd630f-1343-4828-997f-383c8c417215","ios":"levelo://app?vid=efdd630f-1343-4828-997f-383c8c417215"},"vehicle_type_id":"4","last_reported":1700608013,"current_range_meters":20400,"station_id":"ce4bhah2rcd13ifvqei0","pricing_plan_id":"free"},{"bike_id":"32d0c4b3-4975-4c54-b911-a5834e4d69b1","system_id":"levelo_inurba_marseille","lat":43.28465,"lon":5.35883,"is_reserved":false,"is_disabled":false,"rental_uris":{"android":"levelo://app?vid=32d0c4b3-4975-4c54-b911-a5834e4d69b1","ios":"levelo://app?vid=32d0c4b3-4975-4c54-b911-a5834e4d69b1"},"vehicle_type_id":"4","last_reported":1700608013,"current_range_meters":31600,"station_id":"ce4bhah2rcd13ifvqei0","pricing_plan_id":"free"},{"bike_id":"abb0ea22-75eb-4892-ab8a-b6710ca00125","system_id":"levelo_inurba_marseille","lat":43.28462,"lon":5.35893,"is_reserved":false,"is_disabled":false,"rental_uris":{"android":"levelo://app?vid=abb0ea22-75eb-4892-ab8a-b6710ca00125","ios":"levelo://app?vid=abb0ea22-75eb-4892-ab8a-b6710ca00125"},"vehicle_type_id":"4","last_reported":1700608013,"current_range_meters":31200,"station_id":"ce4bhah2rcd13ifvqei0","pricing_plan_id":"free"},{"bike_id":"f07b624c-3125-42af-9ff3-7da16be40258","system_id":"levelo_inurba_marseille","lat":43.284534,"lon":5.358662,"is_reserved":false,"is_disabled":false,"rental_uris":{"android":"levelo://app?vid=f07b624c-3125-42af-9ff3-7da16be40258","ios":"levelo://app?vid=f07b624c-3125-42af-9ff3-7da16be40258"},"vehicle_type_id":"4","last_reported":1700608013,"current_range_meters":8800,"station_id":"ce4bhah2rcd13ifvqei0","pricing_plan_id":"free"},{"bike_id":"c657ac86-030e-435d-9dcb-b0f1c15fc09d","system_id":"levelo_inurba_marseille","lat":43.284614,"lon":5.358922,"is_reserved":false,"is_disabled":false,"rental_uris":{"android":"levelo://app?vid=c657ac86-030e-435d-9dcb-b0f1c15fc09d","ios":"levelo://app?vid=c657ac86-030e-435d-9dcb-b0f1c15fc09d"},"vehicle_type_id":"4","last_reported":1700608013,"current_range_meters":23600,"station_id":"ce4bhah2rcd13ifvqei0","pricing_plan_id":"free"},{"bike_id":"8f32b0ce-57ff-44cb-9774-721f197214c2","system_id":"levelo_inurba_marseille","lat":43.28461,"lon":5.3589,"is_reserved":false,"is_disabled":false,"rental_uris":{"android":"levelo://app?vid=8f32b0ce-57ff-44cb-9774-721f197214c2","ios":"levelo://app?vid=8f32b0ce-57ff-44cb-9774-721f197214c2"},"vehicle_type_id":"4","last_reported":1700608013,"current_range_meters":24800,"station_id":"ce4bhah2rcd13ifvqei0","pricing_plan_id":"free"},{"bike_id":"15ddadbb-0047-44fb-8c71-ff7ebd3ae4d3","system_id":"levelo_inurba_marseille","lat":43.284534,"lon":5.358662,"is_reserved":false,"is_disabled":false,"rental_uris":{"android":"levelo://app?vid=15ddadbb-0047-44fb-8c71-ff7ebd3ae4d3","ios":"levelo://app?vid=15ddadbb-0047-44fb-8c71-ff7ebd3ae4d3"},"vehicle_type_id":"4","last_reported":1700608013,"current_range_meters":31200,"station_id":"ce4bhah2rcd13ifvqei0","pricing_plan_id":"free"},{"bike_id":"1e3253fe-acc7-479d-b14a-1fe8a141183c","system_id":"levelo_inurba_marseille","lat":43.284534,"lon":5.358662,"is_reserved":false,"is_disabled":false,"rental_uris":{"android":"levelo://app?vid=1e3253fe-acc7-479d-b14a-1fe8a141183c","ios":"levelo://app?vid=1e3253fe-acc7-479d-b14a-1fe8a141183c"},"vehicle_type_id":"4","last_reported":1700608013,"current_range_meters":31200,"station_id":"ce4bhah2rcd13ifvqei0","pricing_plan_id":"free"},{"bike_id":"3c7792f7-7e92-4b8f-bd4a-9b98fdfc5346","system_id":"levelo_inurba_marseille","lat":43.28459,"lon":5.35895,"is_reserved":false,"is_disabled":false,"rental_uris":{"android":"levelo://app?vid=3c7792f7-7e92-4b8f-bd4a-9b98fdfc5346","ios":"levelo://app?vid=3c7792f7-7e92-4b8f-bd4a-9b98fdfc5346"},"vehicle_type_id":"4","last_reported":1700608013,"current_range_meters":29200,"station_id":"ce4bhah2rcd13ifvqei0","pricing_plan_id":"free"},{"bike_id":"e726453c-f0df-48ae-913a-222f08f0c172","system_id":"levelo_inurba_marseille","lat":43.28458,"lon":5.3589,"is_reserved":false,"is_disabled":false,"rental_uris":{"android":"levelo://app?vid=e726453c-f0df-48ae-913a-222f08f0c172","ios":"levelo://app?vid=e726453c-f0df-48ae-913a-222f08f0c172"},"vehicle_type_id":"4","last_reported":1700608013,"current_range_meters":30400,"station_id":"ce4bhah2rcd13ifvqei0","pricing_plan_id":"free"},{"bike_id":"c4899c4c-8199-4647-bf2c-fc8c8282ade6","system_id":"levelo_inurba_marseille","lat":43.284583,"lon":5.358881,"is_reserved":false,"is_disabled":false,"rental_uris":{"android":"levelo://app?vid=c4899c4c-8199-4647-bf2c-fc8c8282ade6","ios":"levelo://app?vid=c4899c4c-8199-4647-bf2c-fc8c8282ade6"},"vehicle_type_id":"4","last_reported":1700608013,"current_range_meters":30000,"station_id":"ce4bhah2rcd13ifvqei0","pricing_plan_id":"free"},{"bike_id":"d21dce6e-3361-44c3-8f60-8f3ad7dc7a3d","system_id":"levelo_inurba_marseille","lat":43.284534,"lon":5.358662,"is_reserved":false,"is_disabled":false,"rental_uris":{"android":"levelo://app?vid=d21dce6e-3361-44c3-8f60-8f3ad7dc7a3d","ios":"levelo://app?vid=d21dce6e-3361-44c3-8f60-8f3ad7dc7a3d"},"vehicle_type_id":"4","last_reported":1700608013,"current_range_meters":5600,"station_id":"ce4bhah2rcd13ifvqei0","pricing_plan_id":"free"},{"bike_id":"278e215b-8d4d-4543-a0fb-76752307b930","system_id":"levelo_inurba_marseille","lat":43.28456,"lon":5.358847,"is_reserved":false,"is_disabled":false,"rental_uris":{"android":"levelo://app?vid=278e215b-8d4d-4543-a0fb-76752307b930","ios":"levelo://app?vid=278e215b-8d4d-4543-a0fb-76752307b930"},"vehicle_type_id":"4","last_reported":1700608013,"current_range_meters":30000,"station_id":"ce4bhah2rcd13ifvqei0","pricing_plan_id":"free"},{"bike_id":"1230b657-e005-4dad-b234-311363cb0927","system_id":"levelo_inurba_marseille","lat":43.284534,"lon":5.358662,"is_reserved":false,"is_disabled":false,"rental_uris":{"android":"levelo://app?vid=1230b657-e005-4dad-b234-311363cb0927","ios":"levelo://app?vid=1230b657-e005-4dad-b234-311363cb0927"},"vehicle_type_id":"4","last_reported":1700608013,"current_range_meters":30400,"station_id":"ce4bhah2rcd13ifvqei0","pricing_plan_id":"free"},{"bike_id":"453fab20-5e89-48c3-b143-9d8335682de2","system_id":"levelo_inurba_marseille","lat":43.284541,"lon":5.358893,"is_reserved":false,"is_disabled":false,"rental_uris":{"android":"levelo://app?vid=453fab20-5e89-48c3-b143-9d8335682de2","ios":"levelo://app?vid=453fab20-5e89-48c3-b143-9d8335682de2"},"vehicle_type_id":"4","last_reported":1700608013,"current_range_meters":31200,"station_id":"ce4bhah2rcd13ifvqei0","pricing_plan_id":"free"},{"bike_id":"712e721b-a4f4-4beb-b810-500a2a4d0091","system_id":"levelo_inurba_marseille","lat":43.284519,"lon":5.358835,"is_reserved":false,"is_disabled":false,"rental_uris":{"android":"levelo://app?vid=712e721b-a4f4-4beb-b810-500a2a4d0091","ios":"levelo://app?vid=712e721b-a4f4-4beb-b810-500a2a4d0091"},"vehicle_type_id":"4","last_reported":1700608013,"current_range_meters":800,"station_id":"ce4bhah2rcd13ifvqei0","pricing_plan_id":"free"},{"bike_id":"e7668bbe-f331-483a-bd7e-8879571c7540","system_id":"levelo_inurba_marseille","lat":43.294314,"lon":5.397498,"is_reserved":false,"is_disabled":false,"rental_uris":{"android":"levelo://app?vid=e7668bbe-f331-483a-bd7e-8879571c7540","ios":"levelo://app?vid=e7668bbe-f331-483a-bd7e-8879571c7540"},"vehicle_type_id":"4","last_reported":1700608013,"current_range_meters":16800,"station_id":"ce4bh3h2rcd13ifvqdo0","pricing_plan_id":"free"},{"bike_id":"34ad9031-2ada-4923-813d-796c72df32b4","system_id":"levelo_inurba_marseille","lat":43.294314,"lon":5.397498,"is_reserved":false,"is_disabled":false,"rental_uris":{"android":"levelo://app?vid=34ad9031-2ada-4923-813d-796c72df32b4","ios":"levelo://app?vid=34ad9031-2ada-4923-813d-796c72df32b4"},"vehicle_type_id":"4","last_reported":1700608013,"current_range_meters":31200,"station_id":"ce4bh3h2rcd13ifvqdo0","pricing_plan_id":"free"},{"bike_id":"36043778-724e-41cd-9ad0-4790e36fb65d","system_id":"levelo_inurba_marseille","lat":43.285848,"lon":5.350787,"is_reserved":false,"is_disabled":false,"rental_uris":{"android":"levelo://app?vid=36043778-724e-41cd-9ad0-4790e36fb65d","ios":"levelo://app?vid=36043778-724e-41cd-9ad0-4790e36fb65d"},"vehicle_type_id":"4","last_reported":1700608013,"current_range_meters":30000,"station_id":"ce4bhch2rcd13ifvqeug","pricing_plan_id":"free"},{"bike_id":"47d82943-55b7-4d5f-81f3-ba919299497b","system_id":"levelo_inurba_marseille","lat":43.28612,"lon":5.35103,"is_reserved":false,"is_disabled":false,"rental_uris":{"android":"levelo://app?vid=47d82943-55b7-4d5f-81f3-ba919299497b","ios":"levelo://app?vid=47d82943-55b7-4d5f-81f3-ba919299497b"},"vehicle_type_id":"4","last_reported":1700608013,"current_range_meters":30000,"station_id":"ce4bhch2rcd13ifvqeug","pricing_plan_id":"free"},{"bike_id":"93591452-78a8-4deb-aa6d-58319e661151","system_id":"levelo_inurba_marseille","lat":43.286086,"lon":5.351127,"is_reserved":false,"is_disabled":false,"rental_uris":{"android":"levelo://app?vid=93591452-78a8-4deb-aa6d-58319e661151","ios":"levelo://app?vid=93591452-78a8-4deb-aa6d-58319e661151"},"vehicle_type_id":"4","last_reported":1700608013,"current_range_meters":25200,"station_id":"ce4bhch2rcd13ifvqeug","pricing_plan_id":"free"},{"bike_id":"5aa87bae-5799-4cb9-9962-17bda26e06f3","system_id":"levelo_inurba_marseille","lat":43.295713,"lon":5.399639,"is_reserved":false,"is_disabled":false,"rental_uris":{"android":"levelo://app?vid=5aa87bae-5799-4cb9-9962-17bda26e06f3","ios":"levelo://app?vid=5aa87bae-5799-4cb9-9962-17bda26e06f3"},"vehicle_type_id":"4","last_reported":1700608013,"current_range_meters":28400,"station_id":"ce4bh312rcd13ifvqdj0","pricing_plan_id":"free"},{"bike_id":"c5b1eef0-a54f-4ca0-96d4-be37825f0022","system_id":"levelo_inurba_marseille","lat":43.283998,"lon":5.375062,"is_reserved":false,"is_disabled":false,"rental_uris":{"android":"levelo://app?vid=c5b1eef0-a54f-4ca0-96d4-be37825f0022","ios":"levelo://app?vid=c5b1eef0-a54f-4ca0-96d4-be37825f0022"},"vehicle_type_id":"4","last_reported":1700608013,"current_range_meters":25200,"station_id":"ce4bh412rcd13ifvqds0","pricing_plan_id":"free"},{"bike_id":"acbb3f08-be93-413a-ad05-d6bf3384633c","system_id":"levelo_inurba_marseille","lat":43.283998,"lon":5.375062,"is_reserved":false,"is_disabled":false,"rental_uris":{"android":"levelo://app?vid=acbb3f08-be93-413a-ad05-d6bf3384633c","ios":"levelo://app?vid=acbb3f08-be93-413a-ad05-d6bf3384633c"},"vehicle_type_id":"4","last_reported":1700608013,"current_range_meters":6400,"station_id":"ce4bh412rcd13ifvqds0","pricing_plan_id":"free"},{"bike_id":"c2372dd8-e325-4762-8f0c-45f15db5ec94","system_id":"levelo_inurba_marseille","lat":43.295713,"lon":5.399639,"is_reserved":false,"is_disabled":false,"rental_uris":{"android":"levelo://app?vid=c2372dd8-e325-4762-8f0c-45f15db5ec94","ios":"levelo://app?vid=c2372dd8-e325-4762-8f0c-45f15db5ec94"},"vehicle_type_id":"4","last_reported":1700608013,"current_range_meters":26400,"station_id":"ce4bh312rcd13ifvqdj0","pricing_plan_id":"free"},{"bike_id":"b4319b18-5548-4691-90e2-2eac47989fae","system_id":"levelo_inurba_marseille","lat":43.323464,"lon":5.406297,"is_reserved":false,"is_disabled":false,"rental_uris":{"android":"levelo://app?vid=b4319b18-5548-4691-90e2-2eac47989fae","ios":"levelo://app?vid=b4319b18-5548-4691-90e2-2eac47989fae"},"vehicle_type_id":"4","last_reported":1700608013,"current_range_meters":30800,"station_id":"ce4bhq92rcd13ifvqhjg","pricing_plan_id":"free"},{"bike_id":"b9b95390-d201-4459-a702-3f85ef0e4197","system_id":"levelo_inurba_marseille","lat":43.281044,"lon":5.378308,"is_reserved":false,"is_disabled":false,"rental_uris":{"android":"levelo://app?vid=b9b95390-d201-4459-a702-3f85ef0e4197","ios":"levelo://app?vid=b9b95390-d201-4459-a702-3f85ef0e4197"},"vehicle_type_id":"4","last_reported":1700608013,"current_range_meters":0,"station_id":"ce4bha12rcd13ifvqee0","pricing_plan_id":"free"},{"bike_id":"46dbde4e-825b-403f-b6b6-91f886c4539f","system_id":"levelo_inurba_marseille","lat":43.297946,"lon":5.404063,"is_reserved":false,"is_disabled":false,"rental_uris":{"android":"levelo://app?vid=46dbde4e-825b-403f-b6b6-91f886c4539f","ios":"levelo://app?vid=46dbde4e-825b-403f-b6b6-91f886c4539f"},"vehicle_type_id":"4","last_reported":1700608013,"current_range_meters":25200,"station_id":"ce4bh112rcd13ifvqd90","pricing_plan_id":"free"},{"bike_id":"e57c9540-512f-4490-8f63-010ef0e8c825","system_id":"levelo_inurba_marseille","lat":43.284219,"lon":5.3497,"is_reserved":false,"is_disabled":false,"rental_uris":{"android":"levelo://app?vid=e57c9540-512f-4490-8f63-010ef0e8c825","ios":"levelo://app?vid=e57c9540-512f-4490-8f63-010ef0e8c825"},"vehicle_type_id":"4","last_reported":1700608013,"current_range_meters":28400,"station_id":"ce4bhbh2rcd13ifvqepg","pricing_plan_id":"free"},{"bike_id":"a915fd1c-9128-4c2f-bc4f-b0c446622785","system_id":"levelo_inurba_marseille","lat":43.284217,"lon":5.349697,"is_reserved":false,"is_disabled":false,"rental_uris":{"android":"levelo://app?vid=a915fd1c-9128-4c2f-bc4f-b0c446622785","ios":"levelo://app?vid=a915fd1c-9128-4c2f-bc4f-b0c446622785"},"vehicle_type_id":"4","last_reported":1700608013,"current_range_meters":28400,"station_id":"ce4bhbh2rcd13ifvqepg","pricing_plan_id":"free"},{"bike_id":"9d46c555-a24c-4ab2-b004-a425f60c0ce4","system_id":"levelo_inurba_marseille","lat":43.28422,"lon":5.349843,"is_reserved":false,"is_disabled":false,"rental_uris":{"android":"levelo://app?vid=9d46c555-a24c-4ab2-b004-a425f60c0ce4","ios":"levelo://app?vid=9d46c555-a24c-4ab2-b004-a425f60c0ce4"},"vehicle_type_id":"4","last_reported":1700608013,"current_range_meters":9200,"station_id":"ce4bhbh2rcd13ifvqepg","pricing_plan_id":"free"},{"bike_id":"4a2de906-22ae-4536-8388-16e1bd93a100","system_id":"levelo_inurba_marseille","lat":43.2842,"lon":5.34989,"is_reserved":false,"is_disabled":false,"rental_uris":{"android":"levelo://app?vid=4a2de906-22ae-4536-8388-16e1bd93a100","ios":"levelo://app?vid=4a2de906-22ae-4536-8388-16e1bd93a100"},"vehicle_type_id":"4","last_reported":1700608013,"current_range_meters":9600,"station_id":"ce4bhbh2rcd13ifvqepg","pricing_plan_id":"free"},{"bike_id":"2a41fac7-1f30-4d55-a6c5-5380cde75405","system_id":"levelo_inurba_marseille","lat":43.284217,"lon":5.349697,"is_reserved":false,"is_disabled":false,"rental_uris":{"android":"levelo://app?vid=2a41fac7-1f30-4d55-a6c5-5380cde75405","ios":"levelo://app?vid=2a41fac7-1f30-4d55-a6c5-5380cde75405"},"vehicle_type_id":"4","last_reported":1700608013,"current_range_meters":22000,"station_id":"ce4bhbh2rcd13ifvqepg","pricing_plan_id":"free"},{"bike_id":"c8cfd9ab-d3bf-4c62-a1f3-f8793f300892","system_id":"levelo_inurba_marseille","lat":43.284157,"lon":5.349926,"is_reserved":false,"is_disabled":false,"rental_uris":{"android":"levelo://app?vid=c8cfd9ab-d3bf-4c62-a1f3-f8793f300892","ios":"levelo://app?vid=c8cfd9ab-d3bf-4c62-a1f3-f8793f300892"},"vehicle_type_id":"4","last_reported":1700608013,"current_range_meters":30000,"station_id":"ce4bhbh2rcd13ifvqepg","pricing_plan_id":"free"},{"bike_id":"fefd2ea7-5fd7-4c62-b5ae-2417ceab43c6","system_id":"levelo_inurba_marseille","lat":43.292724,"lon":5.401131,"is_reserved":false,"is_disabled":false,"rental_uris":{"android":"levelo://app?vid=fefd2ea7-5fd7-4c62-b5ae-2417ceab43c6","ios":"levelo://app?vid=fefd2ea7-5fd7-4c62-b5ae-2417ceab43c6"},"vehicle_type_id":"4","last_reported":1700608013,"current_range_meters":13600,"station_id":"ce4bh312rcd13ifvqdk0","pricing_plan_id":"free"},{"bike_id":"6d068ae4-8aba-4958-a002-11c2ac3f318a","system_id":"levelo_inurba_marseille","lat":43.282754,"lon":5.350519,"is_reserved":false,"is_disabled":false,"rental_uris":{"android":"levelo://app?vid=6d068ae4-8aba-4958-a002-11c2ac3f318a","ios":"levelo://app?vid=6d068ae4-8aba-4958-a002-11c2ac3f318a"},"vehicle_type_id":"4","last_reported":1700608013,"current_range_meters":30400,"station_id":"ce4bhbp2rcd13ifvqerg","pricing_plan_id":"free"},{"bike_id":"f67f1079-4710-467e-8c34-9d2002a36f9b","system_id":"levelo_inurba_marseille","lat":43.282744,"lon":5.350533,"is_reserved":false,"is_disabled":false,"rental_uris":{"android":"levelo://app?vid=f67f1079-4710-467e-8c34-9d2002a36f9b","ios":"levelo://app?vid=f67f1079-4710-467e-8c34-9d2002a36f9b"},"vehicle_type_id":"4","last_reported":1700608013,"current_range_meters":24800,"station_id":"ce4bhbp2rcd13ifvqerg","pricing_plan_id":"free"},{"bike_id":"29b2d1ae-72bd-4a6b-9046-838ae37f2595","system_id":"levelo_inurba_marseille","lat":43.282754,"lon":5.350519,"is_reserved":false,"is_disabled":false,"rental_uris":{"android":"levelo://app?vid=29b2d1ae-72bd-4a6b-9046-838ae37f2595","ios":"levelo://app?vid=29b2d1ae-72bd-4a6b-9046-838ae37f2595"},"vehicle_type_id":"4","last_reported":1700608013,"current_range_meters":31200,"station_id":"ce4bhbp2rcd13ifvqerg","pricing_plan_id":"free"},{"bike_id":"74e481aa-25b5-4f5b-b8cd-79b4a634f242","system_id":"levelo_inurba_marseille","lat":43.282676,"lon":5.350742,"is_reserved":false,"is_disabled":false,"rental_uris":{"android":"levelo://app?vid=74e481aa-25b5-4f5b-b8cd-79b4a634f242","ios":"levelo://app?vid=74e481aa-25b5-4f5b-b8cd-79b4a634f242"},"vehicle_type_id":"4","last_reported":1700608013,"current_range_meters":30800,"station_id":"ce4bhbp2rcd13ifvqerg","pricing_plan_id":"free"},{"bike_id":"49b4c011-618e-45f7-b321-5a2afe0f4e49","system_id":"levelo_inurba_marseille","lat":43.282754,"lon":5.350519,"is_reserved":false,"is_disabled":false,"rental_uris":{"android":"levelo://app?vid=49b4c011-618e-45f7-b321-5a2afe0f4e49","ios":"levelo://app?vid=49b4c011-618e-45f7-b321-5a2afe0f4e49"},"vehicle_type_id":"4","last_reported":1700608013,"current_range_meters":29600,"station_id":"ce4bhbp2rcd13ifvqerg","pricing_plan_id":"free"},{"bike_id":"0571e252-5acc-4741-aa6f-ba8321e320f8","system_id":"levelo_inurba_marseille","lat":43.282744,"lon":5.350533,"is_reserved":false,"is_disabled":false,"rental_uris":{"android":"levelo://app?vid=0571e252-5acc-4741-aa6f-ba8321e320f8","ios":"levelo://app?vid=0571e252-5acc-4741-aa6f-ba8321e320f8"},"vehicle_type_id":"4","last_reported":1700608013,"current_range_meters":31200,"station_id":"ce4bhbp2rcd13ifvqerg","pricing_plan_id":"free"},{"bike_id":"eace2be8-2781-4338-ba7d-44b9df37bcb4","system_id":"levelo_inurba_marseille","lat":43.28032,"lon":5.36946,"is_reserved":false,"is_disabled":false,"rental_uris":{"android":"levelo://app?vid=eace2be8-2781-4338-ba7d-44b9df37bcb4","ios":"levelo://app?vid=eace2be8-2781-4338-ba7d-44b9df37bcb4"},"vehicle_type_id":"4","last_reported":1700608013,"current_range_meters":31200,"station_id":"ce4bha12rcd13ifvqef0","pricing_plan_id":"free"},{"bike_id":"f0d52c65-ede6-41a7-a7b7-1124edebbb76","system_id":"levelo_inurba_marseille","lat":43.290434,"lon":5.399498,"is_reserved":false,"is_disabled":false,"rental_uris":{"android":"levelo://app?vid=f0d52c65-ede6-41a7-a7b7-1124edebbb76","ios":"levelo://app?vid=f0d52c65-ede6-41a7-a7b7-1124edebbb76"},"vehicle_type_id":"4","last_reported":1700608013,"current_range_meters":18000,"station_id":"ce4bh392rcd13ifvqdm0","pricing_plan_id":"free"},{"bike_id":"e1d45afb-57af-41d3-a237-355b06c1cdb5","system_id":"levelo_inurba_marseille","lat":43.29043,"lon":5.399727,"is_reserved":false,"is_disabled":false,"rental_uris":{"android":"levelo://app?vid=e1d45afb-57af-41d3-a237-355b06c1cdb5","ios":"levelo://app?vid=e1d45afb-57af-41d3-a237-355b06c1cdb5"},"vehicle_type_id":"4","last_reported":1700608013,"current_range_meters":25600,"station_id":"ce4bh392rcd13ifvqdm0","pricing_plan_id":"free"},{"bike_id":"5645c4d2-5495-4568-9ae0-b4eb2965e68f","system_id":"levelo_inurba_marseille","lat":43.284462,"lon":5.392121,"is_reserved":false,"is_disabled":false,"rental_uris":{"android":"levelo://app?vid=5645c4d2-5495-4568-9ae0-b4eb2965e68f","ios":"levelo://app?vid=5645c4d2-5495-4568-9ae0-b4eb2965e68f"},"vehicle_type_id":"4","last_reported":1700608013,"current_range_meters":25600,"station_id":"ce4bhoh2rcd13ifvqh5g","pricing_plan_id":"free"},{"bike_id":"114a23b6-a9ca-4a42-8bbf-4ccf90b3444c","system_id":"levelo_inurba_marseille","lat":43.284462,"lon":5.392121,"is_reserved":false,"is_disabled":false,"rental_uris":{"android":"levelo://app?vid=114a23b6-a9ca-4a42-8bbf-4ccf90b3444c","ios":"levelo://app?vid=114a23b6-a9ca-4a42-8bbf-4ccf90b3444c"},"vehicle_type_id":"4","last_reported":1700608013,"current_range_meters":27200,"station_id":"ce4bhoh2rcd13ifvqh5g","pricing_plan_id":"free"},{"bike_id":"94b21005-7359-4701-ab67-7032a34c940c","system_id":"levelo_inurba_marseille","lat":43.28573,"lon":5.394992,"is_reserved":false,"is_disabled":false,"rental_uris":{"android":"levelo://app?vid=94b21005-7359-4701-ab67-7032a34c940c","ios":"levelo://app?vid=94b21005-7359-4701-ab67-7032a34c940c"},"vehicle_type_id":"4","last_reported":1700608013,"current_range_meters":13200,"station_id":"ce4bh292rcd13ifvqdg0","pricing_plan_id":"free"},{"bike_id":"fc88c1ad-6d2c-45c7-be2f-4b3a945c550b","system_id":"levelo_inurba_marseille","lat":43.285742,"lon":5.395004,"is_reserved":false,"is_disabled":false,"rental_uris":{"android":"levelo://app?vid=fc88c1ad-6d2c-45c7-be2f-4b3a945c550b","ios":"levelo://app?vid=fc88c1ad-6d2c-45c7-be2f-4b3a945c550b"},"vehicle_type_id":"4","last_reported":1700608013,"current_range_meters":30000,"station_id":"ce4bh292rcd13ifvqdg0","pricing_plan_id":"free"},{"bike_id":"4c683c4e-458c-45ab-8dff-9bb218ff037e","system_id":"levelo_inurba_marseille","lat":43.285742,"lon":5.395004,"is_reserved":false,"is_disabled":false,"rental_uris":{"android":"levelo://app?vid=4c683c4e-458c-45ab-8dff-9bb218ff037e","ios":"levelo://app?vid=4c683c4e-458c-45ab-8dff-9bb218ff037e"},"vehicle_type_id":"4","last_reported":1700608013,"current_range_meters":5600,"station_id":"ce4bh292rcd13ifvqdg0","pricing_plan_id":"free"},{"bike_id":"4b664c04-dab5-4084-a5c4-df3decd18aa6","system_id":"levelo_inurba_marseille","lat":43.326605,"lon":5.409903,"is_reserved":false,"is_disabled":false,"rental_uris":{"android":"levelo://app?vid=4b664c04-dab5-4084-a5c4-df3decd18aa6","ios":"levelo://app?vid=4b664c04-dab5-4084-a5c4-df3decd18aa6"},"vehicle_type_id":"4","last_reported":1700608013,"current_range_meters":19600,"station_id":"ce4bhpp2rcd13ifvqhgg","pricing_plan_id":"free"},{"bike_id":"949a4691-7ee9-487e-a899-ae000a662cb1","system_id":"levelo_inurba_marseille","lat":43.304152,"lon":5.412759,"is_reserved":false,"is_disabled":false,"rental_uris":{"android":"levelo://app?vid=949a4691-7ee9-487e-a899-ae000a662cb1","ios":"levelo://app?vid=949a4691-7ee9-487e-a899-ae000a662cb1"},"vehicle_type_id":"4","last_reported":1700608013,"current_range_meters":0,"station_id":"ce4bhop2rcd13ifvqh8g","pricing_plan_id":"free"},{"bike_id":"041db313-cab5-473a-b4e4-bec772538039","system_id":"levelo_inurba_marseille","lat":43.287154,"lon":5.399979,"is_reserved":false,"is_disabled":false,"rental_uris":{"android":"levelo://app?vid=041db313-cab5-473a-b4e4-bec772538039","ios":"levelo://app?vid=041db313-cab5-473a-b4e4-bec772538039"},"vehicle_type_id":"4","last_reported":1700608013,"current_range_meters":22400,"station_id":"ce4bho92rcd13ifvqh3g","pricing_plan_id":"free"},{"bike_id":"f4afe745-ab02-40c8-9e19-1e63969a428a","system_id":"levelo_inurba_marseille","lat":43.287154,"lon":5.399979,"is_reserved":false,"is_disabled":false,"rental_uris":{"android":"levelo://app?vid=f4afe745-ab02-40c8-9e19-1e63969a428a","ios":"levelo://app?vid=f4afe745-ab02-40c8-9e19-1e63969a428a"},"vehicle_type_id":"4","last_reported":1700608013,"current_range_meters":31200,"station_id":"ce4bho92rcd13ifvqh3g","pricing_plan_id":"free"},{"bike_id":"627824b5-28d6-47b8-9b09-d7f7bf591a29","system_id":"levelo_inurba_marseille","lat":43.299579,"lon":5.413255,"is_reserved":false,"is_disabled":false,"rental_uris":{"android":"levelo://app?vid=627824b5-28d6-47b8-9b09-d7f7bf591a29","ios":"levelo://app?vid=627824b5-28d6-47b8-9b09-d7f7bf591a29"},"vehicle_type_id":"4","last_reported":1700608013,"current_range_meters":14800,"station_id":"ce4bhp12rcd13ifvqh9g","pricing_plan_id":"free"},{"bike_id":"ace95692-3564-41c5-980f-4870cf6d0730","system_id":"levelo_inurba_marseille","lat":43.320045,"lon":5.415046,"is_reserved":false,"is_disabled":false,"rental_uris":{"android":"levelo://app?vid=ace95692-3564-41c5-980f-4870cf6d0730","ios":"levelo://app?vid=ace95692-3564-41c5-980f-4870cf6d0730"},"vehicle_type_id":"4","last_reported":1700608013,"current_range_meters":26400,"station_id":"ce4bhq92rcd13ifvqhkg","pricing_plan_id":"free"},{"bike_id":"d93a026b-5aa3-41f8-9040-ad4093540e65","system_id":"levelo_inurba_marseille","lat":43.279742,"lon":5.38744,"is_reserved":false,"is_disabled":false,"rental_uris":{"android":"levelo://app?vid=d93a026b-5aa3-41f8-9040-ad4093540e65","ios":"levelo://app?vid=d93a026b-5aa3-41f8-9040-ad4093540e65"},"vehicle_type_id":"4","last_reported":1700608013,"current_range_meters":22000,"station_id":"ce4bhg12rcd13ifvqf80","pricing_plan_id":"free"},{"bike_id":"4c80a4b8-c366-4e24-8a38-3e4c2f36eaae","system_id":"levelo_inurba_marseille","lat":43.27963,"lon":5.38735,"is_reserved":false,"is_disabled":false,"rental_uris":{"android":"levelo://app?vid=4c80a4b8-c366-4e24-8a38-3e4c2f36eaae","ios":"levelo://app?vid=4c80a4b8-c366-4e24-8a38-3e4c2f36eaae"},"vehicle_type_id":"4","last_reported":1700608013,"current_range_meters":9600,"station_id":"ce4bhg12rcd13ifvqf80","pricing_plan_id":"free"},{"bike_id":"cf7c6503-d761-4e4a-b826-f55f74848caf","system_id":"levelo_inurba_marseille","lat":43.34879,"lon":5.37515,"is_reserved":false,"is_disabled":false,"rental_uris":{"android":"levelo://app?vid=cf7c6503-d761-4e4a-b826-f55f74848caf","ios":"levelo://app?vid=cf7c6503-d761-4e4a-b826-f55f74848caf"},"vehicle_type_id":"4","last_reported":1700608013,"current_range_meters":7200,"station_id":"","pricing_plan_id":"free"},{"bike_id":"045c70f2-7606-42e8-8050-b126bde728dd","system_id":"levelo_inurba_marseille","lat":43.292569,"lon":5.409107,"is_reserved":false,"is_disabled":false,"rental_uris":{"android":"levelo://app?vid=045c70f2-7606-42e8-8050-b126bde728dd","ios":"levelo://app?vid=045c70f2-7606-42e8-8050-b126bde728dd"},"vehicle_type_id":"4","last_reported":1700608013,"current_range_meters":7200,"station_id":"ce4bh192rcd13ifvqdc0","pricing_plan_id":"free"},{"bike_id":"0cd96ede-41dc-4587-a581-a4e3f2a19eb8","system_id":"levelo_inurba_marseille","lat":43.292571,"lon":5.409107,"is_reserved":false,"is_disabled":false,"rental_uris":{"android":"levelo://app?vid=0cd96ede-41dc-4587-a581-a4e3f2a19eb8","ios":"levelo://app?vid=0cd96ede-41dc-4587-a581-a4e3f2a19eb8"},"vehicle_type_id":"4","last_reported":1700608013,"current_range_meters":9200,"station_id":"ce4bh192rcd13ifvqdc0","pricing_plan_id":"free"},{"bike_id":"8fba0ca2-3f94-4591-8094-3fb8f24b54d7","system_id":"levelo_inurba_marseille","lat":43.292569,"lon":5.409107,"is_reserved":false,"is_disabled":false,"rental_uris":{"android":"levelo://app?vid=8fba0ca2-3f94-4591-8094-3fb8f24b54d7","ios":"levelo://app?vid=8fba0ca2-3f94-4591-8094-3fb8f24b54d7"},"vehicle_type_id":"4","last_reported":1700608013,"current_range_meters":24000,"station_id":"ce4bh192rcd13ifvqdc0","pricing_plan_id":"free"},{"bike_id":"e709c08e-6284-4689-a9d6-07caf9663a54","system_id":"levelo_inurba_marseille","lat":43.292557,"lon":5.409106,"is_reserved":false,"is_disabled":false,"rental_uris":{"android":"levelo://app?vid=e709c08e-6284-4689-a9d6-07caf9663a54","ios":"levelo://app?vid=e709c08e-6284-4689-a9d6-07caf9663a54"},"vehicle_type_id":"4","last_reported":1700608013,"current_range_meters":0,"station_id":"ce4bh192rcd13ifvqdc0","pricing_plan_id":"free"},{"bike_id":"736b1083-7c43-440b-ad19-86b49321d04b","system_id":"levelo_inurba_marseille","lat":43.279536,"lon":5.393173,"is_reserved":false,"is_disabled":false,"rental_uris":{"android":"levelo://app?vid=736b1083-7c43-440b-ad19-86b49321d04b","ios":"levelo://app?vid=736b1083-7c43-440b-ad19-86b49321d04b"},"vehicle_type_id":"4","last_reported":1700608013,"current_range_meters":0,"station_id":"","pricing_plan_id":"free"},{"bike_id":"99b7b3e2-fb47-4e03-b5b8-5bf5b8fd0d6c","system_id":"levelo_inurba_marseille","lat":43.29365,"lon":5.41261,"is_reserved":false,"is_disabled":false,"rental_uris":{"android":"levelo://app?vid=99b7b3e2-fb47-4e03-b5b8-5bf5b8fd0d6c","ios":"levelo://app?vid=99b7b3e2-fb47-4e03-b5b8-5bf5b8fd0d6c"},"vehicle_type_id":"4","last_reported":1700608013,"current_range_meters":2800,"station_id":"","pricing_plan_id":"free"},{"bike_id":"094903b1-167e-41c9-983f-be2bb2c37b6e","system_id":"levelo_inurba_marseille","lat":43.280784,"lon":5.396622,"is_reserved":false,"is_disabled":false,"rental_uris":{"android":"levelo://app?vid=094903b1-167e-41c9-983f-be2bb2c37b6e","ios":"levelo://app?vid=094903b1-167e-41c9-983f-be2bb2c37b6e"},"vehicle_type_id":"4","last_reported":1700608013,"current_range_meters":26400,"station_id":"ce4bho12rcd13ifvqh2g","pricing_plan_id":"free"},{"bike_id":"f82a2d6f-bf3a-4360-8f4b-d5ede153ebff","system_id":"levelo_inurba_marseille","lat":43.280784,"lon":5.396622,"is_reserved":false,"is_disabled":false,"rental_uris":{"android":"levelo://app?vid=f82a2d6f-bf3a-4360-8f4b-d5ede153ebff","ios":"levelo://app?vid=f82a2d6f-bf3a-4360-8f4b-d5ede153ebff"},"vehicle_type_id":"4","last_reported":1700608013,"current_range_meters":24800,"station_id":"ce4bho12rcd13ifvqh2g","pricing_plan_id":"free"},{"bike_id":"c8f96e88-7935-4759-924d-d86aa6fcd9e0","system_id":"levelo_inurba_marseille","lat":43.303837,"lon":5.418724,"is_reserved":false,"is_disabled":false,"rental_uris":{"android":"levelo://app?vid=c8f96e88-7935-4759-924d-d86aa6fcd9e0","ios":"levelo://app?vid=c8f96e88-7935-4759-924d-d86aa6fcd9e0"},"vehicle_type_id":"4","last_reported":1700608013,"current_range_meters":22000,"station_id":"ce4bhop2rcd13ifvqh7g","pricing_plan_id":"free"},{"bike_id":"e24b92ef-de16-49d7-be11-ad2f9092635e","system_id":"levelo_inurba_marseille","lat":43.278399,"lon":5.392139,"is_reserved":false,"is_disabled":false,"rental_uris":{"android":"levelo://app?vid=e24b92ef-de16-49d7-be11-ad2f9092635e","ios":"levelo://app?vid=e24b92ef-de16-49d7-be11-ad2f9092635e"},"vehicle_type_id":"4","last_reported":1700608013,"current_range_meters":8400,"station_id":"ce4bhjp2rcd13ifvqga0","pricing_plan_id":"free"},{"bike_id":"e1b55124-3678-4f35-bcd5-df0abc78cbb3","system_id":"levelo_inurba_marseille","lat":43.33612,"lon":5.410321,"is_reserved":false,"is_disabled":false,"rental_uris":{"android":"levelo://app?vid=e1b55124-3678-4f35-bcd5-df0abc78cbb3","ios":"levelo://app?vid=e1b55124-3678-4f35-bcd5-df0abc78cbb3"},"vehicle_type_id":"4","last_reported":1700608013,"current_range_meters":31200,"station_id":"ce4bhqh2rcd13ifvqhmg","pricing_plan_id":"free"},{"bike_id":"88fdd8f0-3689-4857-af04-f7263958a8f2","system_id":"levelo_inurba_marseille","lat":43.273609,"lon":5.362708,"is_reserved":false,"is_disabled":false,"rental_uris":{"android":"levelo://app?vid=88fdd8f0-3689-4857-af04-f7263958a8f2","ios":"levelo://app?vid=88fdd8f0-3689-4857-af04-f7263958a8f2"},"vehicle_type_id":"4","last_reported":1700608013,"current_range_meters":29600,"station_id":"ce4bhbh2rcd13ifvqeo0","pricing_plan_id":"free"},{"bike_id":"b65b13fd-935e-4127-a40c-20b40fa60eae","system_id":"levelo_inurba_marseille","lat":43.33612,"lon":5.410321,"is_reserved":false,"is_disabled":false,"rental_uris":{"android":"levelo://app?vid=b65b13fd-935e-4127-a40c-20b40fa60eae","ios":"levelo://app?vid=b65b13fd-935e-4127-a40c-20b40fa60eae"},"vehicle_type_id":"4","last_reported":1700608013,"current_range_meters":18400,"station_id":"ce4bhqh2rcd13ifvqhmg","pricing_plan_id":"free"},{"bike_id":"de78f607-a59c-4cbe-8b35-d5df823b73ff","system_id":"levelo_inurba_marseille","lat":43.336148,"lon":5.410349,"is_reserved":false,"is_disabled":false,"rental_uris":{"android":"levelo://app?vid=de78f607-a59c-4cbe-8b35-d5df823b73ff","ios":"levelo://app?vid=de78f607-a59c-4cbe-8b35-d5df823b73ff"},"vehicle_type_id":"4","last_reported":1700608013,"current_range_meters":3600,"station_id":"ce4bhqh2rcd13ifvqhmg","pricing_plan_id":"free"},{"bike_id":"0a4bf132-8537-41ed-a6ec-6aa3d7297d1c","system_id":"levelo_inurba_marseille","lat":43.276771,"lon":5.388799,"is_reserved":false,"is_disabled":false,"rental_uris":{"android":"levelo://app?vid=0a4bf132-8537-41ed-a6ec-6aa3d7297d1c","ios":"levelo://app?vid=0a4bf132-8537-41ed-a6ec-6aa3d7297d1c"},"vehicle_type_id":"4","last_reported":1700608013,"current_range_meters":2400,"station_id":"ce4bhi12rcd13ifvqfo0","pricing_plan_id":"free"},{"bike_id":"5a32121e-a742-4918-a78b-988b39cdf606","system_id":"levelo_inurba_marseille","lat":43.279952,"lon":5.400085,"is_reserved":false,"is_disabled":false,"rental_uris":{"android":"levelo://app?vid=5a32121e-a742-4918-a78b-988b39cdf606","ios":"levelo://app?vid=5a32121e-a742-4918-a78b-988b39cdf606"},"vehicle_type_id":"4","last_reported":1700608013,"current_range_meters":18400,"station_id":"ce4bho92rcd13ifvqh4g","pricing_plan_id":"free"},{"bike_id":"114187af-32af-4dba-9a5b-7cf8db15d20c","system_id":"levelo_inurba_marseille","lat":43.310785,"lon":5.424305,"is_reserved":false,"is_disabled":false,"rental_uris":{"android":"levelo://app?vid=114187af-32af-4dba-9a5b-7cf8db15d20c","ios":"levelo://app?vid=114187af-32af-4dba-9a5b-7cf8db15d20c"},"vehicle_type_id":"4","last_reported":1700608013,"current_range_meters":30000,"station_id":"ce4bhp92rcd13ifvqhag","pricing_plan_id":"free"},{"bike_id":"046a1592-e371-4373-8640-74aebd7f5e72","system_id":"levelo_inurba_marseille","lat":43.340804,"lon":5.410219,"is_reserved":false,"is_disabled":false,"rental_uris":{"android":"levelo://app?vid=046a1592-e371-4373-8640-74aebd7f5e72","ios":"levelo://app?vid=046a1592-e371-4373-8640-74aebd7f5e72"},"vehicle_type_id":"4","last_reported":1700608013,"current_range_meters":10400,"station_id":"ce4bhqh2rcd13ifvqhlg","pricing_plan_id":"free"},{"bike_id":"f592bd96-cc29-4f0f-b6af-90518383de8e","system_id":"levelo_inurba_marseille","lat":43.340804,"lon":5.410219,"is_reserved":false,"is_disabled":false,"rental_uris":{"android":"levelo://app?vid=f592bd96-cc29-4f0f-b6af-90518383de8e","ios":"levelo://app?vid=f592bd96-cc29-4f0f-b6af-90518383de8e"},"vehicle_type_id":"4","last_reported":1700608013,"current_range_meters":24000,"station_id":"ce4bhqh2rcd13ifvqhlg","pricing_plan_id":"free"},{"bike_id":"b8f8de69-b0ef-4a0a-8c6b-cd4d5e98bed4","system_id":"levelo_inurba_marseille","lat":43.340804,"lon":5.410219,"is_reserved":false,"is_disabled":false,"rental_uris":{"android":"levelo://app?vid=b8f8de69-b0ef-4a0a-8c6b-cd4d5e98bed4","ios":"levelo://app?vid=b8f8de69-b0ef-4a0a-8c6b-cd4d5e98bed4"},"vehicle_type_id":"4","last_reported":1700608013,"current_range_meters":400,"station_id":"ce4bhqh2rcd13ifvqhlg","pricing_plan_id":"free"},{"bike_id":"61d6d11b-ac8b-4c81-8380-d0ef96302c3b","system_id":"levelo_inurba_marseille","lat":43.274103,"lon":5.394016,"is_reserved":false,"is_disabled":false,"rental_uris":{"android":"levelo://app?vid=61d6d11b-ac8b-4c81-8380-d0ef96302c3b","ios":"levelo://app?vid=61d6d11b-ac8b-4c81-8380-d0ef96302c3b"},"vehicle_type_id":"4","last_reported":1700608013,"current_range_meters":26000,"station_id":"ce4bhdp2rcd13ifvqf20","pricing_plan_id":"free"},{"bike_id":"dc8755ed-edf3-48b6-8793-6271c0f7e02d","system_id":"levelo_inurba_marseille","lat":43.273129,"lon":5.390725,"is_reserved":false,"is_disabled":false,"rental_uris":{"android":"levelo://app?vid=dc8755ed-edf3-48b6-8793-6271c0f7e02d","ios":"levelo://app?vid=dc8755ed-edf3-48b6-8793-6271c0f7e02d"},"vehicle_type_id":"4","last_reported":1700608013,"current_range_meters":28000,"station_id":"ce4bhgp2rcd13ifvqfe0","pricing_plan_id":"free"},{"bike_id":"61ea4dbe-846d-4fc5-8400-6d6bed3b76ca","system_id":"levelo_inurba_marseille","lat":43.295511,"lon":5.422926,"is_reserved":false,"is_disabled":false,"rental_uris":{"android":"levelo://app?vid=61ea4dbe-846d-4fc5-8400-6d6bed3b76ca","ios":"levelo://app?vid=61ea4dbe-846d-4fc5-8400-6d6bed3b76ca"},"vehicle_type_id":"4","last_reported":1700608013,"current_range_meters":30400,"station_id":"ce4bhph2rcd13ifvqhdg","pricing_plan_id":"free"},{"bike_id":"047064be-c3a7-4470-8d35-33830f8d085d","system_id":"levelo_inurba_marseille","lat":43.295511,"lon":5.422926,"is_reserved":false,"is_disabled":false,"rental_uris":{"android":"levelo://app?vid=047064be-c3a7-4470-8d35-33830f8d085d","ios":"levelo://app?vid=047064be-c3a7-4470-8d35-33830f8d085d"},"vehicle_type_id":"4","last_reported":1700608013,"current_range_meters":26400,"station_id":"ce4bhph2rcd13ifvqhdg","pricing_plan_id":"free"},{"bike_id":"54c01033-6121-43cd-99f3-7b0407a11e9f","system_id":"levelo_inurba_marseille","lat":43.295511,"lon":5.422926,"is_reserved":false,"is_disabled":false,"rental_uris":{"android":"levelo://app?vid=54c01033-6121-43cd-99f3-7b0407a11e9f","ios":"levelo://app?vid=54c01033-6121-43cd-99f3-7b0407a11e9f"},"vehicle_type_id":"4","last_reported":1700608013,"current_range_meters":31200,"station_id":"ce4bhph2rcd13ifvqhdg","pricing_plan_id":"free"},{"bike_id":"d63f0213-db4d-4ade-9fb5-b0161bcbc51a","system_id":"levelo_inurba_marseille","lat":43.272205,"lon":5.392638,"is_reserved":false,"is_disabled":false,"rental_uris":{"android":"levelo://app?vid=d63f0213-db4d-4ade-9fb5-b0161bcbc51a","ios":"levelo://app?vid=d63f0213-db4d-4ade-9fb5-b0161bcbc51a"},"vehicle_type_id":"4","last_reported":1700608013,"current_range_meters":0,"station_id":"","pricing_plan_id":"free"},