{"last_updated":1752776157,"ttl":60,"version":"2.2","data":{"bikes":[{"bike_id":"53b742a7-31ae-4272-9bba-7740339e2a2f","system_id":"levelo_inurba_marseille","lat":43.33747,"lon":5.37463,"is_reserved":false,"is_disabled":false,"rental_uris":{"android":"levelo://app?vid=53b742a7-31ae-4272-9bba-7740339e2a2f","ios":"levelo://app?vid=53b742a7-31ae-4272-9bba-7740339e2a2f"},"vehicle_type_id":"1","last_reported":1752776158,"current_range_meters":23200,"station_id":"","pricing_plan_id":"cebpf4jnsgd1na2vs0mg"},{"bike_id":"a6671a95-1845-42a3-892f-61a6e672bd9b","system_id":"levelo_inurba_marseille","lat":43.30797,"lon":5.38152,"is_reserved":false,"is_disabled":false,"rental_uris":{"android":"levelo://app?vid=a6671a95-1845-42a3-892f-61a6e672bd9b","ios":"levelo://app?vid=a6671a95-1845-42a3-892f-61a6e672bd9b"},"vehicle_type_id":"4","last_reported":1752776158,"current_range_meters":2800,"station_id":"ce4bgt12rcd13ifvqce0","pricing_plan_id":"cebpf4jnsgd1na2vs0mg"},{"bike_id":"d98ef30e-38a0-41ef-a00a-304afa979a1e","system_id":"levelo_inurba_marseille","lat":43.29899,"lon":5.43672,"is_reserved":false,"is_disabled":false,"rental_uris":{"android":"levelo://app?vid=d98ef30e-38a0-41ef-a00a-304afa979a1e","ios":"levelo://app?vid=d98ef30e-38a0-41ef-a00a-304afa979a1e"},"vehicle_type_id":"4","last_reported":1752776158,"current_range_meters":2800,"station_id":"ce4bhpp2rcd13ifvqhfg","pricing_plan_id":"cebpf4jnsgd1na2vs0mg"},{"bike_id":"bb9f49ea-1e89-49e5-b33e-d9eb304dbf6e","system_id":"levelo_inurba_marseille","lat":43.303784,"lon":5.424876,"is_reserved":false,"is_disabled":false,"rental_uris":{"android":"levelo://app?vid=bb9f49ea-1e89-49e5-b33e-d9eb304dbf6e","ios":"levelo://app?vid=bb9f49ea-1e89-49e5-b33e-d9eb304dbf6e"},"vehicle_type_id":"4","last_reported":1752776158,"current_range_meters":2800,"station_id":"ce4bhoh2rcd13ifvqh6g","pricing_plan_id":"cebpf4jnsgd1na2vs0mg"},{"bike_id":"8ea6b39b-785b-4550-a6c2-d7a2c33ba1a0","system_id":"levelo_inurba_marseille","lat":43.30538,"lon":5.36718,"is_reserved":false,"is_disabled":false,"rental_uris":{"android":"levelo://app?vid=8ea6b39b-785b-4550-a6c2-d7a2c33ba1a0","ios":"levelo://app?vid=8ea6b39b-785b-4550-a6c2-d7a2c33ba1a0"},"vehicle_type_id":"4","last_reported":1752776158,"current_range_meters":2800,"station_id":"ce4bgrp2rcd13ifvqc9g","pricing_plan_id":"cebpf4jnsgd1na2vs0mg"},{"bike_id":"9a4a3500-7e0a-46b6-95d2-530a92fdd397","system_id":"levelo_inurba_marseille","lat":43.29965,"lon":5.38493,"is_reserved":false,"is_disabled":false,"rental_uris":{"android":"levelo://app?vid=9a4a3500-7e0a-46b6-95d2-530a92fdd397","ios":"levelo://app?vid=9a4a3500-7e0a-46b6-95d2-530a92fdd397"},"vehicle_type_id":"4","last_reported":1752776158,"current_range_meters":1600,"station_id":"ce4bgj92rcd13ifvqbd0","pricing_plan_id":"cebpf4jnsgd1na2vs0mg"},{"bike_id":"12651d31-3098-4390-a3f4-707086a85212","system_id":"levelo_inurba_marseille","lat":43.243472,"lon":5.396613,"is_reserved":false,"is_disabled":false,"rental_uris":{"android":"levelo://app?vid=12651d31-3098-4390-a3f4-707086a85212","ios":"levelo://app?vid=12651d31-3098-4390-a3f4-707086a85212"},"vehicle_type_id":"4","last_reported":1752776158,"current_range_meters":2800,"station_id":"ce4bhn12rcd13ifvqgpg","pricing_plan_id":"cebpf4jnsgd1na2vs0mg"},{"bike_id":"852d2d1e-a330-4546-8e30-25800a963d29","system_id":"levelo_inurba_marseille","lat":43.304209,"lon":5.397425,"is_reserved":false,"is_disabled":false,"rental_uris":{"android":"levelo://app?vid=852d2d1e-a330-4546-8e30-25800a963d29","ios":"levelo://app?vid=852d2d1e-a330-4546-8e30-25800a963d29"},"vehicle_type_id":"4","last_reported":1752776158,"current_range_meters":2800,"station_id":"ce4bh092rcd13ifvqd20","pricing_plan_id":"cebpf4jnsgd1na2vs0mg"},{"bike_id":"a112dc98-801e-4786-b0e0-4552bfb2ea8c","system_id":"levelo_inurba_marseille","lat":43.27212,"lon":5.39177,"is_reserved":false,"is_disabled":false,"rental_uris":{"android":"levelo://app?vid=a112dc98-801e-4786-b0e0-4552bfb2ea8c","ios":"levelo://app?vid=a112dc98-801e-4786-b0e0-4552bfb2ea8c"},"vehicle_type_id":"4","last_reported":1752776158,"current_range_meters":2800,"station_id":"ce4bhhp2rcd13ifvqfm0","pricing_plan_id":"cebpf4jnsgd1na2vs0mg"},{"bike_id":"1fd5a843-d6b8-42a3-8c1e-9a601a5a3a42","system_id":"levelo_inurba_marseille","lat":43.25729,"lon":5.41091,"is_reserved":false,"is_disabled":false,"rental_uris":{"android":"levelo://app?vid=1fd5a843-d6b8-42a3-8c1e-9a601a5a3a42","ios":"levelo://app?vid=1fd5a843-d6b8-42a3-8c1e-9a601a5a3a42"},"vehicle_type_id":"4","last_reported":1752776158,"current_range_meters":3200,"station_id":"ce4bhkp2rcd13ifvqgd0","pricing_plan_id":"cebpf4jnsgd1na2vs0mg"},{"bike_id":"e3f0f751-1a0c-4355-87ca-9acabe9f3e2c","system_id":"levelo_inurba_marseille","lat":43.29784,"lon":5.39337,"is_reserved":false,"is_disabled":false,"rental_uris":{"android":"levelo://app?vid=e3f0f751-1a0c-4355-87ca-9acabe9f3e2c","ios":"levelo://app?vid=e3f0f751-1a0c-4355-87ca-9acabe9f3e2c"},"vehicle_type_id":"4","last_reported":1752776158,"current_range_meters":2800,"station_id":"chh1huq6cuj3fo74tm60","pricing_plan_id":"cebpf4jnsgd1na2vs0mg"},{"bike_id":"2562625e-4daa-4d2c-8c3f-b5d440777a0f","system_id":"levelo_inurba_marseille","lat":43.303,"lon":5.39195,"is_reserved":false,"is_disabled":false,"rental_uris":{"android":"levelo://app?vid=2562625e-4daa-4d2c-8c3f-b5d440777a0f","ios":"levelo://app?vid=2562625e-4daa-4d2c-8c3f-b5d440777a0f"},"vehicle_type_id":"4","last_reported":1752776158,"current_range_meters":3200,"station_id":"ce4bgkh2rcd13ifvqbk0","pricing_plan_id":"cebpf4jnsgd1na2vs0mg"},{"bike_id":"35cab97f-02d5-469e-bf42-4acd08ed116f","system_id":"levelo_inurba_marseille","lat":43.3093,"lon":5.40143,"is_reserved":false,"is_disabled":false,"rental_uris":{"android":"levelo://app?vid=35cab97f-02d5-469e-bf42-4acd08ed116f","ios":"levelo://app?vid=35cab97f-02d5-469e-bf42-4acd08ed116f"},"vehicle_type_id":"4","last_reported":1752776158,"current_range_meters":3200,"station_id":"ce4bgvp2rcd13ifvqct0","pricing_plan_id":"cebpf4jnsgd1na2vs0mg"},{"bike_id":"d555cc46-bc21-42fb-90d1-4983139444cc","system_id":"levelo_inurba_marseille","lat":43.292285,"lon":5.360515,"is_reserved":false,"is_disabled":true,"rental_uris":{"android":"levelo://app?vid=d555cc46-bc21-42fb-90d1-4983139444cc","ios":"levelo://app?vid=d555cc46-bc21-42fb-90d1-4983139444cc"},"vehicle_type_id":"4","last_reported":1752776158,"current_range_meters":3200,"station_id":"","pricing_plan_id":"cebpf4jnsgd1na2vs0mg"},{"bike_id":"080b0f22-14dd-4044-a18f-ee7f74366cea","system_id":"levelo_inurba_marseille","lat":43.32,"lon":5.3812,"is_reserved":false,"is_disabled":true,"rental_uris":{"android":"levelo://app?vid=080b0f22-14dd-4044-a18f-ee7f74366cea","ios":"levelo://app?vid=080b0f22-14dd-4044-a18f-ee7f74366cea"},"vehicle_type_id":"4","last_reported":1752776158,"current_range_meters":3200,"station_id":"ce4bhr12rcd13ifvqhpg","pricing_plan_id":"cebpf4jnsgd1na2vs0mg"},{"bike_id":"519a00fa-84cd-410c-a865-d9485ad12be8","system_id":"levelo_inurba_marseille","lat":43.29707,"lon":5.36626,"is_reserved":false,"is_disabled":false,"rental_uris":{"android":"levelo://app?vid=519a00fa-84cd-410c-a865-d9485ad12be8","ios":"levelo://app?vid=519a00fa-84cd-410c-a865-d9485ad12be8"},"vehicle_type_id":"4","last_reported":1752776158,"current_range_meters":3600,"station_id":"ce4bgn12rcd13ifvqbt0","pricing_plan_id":"cebpf4jnsgd1na2vs0mg"},{"bike_id":"2a3b1ee5-a9fa-474a-a724-06f238fb5ce2","system_id":"levelo_inurba_marseille","lat":43.261935,"lon":5.374858,"is_reserved":false,"is_disabled":false,"rental_uris":{"android":"levelo://app?vid=2a3b1ee5-a9fa-474a-a724-06f238fb5ce2","ios":"levelo://app?vid=2a3b1ee5-a9fa-474a-a724-06f238fb5ce2"},"vehicle_type_id":"4","last_reported":1752776158,"current_range_meters":3600,"station_id":"ce4bhgp2rcd13ifvqfc0","pricing_plan_id":"cebpf4jnsgd1na2vs0mg"},{"bike_id":"b0fa9962-964a-4701-b7d9-cbdb5baf8259","system_id":"levelo_inurba_marseille","lat":43.29229,"lon":5.3605,"is_reserved":false,"is_disabled":false,"rental_uris":{"android":"levelo://app?vid=b0fa9962-964a-4701-b7d9-cbdb5baf8259","ios":"levelo://app?vid=b0fa9962-964a-4701-b7d9-cbdb5baf8259"},"vehicle_type_id":"4","last_reported":1752776158,"current_range_meters":3600,"station_id":"ce4bhbh2rcd13ifvqeqg","pricing_plan_id":"cebpf4jnsgd1na2vs0mg"},{"bike_id":"b9a6636b-6eb2-4963-b3e2-a8dbff189052","system_id":"levelo_inurba_marseille","lat":43.29703,"lon":5.3661,"is_reserved":false,"is_disabled":false,"rental_uris":{"android":"levelo://app?vid=b9a6636b-6eb2-4963-b3e2-a8dbff189052","ios":"levelo://app?vid=b9a6636b-6eb2-4963-b3e2-a8dbff189052"},"vehicle_type_id":"4","last_reported":1752776158,"current_range_meters":3600,"station_id":"ce4bgn12rcd13ifvqbt0","pricing_plan_id":"cebpf4jnsgd1na2vs0mg"},{"bike_id":"fb830359-8394-4324-b8f5-33acf8946178","system_id":"levelo_inurba_marseille","lat":43.31216,"lon":5.36848,"is_reserved":false,"is_disabled":false,"rental_uris":{"android":"levelo://app?vid=fb830359-8394-4324-b8f5-33acf8946178","ios":"levelo://app?vid=fb830359-8394-4324-b8f5-33acf8946178"},"vehicle_type_id":"4","last_reported":1752776158,"current_range_meters":4000,"station_id":"ce4bgl92rcd13ifvqbq0","pricing_plan_id":"cebpf4jnsgd1na2vs0mg"},{"bike_id":"425137e2-13f6-462c-99a3-617e8ca09602","system_id":"levelo_inurba_marseille","lat":43.29263,"lon":5.38435,"is_reserved":false,"is_disabled":false,"rental_uris":{"android":"levelo://app?vid=425137e2-13f6-462c-99a3-617e8ca09602","ios":"levelo://app?vid=425137e2-13f6-462c-99a3-617e8ca09602"},"vehicle_type_id":"4","last_reported":1752776158,"current_range_meters":4000,"station_id":"ce4bh692rcd13ifvqea0","pricing_plan_id":"cebpf4jnsgd1na2vs0mg"},{"bike_id":"1e515cf4-f87c-4630-a305-971ae7029dcd","system_id":"levelo_inurba_marseille","lat":43.2587,"lon":5.39904,"is_reserved":false,"is_disabled":false,"rental_uris":{"android":"levelo://app?vid=1e515cf4-f87c-4630-a305-971ae7029dcd","ios":"levelo://app?vid=1e515cf4-f87c-4630-a305-971ae7029dcd"},"vehicle_type_id":"4","last_reported":1752776158,"current_range_meters":3600,"station_id":"ce4bhl92rcd13ifvqghg","pricing_plan_id":"cebpf4jnsgd1na2vs0mg"},{"bike_id":"8eb1455b-2ebe-4d37-ad98-e52734cbe969","system_id":"levelo_inurba_marseille","lat":43.29529,"lon":5.39032,"is_reserved":false,"is_disabled":false,"rental_uris":{"android":"levelo://app?vid=8eb1455b-2ebe-4d37-ad98-e52734cbe969","ios":"levelo://app?vid=8eb1455b-2ebe-4d37-ad98-e52734cbe969"},"vehicle_type_id":"4","last_reported":1752776158,"current_range_meters":6000,"station_id":"ce4bh3p2rcd13ifvqdp0","pricing_plan_id":"cebpf4jnsgd1na2vs0mg"},{"bike_id":"c65d43f0-1d33-4ac9-a0be-c8257fe5e552","system_id":"levelo_inurba_marseille","lat":43.29943,"lon":5.36488,"is_reserved":false,"is_disabled":false,"rental_uris":{"android":"levelo://app?vid=c65d43f0-1d33-4ac9-a0be-c8257fe5e552","ios":"levelo://app?vid=c65d43f0-1d33-4ac9-a0be-c8257fe5e552"},"vehicle_type_id":"4","last_reported":1752776158,"current_range_meters":4000,"station_id":"","pricing_plan_id":"cebpf4jnsgd1na2vs0mg"},{"bike_id":"3f21ecc2-1be8-4427-b89f-9e3095d919de","system_id":"levelo_inurba_marseille","lat":43.2841,"lon":5.34974,"is_reserved":false,"is_disabled":false,"rental_uris":{"android":"levelo://app?vid=3f21ecc2-1be8-4427-b89f-9e3095d919de","ios":"levelo://app?vid=3f21ecc2-1be8-4427-b89f-9e3095d919de"},"vehicle_type_id":"4","last_reported":1752776158,"current_range_meters":4400,"station_id":"ce4bhbh2rcd13ifvqepg","pricing_plan_id":"cebpf4jnsgd1na2vs0mg"},{"bike_id":"b20a7037-d56f-46e3-ad82-110a28b075b5","system_id":"levelo_inurba_marseille","lat":43.299133,"lon":5.381439,"is_reserved":false,"is_disabled":false,"rental_uris":{"android":"levelo://app?vid=b20a7037-d56f-46e3-ad82-110a28b075b5","ios":"levelo://app?vid=b20a7037-d56f-46e3-ad82-110a28b075b5"},"vehicle_type_id":"4","last_reported":1752776158,"current_range_meters":4400,"station_id":"ce4bgj12rcd13ifvqbc0","pricing_plan_id":"cebpf4jnsgd1na2vs0mg"},{"bike_id":"f0ff7554-c7be-4d23-b503-55e59033ea6c","system_id":"levelo_inurba_marseille","lat":43.27566,"lon":5.38408,"is_reserved":false,"is_disabled":false,"rental_uris":{"android":"levelo://app?vid=f0ff7554-c7be-4d23-b503-55e59033ea6c","ios":"levelo://app?vid=f0ff7554-c7be-4d23-b503-55e59033ea6c"},"vehicle_type_id":"4","last_reported":1752776158,"current_range_meters":4800,"station_id":"ce4bhh92rcd13ifvqfi0","pricing_plan_id":"cebpf4jnsgd1na2vs0mg"},{"bike_id":"e7be23bf-1a7c-45a4-857f-aa35bae90e3d","system_id":"levelo_inurba_marseille","lat":43.26194,"lon":5.37445,"is_reserved":false,"is_disabled":false,"rental_uris":{"android":"levelo://app?vid=e7be23bf-1a7c-45a4-857f-aa35bae90e3d","ios":"levelo://app?vid=e7be23bf-1a7c-45a4-857f-aa35bae90e3d"},"vehicle_type_id":"4","last_reported":1752776158,"current_range_meters":4800,"station_id":"ce4bhgp2rcd13ifvqfc0","pricing_plan_id":"cebpf4jnsgd1na2vs0mg"},{"bike_id":"f9b2e8aa-dd15-4c3f-a41b-8e1bc7b7535e","system_id":"levelo_inurba_marseille","lat":43.292026,"lon":5.358064,"is_reserved":false,"is_disabled":false,"rental_uris":{"android":"levelo://app?vid=f9b2e8aa-dd15-4c3f-a41b-8e1bc7b7535e","ios":"levelo://app?vid=f9b2e8aa-dd15-4c3f-a41b-8e1bc7b7535e"},"vehicle_type_id":"4","last_reported":1752776158,"current_range_meters":4800,"station_id":"ce4bhb12rcd13ifvqel0","pricing_plan_id":"cebpf4jnsgd1na2vs0mg"},{"bike_id":"42901b02-60ee-47c5-b15e-5086ce5b6cde","system_id":"levelo_inurba_marseille","lat":43.28574,"lon":5.39495,"is_reserved":false,"is_disabled":false,"rental_uris":{"android":"levelo://app?vid=42901b02-60ee-47c5-b15e-5086ce5b6cde","ios":"levelo://app?vid=42901b02-60ee-47c5-b15e-5086ce5b6cde"},"vehicle_type_id":"4","last_reported":1752776158,"current_range_meters":6000,"station_id":"ce4bh292rcd13ifvqdg0","pricing_plan_id":"cebpf4jnsgd1na2vs0mg"},{"bike_id":"4011b163-40c6-4fed-8445-d24e1b0c522b","system_id":"levelo_inurba_marseille","lat":43.29574,"lon":5.37522,"is_reserved":false,"is_disabled":false,"rental_uris":{"android":"levelo://app?vid=4011b163-40c6-4fed-8445-d24e1b0c522b","ios":"levelo://app?vid=4011b163-40c6-4fed-8445-d24e1b0c522b"},"vehicle_type_id":"4","last_reported":1752776158,"current_range_meters":6000,"station_id":"ce4bgh92rcd13ifvqb50","pricing_plan_id":"cebpf4jnsgd1na2vs0mg"},{"bike_id":"ca088f7d-ace8-458e-943c-dc201f8acfd8","system_id":"levelo_inurba_marseille","lat":43.30942,"lon":5.40146,"is_reserved":false,"is_disabled":false,"rental_uris":{"android":"levelo://app?vid=ca088f7d-ace8-458e-943c-dc201f8acfd8","ios":"levelo://app?vid=ca088f7d-ace8-458e-943c-dc201f8acfd8"},"vehicle_type_id":"4","last_reported":1752776158,"current_range_meters":6000,"station_id":"ce4bgvp2rcd13ifvqct0","pricing_plan_id":"cebpf4jnsgd1na2vs0mg"},{"bike_id":"3e654ab8-9549-44d3-95a6-ab3f0f210ee3","system_id":"levelo_inurba_marseille","lat":43.27375,"lon":5.36251,"is_reserved":false,"is_disabled":false,"rental_uris":{"android":"levelo://app?vid=3e654ab8-9549-44d3-95a6-ab3f0f210ee3","ios":"levelo://app?vid=3e654ab8-9549-44d3-95a6-ab3f0f210ee3"},"vehicle_type_id":"4","last_reported":1752776158,"current_range_meters":6000,"station_id":"ce4bhbh2rcd13ifvqeo0","pricing_plan_id":"cebpf4jnsgd1na2vs0mg"},{"bike_id":"243323aa-f5c7-4367-820c-28c1da65c992","system_id":"levelo_inurba_marseille","lat":43.301323,"lon":5.387741,"is_reserved":false,"is_disabled":false,"rental_uris":{"android":"levelo://app?vid=243323aa-f5c7-4367-820c-28c1da65c992","ios":"levelo://app?vid=243323aa-f5c7-4367-820c-28c1da65c992"},"vehicle_type_id":"4","last_reported":1752776158,"current_range_meters":6000,"station_id":"ce4bghh2rcd13ifvqb60","pricing_plan_id":"cebpf4jnsgd1na2vs0mg"},{"bike_id":"f5f71b56-fe09-4e71-bf38-ac44d2b8cb0b","system_id":"levelo_inurba_marseille","lat":43.24807,"lon":5.37455,"is_reserved":false,"is_disabled":false,"rental_uris":{"android":"levelo://app?vid=f5f71b56-fe09-4e71-bf38-ac44d2b8cb0b","ios":"levelo://app?vid=f5f71b56-fe09-4e71-bf38-ac44d2b8cb0b"},"vehicle_type_id":"4","last_reported":1752776158,"current_range_meters":6000,"station_id":"ce4bhgh2rcd13ifvqfb0","pricing_plan_id":"cebpf4jnsgd1na2vs0mg"},{"bike_id":"66a1f4b5-1b4a-4ea5-af14-696170951f31","system_id":"levelo_inurba_marseille","lat":43.26034,"lon":5.37542,"is_reserved":false,"is_disabled":false,"rental_uris":{"android":"levelo://app?vid=66a1f4b5-1b4a-4ea5-af14-696170951f31","ios":"levelo://app?vid=66a1f4b5-1b4a-4ea5-af14-696170951f31"},"vehicle_type_id":"4","last_reported":1752776158,"current_range_meters":6000,"station_id":"ce4bhgh2rcd13ifvqfa0","pricing_plan_id":"cebpf4jnsgd1na2vs0mg"},{"bike_id":"0b7ddb80-075a-4b6b-92b2-6fc10d1479b9","system_id":"levelo_inurba_marseille","lat":43.29867,"lon":5.39723,"is_reserved":false,"is_disabled":false,"rental_uris":{"android":"levelo://app?vid=0b7ddb80-075a-4b6b-92b2-6fc10d1479b9","ios":"levelo://app?vid=0b7ddb80-075a-4b6b-92b2-6fc10d1479b9"},"vehicle_type_id":"4","last_reported":1752776158,"current_range_meters":6000,"station_id":"ce4bh0h2rcd13ifvqd50","pricing_plan_id":"cebpf4jnsgd1na2vs0mg"},{"bike_id":"9eb11d44-370d-464b-b78f-5461a3b04cc3","system_id":"levelo_inurba_marseille","lat":43.31077,"lon":5.38351,"is_reserved":false,"is_disabled":true,"rental_uris":{"android":"levelo://app?vid=9eb11d44-370d-464b-b78f-5461a3b04cc3","ios":"levelo://app?vid=9eb11d44-370d-464b-b78f-5461a3b04cc3"},"vehicle_type_id":"4","last_reported":1752776158,"current_range_meters":6400,"station_id":"ce4bgv92rcd13ifvqcr0","pricing_plan_id":"cebpf4jnsgd1na2vs0mg"},{"bike_id":"5ef371d8-39d3-4936-8afc-8aa633959307","system_id":"levelo_inurba_marseille","lat":43.29313,"lon":5.37143,"is_reserved":false,"is_disabled":false,"rental_uris":{"android":"levelo://app?vid=5ef371d8-39d3-4936-8afc-8aa633959307","ios":"levelo://app?vid=5ef371d8-39d3-4936-8afc-8aa633959307"},"vehicle_type_id":"4","last_reported":1752776158,"current_range_meters":6400,"station_id":"ce4bgh92rcd13ifvqb40","pricing_plan_id":"cebpf4jnsgd1na2vs0mg"},{"bike_id":"747a824a-0658-4925-aea0-b7cdf4d1c741","system_id":"levelo_inurba_marseille","lat":43.30134,"lon":5.38765,"is_reserved":false,"is_disabled":false,"rental_uris":{"android":"levelo://app?vid=747a824a-0658-4925-aea0-b7cdf4d1c741","ios":"levelo://app?vid=747a824a-0658-4925-aea0-b7cdf4d1c741"},"vehicle_type_id":"4","last_reported":1752776158,"current_range_meters":6400,"station_id":"ce4bghh2rcd13ifvqb60","pricing_plan_id":"cebpf4jnsgd1na2vs0mg"},{"bike_id":"96689c4d-5e92-47d1-8fd5-94540da68f9d","system_id":"levelo_inurba_marseille","lat":43.307901,"lon":5.40191,"is_reserved":false,"is_disabled":false,"rental_uris":{"android":"levelo://app?vid=96689c4d-5e92-47d1-8fd5-94540da68f9d","ios":"levelo://app?vid=96689c4d-5e92-47d1-8fd5-94540da68f9d"},"vehicle_type_id":"4","last_reported":1752776158,"current_range_meters":6400,"station_id":"ce4bgvp2rcd13ifvqct0","pricing_plan_id":"cebpf4jnsgd1na2vs0mg"},{"bike_id":"ef69e40a-217e-40f1-85c5-124ee9d7a2dd","system_id":"levelo_inurba_marseille","lat":43.26205,"lon":5.37927,"is_reserved":false,"is_disabled":false,"rental_uris":{"android":"levelo://app?vid=ef69e40a-217e-40f1-85c5-124ee9d7a2dd","ios":"levelo://app?vid=ef69e40a-217e-40f1-85c5-124ee9d7a2dd"},"vehicle_type_id":"4","last_reported":1752776158,"current_range_meters":6400,"station_id":"ce4bhjp2rcd13ifvqg90","pricing_plan_id":"cebpf4jnsgd1na2vs0mg"},{"bike_id":"7cc58090-fe27-46f6-8480-f5332b57385c","system_id":"levelo_inurba_marseille","lat":43.2318,"lon":5.39981,"is_reserved":false,"is_disabled":false,"rental_uris":{"android":"levelo://app?vid=7cc58090-fe27-46f6-8480-f5332b57385c","ios":"levelo://app?vid=7cc58090-fe27-46f6-8480-f5332b57385c"},"vehicle_type_id":"4","last_reported":1752776158,"current_range_meters":6400,"station_id":"ce4bhn12rcd13ifvqgqg","pricing_plan_id":"cebpf4jnsgd1na2vs0mg"},{"bike_id":"4186cbef-a530-4f8d-a30e-6d12111691d3","system_id":"levelo_inurba_marseille","lat":43.30434,"lon":5.38878,"is_reserved":false,"is_disabled":false,"rental_uris":{"android":"levelo://app?vid=4186cbef-a530-4f8d-a30e-6d12111691d3","ios":"levelo://app?vid=4186cbef-a530-4f8d-a30e-6d12111691d3"},"vehicle_type_id":"4","last_reported":1752776158,"current_range_meters":6800,"station_id":"ce4bgk12rcd13ifvqbi0","pricing_plan_id":"cebpf4jnsgd1na2vs0mg"},{"bike_id":"968b83cc-b378-490a-80ab-574881f69d38","system_id":"levelo_inurba_marseille","lat":43.30429,"lon":5.39741,"is_reserved":false,"is_disabled":false,"rental_uris":{"android":"levelo://app?vid=968b83cc-b378-490a-80ab-574881f69d38","ios":"levelo://app?vid=968b83cc-b378-490a-80ab-574881f69d38"},"vehicle_type_id":"4","last_reported":1752776158,"current_range_meters":6400,"station_id":"ce4bh092rcd13ifvqd20","pricing_plan_id":"cebpf4jnsgd1na2vs0mg"},{"bike_id":"8287684e-7065-45cd-814f-e80157d15ac5","system_id":"levelo_inurba_marseille","lat":43.23061,"lon":5.35488,"is_reserved":false,"is_disabled":false,"rental_uris":{"android":"levelo://app?vid=8287684e-7065-45cd-814f-e80157d15ac5","ios":"levelo://app?vid=8287684e-7065-45cd-814f-e80157d15ac5"},"vehicle_type_id":"4","last_reported":1752776158,"current_range_meters":6400,"station_id":"cpo3342slgdg3j2ifvpg","pricing_plan_id":"cebpf4jnsgd1na2vs0mg"},{"bike_id":"68b121eb-ad64-438d-908b-6c467121d2b4","system_id":"levelo_inurba_marseille","lat":43.29964,"lon":5.38497,"is_reserved":false,"is_disabled":false,"rental_uris":{"android":"levelo://app?vid=68b121eb-ad64-438d-908b-6c467121d2b4","ios":"levelo://app?vid=68b121eb-ad64-438d-908b-6c467121d2b4"},"vehicle_type_id":"4","last_reported":1752776158,"current_range_meters":6800,"station_id":"ce4bgj92rcd13ifvqbd0","pricing_plan_id":"cebpf4jnsgd1na2vs0mg"},{"bike_id":"8f14405a-fea8-4b11-887d-54f354875c28","system_id":"levelo_inurba_marseille","lat":43.2967,"lon":5.38539,"is_reserved":false,"is_disabled":false,"rental_uris":{"android":"levelo://app?vid=8f14405a-fea8-4b11-887d-54f354875c28","ios":"levelo://app?vid=8f14405a-fea8-4b11-887d-54f354875c28"},"vehicle_type_id":"4","last_reported":1752776158,"current_range_meters":6800,"station_id":"","pricing_plan_id":"cebpf4jnsgd1na2vs0mg"},{"bike_id":"1987db29-d495-4441-ab6f-b7703efeee90","system_id":"levelo_inurba_marseille","lat":43.28624,"lon":5.35109,"is_reserved":false,"is_disabled":false,"rental_uris":{"android":"levelo://app?vid=1987db29-d495-4441-ab6f-b7703efeee90","ios":"levelo://app?vid=1987db29-d495-4441-ab6f-b7703efeee90"},"vehicle_type_id":"4","last_reported":1752776158,"current_range_meters":6800,"station_id":"ce4bhch2rcd13ifvqeug","pricing_plan_id":"cebpf4jnsgd1na2vs0mg"},{"bike_id":"6c053ade-f864-429a-ad67-5b2da08732ae","system_id":"levelo_inurba_marseille","lat":43.28622,"lon":5.35094,"is_reserved":false,"is_disabled":false,"rental_uris":{"android":"levelo://app?vid=6c053ade-f864-429a-ad67-5b2da08732ae","ios":"levelo://app?vid=6c053ade-f864-429a-ad67-5b2da08732ae"},"vehicle_type_id":"4","last_reported":1752776158,"current_range_meters":6800,"station_id":"ce4bhch2rcd13ifvqeug","pricing_plan_id":"cebpf4jnsgd1na2vs0mg"},{"bike_id":"1e87b198-c17b-4095-84d2-fc29d20b1fc9","system_id":"levelo_inurba_marseille","lat":43.25498,"lon":5.37647,"is_reserved":false,"is_disabled":false,"rental_uris":{"android":"levelo://app?vid=1e87b198-c17b-4095-84d2-fc29d20b1fc9","ios":"levelo://app?vid=1e87b198-c17b-4095-84d2-fc29d20b1fc9"},"vehicle_type_id":"4","last_reported":1752776158,"current_range_meters":7200,"station_id":"ce4bhh12rcd13ifvqff0","pricing_plan_id":"cebpf4jnsgd1na2vs0mg"},{"bike_id":"897a8eb0-983a-4aed-aff8-8e101f0d7f73","system_id":"levelo_inurba_marseille","lat":43.29514,"lon":5.39384,"is_reserved":false,"is_disabled":false,"rental_uris":{"android":"levelo://app?vid=897a8eb0-983a-4aed-aff8-8e101f0d7f73","ios":"levelo://app?vid=897a8eb0-983a-4aed-aff8-8e101f0d7f73"},"vehicle_type_id":"4","last_reported":1752776158,"current_range_meters":7200,"station_id":"ce4bh292rcd13ifvqdf0","pricing_plan_id":"cebpf4jnsgd1na2vs0mg"},{"bike_id":"f69fb47a-d484-49f2-bfea-805745a96169","system_id":"levelo_inurba_marseille","lat":43.30792,"lon":5.38139,"is_reserved":false,"is_disabled":false,"rental_uris":{"android":"levelo://app?vid=f69fb47a-d484-49f2-bfea-805745a96169","ios":"levelo://app?vid=f69fb47a-d484-49f2-bfea-805745a96169"},"vehicle_type_id":"4","last_reported":1752776158,"current_range_meters":7200,"station_id":"ce4bgt12rcd13ifvqce0","pricing_plan_id":"cebpf4jnsgd1na2vs0mg"},{"bike_id":"0c00b9c8-8a61-4352-9d64-3e4d4c1f5199","system_id":"levelo_inurba_marseille","lat":43.26782,"lon":5.39409,"is_reserved":false,"is_disabled":true,"rental_uris":{"android":"levelo://app?vid=0c00b9c8-8a61-4352-9d64-3e4d4c1f5199","ios":"levelo://app?vid=0c00b9c8-8a61-4352-9d64-3e4d4c1f5199"},"vehicle_type_id":"4","last_reported":1752776158,"current_range_meters":7200,"station_id":"ce4bhh12rcd13ifvqfg0","pricing_plan_id":"cebpf4jnsgd1na2vs0mg"},{"bike_id":"86b495a5-5560-487b-93e6-83367a7da326","system_id":"levelo_inurba_marseille","lat":43.26567,"lon":5.39024,"is_reserved":false,"is_disabled":false,"rental_uris":{"android":"levelo://app?vid=86b495a5-5560-487b-93e6-83367a7da326","ios":"levelo://app?vid=86b495a5-5560-487b-93e6-83367a7da326"},"vehicle_type_id":"4","last_reported":1752776158,"current_range_meters":7200,"station_id":"ce4bhe12rcd13ifvqf30","pricing_plan_id":"cebpf4jnsgd1na2vs0mg"},{"bike_id":"7fb28c4e-580a-474d-af83-453fd07a82ae","system_id":"levelo_inurba_marseille","lat":43.26031,"lon":5.3754,"is_reserved":false,"is_disabled":false,"rental_uris":{"android":"levelo://app?vid=7fb28c4e-580a-474d-af83-453fd07a82ae","ios":"levelo://app?vid=7fb28c4e-580a-474d-af83-453fd07a82ae"},"vehicle_type_id":"4","last_reported":1752776158,"current_range_meters":7200,"station_id":"ce4bhgh2rcd13ifvqfa0","pricing_plan_id":"cebpf4jnsgd1na2vs0mg"},{"bike_id":"675a4573-a1f2-4f9d-b1bd-48fb0f00616c","system_id":"levelo_inurba_marseille","lat":43.28634,"lon":5.35063,"is_reserved":false,"is_disabled":false,"rental_uris":{"android":"levelo://app?vid=675a4573-a1f2-4f9d-b1bd-48fb0f00616c","ios":"levelo://app?vid=675a4573-a1f2-4f9d-b1bd-48fb0f00616c"},"vehicle_type_id":"4","last_reported":1752776158,"current_range_meters":7200,"station_id":"ce4bhch2rcd13ifvqeug","pricing_plan_id":"cebpf4jnsgd1na2vs0mg"},{"bike_id":"4a230ea3-7f57-4793-9d71-77f3f42ad016","system_id":"levelo_inurba_marseille","lat":43.27373,"lon":5.36264,"is_reserved":false,"is_disabled":false,"rental_uris":{"android":"levelo://app?vid=4a230ea3-7f57-4793-9d71-77f3f42ad016","ios":"levelo://app?vid=4a230ea3-7f57-4793-9d71-77f3f42ad016"},"vehicle_type_id":"4","last_reported":1752776158,"current_range_meters":8000,"station_id":"ce4bhbh2rcd13ifvqeo0","pricing_plan_id":"cebpf4jnsgd1na2vs0mg"},{"bike_id":"74c4d416-8792-4b44-a380-23319a958281","system_id":"levelo_inurba_marseille","lat":43.29193,"lon":5.35794,"is_reserved":false,"is_disabled":false,"rental_uris":{"android":"levelo://app?vid=74c4d416-8792-4b44-a380-23319a958281","ios":"levelo://app?vid=74c4d416-8792-4b44-a380-23319a958281"},"vehicle_type_id":"4","last_reported":1752776158,"current_range_meters":8000,"station_id":"ce4bhb12rcd13ifvqel0","pricing_plan_id":"cebpf4jnsgd1na2vs0mg"},{"bike_id":"64aaee03-d859-4429-a510-5d211cd2b600","system_id":"levelo_inurba_marseille","lat":43.24389,"lon":5.37061,"is_reserved":false,"is_disabled":false,"rental_uris":{"android":"levelo://app?vid=64aaee03-d859-4429-a510-5d211cd2b600","ios":"levelo://app?vid=64aaee03-d859-4429-a510-5d211cd2b600"},"vehicle_type_id":"4","last_reported":1752776158,"current_range_meters":8000,"station_id":"ce4bhhh2rcd13ifvqfk0","pricing_plan_id":"cebpf4jnsgd1na2vs0mg"},{"bike_id":"b6e3bdad-3d00-4dad-ab31-2c46b7f9cb24","system_id":"levelo_inurba_marseille","lat":43.28932,"lon":5.36635,"is_reserved":false,"is_disabled":false,"rental_uris":{"android":"levelo://app?vid=b6e3bdad-3d00-4dad-ab31-2c46b7f9cb24","ios":"levelo://app?vid=b6e3bdad-3d00-4dad-ab31-2c46b7f9cb24"},"vehicle_type_id":"4","last_reported":1752776158,"current_range_meters":8000,"station_id":"ce4bhap2rcd13ifvqek0","pricing_plan_id":"cebpf4jnsgd1na2vs0mg"},{"bike_id":"9f05ab07-e7cf-4155-aae9-dc31dc45d5e8","system_id":"levelo_inurba_marseille","lat":43.2971,"lon":5.36611,"is_reserved":false,"is_disabled":false,"rental_uris":{"android":"levelo://app?vid=9f05ab07-e7cf-4155-aae9-dc31dc45d5e8","ios":"levelo://app?vid=9f05ab07-e7cf-4155-aae9-dc31dc45d5e8"},"vehicle_type_id":"4","last_reported":1752776158,"current_range_meters":8400,"station_id":"ce4bgn12rcd13ifvqbt0","pricing_plan_id":"cebpf4jnsgd1na2vs0mg"},{"bike_id":"48fb72e1-f5cc-44f6-8b1c-a7041ebd85fa","system_id":"levelo_inurba_marseille","lat":43.2962,"lon":5.371728,"is_reserved":false,"is_disabled":false,"rental_uris":{"android":"levelo://app?vid=48fb72e1-f5cc-44f6-8b1c-a7041ebd85fa","ios":"levelo://app?vid=48fb72e1-f5cc-44f6-8b1c-a7041ebd85fa"},"vehicle_type_id":"4","last_reported":1752776158,"current_range_meters":8400,"station_id":"ce4bgnh2rcd13ifvqc0g","pricing_plan_id":"cebpf4jnsgd1na2vs0mg"},{"bike_id":"f5957b0f-476f-4e91-aadb-8fa8742949ff","system_id":"levelo_inurba_marseille","lat":43.292,"lon":5.35801,"is_reserved":false,"is_disabled":false,"rental_uris":{"android":"levelo://app?vid=f5957b0f-476f-4e91-aadb-8fa8742949ff","ios":"levelo://app?vid=f5957b0f-476f-4e91-aadb-8fa8742949ff"},"vehicle_type_id":"4","last_reported":1752776158,"current_range_meters":8400,"station_id":"ce4bhb12rcd13ifvqel0","pricing_plan_id":"cebpf4jnsgd1na2vs0mg"},{"bike_id":"02fa8fc1-4aaf-4eec-8ef9-1df891e7143f","system_id":"levelo_inurba_marseille","lat":43.25495,"lon":5.37647,"is_reserved":false,"is_disabled":false,"rental_uris":{"android":"levelo://app?vid=02fa8fc1-4aaf-4eec-8ef9-1df891e7143f","ios":"levelo://app?vid=02fa8fc1-4aaf-4eec-8ef9-1df891e7143f"},"vehicle_type_id":"4","last_reported":1752776158,"current_range_meters":8400,"station_id":"ce4bhh12rcd13ifvqff0","pricing_plan_id":"cebpf4jnsgd1na2vs0mg"},{"bike_id":"5fab9906-c717-4f68-bb3a-303d655a71a3","system_id":"levelo_inurba_marseille","lat":43.29368,"lon":5.37846,"is_reserved":false,"is_disabled":false,"rental_uris":{"android":"levelo://app?vid=5fab9906-c717-4f68-bb3a-303d655a71a3","ios":"levelo://app?vid=5fab9906-c717-4f68-bb3a-303d655a71a3"},"vehicle_type_id":"4","last_reported":1752776158,"current_range_meters":8400,"station_id":"ce4bgjh2rcd13ifvqbf0","pricing_plan_id":"cebpf4jnsgd1na2vs0mg"},{"bike_id":"3a1d38ae-7a3e-4ec4-a60a-a2bd3b500999","system_id":"levelo_inurba_marseille","lat":43.28858,"lon":5.35854,"is_reserved":false,"is_disabled":false,"rental_uris":{"android":"levelo://app?vid=3a1d38ae-7a3e-4ec4-a60a-a2bd3b500999","ios":"levelo://app?vid=3a1d38ae-7a3e-4ec4-a60a-a2bd3b500999"},"vehicle_type_id":"4","last_reported":1752776158,"current_range_meters":8800,"station_id":"ce4bhb12rcd13ifvqem0","pricing_plan_id":"cebpf4jnsgd1na2vs0mg"},{"bike_id":"2298f3dd-75c5-4b46-b25b-ed7c8e8a3cd7","system_id":"levelo_inurba_marseille","lat":43.2784,"lon":5.39209,"is_reserved":false,"is_disabled":false,"rental_uris":{"android":"levelo://app?vid=2298f3dd-75c5-4b46-b25b-ed7c8e8a3cd7","ios":"levelo://app?vid=2298f3dd-75c5-4b46-b25b-ed7c8e8a3cd7"},"vehicle_type_id":"4","last_reported":1752776158,"current_range_meters":8800,"station_id":"ce4bhjp2rcd13ifvqga0","pricing_plan_id":"cebpf4jnsgd1na2vs0mg"},{"bike_id":"568115e8-f96c-43c3-85b3-a6336b4d4f03","system_id":"levelo_inurba_marseille","lat":43.282705,"lon":5.350668,"is_reserved":false,"is_disabled":false,"rental_uris":{"android":"levelo://app?vid=568115e8-f96c-43c3-85b3-a6336b4d4f03","ios":"levelo://app?vid=568115e8-f96c-43c3-85b3-a6336b4d4f03"},"vehicle_type_id":"4","last_reported":1752776158,"current_range_meters":9200,"station_id":"ce4bhbp2rcd13ifvqerg","pricing_plan_id":"cebpf4jnsgd1na2vs0mg"},{"bike_id":"a4fd652b-34f8-4c68-a6e6-032a5cc5e418","system_id":"levelo_inurba_marseille","lat":43.31246,"lon":5.36895,"is_reserved":false,"is_disabled":true,"rental_uris":{"android":"levelo://app?vid=a4fd652b-34f8-4c68-a6e6-032a5cc5e418","ios":"levelo://app?vid=a4fd652b-34f8-4c68-a6e6-032a5cc5e418"},"vehicle_type_id":"4","last_reported":1752776158,"current_range_meters":9200,"station_id":"ce4bgl92rcd13ifvqbq0","pricing_plan_id":"cebpf4jnsgd1na2vs0mg"},{"bike_id":"257e179d-ac91-4baa-b088-1824fa37ed3b","system_id":"levelo_inurba_marseille","lat":43.292,"lon":5.35794,"is_reserved":false,"is_disabled":false,"rental_uris":{"android":"levelo://app?vid=257e179d-ac91-4baa-b088-1824fa37ed3b","ios":"levelo://app?vid=257e179d-ac91-4baa-b088-1824fa37ed3b"},"vehicle_type_id":"4","last_reported":1752776158,"current_range_meters":9200,"station_id":"ce4bhb12rcd13ifvqel0","pricing_plan_id":"cebpf4jnsgd1na2vs0mg"},{"bike_id":"66c830c9-5e1f-4c60-a9fe-5298744ae8ed","system_id":"levelo_inurba_marseille","lat":43.28265,"lon":5.3506,"is_reserved":false,"is_disabled":false,"rental_uris":{"android":"levelo://app?vid=66c830c9-5e1f-4c60-a9fe-5298744ae8ed","ios":"levelo://app?vid=66c830c9-5e1f-4c60-a9fe-5298744ae8ed"},"vehicle_type_id":"4","last_reported":1752776158,"current_range_meters":9200,"station_id":"ce4bhbp2rcd13ifvqerg","pricing_plan_id":"cebpf4jnsgd1na2vs0mg"},{"bike_id":"4ed1ff63-30b7-4083-8d67-e3fc7346b420","system_id":"levelo_inurba_marseille","lat":43.30321,"lon":5.40442,"is_reserved":false,"is_disabled":false,"rental_uris":{"android":"levelo://app?vid=4ed1ff63-30b7-4083-8d67-e3fc7346b420","ios":"levelo://app?vid=4ed1ff63-30b7-4083-8d67-e3fc7346b420"},"vehicle_type_id":"4","last_reported":1752776158,"current_range_meters":9600,"station_id":"ce4bh012rcd13ifvqd10","pricing_plan_id":"cebpf4jnsgd1na2vs0mg"},{"bike_id":"a7822f67-8634-43cf-949c-ed246d5c851a","system_id":"levelo_inurba_marseille","lat":43.25494,"lon":5.37651,"is_reserved":false,"is_disabled":false,"rental_uris":{"android":"levelo://app?vid=a7822f67-8634-43cf-949c-ed246d5c851a","ios":"levelo://app?vid=a7822f67-8634-43cf-949c-ed246d5c851a"},"vehicle_type_id":"4","last_reported":1752776158,"current_range_meters":10000,"station_id":"ce4bhh12rcd13ifvqff0","pricing_plan_id":"cebpf4jnsgd1na2vs0mg"},{"bike_id":"d92f029d-bc02-40d2-8ff2-499eb46bbfce","system_id":"levelo_inurba_marseille","lat":43.24808,"lon":5.37434,"is_reserved":false,"is_disabled":false,"rental_uris":{"android":"levelo://app?vid=d92f029d-bc02-40d2-8ff2-499eb46bbfce","ios":"levelo://app?vid=d92f029d-bc02-40d2-8ff2-499eb46bbfce"},"vehicle_type_id":"4","last_reported":1752776158,"current_range_meters":10000,"station_id":"ce4bhgh2rcd13ifvqfb0","pricing_plan_id":"cebpf4jnsgd1na2vs0mg"},{"bike_id":"9b470643-f326-4384-8d2c-c8246c3a8c7c","system_id":"levelo_inurba_marseille","lat":43.28267,"lon":5.35036,"is_reserved":false,"is_disabled":false,"rental_uris":{"android":"levelo://app?vid=9b470643-f326-4384-8d2c-c8246c3a8c7c","ios":"levelo://app?vid=9b470643-f326-4384-8d2c-c8246c3a8c7c"},"vehicle_type_id":"4","last_reported":1752776158,"current_range_meters":10000,"station_id":"ce4bhbp2rcd13ifvqerg","pricing_plan_id":"cebpf4jnsgd1na2vs0mg"},{"bike_id":"4bc84343-d0df-44e9-b2a6-9bce2dc2257f","system_id":"levelo_inurba_marseille","lat":43.28623,"lon":5.35103,"is_reserved":false,"is_disabled":false,"rental_uris":{"android":"levelo://app?vid=4bc84343-d0df-44e9-b2a6-9bce2dc2257f","ios":"levelo://app?vid=4bc84343-d0df-44e9-b2a6-9bce2dc2257f"},"vehicle_type_id":"4","last_reported":1752776158,"current_range_meters":10000,"station_id":"ce4bhch2rcd13ifvqeug","pricing_plan_id":"cebpf4jnsgd1na2vs0mg"},{"bike_id":"dfa4871b-d3fd-457a-a038-1de36681fffb","system_id":"levelo_inurba_marseille","lat":43.30876,"lon":5.39629,"is_reserved":false,"is_disabled":false,"rental_uris":{"android":"levelo://app?vid=dfa4871b-d3fd-457a-a038-1de36681fffb","ios":"levelo://app?vid=dfa4871b-d3fd-457a-a038-1de36681fffb"},"vehicle_type_id":"4","last_reported":1752776158,"current_range_meters":10000,"station_id":"ce4bh012rcd13ifvqcv0","pricing_plan_id":"cebpf4jnsgd1na2vs0mg"},{"bike_id":"492a419e-7fc3-43b7-b688-aee4d064f5a3","system_id":"levelo_inurba_marseille","lat":43.29304,"lon":5.37158,"is_reserved":false,"is_disabled":true,"rental_uris":{"android":"levelo://app?vid=492a419e-7fc3-43b7-b688-aee4d064f5a3","ios":"levelo://app?vid=492a419e-7fc3-43b7-b688-aee4d064f5a3"},"vehicle_type_id":"4","last_reported":1752776158,"current_range_meters":10000,"station_id":"ce4bgh92rcd13ifvqb40","pricing_plan_id":"cebpf4jnsgd1na2vs0mg"},{"bike_id":"9ff813f5-7ffe-477a-a652-434a34f03c1a","system_id":"levelo_inurba_marseille","lat":43.2927,"lon":5.38422,"is_reserved":false,"is_disabled":true,"rental_uris":{"android":"levelo://app?vid=9ff813f5-7ffe-477a-a652-434a34f03c1a","ios":"levelo://app?vid=9ff813f5-7ffe-477a-a652-434a34f03c1a"},"vehicle_type_id":"4","last_reported":1752776158,"current_range_meters":10000,"station_id":"ce4bh692rcd13ifvqea0","pricing_plan_id":"cebpf4jnsgd1na2vs0mg"},{"bike_id":"596ee07d-3733-4244-81e2-4973673809ed","system_id":"levelo_inurba_marseille","lat":43.303786,"lon":5.424804,"is_reserved":false,"is_disabled":false,"rental_uris":{"android":"levelo://app?vid=596ee07d-3733-4244-81e2-4973673809ed","ios":"levelo://app?vid=596ee07d-3733-4244-81e2-4973673809ed"},"vehicle_type_id":"4","last_reported":1752776158,"current_range_meters":10000,"station_id":"ce4bhoh2rcd13ifvqh6g","pricing_plan_id":"cebpf4jnsgd1na2vs0mg"},{"bike_id":"57239988-9161-49ce-a0a2-4581baf1b159","system_id":"levelo_inurba_marseille","lat":43.33771,"lon":5.37437,"is_reserved":false,"is_disabled":false,"rental_uris":{"android":"levelo://app?vid=57239988-9161-49ce-a0a2-4581baf1b159","ios":"levelo://app?vid=57239988-9161-49ce-a0a2-4581baf1b159"},"vehicle_type_id":"4","last_reported":1752776158,"current_range_meters":10000,"station_id":"","pricing_plan_id":"cebpf4jnsgd1na2vs0mg"},{"bike_id":"5804f83e-ac8b-4d4a-a2f3-91ed6a95174d","system_id":"levelo_inurba_marseille","lat":43.24667,"lon":5.38128,"is_reserved":false,"is_disabled":false,"rental_uris":{"android":"levelo://app?vid=5804f83e-ac8b-4d4a-a2f3-91ed6a95174d","ios":"levelo://app?vid=5804f83e-ac8b-4d4a-a2f3-91ed6a95174d"},"vehicle_type_id":"4","last_reported":1752776158,"current_range_meters":10000,"station_id":"ce4bhih2rcd13ifvqfr0","pricing_plan_id":"cebpf4jnsgd1na2vs0mg"},{"bike_id":"4c5977a5-77ed-4b1d-a883-2815ecde134e","system_id":"levelo_inurba_marseille","lat":43.31966,"lon":5.37522,"is_reserved":false,"is_disabled":false,"rental_uris":{"android":"levelo://app?vid=4c5977a5-77ed-4b1d-a883-2815ecde134e","ios":"levelo://app?vid=4c5977a5-77ed-4b1d-a883-2815ecde134e"},"vehicle_type_id":"4","last_reported":1752776158,"current_range_meters":10000,"station_id":"","pricing_plan_id":"cebpf4jnsgd1na2vs0mg"},{"bike_id":"90f54ea4-e306-4792-9966-1cc1bc24176c","system_id":"levelo_inurba_marseille","lat":43.264965,"lon":5.395434,"is_reserved":false,"is_disabled":true,"rental_uris":{"android":"levelo://app?vid=90f54ea4-e306-4792-9966-1cc1bc24176c","ios":"levelo://app?vid=90f54ea4-e306-4792-9966-1cc1bc24176c"},"vehicle_type_id":"4","last_reported":1752776158,"current_range_meters":10000,"station_id":"ce4bhi12rcd13ifvqfq0","pricing_plan_id":"cebpf4jnsgd1na2vs0mg"},{"bike_id":"81f88721-00d0-431c-83bf-446e11578408","system_id":"levelo_inurba_marseille","lat":43.225044,"lon":5.347758,"is_reserved":false,"is_disabled":false,"rental_uris":{"android":"levelo://app?vid=81f88721-00d0-431c-83bf-446e11578408","ios":"levelo://app?vid=81f88721-00d0-431c-83bf-446e11578408"},"vehicle_type_id":"4","last_reported":1752776158,"current_range_meters":10000,"station_id":"st_cvj5dfep6f1abm77gieg","pricing_plan_id":"cebpf4jnsgd1na2vs0mg"},{"bike_id":"bb57342c-bd92-4bec-a3e7-ab4e55db4beb","system_id":"levelo_inurba_marseille","lat":43.323695,"lon":5.38885,"is_reserved":false,"is_disabled":false,"rental_uris":{"android":"levelo://app?vid=bb57342c-bd92-4bec-a3e7-ab4e55db4beb","ios":"levelo://app?vid=bb57342c-bd92-4bec-a3e7-ab4e55db4beb"},"vehicle_type_id":"4","last_reported":1752776158,"current_range_meters":10800,"station_id":"ce4bhqp2rcd13ifvqhog","pricing_plan_id":"cebpf4jnsgd1na2vs0mg"},{"bike_id":"23d0beca-4cc6-41a4-912a-49ca5658d1ee","system_id":"levelo_inurba_marseille","lat":43.28427,"lon":5.34975,"is_reserved":false,"is_disabled":false,"rental_uris":{"android":"levelo://app?vid=23d0beca-4cc6-41a4-912a-49ca5658d1ee","ios":"levelo://app?vid=23d0beca-4cc6-41a4-912a-49ca5658d1ee"},"vehicle_type_id":"4","last_reported":1752776158,"current_range_meters":10800,"station_id":"ce4bhbh2rcd13ifvqepg","pricing_plan_id":"cebpf4jnsgd1na2vs0mg"},{"bike_id":"813b7054-5390-4d87-ac52-405ab34c8e16","system_id":"levelo_inurba_marseille","lat":43.30433,"lon":5.38884,"is_reserved":false,"is_disabled":false,"rental_uris":{"android":"levelo://app?vid=813b7054-5390-4d87-ac52-405ab34c8e16","ios":"levelo://app?vid=813b7054-5390-4d87-ac52-405ab34c8e16"},"vehicle_type_id":"4","last_reported":1752776158,"current_range_meters":10800,"station_id":"ce4bgk12rcd13ifvqbi0","pricing_plan_id":"cebpf4jnsgd1na2vs0mg"},{"bike_id":"d19441ae-586b-4f2b-a20b-c41a7b565667","system_id":"levelo_inurba_marseille","lat":43.261902,"lon":5.374471,"is_reserved":false,"is_disabled":false,"rental_uris":{"android":"levelo://app?vid=d19441ae-586b-4f2b-a20b-c41a7b565667","ios":"levelo://app?vid=d19441ae-586b-4f2b-a20b-c41a7b565667"},"vehicle_type_id":"4","last_reported":1752776158,"current_range_meters":10800,"station_id":"ce4bhgp2rcd13ifvqfc0","pricing_plan_id":"cebpf4jnsgd1na2vs0mg"},{"bike_id":"555bc53e-5286-4fb6-9154-af42b3fd9792","system_id":"levelo_inurba_marseille","lat":43.300706,"lon":5.372804,"is_reserved":false,"is_disabled":false,"rental_uris":{"android":"levelo://app?vid=555bc53e-5286-4fb6-9154-af42b3fd9792","ios":"levelo://app?vid=555bc53e-5286-4fb6-9154-af42b3fd9792"},"vehicle_type_id":"4","last_reported":1752776158,"current_range_meters":10800,"station_id":"","pricing_plan_id":"cebpf4jnsgd1na2vs0mg"},{"bike_id":"88feb265-9aa5-4f0c-9757-a826786922a7","system_id":"levelo_inurba_marseille","lat":43.295776,"lon":5.37533,"is_reserved":false,"is_disabled":false,"rental_uris":{"android":"levelo://app?vid=88feb265-9aa5-4f0c-9757-a826786922a7","ios":"levelo://app?vid=88feb265-9aa5-4f0c-9757-a826786922a7"},"vehicle_type_id":"4","last_reported":1752776158,"current_range_meters":10800,"station_id":"ce4bgh92rcd13ifvqb50","pricing_plan_id":"cebpf4jnsgd1na2vs0mg"},{"bike_id":"dd0f34ef-5656-4b3e-844a-357d3b15e1e8","system_id":"levelo_inurba_marseille","lat":43.28156,"lon":5.42637,"is_reserved":false,"is_disabled":false,"rental_uris":{"android":"levelo://app?vid=dd0f34ef-5656-4b3e-844a-357d3b15e1e8","ios":"levelo://app?vid=dd0f34ef-5656-4b3e-844a-357d3b15e1e8"},"vehicle_type_id":"4","last_reported":1752776158,"current_range_meters":11200,"station_id":"ce4bhnh2rcd13ifvqgug","pricing_plan_id":"cebpf4jnsgd1na2vs0mg"},{"bike_id":"41ee9dcd-b187-4958-a82b-103d3d60828f","system_id":"levelo_inurba_marseille","lat":43.28618,"lon":5.35095,"is_reserved":false,"is_disabled":false,"rental_uris":{"android":"levelo://app?vid=41ee9dcd-b187-4958-a82b-103d3d60828f","ios":"levelo://app?vid=41ee9dcd-b187-4958-a82b-103d3d60828f"},"vehicle_type_id":"4","last_reported":1752776158,"current_range_meters":11200,"station_id":"ce4bhch2rcd13ifvqeug","pricing_plan_id":"cebpf4jnsgd1na2vs0mg"},{"bike_id":"3cd6087b-0ba6-414f-af92-9cb01fc54682","system_id":"levelo_inurba_marseille","lat":43.29198,"lon":5.35805,"is_reserved":false,"is_disabled":false,"rental_uris":{"android":"levelo://app?vid=3cd6087b-0ba6-414f-af92-9cb01fc54682","ios":"levelo://app?vid=3cd6087b-0ba6-414f-af92-9cb01fc54682"},"vehicle_type_id":"4","last_reported":1752776158,"current_range_meters":11200,"station_id":"ce4bhb12rcd13ifvqel0","pricing_plan_id":"cebpf4jnsgd1na2vs0mg"},{"bike_id":"2f2043bb-7225-4175-b27a-dcb6c86ccbc4","system_id":"levelo_inurba_marseille","lat":43.32662,"lon":5.40989,"is_reserved":false,"is_disabled":false,"rental_uris":{"android":"levelo://app?vid=2f2043bb-7225-4175-b27a-dcb6c86ccbc4","ios":"levelo://app?vid=2f2043bb-7225-4175-b27a-dcb6c86ccbc4"},"vehicle_type_id":"4","last_reported":1752776158,"current_range_meters":11200,"station_id":"ce4bhpp2rcd13ifvqhgg","pricing_plan_id":"cebpf4jnsgd1na2vs0mg"},{"bike_id":"74c795f9-730f-4414-9b66-d1f3c9d10695","system_id":"levelo_inurba_marseille","lat":43.25003,"lon":5.38926,"is_reserved":false,"is_disabled":false,"rental_uris":{"android":"levelo://app?vid=74c795f9-730f-4414-9b66-d1f3c9d10695","ios":"levelo://app?vid=74c795f9-730f-4414-9b66-d1f3c9d10695"},"vehicle_type_id":"4","last_reported":1752776158,"current_range_meters":11200,"station_id":"ce4bhgp2rcd13ifvqfd0","pricing_plan_id":"cebpf4jnsgd1na2vs0mg"},{"bike_id":"3f1e74cc-ae48-4ae1-ba23-34666cbb7bdb","system_id":"levelo_inurba_marseille","lat":43.29531,"lon":5.38545,"is_reserved":false,"is_disabled":false,"rental_uris":{"android":"levelo://app?vid=3f1e74cc-ae48-4ae1-ba23-34666cbb7bdb","ios":"levelo://app?vid=3f1e74cc-ae48-4ae1-ba23-34666cbb7bdb"},"vehicle_type_id":"4","last_reported":1752776158,"current_range_meters":11200,"station_id":"ce4bgih2rcd13ifvqba0","pricing_plan_id":"cebpf4jnsgd1na2vs0mg"},{"bike_id":"be2dfc38-0fe1-41d0-9d59-02c851097772","system_id":"levelo_inurba_marseille","lat":43.293,"lon":5.37453,"is_reserved":false,"is_disabled":false,"rental_uris":{"android":"levelo://app?vid=be2dfc38-0fe1-41d0-9d59-02c851097772","ios":"levelo://app?vid=be2dfc38-0fe1-41d0-9d59-02c851097772"},"vehicle_type_id":"4","last_reported":1752776158,"current_range_meters":11600,"station_id":"ce4bgi12rcd13ifvqb70","pricing_plan_id":"cebpf4jnsgd1na2vs0mg"},{"bike_id":"69ed4edf-7790-47bd-8d77-d0309ea90b46","system_id":"levelo_inurba_marseille","lat":43.30326,"lon":5.40429,"is_reserved":false,"is_disabled":false,"rental_uris":{"android":"levelo://app?vid=69ed4edf-7790-47bd-8d77-d0309ea90b46","ios":"levelo://app?vid=69ed4edf-7790-47bd-8d77-d0309ea90b46"},"vehicle_type_id":"4","last_reported":1752776158,"current_range_meters":11600,"station_id":"ce4bh012rcd13ifvqd10","pricing_plan_id":"cebpf4jnsgd1na2vs0mg"},{"bike_id":"c24d64d2-5245-465a-ae23-c2264113ed4b","system_id":"levelo_inurba_marseille","lat":43.28848,"lon":5.39309,"is_reserved":false,"is_disabled":false,"rental_uris":{"android":"levelo://app?vid=c24d64d2-5245-465a-ae23-c2264113ed4b","ios":"levelo://app?vid=c24d64d2-5245-465a-ae23-c2264113ed4b"},"vehicle_type_id":"4","last_reported":1752776158,"current_range_meters":11600,"station_id":"ce4bh2p2rcd13ifvqdi0","pricing_plan_id":"cebpf4jnsgd1na2vs0mg"},{"bike_id":"e98fa4ba-03b5-4f0e-81ad-7d66a6172b2c","system_id":"levelo_inurba_marseille","lat":43.29706,"lon":5.36603,"is_reserved":false,"is_disabled":false,"rental_uris":{"android":"levelo://app?vid=e98fa4ba-03b5-4f0e-81ad-7d66a6172b2c","ios":"levelo://app?vid=e98fa4ba-03b5-4f0e-81ad-7d66a6172b2c"},"vehicle_type_id":"4","last_reported":1752776158,"current_range_meters":11600,"station_id":"ce4bgn12rcd13ifvqbt0","pricing_plan_id":"cebpf4jnsgd1na2vs0mg"},{"bike_id":"4853dc4e-379f-452b-bc04-d34699ff270b","system_id":"levelo_inurba_marseille","lat":43.27388,"lon":5.36251,"is_reserved":false,"is_disabled":false,"rental_uris":{"android":"levelo://app?vid=4853dc4e-379f-452b-bc04-d34699ff270b","ios":"levelo://app?vid=4853dc4e-379f-452b-bc04-d34699ff270b"},"vehicle_type_id":"4","last_reported":1752776158,"current_range_meters":11600,"station_id":"ce4bhbh2rcd13ifvqeo0","pricing_plan_id":"cebpf4jnsgd1na2vs0mg"},{"bike_id":"569e7aee-b9d7-4cae-a388-af02eb081ca1","system_id":"levelo_inurba_marseille","lat":43.29935,"lon":5.36539,"is_reserved":false,"is_disabled":false,"rental_uris":{"android":"levelo://app?vid=569e7aee-b9d7-4cae-a388-af02eb081ca1","ios":"levelo://app?vid=569e7aee-b9d7-4cae-a388-af02eb081ca1"},"vehicle_type_id":"4","last_reported":1752776158,"current_range_meters":11600,"station_id":"ce4bgm92rcd13ifvqbr0","pricing_plan_id":"cebpf4jnsgd1na2vs0mg"},{"bike_id":"84bf9335-ff38-445b-a54a-12f4b52b2c51","system_id":"levelo_inurba_marseille","lat":43.25729,"lon":5.41101,"is_reserved":false,"is_disabled":false,"rental_uris":{"android":"levelo://app?vid=84bf9335-ff38-445b-a54a-12f4b52b2c51","ios":"levelo://app?vid=84bf9335-ff38-445b-a54a-12f4b52b2c51"},"vehicle_type_id":"4","last_reported":1752776158,"current_range_meters":11600,"station_id":"ce4bhkp2rcd13ifvqgd0","pricing_plan_id":"cebpf4jnsgd1na2vs0mg"},{"bike_id":"1a1de22c-864f-4087-990e-227151d55abc","system_id":"levelo_inurba_marseille","lat":43.2121,"lon":5.35081,"is_reserved":false,"is_disabled":false,"rental_uris":{"android":"levelo://app?vid=1a1de22c-864f-4087-990e-227151d55abc","ios":"levelo://app?vid=1a1de22c-864f-4087-990e-227151d55abc"},"vehicle_type_id":"4","last_reported":1752776158,"current_range_meters":12000,"station_id":"st_cvj6sg6p6f1abm77japg","pricing_plan_id":"cebpf4jnsgd1na2vs0mg"},{"bike_id":"04d15a50-cb94-495c-969c-c09473f1fcda","system_id":"levelo_inurba_marseille","lat":43.296223,"lon":5.377025,"is_reserved":false,"is_disabled":false,"rental_uris":{"android":"levelo://app?vid=04d15a50-cb94-495c-969c-c09473f1fcda","ios":"levelo://app?vid=04d15a50-cb94-495c-969c-c09473f1fcda"},"vehicle_type_id":"4","last_reported":1752776158,"current_range_meters":12000,"station_id":"","pricing_plan_id":"cebpf4jnsgd1na2vs0mg"},{"bike_id":"3444bdc6-514a-4ba6-9650-f9073305e33d","system_id":"levelo_inurba_marseille","lat":43.29682,"lon":5.3698,"is_reserved":false,"is_disabled":false,"rental_uris":{"android":"levelo://app?vid=3444bdc6-514a-4ba6-9650-f9073305e33d","ios":"levelo://app?vid=3444bdc6-514a-4ba6-9650-f9073305e33d"},"vehicle_type_id":"4","last_reported":1752776158,"current_range_meters":12000,"station_id":"","pricing_plan_id":"cebpf4jnsgd1na2vs0mg"},{"bike_id":"e14b7157-dba2-436f-99e3-48cf22f07374","system_id":"levelo_inurba_marseille","lat":43.29265,"lon":5.36834,"is_reserved":false,"is_disabled":false,"rental_uris":{"android":"levelo://app?vid=e14b7157-dba2-436f-99e3-48cf22f07374","ios":"levelo://app?vid=e14b7157-dba2-436f-99e3-48cf22f07374"},"vehicle_type_id":"4","last_reported":1752776158,"current_range_meters":12000,"station_id":"ce4bhbp2rcd13ifvqesg","pricing_plan_id":"cebpf4jnsgd1na2vs0mg"},{"bike_id":"86636972-ad1b-4a4f-8356-b529a73632b9","system_id":"levelo_inurba_marseille","lat":43.28618,"lon":5.35096,"is_reserved":false,"is_disabled":false,"rental_uris":{"android":"levelo://app?vid=86636972-ad1b-4a4f-8356-b529a73632b9","ios":"levelo://app?vid=86636972-ad1b-4a4f-8356-b529a73632b9"},"vehicle_type_id":"4","last_reported":1752776158,"current_range_meters":12000,"station_id":"ce4bhch2rcd13ifvqeug","pricing_plan_id":"cebpf4jnsgd1na2vs0mg"},{"bike_id":"b4b12d0e-1294-4a9e-9f5f-8f492b61089f","system_id":"levelo_inurba_marseille","lat":43.25723,"lon":5.41102,"is_reserved":false,"is_disabled":false,"rental_uris":{"android":"levelo://app?vid=b4b12d0e-1294-4a9e-9f5f-8f492b61089f","ios":"levelo://app?vid=b4b12d0e-1294-4a9e-9f5f-8f492b61089f"},"vehicle_type_id":"4","last_reported":1752776158,"current_range_meters":12000,"station_id":"ce4bhkp2rcd13ifvqgd0","pricing_plan_id":"cebpf4jnsgd1na2vs0mg"},{"bike_id":"28d27c17-e6ca-4cec-aec9-f1f6696b8a12","system_id":"levelo_inurba_marseille","lat":43.29904,"lon":5.43646,"is_reserved":false,"is_disabled":true,"rental_uris":{"android":"levelo://app?vid=28d27c17-e6ca-4cec-aec9-f1f6696b8a12","ios":"levelo://app?vid=28d27c17-e6ca-4cec-aec9-f1f6696b8a12"},"vehicle_type_id":"4","last_reported":1752776158,"current_range_meters":12000,"station_id":"ce4bhpp2rcd13ifvqhfg","pricing_plan_id":"cebpf4jnsgd1na2vs0mg"},{"bike_id":"457b0c00-3f1f-4919-9d50-e7f021e30cfa","system_id":"levelo_inurba_marseille","lat":43.21193,"lon":5.35051,"is_reserved":false,"is_disabled":false,"rental_uris":{"android":"levelo://app?vid=457b0c00-3f1f-4919-9d50-e7f021e30cfa","ios":"levelo://app?vid=457b0c00-3f1f-4919-9d50-e7f021e30cfa"},"vehicle_type_id":"4","last_reported":1752776158,"current_range_meters":12000,"station_id":"st_cvj6sg6p6f1abm77japg","pricing_plan_id":"cebpf4jnsgd1na2vs0mg"},{"bike_id":"9e56d23f-7f78-48b6-92f0-c87dd03ac84c","system_id":"levelo_inurba_marseille","lat":43.29868,"lon":5.39713,"is_reserved":false,"is_disabled":false,"rental_uris":{"android":"levelo://app?vid=9e56d23f-7f78-48b6-92f0-c87dd03ac84c","ios":"levelo://app?vid=9e56d23f-7f78-48b6-92f0-c87dd03ac84c"},"vehicle_type_id":"4","last_reported":1752776158,"current_range_meters":12400,"station_id":"ce4bh0h2rcd13ifvqd50","pricing_plan_id":"cebpf4jnsgd1na2vs0mg"},{"bike_id":"e0a98114-6535-4db0-b864-50fbf53ba1b8","system_id":"levelo_inurba_marseille","lat":43.29532,"lon":5.38547,"is_reserved":false,"is_disabled":false,"rental_uris":{"android":"levelo://app?vid=e0a98114-6535-4db0-b864-50fbf53ba1b8","ios":"levelo://app?vid=e0a98114-6535-4db0-b864-50fbf53ba1b8"},"vehicle_type_id":"4","last_reported":1752776158,"current_range_meters":12400,"station_id":"ce4bgih2rcd13ifvqba0","pricing_plan_id":"cebpf4jnsgd1na2vs0mg"},{"bike_id":"c2ba07b6-2037-462d-aca4-fc23bc490a58","system_id":"levelo_inurba_marseille","lat":43.28419,"lon":5.3498,"is_reserved":false,"is_disabled":false,"rental_uris":{"android":"levelo://app?vid=c2ba07b6-2037-462d-aca4-fc23bc490a58","ios":"levelo://app?vid=c2ba07b6-2037-462d-aca4-fc23bc490a58"},"vehicle_type_id":"4","last_reported":1752776158,"current_range_meters":12400,"station_id":"ce4bhbh2rcd13ifvqepg","pricing_plan_id":"cebpf4jnsgd1na2vs0mg"},{"bike_id":"a6ad2597-d35f-40c2-9606-f75afa3aba4c","system_id":"levelo_inurba_marseille","lat":43.28269,"lon":5.35063,"is_reserved":false,"is_disabled":false,"rental_uris":{"android":"levelo://app?vid=a6ad2597-d35f-40c2-9606-f75afa3aba4c","ios":"levelo://app?vid=a6ad2597-d35f-40c2-9606-f75afa3aba4c"},"vehicle_type_id":"4","last_reported":1752776158,"current_range_meters":12400,"station_id":"ce4bhbp2rcd13ifvqerg","pricing_plan_id":"cebpf4jnsgd1na2vs0mg"},{"bike_id":"07f5ae19-0925-43ef-aab4-48ec58bc62b9","system_id":"levelo_inurba_marseille","lat":43.31446,"lon":5.37439,"is_reserved":false,"is_disabled":false,"rental_uris":{"android":"levelo://app?vid=07f5ae19-0925-43ef-aab4-48ec58bc62b9","ios":"levelo://app?vid=07f5ae19-0925-43ef-aab4-48ec58bc62b9"},"vehicle_type_id":"4","last_reported":1752776158,"current_range_meters":12400,"station_id":"","pricing_plan_id":"cebpf4jnsgd1na2vs0mg"},{"bike_id":"a5dfd553-c94a-408d-8a1c-a9c05838c142","system_id":"levelo_inurba_marseille","lat":43.28617,"lon":5.35106,"is_reserved":false,"is_disabled":false,"rental_uris":{"android":"levelo://app?vid=a5dfd553-c94a-408d-8a1c-a9c05838c142","ios":"levelo://app?vid=a5dfd553-c94a-408d-8a1c-a9c05838c142"},"vehicle_type_id":"4","last_reported":1752776158,"current_range_meters":12400,"station_id":"ce4bhch2rcd13ifvqeug","pricing_plan_id":"cebpf4jnsgd1na2vs0mg"},{"bike_id":"2caa1fc1-e184-415d-91e2-5fe84f0832f1","system_id":"levelo_inurba_marseille","lat":43.23186,"lon":5.39976,"is_reserved":false,"is_disabled":false,"rental_uris":{"android":"levelo://app?vid=2caa1fc1-e184-415d-91e2-5fe84f0832f1","ios":"levelo://app?vid=2caa1fc1-e184-415d-91e2-5fe84f0832f1"},"vehicle_type_id":"4","last_reported":1752776158,"current_range_meters":12800,"station_id":"ce4bhn12rcd13ifvqgqg","pricing_plan_id":"cebpf4jnsgd1na2vs0mg"},{"bike_id":"0714a563-de17-4c6e-b8c8-88cb39d88da1","system_id":"levelo_inurba_marseille","lat":43.24398,"lon":5.37044,"is_reserved":false,"is_disabled":false,"rental_uris":{"android":"levelo://app?vid=0714a563-de17-4c6e-b8c8-88cb39d88da1","ios":"levelo://app?vid=0714a563-de17-4c6e-b8c8-88cb39d88da1"},"vehicle_type_id":"4","last_reported":1752776158,"current_range_meters":12800,"station_id":"ce4bhhh2rcd13ifvqfk0","pricing_plan_id":"cebpf4jnsgd1na2vs0mg"},{"bike_id":"79f016fd-1461-4f8d-bac8-14188cc7e5fb","system_id":"levelo_inurba_marseille","lat":43.239648,"lon":5.36635,"is_reserved":false,"is_disabled":false,"rental_uris":{"android":"levelo://app?vid=79f016fd-1461-4f8d-bac8-14188cc7e5fb","ios":"levelo://app?vid=79f016fd-1461-4f8d-bac8-14188cc7e5fb"},"vehicle_type_id":"4","last_reported":1752776158,"current_range_meters":12800,"station_id":"ce4bhi12rcd13ifvqfp0","pricing_plan_id":"cebpf4jnsgd1na2vs0mg"},{"bike_id":"ed751150-452d-4945-82ea-0e389996ac20","system_id":"levelo_inurba_marseille","lat":43.24075,"lon":5.37755,"is_reserved":false,"is_disabled":false,"rental_uris":{"android":"levelo://app?vid=ed751150-452d-4945-82ea-0e389996ac20","ios":"levelo://app?vid=ed751150-452d-4945-82ea-0e389996ac20"},"vehicle_type_id":"4","last_reported":1752776158,"current_range_meters":12800,"station_id":"ce4bhnp2rcd13ifvqgvg","pricing_plan_id":"cebpf4jnsgd1na2vs0mg"},{"bike_id":"b4ff566f-7ccc-44ab-a5a6-a47184f6c3bb","system_id":"levelo_inurba_marseille","lat":43.25722,"lon":5.41102,"is_reserved":false,"is_disabled":false,"rental_uris":{"android":"levelo://app?vid=b4ff566f-7ccc-44ab-a5a6-a47184f6c3bb","ios":"levelo://app?vid=b4ff566f-7ccc-44ab-a5a6-a47184f6c3bb"},"vehicle_type_id":"4","last_reported":1752776158,"current_range_meters":12800,"station_id":"ce4bhkp2rcd13ifvqgd0","pricing_plan_id":"cebpf4jnsgd1na2vs0mg"},{"bike_id":"9ba7c9b8-6ad4-4587-b252-2982078c3aa9","system_id":"levelo_inurba_marseille","lat":43.29862,"lon":5.36276,"is_reserved":false,"is_disabled":false,"rental_uris":{"android":"levelo://app?vid=9ba7c9b8-6ad4-4587-b252-2982078c3aa9","ios":"levelo://app?vid=9ba7c9b8-6ad4-4587-b252-2982078c3aa9"},"vehicle_type_id":"4","last_reported":1752776158,"current_range_meters":12800,"station_id":"ce4bgpp2rcd13ifvqc3g","pricing_plan_id":"cebpf4jnsgd1na2vs0mg"},{"bike_id":"fd07f785-948d-48e7-9c57-46cccfaa2b14","system_id":"levelo_inurba_marseille","lat":43.28422,"lon":5.34959,"is_reserved":false,"is_disabled":false,"rental_uris":{"android":"levelo://app?vid=fd07f785-948d-48e7-9c57-46cccfaa2b14","ios":"levelo://app?vid=fd07f785-948d-48e7-9c57-46cccfaa2b14"},"vehicle_type_id":"4","last_reported":1752776158,"current_range_meters":12800,"station_id":"ce4bhbh2rcd13ifvqepg","pricing_plan_id":"cebpf4jnsgd1na2vs0mg"},{"bike_id":"a77f1322-4ae7-4366-83f6-cd41cf91bd02","system_id":"levelo_inurba_marseille","lat":43.25117,"lon":5.40318,"is_reserved":false,"is_disabled":false,"rental_uris":{"android":"levelo://app?vid=a77f1322-4ae7-4366-83f6-cd41cf91bd02","ios":"levelo://app?vid=a77f1322-4ae7-4366-83f6-cd41cf91bd02"},"vehicle_type_id":"4","last_reported":1752776158,"current_range_meters":12800,"station_id":"ce4bhlh2rcd13ifvqgig","pricing_plan_id":"cebpf4jnsgd1na2vs0mg"},{"bike_id":"a3ff91fe-2641-40df-970b-ff51875c3138","system_id":"levelo_inurba_marseille","lat":43.21762,"lon":5.34605,"is_reserved":false,"is_disabled":false,"rental_uris":{"android":"levelo://app?vid=a3ff91fe-2641-40df-970b-ff51875c3138","ios":"levelo://app?vid=a3ff91fe-2641-40df-970b-ff51875c3138"},"vehicle_type_id":"4","last_reported":1752776158,"current_range_meters":13600,"station_id":"st_cvj6r9ubvosntc0bgbag","pricing_plan_id":"cebpf4jnsgd1na2vs0mg"},{"bike_id":"fb051388-bddd-4117-bccd-f4b08f9cbf7c","system_id":"levelo_inurba_marseille","lat":43.28255,"lon":5.35076,"is_reserved":false,"is_disabled":false,"rental_uris":{"android":"levelo://app?vid=fb051388-bddd-4117-bccd-f4b08f9cbf7c","ios":"levelo://app?vid=fb051388-bddd-4117-bccd-f4b08f9cbf7c"},"vehicle_type_id":"4","last_reported":1752776158,"current_range_meters":13600,"station_id":"ce4bhbp2rcd13ifvqerg","pricing_plan_id":"cebpf4jnsgd1na2vs0mg"},{"bike_id":"c303be8a-04b5-403f-a92a-eac34b716859","system_id":"levelo_inurba_marseille","lat":43.22935,"lon":5.35367,"is_reserved":false,"is_disabled":false,"rental_uris":{"android":"levelo://app?vid=c303be8a-04b5-403f-a92a-eac34b716859","ios":"levelo://app?vid=c303be8a-04b5-403f-a92a-eac34b716859"},"vehicle_type_id":"4","last_reported":1752776158,"current_range_meters":13600,"station_id":"cpo3532slgdg3j2ikp40","pricing_plan_id":"cebpf4jnsgd1na2vs0mg"},{"bike_id":"d1e94785-07c9-4567-977b-a1d086ccac8d","system_id":"levelo_inurba_marseille","lat":43.29903,"lon":5.43636,"is_reserved":false,"is_disabled":false,"rental_uris":{"android":"levelo://app?vid=d1e94785-07c9-4567-977b-a1d086ccac8d","ios":"levelo://app?vid=d1e94785-07c9-4567-977b-a1d086ccac8d"},"vehicle_type_id":"4","last_reported":1752776158,"current_range_meters":14000,"station_id":"ce4bhpp2rcd13ifvqhfg","pricing_plan_id":"cebpf4jnsgd1na2vs0mg"},{"bike_id":"3b72bfb4-c984-4e7e-ab52-1639f0aec638","system_id":"levelo_inurba_marseille","lat":43.29202,"lon":5.39326,"is_reserved":false,"is_disabled":false,"rental_uris":{"android":"levelo://app?vid=3b72bfb4-c984-4e7e-ab52-1639f0aec638","ios":"levelo://app?vid=3b72bfb4-c984-4e7e-ab52-1639f0aec638"},"vehicle_type_id":"4","last_reported":1752776158,"current_range_meters":13600,"station_id":"ce4bh192rcd13ifvqdd0","pricing_plan_id":"cebpf4jnsgd1na2vs0mg"},{"bike_id":"6d70d6d4-7776-4d1e-a307-46e9e54de733","system_id":"levelo_inurba_marseille","lat":43.29573,"lon":5.39937,"is_reserved":false,"is_disabled":true,"rental_uris":{"android":"levelo://app?vid=6d70d6d4-7776-4d1e-a307-46e9e54de733","ios":"levelo://app?vid=6d70d6d4-7776-4d1e-a307-46e9e54de733"},"vehicle_type_id":"4","last_reported":1752776158,"current_range_meters":14000,"station_id":"ce4bh312rcd13ifvqdj0","pricing_plan_id":"cebpf4jnsgd1na2vs0mg"},{"bike_id":"250cd482-af8e-4c37-b0d9-ce7369382db7","system_id":"levelo_inurba_marseille","lat":43.27054,"lon":5.40251,"is_reserved":false,"is_disabled":false,"rental_uris":{"android":"levelo://app?vid=250cd482-af8e-4c37-b0d9-ce7369382db7","ios":"levelo://app?vid=250cd482-af8e-4c37-b0d9-ce7369382db7"},"vehicle_type_id":"4","last_reported":1752776158,"current_range_meters":14000,"station_id":"ce4bhk92rcd13ifvqgc0","pricing_plan_id":"cebpf4jnsgd1na2vs0mg"},{"bike_id":"7138ba2e-9ea4-43e1-bdc0-1439a0a12136","system_id":"levelo_inurba_marseille","lat":43.28943,"lon":5.39625,"is_reserved":false,"is_disabled":false,"rental_uris":{"android":"levelo://app?vid=7138ba2e-9ea4-43e1-bdc0-1439a0a12136","ios":"levelo://app?vid=7138ba2e-9ea4-43e1-bdc0-1439a0a12136"},"vehicle_type_id":"4","last_reported":1752776158,"current_range_meters":9600,"station_id":"ce4bh3h2rcd13ifvqdn0","pricing_plan_id":"cebpf4jnsgd1na2vs0mg"},{"bike_id":"3e2535f8-7d7e-418e-8d9a-1404dd8a8196","system_id":"levelo_inurba_marseille","lat":43.33769,"lon":5.37435,"is_reserved":false,"is_disabled":true,"rental_uris":{"android":"levelo://app?vid=3e2535f8-7d7e-418e-8d9a-1404dd8a8196","ios":"levelo://app?vid=3e2535f8-7d7e-418e-8d9a-1404dd8a8196"},"vehicle_type_id":"4","last_reported":1752776158,"current_range_meters":14000,"station_id":"ce4bgh92rcd13ifvqb40","pricing_plan_id":"cebpf4jnsgd1na2vs0mg"},{"bike_id":"c9d5ce96-7bdf-4bac-a21b-39d832c652cd","system_id":"levelo_inurba_marseille","lat":43.30734,"lon":5.42431,"is_reserved":false,"is_disabled":false,"rental_uris":{"android":"levelo://app?vid=c9d5ce96-7bdf-4bac-a21b-39d832c652cd","ios":"levelo://app?vid=c9d5ce96-7bdf-4bac-a21b-39d832c652cd"},"vehicle_type_id":"4","last_reported":1752776158,"current_range_meters":14000,"station_id":"st_cvj6ca6bvosntc0bfgr0","pricing_plan_id":"cebpf4jnsgd1na2vs0mg"},{"bike_id":"27c36bcc-8555-4bc5-b475-cb76f8e230e5","system_id":"levelo_inurba_marseille","lat":43.243895,"lon":5.370605,"is_reserved":false,"is_disabled":false,"rental_uris":{"android":"levelo://app?vid=27c36bcc-8555-4bc5-b475-cb76f8e230e5","ios":"levelo://app?vid=27c36bcc-8555-4bc5-b475-cb76f8e230e5"},"vehicle_type_id":"4","last_reported":1752776158,"current_range_meters":14000,"station_id":"ce4bhhh2rcd13ifvqfk0","pricing_plan_id":"cebpf4jnsgd1na2vs0mg"},{"bike_id":"e9274780-8291-4a86-8647-95f9944617e9","system_id":"levelo_inurba_marseille","lat":43.30192,"lon":5.36623,"is_reserved":false,"is_disabled":false,"rental_uris":{"android":"levelo://app?vid=e9274780-8291-4a86-8647-95f9944617e9","ios":"levelo://app?vid=e9274780-8291-4a86-8647-95f9944617e9"},"vehicle_type_id":"4","last_reported":1752776158,"current_range_meters":13600,"station_id":"ce4bgrh2rcd13ifvqc8g","pricing_plan_id":"cebpf4jnsgd1na2vs0mg"},{"bike_id":"fec0f980-3485-4095-b4d2-a568d83d7d17","system_id":"levelo_inurba_marseille","lat":43.28405,"lon":5.34981,"is_reserved":false,"is_disabled":false,"rental_uris":{"android":"levelo://app?vid=fec0f980-3485-4095-b4d2-a568d83d7d17","ios":"levelo://app?vid=fec0f980-3485-4095-b4d2-a568d83d7d17"},"vehicle_type_id":"4","last_reported":1752776158,"current_range_meters":14000,"station_id":"ce4bhbh2rcd13ifvqepg","pricing_plan_id":"cebpf4jnsgd1na2vs0mg"},{"bike_id":"8190b158-4f1a-4f58-a07b-5b1c4e7d71cb","system_id":"levelo_inurba_marseille","lat":43.29221,"lon":5.36053,"is_reserved":false,"is_disabled":false,"rental_uris":{"android":"levelo://app?vid=8190b158-4f1a-4f58-a07b-5b1c4e7d71cb","ios":"levelo://app?vid=8190b158-4f1a-4f58-a07b-5b1c4e7d71cb"},"vehicle_type_id":"4","last_reported":1752776158,"current_range_meters":14000,"station_id":"ce4bhbh2rcd13ifvqeqg","pricing_plan_id":"cebpf4jnsgd1na2vs0mg"},{"bike_id":"78274e74-ab73-4fa7-b1a3-d1a684863996","system_id":"levelo_inurba_marseille","lat":43.22506,"lon":5.34766,"is_reserved":false,"is_disabled":false,"rental_uris":{"android":"levelo://app?vid=78274e74-ab73-4fa7-b1a3-d1a684863996","ios":"levelo://app?vid=78274e74-ab73-4fa7-b1a3-d1a684863996"},"vehicle_type_id":"4","last_reported":1752776158,"current_range_meters":14000,"station_id":"st_cvj5dfep6f1abm77gieg","pricing_plan_id":"cebpf4jnsgd1na2vs0mg"},{"bike_id":"b861e845-045e-4bb7-9260-06d3fafca4ef","system_id":"levelo_inurba_marseille","lat":43.29898,"lon":5.43653,"is_reserved":false,"is_disabled":false,"rental_uris":{"android":"levelo://app?vid=b861e845-045e-4bb7-9260-06d3fafca4ef","ios":"levelo://app?vid=b861e845-045e-4bb7-9260-06d3fafca4ef"},"vehicle_type_id":"4","last_reported":1752776158,"current_range_meters":14400,"station_id":"ce4bhpp2rcd13ifvqhfg","pricing_plan_id":"cebpf4jnsgd1na2vs0mg"},{"bike_id":"2c6e34ec-e4ad-4b55-908f-732bdcecdb2f","system_id":"levelo_inurba_marseille","lat":43.21195,"lon":5.35057,"is_reserved":false,"is_disabled":false,"rental_uris":{"android":"levelo://app?vid=2c6e34ec-e4ad-4b55-908f-732bdcecdb2f","ios":"levelo://app?vid=2c6e34ec-e4ad-4b55-908f-732bdcecdb2f"},"vehicle_type_id":"4","last_reported":1752776158,"current_range_meters":14400,"station_id":"st_cvj6sg6p6f1abm77japg","pricing_plan_id":"cebpf4jnsgd1na2vs0mg"},{"bike_id":"1888020a-75e6-4108-8545-6cfe24037331","system_id":"levelo_inurba_marseille","lat":43.29527,"lon":5.38537,"is_reserved":false,"is_disabled":false,"rental_uris":{"android":"levelo://app?vid=1888020a-75e6-4108-8545-6cfe24037331","ios":"levelo://app?vid=1888020a-75e6-4108-8545-6cfe24037331"},"vehicle_type_id":"4","last_reported":1752776158,"current_range_meters":14400,"station_id":"ce4bgih2rcd13ifvqba0","pricing_plan_id":"cebpf4jnsgd1na2vs0mg"},{"bike_id":"31ca14e8-8ac4-4828-a312-eefb88d6bd2c","system_id":"levelo_inurba_marseille","lat":43.24074,"lon":5.3776,"is_reserved":false,"is_disabled":false,"rental_uris":{"android":"levelo://app?vid=31ca14e8-8ac4-4828-a312-eefb88d6bd2c","ios":"levelo://app?vid=31ca14e8-8ac4-4828-a312-eefb88d6bd2c"},"vehicle_type_id":"4","last_reported":1752776158,"current_range_meters":14400,"station_id":"ce4bhnp2rcd13ifvqgvg","pricing_plan_id":"cebpf4jnsgd1na2vs0mg"},{"bike_id":"5a56dee4-8d00-4d24-9656-195374b12719","system_id":"levelo_inurba_marseille","lat":43.31359,"lon":5.38483,"is_reserved":false,"is_disabled":false,"rental_uris":{"android":"levelo://app?vid=5a56dee4-8d00-4d24-9656-195374b12719","ios":"levelo://app?vid=5a56dee4-8d00-4d24-9656-195374b12719"},"vehicle_type_id":"4","last_reported":1752776158,"current_range_meters":14400,"station_id":"ce4bgt92rcd13ifvqcf0","pricing_plan_id":"cebpf4jnsgd1na2vs0mg"},{"bike_id":"2ac93549-5c94-4228-8eea-782a21384d10","system_id":"levelo_inurba_marseille","lat":43.29634,"lon":5.37793,"is_reserved":false,"is_disabled":false,"rental_uris":{"android":"levelo://app?vid=2ac93549-5c94-4228-8eea-782a21384d10","ios":"levelo://app?vid=2ac93549-5c94-4228-8eea-782a21384d10"},"vehicle_type_id":"4","last_reported":1752776158,"current_range_meters":14400,"station_id":"","pricing_plan_id":"cebpf4jnsgd1na2vs0mg"},{"bike_id":"fd75f631-a93f-469d-bea7-4e480ab41eae","system_id":"levelo_inurba_marseille","lat":43.2825,"lon":5.35107,"is_reserved":false,"is_disabled":false,"rental_uris":{"android":"levelo://app?vid=fd75f631-a93f-469d-bea7-4e480ab41eae","ios":"levelo://app?vid=fd75f631-a93f-469d-bea7-4e480ab41eae"},"vehicle_type_id":"4","last_reported":1752776158,"current_range_meters":14400,"station_id":"ce4bhbp2rcd13ifvqerg","pricing_plan_id":"cebpf4jnsgd1na2vs0mg"},{"bike_id":"f7def945-7460-47a4-835c-065812d7faa0","system_id":"levelo_inurba_marseille","lat":43.28267,"lon":5.35071,"is_reserved":false,"is_disabled":false,"rental_uris":{"android":"levelo://app?vid=f7def945-7460-47a4-835c-065812d7faa0","ios":"levelo://app?vid=f7def945-7460-47a4-835c-065812d7faa0"},"vehicle_type_id":"4","last_reported":1752776158,"current_range_meters":14400,"station_id":"ce4bhbp2rcd13ifvqerg","pricing_plan_id":"cebpf4jnsgd1na2vs0mg"},{"bike_id":"fa04a682-3214-4c8b-a4c6-5569082383b8","system_id":"levelo_inurba_marseille","lat":43.29226,"lon":5.36037,"is_reserved":false,"is_disabled":false,"rental_uris":{"android":"levelo://app?vid=fa04a682-3214-4c8b-a4c6-5569082383b8","ios":"levelo://app?vid=fa04a682-3214-4c8b-a4c6-5569082383b8"},"vehicle_type_id":"4","last_reported":1752776158,"current_range_meters":14800,"station_id":"ce4bhbh2rcd13ifvqeqg","pricing_plan_id":"cebpf4jnsgd1na2vs0mg"},{"bike_id":"cd6a98b6-78ee-44c4-8d63-bd1ba4fada59","system_id":"levelo_inurba_marseille","lat":43.32128,"lon":5.36774,"is_reserved":false,"is_disabled":false,"rental_uris":{"android":"levelo://app?vid=cd6a98b6-78ee-44c4-8d63-bd1ba4fada59","ios":"levelo://app?vid=cd6a98b6-78ee-44c4-8d63-bd1ba4fada59"},"vehicle_type_id":"4","last_reported":1752776158,"current_range_meters":14800,"station_id":"ce4bhrh2rcd13ifvqhug","pricing_plan_id":"cebpf4jnsgd1na2vs0mg"},{"bike_id":"6c241d5d-e4e7-4435-9f04-3d2bc3190f6f","system_id":"levelo_inurba_marseille","lat":43.29795,"lon":5.3707,"is_reserved":false,"is_disabled":false,"rental_uris":{"android":"levelo://app?vid=6c241d5d-e4e7-4435-9f04-3d2bc3190f6f","ios":"levelo://app?vid=6c241d5d-e4e7-4435-9f04-3d2bc3190f6f"},"vehicle_type_id":"4","last_reported":1752776158,"current_range_meters":14400,"station_id":"ce4bgop2rcd13ifvqc1g","pricing_plan_id":"cebpf4jnsgd1na2vs0mg"},{"bike_id":"f1a7f3b0-3bad-4ded-bc92-3fb1685f68ed","system_id":"levelo_inurba_marseille","lat":43.293638,"lon":5.378632,"is_reserved":false,"is_disabled":true,"rental_uris":{"android":"levelo://app?vid=f1a7f3b0-3bad-4ded-bc92-3fb1685f68ed","ios":"levelo://app?vid=f1a7f3b0-3bad-4ded-bc92-3fb1685f68ed"},"vehicle_type_id":"4","last_reported":1752776158,"current_range_meters":14800,"station_id":"ce4bgjh2rcd13ifvqbf0","pricing_plan_id":"cebpf4jnsgd1na2vs0mg"},{"bike_id":"72363da8-e89e-41f4-b909-1cd750ba8cd6","system_id":"levelo_inurba_marseille","lat":43.250883,"lon":5.395275,"is_reserved":false,"is_disabled":false,"rental_uris":{"android":"levelo://app?vid=72363da8-e89e-41f4-b909-1cd750ba8cd6","ios":"levelo://app?vid=72363da8-e89e-41f4-b909-1cd750ba8cd6"},"vehicle_type_id":"4","last_reported":1752776158,"current_range_meters":14800,"station_id":"ce4bhm12rcd13ifvqgkg","pricing_plan_id":"cebpf4jnsgd1na2vs0mg"},{"bike_id":"64c90c61-1fca-4412-8a6b-30a29b4cffb6","system_id":"levelo_inurba_marseille","lat":43.29008,"lon":5.35611,"is_reserved":false,"is_disabled":false,"rental_uris":{"android":"levelo://app?vid=64c90c61-1fca-4412-8a6b-30a29b4cffb6","ios":"levelo://app?vid=64c90c61-1fca-4412-8a6b-30a29b4cffb6"},"vehicle_type_id":"4","last_reported":1752776158,"current_range_meters":14800,"station_id":"ce4bhb92rcd13ifvqen0","pricing_plan_id":"cebpf4jnsgd1na2vs0mg"},{"bike_id":"da891840-0cec-4ccc-961c-48903736c6fa","system_id":"levelo_inurba_marseille","lat":43.31139,"lon":5.37692,"is_reserved":false,"is_disabled":false,"rental_uris":{"android":"levelo://app?vid=da891840-0cec-4ccc-961c-48903736c6fa","ios":"levelo://app?vid=da891840-0cec-4ccc-961c-48903736c6fa"},"vehicle_type_id":"4","last_reported":1752776158,"current_range_meters":14800,"station_id":"","pricing_plan_id":"cebpf4jnsgd1na2vs0mg"},{"bike_id":"a64f344d-50e6-4de9-9eee-cf18c22c0c3e","system_id":"levelo_inurba_marseille","lat":43.21753,"lon":5.34588,"is_reserved":false,"is_disabled":false,"rental_uris":{"android":"levelo://app?vid=a64f344d-50e6-4de9-9eee-cf18c22c0c3e","ios":"levelo://app?vid=a64f344d-50e6-4de9-9eee-cf18c22c0c3e"},"vehicle_type_id":"4","last_reported":1752776158,"current_range_meters":14800,"station_id":"st_cvj6r9ubvosntc0bgbag","pricing_plan_id":"cebpf4jnsgd1na2vs0mg"},{"bike_id":"b3af22de-804c-4b6e-9abb-abf742899dd0","system_id":"levelo_inurba_marseille","lat":43.24164,"lon":5.36389,"is_reserved":false,"is_disabled":false,"rental_uris":{"android":"levelo://app?vid=b3af22de-804c-4b6e-9abb-abf742899dd0","ios":"levelo://app?vid=b3af22de-804c-4b6e-9abb-abf742899dd0"},"vehicle_type_id":"4","last_reported":1752776158,"current_range_meters":14800,"station_id":"cpo36qri1sfpv3e86is0","pricing_plan_id":"cebpf4jnsgd1na2vs0mg"},{"bike_id":"5983b9f0-2dbc-4cb0-9457-c9b8b90078c7","system_id":"levelo_inurba_marseille","lat":43.28274,"lon":5.35045,"is_reserved":false,"is_disabled":false,"rental_uris":{"android":"levelo://app?vid=5983b9f0-2dbc-4cb0-9457-c9b8b90078c7","ios":"levelo://app?vid=5983b9f0-2dbc-4cb0-9457-c9b8b90078c7"},"vehicle_type_id":"4","last_reported":1752776158,"current_range_meters":14800,"station_id":"ce4bhbp2rcd13ifvqerg","pricing_plan_id":"cebpf4jnsgd1na2vs0mg"},{"bike_id":"e555b545-304c-4dce-8496-1643c0f2600e","system_id":"levelo_inurba_marseille","lat":43.337444,"lon":5.374475,"is_reserved":false,"is_disabled":false,"rental_uris":{"android":"levelo://app?vid=e555b545-304c-4dce-8496-1643c0f2600e","ios":"levelo://app?vid=e555b545-304c-4dce-8496-1643c0f2600e"},"vehicle_type_id":"4","last_reported":1752776158,"current_range_meters":14800,"station_id":"","pricing_plan_id":"cebpf4jnsgd1na2vs0mg"},{"bike_id":"ba3823fb-c6a3-4066-b41a-411ec979f129","system_id":"levelo_inurba_marseille","lat":43.32351,"lon":5.40609,"is_reserved":false,"is_disabled":false,"rental_uris":{"android":"levelo://app?vid=ba3823fb-c6a3-4066-b41a-411ec979f129","ios":"levelo://app?vid=ba3823fb-c6a3-4066-b41a-411ec979f129"},"vehicle_type_id":"4","last_reported":1752776158,"current_range_meters":14800,"station_id":"ce4bhq92rcd13ifvqhjg","pricing_plan_id":"cebpf4jnsgd1na2vs0mg"},{"bike_id":"fa952d17-ab1a-4475-9dcd-13ca92954e4b","system_id":"levelo_inurba_marseille","lat":43.29258,"lon":5.38422,"is_reserved":false,"is_disabled":false,"rental_uris":{"android":"levelo://app?vid=fa952d17-ab1a-4475-9dcd-13ca92954e4b","ios":"levelo://app?vid=fa952d17-ab1a-4475-9dcd-13ca92954e4b"},"vehicle_type_id":"4","last_reported":1752776158,"current_range_meters":14800,"station_id":"ce4bh692rcd13ifvqea0","pricing_plan_id":"cebpf4jnsgd1na2vs0mg"},{"bike_id":"ae28ea44-06e0-468d-b104-f45ecdf62a40","system_id":"levelo_inurba_marseille","lat":43.23201,"lon":5.35538,"is_reserved":false,"is_disabled":false,"rental_uris":{"android":"levelo://app?vid=ae28ea44-06e0-468d-b104-f45ecdf62a40","ios":"levelo://app?vid=ae28ea44-06e0-468d-b104-f45ecdf62a40"},"vehicle_type_id":"4","last_reported":1752776158,"current_range_meters":15200,"station_id":"ce4bhu92rcd13ifvqi70","pricing_plan_id":"cebpf4jnsgd1na2vs0mg"},{"bike_id":"7c4df616-9cd6-4968-9bf7-ae699e871c26","system_id":"levelo_inurba_marseille","lat":43.26092,"lon":5.39367,"is_reserved":false,"is_disabled":false,"rental_uris":{"android":"levelo://app?vid=7c4df616-9cd6-4968-9bf7-ae699e871c26","ios":"levelo://app?vid=7c4df616-9cd6-4968-9bf7-ae699e871c26"},"vehicle_type_id":"4","last_reported":1752776158,"current_range_meters":15200,"station_id":"ce4bhh92rcd13ifvqfj0","pricing_plan_id":"cebpf4jnsgd1na2vs0mg"},{"bike_id":"08047682-4828-4af3-8084-134e8a9fbd3f","system_id":"levelo_inurba_marseille","lat":43.26812,"lon":5.402595,"is_reserved":false,"is_disabled":false,"rental_uris":{"android":"levelo://app?vid=08047682-4828-4af3-8084-134e8a9fbd3f","ios":"levelo://app?vid=08047682-4828-4af3-8084-134e8a9fbd3f"},"vehicle_type_id":"4","last_reported":1752776158,"current_range_meters":15200,"station_id":"ce501612rcd8frsf0b60","pricing_plan_id":"cebpf4jnsgd1na2vs0mg"},{"bike_id":"4945d92d-1fea-4127-826c-29ab7b52e843","system_id":"levelo_inurba_marseille","lat":43.28617,"lon":5.35098,"is_reserved":false,"is_disabled":false,"rental_uris":{"android":"levelo://app?vid=4945d92d-1fea-4127-826c-29ab7b52e843","ios":"levelo://app?vid=4945d92d-1fea-4127-826c-29ab7b52e843"},"vehicle_type_id":"4","last_reported":1752776158,"current_range_meters":15200,"station_id":"ce4bhch2rcd13ifvqeug","pricing_plan_id":"cebpf4jnsgd1na2vs0mg"},{"bike_id":"531dca68-8617-41b0-a6cd-abffc94e1d45","system_id":"levelo_inurba_marseille","lat":43.31206,"lon":5.37315,"is_reserved":false,"is_disabled":false,"rental_uris":{"android":"levelo://app?vid=531dca68-8617-41b0-a6cd-abffc94e1d45","ios":"levelo://app?vid=531dca68-8617-41b0-a6cd-abffc94e1d45"},"vehicle_type_id":"4","last_reported":1752776158,"current_range_meters":15200,"station_id":"","pricing_plan_id":"cebpf4jnsgd1na2vs0mg"},{"bike_id":"39f63f10-652b-45a0-b9da-22b0b7fdf103","system_id":"levelo_inurba_marseille","lat":43.30415,"lon":5.41262,"is_reserved":false,"is_disabled":false,"rental_uris":{"android":"levelo://app?vid=39f63f10-652b-45a0-b9da-22b0b7fdf103","ios":"levelo://app?vid=39f63f10-652b-45a0-b9da-22b0b7fdf103"},"vehicle_type_id":"4","last_reported":1752776158,"current_range_meters":15200,"station_id":"ce4bhop2rcd13ifvqh8g","pricing_plan_id":"cebpf4jnsgd1na2vs0mg"},{"bike_id":"4b197cf7-9bf9-4e55-8a26-0425ff3d5a3f","system_id":"levelo_inurba_marseille","lat":43.28614,"lon":5.35087,"is_reserved":false,"is_disabled":false,"rental_uris":{"android":"levelo://app?vid=4b197cf7-9bf9-4e55-8a26-0425ff3d5a3f","ios":"levelo://app?vid=4b197cf7-9bf9-4e55-8a26-0425ff3d5a3f"},"vehicle_type_id":"4","last_reported":1752776158,"current_range_meters":15200,"station_id":"ce4bhch2rcd13ifvqeug","pricing_plan_id":"cebpf4jnsgd1na2vs0mg"},{"bike_id":"9c837b99-081f-4caa-a8a3-7d6dc61e9d18","system_id":"levelo_inurba_marseille","lat":43.23071,"lon":5.35488,"is_reserved":false,"is_disabled":false,"rental_uris":{"android":"levelo://app?vid=9c837b99-081f-4caa-a8a3-7d6dc61e9d18","ios":"levelo://app?vid=9c837b99-081f-4caa-a8a3-7d6dc61e9d18"},"vehicle_type_id":"4","last_reported":1752776158,"current_range_meters":16000,"station_id":"cpo3342slgdg3j2ifvpg","pricing_plan_id":"cebpf4jnsgd1na2vs0mg"},{"bike_id":"29ea3cb3-cbcf-4c2a-b20d-6f0da89e8aa2","system_id":"levelo_inurba_marseille","lat":43.21751,"lon":5.34589,"is_reserved":false,"is_disabled":false,"rental_uris":{"android":"levelo://app?vid=29ea3cb3-cbcf-4c2a-b20d-6f0da89e8aa2","ios":"levelo://app?vid=29ea3cb3-cbcf-4c2a-b20d-6f0da89e8aa2"},"vehicle_type_id":"4","last_reported":1752776158,"current_range_meters":16000,"station_id":"st_cvj6r9ubvosntc0bgbag","pricing_plan_id":"cebpf4jnsgd1na2vs0mg"},{"bike_id":"a092d05c-8017-44f5-ba8a-35792463d6a3","system_id":"levelo_inurba_marseille","lat":43.22492,"lon":5.34784,"is_reserved":false,"is_disabled":false,"rental_uris":{"android":"levelo://app?vid=a092d05c-8017-44f5-ba8a-35792463d6a3","ios":"levelo://app?vid=a092d05c-8017-44f5-ba8a-35792463d6a3"},"vehicle_type_id":"4","last_reported":1752776158,"current_range_meters":16000,"station_id":"st_cvj5dfep6f1abm77gieg","pricing_plan_id":"cebpf4jnsgd1na2vs0mg"},{"bike_id":"b8da2cc0-365e-4444-8a9a-ac56930732af","system_id":"levelo_inurba_marseille","lat":43.27943,"lon":5.41057,"is_reserved":false,"is_disabled":false,"rental_uris":{"android":"levelo://app?vid=b8da2cc0-365e-4444-8a9a-ac56930732af","ios":"levelo://app?vid=b8da2cc0-365e-4444-8a9a-ac56930732af"},"vehicle_type_id":"4","last_reported":1752776158,"current_range_meters":16000,"station_id":"ce4bhnp2rcd13ifvqh0g","pricing_plan_id":"cebpf4jnsgd1na2vs0mg"},{"bike_id":"dfc42a2e-0f95-4db0-9ba3-0397d8138378","system_id":"levelo_inurba_marseille","lat":43.28609,"lon":5.351,"is_reserved":false,"is_disabled":false,"rental_uris":{"android":"levelo://app?vid=dfc42a2e-0f95-4db0-9ba3-0397d8138378","ios":"levelo://app?vid=dfc42a2e-0f95-4db0-9ba3-0397d8138378"},"vehicle_type_id":"4","last_reported":1752776158,"current_range_meters":16000,"station_id":"ce4bhch2rcd13ifvqeug","pricing_plan_id":"cebpf4jnsgd1na2vs0mg"},{"bike_id":"e1bdd5b7-97aa-464b-8778-850b8f5d3325","system_id":"levelo_inurba_marseille","lat":43.2408,"lon":5.37752,"is_reserved":false,"is_disabled":false,"rental_uris":{"android":"levelo://app?vid=e1bdd5b7-97aa-464b-8778-850b8f5d3325","ios":"levelo://app?vid=e1bdd5b7-97aa-464b-8778-850b8f5d3325"},"vehicle_type_id":"4","last_reported":1752776158,"current_range_meters":16000,"station_id":"ce4bhnp2rcd13ifvqgvg","pricing_plan_id":"cebpf4jnsgd1na2vs0mg"},{"bike_id":"d418fe0e-eb2e-4d0f-a1ff-ba5be7ee4a5c","system_id":"levelo_inurba_marseille","lat":43.28621,"lon":5.35075,"is_reserved":false,"is_disabled":false,"rental_uris":{"android":"levelo://app?vid=d418fe0e-eb2e-4d0f-a1ff-ba5be7ee4a5c","ios":"levelo://app?vid=d418fe0e-eb2e-4d0f-a1ff-ba5be7ee4a5c"},"vehicle_type_id":"4","last_reported":1752776158,"current_range_meters":16000,"station_id":"ce4bhch2rcd13ifvqeug","pricing_plan_id":"cebpf4jnsgd1na2vs0mg"},{"bike_id":"0a0d6a1e-9764-49da-afe9-af83868d03a3","system_id":"levelo_inurba_marseille","lat":43.21198,"lon":5.35058,"is_reserved":false,"is_disabled":false,"rental_uris":{"android":"levelo://app?vid=0a0d6a1e-9764-49da-afe9-af83868d03a3","ios":"levelo://app?vid=0a0d6a1e-9764-49da-afe9-af83868d03a3"},"vehicle_type_id":"4","last_reported":1752776158,"current_range_meters":16000,"station_id":"st_cvj6sg6p6f1abm77japg","pricing_plan_id":"cebpf4jnsgd1na2vs0mg"},{"bike_id":"2272a1cb-30d4-47dd-bed5-39b01483f853","system_id":"levelo_inurba_marseille","lat":43.22919,"lon":5.35363,"is_reserved":false,"is_disabled":false,"rental_uris":{"android":"levelo://app?vid=2272a1cb-30d4-47dd-bed5-39b01483f853","ios":"levelo://app?vid=2272a1cb-30d4-47dd-bed5-39b01483f853"},"vehicle_type_id":"4","last_reported":1752776158,"current_range_meters":16000,"station_id":"cpo3532slgdg3j2ikp40","pricing_plan_id":"cebpf4jnsgd1na2vs0mg"},{"bike_id":"d685d87f-36f9-4abf-b3d9-abacae29b297","system_id":"levelo_inurba_marseille","lat":43.293126,"lon":5.371776,"is_reserved":false,"is_disabled":false,"rental_uris":{"android":"levelo://app?vid=d685d87f-36f9-4abf-b3d9-abacae29b297","ios":"levelo://app?vid=d685d87f-36f9-4abf-b3d9-abacae29b297"},"vehicle_type_id":"4","last_reported":1752776158,"current_range_meters":16000,"station_id":"ce4bgpp2rcd13ifvqc3g","pricing_plan_id":"cebpf4jnsgd1na2vs0mg"},{"bike_id":"7e45c8a4-e7f1-477f-864e-3ae6f238ef5a","system_id":"levelo_inurba_marseille","lat":43.21212,"lon":5.3504,"is_reserved":false,"is_disabled":false,"rental_uris":{"android":"levelo://app?vid=7e45c8a4-e7f1-477f-864e-3ae6f238ef5a","ios":"levelo://app?vid=7e45c8a4-e7f1-477f-864e-3ae6f238ef5a"},"vehicle_type_id":"4","last_reported":1752776158,"current_range_meters":16000,"station_id":"","pricing_plan_id":"cebpf4jnsgd1na2vs0mg"},{"bike_id":"46962eda-94c5-47ef-8d0e-c87802d34f6f","system_id":"levelo_inurba_marseille","lat":43.30326,"lon":5.40432,"is_reserved":false,"is_disabled":false,"rental_uris":{"android":"levelo://app?vid=46962eda-94c5-47ef-8d0e-c87802d34f6f","ios":"levelo://app?vid=46962eda-94c5-47ef-8d0e-c87802d34f6f"},"vehicle_type_id":"4","last_reported":1752776158,"current_range_meters":16000,"station_id":"ce4bh012rcd13ifvqd10","pricing_plan_id":"cebpf4jnsgd1na2vs0mg"},{"bike_id":"68d3533b-4c6f-4fc8-bf0e-8f31e9e437ca","system_id":"levelo_inurba_marseille","lat":43.24399,"lon":5.37046,"is_reserved":false,"is_disabled":false,"rental_uris":{"android":"levelo://app?vid=68d3533b-4c6f-4fc8-bf0e-8f31e9e437ca","ios":"levelo://app?vid=68d3533b-4c6f-4fc8-bf0e-8f31e9e437ca"},"vehicle_type_id":"4","last_reported":1752776158,"current_range_meters":16000,"station_id":"ce4bhhh2rcd13ifvqfk0","pricing_plan_id":"cebpf4jnsgd1na2vs0mg"},{"bike_id":"00d3d4e5-935f-493f-af3d-d079b4fccd75","system_id":"levelo_inurba_marseille","lat":43.31699,"lon":5.37759,"is_reserved":false,"is_disabled":false,"rental_uris":{"android":"levelo://app?vid=00d3d4e5-935f-493f-af3d-d079b4fccd75","ios":"levelo://app?vid=00d3d4e5-935f-493f-af3d-d079b4fccd75"},"vehicle_type_id":"4","last_reported":1752776158,"current_range_meters":16000,"station_id":"ce4bgth2rcd13ifvqch0","pricing_plan_id":"cebpf4jnsgd1na2vs0mg"},{"bike_id":"e1bc2dd1-a769-48ea-9ffc-442e73c9f77f","system_id":"levelo_inurba_marseille","lat":43.28435,"lon":5.3921,"is_reserved":false,"is_disabled":false,"rental_uris":{"android":"levelo://app?vid=e1bc2dd1-a769-48ea-9ffc-442e73c9f77f","ios":"levelo://app?vid=e1bc2dd1-a769-48ea-9ffc-442e73c9f77f"},"vehicle_type_id":"4","last_reported":1752776158,"current_range_meters":16400,"station_id":"ce4bhoh2rcd13ifvqh5g","pricing_plan_id":"cebpf4jnsgd1na2vs0mg"},{"bike_id":"08d111e6-72b1-46ed-bb47-3abb4150e0e2","system_id":"levelo_inurba_marseille","lat":43.28407,"lon":5.34981,"is_reserved":false,"is_disabled":false,"rental_uris":{"android":"levelo://app?vid=08d111e6-72b1-46ed-bb47-3abb4150e0e2","ios":"levelo://app?vid=08d111e6-72b1-46ed-bb47-3abb4150e0e2"},"vehicle_type_id":"4","last_reported":1752776158,"current_range_meters":16400,"station_id":"ce4bhbh2rcd13ifvqepg","pricing_plan_id":"cebpf4jnsgd1na2vs0mg"},{"bike_id":"b37f4b45-c680-4db6-a43e-03e2f9219017","system_id":"levelo_inurba_marseille","lat":43.29168,"lon":5.37153,"is_reserved":false,"is_disabled":false,"rental_uris":{"android":"levelo://app?vid=b37f4b45-c680-4db6-a43e-03e2f9219017","ios":"levelo://app?vid=b37f4b45-c680-4db6-a43e-03e2f9219017"},"vehicle_type_id":"4","last_reported":1752776158,"current_range_meters":16400,"station_id":"ce4bha92rcd13ifvqeh0","pricing_plan_id":"cebpf4jnsgd1na2vs0mg"},{"bike_id":"a876e12b-2135-4430-958c-c73771d2ab6b","system_id":"levelo_inurba_marseille","lat":43.29533,"lon":5.3854,"is_reserved":false,"is_disabled":false,"rental_uris":{"android":"levelo://app?vid=a876e12b-2135-4430-958c-c73771d2ab6b","ios":"levelo://app?vid=a876e12b-2135-4430-958c-c73771d2ab6b"},"vehicle_type_id":"4","last_reported":1752776158,"current_range_meters":16400,"station_id":"ce4bgih2rcd13ifvqba0","pricing_plan_id":"cebpf4jnsgd1na2vs0mg"},{"bike_id":"b9c220fa-ce21-46e5-9c5b-52d91725030b","system_id":"levelo_inurba_marseille","lat":43.2293,"lon":5.35361,"is_reserved":false,"is_disabled":false,"rental_uris":{"android":"levelo://app?vid=b9c220fa-ce21-46e5-9c5b-52d91725030b","ios":"levelo://app?vid=b9c220fa-ce21-46e5-9c5b-52d91725030b"},"vehicle_type_id":"4","last_reported":1752776158,"current_range_meters":16400,"station_id":"cpo3532slgdg3j2ikp40","pricing_plan_id":"cebpf4jnsgd1na2vs0mg"},{"bike_id":"524f857b-7abb-4798-bc14-275f121daee5","system_id":"levelo_inurba_marseille","lat":43.28381,"lon":5.34929,"is_reserved":false,"is_disabled":false,"rental_uris":{"android":"levelo://app?vid=524f857b-7abb-4798-bc14-275f121daee5","ios":"levelo://app?vid=524f857b-7abb-4798-bc14-275f121daee5"},"vehicle_type_id":"4","last_reported":1752776158,"current_range_meters":16400,"station_id":"","pricing_plan_id":"cebpf4jnsgd1na2vs0mg"},{"bike_id":"31695fe3-ba1a-451d-a7a2-e6e81aefdddc","system_id":"levelo_inurba_marseille","lat":43.28633,"lon":5.35085,"is_reserved":false,"is_disabled":true,"rental_uris":{"android":"levelo://app?vid=31695fe3-ba1a-451d-a7a2-e6e81aefdddc","ios":"levelo://app?vid=31695fe3-ba1a-451d-a7a2-e6e81aefdddc"},"vehicle_type_id":"4","last_reported":1752776158,"current_range_meters":16400,"station_id":"ce4bhch2rcd13ifvqeug","pricing_plan_id":"cebpf4jnsgd1na2vs0mg"},{"bike_id":"8117ddd1-cc5b-4750-a8c9-e67dd4d1cc78","system_id":"levelo_inurba_marseille","lat":43.28405,"lon":5.34964,"is_reserved":false,"is_disabled":false,"rental_uris":{"android":"levelo://app?vid=8117ddd1-cc5b-4750-a8c9-e67dd4d1cc78","ios":"levelo://app?vid=8117ddd1-cc5b-4750-a8c9-e67dd4d1cc78"},"vehicle_type_id":"4","last_reported":1752776158,"current_range_meters":16400,"station_id":"ce4bhbh2rcd13ifvqepg","pricing_plan_id":"cebpf4jnsgd1na2vs0mg"},{"bike_id":"d0573d96-ddb4-4622-bd15-49483cac3810","system_id":"levelo_inurba_marseille","lat":43.258633,"lon":5.399035,"is_reserved":false,"is_disabled":true,"rental_uris":{"android":"levelo://app?vid=d0573d96-ddb4-4622-bd15-49483cac3810","ios":"levelo://app?vid=d0573d96-ddb4-4622-bd15-49483cac3810"},"vehicle_type_id":"4","last_reported":1752776158,"current_range_meters":16400,"station_id":"ce4bhl92rcd13ifvqghg","pricing_plan_id":"cebpf4jnsgd1na2vs0mg"},{"bike_id":"c3341e4c-276d-48cf-9580-c3f766d86c01","system_id":"levelo_inurba_marseille","lat":43.28613,"lon":5.35107,"is_reserved":false,"is_disabled":false,"rental_uris":{"android":"levelo://app?vid=c3341e4c-276d-48cf-9580-c3f766d86c01","ios":"levelo://app?vid=c3341e4c-276d-48cf-9580-c3f766d86c01"},"vehicle_type_id":"4","last_reported":1752776158,"current_range_meters":16400,"station_id":"ce4bhch2rcd13ifvqeug","pricing_plan_id":"cebpf4jnsgd1na2vs0mg"},{"bike_id":"2f083989-f479-40a2-a6ec-80d4de7b8f65","system_id":"levelo_inurba_marseille","lat":43.28397,"lon":5.37513,"is_reserved":false,"is_disabled":false,"rental_uris":{"android":"levelo://app?vid=2f083989-f479-40a2-a6ec-80d4de7b8f65","ios":"levelo://app?vid=2f083989-f479-40a2-a6ec-80d4de7b8f65"},"vehicle_type_id":"4","last_reported":1752776158,"current_range_meters":16400,"station_id":"ce4bh412rcd13ifvqds0","pricing_plan_id":"cebpf4jnsgd1na2vs0mg"},{"bike_id":"e54582ed-ba92-4640-a97f-9e97144ce87f","system_id":"levelo_inurba_marseille","lat":43.32268,"lon":5.40653,"is_reserved":false,"is_disabled":false,"rental_uris":{"android":"levelo://app?vid=e54582ed-ba92-4640-a97f-9e97144ce87f","ios":"levelo://app?vid=e54582ed-ba92-4640-a97f-9e97144ce87f"},"vehicle_type_id":"4","last_reported":1752776158,"current_range_meters":16400,"station_id":"","pricing_plan_id":"cebpf4jnsgd1na2vs0mg"},{"bike_id":"f880ee96-c065-450a-a1a6-ccd8b757954c","system_id":"levelo_inurba_marseille","lat":43.28622,"lon":5.35097,"is_reserved":false,"is_disabled":false,"rental_uris":{"android":"levelo://app?vid=f880ee96-c065-450a-a1a6-ccd8b757954c","ios":"levelo://app?vid=f880ee96-c065-450a-a1a6-ccd8b757954c"},"vehicle_type_id":"4","last_reported":1752776158,"current_range_meters":16400,"station_id":"ce4bhch2rcd13ifvqeug","pricing_plan_id":"cebpf4jnsgd1na2vs0mg"},{"bike_id":"7a6aca03-37b0-40ef-9d9a-27893d501471","system_id":"levelo_inurba_marseille","lat":43.24978,"lon":5.38931,"is_reserved":false,"is_disabled":false,"rental_uris":{"android":"levelo://app?vid=7a6aca03-37b0-40ef-9d9a-27893d501471","ios":"levelo://app?vid=7a6aca03-37b0-40ef-9d9a-27893d501471"},"vehicle_type_id":"4","last_reported":1752776158,"current_range_meters":16400,"station_id":"ce4bhgp2rcd13ifvqfd0","pricing_plan_id":"cebpf4jnsgd1na2vs0mg"},{"bike_id":"316b8d98-9131-4487-9193-192ed07fff31","system_id":"levelo_inurba_marseille","lat":43.27385,"lon":5.36252,"is_reserved":false,"is_disabled":false,"rental_uris":{"android":"levelo://app?vid=316b8d98-9131-4487-9193-192ed07fff31","ios":"levelo://app?vid=316b8d98-9131-4487-9193-192ed07fff31"},"vehicle_type_id":"4","last_reported":1752776158,"current_range_meters":16400,"station_id":"ce4bhbh2rcd13ifvqeo0","pricing_plan_id":"cebpf4jnsgd1na2vs0mg"},{"bike_id":"6be86623-c65c-4a0d-b3a4-c58891bfa931","system_id":"levelo_inurba_marseille","lat":43.2251,"lon":5.34758,"is_reserved":false,"is_disabled":false,"rental_uris":{"android":"levelo://app?vid=6be86623-c65c-4a0d-b3a4-c58891bfa931","ios":"levelo://app?vid=6be86623-c65c-4a0d-b3a4-c58891bfa931"},"vehicle_type_id":"4","last_reported":1752776158,"current_range_meters":16800,"station_id":"st_cvj5dfep6f1abm77gieg","pricing_plan_id":"cebpf4jnsgd1na2vs0mg"},{"bike_id":"6df64788-ebb3-4d7e-a634-805992451435","system_id":"levelo_inurba_marseille","lat":43.29184,"lon":5.35803,"is_reserved":false,"is_disabled":false,"rental_uris":{"android":"levelo://app?vid=6df64788-ebb3-4d7e-a634-805992451435","ios":"levelo://app?vid=6df64788-ebb3-4d7e-a634-805992451435"},"vehicle_type_id":"4","last_reported":1752776158,"current_range_meters":16800,"station_id":"ce4bhb12rcd13ifvqel0","pricing_plan_id":"cebpf4jnsgd1na2vs0mg"},{"bike_id":"ddebbec6-0a12-47bf-bd86-7262a06806c6","system_id":"levelo_inurba_marseille","lat":43.29784,"lon":5.39333,"is_reserved":false,"is_disabled":false,"rental_uris":{"android":"levelo://app?vid=ddebbec6-0a12-47bf-bd86-7262a06806c6","ios":"levelo://app?vid=ddebbec6-0a12-47bf-bd86-7262a06806c6"},"vehicle_type_id":"4","last_reported":1752776158,"current_range_meters":16800,"station_id":"chh1huq6cuj3fo74tm60","pricing_plan_id":"cebpf4jnsgd1na2vs0mg"},{"bike_id":"084eace8-045f-4012-9455-c501cad7ce10","system_id":"levelo_inurba_marseille","lat":43.22502,"lon":5.3477,"is_reserved":false,"is_disabled":false,"rental_uris":{"android":"levelo://app?vid=084eace8-045f-4012-9455-c501cad7ce10","ios":"levelo://app?vid=084eace8-045f-4012-9455-c501cad7ce10"},"vehicle_type_id":"4","last_reported":1752776158,"current_range_meters":16800,"station_id":"st_cvj5dfep6f1abm77gieg","pricing_plan_id":"cebpf4jnsgd1na2vs0mg"},{"bike_id":"660d6db3-3d46-4bf1-a04a-db097cd3027d","system_id":"levelo_inurba_marseille","lat":43.28269,"lon":5.35052,"is_reserved":false,"is_disabled":false,"rental_uris":{"android":"levelo://app?vid=660d6db3-3d46-4bf1-a04a-db097cd3027d","ios":"levelo://app?vid=660d6db3-3d46-4bf1-a04a-db097cd3027d"},"vehicle_type_id":"4","last_reported":1752776158,"current_range_meters":16800,"station_id":"ce4bhbp2rcd13ifvqerg","pricing_plan_id":"cebpf4jnsgd1na2vs0mg"},{"bike_id":"de58234c-ab03-426d-a473-6a6b5652d2f7","system_id":"levelo_inurba_marseille","lat":43.282736,"lon":5.350748,"is_reserved":false,"is_disabled":false,"rental_uris":{"android":"levelo://app?vid=de58234c-ab03-426d-a473-6a6b5652d2f7","ios":"levelo://app?vid=de58234c-ab03-426d-a473-6a6b5652d2f7"},"vehicle_type_id":"4","last_reported":1752776158,"current_range_meters":16800,"station_id":"ce4bhbp2rcd13ifvqerg","pricing_plan_id":"cebpf4jnsgd1na2vs0mg"},{"bike_id":"2ded6291-a823-49b5-9bc5-1374dd62faea","system_id":"levelo_inurba_marseille","lat":43.2439,"lon":5.37053,"is_reserved":false,"is_disabled":false,"rental_uris":{"android":"levelo://app?vid=2ded6291-a823-49b5-9bc5-1374dd62faea","ios":"levelo://app?vid=2ded6291-a823-49b5-9bc5-1374dd62faea"},"vehicle_type_id":"4","last_reported":1752776158,"current_range_meters":16800,"station_id":"ce4bhhh2rcd13ifvqfk0","pricing_plan_id":"cebpf4jnsgd1na2vs0mg"},{"bike_id":"165786d1-14c9-45ef-a2fd-2d66678315a8","system_id":"levelo_inurba_marseille","lat":43.31715,"lon":5.43714,"is_reserved":false,"is_disabled":false,"rental_uris":{"android":"levelo://app?vid=165786d1-14c9-45ef-a2fd-2d66678315a8","ios":"levelo://app?vid=165786d1-14c9-45ef-a2fd-2d66678315a8"},"vehicle_type_id":"4","last_reported":1752776158,"current_range_meters":16800,"station_id":"ce4bhp92rcd13ifvqhcg","pricing_plan_id":"cebpf4jnsgd1na2vs0mg"},{"bike_id":"f1d5fdd3-7532-4bde-b61b-810fe5868e4d","system_id":"levelo_inurba_marseille","lat":43.31884,"lon":5.40734,"is_reserved":false,"is_disabled":false,"rental_uris":{"android":"levelo://app?vid=f1d5fdd3-7532-4bde-b61b-810fe5868e4d","ios":"levelo://app?vid=f1d5fdd3-7532-4bde-b61b-810fe5868e4d"},"vehicle_type_id":"4","last_reported":1752776158,"current_range_meters":16800,"station_id":"ce4bhq12rcd13ifvqhig","pricing_plan_id":"cebpf4jnsgd1na2vs0mg"},{"bike_id":"85d1407e-84e0-4e70-bf55-a59e4dfcd811","system_id":"levelo_inurba_marseille","lat":43.29375,"lon":5.37825,"is_reserved":false,"is_disabled":false,"rental_uris":{"android":"levelo://app?vid=85d1407e-84e0-4e70-bf55-a59e4dfcd811","ios":"levelo://app?vid=85d1407e-84e0-4e70-bf55-a59e4dfcd811"},"vehicle_type_id":"4","last_reported":1752776158,"current_range_meters":17200,"station_id":"ce4bgjh2rcd13ifvqbf0","pricing_plan_id":"cebpf4jnsgd1na2vs0mg"},{"bike_id":"c6db0f6a-96fe-4e1d-8ded-c2ef38c9bab4","system_id":"levelo_inurba_marseille","lat":43.304183,"lon":5.412838,"is_reserved":false,"is_disabled":true,"rental_uris":{"android":"levelo://app?vid=c6db0f6a-96fe-4e1d-8ded-c2ef38c9bab4","ios":"levelo://app?vid=c6db0f6a-96fe-4e1d-8ded-c2ef38c9bab4"},"vehicle_type_id":"4","last_reported":1752776158,"current_range_meters":17200,"station_id":"ce4bhop2rcd13ifvqh8g","pricing_plan_id":"cebpf4jnsgd1na2vs0mg"},{"bike_id":"ed822664-f978-4865-b4d3-8b7323601ddf","system_id":"levelo_inurba_marseille","lat":43.297964,"lon":5.393517,"is_reserved":false,"is_disabled":true,"rental_uris":{"android":"levelo://app?vid=ed822664-f978-4865-b4d3-8b7323601ddf","ios":"levelo://app?vid=ed822664-f978-4865-b4d3-8b7323601ddf"},"vehicle_type_id":"4","last_reported":1752776158,"current_range_meters":17200,"station_id":"chh1huq6cuj3fo74tm60","pricing_plan_id":"cebpf4jnsgd1na2vs0mg"},{"bike_id":"44f97c59-4004-4f7f-8399-8f2989f66173","system_id":"levelo_inurba_marseille","lat":43.304296,"lon":5.38892,"is_reserved":false,"is_disabled":false,"rental_uris":{"android":"levelo://app?vid=44f97c59-4004-4f7f-8399-8f2989f66173","ios":"levelo://app?vid=44f97c59-4004-4f7f-8399-8f2989f66173"},"vehicle_type_id":"4","last_reported":1752776158,"current_range_meters":17200,"station_id":"ce4bgk12rcd13ifvqbi0","pricing_plan_id":"cebpf4jnsgd1na2vs0mg"},{"bike_id":"5b4e5f0f-cac3-450a-9463-e6a77e2c277e","system_id":"levelo_inurba_marseille","lat":43.246423,"lon":5.388921,"is_reserved":false,"is_disabled":true,"rental_uris":{"android":"levelo://app?vid=5b4e5f0f-cac3-450a-9463-e6a77e2c277e","ios":"levelo://app?vid=5b4e5f0f-cac3-450a-9463-e6a77e2c277e"},"vehicle_type_id":"4","last_reported":1752776158,"current_range_meters":17200,"station_id":"ce4bhg12rcd13ifvqf60","pricing_plan_id":"cebpf4jnsgd1na2vs0mg"},{"bike_id":"be60c88c-1453-4626-be80-200258f79626","system_id":"levelo_inurba_marseille","lat":43.23192,"lon":5.35557,"is_reserved":false,"is_disabled":false,"rental_uris":{"android":"levelo://app?vid=be60c88c-1453-4626-be80-200258f79626","ios":"levelo://app?vid=be60c88c-1453-4626-be80-200258f79626"},"vehicle_type_id":"4","last_reported":1752776158,"current_range_meters":17200,"station_id":"ce4bhu92rcd13ifvqi70","pricing_plan_id":"cebpf4jnsgd1na2vs0mg"},{"bike_id":"9d38e2a9-98e1-464f-a668-26afc31015a4","system_id":"levelo_inurba_marseille","lat":43.29968,"lon":5.37143,"is_reserved":false,"is_disabled":false,"rental_uris":{"android":"levelo://app?vid=9d38e2a9-98e1-464f-a668-26afc31015a4","ios":"levelo://app?vid=9d38e2a9-98e1-464f-a668-26afc31015a4"},"vehicle_type_id":"4","last_reported":1752776158,"current_range_meters":17200,"station_id":"ce4bgr92rcd13ifvqc7g","pricing_plan_id":"cebpf4jnsgd1na2vs0mg"},{"bike_id":"1963165a-b7e1-443a-9bf2-bf2eb4cdbc30","system_id":"levelo_inurba_marseille","lat":43.29166,"lon":5.3715,"is_reserved":false,"is_disabled":false,"rental_uris":{"android":"levelo://app?vid=1963165a-b7e1-443a-9bf2-bf2eb4cdbc30","ios":"levelo://app?vid=1963165a-b7e1-443a-9bf2-bf2eb4cdbc30"},"vehicle_type_id":"4","last_reported":1752776158,"current_range_meters":17200,"station_id":"ce4bha92rcd13ifvqeh0","pricing_plan_id":"cebpf4jnsgd1na2vs0mg"},{"bike_id":"f99ff1e4-4111-475a-aa3e-cb902d081040","system_id":"levelo_inurba_marseille","lat":43.23198,"lon":5.35549,"is_reserved":false,"is_disabled":false,"rental_uris":{"android":"levelo://app?vid=f99ff1e4-4111-475a-aa3e-cb902d081040","ios":"levelo://app?vid=f99ff1e4-4111-475a-aa3e-cb902d081040"},"vehicle_type_id":"4","last_reported":1752776158,"current_range_meters":17600,"station_id":"ce4bhu92rcd13ifvqi70","pricing_plan_id":"cebpf4jnsgd1na2vs0mg"},{"bike_id":"af8e8423-c1f8-4d27-9f39-e1952ce554e9","system_id":"levelo_inurba_marseille","lat":43.2972,"lon":5.3788,"is_reserved":false,"is_disabled":false,"rental_uris":{"android":"levelo://app?vid=af8e8423-c1f8-4d27-9f39-e1952ce554e9","ios":"levelo://app?vid=af8e8423-c1f8-4d27-9f39-e1952ce554e9"},"vehicle_type_id":"4","last_reported":1752776158,"current_range_meters":17600,"station_id":"","pricing_plan_id":"cebpf4jnsgd1na2vs0mg"},{"bike_id":"715485f6-4125-4423-80fd-2024c0a54a34","system_id":"levelo_inurba_marseille","lat":43.282696,"lon":5.350684,"is_reserved":false,"is_disabled":false,"rental_uris":{"android":"levelo://app?vid=715485f6-4125-4423-80fd-2024c0a54a34","ios":"levelo://app?vid=715485f6-4125-4423-80fd-2024c0a54a34"},"vehicle_type_id":"4","last_reported":1752776158,"current_range_meters":17600,"station_id":"ce4bhbp2rcd13ifvqerg","pricing_plan_id":"cebpf4jnsgd1na2vs0mg"},