{"last_updated":1723216162,"ttl":30,"version":"2.2","data":{"bikes":[{"bike_id":"b1147c0f-d40e-4053-9468-bfb6ec293c17","system_id":"levelo_inurba_marseille","lat":43.312239,"lon":5.368562,"is_reserved":false,"is_disabled":false,"rental_uris":{"android":"levelo://app?vid=b1147c0f-d40e-4053-9468-bfb6ec293c17","ios":"levelo://app?vid=b1147c0f-d40e-4053-9468-bfb6ec293c17"},"vehicle_type_id":"4","last_reported":1723216162,"current_range_meters":10000,"station_id":"ce4bgl92rcd13ifvqbq0","pricing_plan_id":"cebpf4jnsgd1na2vs0mg"},{"bike_id":"8f547097-401e-4291-9e8c-d662091a5008","system_id":"levelo_inurba_marseille","lat":43.31234,"lon":5.36862,"is_reserved":false,"is_disabled":false,"rental_uris":{"android":"levelo://app?vid=8f547097-401e-4291-9e8c-d662091a5008","ios":"levelo://app?vid=8f547097-401e-4291-9e8c-d662091a5008"},"vehicle_type_id":"4","last_reported":1723216162,"current_range_meters":0,"station_id":"ce4bgl92rcd13ifvqbq0","pricing_plan_id":"cebpf4jnsgd1na2vs0mg"},{"bike_id":"a2cb419b-8bf2-46a9-8c73-b42173269ad8","system_id":"levelo_inurba_marseille","lat":43.312287,"lon":5.36868,"is_reserved":false,"is_disabled":false,"rental_uris":{"android":"levelo://app?vid=a2cb419b-8bf2-46a9-8c73-b42173269ad8","ios":"levelo://app?vid=a2cb419b-8bf2-46a9-8c73-b42173269ad8"},"vehicle_type_id":"4","last_reported":1723216162,"current_range_meters":400,"station_id":"ce4bgl92rcd13ifvqbq0","pricing_plan_id":"cebpf4jnsgd1na2vs0mg"},{"bike_id":"5963aac8-6e5e-4aa0-860c-00be3ba80071","system_id":"levelo_inurba_marseille","lat":43.309076,"lon":5.368465,"is_reserved":false,"is_disabled":false,"rental_uris":{"android":"levelo://app?vid=5963aac8-6e5e-4aa0-860c-00be3ba80071","ios":"levelo://app?vid=5963aac8-6e5e-4aa0-860c-00be3ba80071"},"vehicle_type_id":"4","last_reported":1723216162,"current_range_meters":800,"station_id":"ce4bgn92rcd13ifvqbvg","pricing_plan_id":"cebpf4jnsgd1na2vs0mg"},{"bike_id":"dceb7393-da0f-449c-abe1-ce72972c64b4","system_id":"levelo_inurba_marseille","lat":43.315686,"lon":5.372364,"is_reserved":false,"is_disabled":false,"rental_uris":{"android":"levelo://app?vid=dceb7393-da0f-449c-abe1-ce72972c64b4","ios":"levelo://app?vid=dceb7393-da0f-449c-abe1-ce72972c64b4"},"vehicle_type_id":"4","last_reported":1723216162,"current_range_meters":16800,"station_id":"","pricing_plan_id":"cebpf4jnsgd1na2vs0mg"},{"bike_id":"b9aff461-75e2-43f9-9d5b-b8f941589540","system_id":"levelo_inurba_marseille","lat":43.30537,"lon":5.367345,"is_reserved":false,"is_disabled":false,"rental_uris":{"android":"levelo://app?vid=b9aff461-75e2-43f9-9d5b-b8f941589540","ios":"levelo://app?vid=b9aff461-75e2-43f9-9d5b-b8f941589540"},"vehicle_type_id":"4","last_reported":1723216162,"current_range_meters":18000,"station_id":"ce4bgrp2rcd13ifvqc9g","pricing_plan_id":"cebpf4jnsgd1na2vs0mg"},{"bike_id":"b974b21b-e32b-426e-818f-86c0532ff8e2","system_id":"levelo_inurba_marseille","lat":43.30537,"lon":5.367345,"is_reserved":false,"is_disabled":false,"rental_uris":{"android":"levelo://app?vid=b974b21b-e32b-426e-818f-86c0532ff8e2","ios":"levelo://app?vid=b974b21b-e32b-426e-818f-86c0532ff8e2"},"vehicle_type_id":"4","last_reported":1723216162,"current_range_meters":10400,"station_id":"ce4bgrp2rcd13ifvqc9g","pricing_plan_id":"cebpf4jnsgd1na2vs0mg"},{"bike_id":"b730031b-140c-4289-af28-8e4c48428e3d","system_id":"levelo_inurba_marseille","lat":43.30537,"lon":5.367345,"is_reserved":false,"is_disabled":false,"rental_uris":{"android":"levelo://app?vid=b730031b-140c-4289-af28-8e4c48428e3d","ios":"levelo://app?vid=b730031b-140c-4289-af28-8e4c48428e3d"},"vehicle_type_id":"4","last_reported":1723216162,"current_range_meters":12400,"station_id":"ce4bgrp2rcd13ifvqc9g","pricing_plan_id":"cebpf4jnsgd1na2vs0mg"},{"bike_id":"1b84786d-b1cb-4bf1-b138-dd78691ef2f5","system_id":"levelo_inurba_marseille","lat":43.305368,"lon":5.367343,"is_reserved":false,"is_disabled":false,"rental_uris":{"android":"levelo://app?vid=1b84786d-b1cb-4bf1-b138-dd78691ef2f5","ios":"levelo://app?vid=1b84786d-b1cb-4bf1-b138-dd78691ef2f5"},"vehicle_type_id":"4","last_reported":1723216162,"current_range_meters":18800,"station_id":"ce4bgrp2rcd13ifvqc9g","pricing_plan_id":"cebpf4jnsgd1na2vs0mg"},{"bike_id":"e2a7c1a3-b3b4-421f-b400-8299089e7ca4","system_id":"levelo_inurba_marseille","lat":43.30537,"lon":5.367345,"is_reserved":false,"is_disabled":false,"rental_uris":{"android":"levelo://app?vid=e2a7c1a3-b3b4-421f-b400-8299089e7ca4","ios":"levelo://app?vid=e2a7c1a3-b3b4-421f-b400-8299089e7ca4"},"vehicle_type_id":"4","last_reported":1723216162,"current_range_meters":19200,"station_id":"ce4bgrp2rcd13ifvqc9g","pricing_plan_id":"cebpf4jnsgd1na2vs0mg"},{"bike_id":"56e113e0-afa6-4f16-b052-d168b34d5acd","system_id":"levelo_inurba_marseille","lat":43.30537,"lon":5.367345,"is_reserved":false,"is_disabled":false,"rental_uris":{"android":"levelo://app?vid=56e113e0-afa6-4f16-b052-d168b34d5acd","ios":"levelo://app?vid=56e113e0-afa6-4f16-b052-d168b34d5acd"},"vehicle_type_id":"4","last_reported":1723216162,"current_range_meters":31200,"station_id":"ce4bgrp2rcd13ifvqc9g","pricing_plan_id":"cebpf4jnsgd1na2vs0mg"},{"bike_id":"b3b05dcc-6f6d-4f76-a616-5f10ef05f3e0","system_id":"levelo_inurba_marseille","lat":43.30537,"lon":5.367345,"is_reserved":false,"is_disabled":false,"rental_uris":{"android":"levelo://app?vid=b3b05dcc-6f6d-4f76-a616-5f10ef05f3e0","ios":"levelo://app?vid=b3b05dcc-6f6d-4f76-a616-5f10ef05f3e0"},"vehicle_type_id":"4","last_reported":1723216162,"current_range_meters":4400,"station_id":"ce4bgrp2rcd13ifvqc9g","pricing_plan_id":"cebpf4jnsgd1na2vs0mg"},{"bike_id":"d78f949d-bf88-4c23-bd8e-7084050bc2d7","system_id":"levelo_inurba_marseille","lat":43.30537,"lon":5.367345,"is_reserved":false,"is_disabled":false,"rental_uris":{"android":"levelo://app?vid=d78f949d-bf88-4c23-bd8e-7084050bc2d7","ios":"levelo://app?vid=d78f949d-bf88-4c23-bd8e-7084050bc2d7"},"vehicle_type_id":"4","last_reported":1723216162,"current_range_meters":22000,"station_id":"ce4bgrp2rcd13ifvqc9g","pricing_plan_id":"cebpf4jnsgd1na2vs0mg"},{"bike_id":"3e3a4665-5f94-4b1e-947d-51bea5843a51","system_id":"levelo_inurba_marseille","lat":43.305368,"lon":5.367343,"is_reserved":false,"is_disabled":false,"rental_uris":{"android":"levelo://app?vid=3e3a4665-5f94-4b1e-947d-51bea5843a51","ios":"levelo://app?vid=3e3a4665-5f94-4b1e-947d-51bea5843a51"},"vehicle_type_id":"4","last_reported":1723216162,"current_range_meters":10400,"station_id":"ce4bgrp2rcd13ifvqc9g","pricing_plan_id":"cebpf4jnsgd1na2vs0mg"},{"bike_id":"f0247445-b29d-4aac-a2df-5baf209c602c","system_id":"levelo_inurba_marseille","lat":43.305368,"lon":5.367343,"is_reserved":false,"is_disabled":false,"rental_uris":{"android":"levelo://app?vid=f0247445-b29d-4aac-a2df-5baf209c602c","ios":"levelo://app?vid=f0247445-b29d-4aac-a2df-5baf209c602c"},"vehicle_type_id":"4","last_reported":1723216162,"current_range_meters":27200,"station_id":"ce4bgrp2rcd13ifvqc9g","pricing_plan_id":"cebpf4jnsgd1na2vs0mg"},{"bike_id":"e7afa7ac-6d7e-4dd2-8e7a-15e84e68a0a4","system_id":"levelo_inurba_marseille","lat":43.305368,"lon":5.367343,"is_reserved":false,"is_disabled":false,"rental_uris":{"android":"levelo://app?vid=e7afa7ac-6d7e-4dd2-8e7a-15e84e68a0a4","ios":"levelo://app?vid=e7afa7ac-6d7e-4dd2-8e7a-15e84e68a0a4"},"vehicle_type_id":"4","last_reported":1723216162,"current_range_meters":31200,"station_id":"ce4bgrp2rcd13ifvqc9g","pricing_plan_id":"cebpf4jnsgd1na2vs0mg"},{"bike_id":"5fffa730-f16a-47fd-bab1-496f19d996a2","system_id":"levelo_inurba_marseille","lat":43.30642,"lon":5.37258,"is_reserved":false,"is_disabled":false,"rental_uris":{"android":"levelo://app?vid=5fffa730-f16a-47fd-bab1-496f19d996a2","ios":"levelo://app?vid=5fffa730-f16a-47fd-bab1-496f19d996a2"},"vehicle_type_id":"4","last_reported":1723216162,"current_range_meters":7600,"station_id":"","pricing_plan_id":"cebpf4jnsgd1na2vs0mg"},{"bike_id":"a286b923-68f9-4072-b357-1ea396346d7e","system_id":"levelo_inurba_marseille","lat":43.305989,"lon":5.37225,"is_reserved":false,"is_disabled":false,"rental_uris":{"android":"levelo://app?vid=a286b923-68f9-4072-b357-1ea396346d7e","ios":"levelo://app?vid=a286b923-68f9-4072-b357-1ea396346d7e"},"vehicle_type_id":"4","last_reported":1723216162,"current_range_meters":0,"station_id":"ce4bgqh2rcd13ifvqc4g","pricing_plan_id":"cebpf4jnsgd1na2vs0mg"},{"bike_id":"78f1d0b8-dedd-4eca-ad54-224faff6e399","system_id":"levelo_inurba_marseille","lat":43.311125,"lon":5.377624,"is_reserved":false,"is_disabled":false,"rental_uris":{"android":"levelo://app?vid=78f1d0b8-dedd-4eca-ad54-224faff6e399","ios":"levelo://app?vid=78f1d0b8-dedd-4eca-ad54-224faff6e399"},"vehicle_type_id":"4","last_reported":1723216162,"current_range_meters":29600,"station_id":"ce4bgt92rcd13ifvqcg0","pricing_plan_id":"cebpf4jnsgd1na2vs0mg"},{"bike_id":"f71e3021-bf75-411b-b348-6b60e715bdb6","system_id":"levelo_inurba_marseille","lat":43.307945,"lon":5.376487,"is_reserved":false,"is_disabled":false,"rental_uris":{"android":"levelo://app?vid=f71e3021-bf75-411b-b348-6b60e715bdb6","ios":"levelo://app?vid=f71e3021-bf75-411b-b348-6b60e715bdb6"},"vehicle_type_id":"4","last_reported":1723216162,"current_range_meters":18000,"station_id":"ce4bgv92rcd13ifvqcq0","pricing_plan_id":"cebpf4jnsgd1na2vs0mg"},{"bike_id":"7dad83e8-7e10-4dd7-a861-06068f81f602","system_id":"levelo_inurba_marseille","lat":43.31534,"lon":5.38031,"is_reserved":false,"is_disabled":false,"rental_uris":{"android":"levelo://app?vid=7dad83e8-7e10-4dd7-a861-06068f81f602","ios":"levelo://app?vid=7dad83e8-7e10-4dd7-a861-06068f81f602"},"vehicle_type_id":"4","last_reported":1723216162,"current_range_meters":4400,"station_id":"ce4bhsp2rcd13ifvqi50","pricing_plan_id":"cebpf4jnsgd1na2vs0mg"},{"bike_id":"09dd09d7-2641-48cc-babf-bff6f9018875","system_id":"levelo_inurba_marseille","lat":43.308033,"lon":5.37958,"is_reserved":false,"is_disabled":false,"rental_uris":{"android":"levelo://app?vid=09dd09d7-2641-48cc-babf-bff6f9018875","ios":"levelo://app?vid=09dd09d7-2641-48cc-babf-bff6f9018875"},"vehicle_type_id":"4","last_reported":1723216162,"current_range_meters":0,"station_id":"","pricing_plan_id":"cebpf4jnsgd1na2vs0mg"},{"bike_id":"192bc778-be1f-402d-b1df-16d7172e5519","system_id":"levelo_inurba_marseille","lat":43.31359,"lon":5.38283,"is_reserved":false,"is_disabled":false,"rental_uris":{"android":"levelo://app?vid=192bc778-be1f-402d-b1df-16d7172e5519","ios":"levelo://app?vid=192bc778-be1f-402d-b1df-16d7172e5519"},"vehicle_type_id":"4","last_reported":1723216162,"current_range_meters":4800,"station_id":"","pricing_plan_id":"cebpf4jnsgd1na2vs0mg"},{"bike_id":"9a1e11fc-e4a3-4500-ac99-d947fa8aaceb","system_id":"levelo_inurba_marseille","lat":43.304606,"lon":5.379026,"is_reserved":false,"is_disabled":false,"rental_uris":{"android":"levelo://app?vid=9a1e11fc-e4a3-4500-ac99-d947fa8aaceb","ios":"levelo://app?vid=9a1e11fc-e4a3-4500-ac99-d947fa8aaceb"},"vehicle_type_id":"4","last_reported":1723216162,"current_range_meters":10800,"station_id":"ce4bgup2rcd13ifvqcn0","pricing_plan_id":"cebpf4jnsgd1na2vs0mg"},{"bike_id":"988f0790-fcfd-4442-94af-b90b6925d947","system_id":"levelo_inurba_marseille","lat":43.304606,"lon":5.379026,"is_reserved":false,"is_disabled":false,"rental_uris":{"android":"levelo://app?vid=988f0790-fcfd-4442-94af-b90b6925d947","ios":"levelo://app?vid=988f0790-fcfd-4442-94af-b90b6925d947"},"vehicle_type_id":"4","last_reported":1723216162,"current_range_meters":24000,"station_id":"ce4bgup2rcd13ifvqcn0","pricing_plan_id":"cebpf4jnsgd1na2vs0mg"},{"bike_id":"dbefdf45-4b73-4528-af84-3e87f1839d36","system_id":"levelo_inurba_marseille","lat":43.304606,"lon":5.379026,"is_reserved":false,"is_disabled":false,"rental_uris":{"android":"levelo://app?vid=dbefdf45-4b73-4528-af84-3e87f1839d36","ios":"levelo://app?vid=dbefdf45-4b73-4528-af84-3e87f1839d36"},"vehicle_type_id":"4","last_reported":1723216162,"current_range_meters":0,"station_id":"ce4bgup2rcd13ifvqcn0","pricing_plan_id":"cebpf4jnsgd1na2vs0mg"},{"bike_id":"f4082f49-e56d-40f8-aea3-3f17dcfb699b","system_id":"levelo_inurba_marseille","lat":43.324771,"lon":5.36557,"is_reserved":false,"is_disabled":false,"rental_uris":{"android":"levelo://app?vid=f4082f49-e56d-40f8-aea3-3f17dcfb699b","ios":"levelo://app?vid=f4082f49-e56d-40f8-aea3-3f17dcfb699b"},"vehicle_type_id":"4","last_reported":1723216162,"current_range_meters":0,"station_id":"ce4bhs12rcd13ifvqhvg","pricing_plan_id":"cebpf4jnsgd1na2vs0mg"},{"bike_id":"4398cd50-4799-43a9-9e4e-38e93a2dde9c","system_id":"levelo_inurba_marseille","lat":43.324771,"lon":5.36557,"is_reserved":false,"is_disabled":false,"rental_uris":{"android":"levelo://app?vid=4398cd50-4799-43a9-9e4e-38e93a2dde9c","ios":"levelo://app?vid=4398cd50-4799-43a9-9e4e-38e93a2dde9c"},"vehicle_type_id":"4","last_reported":1723216162,"current_range_meters":21200,"station_id":"ce4bhs12rcd13ifvqhvg","pricing_plan_id":"cebpf4jnsgd1na2vs0mg"},{"bike_id":"4998c9f2-8f7f-4f45-9592-c9fadc3567f9","system_id":"levelo_inurba_marseille","lat":43.324771,"lon":5.36557,"is_reserved":false,"is_disabled":false,"rental_uris":{"android":"levelo://app?vid=4998c9f2-8f7f-4f45-9592-c9fadc3567f9","ios":"levelo://app?vid=4998c9f2-8f7f-4f45-9592-c9fadc3567f9"},"vehicle_type_id":"4","last_reported":1723216162,"current_range_meters":30400,"station_id":"ce4bhs12rcd13ifvqhvg","pricing_plan_id":"cebpf4jnsgd1na2vs0mg"},{"bike_id":"6b73d1d2-6665-4b92-9536-836aed8feb40","system_id":"levelo_inurba_marseille","lat":43.324853,"lon":5.36566,"is_reserved":false,"is_disabled":false,"rental_uris":{"android":"levelo://app?vid=6b73d1d2-6665-4b92-9536-836aed8feb40","ios":"levelo://app?vid=6b73d1d2-6665-4b92-9536-836aed8feb40"},"vehicle_type_id":"4","last_reported":1723216162,"current_range_meters":0,"station_id":"ce4bhs12rcd13ifvqhvg","pricing_plan_id":"cebpf4jnsgd1na2vs0mg"},{"bike_id":"07963003-8308-425d-8f29-3d291d99701b","system_id":"levelo_inurba_marseille","lat":43.324771,"lon":5.36557,"is_reserved":false,"is_disabled":false,"rental_uris":{"android":"levelo://app?vid=07963003-8308-425d-8f29-3d291d99701b","ios":"levelo://app?vid=07963003-8308-425d-8f29-3d291d99701b"},"vehicle_type_id":"4","last_reported":1723216162,"current_range_meters":31200,"station_id":"ce4bhs12rcd13ifvqhvg","pricing_plan_id":"cebpf4jnsgd1na2vs0mg"},{"bike_id":"c13e9683-2309-4c44-8900-5937a9fdb9f5","system_id":"levelo_inurba_marseille","lat":43.324771,"lon":5.36557,"is_reserved":false,"is_disabled":false,"rental_uris":{"android":"levelo://app?vid=c13e9683-2309-4c44-8900-5937a9fdb9f5","ios":"levelo://app?vid=c13e9683-2309-4c44-8900-5937a9fdb9f5"},"vehicle_type_id":"4","last_reported":1723216162,"current_range_meters":12800,"station_id":"ce4bhs12rcd13ifvqhvg","pricing_plan_id":"cebpf4jnsgd1na2vs0mg"},{"bike_id":"f1485742-ef43-47d0-8fd7-546bcb11552d","system_id":"levelo_inurba_marseille","lat":43.324771,"lon":5.36557,"is_reserved":false,"is_disabled":false,"rental_uris":{"android":"levelo://app?vid=f1485742-ef43-47d0-8fd7-546bcb11552d","ios":"levelo://app?vid=f1485742-ef43-47d0-8fd7-546bcb11552d"},"vehicle_type_id":"4","last_reported":1723216162,"current_range_meters":31200,"station_id":"ce4bhs12rcd13ifvqhvg","pricing_plan_id":"cebpf4jnsgd1na2vs0mg"},{"bike_id":"a31dc16c-e316-4507-9dd4-d6be96eed54c","system_id":"levelo_inurba_marseille","lat":43.324771,"lon":5.36557,"is_reserved":false,"is_disabled":false,"rental_uris":{"android":"levelo://app?vid=a31dc16c-e316-4507-9dd4-d6be96eed54c","ios":"levelo://app?vid=a31dc16c-e316-4507-9dd4-d6be96eed54c"},"vehicle_type_id":"4","last_reported":1723216162,"current_range_meters":30800,"station_id":"ce4bhs12rcd13ifvqhvg","pricing_plan_id":"cebpf4jnsgd1na2vs0mg"},{"bike_id":"f501d54c-65d4-4051-835c-8744a5243888","system_id":"levelo_inurba_marseille","lat":43.324771,"lon":5.36557,"is_reserved":false,"is_disabled":false,"rental_uris":{"android":"levelo://app?vid=f501d54c-65d4-4051-835c-8744a5243888","ios":"levelo://app?vid=f501d54c-65d4-4051-835c-8744a5243888"},"vehicle_type_id":"4","last_reported":1723216162,"current_range_meters":15600,"station_id":"ce4bhs12rcd13ifvqhvg","pricing_plan_id":"cebpf4jnsgd1na2vs0mg"},{"bike_id":"5a139292-9942-45fd-87d7-b9a2d52ff7ac","system_id":"levelo_inurba_marseille","lat":43.31078,"lon":5.38366,"is_reserved":false,"is_disabled":false,"rental_uris":{"android":"levelo://app?vid=5a139292-9942-45fd-87d7-b9a2d52ff7ac","ios":"levelo://app?vid=5a139292-9942-45fd-87d7-b9a2d52ff7ac"},"vehicle_type_id":"4","last_reported":1723216162,"current_range_meters":13600,"station_id":"ce4bgv92rcd13ifvqcr0","pricing_plan_id":"cebpf4jnsgd1na2vs0mg"},{"bike_id":"f9d7c8ee-1f23-4fe3-9d71-663e6867eb6c","system_id":"levelo_inurba_marseille","lat":43.30143,"lon":5.37413,"is_reserved":false,"is_disabled":false,"rental_uris":{"android":"levelo://app?vid=f9d7c8ee-1f23-4fe3-9d71-663e6867eb6c","ios":"levelo://app?vid=f9d7c8ee-1f23-4fe3-9d71-663e6867eb6c"},"vehicle_type_id":"4","last_reported":1723216162,"current_range_meters":18800,"station_id":"ce4bgs92rcd13ifvqcc0","pricing_plan_id":"cebpf4jnsgd1na2vs0mg"},{"bike_id":"4731948c-1cc7-498d-877f-5408f71bb3bd","system_id":"levelo_inurba_marseille","lat":43.313545,"lon":5.384963,"is_reserved":false,"is_disabled":false,"rental_uris":{"android":"levelo://app?vid=4731948c-1cc7-498d-877f-5408f71bb3bd","ios":"levelo://app?vid=4731948c-1cc7-498d-877f-5408f71bb3bd"},"vehicle_type_id":"4","last_reported":1723216162,"current_range_meters":25200,"station_id":"ce4bgt92rcd13ifvqcf0","pricing_plan_id":"cebpf4jnsgd1na2vs0mg"},{"bike_id":"7701933e-e338-4b22-8451-c73dd61153d8","system_id":"levelo_inurba_marseille","lat":43.313571,"lon":5.384829,"is_reserved":false,"is_disabled":false,"rental_uris":{"android":"levelo://app?vid=7701933e-e338-4b22-8451-c73dd61153d8","ios":"levelo://app?vid=7701933e-e338-4b22-8451-c73dd61153d8"},"vehicle_type_id":"4","last_reported":1723216162,"current_range_meters":20800,"station_id":"ce4bgt92rcd13ifvqcf0","pricing_plan_id":"cebpf4jnsgd1na2vs0mg"},{"bike_id":"2179ce55-3912-4fca-935c-a3632a2b3b7d","system_id":"levelo_inurba_marseille","lat":43.29938,"lon":5.36556,"is_reserved":false,"is_disabled":false,"rental_uris":{"android":"levelo://app?vid=2179ce55-3912-4fca-935c-a3632a2b3b7d","ios":"levelo://app?vid=2179ce55-3912-4fca-935c-a3632a2b3b7d"},"vehicle_type_id":"4","last_reported":1723216162,"current_range_meters":20000,"station_id":"ce4bgm92rcd13ifvqbr0","pricing_plan_id":"cebpf4jnsgd1na2vs0mg"},{"bike_id":"1760714d-5e7d-4bec-a140-14cce09da3c2","system_id":"levelo_inurba_marseille","lat":43.297774,"lon":5.370875,"is_reserved":false,"is_disabled":false,"rental_uris":{"android":"levelo://app?vid=1760714d-5e7d-4bec-a140-14cce09da3c2","ios":"levelo://app?vid=1760714d-5e7d-4bec-a140-14cce09da3c2"},"vehicle_type_id":"4","last_reported":1723216162,"current_range_meters":13600,"station_id":"ce4bgop2rcd13ifvqc1g","pricing_plan_id":"cebpf4jnsgd1na2vs0mg"},{"bike_id":"72bf4da8-a049-4f39-bd83-b02908be1352","system_id":"levelo_inurba_marseille","lat":43.297794,"lon":5.370888,"is_reserved":false,"is_disabled":false,"rental_uris":{"android":"levelo://app?vid=72bf4da8-a049-4f39-bd83-b02908be1352","ios":"levelo://app?vid=72bf4da8-a049-4f39-bd83-b02908be1352"},"vehicle_type_id":"4","last_reported":1723216162,"current_range_meters":16400,"station_id":"ce4bgop2rcd13ifvqc1g","pricing_plan_id":"cebpf4jnsgd1na2vs0mg"},{"bike_id":"216240ef-238f-48ba-bd26-5d1c9cf540df","system_id":"levelo_inurba_marseille","lat":43.31456,"lon":5.38784,"is_reserved":false,"is_disabled":false,"rental_uris":{"android":"levelo://app?vid=216240ef-238f-48ba-bd26-5d1c9cf540df","ios":"levelo://app?vid=216240ef-238f-48ba-bd26-5d1c9cf540df"},"vehicle_type_id":"4","last_reported":1723216162,"current_range_meters":4000,"station_id":"","pricing_plan_id":"cebpf4jnsgd1na2vs0mg"},{"bike_id":"a1d03141-8bda-47f6-98de-37a6d4177b07","system_id":"levelo_inurba_marseille","lat":43.297163,"lon":5.365866,"is_reserved":false,"is_disabled":false,"rental_uris":{"android":"levelo://app?vid=a1d03141-8bda-47f6-98de-37a6d4177b07","ios":"levelo://app?vid=a1d03141-8bda-47f6-98de-37a6d4177b07"},"vehicle_type_id":"4","last_reported":1723216162,"current_range_meters":13200,"station_id":"ce4bgn12rcd13ifvqbt0","pricing_plan_id":"cebpf4jnsgd1na2vs0mg"},{"bike_id":"d5e91ae9-60c6-4c90-9d83-1bef0eeebb27","system_id":"levelo_inurba_marseille","lat":43.29573,"lon":5.367355,"is_reserved":false,"is_disabled":false,"rental_uris":{"android":"levelo://app?vid=d5e91ae9-60c6-4c90-9d83-1bef0eeebb27","ios":"levelo://app?vid=d5e91ae9-60c6-4c90-9d83-1bef0eeebb27"},"vehicle_type_id":"4","last_reported":1723216162,"current_range_meters":0,"station_id":"ce4bgph2rcd13ifvqc2g","pricing_plan_id":"cebpf4jnsgd1na2vs0mg"},{"bike_id":"f4f049d1-4647-4ea8-b198-0c10eea6fb8b","system_id":"levelo_inurba_marseille","lat":43.29573,"lon":5.367355,"is_reserved":false,"is_disabled":false,"rental_uris":{"android":"levelo://app?vid=f4f049d1-4647-4ea8-b198-0c10eea6fb8b","ios":"levelo://app?vid=f4f049d1-4647-4ea8-b198-0c10eea6fb8b"},"vehicle_type_id":"4","last_reported":1723216162,"current_range_meters":15200,"station_id":"ce4bgph2rcd13ifvqc2g","pricing_plan_id":"cebpf4jnsgd1na2vs0mg"},{"bike_id":"1d82fd6d-596b-47bd-85bd-c5f51504e919","system_id":"levelo_inurba_marseille","lat":43.29573,"lon":5.367355,"is_reserved":false,"is_disabled":false,"rental_uris":{"android":"levelo://app?vid=1d82fd6d-596b-47bd-85bd-c5f51504e919","ios":"levelo://app?vid=1d82fd6d-596b-47bd-85bd-c5f51504e919"},"vehicle_type_id":"4","last_reported":1723216162,"current_range_meters":0,"station_id":"ce4bgph2rcd13ifvqc2g","pricing_plan_id":"cebpf4jnsgd1na2vs0mg"},{"bike_id":"375e1119-2612-45c1-a486-1dc9d98811ff","system_id":"levelo_inurba_marseille","lat":43.317557,"lon":5.390173,"is_reserved":false,"is_disabled":false,"rental_uris":{"android":"levelo://app?vid=375e1119-2612-45c1-a486-1dc9d98811ff","ios":"levelo://app?vid=375e1119-2612-45c1-a486-1dc9d98811ff"},"vehicle_type_id":"4","last_reported":1723216162,"current_range_meters":31200,"station_id":"ce4bhqp2rcd13ifvqhng","pricing_plan_id":"cebpf4jnsgd1na2vs0mg"},{"bike_id":"b3f28512-77a9-403a-8a9b-e61222cdc86d","system_id":"levelo_inurba_marseille","lat":43.317557,"lon":5.390173,"is_reserved":false,"is_disabled":false,"rental_uris":{"android":"levelo://app?vid=b3f28512-77a9-403a-8a9b-e61222cdc86d","ios":"levelo://app?vid=b3f28512-77a9-403a-8a9b-e61222cdc86d"},"vehicle_type_id":"4","last_reported":1723216162,"current_range_meters":23600,"station_id":"ce4bhqp2rcd13ifvqhng","pricing_plan_id":"cebpf4jnsgd1na2vs0mg"},{"bike_id":"facbb967-431c-40b2-a356-60f1f8ce3386","system_id":"levelo_inurba_marseille","lat":43.31756,"lon":5.39016,"is_reserved":false,"is_disabled":false,"rental_uris":{"android":"levelo://app?vid=facbb967-431c-40b2-a356-60f1f8ce3386","ios":"levelo://app?vid=facbb967-431c-40b2-a356-60f1f8ce3386"},"vehicle_type_id":"4","last_reported":1723216162,"current_range_meters":9200,"station_id":"ce4bhqp2rcd13ifvqhng","pricing_plan_id":"cebpf4jnsgd1na2vs0mg"},{"bike_id":"f5cff905-c550-4718-b13c-e1655a37ed11","system_id":"levelo_inurba_marseille","lat":43.31756,"lon":5.39023,"is_reserved":false,"is_disabled":false,"rental_uris":{"android":"levelo://app?vid=f5cff905-c550-4718-b13c-e1655a37ed11","ios":"levelo://app?vid=f5cff905-c550-4718-b13c-e1655a37ed11"},"vehicle_type_id":"4","last_reported":1723216162,"current_range_meters":2800,"station_id":"ce4bhqp2rcd13ifvqhng","pricing_plan_id":"cebpf4jnsgd1na2vs0mg"},{"bike_id":"514e9fba-ab2e-4e2c-9c62-6069d3673fea","system_id":"levelo_inurba_marseille","lat":43.32256,"lon":5.38745,"is_reserved":false,"is_disabled":false,"rental_uris":{"android":"levelo://app?vid=514e9fba-ab2e-4e2c-9c62-6069d3673fea","ios":"levelo://app?vid=514e9fba-ab2e-4e2c-9c62-6069d3673fea"},"vehicle_type_id":"4","last_reported":1723216162,"current_range_meters":20000,"station_id":"","pricing_plan_id":"cebpf4jnsgd1na2vs0mg"},{"bike_id":"e5a14bde-b495-42f7-af74-651604417524","system_id":"levelo_inurba_marseille","lat":43.298037,"lon":5.381066,"is_reserved":false,"is_disabled":false,"rental_uris":{"android":"levelo://app?vid=e5a14bde-b495-42f7-af74-651604417524","ios":"levelo://app?vid=e5a14bde-b495-42f7-af74-651604417524"},"vehicle_type_id":"4","last_reported":1723216162,"current_range_meters":29600,"station_id":"ce4bgip2rcd13ifvqbb0","pricing_plan_id":"cebpf4jnsgd1na2vs0mg"},{"bike_id":"81a29aa3-8212-4603-97c4-cbab61f996ae","system_id":"levelo_inurba_marseille","lat":43.29585,"lon":5.37527,"is_reserved":false,"is_disabled":false,"rental_uris":{"android":"levelo://app?vid=81a29aa3-8212-4603-97c4-cbab61f996ae","ios":"levelo://app?vid=81a29aa3-8212-4603-97c4-cbab61f996ae"},"vehicle_type_id":"4","last_reported":1723216162,"current_range_meters":7200,"station_id":"ce4bgh92rcd13ifvqb50","pricing_plan_id":"cebpf4jnsgd1na2vs0mg"},{"bike_id":"6912ff9f-eced-4a45-be96-8c853522af6a","system_id":"levelo_inurba_marseille","lat":43.2958,"lon":5.37521,"is_reserved":false,"is_disabled":false,"rental_uris":{"android":"levelo://app?vid=6912ff9f-eced-4a45-be96-8c853522af6a","ios":"levelo://app?vid=6912ff9f-eced-4a45-be96-8c853522af6a"},"vehicle_type_id":"4","last_reported":1723216162,"current_range_meters":12800,"station_id":"ce4bgh92rcd13ifvqb50","pricing_plan_id":"cebpf4jnsgd1na2vs0mg"},{"bike_id":"03bfb833-3a67-46a8-aa8e-7906e89f1d3e","system_id":"levelo_inurba_marseille","lat":43.298037,"lon":5.381066,"is_reserved":false,"is_disabled":false,"rental_uris":{"android":"levelo://app?vid=03bfb833-3a67-46a8-aa8e-7906e89f1d3e","ios":"levelo://app?vid=03bfb833-3a67-46a8-aa8e-7906e89f1d3e"},"vehicle_type_id":"4","last_reported":1723216162,"current_range_meters":0,"station_id":"ce4bgip2rcd13ifvqbb0","pricing_plan_id":"cebpf4jnsgd1na2vs0mg"},{"bike_id":"19b23060-850e-4bb7-9b7a-184a5932ab86","system_id":"levelo_inurba_marseille","lat":43.295748,"lon":5.37522,"is_reserved":false,"is_disabled":false,"rental_uris":{"android":"levelo://app?vid=19b23060-850e-4bb7-9b7a-184a5932ab86","ios":"levelo://app?vid=19b23060-850e-4bb7-9b7a-184a5932ab86"},"vehicle_type_id":"4","last_reported":1723216162,"current_range_meters":11200,"station_id":"ce4bgh92rcd13ifvqb50","pricing_plan_id":"cebpf4jnsgd1na2vs0mg"},{"bike_id":"ef771259-5477-47e0-86d5-b693915c6c36","system_id":"levelo_inurba_marseille","lat":43.296277,"lon":5.377108,"is_reserved":false,"is_disabled":false,"rental_uris":{"android":"levelo://app?vid=ef771259-5477-47e0-86d5-b693915c6c36","ios":"levelo://app?vid=ef771259-5477-47e0-86d5-b693915c6c36"},"vehicle_type_id":"4","last_reported":1723216162,"current_range_meters":0,"station_id":"ce4bgi92rcd13ifvqb90","pricing_plan_id":"cebpf4jnsgd1na2vs0mg"},{"bike_id":"3e6c81ce-b151-42e5-adb0-b7dcb72f38c9","system_id":"levelo_inurba_marseille","lat":43.296277,"lon":5.377108,"is_reserved":false,"is_disabled":false,"rental_uris":{"android":"levelo://app?vid=3e6c81ce-b151-42e5-adb0-b7dcb72f38c9","ios":"levelo://app?vid=3e6c81ce-b151-42e5-adb0-b7dcb72f38c9"},"vehicle_type_id":"4","last_reported":1723216162,"current_range_meters":0,"station_id":"ce4bgi92rcd13ifvqb90","pricing_plan_id":"cebpf4jnsgd1na2vs0mg"},{"bike_id":"e6da3213-a0c1-42be-a655-9ee3d2a517e9","system_id":"levelo_inurba_marseille","lat":43.295279,"lon":5.375048,"is_reserved":false,"is_disabled":false,"rental_uris":{"android":"levelo://app?vid=e6da3213-a0c1-42be-a655-9ee3d2a517e9","ios":"levelo://app?vid=e6da3213-a0c1-42be-a655-9ee3d2a517e9"},"vehicle_type_id":"4","last_reported":1723216162,"current_range_meters":21600,"station_id":"ce4bgkp2rcd13ifvqbmg","pricing_plan_id":"cebpf4jnsgd1na2vs0mg"},{"bike_id":"0480e4ac-ac6c-46c5-bb52-2ab043c1a486","system_id":"levelo_inurba_marseille","lat":43.299724,"lon":5.384848,"is_reserved":false,"is_disabled":false,"rental_uris":{"android":"levelo://app?vid=0480e4ac-ac6c-46c5-bb52-2ab043c1a486","ios":"levelo://app?vid=0480e4ac-ac6c-46c5-bb52-2ab043c1a486"},"vehicle_type_id":"4","last_reported":1723216162,"current_range_meters":16000,"station_id":"ce4bgj92rcd13ifvqbd0","pricing_plan_id":"cebpf4jnsgd1na2vs0mg"},{"bike_id":"97f50568-4bc2-4fb6-8a07-9ca40d2ca878","system_id":"levelo_inurba_marseille","lat":43.29525,"lon":5.3751,"is_reserved":false,"is_disabled":false,"rental_uris":{"android":"levelo://app?vid=97f50568-4bc2-4fb6-8a07-9ca40d2ca878","ios":"levelo://app?vid=97f50568-4bc2-4fb6-8a07-9ca40d2ca878"},"vehicle_type_id":"4","last_reported":1723216162,"current_range_meters":19200,"station_id":"ce4bgkp2rcd13ifvqbmg","pricing_plan_id":"cebpf4jnsgd1na2vs0mg"},{"bike_id":"fd776844-e144-4c80-a8d2-d13a45781648","system_id":"levelo_inurba_marseille","lat":43.299717,"lon":5.384845,"is_reserved":false,"is_disabled":false,"rental_uris":{"android":"levelo://app?vid=fd776844-e144-4c80-a8d2-d13a45781648","ios":"levelo://app?vid=fd776844-e144-4c80-a8d2-d13a45781648"},"vehicle_type_id":"4","last_reported":1723216162,"current_range_meters":0,"station_id":"ce4bgj92rcd13ifvqbd0","pricing_plan_id":"cebpf4jnsgd1na2vs0mg"},{"bike_id":"3f0c7033-1d7d-48de-8545-db562f3fcb81","system_id":"levelo_inurba_marseille","lat":43.301396,"lon":5.387812,"is_reserved":false,"is_disabled":false,"rental_uris":{"android":"levelo://app?vid=3f0c7033-1d7d-48de-8545-db562f3fcb81","ios":"levelo://app?vid=3f0c7033-1d7d-48de-8545-db562f3fcb81"},"vehicle_type_id":"4","last_reported":1723216162,"current_range_meters":16800,"station_id":"ce4bghh2rcd13ifvqb60","pricing_plan_id":"cebpf4jnsgd1na2vs0mg"},{"bike_id":"c42c5c0b-eaa8-4b94-a6a1-0c1b56372cba","system_id":"levelo_inurba_marseille","lat":43.30085,"lon":5.390856,"is_reserved":false,"is_disabled":false,"rental_uris":{"android":"levelo://app?vid=c42c5c0b-eaa8-4b94-a6a1-0c1b56372cba","ios":"levelo://app?vid=c42c5c0b-eaa8-4b94-a6a1-0c1b56372cba"},"vehicle_type_id":"4","last_reported":1723216162,"current_range_meters":2800,"station_id":"ce4bh192rcd13ifvqdb0","pricing_plan_id":"cebpf4jnsgd1na2vs0mg"},{"bike_id":"51a83f6b-71c3-4069-adb0-e13bf94ece63","system_id":"levelo_inurba_marseille","lat":43.305994,"lon":5.393687,"is_reserved":false,"is_disabled":false,"rental_uris":{"android":"levelo://app?vid=51a83f6b-71c3-4069-adb0-e13bf94ece63","ios":"levelo://app?vid=51a83f6b-71c3-4069-adb0-e13bf94ece63"},"vehicle_type_id":"4","last_reported":1723216162,"current_range_meters":14000,"station_id":"ce4bh0p2rcd13ifvqd80","pricing_plan_id":"cebpf4jnsgd1na2vs0mg"},{"bike_id":"97f5a987-2555-4c86-84d2-3c51a094ecff","system_id":"levelo_inurba_marseille","lat":43.293259,"lon":5.371586,"is_reserved":false,"is_disabled":false,"rental_uris":{"android":"levelo://app?vid=97f5a987-2555-4c86-84d2-3c51a094ecff","ios":"levelo://app?vid=97f5a987-2555-4c86-84d2-3c51a094ecff"},"vehicle_type_id":"4","last_reported":1723216162,"current_range_meters":25600,"station_id":"ce4bgh92rcd13ifvqb40","pricing_plan_id":"cebpf4jnsgd1na2vs0mg"},{"bike_id":"44e44d83-533e-47fc-9157-36fe739a746a","system_id":"levelo_inurba_marseille","lat":43.292749,"lon":5.368402,"is_reserved":false,"is_disabled":false,"rental_uris":{"android":"levelo://app?vid=44e44d83-533e-47fc-9157-36fe739a746a","ios":"levelo://app?vid=44e44d83-533e-47fc-9157-36fe739a746a"},"vehicle_type_id":"4","last_reported":1723216162,"current_range_meters":24400,"station_id":"ce4bhbp2rcd13ifvqesg","pricing_plan_id":"cebpf4jnsgd1na2vs0mg"},{"bike_id":"8ac6cd27-b539-40d6-88b5-46631735ba08","system_id":"levelo_inurba_marseille","lat":43.29305,"lon":5.37176,"is_reserved":false,"is_disabled":false,"rental_uris":{"android":"levelo://app?vid=8ac6cd27-b539-40d6-88b5-46631735ba08","ios":"levelo://app?vid=8ac6cd27-b539-40d6-88b5-46631735ba08"},"vehicle_type_id":"4","last_reported":1723216162,"current_range_meters":0,"station_id":"ce4bgh92rcd13ifvqb40","pricing_plan_id":"cebpf4jnsgd1na2vs0mg"},{"bike_id":"2e2672a1-62a8-405a-8067-45ddbc46973a","system_id":"levelo_inurba_marseille","lat":43.305994,"lon":5.393687,"is_reserved":false,"is_disabled":false,"rental_uris":{"android":"levelo://app?vid=2e2672a1-62a8-405a-8067-45ddbc46973a","ios":"levelo://app?vid=2e2672a1-62a8-405a-8067-45ddbc46973a"},"vehicle_type_id":"4","last_reported":1723216162,"current_range_meters":4800,"station_id":"ce4bh0p2rcd13ifvqd80","pricing_plan_id":"cebpf4jnsgd1na2vs0mg"},{"bike_id":"8d37495d-9961-45f8-ba67-ee81725ae3ae","system_id":"levelo_inurba_marseille","lat":43.29228,"lon":5.36363,"is_reserved":false,"is_disabled":false,"rental_uris":{"android":"levelo://app?vid=8d37495d-9961-45f8-ba67-ee81725ae3ae","ios":"levelo://app?vid=8d37495d-9961-45f8-ba67-ee81725ae3ae"},"vehicle_type_id":"4","last_reported":1723216162,"current_range_meters":12400,"station_id":"","pricing_plan_id":"cebpf4jnsgd1na2vs0mg"},{"bike_id":"79f38d0c-e410-4760-941e-96a5c11958a4","system_id":"levelo_inurba_marseille","lat":43.31153,"lon":5.39527,"is_reserved":false,"is_disabled":false,"rental_uris":{"android":"levelo://app?vid=79f38d0c-e410-4760-941e-96a5c11958a4","ios":"levelo://app?vid=79f38d0c-e410-4760-941e-96a5c11958a4"},"vehicle_type_id":"4","last_reported":1723216162,"current_range_meters":17200,"station_id":"","pricing_plan_id":"cebpf4jnsgd1na2vs0mg"},{"bike_id":"4b45e059-5f8f-433d-b546-d14dabca431e","system_id":"levelo_inurba_marseille","lat":43.293843,"lon":5.378543,"is_reserved":false,"is_disabled":false,"rental_uris":{"android":"levelo://app?vid=4b45e059-5f8f-433d-b546-d14dabca431e","ios":"levelo://app?vid=4b45e059-5f8f-433d-b546-d14dabca431e"},"vehicle_type_id":"4","last_reported":1723216162,"current_range_meters":0,"station_id":"ce4bgjh2rcd13ifvqbf0","pricing_plan_id":"cebpf4jnsgd1na2vs0mg"},{"bike_id":"3c707f47-bef1-4e2b-b5bc-95e510d13063","system_id":"levelo_inurba_marseille","lat":43.302992,"lon":5.392136,"is_reserved":false,"is_disabled":false,"rental_uris":{"android":"levelo://app?vid=3c707f47-bef1-4e2b-b5bc-95e510d13063","ios":"levelo://app?vid=3c707f47-bef1-4e2b-b5bc-95e510d13063"},"vehicle_type_id":"4","last_reported":1723216162,"current_range_meters":31200,"station_id":"ce4bgkh2rcd13ifvqbk0","pricing_plan_id":"cebpf4jnsgd1na2vs0mg"},{"bike_id":"8669c215-f64f-4991-918a-38e605b47e3d","system_id":"levelo_inurba_marseille","lat":43.292905,"lon":5.355519,"is_reserved":false,"is_disabled":false,"rental_uris":{"android":"levelo://app?vid=8669c215-f64f-4991-918a-38e605b47e3d","ios":"levelo://app?vid=8669c215-f64f-4991-918a-38e605b47e3d"},"vehicle_type_id":"4","last_reported":1723216162,"current_range_meters":12400,"station_id":"","pricing_plan_id":"cebpf4jnsgd1na2vs0mg"},{"bike_id":"9d4b68a5-c93f-4844-a235-5ff4a055b660","system_id":"levelo_inurba_marseille","lat":43.292385,"lon":5.37767,"is_reserved":false,"is_disabled":false,"rental_uris":{"android":"levelo://app?vid=9d4b68a5-c93f-4844-a235-5ff4a055b660","ios":"levelo://app?vid=9d4b68a5-c93f-4844-a235-5ff4a055b660"},"vehicle_type_id":"4","last_reported":1723216162,"current_range_meters":15200,"station_id":"","pricing_plan_id":"cebpf4jnsgd1na2vs0mg"},{"bike_id":"539c9f41-fdff-4b96-9f09-dde11218dbb2","system_id":"levelo_inurba_marseille","lat":43.313291,"lon":5.396838,"is_reserved":false,"is_disabled":false,"rental_uris":{"android":"levelo://app?vid=539c9f41-fdff-4b96-9f09-dde11218dbb2","ios":"levelo://app?vid=539c9f41-fdff-4b96-9f09-dde11218dbb2"},"vehicle_type_id":"4","last_reported":1723216162,"current_range_meters":0,"station_id":"ce4bgvp2rcd13ifvqcu0","pricing_plan_id":"cebpf4jnsgd1na2vs0mg"},{"bike_id":"84eb8d5f-2d89-4e0c-bf09-9caac947dd27","system_id":"levelo_inurba_marseille","lat":43.309038,"lon":5.396546,"is_reserved":false,"is_disabled":false,"rental_uris":{"android":"levelo://app?vid=84eb8d5f-2d89-4e0c-bf09-9caac947dd27","ios":"levelo://app?vid=84eb8d5f-2d89-4e0c-bf09-9caac947dd27"},"vehicle_type_id":"4","last_reported":1723216162,"current_range_meters":17200,"station_id":"ce4bh012rcd13ifvqcv0","pricing_plan_id":"cebpf4jnsgd1na2vs0mg"},{"bike_id":"c4c02c58-6d55-4755-9327-bf33b3b0bc1a","system_id":"levelo_inurba_marseille","lat":43.33334,"lon":5.37979,"is_reserved":false,"is_disabled":false,"rental_uris":{"android":"levelo://app?vid=c4c02c58-6d55-4755-9327-bf33b3b0bc1a","ios":"levelo://app?vid=c4c02c58-6d55-4755-9327-bf33b3b0bc1a"},"vehicle_type_id":"4","last_reported":1723216162,"current_range_meters":24000,"station_id":"","pricing_plan_id":"cebpf4jnsgd1na2vs0mg"},{"bike_id":"f0c1a374-af7d-4de6-9b0e-e67c4edbccaf","system_id":"levelo_inurba_marseille","lat":43.290624,"lon":5.359245,"is_reserved":false,"is_disabled":false,"rental_uris":{"android":"levelo://app?vid=f0c1a374-af7d-4de6-9b0e-e67c4edbccaf","ios":"levelo://app?vid=f0c1a374-af7d-4de6-9b0e-e67c4edbccaf"},"vehicle_type_id":"4","last_reported":1723216162,"current_range_meters":29200,"station_id":"ce4bha92rcd13ifvqeg0","pricing_plan_id":"cebpf4jnsgd1na2vs0mg"},{"bike_id":"b12027c9-0a66-445f-8431-3acd6d31fe13","system_id":"levelo_inurba_marseille","lat":43.290327,"lon":5.375711,"is_reserved":false,"is_disabled":false,"rental_uris":{"android":"levelo://app?vid=b12027c9-0a66-445f-8431-3acd6d31fe13","ios":"levelo://app?vid=b12027c9-0a66-445f-8431-3acd6d31fe13"},"vehicle_type_id":"4","last_reported":1723216162,"current_range_meters":2800,"station_id":"ce4bh692rcd13ifvqe90","pricing_plan_id":"cebpf4jnsgd1na2vs0mg"},{"bike_id":"76490ee9-c410-433d-9e45-1a53dbf53dff","system_id":"levelo_inurba_marseille","lat":43.29416,"lon":5.38633,"is_reserved":false,"is_disabled":false,"rental_uris":{"android":"levelo://app?vid=76490ee9-c410-433d-9e45-1a53dbf53dff","ios":"levelo://app?vid=76490ee9-c410-433d-9e45-1a53dbf53dff"},"vehicle_type_id":"4","last_reported":1723216162,"current_range_meters":19200,"station_id":"ce4bh2h2rcd13ifvqdh0","pricing_plan_id":"cebpf4jnsgd1na2vs0mg"},{"bike_id":"3b482431-d581-48f2-ac3e-bff4eceadb7d","system_id":"levelo_inurba_marseille","lat":43.289468,"lon":5.363719,"is_reserved":false,"is_disabled":false,"rental_uris":{"android":"levelo://app?vid=3b482431-d581-48f2-ac3e-bff4eceadb7d","ios":"levelo://app?vid=3b482431-d581-48f2-ac3e-bff4eceadb7d"},"vehicle_type_id":"4","last_reported":1723216162,"current_range_meters":21600,"station_id":"ce4bhc92rcd13ifvqetg","pricing_plan_id":"cebpf4jnsgd1na2vs0mg"},{"bike_id":"b8259051-a5e5-4cdf-badc-d2f2daf93656","system_id":"levelo_inurba_marseille","lat":43.292642,"lon":5.384254,"is_reserved":false,"is_disabled":false,"rental_uris":{"android":"levelo://app?vid=b8259051-a5e5-4cdf-badc-d2f2daf93656","ios":"levelo://app?vid=b8259051-a5e5-4cdf-badc-d2f2daf93656"},"vehicle_type_id":"4","last_reported":1723216162,"current_range_meters":15200,"station_id":"ce4bh692rcd13ifvqea0","pricing_plan_id":"cebpf4jnsgd1na2vs0mg"},{"bike_id":"4e2a352f-c2e6-4379-996f-6ea1068e9b33","system_id":"levelo_inurba_marseille","lat":43.304296,"lon":5.397513,"is_reserved":false,"is_disabled":false,"rental_uris":{"android":"levelo://app?vid=4e2a352f-c2e6-4379-996f-6ea1068e9b33","ios":"levelo://app?vid=4e2a352f-c2e6-4379-996f-6ea1068e9b33"},"vehicle_type_id":"4","last_reported":1723216162,"current_range_meters":11600,"station_id":"ce4bh092rcd13ifvqd20","pricing_plan_id":"cebpf4jnsgd1na2vs0mg"},{"bike_id":"02cf2e15-8e71-49c9-a4eb-e60948c08a39","system_id":"levelo_inurba_marseille","lat":43.29006,"lon":5.35606,"is_reserved":false,"is_disabled":false,"rental_uris":{"android":"levelo://app?vid=02cf2e15-8e71-49c9-a4eb-e60948c08a39","ios":"levelo://app?vid=02cf2e15-8e71-49c9-a4eb-e60948c08a39"},"vehicle_type_id":"4","last_reported":1723216162,"current_range_meters":0,"station_id":"ce4bhb92rcd13ifvqen0","pricing_plan_id":"cebpf4jnsgd1na2vs0mg"},{"bike_id":"5d9f7dc6-709e-4895-9682-11a7df5dcd25","system_id":"levelo_inurba_marseille","lat":43.290995,"lon":5.381361,"is_reserved":false,"is_disabled":false,"rental_uris":{"android":"levelo://app?vid=5d9f7dc6-709e-4895-9682-11a7df5dcd25","ios":"levelo://app?vid=5d9f7dc6-709e-4895-9682-11a7df5dcd25"},"vehicle_type_id":"4","last_reported":1723216162,"current_range_meters":31200,"station_id":"ce4bh512rcd13ifvqe2g","pricing_plan_id":"cebpf4jnsgd1na2vs0mg"},{"bike_id":"8e113402-b90a-4c2c-8f7c-5207a4286d21","system_id":"levelo_inurba_marseille","lat":43.289741,"lon":5.378306,"is_reserved":false,"is_disabled":false,"rental_uris":{"android":"levelo://app?vid=8e113402-b90a-4c2c-8f7c-5207a4286d21","ios":"levelo://app?vid=8e113402-b90a-4c2c-8f7c-5207a4286d21"},"vehicle_type_id":"4","last_reported":1723216162,"current_range_meters":11200,"station_id":"ce4bh9p2rcd13ifvqed0","pricing_plan_id":"cebpf4jnsgd1na2vs0mg"},{"bike_id":"6e2723ef-76dd-424d-9586-6085724dbe05","system_id":"levelo_inurba_marseille","lat":43.295169,"lon":5.390426,"is_reserved":false,"is_disabled":false,"rental_uris":{"android":"levelo://app?vid=6e2723ef-76dd-424d-9586-6085724dbe05","ios":"levelo://app?vid=6e2723ef-76dd-424d-9586-6085724dbe05"},"vehicle_type_id":"4","last_reported":1723216162,"current_range_meters":0,"station_id":"ce4bh3p2rcd13ifvqdp0","pricing_plan_id":"cebpf4jnsgd1na2vs0mg"},{"bike_id":"daa87d00-3a31-47b7-b17d-0109c7782fe9","system_id":"levelo_inurba_marseille","lat":43.295169,"lon":5.390426,"is_reserved":false,"is_disabled":false,"rental_uris":{"android":"levelo://app?vid=daa87d00-3a31-47b7-b17d-0109c7782fe9","ios":"levelo://app?vid=daa87d00-3a31-47b7-b17d-0109c7782fe9"},"vehicle_type_id":"4","last_reported":1723216162,"current_range_meters":0,"station_id":"ce4bh3p2rcd13ifvqdp0","pricing_plan_id":"cebpf4jnsgd1na2vs0mg"},{"bike_id":"cffd970b-9369-4ae2-97b4-90eeefa2a14f","system_id":"levelo_inurba_marseille","lat":43.295169,"lon":5.390426,"is_reserved":false,"is_disabled":false,"rental_uris":{"android":"levelo://app?vid=cffd970b-9369-4ae2-97b4-90eeefa2a14f","ios":"levelo://app?vid=cffd970b-9369-4ae2-97b4-90eeefa2a14f"},"vehicle_type_id":"4","last_reported":1723216162,"current_range_meters":31600,"station_id":"ce4bh3p2rcd13ifvqdp0","pricing_plan_id":"cebpf4jnsgd1na2vs0mg"},{"bike_id":"76a8f8ac-dd48-4774-bbdd-461e2714fac1","system_id":"levelo_inurba_marseille","lat":43.330442,"lon":5.389148,"is_reserved":false,"is_disabled":false,"rental_uris":{"android":"levelo://app?vid=76a8f8ac-dd48-4774-bbdd-461e2714fac1","ios":"levelo://app?vid=76a8f8ac-dd48-4774-bbdd-461e2714fac1"},"vehicle_type_id":"4","last_reported":1723216162,"current_range_meters":31200,"station_id":"ce4bhr92rcd13ifvqhrg","pricing_plan_id":"cebpf4jnsgd1na2vs0mg"},{"bike_id":"dd069a4e-60e0-4d57-b80c-31ae094c90de","system_id":"levelo_inurba_marseille","lat":43.33028,"lon":5.39043,"is_reserved":false,"is_disabled":false,"rental_uris":{"android":"levelo://app?vid=dd069a4e-60e0-4d57-b80c-31ae094c90de","ios":"levelo://app?vid=dd069a4e-60e0-4d57-b80c-31ae094c90de"},"vehicle_type_id":"4","last_reported":1723216162,"current_range_meters":0,"station_id":"ce4bhr92rcd13ifvqhrg","pricing_plan_id":"cebpf4jnsgd1na2vs0mg"},{"bike_id":"97917e4a-d2df-4665-a119-4e538c331dec","system_id":"levelo_inurba_marseille","lat":43.295169,"lon":5.390426,"is_reserved":false,"is_disabled":false,"rental_uris":{"android":"levelo://app?vid=97917e4a-d2df-4665-a119-4e538c331dec","ios":"levelo://app?vid=97917e4a-d2df-4665-a119-4e538c331dec"},"vehicle_type_id":"4","last_reported":1723216162,"current_range_meters":21600,"station_id":"ce4bh3p2rcd13ifvqdp0","pricing_plan_id":"cebpf4jnsgd1na2vs0mg"},{"bike_id":"827d8634-021e-4a57-909c-92b2ea2aecdf","system_id":"levelo_inurba_marseille","lat":43.289741,"lon":5.378306,"is_reserved":false,"is_disabled":false,"rental_uris":{"android":"levelo://app?vid=827d8634-021e-4a57-909c-92b2ea2aecdf","ios":"levelo://app?vid=827d8634-021e-4a57-909c-92b2ea2aecdf"},"vehicle_type_id":"4","last_reported":1723216162,"current_range_meters":1600,"station_id":"ce4bh9p2rcd13ifvqed0","pricing_plan_id":"cebpf4jnsgd1na2vs0mg"},{"bike_id":"81fbadb7-7706-4c91-a2d0-2d6b485a3e43","system_id":"levelo_inurba_marseille","lat":43.31065,"lon":5.40103,"is_reserved":false,"is_disabled":false,"rental_uris":{"android":"levelo://app?vid=81fbadb7-7706-4c91-a2d0-2d6b485a3e43","ios":"levelo://app?vid=81fbadb7-7706-4c91-a2d0-2d6b485a3e43"},"vehicle_type_id":"4","last_reported":1723216162,"current_range_meters":7200,"station_id":"","pricing_plan_id":"cebpf4jnsgd1na2vs0mg"},{"bike_id":"f4933f8f-dad1-46c9-b6bb-52c88dca9296","system_id":"levelo_inurba_marseille","lat":43.28856,"lon":5.358371,"is_reserved":false,"is_disabled":false,"rental_uris":{"android":"levelo://app?vid=f4933f8f-dad1-46c9-b6bb-52c88dca9296","ios":"levelo://app?vid=f4933f8f-dad1-46c9-b6bb-52c88dca9296"},"vehicle_type_id":"4","last_reported":1723216162,"current_range_meters":400,"station_id":"ce4bhb12rcd13ifvqem0","pricing_plan_id":"cebpf4jnsgd1na2vs0mg"},{"bike_id":"9a58a109-4118-4714-bdf1-397a1f8fe723","system_id":"levelo_inurba_marseille","lat":43.28856,"lon":5.358371,"is_reserved":false,"is_disabled":false,"rental_uris":{"android":"levelo://app?vid=9a58a109-4118-4714-bdf1-397a1f8fe723","ios":"levelo://app?vid=9a58a109-4118-4714-bdf1-397a1f8fe723"},"vehicle_type_id":"4","last_reported":1723216162,"current_range_meters":17600,"station_id":"ce4bhb12rcd13ifvqem0","pricing_plan_id":"cebpf4jnsgd1na2vs0mg"},{"bike_id":"b82d858a-91a0-49bf-a6fc-8ae898ab18fa","system_id":"levelo_inurba_marseille","lat":43.312609,"lon":5.401662,"is_reserved":false,"is_disabled":false,"rental_uris":{"android":"levelo://app?vid=b82d858a-91a0-49bf-a6fc-8ae898ab18fa","ios":"levelo://app?vid=b82d858a-91a0-49bf-a6fc-8ae898ab18fa"},"vehicle_type_id":"4","last_reported":1723216162,"current_range_meters":31200,"station_id":"ce4bh092rcd13ifvqd30","pricing_plan_id":"cebpf4jnsgd1na2vs0mg"},{"bike_id":"ac75d8e5-5139-4e43-a64e-51e7994c2517","system_id":"levelo_inurba_marseille","lat":43.337444,"lon":5.374475,"is_reserved":false,"is_disabled":false,"rental_uris":{"android":"levelo://app?vid=ac75d8e5-5139-4e43-a64e-51e7994c2517","ios":"levelo://app?vid=ac75d8e5-5139-4e43-a64e-51e7994c2517"},"vehicle_type_id":"3","last_reported":1723216162,"current_range_meters":24800,"station_id":"","pricing_plan_id":"cebpf4jnsgd1na2vs0mg"},{"bike_id":"1596ed5a-2748-4147-884b-51e994b2b8ca","system_id":"levelo_inurba_marseille","lat":43.337482,"lon":5.374568,"is_reserved":false,"is_disabled":false,"rental_uris":{"android":"levelo://app?vid=1596ed5a-2748-4147-884b-51e994b2b8ca","ios":"levelo://app?vid=1596ed5a-2748-4147-884b-51e994b2b8ca"},"vehicle_type_id":"4","last_reported":1723216162,"current_range_meters":20000,"station_id":"","pricing_plan_id":"cebpf4jnsgd1na2vs0mg"},{"bike_id":"f2c39657-f64b-4c05-b0b3-af94dc52094d","system_id":"levelo_inurba_marseille","lat":43.337517,"lon":5.374495,"is_reserved":false,"is_disabled":false,"rental_uris":{"android":"levelo://app?vid=f2c39657-f64b-4c05-b0b3-af94dc52094d","ios":"levelo://app?vid=f2c39657-f64b-4c05-b0b3-af94dc52094d"},"vehicle_type_id":"4","last_reported":1723216162,"current_range_meters":4000,"station_id":"","pricing_plan_id":"cebpf4jnsgd1na2vs0mg"},{"bike_id":"6137b86e-8de9-4c4f-94ef-bfa372175031","system_id":"levelo_inurba_marseille","lat":43.337513,"lon":5.37454,"is_reserved":false,"is_disabled":false,"rental_uris":{"android":"levelo://app?vid=6137b86e-8de9-4c4f-94ef-bfa372175031","ios":"levelo://app?vid=6137b86e-8de9-4c4f-94ef-bfa372175031"},"vehicle_type_id":"4","last_reported":1723216162,"current_range_meters":19600,"station_id":"","pricing_plan_id":"cebpf4jnsgd1na2vs0mg"},{"bike_id":"c24ccdf3-8374-4625-a41a-8280c7fc42b0","system_id":"levelo_inurba_marseille","lat":43.337554,"lon":5.374452,"is_reserved":false,"is_disabled":false,"rental_uris":{"android":"levelo://app?vid=c24ccdf3-8374-4625-a41a-8280c7fc42b0","ios":"levelo://app?vid=c24ccdf3-8374-4625-a41a-8280c7fc42b0"},"vehicle_type_id":"4","last_reported":1723216162,"current_range_meters":28800,"station_id":"","pricing_plan_id":"cebpf4jnsgd1na2vs0mg"},{"bike_id":"95e665ed-afbb-4ece-97e4-ecc3d1a7e7e9","system_id":"levelo_inurba_marseille","lat":43.337583,"lon":5.374308,"is_reserved":false,"is_disabled":false,"rental_uris":{"android":"levelo://app?vid=95e665ed-afbb-4ece-97e4-ecc3d1a7e7e9","ios":"levelo://app?vid=95e665ed-afbb-4ece-97e4-ecc3d1a7e7e9"},"vehicle_type_id":"4","last_reported":1723216162,"current_range_meters":30400,"station_id":"","pricing_plan_id":"cebpf4jnsgd1na2vs0mg"},{"bike_id":"9c370677-6c6f-4d23-8cf0-7d8de4f71f2a","system_id":"levelo_inurba_marseille","lat":43.337725,"lon":5.374295,"is_reserved":false,"is_disabled":false,"rental_uris":{"android":"levelo://app?vid=9c370677-6c6f-4d23-8cf0-7d8de4f71f2a","ios":"levelo://app?vid=9c370677-6c6f-4d23-8cf0-7d8de4f71f2a"},"vehicle_type_id":"4","last_reported":1723216162,"current_range_meters":22800,"station_id":"","pricing_plan_id":"cebpf4jnsgd1na2vs0mg"},{"bike_id":"475ed14f-5d86-4ce1-9e44-9d4d1bef7035","system_id":"levelo_inurba_marseille","lat":43.33769,"lon":5.37475,"is_reserved":false,"is_disabled":false,"rental_uris":{"android":"levelo://app?vid=475ed14f-5d86-4ce1-9e44-9d4d1bef7035","ios":"levelo://app?vid=475ed14f-5d86-4ce1-9e44-9d4d1bef7035"},"vehicle_type_id":"4","last_reported":1723216162,"current_range_meters":27200,"station_id":"","pricing_plan_id":"cebpf4jnsgd1na2vs0mg"},{"bike_id":"fba5e0cb-0b9e-48fa-9ef9-74ab949dc381","system_id":"levelo_inurba_marseille","lat":43.301117,"lon":5.398795,"is_reserved":false,"is_disabled":false,"rental_uris":{"android":"levelo://app?vid=fba5e0cb-0b9e-48fa-9ef9-74ab949dc381","ios":"levelo://app?vid=fba5e0cb-0b9e-48fa-9ef9-74ab949dc381"},"vehicle_type_id":"4","last_reported":1723216162,"current_range_meters":30800,"station_id":"ce4bh0h2rcd13ifvqd40","pricing_plan_id":"cebpf4jnsgd1na2vs0mg"},{"bike_id":"c7873418-21fa-4319-9512-ce160273c722","system_id":"levelo_inurba_marseille","lat":43.261782,"lon":5.374515,"is_reserved":false,"is_disabled":false,"rental_uris":{"android":"levelo://app?vid=c7873418-21fa-4319-9512-ce160273c722","ios":"levelo://app?vid=c7873418-21fa-4319-9512-ce160273c722"},"vehicle_type_id":"4","last_reported":1723216162,"current_range_meters":12800,"station_id":"ce4bhgp2rcd13ifvqfc0","pricing_plan_id":"cebpf4jnsgd1na2vs0mg"},{"bike_id":"d685b03c-795e-417b-af0c-567ad42f20cb","system_id":"levelo_inurba_marseille","lat":43.28774,"lon":5.357125,"is_reserved":false,"is_disabled":false,"rental_uris":{"android":"levelo://app?vid=d685b03c-795e-417b-af0c-567ad42f20cb","ios":"levelo://app?vid=d685b03c-795e-417b-af0c-567ad42f20cb"},"vehicle_type_id":"4","last_reported":1723216162,"current_range_meters":12000,"station_id":"","pricing_plan_id":"cebpf4jnsgd1na2vs0mg"},{"bike_id":"17a7e1bc-6549-435d-97ab-7ecc28e0e2bb","system_id":"levelo_inurba_marseille","lat":43.286961,"lon":5.373785,"is_reserved":false,"is_disabled":false,"rental_uris":{"android":"levelo://app?vid=17a7e1bc-6549-435d-97ab-7ecc28e0e2bb","ios":"levelo://app?vid=17a7e1bc-6549-435d-97ab-7ecc28e0e2bb"},"vehicle_type_id":"4","last_reported":1723216162,"current_range_meters":14400,"station_id":"ce4bh3p2rcd13ifvqdq0","pricing_plan_id":"cebpf4jnsgd1na2vs0mg"},{"bike_id":"d0fdbe4a-07c9-4ba5-8769-5672ac7be192","system_id":"levelo_inurba_marseille","lat":43.298681,"lon":5.397225,"is_reserved":false,"is_disabled":false,"rental_uris":{"android":"levelo://app?vid=d0fdbe4a-07c9-4ba5-8769-5672ac7be192","ios":"levelo://app?vid=d0fdbe4a-07c9-4ba5-8769-5672ac7be192"},"vehicle_type_id":"4","last_reported":1723216162,"current_range_meters":5200,"station_id":"ce4bh0h2rcd13ifvqd50","pricing_plan_id":"cebpf4jnsgd1na2vs0mg"},{"bike_id":"43d078f9-b122-4b54-9ff9-a2ec9f7b3873","system_id":"levelo_inurba_marseille","lat":43.28666,"lon":5.36348,"is_reserved":false,"is_disabled":false,"rental_uris":{"android":"levelo://app?vid=43d078f9-b122-4b54-9ff9-a2ec9f7b3873","ios":"levelo://app?vid=43d078f9-b122-4b54-9ff9-a2ec9f7b3873"},"vehicle_type_id":"4","last_reported":1723216162,"current_range_meters":0,"station_id":"ce4bhah2rcd13ifvqej0","pricing_plan_id":"cebpf4jnsgd1na2vs0mg"},{"bike_id":"377118bf-810b-41f9-8556-3cecd41f6d03","system_id":"levelo_inurba_marseille","lat":43.286591,"lon":5.363346,"is_reserved":false,"is_disabled":false,"rental_uris":{"android":"levelo://app?vid=377118bf-810b-41f9-8556-3cecd41f6d03","ios":"levelo://app?vid=377118bf-810b-41f9-8556-3cecd41f6d03"},"vehicle_type_id":"4","last_reported":1723216162,"current_range_meters":0,"station_id":"ce4bhah2rcd13ifvqej0","pricing_plan_id":"cebpf4jnsgd1na2vs0mg"},{"bike_id":"5f026476-7aac-4b8d-9595-96ec3f898e4b","system_id":"levelo_inurba_marseille","lat":43.286961,"lon":5.373785,"is_reserved":false,"is_disabled":false,"rental_uris":{"android":"levelo://app?vid=5f026476-7aac-4b8d-9595-96ec3f898e4b","ios":"levelo://app?vid=5f026476-7aac-4b8d-9595-96ec3f898e4b"},"vehicle_type_id":"4","last_reported":1723216162,"current_range_meters":24000,"station_id":"ce4bh3p2rcd13ifvqdq0","pricing_plan_id":"cebpf4jnsgd1na2vs0mg"},{"bike_id":"4082aa90-14b7-4436-b8a9-27790fb9f6c6","system_id":"levelo_inurba_marseille","lat":43.286961,"lon":5.373785,"is_reserved":false,"is_disabled":false,"rental_uris":{"android":"levelo://app?vid=4082aa90-14b7-4436-b8a9-27790fb9f6c6","ios":"levelo://app?vid=4082aa90-14b7-4436-b8a9-27790fb9f6c6"},"vehicle_type_id":"4","last_reported":1723216162,"current_range_meters":15600,"station_id":"ce4bh3p2rcd13ifvqdq0","pricing_plan_id":"cebpf4jnsgd1na2vs0mg"},{"bike_id":"79e4bab2-048e-45d0-8b7c-f9ea2df94e14","system_id":"levelo_inurba_marseille","lat":43.290336,"lon":5.386425,"is_reserved":false,"is_disabled":false,"rental_uris":{"android":"levelo://app?vid=79e4bab2-048e-45d0-8b7c-f9ea2df94e14","ios":"levelo://app?vid=79e4bab2-048e-45d0-8b7c-f9ea2df94e14"},"vehicle_type_id":"4","last_reported":1723216162,"current_range_meters":0,"station_id":"ce4bh4p2rcd13ifvqe0g","pricing_plan_id":"cebpf4jnsgd1na2vs0mg"},{"bike_id":"99c36707-9f30-4cb4-b79a-c5a0f5bf4976","system_id":"levelo_inurba_marseille","lat":43.290336,"lon":5.386425,"is_reserved":false,"is_disabled":false,"rental_uris":{"android":"levelo://app?vid=99c36707-9f30-4cb4-b79a-c5a0f5bf4976","ios":"levelo://app?vid=99c36707-9f30-4cb4-b79a-c5a0f5bf4976"},"vehicle_type_id":"4","last_reported":1723216162,"current_range_meters":0,"station_id":"ce4bh4p2rcd13ifvqe0g","pricing_plan_id":"cebpf4jnsgd1na2vs0mg"},{"bike_id":"18fc77fa-e25a-41ca-bb0d-b937ee08f2ec","system_id":"levelo_inurba_marseille","lat":43.290336,"lon":5.386425,"is_reserved":false,"is_disabled":false,"rental_uris":{"android":"levelo://app?vid=18fc77fa-e25a-41ca-bb0d-b937ee08f2ec","ios":"levelo://app?vid=18fc77fa-e25a-41ca-bb0d-b937ee08f2ec"},"vehicle_type_id":"4","last_reported":1723216162,"current_range_meters":14400,"station_id":"ce4bh4p2rcd13ifvqe0g","pricing_plan_id":"cebpf4jnsgd1na2vs0mg"},{"bike_id":"1963b21f-3796-43d7-b61a-c0cbf1292880","system_id":"levelo_inurba_marseille","lat":43.290336,"lon":5.386425,"is_reserved":false,"is_disabled":false,"rental_uris":{"android":"levelo://app?vid=1963b21f-3796-43d7-b61a-c0cbf1292880","ios":"levelo://app?vid=1963b21f-3796-43d7-b61a-c0cbf1292880"},"vehicle_type_id":"4","last_reported":1723216162,"current_range_meters":0,"station_id":"ce4bh4p2rcd13ifvqe0g","pricing_plan_id":"cebpf4jnsgd1na2vs0mg"},{"bike_id":"7e24675f-ddbe-4f44-bfb8-edf6392a3b0d","system_id":"levelo_inurba_marseille","lat":43.290336,"lon":5.386425,"is_reserved":false,"is_disabled":false,"rental_uris":{"android":"levelo://app?vid=7e24675f-ddbe-4f44-bfb8-edf6392a3b0d","ios":"levelo://app?vid=7e24675f-ddbe-4f44-bfb8-edf6392a3b0d"},"vehicle_type_id":"4","last_reported":1723216162,"current_range_meters":1200,"station_id":"ce4bh4p2rcd13ifvqe0g","pricing_plan_id":"cebpf4jnsgd1na2vs0mg"},{"bike_id":"967f5dca-8aa8-4ac7-9223-d7f496eb6c1f","system_id":"levelo_inurba_marseille","lat":43.286039,"lon":5.370681,"is_reserved":false,"is_disabled":false,"rental_uris":{"android":"levelo://app?vid=967f5dca-8aa8-4ac7-9223-d7f496eb6c1f","ios":"levelo://app?vid=967f5dca-8aa8-4ac7-9223-d7f496eb6c1f"},"vehicle_type_id":"4","last_reported":1723216162,"current_range_meters":0,"station_id":"ce4bht12rcd13ifvqi60","pricing_plan_id":"cebpf4jnsgd1na2vs0mg"},{"bike_id":"033f771e-a5bb-4cff-8219-ccb03daa2387","system_id":"levelo_inurba_marseille","lat":43.28717,"lon":5.37933,"is_reserved":false,"is_disabled":false,"rental_uris":{"android":"levelo://app?vid=033f771e-a5bb-4cff-8219-ccb03daa2387","ios":"levelo://app?vid=033f771e-a5bb-4cff-8219-ccb03daa2387"},"vehicle_type_id":"4","last_reported":1723216162,"current_range_meters":0,"station_id":"ce4bh9p2rcd13ifvqec0","pricing_plan_id":"cebpf4jnsgd1na2vs0mg"},{"bike_id":"d88011ab-d84c-41a8-b407-242dcda778ae","system_id":"levelo_inurba_marseille","lat":43.31689,"lon":5.40478,"is_reserved":false,"is_disabled":false,"rental_uris":{"android":"levelo://app?vid=d88011ab-d84c-41a8-b407-242dcda778ae","ios":"levelo://app?vid=d88011ab-d84c-41a8-b407-242dcda778ae"},"vehicle_type_id":"4","last_reported":1723216162,"current_range_meters":4400,"station_id":"ce4bh012rcd13ifvqd00","pricing_plan_id":"cebpf4jnsgd1na2vs0mg"},{"bike_id":"93adf861-cf17-4917-b779-c21d265fc717","system_id":"levelo_inurba_marseille","lat":43.283998,"lon":5.375062,"is_reserved":false,"is_disabled":false,"rental_uris":{"android":"levelo://app?vid=93adf861-cf17-4917-b779-c21d265fc717","ios":"levelo://app?vid=93adf861-cf17-4917-b779-c21d265fc717"},"vehicle_type_id":"4","last_reported":1723216162,"current_range_meters":24800,"station_id":"ce4bh412rcd13ifvqds0","pricing_plan_id":"cebpf4jnsgd1na2vs0mg"},{"bike_id":"ed455189-b015-4c58-a62c-1803c1a634cd","system_id":"levelo_inurba_marseille","lat":43.28461,"lon":5.35905,"is_reserved":false,"is_disabled":false,"rental_uris":{"android":"levelo://app?vid=ed455189-b015-4c58-a62c-1803c1a634cd","ios":"levelo://app?vid=ed455189-b015-4c58-a62c-1803c1a634cd"},"vehicle_type_id":"4","last_reported":1723216162,"current_range_meters":0,"station_id":"ce4bhah2rcd13ifvqei0","pricing_plan_id":"cebpf4jnsgd1na2vs0mg"},{"bike_id":"1e7c4bf3-cbf9-4ee5-b649-d4554ef19657","system_id":"levelo_inurba_marseille","lat":43.294314,"lon":5.397498,"is_reserved":false,"is_disabled":false,"rental_uris":{"android":"levelo://app?vid=1e7c4bf3-cbf9-4ee5-b649-d4554ef19657","ios":"levelo://app?vid=1e7c4bf3-cbf9-4ee5-b649-d4554ef19657"},"vehicle_type_id":"4","last_reported":1723216162,"current_range_meters":18400,"station_id":"ce4bh3h2rcd13ifvqdo0","pricing_plan_id":"cebpf4jnsgd1na2vs0mg"},{"bike_id":"6c14be88-5d6b-4516-aaa9-e78d5dfb107b","system_id":"levelo_inurba_marseille","lat":43.294314,"lon":5.397498,"is_reserved":false,"is_disabled":false,"rental_uris":{"android":"levelo://app?vid=6c14be88-5d6b-4516-aaa9-e78d5dfb107b","ios":"levelo://app?vid=6c14be88-5d6b-4516-aaa9-e78d5dfb107b"},"vehicle_type_id":"4","last_reported":1723216162,"current_range_meters":0,"station_id":"ce4bh3h2rcd13ifvqdo0","pricing_plan_id":"cebpf4jnsgd1na2vs0mg"},{"bike_id":"038dbf20-b02d-434a-93e0-54c7a32d54fe","system_id":"levelo_inurba_marseille","lat":43.294314,"lon":5.397498,"is_reserved":false,"is_disabled":false,"rental_uris":{"android":"levelo://app?vid=038dbf20-b02d-434a-93e0-54c7a32d54fe","ios":"levelo://app?vid=038dbf20-b02d-434a-93e0-54c7a32d54fe"},"vehicle_type_id":"4","last_reported":1723216162,"current_range_meters":10400,"station_id":"ce4bh3h2rcd13ifvqdo0","pricing_plan_id":"cebpf4jnsgd1na2vs0mg"},{"bike_id":"023545ab-bfb5-4ef5-a5f5-00990e09dd6a","system_id":"levelo_inurba_marseille","lat":43.28624,"lon":5.35108,"is_reserved":false,"is_disabled":false,"rental_uris":{"android":"levelo://app?vid=023545ab-bfb5-4ef5-a5f5-00990e09dd6a","ios":"levelo://app?vid=023545ab-bfb5-4ef5-a5f5-00990e09dd6a"},"vehicle_type_id":"4","last_reported":1723216162,"current_range_meters":24000,"station_id":"ce4bhch2rcd13ifvqeug","pricing_plan_id":"cebpf4jnsgd1na2vs0mg"},{"bike_id":"34994fe1-6700-4c96-b69b-693cddc1f5f6","system_id":"levelo_inurba_marseille","lat":43.28619,"lon":5.35111,"is_reserved":false,"is_disabled":false,"rental_uris":{"android":"levelo://app?vid=34994fe1-6700-4c96-b69b-693cddc1f5f6","ios":"levelo://app?vid=34994fe1-6700-4c96-b69b-693cddc1f5f6"},"vehicle_type_id":"4","last_reported":1723216162,"current_range_meters":8800,"station_id":"ce4bhch2rcd13ifvqeug","pricing_plan_id":"cebpf4jnsgd1na2vs0mg"},{"bike_id":"28355942-21e1-4810-933c-1259ddbeb66a","system_id":"levelo_inurba_marseille","lat":43.28619,"lon":5.3511,"is_reserved":false,"is_disabled":false,"rental_uris":{"android":"levelo://app?vid=28355942-21e1-4810-933c-1259ddbeb66a","ios":"levelo://app?vid=28355942-21e1-4810-933c-1259ddbeb66a"},"vehicle_type_id":"4","last_reported":1723216162,"current_range_meters":8400,"station_id":"ce4bhch2rcd13ifvqeug","pricing_plan_id":"cebpf4jnsgd1na2vs0mg"},{"bike_id":"4b2b070d-7282-46fd-a760-86d9601ea998","system_id":"levelo_inurba_marseille","lat":43.28618,"lon":5.35111,"is_reserved":false,"is_disabled":false,"rental_uris":{"android":"levelo://app?vid=4b2b070d-7282-46fd-a760-86d9601ea998","ios":"levelo://app?vid=4b2b070d-7282-46fd-a760-86d9601ea998"},"vehicle_type_id":"4","last_reported":1723216162,"current_range_meters":0,"station_id":"ce4bhch2rcd13ifvqeug","pricing_plan_id":"cebpf4jnsgd1na2vs0mg"},{"bike_id":"e4c6522b-a25e-4bcb-bfad-0108fe4339b1","system_id":"levelo_inurba_marseille","lat":43.28619,"lon":5.35106,"is_reserved":false,"is_disabled":false,"rental_uris":{"android":"levelo://app?vid=e4c6522b-a25e-4bcb-bfad-0108fe4339b1","ios":"levelo://app?vid=e4c6522b-a25e-4bcb-bfad-0108fe4339b1"},"vehicle_type_id":"4","last_reported":1723216162,"current_range_meters":3600,"station_id":"ce4bhch2rcd13ifvqeug","pricing_plan_id":"cebpf4jnsgd1na2vs0mg"},{"bike_id":"c7a48cbf-6236-4e0c-8b42-fda6577d9adf","system_id":"levelo_inurba_marseille","lat":43.28618,"lon":5.35107,"is_reserved":false,"is_disabled":false,"rental_uris":{"android":"levelo://app?vid=c7a48cbf-6236-4e0c-8b42-fda6577d9adf","ios":"levelo://app?vid=c7a48cbf-6236-4e0c-8b42-fda6577d9adf"},"vehicle_type_id":"4","last_reported":1723216162,"current_range_meters":5600,"station_id":"ce4bhch2rcd13ifvqeug","pricing_plan_id":"cebpf4jnsgd1na2vs0mg"},{"bike_id":"e537c2ea-71c4-469c-a15b-b6f2420bac86","system_id":"levelo_inurba_marseille","lat":43.28619,"lon":5.35099,"is_reserved":false,"is_disabled":false,"rental_uris":{"android":"levelo://app?vid=e537c2ea-71c4-469c-a15b-b6f2420bac86","ios":"levelo://app?vid=e537c2ea-71c4-469c-a15b-b6f2420bac86"},"vehicle_type_id":"4","last_reported":1723216162,"current_range_meters":16800,"station_id":"ce4bhch2rcd13ifvqeug","pricing_plan_id":"cebpf4jnsgd1na2vs0mg"},{"bike_id":"fd8e5c21-cacb-498d-8901-7af76c742931","system_id":"levelo_inurba_marseille","lat":43.28617,"lon":5.35101,"is_reserved":false,"is_disabled":false,"rental_uris":{"android":"levelo://app?vid=fd8e5c21-cacb-498d-8901-7af76c742931","ios":"levelo://app?vid=fd8e5c21-cacb-498d-8901-7af76c742931"},"vehicle_type_id":"4","last_reported":1723216162,"current_range_meters":0,"station_id":"ce4bhch2rcd13ifvqeug","pricing_plan_id":"cebpf4jnsgd1na2vs0mg"},{"bike_id":"ac25efd5-73ec-4e60-9e01-4d37036a864f","system_id":"levelo_inurba_marseille","lat":43.285856,"lon":5.350771,"is_reserved":false,"is_disabled":false,"rental_uris":{"android":"levelo://app?vid=ac25efd5-73ec-4e60-9e01-4d37036a864f","ios":"levelo://app?vid=ac25efd5-73ec-4e60-9e01-4d37036a864f"},"vehicle_type_id":"4","last_reported":1723216162,"current_range_meters":8800,"station_id":"ce4bhch2rcd13ifvqeug","pricing_plan_id":"cebpf4jnsgd1na2vs0mg"},{"bike_id":"d053a4e5-6443-4dfd-b416-980485d96149","system_id":"levelo_inurba_marseille","lat":43.286172,"lon":5.350962,"is_reserved":false,"is_disabled":false,"rental_uris":{"android":"levelo://app?vid=d053a4e5-6443-4dfd-b416-980485d96149","ios":"levelo://app?vid=d053a4e5-6443-4dfd-b416-980485d96149"},"vehicle_type_id":"4","last_reported":1723216162,"current_range_meters":8400,"station_id":"ce4bhch2rcd13ifvqeug","pricing_plan_id":"cebpf4jnsgd1na2vs0mg"},{"bike_id":"39c6f451-b979-4085-be76-b7bc3bd42a82","system_id":"levelo_inurba_marseille","lat":43.28614,"lon":5.35106,"is_reserved":false,"is_disabled":false,"rental_uris":{"android":"levelo://app?vid=39c6f451-b979-4085-be76-b7bc3bd42a82","ios":"levelo://app?vid=39c6f451-b979-4085-be76-b7bc3bd42a82"},"vehicle_type_id":"4","last_reported":1723216162,"current_range_meters":12000,"station_id":"ce4bhch2rcd13ifvqeug","pricing_plan_id":"cebpf4jnsgd1na2vs0mg"},{"bike_id":"b09223ea-879b-4127-b783-ee5cc086069d","system_id":"levelo_inurba_marseille","lat":43.285856,"lon":5.350771,"is_reserved":false,"is_disabled":false,"rental_uris":{"android":"levelo://app?vid=b09223ea-879b-4127-b783-ee5cc086069d","ios":"levelo://app?vid=b09223ea-879b-4127-b783-ee5cc086069d"},"vehicle_type_id":"4","last_reported":1723216162,"current_range_meters":12800,"station_id":"ce4bhch2rcd13ifvqeug","pricing_plan_id":"cebpf4jnsgd1na2vs0mg"},{"bike_id":"3e5a0115-e938-41f7-bd11-d15156a412db","system_id":"levelo_inurba_marseille","lat":43.28611,"lon":5.35101,"is_reserved":false,"is_disabled":false,"rental_uris":{"android":"levelo://app?vid=3e5a0115-e938-41f7-bd11-d15156a412db","ios":"levelo://app?vid=3e5a0115-e938-41f7-bd11-d15156a412db"},"vehicle_type_id":"4","last_reported":1723216162,"current_range_meters":10800,"station_id":"ce4bhch2rcd13ifvqeug","pricing_plan_id":"cebpf4jnsgd1na2vs0mg"},{"bike_id":"32c18c5a-025f-4d43-9941-54d1fbb75192","system_id":"levelo_inurba_marseille","lat":43.2861,"lon":5.35104,"is_reserved":false,"is_disabled":false,"rental_uris":{"android":"levelo://app?vid=32c18c5a-025f-4d43-9941-54d1fbb75192","ios":"levelo://app?vid=32c18c5a-025f-4d43-9941-54d1fbb75192"},"vehicle_type_id":"4","last_reported":1723216162,"current_range_meters":21600,"station_id":"ce4bhch2rcd13ifvqeug","pricing_plan_id":"cebpf4jnsgd1na2vs0mg"},{"bike_id":"c0288a9f-468f-45e3-9753-7f48a7e640c8","system_id":"levelo_inurba_marseille","lat":43.28605,"lon":5.35103,"is_reserved":false,"is_disabled":false,"rental_uris":{"android":"levelo://app?vid=c0288a9f-468f-45e3-9753-7f48a7e640c8","ios":"levelo://app?vid=c0288a9f-468f-45e3-9753-7f48a7e640c8"},"vehicle_type_id":"4","last_reported":1723216162,"current_range_meters":400,"station_id":"ce4bhch2rcd13ifvqeug","pricing_plan_id":"cebpf4jnsgd1na2vs0mg"},{"bike_id":"4029c9a8-77b3-47d6-a510-0912f5a0ddb4","system_id":"levelo_inurba_marseille","lat":43.283998,"lon":5.375062,"is_reserved":false,"is_disabled":false,"rental_uris":{"android":"levelo://app?vid=4029c9a8-77b3-47d6-a510-0912f5a0ddb4","ios":"levelo://app?vid=4029c9a8-77b3-47d6-a510-0912f5a0ddb4"},"vehicle_type_id":"4","last_reported":1723216162,"current_range_meters":22400,"station_id":"ce4bh412rcd13ifvqds0","pricing_plan_id":"cebpf4jnsgd1na2vs0mg"},{"bike_id":"9fb6d7d3-940f-4616-804d-187ea0f0de55","system_id":"levelo_inurba_marseille","lat":43.283998,"lon":5.375062,"is_reserved":false,"is_disabled":false,"rental_uris":{"android":"levelo://app?vid=9fb6d7d3-940f-4616-804d-187ea0f0de55","ios":"levelo://app?vid=9fb6d7d3-940f-4616-804d-187ea0f0de55"},"vehicle_type_id":"4","last_reported":1723216162,"current_range_meters":8400,"station_id":"ce4bh412rcd13ifvqds0","pricing_plan_id":"cebpf4jnsgd1na2vs0mg"},{"bike_id":"890c77a3-0698-440d-88e1-5d9fe61e6766","system_id":"levelo_inurba_marseille","lat":43.283998,"lon":5.375062,"is_reserved":false,"is_disabled":false,"rental_uris":{"android":"levelo://app?vid=890c77a3-0698-440d-88e1-5d9fe61e6766","ios":"levelo://app?vid=890c77a3-0698-440d-88e1-5d9fe61e6766"},"vehicle_type_id":"4","last_reported":1723216162,"current_range_meters":23200,"station_id":"ce4bh412rcd13ifvqds0","pricing_plan_id":"cebpf4jnsgd1na2vs0mg"},{"bike_id":"ceefb403-5a23-4c47-814e-d30459cf4fd8","system_id":"levelo_inurba_marseille","lat":43.28681,"lon":5.38662,"is_reserved":false,"is_disabled":false,"rental_uris":{"android":"levelo://app?vid=ceefb403-5a23-4c47-814e-d30459cf4fd8","ios":"levelo://app?vid=ceefb403-5a23-4c47-814e-d30459cf4fd8"},"vehicle_type_id":"4","last_reported":1723216162,"current_range_meters":0,"station_id":"ce4bh492rcd13ifvqdug","pricing_plan_id":"cebpf4jnsgd1na2vs0mg"},{"bike_id":"773ecc47-5b3c-465b-804e-c4fb3daf2981","system_id":"levelo_inurba_marseille","lat":43.286595,"lon":5.386795,"is_reserved":false,"is_disabled":false,"rental_uris":{"android":"levelo://app?vid=773ecc47-5b3c-465b-804e-c4fb3daf2981","ios":"levelo://app?vid=773ecc47-5b3c-465b-804e-c4fb3daf2981"},"vehicle_type_id":"4","last_reported":1723216162,"current_range_meters":0,"station_id":"ce4bh492rcd13ifvqdug","pricing_plan_id":"cebpf4jnsgd1na2vs0mg"},{"bike_id":"93171d57-4db2-4ec7-918c-6edcbd251b6a","system_id":"levelo_inurba_marseille","lat":43.33717,"lon":5.391857,"is_reserved":false,"is_disabled":false,"rental_uris":{"android":"levelo://app?vid=93171d57-4db2-4ec7-918c-6edcbd251b6a","ios":"levelo://app?vid=93171d57-4db2-4ec7-918c-6edcbd251b6a"},"vehicle_type_id":"4","last_reported":1723216162,"current_range_meters":31200,"station_id":"ce4bhr92rcd13ifvqhsg","pricing_plan_id":"cebpf4jnsgd1na2vs0mg"},{"bike_id":"2865c236-3cd1-404b-9a7c-9157ed442e57","system_id":"levelo_inurba_marseille","lat":43.28488,"lon":5.38416,"is_reserved":false,"is_disabled":false,"rental_uris":{"android":"levelo://app?vid=2865c236-3cd1-404b-9a7c-9157ed442e57","ios":"levelo://app?vid=2865c236-3cd1-404b-9a7c-9157ed442e57"},"vehicle_type_id":"4","last_reported":1723216162,"current_range_meters":30800,"station_id":"ce4bh512rcd13ifvqe3g","pricing_plan_id":"cebpf4jnsgd1na2vs0mg"},{"bike_id":"076d049a-1d06-4924-b580-4c1871ba6f42","system_id":"levelo_inurba_marseille","lat":43.28429,"lon":5.34993,"is_reserved":false,"is_disabled":false,"rental_uris":{"android":"levelo://app?vid=076d049a-1d06-4924-b580-4c1871ba6f42","ios":"levelo://app?vid=076d049a-1d06-4924-b580-4c1871ba6f42"},"vehicle_type_id":"4","last_reported":1723216162,"current_range_meters":14000,"station_id":"ce4bhbh2rcd13ifvqepg","pricing_plan_id":"cebpf4jnsgd1na2vs0mg"},{"bike_id":"693ba164-e501-47ad-b9ef-1216f2b1f1db","system_id":"levelo_inurba_marseille","lat":43.28427,"lon":5.34999,"is_reserved":false,"is_disabled":false,"rental_uris":{"android":"levelo://app?vid=693ba164-e501-47ad-b9ef-1216f2b1f1db","ios":"levelo://app?vid=693ba164-e501-47ad-b9ef-1216f2b1f1db"},"vehicle_type_id":"4","last_reported":1723216162,"current_range_meters":27600,"station_id":"ce4bhbh2rcd13ifvqepg","pricing_plan_id":"cebpf4jnsgd1na2vs0mg"},{"bike_id":"a5f85aa2-2644-44a6-8681-c75b0b83339e","system_id":"levelo_inurba_marseille","lat":43.28427,"lon":5.34995,"is_reserved":false,"is_disabled":false,"rental_uris":{"android":"levelo://app?vid=a5f85aa2-2644-44a6-8681-c75b0b83339e","ios":"levelo://app?vid=a5f85aa2-2644-44a6-8681-c75b0b83339e"},"vehicle_type_id":"4","last_reported":1723216162,"current_range_meters":29600,"station_id":"ce4bhbh2rcd13ifvqepg","pricing_plan_id":"cebpf4jnsgd1na2vs0mg"},{"bike_id":"3512f23c-ed55-4b8b-a447-0d0a7ceee6b0","system_id":"levelo_inurba_marseille","lat":43.284308,"lon":5.34982,"is_reserved":false,"is_disabled":false,"rental_uris":{"android":"levelo://app?vid=3512f23c-ed55-4b8b-a447-0d0a7ceee6b0","ios":"levelo://app?vid=3512f23c-ed55-4b8b-a447-0d0a7ceee6b0"},"vehicle_type_id":"4","last_reported":1723216162,"current_range_meters":26000,"station_id":"ce4bhbh2rcd13ifvqepg","pricing_plan_id":"cebpf4jnsgd1na2vs0mg"},{"bike_id":"18ea3a9e-92f8-4058-9428-56b683165226","system_id":"levelo_inurba_marseille","lat":43.28427,"lon":5.34993,"is_reserved":false,"is_disabled":false,"rental_uris":{"android":"levelo://app?vid=18ea3a9e-92f8-4058-9428-56b683165226","ios":"levelo://app?vid=18ea3a9e-92f8-4058-9428-56b683165226"},"vehicle_type_id":"4","last_reported":1723216162,"current_range_meters":24000,"station_id":"ce4bhbh2rcd13ifvqepg","pricing_plan_id":"cebpf4jnsgd1na2vs0mg"},{"bike_id":"5cb6360d-2404-4efb-8a81-27b9fadc8cbf","system_id":"levelo_inurba_marseille","lat":43.28427,"lon":5.34993,"is_reserved":false,"is_disabled":false,"rental_uris":{"android":"levelo://app?vid=5cb6360d-2404-4efb-8a81-27b9fadc8cbf","ios":"levelo://app?vid=5cb6360d-2404-4efb-8a81-27b9fadc8cbf"},"vehicle_type_id":"4","last_reported":1723216162,"current_range_meters":17200,"station_id":"ce4bhbh2rcd13ifvqepg","pricing_plan_id":"cebpf4jnsgd1na2vs0mg"},{"bike_id":"0e4a147c-e0d8-41d6-8061-2b171dccd251","system_id":"levelo_inurba_marseille","lat":43.28428,"lon":5.34989,"is_reserved":false,"is_disabled":false,"rental_uris":{"android":"levelo://app?vid=0e4a147c-e0d8-41d6-8061-2b171dccd251","ios":"levelo://app?vid=0e4a147c-e0d8-41d6-8061-2b171dccd251"},"vehicle_type_id":"4","last_reported":1723216162,"current_range_meters":13600,"station_id":"ce4bhbh2rcd13ifvqepg","pricing_plan_id":"cebpf4jnsgd1na2vs0mg"},{"bike_id":"ffd4a1ef-0ce0-46c3-8e80-a3c8b1fff07e","system_id":"levelo_inurba_marseille","lat":43.284219,"lon":5.3497,"is_reserved":false,"is_disabled":false,"rental_uris":{"android":"levelo://app?vid=ffd4a1ef-0ce0-46c3-8e80-a3c8b1fff07e","ios":"levelo://app?vid=ffd4a1ef-0ce0-46c3-8e80-a3c8b1fff07e"},"vehicle_type_id":"4","last_reported":1723216162,"current_range_meters":28000,"station_id":"ce4bhbh2rcd13ifvqepg","pricing_plan_id":"cebpf4jnsgd1na2vs0mg"},{"bike_id":"14d55caf-cda7-4a0a-8a0b-aa9fe424fef4","system_id":"levelo_inurba_marseille","lat":43.28422,"lon":5.34997,"is_reserved":false,"is_disabled":false,"rental_uris":{"android":"levelo://app?vid=14d55caf-cda7-4a0a-8a0b-aa9fe424fef4","ios":"levelo://app?vid=14d55caf-cda7-4a0a-8a0b-aa9fe424fef4"},"vehicle_type_id":"4","last_reported":1723216162,"current_range_meters":14800,"station_id":"ce4bhbh2rcd13ifvqepg","pricing_plan_id":"cebpf4jnsgd1na2vs0mg"},{"bike_id":"b4c16bf6-c674-4db2-b6cb-b83c8f6aeccd","system_id":"levelo_inurba_marseille","lat":43.284776,"lon":5.385603,"is_reserved":false,"is_disabled":false,"rental_uris":{"android":"levelo://app?vid=b4c16bf6-c674-4db2-b6cb-b83c8f6aeccd","ios":"levelo://app?vid=b4c16bf6-c674-4db2-b6cb-b83c8f6aeccd"},"vehicle_type_id":"4","last_reported":1723216162,"current_range_meters":6800,"station_id":"ce4bh8p2rcd13ifvqeb0","pricing_plan_id":"cebpf4jnsgd1na2vs0mg"},{"bike_id":"1533b6e9-c0ab-407b-a9f3-537639e2b314","system_id":"levelo_inurba_marseille","lat":43.28424,"lon":5.34987,"is_reserved":false,"is_disabled":false,"rental_uris":{"android":"levelo://app?vid=1533b6e9-c0ab-407b-a9f3-537639e2b314","ios":"levelo://app?vid=1533b6e9-c0ab-407b-a9f3-537639e2b314"},"vehicle_type_id":"4","last_reported":1723216162,"current_range_meters":13200,"station_id":"ce4bhbh2rcd13ifvqepg","pricing_plan_id":"cebpf4jnsgd1na2vs0mg"},{"bike_id":"12e4675d-646e-4db7-80cd-badf54fc2c47","system_id":"levelo_inurba_marseille","lat":43.28422,"lon":5.3499,"is_reserved":false,"is_disabled":false,"rental_uris":{"android":"levelo://app?vid=12e4675d-646e-4db7-80cd-badf54fc2c47","ios":"levelo://app?vid=12e4675d-646e-4db7-80cd-badf54fc2c47"},"vehicle_type_id":"4","last_reported":1723216162,"current_range_meters":5200,"station_id":"ce4bhbh2rcd13ifvqepg","pricing_plan_id":"cebpf4jnsgd1na2vs0mg"},{"bike_id":"09ead91c-9239-4ab2-91fa-18155103e147","system_id":"levelo_inurba_marseille","lat":43.284219,"lon":5.3497,"is_reserved":false,"is_disabled":false,"rental_uris":{"android":"levelo://app?vid=09ead91c-9239-4ab2-91fa-18155103e147","ios":"levelo://app?vid=09ead91c-9239-4ab2-91fa-18155103e147"},"vehicle_type_id":"4","last_reported":1723216162,"current_range_meters":22800,"station_id":"ce4bhbh2rcd13ifvqepg","pricing_plan_id":"cebpf4jnsgd1na2vs0mg"},{"bike_id":"19e2ae64-2f55-4068-bcaa-2b8315bde617","system_id":"levelo_inurba_marseille","lat":43.28422,"lon":5.34985,"is_reserved":false,"is_disabled":false,"rental_uris":{"android":"levelo://app?vid=19e2ae64-2f55-4068-bcaa-2b8315bde617","ios":"levelo://app?vid=19e2ae64-2f55-4068-bcaa-2b8315bde617"},"vehicle_type_id":"4","last_reported":1723216162,"current_range_meters":6800,"station_id":"ce4bhbh2rcd13ifvqepg","pricing_plan_id":"cebpf4jnsgd1na2vs0mg"},{"bike_id":"627a13b3-77f6-4f43-93e7-d2a074f353a7","system_id":"levelo_inurba_marseille","lat":43.284221,"lon":5.349837,"is_reserved":false,"is_disabled":false,"rental_uris":{"android":"levelo://app?vid=627a13b3-77f6-4f43-93e7-d2a074f353a7","ios":"levelo://app?vid=627a13b3-77f6-4f43-93e7-d2a074f353a7"},"vehicle_type_id":"4","last_reported":1723216162,"current_range_meters":2000,"station_id":"","pricing_plan_id":"cebpf4jnsgd1na2vs0mg"},{"bike_id":"b1e910ee-6dec-48e8-8a31-a6486e554c35","system_id":"levelo_inurba_marseille","lat":43.284219,"lon":5.3497,"is_reserved":false,"is_disabled":false,"rental_uris":{"android":"levelo://app?vid=b1e910ee-6dec-48e8-8a31-a6486e554c35","ios":"levelo://app?vid=b1e910ee-6dec-48e8-8a31-a6486e554c35"},"vehicle_type_id":"4","last_reported":1723216162,"current_range_meters":12000,"station_id":"ce4bhbh2rcd13ifvqepg","pricing_plan_id":"cebpf4jnsgd1na2vs0mg"},{"bike_id":"58d38985-f27f-4af1-8268-8ffffe2e6fb5","system_id":"levelo_inurba_marseille","lat":43.284219,"lon":5.3497,"is_reserved":false,"is_disabled":false,"rental_uris":{"android":"levelo://app?vid=58d38985-f27f-4af1-8268-8ffffe2e6fb5","ios":"levelo://app?vid=58d38985-f27f-4af1-8268-8ffffe2e6fb5"},"vehicle_type_id":"4","last_reported":1723216162,"current_range_meters":30000,"station_id":"ce4bhbh2rcd13ifvqepg","pricing_plan_id":"cebpf4jnsgd1na2vs0mg"},{"bike_id":"5381df68-db6a-47ce-b01e-9bc7a2b000b8","system_id":"levelo_inurba_marseille","lat":43.284219,"lon":5.3497,"is_reserved":false,"is_disabled":false,"rental_uris":{"android":"levelo://app?vid=5381df68-db6a-47ce-b01e-9bc7a2b000b8","ios":"levelo://app?vid=5381df68-db6a-47ce-b01e-9bc7a2b000b8"},"vehicle_type_id":"4","last_reported":1723216162,"current_range_meters":28800,"station_id":"ce4bhbh2rcd13ifvqepg","pricing_plan_id":"cebpf4jnsgd1na2vs0mg"},{"bike_id":"b223c670-d3a4-4ed4-805d-512b8c5d0dc7","system_id":"levelo_inurba_marseille","lat":43.28419,"lon":5.34986,"is_reserved":false,"is_disabled":false,"rental_uris":{"android":"levelo://app?vid=b223c670-d3a4-4ed4-805d-512b8c5d0dc7","ios":"levelo://app?vid=b223c670-d3a4-4ed4-805d-512b8c5d0dc7"},"vehicle_type_id":"4","last_reported":1723216162,"current_range_meters":11600,"station_id":"ce4bhbh2rcd13ifvqepg","pricing_plan_id":"cebpf4jnsgd1na2vs0mg"},{"bike_id":"12690711-30bf-432d-8d42-0fd8f3a5f952","system_id":"levelo_inurba_marseille","lat":43.2842,"lon":5.34982,"is_reserved":false,"is_disabled":false,"rental_uris":{"android":"levelo://app?vid=12690711-30bf-432d-8d42-0fd8f3a5f952","ios":"levelo://app?vid=12690711-30bf-432d-8d42-0fd8f3a5f952"},"vehicle_type_id":"4","last_reported":1723216162,"current_range_meters":18400,"station_id":"ce4bhbh2rcd13ifvqepg","pricing_plan_id":"cebpf4jnsgd1na2vs0mg"},{"bike_id":"eda6edfe-7265-4964-b194-1a428c890a95","system_id":"levelo_inurba_marseille","lat":43.284219,"lon":5.3497,"is_reserved":false,"is_disabled":false,"rental_uris":{"android":"levelo://app?vid=eda6edfe-7265-4964-b194-1a428c890a95","ios":"levelo://app?vid=eda6edfe-7265-4964-b194-1a428c890a95"},"vehicle_type_id":"4","last_reported":1723216162,"current_range_meters":13600,"station_id":"ce4bhbh2rcd13ifvqepg","pricing_plan_id":"cebpf4jnsgd1na2vs0mg"},{"bike_id":"4ace50f1-1dfd-4eb9-b2d4-09db31ac3b36","system_id":"levelo_inurba_marseille","lat":43.28417,"lon":5.3499,"is_reserved":false,"is_disabled":false,"rental_uris":{"android":"levelo://app?vid=4ace50f1-1dfd-4eb9-b2d4-09db31ac3b36","ios":"levelo://app?vid=4ace50f1-1dfd-4eb9-b2d4-09db31ac3b36"},"vehicle_type_id":"4","last_reported":1723216162,"current_range_meters":18000,"station_id":"ce4bhbh2rcd13ifvqepg","pricing_plan_id":"cebpf4jnsgd1na2vs0mg"},{"bike_id":"8bca1684-e128-4190-b0fe-2222c3fd7954","system_id":"levelo_inurba_marseille","lat":43.284217,"lon":5.349697,"is_reserved":false,"is_disabled":false,"rental_uris":{"android":"levelo://app?vid=8bca1684-e128-4190-b0fe-2222c3fd7954","ios":"levelo://app?vid=8bca1684-e128-4190-b0fe-2222c3fd7954"},"vehicle_type_id":"4","last_reported":1723216162,"current_range_meters":12800,"station_id":"ce4bhbh2rcd13ifvqepg","pricing_plan_id":"cebpf4jnsgd1na2vs0mg"},{"bike_id":"6e2f4db3-f6e3-41e3-a7be-d05127984c2b","system_id":"levelo_inurba_marseille","lat":43.284219,"lon":5.3497,"is_reserved":false,"is_disabled":false,"rental_uris":{"android":"levelo://app?vid=6e2f4db3-f6e3-41e3-a7be-d05127984c2b","ios":"levelo://app?vid=6e2f4db3-f6e3-41e3-a7be-d05127984c2b"},"vehicle_type_id":"4","last_reported":1723216162,"current_range_meters":15600,"station_id":"ce4bhbh2rcd13ifvqepg","pricing_plan_id":"cebpf4jnsgd1na2vs0mg"},{"bike_id":"8c36b85b-2e55-4322-94ce-7caa700e7bd3","system_id":"levelo_inurba_marseille","lat":43.28417,"lon":5.34987,"is_reserved":false,"is_disabled":false,"rental_uris":{"android":"levelo://app?vid=8c36b85b-2e55-4322-94ce-7caa700e7bd3","ios":"levelo://app?vid=8c36b85b-2e55-4322-94ce-7caa700e7bd3"},"vehicle_type_id":"4","last_reported":1723216162,"current_range_meters":17200,"station_id":"ce4bhbh2rcd13ifvqepg","pricing_plan_id":"cebpf4jnsgd1na2vs0mg"},{"bike_id":"419734ed-edca-402f-a9f9-90b80319b6d0","system_id":"levelo_inurba_marseille","lat":43.284219,"lon":5.3497,"is_reserved":false,"is_disabled":false,"rental_uris":{"android":"levelo://app?vid=419734ed-edca-402f-a9f9-90b80319b6d0","ios":"levelo://app?vid=419734ed-edca-402f-a9f9-90b80319b6d0"},"vehicle_type_id":"4","last_reported":1723216162,"current_range_meters":31200,"station_id":"ce4bhbh2rcd13ifvqepg","pricing_plan_id":"cebpf4jnsgd1na2vs0mg"},{"bike_id":"893e2ff1-b27a-4c77-a686-4046c5698792","system_id":"levelo_inurba_marseille","lat":43.28414,"lon":5.34996,"is_reserved":false,"is_disabled":false,"rental_uris":{"android":"levelo://app?vid=893e2ff1-b27a-4c77-a686-4046c5698792","ios":"levelo://app?vid=893e2ff1-b27a-4c77-a686-4046c5698792"},"vehicle_type_id":"4","last_reported":1723216162,"current_range_meters":26400,"station_id":"ce4bhbh2rcd13ifvqepg","pricing_plan_id":"cebpf4jnsgd1na2vs0mg"},{"bike_id":"69b6b449-f4da-47f0-811d-f60d56a2e6a0","system_id":"levelo_inurba_marseille","lat":43.28419,"lon":5.34979,"is_reserved":false,"is_disabled":false,"rental_uris":{"android":"levelo://app?vid=69b6b449-f4da-47f0-811d-f60d56a2e6a0","ios":"levelo://app?vid=69b6b449-f4da-47f0-811d-f60d56a2e6a0"},"vehicle_type_id":"4","last_reported":1723216162,"current_range_meters":4400,"station_id":"ce4bhbh2rcd13ifvqepg","pricing_plan_id":"cebpf4jnsgd1na2vs0mg"},{"bike_id":"8fb6bc8d-dfab-4d9e-843c-1bb5212707cc","system_id":"levelo_inurba_marseille","lat":43.284219,"lon":5.3497,"is_reserved":false,"is_disabled":false,"rental_uris":{"android":"levelo://app?vid=8fb6bc8d-dfab-4d9e-843c-1bb5212707cc","ios":"levelo://app?vid=8fb6bc8d-dfab-4d9e-843c-1bb5212707cc"},"vehicle_type_id":"4","last_reported":1723216162,"current_range_meters":29200,"station_id":"ce4bhbh2rcd13ifvqepg","pricing_plan_id":"cebpf4jnsgd1na2vs0mg"},{"bike_id":"2cb93a13-2c15-4438-a06b-5f7d619f4418","system_id":"levelo_inurba_marseille","lat":43.284138,"lon":5.349918,"is_reserved":false,"is_disabled":false,"rental_uris":{"android":"levelo://app?vid=2cb93a13-2c15-4438-a06b-5f7d619f4418","ios":"levelo://app?vid=2cb93a13-2c15-4438-a06b-5f7d619f4418"},"vehicle_type_id":"4","last_reported":1723216162,"current_range_meters":24000,"station_id":"ce4bhbh2rcd13ifvqepg","pricing_plan_id":"cebpf4jnsgd1na2vs0mg"},{"bike_id":"c92a65ae-d928-406b-b465-b00be7311d98","system_id":"levelo_inurba_marseille","lat":43.28414,"lon":5.34991,"is_reserved":false,"is_disabled":false,"rental_uris":{"android":"levelo://app?vid=c92a65ae-d928-406b-b465-b00be7311d98","ios":"levelo://app?vid=c92a65ae-d928-406b-b465-b00be7311d98"},"vehicle_type_id":"4","last_reported":1723216162,"current_range_meters":13600,"station_id":"ce4bhbh2rcd13ifvqepg","pricing_plan_id":"cebpf4jnsgd1na2vs0mg"},{"bike_id":"a0c4298d-d39f-45d7-9350-c9ec007ff730","system_id":"levelo_inurba_marseille","lat":43.284219,"lon":5.3497,"is_reserved":false,"is_disabled":false,"rental_uris":{"android":"levelo://app?vid=a0c4298d-d39f-45d7-9350-c9ec007ff730","ios":"levelo://app?vid=a0c4298d-d39f-45d7-9350-c9ec007ff730"},"vehicle_type_id":"4","last_reported":1723216162,"current_range_meters":21600,"station_id":"ce4bhbh2rcd13ifvqepg","pricing_plan_id":"cebpf4jnsgd1na2vs0mg"},{"bike_id":"cdb74824-7f3e-4be7-b294-12559bed1baf","system_id":"levelo_inurba_marseille","lat":43.28417,"lon":5.34981,"is_reserved":false,"is_disabled":false,"rental_uris":{"android":"levelo://app?vid=cdb74824-7f3e-4be7-b294-12559bed1baf","ios":"levelo://app?vid=cdb74824-7f3e-4be7-b294-12559bed1baf"},"vehicle_type_id":"4","last_reported":1723216162,"current_range_meters":800,"station_id":"ce4bhbh2rcd13ifvqepg","pricing_plan_id":"cebpf4jnsgd1na2vs0mg"},{"bike_id":"3d1709e8-5c47-45b7-b795-8c81e9886aa5","system_id":"levelo_inurba_marseille","lat":43.284219,"lon":5.3497,"is_reserved":false,"is_disabled":false,"rental_uris":{"android":"levelo://app?vid=3d1709e8-5c47-45b7-b795-8c81e9886aa5","ios":"levelo://app?vid=3d1709e8-5c47-45b7-b795-8c81e9886aa5"},"vehicle_type_id":"4","last_reported":1723216162,"current_range_meters":31200,"station_id":"ce4bhbh2rcd13ifvqepg","pricing_plan_id":"cebpf4jnsgd1na2vs0mg"},{"bike_id":"8112c19e-ccc9-44dd-a50b-8001bb9d1561","system_id":"levelo_inurba_marseille","lat":43.28416,"lon":5.34983,"is_reserved":false,"is_disabled":false,"rental_uris":{"android":"levelo://app?vid=8112c19e-ccc9-44dd-a50b-8001bb9d1561","ios":"levelo://app?vid=8112c19e-ccc9-44dd-a50b-8001bb9d1561"},"vehicle_type_id":"4","last_reported":1723216162,"current_range_meters":18000,"station_id":"ce4bhbh2rcd13ifvqepg","pricing_plan_id":"cebpf4jnsgd1na2vs0mg"},{"bike_id":"b6351c32-39e2-465e-9880-f65001c671d6","system_id":"levelo_inurba_marseille","lat":43.284217,"lon":5.349697,"is_reserved":false,"is_disabled":false,"rental_uris":{"android":"levelo://app?vid=b6351c32-39e2-465e-9880-f65001c671d6","ios":"levelo://app?vid=b6351c32-39e2-465e-9880-f65001c671d6"},"vehicle_type_id":"4","last_reported":1723216162,"current_range_meters":15600,"station_id":"ce4bhbh2rcd13ifvqepg","pricing_plan_id":"cebpf4jnsgd1na2vs0mg"},{"bike_id":"4c2fc320-175d-45c2-b6e3-389fe8882b7a","system_id":"levelo_inurba_marseille","lat":43.284217,"lon":5.349697,"is_reserved":false,"is_disabled":false,"rental_uris":{"android":"levelo://app?vid=4c2fc320-175d-45c2-b6e3-389fe8882b7a","ios":"levelo://app?vid=4c2fc320-175d-45c2-b6e3-389fe8882b7a"},"vehicle_type_id":"4","last_reported":1723216162,"current_range_meters":26400,"station_id":"ce4bhbh2rcd13ifvqepg","pricing_plan_id":"cebpf4jnsgd1na2vs0mg"},{"bike_id":"86eeae07-bfcf-494c-98f0-35dad5e18bdd","system_id":"levelo_inurba_marseille","lat":43.284219,"lon":5.3497,"is_reserved":false,"is_disabled":false,"rental_uris":{"android":"levelo://app?vid=86eeae07-bfcf-494c-98f0-35dad5e18bdd","ios":"levelo://app?vid=86eeae07-bfcf-494c-98f0-35dad5e18bdd"},"vehicle_type_id":"4","last_reported":1723216162,"current_range_meters":30400,"station_id":"ce4bhbh2rcd13ifvqepg","pricing_plan_id":"cebpf4jnsgd1na2vs0mg"},{"bike_id":"46cee240-c796-45ed-b739-c753db7eac2f","system_id":"levelo_inurba_marseille","lat":43.284219,"lon":5.3497,"is_reserved":false,"is_disabled":false,"rental_uris":{"android":"levelo://app?vid=46cee240-c796-45ed-b739-c753db7eac2f","ios":"levelo://app?vid=46cee240-c796-45ed-b739-c753db7eac2f"},"vehicle_type_id":"4","last_reported":1723216162,"current_range_meters":23600,"station_id":"ce4bhbh2rcd13ifvqepg","pricing_plan_id":"cebpf4jnsgd1na2vs0mg"},{"bike_id":"d18c58ea-bd2b-415b-b7f1-ceff992ddd06","system_id":"levelo_inurba_marseille","lat":43.284219,"lon":5.3497,"is_reserved":false,"is_disabled":false,"rental_uris":{"android":"levelo://app?vid=d18c58ea-bd2b-415b-b7f1-ceff992ddd06","ios":"levelo://app?vid=d18c58ea-bd2b-415b-b7f1-ceff992ddd06"},"vehicle_type_id":"4","last_reported":1723216162,"current_range_meters":29600,"station_id":"ce4bhbh2rcd13ifvqepg","pricing_plan_id":"cebpf4jnsgd1na2vs0mg"},{"bike_id":"d89b611f-3312-4eab-be50-f09e5e60a495","system_id":"levelo_inurba_marseille","lat":43.284214,"lon":5.349706,"is_reserved":false,"is_disabled":false,"rental_uris":{"android":"levelo://app?vid=d89b611f-3312-4eab-be50-f09e5e60a495","ios":"levelo://app?vid=d89b611f-3312-4eab-be50-f09e5e60a495"},"vehicle_type_id":"4","last_reported":1723216162,"current_range_meters":20000,"station_id":"ce4bhbh2rcd13ifvqepg","pricing_plan_id":"cebpf4jnsgd1na2vs0mg"},{"bike_id":"7cadd374-94e4-4cfb-9ea1-e898f7678374","system_id":"levelo_inurba_marseille","lat":43.284146,"lon":5.349854,"is_reserved":false,"is_disabled":false,"rental_uris":{"android":"levelo://app?vid=7cadd374-94e4-4cfb-9ea1-e898f7678374","ios":"levelo://app?vid=7cadd374-94e4-4cfb-9ea1-e898f7678374"},"vehicle_type_id":"4","last_reported":1723216162,"current_range_meters":14000,"station_id":"ce4bhbh2rcd13ifvqepg","pricing_plan_id":"cebpf4jnsgd1na2vs0mg"},{"bike_id":"f3e24bdd-1430-4d06-8dc6-b2a7c1ca9b9b","system_id":"levelo_inurba_marseille","lat":43.284214,"lon":5.349706,"is_reserved":false,"is_disabled":false,"rental_uris":{"android":"levelo://app?vid=f3e24bdd-1430-4d06-8dc6-b2a7c1ca9b9b","ios":"levelo://app?vid=f3e24bdd-1430-4d06-8dc6-b2a7c1ca9b9b"},"vehicle_type_id":"4","last_reported":1723216162,"current_range_meters":10800,"station_id":"ce4bhbh2rcd13ifvqepg","pricing_plan_id":"cebpf4jnsgd1na2vs0mg"},{"bike_id":"cbbf447b-9662-473c-ad2e-60545f3473da","system_id":"levelo_inurba_marseille","lat":43.284138,"lon":5.349872,"is_reserved":false,"is_disabled":false,"rental_uris":{"android":"levelo://app?vid=cbbf447b-9662-473c-ad2e-60545f3473da","ios":"levelo://app?vid=cbbf447b-9662-473c-ad2e-60545f3473da"},"vehicle_type_id":"4","last_reported":1723216162,"current_range_meters":27600,"station_id":"ce4bhbh2rcd13ifvqepg","pricing_plan_id":"cebpf4jnsgd1na2vs0mg"},{"bike_id":"16ec1451-6fc2-4ddb-8500-e093eddb3c4e","system_id":"levelo_inurba_marseille","lat":43.284217,"lon":5.349697,"is_reserved":false,"is_disabled":false,"rental_uris":{"android":"levelo://app?vid=16ec1451-6fc2-4ddb-8500-e093eddb3c4e","ios":"levelo://app?vid=16ec1451-6fc2-4ddb-8500-e093eddb3c4e"},"vehicle_type_id":"4","last_reported":1723216162,"current_range_meters":16800,"station_id":"ce4bhbh2rcd13ifvqepg","pricing_plan_id":"cebpf4jnsgd1na2vs0mg"},{"bike_id":"7d0223aa-6991-4b97-a22b-7e7d017d30db","system_id":"levelo_inurba_marseille","lat":43.284219,"lon":5.3497,"is_reserved":false,"is_disabled":false,"rental_uris":{"android":"levelo://app?vid=7d0223aa-6991-4b97-a22b-7e7d017d30db","ios":"levelo://app?vid=7d0223aa-6991-4b97-a22b-7e7d017d30db"},"vehicle_type_id":"4","last_reported":1723216162,"current_range_meters":5600,"station_id":"ce4bhbh2rcd13ifvqepg","pricing_plan_id":"cebpf4jnsgd1na2vs0mg"},{"bike_id":"2c7a90ab-0fd0-49ce-b0cc-3867f0fb7818","system_id":"levelo_inurba_marseille","lat":43.28415,"lon":5.34981,"is_reserved":false,"is_disabled":false,"rental_uris":{"android":"levelo://app?vid=2c7a90ab-0fd0-49ce-b0cc-3867f0fb7818","ios":"levelo://app?vid=2c7a90ab-0fd0-49ce-b0cc-3867f0fb7818"},"vehicle_type_id":"4","last_reported":1723216162,"current_range_meters":12800,"station_id":"ce4bhbh2rcd13ifvqepg","pricing_plan_id":"cebpf4jnsgd1na2vs0mg"},{"bike_id":"609c7512-5cd9-4e32-b45c-a980e8d60cd1","system_id":"levelo_inurba_marseille","lat":43.284217,"lon":5.349697,"is_reserved":false,"is_disabled":false,"rental_uris":{"android":"levelo://app?vid=609c7512-5cd9-4e32-b45c-a980e8d60cd1","ios":"levelo://app?vid=609c7512-5cd9-4e32-b45c-a980e8d60cd1"},"vehicle_type_id":"4","last_reported":1723216162,"current_range_meters":21600,"station_id":"ce4bhbh2rcd13ifvqepg","pricing_plan_id":"cebpf4jnsgd1na2vs0mg"},{"bike_id":"9b1d42ae-acd2-497c-b3fb-f68ba62530bf","system_id":"levelo_inurba_marseille","lat":43.28413,"lon":5.34985,"is_reserved":false,"is_disabled":false,"rental_uris":{"android":"levelo://app?vid=9b1d42ae-acd2-497c-b3fb-f68ba62530bf","ios":"levelo://app?vid=9b1d42ae-acd2-497c-b3fb-f68ba62530bf"},"vehicle_type_id":"4","last_reported":1723216162,"current_range_meters":31200,"station_id":"ce4bhbh2rcd13ifvqepg","pricing_plan_id":"cebpf4jnsgd1na2vs0mg"},{"bike_id":"7f25f42f-9226-4326-a134-badd7a53f00a","system_id":"levelo_inurba_marseille","lat":43.284123,"lon":5.34985,"is_reserved":false,"is_disabled":false,"rental_uris":{"android":"levelo://app?vid=7f25f42f-9226-4326-a134-badd7a53f00a","ios":"levelo://app?vid=7f25f42f-9226-4326-a134-badd7a53f00a"},"vehicle_type_id":"4","last_reported":1723216162,"current_range_meters":21200,"station_id":"ce4bhbh2rcd13ifvqepg","pricing_plan_id":"cebpf4jnsgd1na2vs0mg"},{"bike_id":"a0ef5e47-5f28-4b9a-bdae-b8e7e656774b","system_id":"levelo_inurba_marseille","lat":43.28413,"lon":5.349828,"is_reserved":false,"is_disabled":false,"rental_uris":{"android":"levelo://app?vid=a0ef5e47-5f28-4b9a-bdae-b8e7e656774b","ios":"levelo://app?vid=a0ef5e47-5f28-4b9a-bdae-b8e7e656774b"},"vehicle_type_id":"4","last_reported":1723216162,"current_range_meters":22800,"station_id":"ce4bhbh2rcd13ifvqepg","pricing_plan_id":"cebpf4jnsgd1na2vs0mg"},{"bike_id":"cd5e952a-2de7-44d4-8e5f-9d812e2298ef","system_id":"levelo_inurba_marseille","lat":43.284214,"lon":5.349706,"is_reserved":false,"is_disabled":false,"rental_uris":{"android":"levelo://app?vid=cd5e952a-2de7-44d4-8e5f-9d812e2298ef","ios":"levelo://app?vid=cd5e952a-2de7-44d4-8e5f-9d812e2298ef"},"vehicle_type_id":"4","last_reported":1723216162,"current_range_meters":31200,"station_id":"ce4bhbh2rcd13ifvqepg","pricing_plan_id":"cebpf4jnsgd1na2vs0mg"},{"bike_id":"9586ac5a-3942-4a00-95ef-c0d7f12e81b4","system_id":"levelo_inurba_marseille","lat":43.284217,"lon":5.349697,"is_reserved":false,"is_disabled":false,"rental_uris":{"android":"levelo://app?vid=9586ac5a-3942-4a00-95ef-c0d7f12e81b4","ios":"levelo://app?vid=9586ac5a-3942-4a00-95ef-c0d7f12e81b4"},"vehicle_type_id":"4","last_reported":1723216162,"current_range_meters":12400,"station_id":"ce4bhbh2rcd13ifvqepg","pricing_plan_id":"cebpf4jnsgd1na2vs0mg"},{"bike_id":"1088f428-8b13-4f00-bdca-bce3b4d137ed","system_id":"levelo_inurba_marseille","lat":43.284219,"lon":5.3497,"is_reserved":false,"is_disabled":false,"rental_uris":{"android":"levelo://app?vid=1088f428-8b13-4f00-bdca-bce3b4d137ed","ios":"levelo://app?vid=1088f428-8b13-4f00-bdca-bce3b4d137ed"},"vehicle_type_id":"4","last_reported":1723216162,"current_range_meters":26400,"station_id":"ce4bhbh2rcd13ifvqepg","pricing_plan_id":"cebpf4jnsgd1na2vs0mg"},{"bike_id":"9d98019d-ed0b-4a63-b2e2-ad01a97d63a5","system_id":"levelo_inurba_marseille","lat":43.28411,"lon":5.34985,"is_reserved":false,"is_disabled":false,"rental_uris":{"android":"levelo://app?vid=9d98019d-ed0b-4a63-b2e2-ad01a97d63a5","ios":"levelo://app?vid=9d98019d-ed0b-4a63-b2e2-ad01a97d63a5"},"vehicle_type_id":"4","last_reported":1723216162,"current_range_meters":4800,"station_id":"ce4bhbh2rcd13ifvqepg","pricing_plan_id":"cebpf4jnsgd1na2vs0mg"},{"bike_id":"3d1b350b-25bb-480d-b61e-fd44583b2721","system_id":"levelo_inurba_marseille","lat":43.284217,"lon":5.349697,"is_reserved":false,"is_disabled":false,"rental_uris":{"android":"levelo://app?vid=3d1b350b-25bb-480d-b61e-fd44583b2721","ios":"levelo://app?vid=3d1b350b-25bb-480d-b61e-fd44583b2721"},"vehicle_type_id":"4","last_reported":1723216162,"current_range_meters":21200,"station_id":"ce4bhbh2rcd13ifvqepg","pricing_plan_id":"cebpf4jnsgd1na2vs0mg"},{"bike_id":"28dd8f05-f684-4cfc-8703-f48430815b80","system_id":"levelo_inurba_marseille","lat":43.2841,"lon":5.34982,"is_reserved":false,"is_disabled":false,"rental_uris":{"android":"levelo://app?vid=28dd8f05-f684-4cfc-8703-f48430815b80","ios":"levelo://app?vid=28dd8f05-f684-4cfc-8703-f48430815b80"},"vehicle_type_id":"4","last_reported":1723216162,"current_range_meters":27600,"station_id":"ce4bhbh2rcd13ifvqepg","pricing_plan_id":"cebpf4jnsgd1na2vs0mg"},{"bike_id":"b1ef2f24-bd18-495e-a65a-697e236752f8","system_id":"levelo_inurba_marseille","lat":43.284217,"lon":5.349697,"is_reserved":false,"is_disabled":false,"rental_uris":{"android":"levelo://app?vid=b1ef2f24-bd18-495e-a65a-697e236752f8","ios":"levelo://app?vid=b1ef2f24-bd18-495e-a65a-697e236752f8"},"vehicle_type_id":"4","last_reported":1723216162,"current_range_meters":30000,"station_id":"ce4bhbh2rcd13ifvqepg","pricing_plan_id":"cebpf4jnsgd1na2vs0mg"},{"bike_id":"d5b542e4-8945-4a19-a499-c32763061ff9","system_id":"levelo_inurba_marseille","lat":43.33441,"lon":5.39793,"is_reserved":false,"is_disabled":false,"rental_uris":{"android":"levelo://app?vid=d5b542e4-8945-4a19-a499-c32763061ff9","ios":"levelo://app?vid=d5b542e4-8945-4a19-a499-c32763061ff9"},"vehicle_type_id":"4","last_reported":1723216162,"current_range_meters":800,"station_id":"","pricing_plan_id":"cebpf4jnsgd1na2vs0mg"},{"bike_id":"cc5f563a-9faf-42aa-992e-124e889f04e3","system_id":"levelo_inurba_marseille","lat":43.284217,"lon":5.349697,"is_reserved":false,"is_disabled":false,"rental_uris":{"android":"levelo://app?vid=cc5f563a-9faf-42aa-992e-124e889f04e3","ios":"levelo://app?vid=cc5f563a-9faf-42aa-992e-124e889f04e3"},"vehicle_type_id":"4","last_reported":1723216162,"current_range_meters":15200,"station_id":"ce4bhbh2rcd13ifvqepg","pricing_plan_id":"cebpf4jnsgd1na2vs0mg"},{"bike_id":"ff49c103-56c9-402a-8e31-28a085e3680c","system_id":"levelo_inurba_marseille","lat":43.289363,"lon":5.396322,"is_reserved":false,"is_disabled":false,"rental_uris":{"android":"levelo://app?vid=ff49c103-56c9-402a-8e31-28a085e3680c","ios":"levelo://app?vid=ff49c103-56c9-402a-8e31-28a085e3680c"},"vehicle_type_id":"4","last_reported":1723216162,"current_range_meters":29200,"station_id":"ce4bh3h2rcd13ifvqdn0","pricing_plan_id":"cebpf4jnsgd1na2vs0mg"},{"bike_id":"f6ad0768-42d0-4f5a-80ab-c6baf91932b3","system_id":"levelo_inurba_marseille","lat":43.292801,"lon":5.401182,"is_reserved":false,"is_disabled":false,"rental_uris":{"android":"levelo://app?vid=f6ad0768-42d0-4f5a-80ab-c6baf91932b3","ios":"levelo://app?vid=f6ad0768-42d0-4f5a-80ab-c6baf91932b3"},"vehicle_type_id":"4","last_reported":1723216162,"current_range_meters":0,"station_id":"ce4bh312rcd13ifvqdk0","pricing_plan_id":"cebpf4jnsgd1na2vs0mg"},{"bike_id":"274037fa-9ea9-4478-a370-454e9bd18d45","system_id":"levelo_inurba_marseille","lat":43.309935,"lon":5.4107,"is_reserved":false,"is_disabled":false,"rental_uris":{"android":"levelo://app?vid=274037fa-9ea9-4478-a370-454e9bd18d45","ios":"levelo://app?vid=274037fa-9ea9-4478-a370-454e9bd18d45"},"vehicle_type_id":"4","last_reported":1723216162,"current_range_meters":1200,"station_id":"","pricing_plan_id":"cebpf4jnsgd1na2vs0mg"},{"bike_id":"b4380fb5-f0d6-44f3-9b47-ff4b7a4e9086","system_id":"levelo_inurba_marseille","lat":43.282785,"lon":5.350845,"is_reserved":false,"is_disabled":false,"rental_uris":{"android":"levelo://app?vid=b4380fb5-f0d6-44f3-9b47-ff4b7a4e9086","ios":"levelo://app?vid=b4380fb5-f0d6-44f3-9b47-ff4b7a4e9086"},"vehicle_type_id":"4","last_reported":1723216162,"current_range_meters":15200,"station_id":"ce4bhbp2rcd13ifvqerg","pricing_plan_id":"cebpf4jnsgd1na2vs0mg"},{"bike_id":"8e8115ea-e657-41bc-92f5-24d5779ba84a","system_id":"levelo_inurba_marseille","lat":43.282763,"lon":5.350773,"is_reserved":false,"is_disabled":false,"rental_uris":{"android":"levelo://app?vid=8e8115ea-e657-41bc-92f5-24d5779ba84a","ios":"levelo://app?vid=8e8115ea-e657-41bc-92f5-24d5779ba84a"},"vehicle_type_id":"4","last_reported":1723216162,"current_range_meters":23600,"station_id":"ce4bhbp2rcd13ifvqerg","pricing_plan_id":"cebpf4jnsgd1na2vs0mg"},{"bike_id":"10eca285-3802-4c7a-9ba9-2af3928b6eb0","system_id":"levelo_inurba_marseille","lat":43.28278,"lon":5.35071,"is_reserved":false,"is_disabled":false,"rental_uris":{"android":"levelo://app?vid=10eca285-3802-4c7a-9ba9-2af3928b6eb0","ios":"levelo://app?vid=10eca285-3802-4c7a-9ba9-2af3928b6eb0"},"vehicle_type_id":"4","last_reported":1723216162,"current_range_meters":6800,"station_id":"ce4bhbp2rcd13ifvqerg","pricing_plan_id":"cebpf4jnsgd1na2vs0mg"},{"bike_id":"65ff6c69-cd25-48c6-87f8-8423c4583137","system_id":"levelo_inurba_marseille","lat":43.282757,"lon":5.350773,"is_reserved":false,"is_disabled":false,"rental_uris":{"android":"levelo://app?vid=65ff6c69-cd25-48c6-87f8-8423c4583137","ios":"levelo://app?vid=65ff6c69-cd25-48c6-87f8-8423c4583137"},"vehicle_type_id":"4","last_reported":1723216162,"current_range_meters":18000,"station_id":"ce4bhbp2rcd13ifvqerg","pricing_plan_id":"cebpf4jnsgd1na2vs0mg"},{"bike_id":"c60f05ae-e447-483a-a279-4e0044da7c75","system_id":"levelo_inurba_marseille","lat":43.28277,"lon":5.35072,"is_reserved":false,"is_disabled":false,"rental_uris":{"android":"levelo://app?vid=c60f05ae-e447-483a-a279-4e0044da7c75","ios":"levelo://app?vid=c60f05ae-e447-483a-a279-4e0044da7c75"},"vehicle_type_id":"4","last_reported":1723216162,"current_range_meters":10400,"station_id":"ce4bhbp2rcd13ifvqerg","pricing_plan_id":"cebpf4jnsgd1na2vs0mg"},