{"last_updated":1761117087,"ttl":60,"version":"2.2","data":{"bikes":[{"bike_id":"6fcc3779-7d2a-47fb-a3c6-78f676341dbb","system_id":"levelo_inurba_marseille","lat":43.30372,"lon":5.42486,"is_reserved":false,"is_disabled":false,"rental_uris":{"android":"levelo://app?vid=6fcc3779-7d2a-47fb-a3c6-78f676341dbb","ios":"levelo://app?vid=6fcc3779-7d2a-47fb-a3c6-78f676341dbb"},"vehicle_type_id":"4","last_reported":1761117088,"current_range_meters":2800,"station_id":"ce4bhoh2rcd13ifvqh6g","pricing_plan_id":"cebpf4jnsgd1na2vs0mg"},{"bike_id":"95af6664-c530-428f-ae62-49dbda84fe79","system_id":"levelo_inurba_marseille","lat":43.31366,"lon":5.37927,"is_reserved":false,"is_disabled":false,"rental_uris":{"android":"levelo://app?vid=95af6664-c530-428f-ae62-49dbda84fe79","ios":"levelo://app?vid=95af6664-c530-428f-ae62-49dbda84fe79"},"vehicle_type_id":"4","last_reported":1761117088,"current_range_meters":2800,"station_id":"","pricing_plan_id":"cebpf4jnsgd1na2vs0mg"},{"bike_id":"c037874f-e454-4d1e-9f03-b485b4dbd4f2","system_id":"levelo_inurba_marseille","lat":43.29169,"lon":5.37046,"is_reserved":false,"is_disabled":false,"rental_uris":{"android":"levelo://app?vid=c037874f-e454-4d1e-9f03-b485b4dbd4f2","ios":"levelo://app?vid=c037874f-e454-4d1e-9f03-b485b4dbd4f2"},"vehicle_type_id":"4","last_reported":1761117088,"current_range_meters":2800,"station_id":"","pricing_plan_id":"cebpf4jnsgd1na2vs0mg"},{"bike_id":"4289e160-b688-40b6-8ffd-79adcc0b8094","system_id":"levelo_inurba_marseille","lat":43.26485,"lon":5.39549,"is_reserved":false,"is_disabled":true,"rental_uris":{"android":"levelo://app?vid=4289e160-b688-40b6-8ffd-79adcc0b8094","ios":"levelo://app?vid=4289e160-b688-40b6-8ffd-79adcc0b8094"},"vehicle_type_id":"4","last_reported":1761117088,"current_range_meters":3200,"station_id":"ce4bhi12rcd13ifvqfq0","pricing_plan_id":"cebpf4jnsgd1na2vs0mg"},{"bike_id":"6d8da19b-0143-43ba-a2b6-b774a32597d4","system_id":"levelo_inurba_marseille","lat":43.2816,"lon":5.3476,"is_reserved":false,"is_disabled":false,"rental_uris":{"android":"levelo://app?vid=6d8da19b-0143-43ba-a2b6-b774a32597d4","ios":"levelo://app?vid=6d8da19b-0143-43ba-a2b6-b774a32597d4"},"vehicle_type_id":"4","last_reported":1761117088,"current_range_meters":3600,"station_id":"","pricing_plan_id":"cebpf4jnsgd1na2vs0mg"},{"bike_id":"23d2e327-9a1c-43f9-a1d7-2fca27e96f84","system_id":"levelo_inurba_marseille","lat":43.27385,"lon":5.41533,"is_reserved":false,"is_disabled":false,"rental_uris":{"android":"levelo://app?vid=23d2e327-9a1c-43f9-a1d7-2fca27e96f84","ios":"levelo://app?vid=23d2e327-9a1c-43f9-a1d7-2fca27e96f84"},"vehicle_type_id":"4","last_reported":1761117088,"current_range_meters":3600,"station_id":"","pricing_plan_id":"cebpf4jnsgd1na2vs0mg"},{"bike_id":"f4445d00-eef6-4281-9cd5-6ab092134b51","system_id":"levelo_inurba_marseille","lat":43.302183,"lon":5.394729,"is_reserved":false,"is_disabled":false,"rental_uris":{"android":"levelo://app?vid=f4445d00-eef6-4281-9cd5-6ab092134b51","ios":"levelo://app?vid=f4445d00-eef6-4281-9cd5-6ab092134b51"},"vehicle_type_id":"4","last_reported":1761117088,"current_range_meters":4000,"station_id":"ce4bh0p2rcd13ifvqd70","pricing_plan_id":"cebpf4jnsgd1na2vs0mg"},{"bike_id":"62cfbf5d-d18e-4e53-bfb3-ff7bbdaf9d45","system_id":"levelo_inurba_marseille","lat":43.30535,"lon":5.367,"is_reserved":false,"is_disabled":false,"rental_uris":{"android":"levelo://app?vid=62cfbf5d-d18e-4e53-bfb3-ff7bbdaf9d45","ios":"levelo://app?vid=62cfbf5d-d18e-4e53-bfb3-ff7bbdaf9d45"},"vehicle_type_id":"4","last_reported":1761117088,"current_range_meters":4000,"station_id":"ce4bgrp2rcd13ifvqc9g","pricing_plan_id":"cebpf4jnsgd1na2vs0mg"},{"bike_id":"a5548c7d-f3aa-4d4d-a0ab-2c3c27a3e6cb","system_id":"levelo_inurba_marseille","lat":43.25349,"lon":5.42166,"is_reserved":false,"is_disabled":false,"rental_uris":{"android":"levelo://app?vid=a5548c7d-f3aa-4d4d-a0ab-2c3c27a3e6cb","ios":"levelo://app?vid=a5548c7d-f3aa-4d4d-a0ab-2c3c27a3e6cb"},"vehicle_type_id":"4","last_reported":1761117088,"current_range_meters":4400,"station_id":"st_d2m65c5bi1j21697t3ng","pricing_plan_id":"cebpf4jnsgd1na2vs0mg"},{"bike_id":"56808f09-5a62-403b-b8e3-97d89aaf3152","system_id":"levelo_inurba_marseille","lat":43.29828,"lon":5.37922,"is_reserved":false,"is_disabled":false,"rental_uris":{"android":"levelo://app?vid=56808f09-5a62-403b-b8e3-97d89aaf3152","ios":"levelo://app?vid=56808f09-5a62-403b-b8e3-97d89aaf3152"},"vehicle_type_id":"4","last_reported":1761117088,"current_range_meters":4400,"station_id":"","pricing_plan_id":"cebpf4jnsgd1na2vs0mg"},{"bike_id":"32fe13f3-1998-41d4-a763-4eea85838a36","system_id":"levelo_inurba_marseille","lat":43.28611,"lon":5.3706,"is_reserved":false,"is_disabled":false,"rental_uris":{"android":"levelo://app?vid=32fe13f3-1998-41d4-a763-4eea85838a36","ios":"levelo://app?vid=32fe13f3-1998-41d4-a763-4eea85838a36"},"vehicle_type_id":"4","last_reported":1761117088,"current_range_meters":4400,"station_id":"ce4bht12rcd13ifvqi60","pricing_plan_id":"cebpf4jnsgd1na2vs0mg"},{"bike_id":"98490d11-db71-4361-ab96-f0addd49d050","system_id":"levelo_inurba_marseille","lat":43.300051,"lon":5.373567,"is_reserved":false,"is_disabled":false,"rental_uris":{"android":"levelo://app?vid=98490d11-db71-4361-ab96-f0addd49d050","ios":"levelo://app?vid=98490d11-db71-4361-ab96-f0addd49d050"},"vehicle_type_id":"4","last_reported":1761117088,"current_range_meters":4400,"station_id":"","pricing_plan_id":"cebpf4jnsgd1na2vs0mg"},{"bike_id":"050f49a6-1f8b-4f11-ad52-6d51946634eb","system_id":"levelo_inurba_marseille","lat":43.30459,"lon":5.37904,"is_reserved":false,"is_disabled":false,"rental_uris":{"android":"levelo://app?vid=050f49a6-1f8b-4f11-ad52-6d51946634eb","ios":"levelo://app?vid=050f49a6-1f8b-4f11-ad52-6d51946634eb"},"vehicle_type_id":"4","last_reported":1761117088,"current_range_meters":4800,"station_id":"ce4bgup2rcd13ifvqcn0","pricing_plan_id":"cebpf4jnsgd1na2vs0mg"},{"bike_id":"ad0163b9-a174-4b3e-87a4-a34119d95345","system_id":"levelo_inurba_marseille","lat":43.309448,"lon":5.390308,"is_reserved":false,"is_disabled":false,"rental_uris":{"android":"levelo://app?vid=ad0163b9-a174-4b3e-87a4-a34119d95345","ios":"levelo://app?vid=ad0163b9-a174-4b3e-87a4-a34119d95345"},"vehicle_type_id":"4","last_reported":1761117088,"current_range_meters":4800,"station_id":"ce4bgup2rcd13ifvqco0","pricing_plan_id":"cebpf4jnsgd1na2vs0mg"},{"bike_id":"589e58f5-96ca-4f8d-834a-25f90191bdad","system_id":"levelo_inurba_marseille","lat":43.25942,"lon":5.40888,"is_reserved":false,"is_disabled":false,"rental_uris":{"android":"levelo://app?vid=589e58f5-96ca-4f8d-834a-25f90191bdad","ios":"levelo://app?vid=589e58f5-96ca-4f8d-834a-25f90191bdad"},"vehicle_type_id":"4","last_reported":1761117088,"current_range_meters":4800,"station_id":"ce4bhm92rcd13ifvqglg","pricing_plan_id":"cebpf4jnsgd1na2vs0mg"},{"bike_id":"04018adf-9b7e-4f75-95a6-f2dca1881420","system_id":"levelo_inurba_marseille","lat":43.2175,"lon":5.34597,"is_reserved":false,"is_disabled":true,"rental_uris":{"android":"levelo://app?vid=04018adf-9b7e-4f75-95a6-f2dca1881420","ios":"levelo://app?vid=04018adf-9b7e-4f75-95a6-f2dca1881420"},"vehicle_type_id":"4","last_reported":1761117088,"current_range_meters":4800,"station_id":"st_cvj6r9ubvosntc0bgbag","pricing_plan_id":"cebpf4jnsgd1na2vs0mg"},{"bike_id":"4f0d3963-ed4e-4c9d-a120-cacf2b35d9a5","system_id":"levelo_inurba_marseille","lat":43.30147,"lon":5.38094,"is_reserved":false,"is_disabled":false,"rental_uris":{"android":"levelo://app?vid=4f0d3963-ed4e-4c9d-a120-cacf2b35d9a5","ios":"levelo://app?vid=4f0d3963-ed4e-4c9d-a120-cacf2b35d9a5"},"vehicle_type_id":"4","last_reported":1761117088,"current_range_meters":5600,"station_id":"ce4bgjp2rcd13ifvqbh0","pricing_plan_id":"cebpf4jnsgd1na2vs0mg"},{"bike_id":"8952652d-181d-4647-99e0-dd7c8dc8f72d","system_id":"levelo_inurba_marseille","lat":43.28542,"lon":5.44107,"is_reserved":false,"is_disabled":false,"rental_uris":{"android":"levelo://app?vid=8952652d-181d-4647-99e0-dd7c8dc8f72d","ios":"levelo://app?vid=8952652d-181d-4647-99e0-dd7c8dc8f72d"},"vehicle_type_id":"4","last_reported":1761117088,"current_range_meters":6000,"station_id":"st_d3j3df2ikq2c7380ej80","pricing_plan_id":"cebpf4jnsgd1na2vs0mg"},{"bike_id":"e5a63599-3511-4543-bf05-7a65b8ddcf13","system_id":"levelo_inurba_marseille","lat":43.30886,"lon":5.37207,"is_reserved":false,"is_disabled":false,"rental_uris":{"android":"levelo://app?vid=e5a63599-3511-4543-bf05-7a65b8ddcf13","ios":"levelo://app?vid=e5a63599-3511-4543-bf05-7a65b8ddcf13"},"vehicle_type_id":"4","last_reported":1761117088,"current_range_meters":6000,"station_id":"ce4bguh2rcd13ifvqckg","pricing_plan_id":"cebpf4jnsgd1na2vs0mg"},{"bike_id":"4bb6d993-b33c-4862-ab4c-59be979be62e","system_id":"levelo_inurba_marseille","lat":43.2929,"lon":5.40877,"is_reserved":false,"is_disabled":false,"rental_uris":{"android":"levelo://app?vid=4bb6d993-b33c-4862-ab4c-59be979be62e","ios":"levelo://app?vid=4bb6d993-b33c-4862-ab4c-59be979be62e"},"vehicle_type_id":"4","last_reported":1761117088,"current_range_meters":6400,"station_id":"ce4bh192rcd13ifvqdc0","pricing_plan_id":"cebpf4jnsgd1na2vs0mg"},{"bike_id":"5579785c-3a11-4952-8185-13727af029d5","system_id":"levelo_inurba_marseille","lat":43.28541,"lon":5.39501,"is_reserved":false,"is_disabled":false,"rental_uris":{"android":"levelo://app?vid=5579785c-3a11-4952-8185-13727af029d5","ios":"levelo://app?vid=5579785c-3a11-4952-8185-13727af029d5"},"vehicle_type_id":"4","last_reported":1761117088,"current_range_meters":6400,"station_id":"ce4bh292rcd13ifvqdg0","pricing_plan_id":"cebpf4jnsgd1na2vs0mg"},{"bike_id":"a2e131f8-3c9f-478a-b394-6a9db5f46a7a","system_id":"levelo_inurba_marseille","lat":43.30131,"lon":5.37428,"is_reserved":false,"is_disabled":true,"rental_uris":{"android":"levelo://app?vid=a2e131f8-3c9f-478a-b394-6a9db5f46a7a","ios":"levelo://app?vid=a2e131f8-3c9f-478a-b394-6a9db5f46a7a"},"vehicle_type_id":"4","last_reported":1761117088,"current_range_meters":6400,"station_id":"ce4bgs92rcd13ifvqcc0","pricing_plan_id":"cebpf4jnsgd1na2vs0mg"},{"bike_id":"e7cb61d9-84d9-41c0-8427-00fc6a9e436b","system_id":"levelo_inurba_marseille","lat":43.31077,"lon":5.37558,"is_reserved":false,"is_disabled":false,"rental_uris":{"android":"levelo://app?vid=e7cb61d9-84d9-41c0-8427-00fc6a9e436b","ios":"levelo://app?vid=e7cb61d9-84d9-41c0-8427-00fc6a9e436b"},"vehicle_type_id":"4","last_reported":1761117088,"current_range_meters":6400,"station_id":"","pricing_plan_id":"cebpf4jnsgd1na2vs0mg"},{"bike_id":"4154d683-e72a-4592-9e60-2a3872848698","system_id":"levelo_inurba_marseille","lat":43.28469,"lon":5.48397,"is_reserved":false,"is_disabled":false,"rental_uris":{"android":"levelo://app?vid=4154d683-e72a-4592-9e60-2a3872848698","ios":"levelo://app?vid=4154d683-e72a-4592-9e60-2a3872848698"},"vehicle_type_id":"4","last_reported":1761117088,"current_range_meters":6800,"station_id":"st_d3jp68qikq2c7381ktn0","pricing_plan_id":"cebpf4jnsgd1na2vs0mg"},{"bike_id":"bf8ec125-d0e1-4669-93ef-7d5ad0ddea3a","system_id":"levelo_inurba_marseille","lat":43.27229,"lon":5.40071,"is_reserved":false,"is_disabled":false,"rental_uris":{"android":"levelo://app?vid=bf8ec125-d0e1-4669-93ef-7d5ad0ddea3a","ios":"levelo://app?vid=bf8ec125-d0e1-4669-93ef-7d5ad0ddea3a"},"vehicle_type_id":"4","last_reported":1761117088,"current_range_meters":6800,"station_id":"","pricing_plan_id":"cebpf4jnsgd1na2vs0mg"},{"bike_id":"455bb9a0-cad9-4d11-b380-2fa99fcff9b5","system_id":"levelo_inurba_marseille","lat":43.29216,"lon":5.40127,"is_reserved":false,"is_disabled":false,"rental_uris":{"android":"levelo://app?vid=455bb9a0-cad9-4d11-b380-2fa99fcff9b5","ios":"levelo://app?vid=455bb9a0-cad9-4d11-b380-2fa99fcff9b5"},"vehicle_type_id":"4","last_reported":1761117088,"current_range_meters":6800,"station_id":"","pricing_plan_id":"cebpf4jnsgd1na2vs0mg"},{"bike_id":"a7c7675d-e06c-4794-bdda-4ac8c78a31c6","system_id":"levelo_inurba_marseille","lat":43.282657,"lon":5.350983,"is_reserved":false,"is_disabled":false,"rental_uris":{"android":"levelo://app?vid=a7c7675d-e06c-4794-bdda-4ac8c78a31c6","ios":"levelo://app?vid=a7c7675d-e06c-4794-bdda-4ac8c78a31c6"},"vehicle_type_id":"4","last_reported":1761117088,"current_range_meters":6800,"station_id":"ce4bhbp2rcd13ifvqerg","pricing_plan_id":"cebpf4jnsgd1na2vs0mg"},{"bike_id":"f2ff0ade-5361-46d8-ab78-69bd403c3483","system_id":"levelo_inurba_marseille","lat":43.28199,"lon":5.3499,"is_reserved":false,"is_disabled":false,"rental_uris":{"android":"levelo://app?vid=f2ff0ade-5361-46d8-ab78-69bd403c3483","ios":"levelo://app?vid=f2ff0ade-5361-46d8-ab78-69bd403c3483"},"vehicle_type_id":"4","last_reported":1761117088,"current_range_meters":6800,"station_id":"","pricing_plan_id":"cebpf4jnsgd1na2vs0mg"},{"bike_id":"adb6da43-a790-4bbe-8cdb-8fa1e5d17796","system_id":"levelo_inurba_marseille","lat":43.3175,"lon":5.38585,"is_reserved":false,"is_disabled":true,"rental_uris":{"android":"levelo://app?vid=adb6da43-a790-4bbe-8cdb-8fa1e5d17796","ios":"levelo://app?vid=adb6da43-a790-4bbe-8cdb-8fa1e5d17796"},"vehicle_type_id":"4","last_reported":1761117088,"current_range_meters":6800,"station_id":"","pricing_plan_id":"cebpf4jnsgd1na2vs0mg"},{"bike_id":"bedab86a-a42b-4d3b-a255-7e555fb6da4b","system_id":"levelo_inurba_marseille","lat":43.28817,"lon":5.4518,"is_reserved":false,"is_disabled":false,"rental_uris":{"android":"levelo://app?vid=bedab86a-a42b-4d3b-a255-7e555fb6da4b","ios":"levelo://app?vid=bedab86a-a42b-4d3b-a255-7e555fb6da4b"},"vehicle_type_id":"4","last_reported":1761117088,"current_range_meters":7200,"station_id":"","pricing_plan_id":"cebpf4jnsgd1na2vs0mg"},{"bike_id":"b3368da1-faef-43a4-ada4-73d0de7687c7","system_id":"levelo_inurba_marseille","lat":43.31571,"lon":5.38755,"is_reserved":false,"is_disabled":true,"rental_uris":{"android":"levelo://app?vid=b3368da1-faef-43a4-ada4-73d0de7687c7","ios":"levelo://app?vid=b3368da1-faef-43a4-ada4-73d0de7687c7"},"vehicle_type_id":"4","last_reported":1761117088,"current_range_meters":7200,"station_id":"","pricing_plan_id":"cebpf4jnsgd1na2vs0mg"},{"bike_id":"bcd7b312-d4ab-4a9e-9c1f-0ec0ee3f47f2","system_id":"levelo_inurba_marseille","lat":43.33602,"lon":5.41032,"is_reserved":false,"is_disabled":false,"rental_uris":{"android":"levelo://app?vid=bcd7b312-d4ab-4a9e-9c1f-0ec0ee3f47f2","ios":"levelo://app?vid=bcd7b312-d4ab-4a9e-9c1f-0ec0ee3f47f2"},"vehicle_type_id":"4","last_reported":1761117088,"current_range_meters":8000,"station_id":"ce4bhqh2rcd13ifvqhmg","pricing_plan_id":"cebpf4jnsgd1na2vs0mg"},{"bike_id":"9535d4a9-ff18-4c05-8630-131dd18b844d","system_id":"levelo_inurba_marseille","lat":43.293686,"lon":5.376723,"is_reserved":false,"is_disabled":false,"rental_uris":{"android":"levelo://app?vid=9535d4a9-ff18-4c05-8630-131dd18b844d","ios":"levelo://app?vid=9535d4a9-ff18-4c05-8630-131dd18b844d"},"vehicle_type_id":"4","last_reported":1761117088,"current_range_meters":8000,"station_id":"ce4bh0p2rcd13ifvqd70","pricing_plan_id":"cebpf4jnsgd1na2vs0mg"},{"bike_id":"c4432b73-0adb-475d-83b3-18f6e7bba483","system_id":"levelo_inurba_marseille","lat":43.33005,"lon":5.39409,"is_reserved":false,"is_disabled":false,"rental_uris":{"android":"levelo://app?vid=c4432b73-0adb-475d-83b3-18f6e7bba483","ios":"levelo://app?vid=c4432b73-0adb-475d-83b3-18f6e7bba483"},"vehicle_type_id":"4","last_reported":1761117088,"current_range_meters":8000,"station_id":"","pricing_plan_id":"cebpf4jnsgd1na2vs0mg"},{"bike_id":"3d068a7d-8c2c-4f97-8d7d-54140fa95800","system_id":"levelo_inurba_marseille","lat":43.27353,"lon":5.3988,"is_reserved":false,"is_disabled":false,"rental_uris":{"android":"levelo://app?vid=3d068a7d-8c2c-4f97-8d7d-54140fa95800","ios":"levelo://app?vid=3d068a7d-8c2c-4f97-8d7d-54140fa95800"},"vehicle_type_id":"4","last_reported":1761117088,"current_range_meters":8400,"station_id":"","pricing_plan_id":"cebpf4jnsgd1na2vs0mg"},{"bike_id":"4bfb5be7-701b-4747-a3e3-289689e2e2ab","system_id":"levelo_inurba_marseille","lat":43.27374,"lon":5.36259,"is_reserved":false,"is_disabled":false,"rental_uris":{"android":"levelo://app?vid=4bfb5be7-701b-4747-a3e3-289689e2e2ab","ios":"levelo://app?vid=4bfb5be7-701b-4747-a3e3-289689e2e2ab"},"vehicle_type_id":"4","last_reported":1761117088,"current_range_meters":8400,"station_id":"ce4bhbh2rcd13ifvqeo0","pricing_plan_id":"cebpf4jnsgd1na2vs0mg"},{"bike_id":"66bec76d-d7e9-4a1e-a715-39e56334bf96","system_id":"levelo_inurba_marseille","lat":43.28287,"lon":5.39663,"is_reserved":false,"is_disabled":false,"rental_uris":{"android":"levelo://app?vid=66bec76d-d7e9-4a1e-a715-39e56334bf96","ios":"levelo://app?vid=66bec76d-d7e9-4a1e-a715-39e56334bf96"},"vehicle_type_id":"4","last_reported":1761117088,"current_range_meters":8800,"station_id":"","pricing_plan_id":"cebpf4jnsgd1na2vs0mg"},{"bike_id":"b7e41c34-cad5-468c-aadc-3ef8a1845b5a","system_id":"levelo_inurba_marseille","lat":43.28171,"lon":5.36123,"is_reserved":false,"is_disabled":false,"rental_uris":{"android":"levelo://app?vid=b7e41c34-cad5-468c-aadc-3ef8a1845b5a","ios":"levelo://app?vid=b7e41c34-cad5-468c-aadc-3ef8a1845b5a"},"vehicle_type_id":"4","last_reported":1761117088,"current_range_meters":8800,"station_id":"","pricing_plan_id":"cebpf4jnsgd1na2vs0mg"},{"bike_id":"aa295059-e006-4eb1-a261-47f6b61e2c33","system_id":"levelo_inurba_marseille","lat":43.25918,"lon":5.40882,"is_reserved":false,"is_disabled":false,"rental_uris":{"android":"levelo://app?vid=aa295059-e006-4eb1-a261-47f6b61e2c33","ios":"levelo://app?vid=aa295059-e006-4eb1-a261-47f6b61e2c33"},"vehicle_type_id":"4","last_reported":1761117088,"current_range_meters":8800,"station_id":"ce4bhm92rcd13ifvqglg","pricing_plan_id":"cebpf4jnsgd1na2vs0mg"},{"bike_id":"3dd19d2f-70a3-4020-8237-5e00ab37dc0e","system_id":"levelo_inurba_marseille","lat":43.302119,"lon":5.394655,"is_reserved":false,"is_disabled":false,"rental_uris":{"android":"levelo://app?vid=3dd19d2f-70a3-4020-8237-5e00ab37dc0e","ios":"levelo://app?vid=3dd19d2f-70a3-4020-8237-5e00ab37dc0e"},"vehicle_type_id":"4","last_reported":1761117088,"current_range_meters":8800,"station_id":"ce4bh0p2rcd13ifvqd70","pricing_plan_id":"cebpf4jnsgd1na2vs0mg"},{"bike_id":"da3c5d5d-639d-4a11-88e1-f7b9c2ad220a","system_id":"levelo_inurba_marseille","lat":43.31676,"lon":5.37752,"is_reserved":false,"is_disabled":true,"rental_uris":{"android":"levelo://app?vid=da3c5d5d-639d-4a11-88e1-f7b9c2ad220a","ios":"levelo://app?vid=da3c5d5d-639d-4a11-88e1-f7b9c2ad220a"},"vehicle_type_id":"4","last_reported":1761117088,"current_range_meters":8800,"station_id":"ce4bgth2rcd13ifvqch0","pricing_plan_id":"cebpf4jnsgd1na2vs0mg"},{"bike_id":"6af8e0b0-8bc8-42ac-b00a-41d87887ceb5","system_id":"levelo_inurba_marseille","lat":43.28079,"lon":5.39635,"is_reserved":false,"is_disabled":false,"rental_uris":{"android":"levelo://app?vid=6af8e0b0-8bc8-42ac-b00a-41d87887ceb5","ios":"levelo://app?vid=6af8e0b0-8bc8-42ac-b00a-41d87887ceb5"},"vehicle_type_id":"4","last_reported":1761117088,"current_range_meters":8800,"station_id":"ce4bho12rcd13ifvqh2g","pricing_plan_id":"cebpf4jnsgd1na2vs0mg"},{"bike_id":"79f74a5f-0430-4922-815d-34e5de187c1a","system_id":"levelo_inurba_marseille","lat":43.302156,"lon":5.394714,"is_reserved":false,"is_disabled":false,"rental_uris":{"android":"levelo://app?vid=79f74a5f-0430-4922-815d-34e5de187c1a","ios":"levelo://app?vid=79f74a5f-0430-4922-815d-34e5de187c1a"},"vehicle_type_id":"4","last_reported":1761117088,"current_range_meters":8800,"station_id":"ce4bh0p2rcd13ifvqd70","pricing_plan_id":"cebpf4jnsgd1na2vs0mg"},{"bike_id":"20bb9306-9868-440a-92b6-13467d416d2e","system_id":"levelo_inurba_marseille","lat":43.24805,"lon":5.37458,"is_reserved":false,"is_disabled":false,"rental_uris":{"android":"levelo://app?vid=20bb9306-9868-440a-92b6-13467d416d2e","ios":"levelo://app?vid=20bb9306-9868-440a-92b6-13467d416d2e"},"vehicle_type_id":"4","last_reported":1761117088,"current_range_meters":8800,"station_id":"ce4bhgh2rcd13ifvqfb0","pricing_plan_id":"cebpf4jnsgd1na2vs0mg"},{"bike_id":"2d24ac31-78f9-481b-9d5c-ea0a58464439","system_id":"levelo_inurba_marseille","lat":43.29187,"lon":5.42284,"is_reserved":false,"is_disabled":false,"rental_uris":{"android":"levelo://app?vid=2d24ac31-78f9-481b-9d5c-ea0a58464439","ios":"levelo://app?vid=2d24ac31-78f9-481b-9d5c-ea0a58464439"},"vehicle_type_id":"4","last_reported":1761117088,"current_range_meters":8800,"station_id":"","pricing_plan_id":"cebpf4jnsgd1na2vs0mg"},{"bike_id":"54a7471e-8675-4b3b-a7a5-316aa76bbcbc","system_id":"levelo_inurba_marseille","lat":43.27925,"lon":5.40465,"is_reserved":false,"is_disabled":false,"rental_uris":{"android":"levelo://app?vid=54a7471e-8675-4b3b-a7a5-316aa76bbcbc","ios":"levelo://app?vid=54a7471e-8675-4b3b-a7a5-316aa76bbcbc"},"vehicle_type_id":"4","last_reported":1761117088,"current_range_meters":8800,"station_id":"","pricing_plan_id":"cebpf4jnsgd1na2vs0mg"},{"bike_id":"129161fe-329a-41ad-a9db-930906b54153","system_id":"levelo_inurba_marseille","lat":43.30419,"lon":5.41281,"is_reserved":false,"is_disabled":false,"rental_uris":{"android":"levelo://app?vid=129161fe-329a-41ad-a9db-930906b54153","ios":"levelo://app?vid=129161fe-329a-41ad-a9db-930906b54153"},"vehicle_type_id":"4","last_reported":1761117088,"current_range_meters":8800,"station_id":"ce4bhop2rcd13ifvqh8g","pricing_plan_id":"cebpf4jnsgd1na2vs0mg"},{"bike_id":"c4d17d81-19cf-4697-a9b1-d780d189ed78","system_id":"levelo_inurba_marseille","lat":43.25105,"lon":5.40319,"is_reserved":false,"is_disabled":true,"rental_uris":{"android":"levelo://app?vid=c4d17d81-19cf-4697-a9b1-d780d189ed78","ios":"levelo://app?vid=c4d17d81-19cf-4697-a9b1-d780d189ed78"},"vehicle_type_id":"4","last_reported":1761117088,"current_range_meters":9200,"station_id":"ce4bhlh2rcd13ifvqgig","pricing_plan_id":"cebpf4jnsgd1na2vs0mg"},{"bike_id":"c529a137-fa71-4ba0-ac17-4907ce4c561d","system_id":"levelo_inurba_marseille","lat":43.27667,"lon":5.38886,"is_reserved":false,"is_disabled":false,"rental_uris":{"android":"levelo://app?vid=c529a137-fa71-4ba0-ac17-4907ce4c561d","ios":"levelo://app?vid=c529a137-fa71-4ba0-ac17-4907ce4c561d"},"vehicle_type_id":"4","last_reported":1761117088,"current_range_meters":9200,"station_id":"ce4bhi12rcd13ifvqfo0","pricing_plan_id":"cebpf4jnsgd1na2vs0mg"},{"bike_id":"13dcb29e-e8f5-4ef0-9f60-50944ec6a39e","system_id":"levelo_inurba_marseille","lat":43.303074,"lon":5.369031,"is_reserved":false,"is_disabled":false,"rental_uris":{"android":"levelo://app?vid=13dcb29e-e8f5-4ef0-9f60-50944ec6a39e","ios":"levelo://app?vid=13dcb29e-e8f5-4ef0-9f60-50944ec6a39e"},"vehicle_type_id":"4","last_reported":1761117088,"current_range_meters":9200,"station_id":"ce4bgqh2rcd13ifvqc5g","pricing_plan_id":"cebpf4jnsgd1na2vs0mg"},{"bike_id":"33ac3a37-e314-46ed-a3cb-93545f53343d","system_id":"levelo_inurba_marseille","lat":43.25004,"lon":5.38918,"is_reserved":false,"is_disabled":true,"rental_uris":{"android":"levelo://app?vid=33ac3a37-e314-46ed-a3cb-93545f53343d","ios":"levelo://app?vid=33ac3a37-e314-46ed-a3cb-93545f53343d"},"vehicle_type_id":"4","last_reported":1761117088,"current_range_meters":9600,"station_id":"ce4bhgp2rcd13ifvqfd0","pricing_plan_id":"cebpf4jnsgd1na2vs0mg"},{"bike_id":"fe998b17-9d85-477f-b92c-87f6ebb6e1b3","system_id":"levelo_inurba_marseille","lat":43.244733,"lon":5.369469,"is_reserved":false,"is_disabled":false,"rental_uris":{"android":"levelo://app?vid=fe998b17-9d85-477f-b92c-87f6ebb6e1b3","ios":"levelo://app?vid=fe998b17-9d85-477f-b92c-87f6ebb6e1b3"},"vehicle_type_id":"4","last_reported":1761117088,"current_range_meters":9600,"station_id":"","pricing_plan_id":"cebpf4jnsgd1na2vs0mg"},{"bike_id":"3201e625-69d5-420e-838c-f4c3f44666ef","system_id":"levelo_inurba_marseille","lat":43.33767,"lon":5.37433,"is_reserved":false,"is_disabled":false,"rental_uris":{"android":"levelo://app?vid=3201e625-69d5-420e-838c-f4c3f44666ef","ios":"levelo://app?vid=3201e625-69d5-420e-838c-f4c3f44666ef"},"vehicle_type_id":"4","last_reported":1761117088,"current_range_meters":9600,"station_id":"","pricing_plan_id":"cebpf4jnsgd1na2vs0mg"},{"bike_id":"b8457e49-45d1-4539-8d31-1eb0283df508","system_id":"levelo_inurba_marseille","lat":43.331637,"lon":5.354839,"is_reserved":false,"is_disabled":false,"rental_uris":{"android":"levelo://app?vid=b8457e49-45d1-4539-8d31-1eb0283df508","ios":"levelo://app?vid=b8457e49-45d1-4539-8d31-1eb0283df508"},"vehicle_type_id":"4","last_reported":1761117088,"current_range_meters":9600,"station_id":"","pricing_plan_id":"cebpf4jnsgd1na2vs0mg"},{"bike_id":"cc825a55-e15b-4dee-8143-b97160ba1bab","system_id":"levelo_inurba_marseille","lat":43.32014,"lon":5.38179,"is_reserved":false,"is_disabled":false,"rental_uris":{"android":"levelo://app?vid=cc825a55-e15b-4dee-8143-b97160ba1bab","ios":"levelo://app?vid=cc825a55-e15b-4dee-8143-b97160ba1bab"},"vehicle_type_id":"4","last_reported":1761117088,"current_range_meters":9600,"station_id":"ce4bhr12rcd13ifvqhpg","pricing_plan_id":"cebpf4jnsgd1na2vs0mg"},{"bike_id":"f76a598a-60d1-4cfb-9555-26581d2c1ed4","system_id":"levelo_inurba_marseille","lat":43.337444,"lon":5.374475,"is_reserved":false,"is_disabled":false,"rental_uris":{"android":"levelo://app?vid=f76a598a-60d1-4cfb-9555-26581d2c1ed4","ios":"levelo://app?vid=f76a598a-60d1-4cfb-9555-26581d2c1ed4"},"vehicle_type_id":"4","last_reported":1761117088,"current_range_meters":10000,"station_id":"ce4bhip2rcd13ifvqft0","pricing_plan_id":"cebpf4jnsgd1na2vs0mg"},{"bike_id":"14a1fbd0-890e-44a3-8d51-f0d5f5a5d3e4","system_id":"levelo_inurba_marseille","lat":43.28101,"lon":5.37832,"is_reserved":false,"is_disabled":true,"rental_uris":{"android":"levelo://app?vid=14a1fbd0-890e-44a3-8d51-f0d5f5a5d3e4","ios":"levelo://app?vid=14a1fbd0-890e-44a3-8d51-f0d5f5a5d3e4"},"vehicle_type_id":"4","last_reported":1761117088,"current_range_meters":10000,"station_id":"ce4bha12rcd13ifvqee0","pricing_plan_id":"cebpf4jnsgd1na2vs0mg"},{"bike_id":"78327b65-47bd-4c2e-9cc4-09a68e3a500b","system_id":"levelo_inurba_marseille","lat":43.28969,"lon":5.36676,"is_reserved":false,"is_disabled":false,"rental_uris":{"android":"levelo://app?vid=78327b65-47bd-4c2e-9cc4-09a68e3a500b","ios":"levelo://app?vid=78327b65-47bd-4c2e-9cc4-09a68e3a500b"},"vehicle_type_id":"4","last_reported":1761117088,"current_range_meters":10000,"station_id":"","pricing_plan_id":"cebpf4jnsgd1na2vs0mg"},{"bike_id":"19840955-f9d6-49c1-86e8-b7616b7da32c","system_id":"levelo_inurba_marseille","lat":43.33134,"lon":5.39115,"is_reserved":false,"is_disabled":true,"rental_uris":{"android":"levelo://app?vid=19840955-f9d6-49c1-86e8-b7616b7da32c","ios":"levelo://app?vid=19840955-f9d6-49c1-86e8-b7616b7da32c"},"vehicle_type_id":"4","last_reported":1761117088,"current_range_meters":10000,"station_id":"","pricing_plan_id":"cebpf4jnsgd1na2vs0mg"},{"bike_id":"3133807b-a6a0-494e-9137-da76044b6e6c","system_id":"levelo_inurba_marseille","lat":43.28942,"lon":5.366391,"is_reserved":false,"is_disabled":false,"rental_uris":{"android":"levelo://app?vid=3133807b-a6a0-494e-9137-da76044b6e6c","ios":"levelo://app?vid=3133807b-a6a0-494e-9137-da76044b6e6c"},"vehicle_type_id":"4","last_reported":1761117088,"current_range_meters":10800,"station_id":"ce4bhap2rcd13ifvqek0","pricing_plan_id":"cebpf4jnsgd1na2vs0mg"},{"bike_id":"22c660ad-ddf4-4958-a393-4acd861a2ace","system_id":"levelo_inurba_marseille","lat":43.280868,"lon":5.377931,"is_reserved":false,"is_disabled":false,"rental_uris":{"android":"levelo://app?vid=22c660ad-ddf4-4958-a393-4acd861a2ace","ios":"levelo://app?vid=22c660ad-ddf4-4958-a393-4acd861a2ace"},"vehicle_type_id":"4","last_reported":1761117088,"current_range_meters":10800,"station_id":"ce4bha12rcd13ifvqee0","pricing_plan_id":"cebpf4jnsgd1na2vs0mg"},{"bike_id":"d38bb17a-4ac6-4da6-829b-fc2ffe260364","system_id":"levelo_inurba_marseille","lat":43.31893,"lon":5.4074,"is_reserved":false,"is_disabled":true,"rental_uris":{"android":"levelo://app?vid=d38bb17a-4ac6-4da6-829b-fc2ffe260364","ios":"levelo://app?vid=d38bb17a-4ac6-4da6-829b-fc2ffe260364"},"vehicle_type_id":"4","last_reported":1761117088,"current_range_meters":10800,"station_id":"ce4bhq12rcd13ifvqhig","pricing_plan_id":"cebpf4jnsgd1na2vs0mg"},{"bike_id":"35c79679-0c21-4c32-9079-fe7112f3da95","system_id":"levelo_inurba_marseille","lat":43.24395,"lon":5.3706,"is_reserved":false,"is_disabled":false,"rental_uris":{"android":"levelo://app?vid=35c79679-0c21-4c32-9079-fe7112f3da95","ios":"levelo://app?vid=35c79679-0c21-4c32-9079-fe7112f3da95"},"vehicle_type_id":"4","last_reported":1761117088,"current_range_meters":10800,"station_id":"ce4bhhh2rcd13ifvqfk0","pricing_plan_id":"cebpf4jnsgd1na2vs0mg"},{"bike_id":"7c86cd41-0d7c-439c-a272-a4550010fdaf","system_id":"levelo_inurba_marseille","lat":43.257266,"lon":5.411233,"is_reserved":false,"is_disabled":false,"rental_uris":{"android":"levelo://app?vid=7c86cd41-0d7c-439c-a272-a4550010fdaf","ios":"levelo://app?vid=7c86cd41-0d7c-439c-a272-a4550010fdaf"},"vehicle_type_id":"4","last_reported":1761117088,"current_range_meters":10800,"station_id":"ce4bhkp2rcd13ifvqgd0","pricing_plan_id":"cebpf4jnsgd1na2vs0mg"},{"bike_id":"d83ba3b5-f05f-4b3f-995a-05ad1a505367","system_id":"levelo_inurba_marseille","lat":43.31717,"lon":5.42396,"is_reserved":false,"is_disabled":false,"rental_uris":{"android":"levelo://app?vid=d83ba3b5-f05f-4b3f-995a-05ad1a505367","ios":"levelo://app?vid=d83ba3b5-f05f-4b3f-995a-05ad1a505367"},"vehicle_type_id":"4","last_reported":1761117088,"current_range_meters":11200,"station_id":"ce4bhp92rcd13ifvqhbg","pricing_plan_id":"cebpf4jnsgd1na2vs0mg"},{"bike_id":"323bf2de-3bb4-4b4c-b330-b19ea807dbf5","system_id":"levelo_inurba_marseille","lat":43.31114,"lon":5.38344,"is_reserved":false,"is_disabled":true,"rental_uris":{"android":"levelo://app?vid=323bf2de-3bb4-4b4c-b330-b19ea807dbf5","ios":"levelo://app?vid=323bf2de-3bb4-4b4c-b330-b19ea807dbf5"},"vehicle_type_id":"4","last_reported":1761117088,"current_range_meters":11200,"station_id":"ce4bgv92rcd13ifvqcr0","pricing_plan_id":"cebpf4jnsgd1na2vs0mg"},{"bike_id":"c36da182-8f4a-40c4-8fc0-fd9045defeff","system_id":"levelo_inurba_marseille","lat":43.231866,"lon":5.399839,"is_reserved":false,"is_disabled":false,"rental_uris":{"android":"levelo://app?vid=c36da182-8f4a-40c4-8fc0-fd9045defeff","ios":"levelo://app?vid=c36da182-8f4a-40c4-8fc0-fd9045defeff"},"vehicle_type_id":"4","last_reported":1761117088,"current_range_meters":11600,"station_id":"ce4bhn12rcd13ifvqgqg","pricing_plan_id":"cebpf4jnsgd1na2vs0mg"},{"bike_id":"71516b6e-861a-45f0-82e6-18ba14028b3e","system_id":"levelo_inurba_marseille","lat":43.302156,"lon":5.394682,"is_reserved":false,"is_disabled":false,"rental_uris":{"android":"levelo://app?vid=71516b6e-861a-45f0-82e6-18ba14028b3e","ios":"levelo://app?vid=71516b6e-861a-45f0-82e6-18ba14028b3e"},"vehicle_type_id":"4","last_reported":1761117088,"current_range_meters":11600,"station_id":"ce4bh0p2rcd13ifvqd70","pricing_plan_id":"cebpf4jnsgd1na2vs0mg"},{"bike_id":"bfb49ac8-7cd7-4abf-87fe-e5eac64a56b2","system_id":"levelo_inurba_marseille","lat":43.239632,"lon":5.366384,"is_reserved":false,"is_disabled":false,"rental_uris":{"android":"levelo://app?vid=bfb49ac8-7cd7-4abf-87fe-e5eac64a56b2","ios":"levelo://app?vid=bfb49ac8-7cd7-4abf-87fe-e5eac64a56b2"},"vehicle_type_id":"4","last_reported":1761117088,"current_range_meters":11600,"station_id":"ce4bhi12rcd13ifvqfp0","pricing_plan_id":"cebpf4jnsgd1na2vs0mg"},{"bike_id":"2c20ce77-04c5-4eed-a053-801c8e8d1b46","system_id":"levelo_inurba_marseille","lat":43.24074,"lon":5.37736,"is_reserved":false,"is_disabled":false,"rental_uris":{"android":"levelo://app?vid=2c20ce77-04c5-4eed-a053-801c8e8d1b46","ios":"levelo://app?vid=2c20ce77-04c5-4eed-a053-801c8e8d1b46"},"vehicle_type_id":"4","last_reported":1761117088,"current_range_meters":11600,"station_id":"ce4bhnp2rcd13ifvqgvg","pricing_plan_id":"cebpf4jnsgd1na2vs0mg"},{"bike_id":"8e450164-be31-4840-a1a5-cc41e38f4af4","system_id":"levelo_inurba_marseille","lat":43.27769,"lon":5.38857,"is_reserved":false,"is_disabled":false,"rental_uris":{"android":"levelo://app?vid=8e450164-be31-4840-a1a5-cc41e38f4af4","ios":"levelo://app?vid=8e450164-be31-4840-a1a5-cc41e38f4af4"},"vehicle_type_id":"4","last_reported":1761117088,"current_range_meters":11600,"station_id":"","pricing_plan_id":"cebpf4jnsgd1na2vs0mg"},{"bike_id":"1c158b1f-75d4-42f2-bcde-6b5eb8592667","system_id":"levelo_inurba_marseille","lat":43.29934,"lon":5.37475,"is_reserved":false,"is_disabled":false,"rental_uris":{"android":"levelo://app?vid=1c158b1f-75d4-42f2-bcde-6b5eb8592667","ios":"levelo://app?vid=1c158b1f-75d4-42f2-bcde-6b5eb8592667"},"vehicle_type_id":"4","last_reported":1761117088,"current_range_meters":11600,"station_id":"ce4bgjh2rcd13ifvqbg0","pricing_plan_id":"cebpf4jnsgd1na2vs0mg"},{"bike_id":"146c2516-bef0-44a7-b04d-fb80b55a97f2","system_id":"levelo_inurba_marseille","lat":43.30131,"lon":5.43111,"is_reserved":false,"is_disabled":false,"rental_uris":{"android":"levelo://app?vid=146c2516-bef0-44a7-b04d-fb80b55a97f2","ios":"levelo://app?vid=146c2516-bef0-44a7-b04d-fb80b55a97f2"},"vehicle_type_id":"4","last_reported":1761117088,"current_range_meters":12000,"station_id":"st_d3js3co5814s73ftftug","pricing_plan_id":"cebpf4jnsgd1na2vs0mg"},{"bike_id":"3f8c6756-814e-4d54-8e6d-fee7c8d0b0c1","system_id":"levelo_inurba_marseille","lat":43.26798,"lon":5.39406,"is_reserved":false,"is_disabled":false,"rental_uris":{"android":"levelo://app?vid=3f8c6756-814e-4d54-8e6d-fee7c8d0b0c1","ios":"levelo://app?vid=3f8c6756-814e-4d54-8e6d-fee7c8d0b0c1"},"vehicle_type_id":"4","last_reported":1761117088,"current_range_meters":12000,"station_id":"ce4bhh12rcd13ifvqfg0","pricing_plan_id":"cebpf4jnsgd1na2vs0mg"},{"bike_id":"9c1ac2b6-cf98-4c4f-891f-c0cecb61d656","system_id":"levelo_inurba_marseille","lat":43.30528,"lon":5.36717,"is_reserved":false,"is_disabled":false,"rental_uris":{"android":"levelo://app?vid=9c1ac2b6-cf98-4c4f-891f-c0cecb61d656","ios":"levelo://app?vid=9c1ac2b6-cf98-4c4f-891f-c0cecb61d656"},"vehicle_type_id":"4","last_reported":1761117088,"current_range_meters":12000,"station_id":"ce4bgrp2rcd13ifvqc9g","pricing_plan_id":"cebpf4jnsgd1na2vs0mg"},{"bike_id":"a630ed88-3f05-4926-bbab-8387ab6b6a28","system_id":"levelo_inurba_marseille","lat":43.23141,"lon":5.43711,"is_reserved":false,"is_disabled":true,"rental_uris":{"android":"levelo://app?vid=a630ed88-3f05-4926-bbab-8387ab6b6a28","ios":"levelo://app?vid=a630ed88-3f05-4926-bbab-8387ab6b6a28"},"vehicle_type_id":"4","last_reported":1761117088,"current_range_meters":12000,"station_id":"ce4bhmp2rcd13ifvqgog","pricing_plan_id":"cebpf4jnsgd1na2vs0mg"},{"bike_id":"4970dc4d-8cf1-4f95-a468-969a12174cf8","system_id":"levelo_inurba_marseille","lat":43.28033,"lon":5.36942,"is_reserved":false,"is_disabled":false,"rental_uris":{"android":"levelo://app?vid=4970dc4d-8cf1-4f95-a468-969a12174cf8","ios":"levelo://app?vid=4970dc4d-8cf1-4f95-a468-969a12174cf8"},"vehicle_type_id":"4","last_reported":1761117088,"current_range_meters":12000,"station_id":"ce4bha12rcd13ifvqef0","pricing_plan_id":"cebpf4jnsgd1na2vs0mg"},{"bike_id":"02f7835e-8895-43db-bc46-dc0659a292d5","system_id":"levelo_inurba_marseille","lat":43.29331,"lon":5.3707,"is_reserved":false,"is_disabled":false,"rental_uris":{"android":"levelo://app?vid=02f7835e-8895-43db-bc46-dc0659a292d5","ios":"levelo://app?vid=02f7835e-8895-43db-bc46-dc0659a292d5"},"vehicle_type_id":"4","last_reported":1761117088,"current_range_meters":12000,"station_id":"","pricing_plan_id":"cebpf4jnsgd1na2vs0mg"},{"bike_id":"848732f0-de57-4c7b-8c1c-59414a9d2707","system_id":"levelo_inurba_marseille","lat":43.2618,"lon":5.37437,"is_reserved":false,"is_disabled":false,"rental_uris":{"android":"levelo://app?vid=848732f0-de57-4c7b-8c1c-59414a9d2707","ios":"levelo://app?vid=848732f0-de57-4c7b-8c1c-59414a9d2707"},"vehicle_type_id":"4","last_reported":1761117088,"current_range_meters":12000,"station_id":"ce4bhgp2rcd13ifvqfc0","pricing_plan_id":"cebpf4jnsgd1na2vs0mg"},{"bike_id":"27a0a5b8-bb02-4a68-83d8-ad971dc33659","system_id":"levelo_inurba_marseille","lat":43.32075,"lon":5.40937,"is_reserved":false,"is_disabled":false,"rental_uris":{"android":"levelo://app?vid=27a0a5b8-bb02-4a68-83d8-ad971dc33659","ios":"levelo://app?vid=27a0a5b8-bb02-4a68-83d8-ad971dc33659"},"vehicle_type_id":"4","last_reported":1761117088,"current_range_meters":12000,"station_id":"","pricing_plan_id":"cebpf4jnsgd1na2vs0mg"},{"bike_id":"24d89ad0-5d0c-47ef-91a9-c8bba10c932c","system_id":"levelo_inurba_marseille","lat":43.2572,"lon":5.41109,"is_reserved":false,"is_disabled":false,"rental_uris":{"android":"levelo://app?vid=24d89ad0-5d0c-47ef-91a9-c8bba10c932c","ios":"levelo://app?vid=24d89ad0-5d0c-47ef-91a9-c8bba10c932c"},"vehicle_type_id":"4","last_reported":1761117088,"current_range_meters":12400,"station_id":"ce4bhkp2rcd13ifvqgd0","pricing_plan_id":"cebpf4jnsgd1na2vs0mg"},{"bike_id":"4e7e8f57-06ea-4923-b3c1-ea91802d5920","system_id":"levelo_inurba_marseille","lat":43.27981,"lon":5.41637,"is_reserved":false,"is_disabled":false,"rental_uris":{"android":"levelo://app?vid=4e7e8f57-06ea-4923-b3c1-ea91802d5920","ios":"levelo://app?vid=4e7e8f57-06ea-4923-b3c1-ea91802d5920"},"vehicle_type_id":"4","last_reported":1761117088,"current_range_meters":12400,"station_id":"ce4bho12rcd13ifvqh1g","pricing_plan_id":"cebpf4jnsgd1na2vs0mg"},{"bike_id":"e97fdad0-6b2d-4ae0-8462-b73762c6c8da","system_id":"levelo_inurba_marseille","lat":43.24681,"lon":5.38193,"is_reserved":false,"is_disabled":false,"rental_uris":{"android":"levelo://app?vid=e97fdad0-6b2d-4ae0-8462-b73762c6c8da","ios":"levelo://app?vid=e97fdad0-6b2d-4ae0-8462-b73762c6c8da"},"vehicle_type_id":"4","last_reported":1761117088,"current_range_meters":12800,"station_id":"ce4bhih2rcd13ifvqfr0","pricing_plan_id":"cebpf4jnsgd1na2vs0mg"},{"bike_id":"89dd87c4-c8d0-4de7-8902-2b0447e67475","system_id":"levelo_inurba_marseille","lat":43.31232,"lon":5.36877,"is_reserved":false,"is_disabled":false,"rental_uris":{"android":"levelo://app?vid=89dd87c4-c8d0-4de7-8902-2b0447e67475","ios":"levelo://app?vid=89dd87c4-c8d0-4de7-8902-2b0447e67475"},"vehicle_type_id":"4","last_reported":1761117088,"current_range_meters":12800,"station_id":"","pricing_plan_id":"cebpf4jnsgd1na2vs0mg"},{"bike_id":"64d9e813-4fd3-4955-9199-a35ddf1a26f6","system_id":"levelo_inurba_marseille","lat":43.24162,"lon":5.36411,"is_reserved":false,"is_disabled":false,"rental_uris":{"android":"levelo://app?vid=64d9e813-4fd3-4955-9199-a35ddf1a26f6","ios":"levelo://app?vid=64d9e813-4fd3-4955-9199-a35ddf1a26f6"},"vehicle_type_id":"4","last_reported":1761117088,"current_range_meters":12800,"station_id":"cpo36qri1sfpv3e86is0","pricing_plan_id":"cebpf4jnsgd1na2vs0mg"},{"bike_id":"b13f7f55-131f-49d8-9327-3e9f663da937","system_id":"levelo_inurba_marseille","lat":43.30382,"lon":5.40678,"is_reserved":false,"is_disabled":false,"rental_uris":{"android":"levelo://app?vid=b13f7f55-131f-49d8-9327-3e9f663da937","ios":"levelo://app?vid=b13f7f55-131f-49d8-9327-3e9f663da937"},"vehicle_type_id":"4","last_reported":1761117088,"current_range_meters":12800,"station_id":"","pricing_plan_id":"cebpf4jnsgd1na2vs0mg"},{"bike_id":"b869754e-ab30-4b29-93e2-c3b579cde905","system_id":"levelo_inurba_marseille","lat":43.27049,"lon":5.38305,"is_reserved":false,"is_disabled":false,"rental_uris":{"android":"levelo://app?vid=b869754e-ab30-4b29-93e2-c3b579cde905","ios":"levelo://app?vid=b869754e-ab30-4b29-93e2-c3b579cde905"},"vehicle_type_id":"4","last_reported":1761117088,"current_range_meters":12800,"station_id":"st_d3n2fo6cfp8s73cte1j0","pricing_plan_id":"cebpf4jnsgd1na2vs0mg"},{"bike_id":"4363d27a-ab8e-4701-bbe4-e2c5fa4e9189","system_id":"levelo_inurba_marseille","lat":43.270641,"lon":5.402596,"is_reserved":false,"is_disabled":false,"rental_uris":{"android":"levelo://app?vid=4363d27a-ab8e-4701-bbe4-e2c5fa4e9189","ios":"levelo://app?vid=4363d27a-ab8e-4701-bbe4-e2c5fa4e9189"},"vehicle_type_id":"4","last_reported":1761117088,"current_range_meters":12800,"station_id":"ce4bhk92rcd13ifvqgc0","pricing_plan_id":"cebpf4jnsgd1na2vs0mg"},{"bike_id":"bd481c8e-ae03-42a7-8b92-adff3e864b70","system_id":"levelo_inurba_marseille","lat":43.27976,"lon":5.3874,"is_reserved":false,"is_disabled":false,"rental_uris":{"android":"levelo://app?vid=bd481c8e-ae03-42a7-8b92-adff3e864b70","ios":"levelo://app?vid=bd481c8e-ae03-42a7-8b92-adff3e864b70"},"vehicle_type_id":"4","last_reported":1761117088,"current_range_meters":12800,"station_id":"ce4bhg12rcd13ifvqf80","pricing_plan_id":"cebpf4jnsgd1na2vs0mg"},{"bike_id":"c94f41c6-743f-4248-941c-574f989b12b4","system_id":"levelo_inurba_marseille","lat":43.28284,"lon":5.35089,"is_reserved":false,"is_disabled":false,"rental_uris":{"android":"levelo://app?vid=c94f41c6-743f-4248-941c-574f989b12b4","ios":"levelo://app?vid=c94f41c6-743f-4248-941c-574f989b12b4"},"vehicle_type_id":"4","last_reported":1761117088,"current_range_meters":13600,"station_id":"ce4bhbp2rcd13ifvqerg","pricing_plan_id":"cebpf4jnsgd1na2vs0mg"},{"bike_id":"e97cee2c-2821-4589-ad0d-39b7b7c16139","system_id":"levelo_inurba_marseille","lat":43.29584,"lon":5.37723,"is_reserved":false,"is_disabled":false,"rental_uris":{"android":"levelo://app?vid=e97cee2c-2821-4589-ad0d-39b7b7c16139","ios":"levelo://app?vid=e97cee2c-2821-4589-ad0d-39b7b7c16139"},"vehicle_type_id":"4","last_reported":1761117088,"current_range_meters":13600,"station_id":"ce4bgi92rcd13ifvqb90","pricing_plan_id":"cebpf4jnsgd1na2vs0mg"},{"bike_id":"6692e090-9792-45dd-b639-89e41212fa24","system_id":"levelo_inurba_marseille","lat":43.31283,"lon":5.38514,"is_reserved":false,"is_disabled":true,"rental_uris":{"android":"levelo://app?vid=6692e090-9792-45dd-b639-89e41212fa24","ios":"levelo://app?vid=6692e090-9792-45dd-b639-89e41212fa24"},"vehicle_type_id":"4","last_reported":1761117088,"current_range_meters":13600,"station_id":"","pricing_plan_id":"cebpf4jnsgd1na2vs0mg"},{"bike_id":"464bd8a3-6573-4884-b980-774e68ad4ab1","system_id":"levelo_inurba_marseille","lat":43.271789,"lon":5.409855,"is_reserved":false,"is_disabled":false,"rental_uris":{"android":"levelo://app?vid=464bd8a3-6573-4884-b980-774e68ad4ab1","ios":"levelo://app?vid=464bd8a3-6573-4884-b980-774e68ad4ab1"},"vehicle_type_id":"4","last_reported":1761117088,"current_range_meters":13600,"station_id":"ce4bhl12rcd13ifvqgf0","pricing_plan_id":"cebpf4jnsgd1na2vs0mg"},{"bike_id":"46e71a08-7e6c-4660-87ec-495dba3c6628","system_id":"levelo_inurba_marseille","lat":43.29664,"lon":5.36253,"is_reserved":false,"is_disabled":false,"rental_uris":{"android":"levelo://app?vid=46e71a08-7e6c-4660-87ec-495dba3c6628","ios":"levelo://app?vid=46e71a08-7e6c-4660-87ec-495dba3c6628"},"vehicle_type_id":"4","last_reported":1761117088,"current_range_meters":13600,"station_id":"","pricing_plan_id":"cebpf4jnsgd1na2vs0mg"},{"bike_id":"514ad054-b977-4c83-b3b2-5efab75fc872","system_id":"levelo_inurba_marseille","lat":43.24368,"lon":5.39171,"is_reserved":false,"is_disabled":false,"rental_uris":{"android":"levelo://app?vid=514ad054-b977-4c83-b3b2-5efab75fc872","ios":"levelo://app?vid=514ad054-b977-4c83-b3b2-5efab75fc872"},"vehicle_type_id":"4","last_reported":1761117088,"current_range_meters":13600,"station_id":"","pricing_plan_id":"cebpf4jnsgd1na2vs0mg"},{"bike_id":"5f0c4e6e-8342-4b95-87f4-4062bdcd73ed","system_id":"levelo_inurba_marseille","lat":43.294209,"lon":5.386562,"is_reserved":false,"is_disabled":false,"rental_uris":{"android":"levelo://app?vid=5f0c4e6e-8342-4b95-87f4-4062bdcd73ed","ios":"levelo://app?vid=5f0c4e6e-8342-4b95-87f4-4062bdcd73ed"},"vehicle_type_id":"4","last_reported":1761117088,"current_range_meters":13600,"station_id":"","pricing_plan_id":"cebpf4jnsgd1na2vs0mg"},{"bike_id":"396aaa55-c35f-41fc-8337-93bac25c9dde","system_id":"levelo_inurba_marseille","lat":43.29228,"lon":5.35563,"is_reserved":false,"is_disabled":false,"rental_uris":{"android":"levelo://app?vid=396aaa55-c35f-41fc-8337-93bac25c9dde","ios":"levelo://app?vid=396aaa55-c35f-41fc-8337-93bac25c9dde"},"vehicle_type_id":"4","last_reported":1761117088,"current_range_meters":14000,"station_id":"","pricing_plan_id":"cebpf4jnsgd1na2vs0mg"},{"bike_id":"bcac21ff-5f96-434a-bbd3-f15b93d38d84","system_id":"levelo_inurba_marseille","lat":43.280642,"lon":5.352788,"is_reserved":false,"is_disabled":false,"rental_uris":{"android":"levelo://app?vid=bcac21ff-5f96-434a-bbd3-f15b93d38d84","ios":"levelo://app?vid=bcac21ff-5f96-434a-bbd3-f15b93d38d84"},"vehicle_type_id":"4","last_reported":1761117088,"current_range_meters":14000,"station_id":"","pricing_plan_id":"cebpf4jnsgd1na2vs0mg"},{"bike_id":"a03e674e-6b92-4f08-91a0-49a582814e89","system_id":"levelo_inurba_marseille","lat":43.241731,"lon":5.397121,"is_reserved":false,"is_disabled":true,"rental_uris":{"android":"levelo://app?vid=a03e674e-6b92-4f08-91a0-49a582814e89","ios":"levelo://app?vid=a03e674e-6b92-4f08-91a0-49a582814e89"},"vehicle_type_id":"4","last_reported":1761117088,"current_range_meters":14000,"station_id":"ce4bhn12rcd13ifvqgpg","pricing_plan_id":"cebpf4jnsgd1na2vs0mg"},{"bike_id":"d00f4c2a-3594-49b4-b41c-198467814d53","system_id":"levelo_inurba_marseille","lat":43.240782,"lon":5.377613,"is_reserved":false,"is_disabled":false,"rental_uris":{"android":"levelo://app?vid=d00f4c2a-3594-49b4-b41c-198467814d53","ios":"levelo://app?vid=d00f4c2a-3594-49b4-b41c-198467814d53"},"vehicle_type_id":"4","last_reported":1761117088,"current_range_meters":14400,"station_id":"ce4bhnp2rcd13ifvqgvg","pricing_plan_id":"cebpf4jnsgd1na2vs0mg"},{"bike_id":"b34954e8-d361-4328-9c1c-5fb9e540a2c6","system_id":"levelo_inurba_marseille","lat":43.27172,"lon":5.40997,"is_reserved":false,"is_disabled":false,"rental_uris":{"android":"levelo://app?vid=b34954e8-d361-4328-9c1c-5fb9e540a2c6","ios":"levelo://app?vid=b34954e8-d361-4328-9c1c-5fb9e540a2c6"},"vehicle_type_id":"4","last_reported":1761117088,"current_range_meters":14400,"station_id":"ce4bhl12rcd13ifvqgf0","pricing_plan_id":"cebpf4jnsgd1na2vs0mg"},{"bike_id":"2f2afaa0-2d28-48b9-b514-876a5e7d38c4","system_id":"levelo_inurba_marseille","lat":43.28192,"lon":5.39065,"is_reserved":false,"is_disabled":false,"rental_uris":{"android":"levelo://app?vid=2f2afaa0-2d28-48b9-b514-876a5e7d38c4","ios":"levelo://app?vid=2f2afaa0-2d28-48b9-b514-876a5e7d38c4"},"vehicle_type_id":"4","last_reported":1761117088,"current_range_meters":14400,"station_id":"ce4bhn92rcd13ifvqgsg","pricing_plan_id":"cebpf4jnsgd1na2vs0mg"},{"bike_id":"f2dbc1bb-44f3-4ee3-9b2e-235834e38bde","system_id":"levelo_inurba_marseille","lat":43.330275,"lon":5.390275,"is_reserved":false,"is_disabled":false,"rental_uris":{"android":"levelo://app?vid=f2dbc1bb-44f3-4ee3-9b2e-235834e38bde","ios":"levelo://app?vid=f2dbc1bb-44f3-4ee3-9b2e-235834e38bde"},"vehicle_type_id":"4","last_reported":1761117088,"current_range_meters":14400,"station_id":"ce4bhr92rcd13ifvqhrg","pricing_plan_id":"cebpf4jnsgd1na2vs0mg"},{"bike_id":"37d01fc8-4b4d-4652-a489-1254eb9d4c80","system_id":"levelo_inurba_marseille","lat":43.34076,"lon":5.40411,"is_reserved":false,"is_disabled":false,"rental_uris":{"android":"levelo://app?vid=37d01fc8-4b4d-4652-a489-1254eb9d4c80","ios":"levelo://app?vid=37d01fc8-4b4d-4652-a489-1254eb9d4c80"},"vehicle_type_id":"4","last_reported":1761117088,"current_range_meters":14400,"station_id":"","pricing_plan_id":"cebpf4jnsgd1na2vs0mg"},{"bike_id":"628c524a-f477-448e-ab2b-14a3a2541b61","system_id":"levelo_inurba_marseille","lat":43.296077,"lon":5.377043,"is_reserved":false,"is_disabled":false,"rental_uris":{"android":"levelo://app?vid=628c524a-f477-448e-ab2b-14a3a2541b61","ios":"levelo://app?vid=628c524a-f477-448e-ab2b-14a3a2541b61"},"vehicle_type_id":"4","last_reported":1761117088,"current_range_meters":14800,"station_id":"ce4bgi92rcd13ifvqb90","pricing_plan_id":"cebpf4jnsgd1na2vs0mg"},{"bike_id":"697f6f14-2b53-401d-8aae-52fa651fb3cb","system_id":"levelo_inurba_marseille","lat":43.30955,"lon":5.39068,"is_reserved":false,"is_disabled":false,"rental_uris":{"android":"levelo://app?vid=697f6f14-2b53-401d-8aae-52fa651fb3cb","ios":"levelo://app?vid=697f6f14-2b53-401d-8aae-52fa651fb3cb"},"vehicle_type_id":"4","last_reported":1761117088,"current_range_meters":14800,"station_id":"ce4bgup2rcd13ifvqco0","pricing_plan_id":"cebpf4jnsgd1na2vs0mg"},{"bike_id":"5f2481dc-58ce-4ae1-9671-10a61fd44b37","system_id":"levelo_inurba_marseille","lat":43.29658,"lon":5.40657,"is_reserved":false,"is_disabled":false,"rental_uris":{"android":"levelo://app?vid=5f2481dc-58ce-4ae1-9671-10a61fd44b37","ios":"levelo://app?vid=5f2481dc-58ce-4ae1-9671-10a61fd44b37"},"vehicle_type_id":"4","last_reported":1761117088,"current_range_meters":15200,"station_id":"","pricing_plan_id":"cebpf4jnsgd1na2vs0mg"},{"bike_id":"2d979906-e4ae-41ed-bb35-b96b15a64b3b","system_id":"levelo_inurba_marseille","lat":43.30733,"lon":5.42445,"is_reserved":false,"is_disabled":false,"rental_uris":{"android":"levelo://app?vid=2d979906-e4ae-41ed-bb35-b96b15a64b3b","ios":"levelo://app?vid=2d979906-e4ae-41ed-bb35-b96b15a64b3b"},"vehicle_type_id":"4","last_reported":1761117088,"current_range_meters":15200,"station_id":"st_cvj6ca6bvosntc0bfgr0","pricing_plan_id":"cebpf4jnsgd1na2vs0mg"},{"bike_id":"1ae4f4ba-cdf3-4681-97bc-7048fb9fbd77","system_id":"levelo_inurba_marseille","lat":43.27817,"lon":5.39217,"is_reserved":false,"is_disabled":false,"rental_uris":{"android":"levelo://app?vid=1ae4f4ba-cdf3-4681-97bc-7048fb9fbd77","ios":"levelo://app?vid=1ae4f4ba-cdf3-4681-97bc-7048fb9fbd77"},"vehicle_type_id":"4","last_reported":1761117088,"current_range_meters":15200,"station_id":"ce4bhjp2rcd13ifvqga0","pricing_plan_id":"cebpf4jnsgd1na2vs0mg"},{"bike_id":"65df4d6d-8abb-4a02-907e-7e8b789e1820","system_id":"levelo_inurba_marseille","lat":43.23781,"lon":5.36631,"is_reserved":false,"is_disabled":false,"rental_uris":{"android":"levelo://app?vid=65df4d6d-8abb-4a02-907e-7e8b789e1820","ios":"levelo://app?vid=65df4d6d-8abb-4a02-907e-7e8b789e1820"},"vehicle_type_id":"4","last_reported":1761117088,"current_range_meters":16000,"station_id":"st_d3nk18o9ro0c73en2l3g","pricing_plan_id":"cebpf4jnsgd1na2vs0mg"},{"bike_id":"5b2fb394-b654-4cda-abea-19d87e1a4938","system_id":"levelo_inurba_marseille","lat":43.240822,"lon":5.377519,"is_reserved":false,"is_disabled":false,"rental_uris":{"android":"levelo://app?vid=5b2fb394-b654-4cda-abea-19d87e1a4938","ios":"levelo://app?vid=5b2fb394-b654-4cda-abea-19d87e1a4938"},"vehicle_type_id":"4","last_reported":1761117088,"current_range_meters":16000,"station_id":"ce4bhnp2rcd13ifvqgvg","pricing_plan_id":"cebpf4jnsgd1na2vs0mg"},{"bike_id":"b61e6817-4496-4ad7-ab43-b524af2e26e5","system_id":"levelo_inurba_marseille","lat":43.2866,"lon":5.38661,"is_reserved":false,"is_disabled":false,"rental_uris":{"android":"levelo://app?vid=b61e6817-4496-4ad7-ab43-b524af2e26e5","ios":"levelo://app?vid=b61e6817-4496-4ad7-ab43-b524af2e26e5"},"vehicle_type_id":"4","last_reported":1761117088,"current_range_meters":16000,"station_id":"","pricing_plan_id":"cebpf4jnsgd1na2vs0mg"},{"bike_id":"07e992db-48e1-481b-a50e-3b491cfc1455","system_id":"levelo_inurba_marseille","lat":43.31991,"lon":5.41291,"is_reserved":false,"is_disabled":false,"rental_uris":{"android":"levelo://app?vid=07e992db-48e1-481b-a50e-3b491cfc1455","ios":"levelo://app?vid=07e992db-48e1-481b-a50e-3b491cfc1455"},"vehicle_type_id":"4","last_reported":1761117088,"current_range_meters":16000,"station_id":"","pricing_plan_id":"cebpf4jnsgd1na2vs0mg"},{"bike_id":"8eddc42f-5d59-40f6-9ec7-f48b77019cdd","system_id":"levelo_inurba_marseille","lat":43.31348,"lon":5.385,"is_reserved":false,"is_disabled":false,"rental_uris":{"android":"levelo://app?vid=8eddc42f-5d59-40f6-9ec7-f48b77019cdd","ios":"levelo://app?vid=8eddc42f-5d59-40f6-9ec7-f48b77019cdd"},"vehicle_type_id":"4","last_reported":1761117088,"current_range_meters":16400,"station_id":"ce4bgt92rcd13ifvqcf0","pricing_plan_id":"cebpf4jnsgd1na2vs0mg"},{"bike_id":"8517d2ad-4627-4d5c-b43d-563f1cd29009","system_id":"levelo_inurba_marseille","lat":43.30427,"lon":5.36862,"is_reserved":false,"is_disabled":false,"rental_uris":{"android":"levelo://app?vid=8517d2ad-4627-4d5c-b43d-563f1cd29009","ios":"levelo://app?vid=8517d2ad-4627-4d5c-b43d-563f1cd29009"},"vehicle_type_id":"4","last_reported":1761117088,"current_range_meters":16400,"station_id":"","pricing_plan_id":"cebpf4jnsgd1na2vs0mg"},{"bike_id":"3d7013be-dfe4-430a-97e8-197a834810ee","system_id":"levelo_inurba_marseille","lat":43.24642,"lon":5.3889,"is_reserved":false,"is_disabled":false,"rental_uris":{"android":"levelo://app?vid=3d7013be-dfe4-430a-97e8-197a834810ee","ios":"levelo://app?vid=3d7013be-dfe4-430a-97e8-197a834810ee"},"vehicle_type_id":"4","last_reported":1761117088,"current_range_meters":16400,"station_id":"ce4bhg12rcd13ifvqf60","pricing_plan_id":"cebpf4jnsgd1na2vs0mg"},{"bike_id":"bbd08cf4-31da-4d68-b46e-697f80190f23","system_id":"levelo_inurba_marseille","lat":43.271851,"lon":5.409935,"is_reserved":false,"is_disabled":false,"rental_uris":{"android":"levelo://app?vid=bbd08cf4-31da-4d68-b46e-697f80190f23","ios":"levelo://app?vid=bbd08cf4-31da-4d68-b46e-697f80190f23"},"vehicle_type_id":"4","last_reported":1761117088,"current_range_meters":16400,"station_id":"ce4bhl12rcd13ifvqgf0","pricing_plan_id":"cebpf4jnsgd1na2vs0mg"},{"bike_id":"e01c0407-9fea-4afc-844a-8e1d738fcda5","system_id":"levelo_inurba_marseille","lat":43.24165,"lon":5.36405,"is_reserved":false,"is_disabled":false,"rental_uris":{"android":"levelo://app?vid=e01c0407-9fea-4afc-844a-8e1d738fcda5","ios":"levelo://app?vid=e01c0407-9fea-4afc-844a-8e1d738fcda5"},"vehicle_type_id":"4","last_reported":1761117088,"current_range_meters":16400,"station_id":"cpo36qri1sfpv3e86is0","pricing_plan_id":"cebpf4jnsgd1na2vs0mg"},{"bike_id":"95dcaf58-66f1-4e63-8319-e0cabb39ab12","system_id":"levelo_inurba_marseille","lat":43.30276,"lon":5.37714,"is_reserved":false,"is_disabled":false,"rental_uris":{"android":"levelo://app?vid=95dcaf58-66f1-4e63-8319-e0cabb39ab12","ios":"levelo://app?vid=95dcaf58-66f1-4e63-8319-e0cabb39ab12"},"vehicle_type_id":"4","last_reported":1761117088,"current_range_meters":16400,"station_id":"ce4bguh2rcd13ifvqcj0","pricing_plan_id":"cebpf4jnsgd1na2vs0mg"},{"bike_id":"0bfa1008-b1d1-4f95-81ce-2f09bf25d6ec","system_id":"levelo_inurba_marseille","lat":43.2877,"lon":5.38568,"is_reserved":false,"is_disabled":false,"rental_uris":{"android":"levelo://app?vid=0bfa1008-b1d1-4f95-81ce-2f09bf25d6ec","ios":"levelo://app?vid=0bfa1008-b1d1-4f95-81ce-2f09bf25d6ec"},"vehicle_type_id":"4","last_reported":1761117088,"current_range_meters":16400,"station_id":"","pricing_plan_id":"cebpf4jnsgd1na2vs0mg"},{"bike_id":"771d78e4-a928-428b-a266-13d946523eca","system_id":"levelo_inurba_marseille","lat":43.25932,"lon":5.40899,"is_reserved":false,"is_disabled":false,"rental_uris":{"android":"levelo://app?vid=771d78e4-a928-428b-a266-13d946523eca","ios":"levelo://app?vid=771d78e4-a928-428b-a266-13d946523eca"},"vehicle_type_id":"4","last_reported":1761117088,"current_range_meters":16400,"station_id":"ce4bhm92rcd13ifvqglg","pricing_plan_id":"cebpf4jnsgd1na2vs0mg"},{"bike_id":"7bbf8c85-77e5-4135-a0bb-cfec06513bd8","system_id":"levelo_inurba_marseille","lat":43.25933,"lon":5.40898,"is_reserved":false,"is_disabled":false,"rental_uris":{"android":"levelo://app?vid=7bbf8c85-77e5-4135-a0bb-cfec06513bd8","ios":"levelo://app?vid=7bbf8c85-77e5-4135-a0bb-cfec06513bd8"},"vehicle_type_id":"4","last_reported":1761117088,"current_range_meters":16800,"station_id":"ce4bhm92rcd13ifvqglg","pricing_plan_id":"cebpf4jnsgd1na2vs0mg"},{"bike_id":"55c7a453-1df8-47bd-b584-9d37339773fa","system_id":"levelo_inurba_marseille","lat":43.32188,"lon":5.38853,"is_reserved":false,"is_disabled":false,"rental_uris":{"android":"levelo://app?vid=55c7a453-1df8-47bd-b584-9d37339773fa","ios":"levelo://app?vid=55c7a453-1df8-47bd-b584-9d37339773fa"},"vehicle_type_id":"4","last_reported":1761117088,"current_range_meters":16800,"station_id":"","pricing_plan_id":"cebpf4jnsgd1na2vs0mg"},{"bike_id":"d599766f-13ba-4ccb-9669-3db338b97e3c","system_id":"levelo_inurba_marseille","lat":43.31121,"lon":5.37741,"is_reserved":false,"is_disabled":false,"rental_uris":{"android":"levelo://app?vid=d599766f-13ba-4ccb-9669-3db338b97e3c","ios":"levelo://app?vid=d599766f-13ba-4ccb-9669-3db338b97e3c"},"vehicle_type_id":"4","last_reported":1761117088,"current_range_meters":16800,"station_id":"ce4bgt92rcd13ifvqcg0","pricing_plan_id":"cebpf4jnsgd1na2vs0mg"},{"bike_id":"618a9c44-e479-45b6-b144-58d3228e3132","system_id":"levelo_inurba_marseille","lat":43.246417,"lon":5.388923,"is_reserved":false,"is_disabled":false,"rental_uris":{"android":"levelo://app?vid=618a9c44-e479-45b6-b144-58d3228e3132","ios":"levelo://app?vid=618a9c44-e479-45b6-b144-58d3228e3132"},"vehicle_type_id":"4","last_reported":1761117088,"current_range_meters":16800,"station_id":"ce4bhg12rcd13ifvqf60","pricing_plan_id":"cebpf4jnsgd1na2vs0mg"},{"bike_id":"4eae2ec4-8862-466e-a3d9-395cca4276d0","system_id":"levelo_inurba_marseille","lat":43.30287,"lon":5.37562,"is_reserved":false,"is_disabled":false,"rental_uris":{"android":"levelo://app?vid=4eae2ec4-8862-466e-a3d9-395cca4276d0","ios":"levelo://app?vid=4eae2ec4-8862-466e-a3d9-395cca4276d0"},"vehicle_type_id":"4","last_reported":1761117088,"current_range_meters":16800,"station_id":"","pricing_plan_id":"cebpf4jnsgd1na2vs0mg"},{"bike_id":"9870a68d-ae62-4bec-82c3-a7443a850bdc","system_id":"levelo_inurba_marseille","lat":43.31248,"lon":5.37802,"is_reserved":false,"is_disabled":false,"rental_uris":{"android":"levelo://app?vid=9870a68d-ae62-4bec-82c3-a7443a850bdc","ios":"levelo://app?vid=9870a68d-ae62-4bec-82c3-a7443a850bdc"},"vehicle_type_id":"4","last_reported":1761117088,"current_range_meters":17200,"station_id":"","pricing_plan_id":"cebpf4jnsgd1na2vs0mg"},{"bike_id":"2a2679b5-3271-4ead-b3d9-9b422dc19eec","system_id":"levelo_inurba_marseille","lat":43.29572,"lon":5.3997,"is_reserved":false,"is_disabled":false,"rental_uris":{"android":"levelo://app?vid=2a2679b5-3271-4ead-b3d9-9b422dc19eec","ios":"levelo://app?vid=2a2679b5-3271-4ead-b3d9-9b422dc19eec"},"vehicle_type_id":"4","last_reported":1761117088,"current_range_meters":17200,"station_id":"ce4bh312rcd13ifvqdj0","pricing_plan_id":"cebpf4jnsgd1na2vs0mg"},{"bike_id":"a7852824-e2a4-479b-99b4-cb953138df6f","system_id":"levelo_inurba_marseille","lat":43.229356,"lon":5.353804,"is_reserved":false,"is_disabled":false,"rental_uris":{"android":"levelo://app?vid=a7852824-e2a4-479b-99b4-cb953138df6f","ios":"levelo://app?vid=a7852824-e2a4-479b-99b4-cb953138df6f"},"vehicle_type_id":"4","last_reported":1761117088,"current_range_meters":17200,"station_id":"cpo3532slgdg3j2ikp40","pricing_plan_id":"cebpf4jnsgd1na2vs0mg"},{"bike_id":"e18cb07c-0276-4f28-932e-5d8ff322f8b6","system_id":"levelo_inurba_marseille","lat":43.24638,"lon":5.38891,"is_reserved":false,"is_disabled":false,"rental_uris":{"android":"levelo://app?vid=e18cb07c-0276-4f28-932e-5d8ff322f8b6","ios":"levelo://app?vid=e18cb07c-0276-4f28-932e-5d8ff322f8b6"},"vehicle_type_id":"4","last_reported":1761117088,"current_range_meters":17200,"station_id":"ce4bhg12rcd13ifvqf60","pricing_plan_id":"cebpf4jnsgd1na2vs0mg"},{"bike_id":"b3b13e92-d401-45af-ad84-a41c7bbeb5fe","system_id":"levelo_inurba_marseille","lat":43.30981,"lon":5.375,"is_reserved":false,"is_disabled":false,"rental_uris":{"android":"levelo://app?vid=b3b13e92-d401-45af-ad84-a41c7bbeb5fe","ios":"levelo://app?vid=b3b13e92-d401-45af-ad84-a41c7bbeb5fe"},"vehicle_type_id":"4","last_reported":1761117088,"current_range_meters":17200,"station_id":"","pricing_plan_id":"cebpf4jnsgd1na2vs0mg"},{"bike_id":"9d8bcd8e-8ecf-425f-98ef-b7c9398172e2","system_id":"levelo_inurba_marseille","lat":43.323527,"lon":5.367494,"is_reserved":false,"is_disabled":false,"rental_uris":{"android":"levelo://app?vid=9d8bcd8e-8ecf-425f-98ef-b7c9398172e2","ios":"levelo://app?vid=9d8bcd8e-8ecf-425f-98ef-b7c9398172e2"},"vehicle_type_id":"4","last_reported":1761117088,"current_range_meters":17200,"station_id":"ce4bhsh2rcd13ifvqi2g","pricing_plan_id":"cebpf4jnsgd1na2vs0mg"},{"bike_id":"078a4bdd-fe9a-42a4-b61e-b2fd0aa147cf","system_id":"levelo_inurba_marseille","lat":43.30536,"lon":5.36548,"is_reserved":false,"is_disabled":false,"rental_uris":{"android":"levelo://app?vid=078a4bdd-fe9a-42a4-b61e-b2fd0aa147cf","ios":"levelo://app?vid=078a4bdd-fe9a-42a4-b61e-b2fd0aa147cf"},"vehicle_type_id":"4","last_reported":1761117088,"current_range_meters":17200,"station_id":"ce4bgs12rcd13ifvqcag","pricing_plan_id":"cebpf4jnsgd1na2vs0mg"},{"bike_id":"a79c6bd1-700c-48dd-854c-b0af28c99022","system_id":"levelo_inurba_marseille","lat":43.24617,"lon":5.43168,"is_reserved":false,"is_disabled":false,"rental_uris":{"android":"levelo://app?vid=a79c6bd1-700c-48dd-854c-b0af28c99022","ios":"levelo://app?vid=a79c6bd1-700c-48dd-854c-b0af28c99022"},"vehicle_type_id":"4","last_reported":1761117088,"current_range_meters":17200,"station_id":"st_d2m6c4gdas8pm72e190g","pricing_plan_id":"cebpf4jnsgd1na2vs0mg"},{"bike_id":"a45cf2c7-902a-42cd-a5c2-6f0d2ebd215c","system_id":"levelo_inurba_marseille","lat":43.308873,"lon":5.396446,"is_reserved":false,"is_disabled":false,"rental_uris":{"android":"levelo://app?vid=a45cf2c7-902a-42cd-a5c2-6f0d2ebd215c","ios":"levelo://app?vid=a45cf2c7-902a-42cd-a5c2-6f0d2ebd215c"},"vehicle_type_id":"4","last_reported":1761117088,"current_range_meters":17600,"station_id":"ce4bh012rcd13ifvqcv0","pricing_plan_id":"cebpf4jnsgd1na2vs0mg"},{"bike_id":"32eaff10-a281-4f40-91e7-99dfcc556b46","system_id":"levelo_inurba_marseille","lat":43.30443,"lon":5.37911,"is_reserved":false,"is_disabled":false,"rental_uris":{"android":"levelo://app?vid=32eaff10-a281-4f40-91e7-99dfcc556b46","ios":"levelo://app?vid=32eaff10-a281-4f40-91e7-99dfcc556b46"},"vehicle_type_id":"4","last_reported":1761117088,"current_range_meters":17600,"station_id":"ce4bgup2rcd13ifvqcn0","pricing_plan_id":"cebpf4jnsgd1na2vs0mg"},{"bike_id":"89d8739f-4b8e-4f60-8f43-e495253557db","system_id":"levelo_inurba_marseille","lat":43.28533,"lon":5.44113,"is_reserved":false,"is_disabled":false,"rental_uris":{"android":"levelo://app?vid=89d8739f-4b8e-4f60-8f43-e495253557db","ios":"levelo://app?vid=89d8739f-4b8e-4f60-8f43-e495253557db"},"vehicle_type_id":"4","last_reported":1761117088,"current_range_meters":17600,"station_id":"st_d3j3df2ikq2c7380ej80","pricing_plan_id":"cebpf4jnsgd1na2vs0mg"},{"bike_id":"34130888-7081-4e94-827a-c12d43393837","system_id":"levelo_inurba_marseille","lat":43.237833,"lon":5.366314,"is_reserved":false,"is_disabled":false,"rental_uris":{"android":"levelo://app?vid=34130888-7081-4e94-827a-c12d43393837","ios":"levelo://app?vid=34130888-7081-4e94-827a-c12d43393837"},"vehicle_type_id":"4","last_reported":1761117088,"current_range_meters":17600,"station_id":"st_d3nk18o9ro0c73en2l3g","pricing_plan_id":"cebpf4jnsgd1na2vs0mg"},{"bike_id":"f61385e8-c02f-4a6a-89e2-09263b566a48","system_id":"levelo_inurba_marseille","lat":43.30528,"lon":5.36553,"is_reserved":false,"is_disabled":false,"rental_uris":{"android":"levelo://app?vid=f61385e8-c02f-4a6a-89e2-09263b566a48","ios":"levelo://app?vid=f61385e8-c02f-4a6a-89e2-09263b566a48"},"vehicle_type_id":"4","last_reported":1761117088,"current_range_meters":17600,"station_id":"ce4bgs12rcd13ifvqcag","pricing_plan_id":"cebpf4jnsgd1na2vs0mg"},{"bike_id":"7232bb60-2fbd-40fd-9d41-97ab2f0d9f37","system_id":"levelo_inurba_marseille","lat":43.2409,"lon":5.4136,"is_reserved":false,"is_disabled":false,"rental_uris":{"android":"levelo://app?vid=7232bb60-2fbd-40fd-9d41-97ab2f0d9f37","ios":"levelo://app?vid=7232bb60-2fbd-40fd-9d41-97ab2f0d9f37"},"vehicle_type_id":"4","last_reported":1761117088,"current_range_meters":18000,"station_id":"","pricing_plan_id":"cebpf4jnsgd1na2vs0mg"},{"bike_id":"fabe01e6-e39a-42c6-bb68-6378fe2a2d01","system_id":"levelo_inurba_marseille","lat":43.27953,"lon":5.41049,"is_reserved":false,"is_disabled":false,"rental_uris":{"android":"levelo://app?vid=fabe01e6-e39a-42c6-bb68-6378fe2a2d01","ios":"levelo://app?vid=fabe01e6-e39a-42c6-bb68-6378fe2a2d01"},"vehicle_type_id":"4","last_reported":1761117088,"current_range_meters":18000,"station_id":"ce4bhnp2rcd13ifvqh0g","pricing_plan_id":"cebpf4jnsgd1na2vs0mg"},{"bike_id":"c8c0fa58-a519-4343-9887-b0c694f93aef","system_id":"levelo_inurba_marseille","lat":43.28886,"lon":5.42521,"is_reserved":false,"is_disabled":false,"rental_uris":{"android":"levelo://app?vid=c8c0fa58-a519-4343-9887-b0c694f93aef","ios":"levelo://app?vid=c8c0fa58-a519-4343-9887-b0c694f93aef"},"vehicle_type_id":"4","last_reported":1761117088,"current_range_meters":18000,"station_id":"st_d3b462108ojc7389ooeg","pricing_plan_id":"cebpf4jnsgd1na2vs0mg"},{"bike_id":"37919a81-5f03-4e93-b094-379888e8cb5b","system_id":"levelo_inurba_marseille","lat":43.30296,"lon":5.36907,"is_reserved":false,"is_disabled":false,"rental_uris":{"android":"levelo://app?vid=37919a81-5f03-4e93-b094-379888e8cb5b","ios":"levelo://app?vid=37919a81-5f03-4e93-b094-379888e8cb5b"},"vehicle_type_id":"4","last_reported":1761117088,"current_range_meters":18000,"station_id":"ce4bgqh2rcd13ifvqc5g","pricing_plan_id":"cebpf4jnsgd1na2vs0mg"},{"bike_id":"0ec4ef5d-d495-417b-9bb4-a7234e30b1f5","system_id":"levelo_inurba_marseille","lat":43.24539,"lon":5.39522,"is_reserved":false,"is_disabled":false,"rental_uris":{"android":"levelo://app?vid=0ec4ef5d-d495-417b-9bb4-a7234e30b1f5","ios":"levelo://app?vid=0ec4ef5d-d495-417b-9bb4-a7234e30b1f5"},"vehicle_type_id":"4","last_reported":1761117088,"current_range_meters":18000,"station_id":"ce4bhlp2rcd13ifvqgjg","pricing_plan_id":"cebpf4jnsgd1na2vs0mg"},{"bike_id":"9d7f3a6e-0b4c-41cd-9b1c-7b029025d66d","system_id":"levelo_inurba_marseille","lat":43.28157,"lon":5.42654,"is_reserved":false,"is_disabled":false,"rental_uris":{"android":"levelo://app?vid=9d7f3a6e-0b4c-41cd-9b1c-7b029025d66d","ios":"levelo://app?vid=9d7f3a6e-0b4c-41cd-9b1c-7b029025d66d"},"vehicle_type_id":"4","last_reported":1761117088,"current_range_meters":18000,"station_id":"ce4bhnh2rcd13ifvqgug","pricing_plan_id":"cebpf4jnsgd1na2vs0mg"},{"bike_id":"e41d7aa4-71f9-4867-86ca-abcc28a88aca","system_id":"levelo_inurba_marseille","lat":43.29561,"lon":5.37505,"is_reserved":false,"is_disabled":false,"rental_uris":{"android":"levelo://app?vid=e41d7aa4-71f9-4867-86ca-abcc28a88aca","ios":"levelo://app?vid=e41d7aa4-71f9-4867-86ca-abcc28a88aca"},"vehicle_type_id":"4","last_reported":1761117088,"current_range_meters":18000,"station_id":"ce4bgh92rcd13ifvqb50","pricing_plan_id":"cebpf4jnsgd1na2vs0mg"},{"bike_id":"f943f823-d9e2-4f69-9794-8ee1bed89cda","system_id":"levelo_inurba_marseille","lat":43.2416,"lon":5.36391,"is_reserved":false,"is_disabled":false,"rental_uris":{"android":"levelo://app?vid=f943f823-d9e2-4f69-9794-8ee1bed89cda","ios":"levelo://app?vid=f943f823-d9e2-4f69-9794-8ee1bed89cda"},"vehicle_type_id":"4","last_reported":1761117088,"current_range_meters":18000,"station_id":"cpo36qri1sfpv3e86is0","pricing_plan_id":"cebpf4jnsgd1na2vs0mg"},{"bike_id":"77f95169-f9be-4f42-8dbc-2881374ef5f1","system_id":"levelo_inurba_marseille","lat":43.29321,"lon":5.40064,"is_reserved":false,"is_disabled":false,"rental_uris":{"android":"levelo://app?vid=77f95169-f9be-4f42-8dbc-2881374ef5f1","ios":"levelo://app?vid=77f95169-f9be-4f42-8dbc-2881374ef5f1"},"vehicle_type_id":"4","last_reported":1761117088,"current_range_meters":18000,"station_id":"ce4bh312rcd13ifvqdk0","pricing_plan_id":"cebpf4jnsgd1na2vs0mg"},{"bike_id":"99332a38-6d7c-4935-86ee-07acb729932e","system_id":"levelo_inurba_marseille","lat":43.298023,"lon":5.381016,"is_reserved":false,"is_disabled":false,"rental_uris":{"android":"levelo://app?vid=99332a38-6d7c-4935-86ee-07acb729932e","ios":"levelo://app?vid=99332a38-6d7c-4935-86ee-07acb729932e"},"vehicle_type_id":"4","last_reported":1761117088,"current_range_meters":18800,"station_id":"ce4bgip2rcd13ifvqbb0","pricing_plan_id":"cebpf4jnsgd1na2vs0mg"},{"bike_id":"6dedb052-20a2-44cd-aeba-04edee226593","system_id":"levelo_inurba_marseille","lat":43.22563,"lon":5.4162,"is_reserved":false,"is_disabled":false,"rental_uris":{"android":"levelo://app?vid=6dedb052-20a2-44cd-aeba-04edee226593","ios":"levelo://app?vid=6dedb052-20a2-44cd-aeba-04edee226593"},"vehicle_type_id":"4","last_reported":1761117088,"current_range_meters":18800,"station_id":"st_d2o4gvlbi1j2169b742g","pricing_plan_id":"cebpf4jnsgd1na2vs0mg"},{"bike_id":"61525fe3-26d4-4c5c-a075-e59599c296c4","system_id":"levelo_inurba_marseille","lat":43.314434,"lon":5.392922,"is_reserved":false,"is_disabled":false,"rental_uris":{"android":"levelo://app?vid=61525fe3-26d4-4c5c-a075-e59599c296c4","ios":"levelo://app?vid=61525fe3-26d4-4c5c-a075-e59599c296c4"},"vehicle_type_id":"4","last_reported":1761117088,"current_range_meters":18800,"station_id":"","pricing_plan_id":"cebpf4jnsgd1na2vs0mg"},{"bike_id":"03f6d8cb-1405-4ac4-a15e-a772cc676986","system_id":"levelo_inurba_marseille","lat":43.2889,"lon":5.36444,"is_reserved":false,"is_disabled":true,"rental_uris":{"android":"levelo://app?vid=03f6d8cb-1405-4ac4-a15e-a772cc676986","ios":"levelo://app?vid=03f6d8cb-1405-4ac4-a15e-a772cc676986"},"vehicle_type_id":"4","last_reported":1761117088,"current_range_meters":18800,"station_id":"","pricing_plan_id":"cebpf4jnsgd1na2vs0mg"},{"bike_id":"c6a972ac-2fa6-49d9-b8e7-f20838fb302d","system_id":"levelo_inurba_marseille","lat":43.2962,"lon":5.37167,"is_reserved":false,"is_disabled":false,"rental_uris":{"android":"levelo://app?vid=c6a972ac-2fa6-49d9-b8e7-f20838fb302d","ios":"levelo://app?vid=c6a972ac-2fa6-49d9-b8e7-f20838fb302d"},"vehicle_type_id":"4","last_reported":1761117088,"current_range_meters":18800,"station_id":"ce4bgnh2rcd13ifvqc0g","pricing_plan_id":"cebpf4jnsgd1na2vs0mg"},{"bike_id":"205a1994-d98a-42ee-a2a9-7548fdcc1a21","system_id":"levelo_inurba_marseille","lat":43.30527,"lon":5.36558,"is_reserved":false,"is_disabled":false,"rental_uris":{"android":"levelo://app?vid=205a1994-d98a-42ee-a2a9-7548fdcc1a21","ios":"levelo://app?vid=205a1994-d98a-42ee-a2a9-7548fdcc1a21"},"vehicle_type_id":"4","last_reported":1761117088,"current_range_meters":18800,"station_id":"","pricing_plan_id":"cebpf4jnsgd1na2vs0mg"},{"bike_id":"415179a7-2d88-422a-bebd-ab5d5bf72e3d","system_id":"levelo_inurba_marseille","lat":43.32002,"lon":5.38142,"is_reserved":false,"is_disabled":false,"rental_uris":{"android":"levelo://app?vid=415179a7-2d88-422a-bebd-ab5d5bf72e3d","ios":"levelo://app?vid=415179a7-2d88-422a-bebd-ab5d5bf72e3d"},"vehicle_type_id":"4","last_reported":1761117088,"current_range_meters":18800,"station_id":"ce4bhr12rcd13ifvqhpg","pricing_plan_id":"cebpf4jnsgd1na2vs0mg"},{"bike_id":"55b27003-e418-41af-bb13-d4d6bfaa0f10","system_id":"levelo_inurba_marseille","lat":43.30887,"lon":5.39636,"is_reserved":false,"is_disabled":false,"rental_uris":{"android":"levelo://app?vid=55b27003-e418-41af-bb13-d4d6bfaa0f10","ios":"levelo://app?vid=55b27003-e418-41af-bb13-d4d6bfaa0f10"},"vehicle_type_id":"4","last_reported":1761117088,"current_range_meters":18800,"station_id":"ce4bh012rcd13ifvqcv0","pricing_plan_id":"cebpf4jnsgd1na2vs0mg"},{"bike_id":"f04e3ab5-ced7-4af8-b997-19eceefb150c","system_id":"levelo_inurba_marseille","lat":43.296143,"lon":5.37154,"is_reserved":false,"is_disabled":true,"rental_uris":{"android":"levelo://app?vid=f04e3ab5-ced7-4af8-b997-19eceefb150c","ios":"levelo://app?vid=f04e3ab5-ced7-4af8-b997-19eceefb150c"},"vehicle_type_id":"4","last_reported":1761117088,"current_range_meters":19200,"station_id":"ce4bgnh2rcd13ifvqc0g","pricing_plan_id":"cebpf4jnsgd1na2vs0mg"},{"bike_id":"4c2b5c5f-ac7a-43d4-a4ed-480a42d5e982","system_id":"levelo_inurba_marseille","lat":43.33928,"lon":5.39756,"is_reserved":false,"is_disabled":false,"rental_uris":{"android":"levelo://app?vid=4c2b5c5f-ac7a-43d4-a4ed-480a42d5e982","ios":"levelo://app?vid=4c2b5c5f-ac7a-43d4-a4ed-480a42d5e982"},"vehicle_type_id":"4","last_reported":1761117088,"current_range_meters":19200,"station_id":"","pricing_plan_id":"cebpf4jnsgd1na2vs0mg"},{"bike_id":"fc088b50-e903-4413-b68e-3a2b8a695866","system_id":"levelo_inurba_marseille","lat":43.24632,"lon":5.431494,"is_reserved":false,"is_disabled":false,"rental_uris":{"android":"levelo://app?vid=fc088b50-e903-4413-b68e-3a2b8a695866","ios":"levelo://app?vid=fc088b50-e903-4413-b68e-3a2b8a695866"},"vehicle_type_id":"4","last_reported":1761117088,"current_range_meters":19200,"station_id":"st_d2m6c4gdas8pm72e190g","pricing_plan_id":"cebpf4jnsgd1na2vs0mg"},{"bike_id":"622a446d-7aa9-48f8-a28a-4bdb017917b6","system_id":"levelo_inurba_marseille","lat":43.30156,"lon":5.38094,"is_reserved":false,"is_disabled":false,"rental_uris":{"android":"levelo://app?vid=622a446d-7aa9-48f8-a28a-4bdb017917b6","ios":"levelo://app?vid=622a446d-7aa9-48f8-a28a-4bdb017917b6"},"vehicle_type_id":"4","last_reported":1761117088,"current_range_meters":19200,"station_id":"ce4bgjp2rcd13ifvqbh0","pricing_plan_id":"cebpf4jnsgd1na2vs0mg"},{"bike_id":"bda3ed1a-3199-4eb8-8229-577855d09dbb","system_id":"levelo_inurba_marseille","lat":43.3163,"lon":5.37876,"is_reserved":false,"is_disabled":false,"rental_uris":{"android":"levelo://app?vid=bda3ed1a-3199-4eb8-8229-577855d09dbb","ios":"levelo://app?vid=bda3ed1a-3199-4eb8-8229-577855d09dbb"},"vehicle_type_id":"4","last_reported":1761117088,"current_range_meters":19200,"station_id":"","pricing_plan_id":"cebpf4jnsgd1na2vs0mg"},{"bike_id":"67adc0e4-36f6-48c6-ae15-5ffd9fb51d0c","system_id":"levelo_inurba_marseille","lat":43.28195,"lon":5.39061,"is_reserved":false,"is_disabled":false,"rental_uris":{"android":"levelo://app?vid=67adc0e4-36f6-48c6-ae15-5ffd9fb51d0c","ios":"levelo://app?vid=67adc0e4-36f6-48c6-ae15-5ffd9fb51d0c"},"vehicle_type_id":"4","last_reported":1761117088,"current_range_meters":19200,"station_id":"ce4bhn92rcd13ifvqgsg","pricing_plan_id":"cebpf4jnsgd1na2vs0mg"},{"bike_id":"ec9ee4d8-13eb-433e-aa28-41abef4bfaa6","system_id":"levelo_inurba_marseille","lat":43.25919,"lon":5.4091,"is_reserved":false,"is_disabled":false,"rental_uris":{"android":"levelo://app?vid=ec9ee4d8-13eb-433e-aa28-41abef4bfaa6","ios":"levelo://app?vid=ec9ee4d8-13eb-433e-aa28-41abef4bfaa6"},"vehicle_type_id":"4","last_reported":1761117088,"current_range_meters":19200,"station_id":"ce4bhm92rcd13ifvqglg","pricing_plan_id":"cebpf4jnsgd1na2vs0mg"},{"bike_id":"fbb74503-2d8f-4e8a-9630-af6095649c50","system_id":"levelo_inurba_marseille","lat":43.2968,"lon":5.37703,"is_reserved":false,"is_disabled":false,"rental_uris":{"android":"levelo://app?vid=fbb74503-2d8f-4e8a-9630-af6095649c50","ios":"levelo://app?vid=fbb74503-2d8f-4e8a-9630-af6095649c50"},"vehicle_type_id":"4","last_reported":1761117088,"current_range_meters":19200,"station_id":"ce4bgkh2rcd13ifvqbl0","pricing_plan_id":"cebpf4jnsgd1na2vs0mg"},{"bike_id":"d9247930-f477-4727-872b-24c5b02f6614","system_id":"levelo_inurba_marseille","lat":43.271883,"lon":5.409967,"is_reserved":false,"is_disabled":false,"rental_uris":{"android":"levelo://app?vid=d9247930-f477-4727-872b-24c5b02f6614","ios":"levelo://app?vid=d9247930-f477-4727-872b-24c5b02f6614"},"vehicle_type_id":"4","last_reported":1761117088,"current_range_meters":19200,"station_id":"ce4bhl12rcd13ifvqgf0","pricing_plan_id":"cebpf4jnsgd1na2vs0mg"},{"bike_id":"61787646-5649-4c74-a4c9-29ecfa063996","system_id":"levelo_inurba_marseille","lat":43.32467,"lon":5.3658,"is_reserved":false,"is_disabled":false,"rental_uris":{"android":"levelo://app?vid=61787646-5649-4c74-a4c9-29ecfa063996","ios":"levelo://app?vid=61787646-5649-4c74-a4c9-29ecfa063996"},"vehicle_type_id":"4","last_reported":1761117088,"current_range_meters":19200,"station_id":"ce4bhs12rcd13ifvqhvg","pricing_plan_id":"cebpf4jnsgd1na2vs0mg"},{"bike_id":"9225b383-9698-440b-bc47-cf3b5ffb3cb2","system_id":"levelo_inurba_marseille","lat":43.313301,"lon":5.397039,"is_reserved":false,"is_disabled":false,"rental_uris":{"android":"levelo://app?vid=9225b383-9698-440b-bc47-cf3b5ffb3cb2","ios":"levelo://app?vid=9225b383-9698-440b-bc47-cf3b5ffb3cb2"},"vehicle_type_id":"4","last_reported":1761117088,"current_range_meters":19200,"station_id":"ce4bgvp2rcd13ifvqcu0","pricing_plan_id":"cebpf4jnsgd1na2vs0mg"},{"bike_id":"40303149-c249-4c20-8a1b-4e9e0c5b5d3b","system_id":"levelo_inurba_marseille","lat":43.260498,"lon":5.407139,"is_reserved":false,"is_disabled":false,"rental_uris":{"android":"levelo://app?vid=40303149-c249-4c20-8a1b-4e9e0c5b5d3b","ios":"levelo://app?vid=40303149-c249-4c20-8a1b-4e9e0c5b5d3b"},"vehicle_type_id":"4","last_reported":1761117088,"current_range_meters":19600,"station_id":"ce4bhn92rcd13ifvqgsg","pricing_plan_id":"cebpf4jnsgd1na2vs0mg"},{"bike_id":"e8d5589c-46e6-4f16-98dc-f58df1da932e","system_id":"levelo_inurba_marseille","lat":43.27181,"lon":5.40984,"is_reserved":false,"is_disabled":false,"rental_uris":{"android":"levelo://app?vid=e8d5589c-46e6-4f16-98dc-f58df1da932e","ios":"levelo://app?vid=e8d5589c-46e6-4f16-98dc-f58df1da932e"},"vehicle_type_id":"4","last_reported":1761117088,"current_range_meters":19600,"station_id":"ce4bhl12rcd13ifvqgf0","pricing_plan_id":"cebpf4jnsgd1na2vs0mg"},{"bike_id":"2a22829e-2bd6-41ec-a3e5-ef826e7425d3","system_id":"levelo_inurba_marseille","lat":43.321007,"lon":5.36771,"is_reserved":false,"is_disabled":false,"rental_uris":{"android":"levelo://app?vid=2a22829e-2bd6-41ec-a3e5-ef826e7425d3","ios":"levelo://app?vid=2a22829e-2bd6-41ec-a3e5-ef826e7425d3"},"vehicle_type_id":"4","last_reported":1761117088,"current_range_meters":19600,"station_id":"ce4bhrh2rcd13ifvqhug","pricing_plan_id":"cebpf4jnsgd1na2vs0mg"},{"bike_id":"27b803b9-a8f9-42b9-b513-0807b9cf9d84","system_id":"levelo_inurba_marseille","lat":43.29112,"lon":5.3814,"is_reserved":false,"is_disabled":true,"rental_uris":{"android":"levelo://app?vid=27b803b9-a8f9-42b9-b513-0807b9cf9d84","ios":"levelo://app?vid=27b803b9-a8f9-42b9-b513-0807b9cf9d84"},"vehicle_type_id":"4","last_reported":1761117088,"current_range_meters":19600,"station_id":"ce4bh512rcd13ifvqe2g","pricing_plan_id":"cebpf4jnsgd1na2vs0mg"},{"bike_id":"2d1814d0-f995-4f07-82e3-e70d1e883e0c","system_id":"levelo_inurba_marseille","lat":43.27208,"lon":5.39169,"is_reserved":false,"is_disabled":false,"rental_uris":{"android":"levelo://app?vid=2d1814d0-f995-4f07-82e3-e70d1e883e0c","ios":"levelo://app?vid=2d1814d0-f995-4f07-82e3-e70d1e883e0c"},"vehicle_type_id":"4","last_reported":1761117088,"current_range_meters":19600,"station_id":"ce4bhhp2rcd13ifvqfm0","pricing_plan_id":"cebpf4jnsgd1na2vs0mg"},{"bike_id":"55e90a26-98e4-4248-854f-c415996cafea","system_id":"levelo_inurba_marseille","lat":43.3376,"lon":5.37389,"is_reserved":false,"is_disabled":false,"rental_uris":{"android":"levelo://app?vid=55e90a26-98e4-4248-854f-c415996cafea","ios":"levelo://app?vid=55e90a26-98e4-4248-854f-c415996cafea"},"vehicle_type_id":"4","last_reported":1761117088,"current_range_meters":19600,"station_id":"","pricing_plan_id":"cebpf4jnsgd1na2vs0mg"},{"bike_id":"030422f1-c180-4591-b998-02f6d261a68c","system_id":"levelo_inurba_marseille","lat":43.32997,"lon":5.39025,"is_reserved":false,"is_disabled":false,"rental_uris":{"android":"levelo://app?vid=030422f1-c180-4591-b998-02f6d261a68c","ios":"levelo://app?vid=030422f1-c180-4591-b998-02f6d261a68c"},"vehicle_type_id":"4","last_reported":1761117088,"current_range_meters":20000,"station_id":"ce4bhr92rcd13ifvqhrg","pricing_plan_id":"cebpf4jnsgd1na2vs0mg"},{"bike_id":"60b44663-cccc-46c1-8e45-5670301b61d9","system_id":"levelo_inurba_marseille","lat":43.27954,"lon":5.41048,"is_reserved":false,"is_disabled":true,"rental_uris":{"android":"levelo://app?vid=60b44663-cccc-46c1-8e45-5670301b61d9","ios":"levelo://app?vid=60b44663-cccc-46c1-8e45-5670301b61d9"},"vehicle_type_id":"4","last_reported":1761117088,"current_range_meters":20000,"station_id":"ce4bhnp2rcd13ifvqh0g","pricing_plan_id":"cebpf4jnsgd1na2vs0mg"},{"bike_id":"9bfe4fb2-b19d-4fd2-bfac-57d80f1339ac","system_id":"levelo_inurba_marseille","lat":43.31985,"lon":5.38149,"is_reserved":false,"is_disabled":false,"rental_uris":{"android":"levelo://app?vid=9bfe4fb2-b19d-4fd2-bfac-57d80f1339ac","ios":"levelo://app?vid=9bfe4fb2-b19d-4fd2-bfac-57d80f1339ac"},"vehicle_type_id":"4","last_reported":1761117088,"current_range_meters":20000,"station_id":"ce4bhr12rcd13ifvqhpg","pricing_plan_id":"cebpf4jnsgd1na2vs0mg"},{"bike_id":"0b4d9bcb-954a-404f-a343-3632dfc99f1c","system_id":"levelo_inurba_marseille","lat":43.29261,"lon":5.40879,"is_reserved":false,"is_disabled":false,"rental_uris":{"android":"levelo://app?vid=0b4d9bcb-954a-404f-a343-3632dfc99f1c","ios":"levelo://app?vid=0b4d9bcb-954a-404f-a343-3632dfc99f1c"},"vehicle_type_id":"4","last_reported":1761117088,"current_range_meters":20000,"station_id":"ce4bh192rcd13ifvqdc0","pricing_plan_id":"cebpf4jnsgd1na2vs0mg"},{"bike_id":"88b2962d-442b-480d-a54f-7ba286a29a00","system_id":"levelo_inurba_marseille","lat":43.31242,"lon":5.369,"is_reserved":false,"is_disabled":false,"rental_uris":{"android":"levelo://app?vid=88b2962d-442b-480d-a54f-7ba286a29a00","ios":"levelo://app?vid=88b2962d-442b-480d-a54f-7ba286a29a00"},"vehicle_type_id":"4","last_reported":1761117088,"current_range_meters":20000,"station_id":"ce4bgl92rcd13ifvqbq0","pricing_plan_id":"cebpf4jnsgd1na2vs0mg"},{"bike_id":"133f338e-9f75-48b8-89a6-440ae7426230","system_id":"levelo_inurba_marseille","lat":43.28274,"lon":5.35066,"is_reserved":false,"is_disabled":false,"rental_uris":{"android":"levelo://app?vid=133f338e-9f75-48b8-89a6-440ae7426230","ios":"levelo://app?vid=133f338e-9f75-48b8-89a6-440ae7426230"},"vehicle_type_id":"4","last_reported":1761117088,"current_range_meters":20000,"station_id":"ce4bhbp2rcd13ifvqerg","pricing_plan_id":"cebpf4jnsgd1na2vs0mg"},{"bike_id":"bc1ce556-4f70-40b2-a104-08b26a535c74","system_id":"levelo_inurba_marseille","lat":43.22571,"lon":5.41627,"is_reserved":false,"is_disabled":false,"rental_uris":{"android":"levelo://app?vid=bc1ce556-4f70-40b2-a104-08b26a535c74","ios":"levelo://app?vid=bc1ce556-4f70-40b2-a104-08b26a535c74"},"vehicle_type_id":"4","last_reported":1761117088,"current_range_meters":20000,"station_id":"st_d2o4gvlbi1j2169b742g","pricing_plan_id":"cebpf4jnsgd1na2vs0mg"},{"bike_id":"3b1c4c95-d7f9-4d67-b3ae-5a0343d4f9eb","system_id":"levelo_inurba_marseille","lat":43.30285,"lon":5.36908,"is_reserved":false,"is_disabled":false,"rental_uris":{"android":"levelo://app?vid=3b1c4c95-d7f9-4d67-b3ae-5a0343d4f9eb","ios":"levelo://app?vid=3b1c4c95-d7f9-4d67-b3ae-5a0343d4f9eb"},"vehicle_type_id":"4","last_reported":1761117088,"current_range_meters":20000,"station_id":"ce4bgqh2rcd13ifvqc5g","pricing_plan_id":"cebpf4jnsgd1na2vs0mg"},{"bike_id":"9bac8944-054c-49c2-9840-7c70942bf7c7","system_id":"levelo_inurba_marseille","lat":43.30519,"lon":5.3671,"is_reserved":false,"is_disabled":false,"rental_uris":{"android":"levelo://app?vid=9bac8944-054c-49c2-9840-7c70942bf7c7","ios":"levelo://app?vid=9bac8944-054c-49c2-9840-7c70942bf7c7"},"vehicle_type_id":"4","last_reported":1761117088,"current_range_meters":20400,"station_id":"ce4bgrp2rcd13ifvqc9g","pricing_plan_id":"cebpf4jnsgd1na2vs0mg"},{"bike_id":"80ccbb52-d3e3-4136-a9db-8231d638ce6b","system_id":"levelo_inurba_marseille","lat":43.31339,"lon":5.36724,"is_reserved":false,"is_disabled":false,"rental_uris":{"android":"levelo://app?vid=80ccbb52-d3e3-4136-a9db-8231d638ce6b","ios":"levelo://app?vid=80ccbb52-d3e3-4136-a9db-8231d638ce6b"},"vehicle_type_id":"4","last_reported":1761117088,"current_range_meters":20400,"station_id":"ce4bgr92rcd13ifvqc6g","pricing_plan_id":"cebpf4jnsgd1na2vs0mg"},{"bike_id":"1046eccf-a019-43bf-92a1-3d6481dd8f1d","system_id":"levelo_inurba_marseille","lat":43.24539,"lon":5.39535,"is_reserved":false,"is_disabled":false,"rental_uris":{"android":"levelo://app?vid=1046eccf-a019-43bf-92a1-3d6481dd8f1d","ios":"levelo://app?vid=1046eccf-a019-43bf-92a1-3d6481dd8f1d"},"vehicle_type_id":"4","last_reported":1761117088,"current_range_meters":20400,"station_id":"ce4bhlp2rcd13ifvqgjg","pricing_plan_id":"cebpf4jnsgd1na2vs0mg"},{"bike_id":"98ce260e-260a-4f8a-b4b9-bbddca235045","system_id":"levelo_inurba_marseille","lat":43.263989,"lon":5.390074,"is_reserved":false,"is_disabled":false,"rental_uris":{"android":"levelo://app?vid=98ce260e-260a-4f8a-b4b9-bbddca235045","ios":"levelo://app?vid=98ce260e-260a-4f8a-b4b9-bbddca235045"},"vehicle_type_id":"4","last_reported":1761117088,"current_range_meters":20400,"station_id":"","pricing_plan_id":"cebpf4jnsgd1na2vs0mg"},{"bike_id":"b35d63f3-5b66-4c84-a8fc-f493307bd008","system_id":"levelo_inurba_marseille","lat":43.28856,"lon":5.35853,"is_reserved":false,"is_disabled":false,"rental_uris":{"android":"levelo://app?vid=b35d63f3-5b66-4c84-a8fc-f493307bd008","ios":"levelo://app?vid=b35d63f3-5b66-4c84-a8fc-f493307bd008"},"vehicle_type_id":"4","last_reported":1761117088,"current_range_meters":20400,"station_id":"ce4bhb12rcd13ifvqem0","pricing_plan_id":"cebpf4jnsgd1na2vs0mg"},{"bike_id":"75eebb0f-2447-4bf8-b846-45b5b359059b","system_id":"levelo_inurba_marseille","lat":43.337572,"lon":5.374903,"is_reserved":false,"is_disabled":false,"rental_uris":{"android":"levelo://app?vid=75eebb0f-2447-4bf8-b846-45b5b359059b","ios":"levelo://app?vid=75eebb0f-2447-4bf8-b846-45b5b359059b"},"vehicle_type_id":"4","last_reported":1761117088,"current_range_meters":20400,"station_id":"","pricing_plan_id":"cebpf4jnsgd1na2vs0mg"},{"bike_id":"13ffca06-ecc4-46ee-aa82-6818647126c8","system_id":"levelo_inurba_marseille","lat":43.299,"lon":5.4367,"is_reserved":false,"is_disabled":false,"rental_uris":{"android":"levelo://app?vid=13ffca06-ecc4-46ee-aa82-6818647126c8","ios":"levelo://app?vid=13ffca06-ecc4-46ee-aa82-6818647126c8"},"vehicle_type_id":"4","last_reported":1761117088,"current_range_meters":20400,"station_id":"ce4bhpp2rcd13ifvqhfg","pricing_plan_id":"cebpf4jnsgd1na2vs0mg"},{"bike_id":"0e67ebe9-abff-4bf3-a891-3c1a18726b69","system_id":"levelo_inurba_marseille","lat":43.30129,"lon":5.38787,"is_reserved":false,"is_disabled":true,"rental_uris":{"android":"levelo://app?vid=0e67ebe9-abff-4bf3-a891-3c1a18726b69","ios":"levelo://app?vid=0e67ebe9-abff-4bf3-a891-3c1a18726b69"},"vehicle_type_id":"4","last_reported":1761117088,"current_range_meters":20800,"station_id":"ce4bghh2rcd13ifvqb60","pricing_plan_id":"cebpf4jnsgd1na2vs0mg"},{"bike_id":"035ca1d7-233f-4f69-9569-4f3393764361","system_id":"levelo_inurba_marseille","lat":43.30876,"lon":5.37294,"is_reserved":false,"is_disabled":false,"rental_uris":{"android":"levelo://app?vid=035ca1d7-233f-4f69-9569-4f3393764361","ios":"levelo://app?vid=035ca1d7-233f-4f69-9569-4f3393764361"},"vehicle_type_id":"4","last_reported":1761117088,"current_range_meters":20800,"station_id":"","pricing_plan_id":"cebpf4jnsgd1na2vs0mg"},{"bike_id":"8bcacd78-80de-4026-af75-b37ebe3030fe","system_id":"levelo_inurba_marseille","lat":43.334756,"lon":5.404255,"is_reserved":false,"is_disabled":false,"rental_uris":{"android":"levelo://app?vid=8bcacd78-80de-4026-af75-b37ebe3030fe","ios":"levelo://app?vid=8bcacd78-80de-4026-af75-b37ebe3030fe"},"vehicle_type_id":"4","last_reported":1761117088,"current_range_meters":20800,"station_id":"","pricing_plan_id":"cebpf4jnsgd1na2vs0mg"},{"bike_id":"8cdf05b5-c2ab-48d7-927b-fdf9329fea67","system_id":"levelo_inurba_marseille","lat":43.23782,"lon":5.36634,"is_reserved":false,"is_disabled":false,"rental_uris":{"android":"levelo://app?vid=8cdf05b5-c2ab-48d7-927b-fdf9329fea67","ios":"levelo://app?vid=8cdf05b5-c2ab-48d7-927b-fdf9329fea67"},"vehicle_type_id":"4","last_reported":1761117088,"current_range_meters":20800,"station_id":"st_d3nk18o9ro0c73en2l3g","pricing_plan_id":"cebpf4jnsgd1na2vs0mg"},{"bike_id":"692a999f-f646-43fe-b949-d58fd32447f4","system_id":"levelo_inurba_marseille","lat":43.32345,"lon":5.38895,"is_reserved":false,"is_disabled":false,"rental_uris":{"android":"levelo://app?vid=692a999f-f646-43fe-b949-d58fd32447f4","ios":"levelo://app?vid=692a999f-f646-43fe-b949-d58fd32447f4"},"vehicle_type_id":"4","last_reported":1761117088,"current_range_meters":20800,"station_id":"ce4bhqp2rcd13ifvqhog","pricing_plan_id":"cebpf4jnsgd1na2vs0mg"},{"bike_id":"4de5a3a5-3b6e-4ce7-8372-1db61e216cbe","system_id":"levelo_inurba_marseille","lat":43.24625,"lon":5.43154,"is_reserved":false,"is_disabled":false,"rental_uris":{"android":"levelo://app?vid=4de5a3a5-3b6e-4ce7-8372-1db61e216cbe","ios":"levelo://app?vid=4de5a3a5-3b6e-4ce7-8372-1db61e216cbe"},"vehicle_type_id":"4","last_reported":1761117088,"current_range_meters":20800,"station_id":"st_d2m6c4gdas8pm72e190g","pricing_plan_id":"cebpf4jnsgd1na2vs0mg"},{"bike_id":"a0cf25ec-03d5-45dd-b042-68569b17f85d","system_id":"levelo_inurba_marseille","lat":43.253423,"lon":5.421731,"is_reserved":false,"is_disabled":false,"rental_uris":{"android":"levelo://app?vid=a0cf25ec-03d5-45dd-b042-68569b17f85d","ios":"levelo://app?vid=a0cf25ec-03d5-45dd-b042-68569b17f85d"},"vehicle_type_id":"4","last_reported":1761117088,"current_range_meters":20800,"station_id":"st_d2m65c5bi1j21697t3ng","pricing_plan_id":"cebpf4jnsgd1na2vs0mg"},{"bike_id":"01dca72c-1032-4358-8c48-14cd1b7fd9ca","system_id":"levelo_inurba_marseille","lat":43.29807,"lon":5.382215,"is_reserved":false,"is_disabled":false,"rental_uris":{"android":"levelo://app?vid=01dca72c-1032-4358-8c48-14cd1b7fd9ca","ios":"levelo://app?vid=01dca72c-1032-4358-8c48-14cd1b7fd9ca"},"vehicle_type_id":"4","last_reported":1761117088,"current_range_meters":20800,"station_id":"","pricing_plan_id":"cebpf4jnsgd1na2vs0mg"},{"bike_id":"32c0066d-e5a6-4f60-82d6-dca456a6de1e","system_id":"levelo_inurba_marseille","lat":43.30792,"lon":5.38148,"is_reserved":false,"is_disabled":false,"rental_uris":{"android":"levelo://app?vid=32c0066d-e5a6-4f60-82d6-dca456a6de1e","ios":"levelo://app?vid=32c0066d-e5a6-4f60-82d6-dca456a6de1e"},"vehicle_type_id":"4","last_reported":1761117088,"current_range_meters":21600,"station_id":"ce4bgt12rcd13ifvqce0","pricing_plan_id":"cebpf4jnsgd1na2vs0mg"},{"bike_id":"fc22a5db-30c1-4297-8692-a6ee79fae4da","system_id":"levelo_inurba_marseille","lat":43.30329,"lon":5.36898,"is_reserved":false,"is_disabled":false,"rental_uris":{"android":"levelo://app?vid=fc22a5db-30c1-4297-8692-a6ee79fae4da","ios":"levelo://app?vid=fc22a5db-30c1-4297-8692-a6ee79fae4da"},"vehicle_type_id":"4","last_reported":1761117088,"current_range_meters":21600,"station_id":"ce4bgqh2rcd13ifvqc5g","pricing_plan_id":"cebpf4jnsgd1na2vs0mg"},{"bike_id":"954002ef-8069-4a73-9af2-4a86737c08e2","system_id":"levelo_inurba_marseille","lat":43.28141,"lon":5.4266,"is_reserved":false,"is_disabled":false,"rental_uris":{"android":"levelo://app?vid=954002ef-8069-4a73-9af2-4a86737c08e2","ios":"levelo://app?vid=954002ef-8069-4a73-9af2-4a86737c08e2"},"vehicle_type_id":"4","last_reported":1761117088,"current_range_meters":21600,"station_id":"ce4bhnh2rcd13ifvqgug","pricing_plan_id":"cebpf4jnsgd1na2vs0mg"},{"bike_id":"8b568fab-e273-49f6-bdca-e47680ec431f","system_id":"levelo_inurba_marseille","lat":43.33778,"lon":5.37458,"is_reserved":false,"is_disabled":false,"rental_uris":{"android":"levelo://app?vid=8b568fab-e273-49f6-bdca-e47680ec431f","ios":"levelo://app?vid=8b568fab-e273-49f6-bdca-e47680ec431f"},"vehicle_type_id":"4","last_reported":1761117088,"current_range_meters":22000,"station_id":"","pricing_plan_id":"cebpf4jnsgd1na2vs0mg"},{"bike_id":"499a7233-cb37-40c3-949c-0e663a83b296","system_id":"levelo_inurba_marseille","lat":43.30911,"lon":5.36845,"is_reserved":false,"is_disabled":false,"rental_uris":{"android":"levelo://app?vid=499a7233-cb37-40c3-949c-0e663a83b296","ios":"levelo://app?vid=499a7233-cb37-40c3-949c-0e663a83b296"},"vehicle_type_id":"4","last_reported":1761117088,"current_range_meters":22000,"station_id":"ce4bgn92rcd13ifvqbvg","pricing_plan_id":"cebpf4jnsgd1na2vs0mg"},{"bike_id":"d7007bef-7714-4da5-b88f-9fccbdbd5d97","system_id":"levelo_inurba_marseille","lat":43.24389,"lon":5.3705,"is_reserved":false,"is_disabled":false,"rental_uris":{"android":"levelo://app?vid=d7007bef-7714-4da5-b88f-9fccbdbd5d97","ios":"levelo://app?vid=d7007bef-7714-4da5-b88f-9fccbdbd5d97"},"vehicle_type_id":"4","last_reported":1761117088,"current_range_meters":22000,"station_id":"ce4bhhh2rcd13ifvqfk0","pricing_plan_id":"cebpf4jnsgd1na2vs0mg"},{"bike_id":"9a1972b5-72a6-4763-9884-2f966099622e","system_id":"levelo_inurba_marseille","lat":43.295838,"lon":5.375147,"is_reserved":false,"is_disabled":false,"rental_uris":{"android":"levelo://app?vid=9a1972b5-72a6-4763-9884-2f966099622e","ios":"levelo://app?vid=9a1972b5-72a6-4763-9884-2f966099622e"},"vehicle_type_id":"4","last_reported":1761117088,"current_range_meters":22000,"station_id":"","pricing_plan_id":"cebpf4jnsgd1na2vs0mg"},{"bike_id":"0a31cfdb-6532-4098-b37e-c5c35ea5e26f","system_id":"levelo_inurba_marseille","lat":43.3046,"lon":5.37903,"is_reserved":false,"is_disabled":false,"rental_uris":{"android":"levelo://app?vid=0a31cfdb-6532-4098-b37e-c5c35ea5e26f","ios":"levelo://app?vid=0a31cfdb-6532-4098-b37e-c5c35ea5e26f"},"vehicle_type_id":"4","last_reported":1761117088,"current_range_meters":22000,"station_id":"ce4bgup2rcd13ifvqcn0","pricing_plan_id":"cebpf4jnsgd1na2vs0mg"},{"bike_id":"8e9b09fd-7643-4962-8f6b-be773e4b52ae","system_id":"levelo_inurba_marseille","lat":43.259299,"lon":5.409153,"is_reserved":false,"is_disabled":false,"rental_uris":{"android":"levelo://app?vid=8e9b09fd-7643-4962-8f6b-be773e4b52ae","ios":"levelo://app?vid=8e9b09fd-7643-4962-8f6b-be773e4b52ae"},"vehicle_type_id":"4","last_reported":1761117088,"current_range_meters":22000,"station_id":"ce4bhm92rcd13ifvqglg","pricing_plan_id":"cebpf4jnsgd1na2vs0mg"},{"bike_id":"71f586d4-09fa-4e56-a175-b730b76f455a","system_id":"levelo_inurba_marseille","lat":43.25001,"lon":5.38924,"is_reserved":false,"is_disabled":false,"rental_uris":{"android":"levelo://app?vid=71f586d4-09fa-4e56-a175-b730b76f455a","ios":"levelo://app?vid=71f586d4-09fa-4e56-a175-b730b76f455a"},"vehicle_type_id":"4","last_reported":1761117088,"current_range_meters":22000,"station_id":"ce4bhgp2rcd13ifvqfd0","pricing_plan_id":"cebpf4jnsgd1na2vs0mg"},{"bike_id":"745eb1d9-36e7-43e9-ab13-378f0c560a0c","system_id":"levelo_inurba_marseille","lat":43.33719,"lon":5.39199,"is_reserved":false,"is_disabled":true,"rental_uris":{"android":"levelo://app?vid=745eb1d9-36e7-43e9-ab13-378f0c560a0c","ios":"levelo://app?vid=745eb1d9-36e7-43e9-ab13-378f0c560a0c"},"vehicle_type_id":"4","last_reported":1761117088,"current_range_meters":22000,"station_id":"ce4bhr92rcd13ifvqhsg","pricing_plan_id":"cebpf4jnsgd1na2vs0mg"},{"bike_id":"83ccefc6-978c-4154-b69a-e6b615d5f19c","system_id":"levelo_inurba_marseille","lat":43.30343,"lon":5.40607,"is_reserved":false,"is_disabled":false,"rental_uris":{"android":"levelo://app?vid=83ccefc6-978c-4154-b69a-e6b615d5f19c","ios":"levelo://app?vid=83ccefc6-978c-4154-b69a-e6b615d5f19c"},"vehicle_type_id":"4","last_reported":1761117088,"current_range_meters":22400,"station_id":"","pricing_plan_id":"cebpf4jnsgd1na2vs0mg"},{"bike_id":"49efc8c0-f8c7-4c23-85d5-729c1153f74a","system_id":"levelo_inurba_marseille","lat":43.296204,"lon":5.371531,"is_reserved":false,"is_disabled":false,"rental_uris":{"android":"levelo://app?vid=49efc8c0-f8c7-4c23-85d5-729c1153f74a","ios":"levelo://app?vid=49efc8c0-f8c7-4c23-85d5-729c1153f74a"},"vehicle_type_id":"4","last_reported":1761117088,"current_range_meters":22400,"station_id":"ce4bgnh2rcd13ifvqc0g","pricing_plan_id":"cebpf4jnsgd1na2vs0mg"},{"bike_id":"14760121-9a6b-4c23-be95-5b6e380276ea","system_id":"levelo_inurba_marseille","lat":43.29721,"lon":5.37671,"is_reserved":false,"is_disabled":false,"rental_uris":{"android":"levelo://app?vid=14760121-9a6b-4c23-be95-5b6e380276ea","ios":"levelo://app?vid=14760121-9a6b-4c23-be95-5b6e380276ea"},"vehicle_type_id":"4","last_reported":1761117088,"current_range_meters":22400,"station_id":"ce4bgkh2rcd13ifvqbl0","pricing_plan_id":"cebpf4jnsgd1na2vs0mg"},{"bike_id":"bbf78b19-8805-4bcd-93c8-a8dcba7b865c","system_id":"levelo_inurba_marseille","lat":43.30544,"lon":5.36557,"is_reserved":false,"is_disabled":false,"rental_uris":{"android":"levelo://app?vid=bbf78b19-8805-4bcd-93c8-a8dcba7b865c","ios":"levelo://app?vid=bbf78b19-8805-4bcd-93c8-a8dcba7b865c"},"vehicle_type_id":"4","last_reported":1761117088,"current_range_meters":22400,"station_id":"ce4bgs12rcd13ifvqcag","pricing_plan_id":"cebpf4jnsgd1na2vs0mg"},{"bike_id":"5a2c7cdd-824c-45cf-bfef-440c7d6d892c","system_id":"levelo_inurba_marseille","lat":43.309208,"lon":5.401668,"is_reserved":false,"is_disabled":false,"rental_uris":{"android":"levelo://app?vid=5a2c7cdd-824c-45cf-bfef-440c7d6d892c","ios":"levelo://app?vid=5a2c7cdd-824c-45cf-bfef-440c7d6d892c"},"vehicle_type_id":"4","last_reported":1761117088,"current_range_meters":22400,"station_id":"ce4bgvp2rcd13ifvqct0","pricing_plan_id":"cebpf4jnsgd1na2vs0mg"},{"bike_id":"99d3b920-1b5f-4d10-be72-51b210cba0aa","system_id":"levelo_inurba_marseille","lat":43.29714,"lon":5.38014,"is_reserved":false,"is_disabled":false,"rental_uris":{"android":"levelo://app?vid=99d3b920-1b5f-4d10-be72-51b210cba0aa","ios":"levelo://app?vid=99d3b920-1b5f-4d10-be72-51b210cba0aa"},"vehicle_type_id":"4","last_reported":1761117088,"current_range_meters":22400,"station_id":"","pricing_plan_id":"cebpf4jnsgd1na2vs0mg"},{"bike_id":"8e0a42be-e2e2-4578-9060-4a269f418562","system_id":"levelo_inurba_marseille","lat":43.32478,"lon":5.36567,"is_reserved":false,"is_disabled":false,"rental_uris":{"android":"levelo://app?vid=8e0a42be-e2e2-4578-9060-4a269f418562","ios":"levelo://app?vid=8e0a42be-e2e2-4578-9060-4a269f418562"},"vehicle_type_id":"4","last_reported":1761117088,"current_range_meters":22400,"station_id":"ce4bhs12rcd13ifvqhvg","pricing_plan_id":"cebpf4jnsgd1na2vs0mg"},{"bike_id":"373407e1-f4b6-49d2-bb13-fae7cf8d543d","system_id":"levelo_inurba_marseille","lat":43.2996,"lon":5.37192,"is_reserved":false,"is_disabled":false,"rental_uris":{"android":"levelo://app?vid=373407e1-f4b6-49d2-bb13-fae7cf8d543d","ios":"levelo://app?vid=373407e1-f4b6-49d2-bb13-fae7cf8d543d"},"vehicle_type_id":"4","last_reported":1761117088,"current_range_meters":22400,"station_id":"ce4bgr92rcd13ifvqc7g","pricing_plan_id":"cebpf4jnsgd1na2vs0mg"},{"bike_id":"3fa8775f-4d43-4f8a-be76-af30ee797cb2","system_id":"levelo_inurba_marseille","lat":43.28062,"lon":5.39684,"is_reserved":false,"is_disabled":false,"rental_uris":{"android":"levelo://app?vid=3fa8775f-4d43-4f8a-be76-af30ee797cb2","ios":"levelo://app?vid=3fa8775f-4d43-4f8a-be76-af30ee797cb2"},"vehicle_type_id":"4","last_reported":1761117088,"current_range_meters":22800,"station_id":"ce4bho12rcd13ifvqh2g","pricing_plan_id":"cebpf4jnsgd1na2vs0mg"},{"bike_id":"89168bc5-a177-499c-b206-b5943bb27f3b","system_id":"levelo_inurba_marseille","lat":43.29776,"lon":5.371,"is_reserved":false,"is_disabled":false,"rental_uris":{"android":"levelo://app?vid=89168bc5-a177-499c-b206-b5943bb27f3b","ios":"levelo://app?vid=89168bc5-a177-499c-b206-b5943bb27f3b"},"vehicle_type_id":"4","last_reported":1761117088,"current_range_meters":22800,"station_id":"ce4bgop2rcd13ifvqc1g","pricing_plan_id":"cebpf4jnsgd1na2vs0mg"},{"bike_id":"83774aa7-806e-433a-88bb-5a0e18218f53","system_id":"levelo_inurba_marseille","lat":43.314288,"lon":5.387748,"is_reserved":false,"is_disabled":false,"rental_uris":{"android":"levelo://app?vid=83774aa7-806e-433a-88bb-5a0e18218f53","ios":"levelo://app?vid=83774aa7-806e-433a-88bb-5a0e18218f53"},"vehicle_type_id":"4","last_reported":1761117088,"current_range_meters":22800,"station_id":"","pricing_plan_id":"cebpf4jnsgd1na2vs0mg"},{"bike_id":"d77c236b-4ef9-4da4-a053-8c85ea370247","system_id":"levelo_inurba_marseille","lat":43.27986,"lon":5.41673,"is_reserved":false,"is_disabled":false,"rental_uris":{"android":"levelo://app?vid=d77c236b-4ef9-4da4-a053-8c85ea370247","ios":"levelo://app?vid=d77c236b-4ef9-4da4-a053-8c85ea370247"},"vehicle_type_id":"4","last_reported":1761117088,"current_range_meters":22800,"station_id":"ce4bho12rcd13ifvqh1g","pricing_plan_id":"cebpf4jnsgd1na2vs0mg"},{"bike_id":"d8b69a8c-9eeb-4ef9-ab7a-326e07a8df62","system_id":"levelo_inurba_marseille","lat":43.28422,"lon":5.34978,"is_reserved":false,"is_disabled":false,"rental_uris":{"android":"levelo://app?vid=d8b69a8c-9eeb-4ef9-ab7a-326e07a8df62","ios":"levelo://app?vid=d8b69a8c-9eeb-4ef9-ab7a-326e07a8df62"},"vehicle_type_id":"4","last_reported":1761117088,"current_range_meters":22800,"station_id":"ce4bhbh2rcd13ifvqepg","pricing_plan_id":"cebpf4jnsgd1na2vs0mg"},{"bike_id":"4cd4059d-263e-4107-9ea1-0e24b1c51a22","system_id":"levelo_inurba_marseille","lat":43.28672,"lon":5.36352,"is_reserved":false,"is_disabled":true,"rental_uris":{"android":"levelo://app?vid=4cd4059d-263e-4107-9ea1-0e24b1c51a22","ios":"levelo://app?vid=4cd4059d-263e-4107-9ea1-0e24b1c51a22"},"vehicle_type_id":"4","last_reported":1761117088,"current_range_meters":22800,"station_id":"ce4bhah2rcd13ifvqej0","pricing_plan_id":"cebpf4jnsgd1na2vs0mg"},