{"last_updated":1701454156,"ttl":30,"version":"2.2","data":{"bikes":[{"bike_id":"3b70541b-c94b-40c4-a8af-6d33ea678dc9","system_id":"levelo_inurba_marseille","lat":43.31232,"lon":5.368489,"is_reserved":false,"is_disabled":false,"rental_uris":{"android":"levelo://app?vid=3b70541b-c94b-40c4-a8af-6d33ea678dc9","ios":"levelo://app?vid=3b70541b-c94b-40c4-a8af-6d33ea678dc9"},"vehicle_type_id":"4","last_reported":1701454156,"current_range_meters":0,"station_id":"ce4bgl92rcd13ifvqbq0","pricing_plan_id":"free"},{"bike_id":"53ed9fd4-5e5c-49c2-af04-14c6e43b4885","system_id":"levelo_inurba_marseille","lat":43.312239,"lon":5.368562,"is_reserved":false,"is_disabled":false,"rental_uris":{"android":"levelo://app?vid=53ed9fd4-5e5c-49c2-af04-14c6e43b4885","ios":"levelo://app?vid=53ed9fd4-5e5c-49c2-af04-14c6e43b4885"},"vehicle_type_id":"4","last_reported":1701454156,"current_range_meters":24000,"station_id":"ce4bgl92rcd13ifvqbq0","pricing_plan_id":"free"},{"bike_id":"8f355682-a2de-4596-bb86-b2e58eb18a29","system_id":"levelo_inurba_marseille","lat":43.309076,"lon":5.368465,"is_reserved":false,"is_disabled":false,"rental_uris":{"android":"levelo://app?vid=8f355682-a2de-4596-bb86-b2e58eb18a29","ios":"levelo://app?vid=8f355682-a2de-4596-bb86-b2e58eb18a29"},"vehicle_type_id":"4","last_reported":1701454156,"current_range_meters":24800,"station_id":"ce4bgn92rcd13ifvqbvg","pricing_plan_id":"free"},{"bike_id":"aff35e5b-b44f-4431-a270-c5667c026661","system_id":"levelo_inurba_marseille","lat":43.309076,"lon":5.368465,"is_reserved":false,"is_disabled":false,"rental_uris":{"android":"levelo://app?vid=aff35e5b-b44f-4431-a270-c5667c026661","ios":"levelo://app?vid=aff35e5b-b44f-4431-a270-c5667c026661"},"vehicle_type_id":"4","last_reported":1701454156,"current_range_meters":20000,"station_id":"ce4bgn92rcd13ifvqbvg","pricing_plan_id":"free"},{"bike_id":"5737a4cb-abfe-4b62-a472-b22ff3c5f959","system_id":"levelo_inurba_marseille","lat":43.314811,"lon":5.373103,"is_reserved":false,"is_disabled":false,"rental_uris":{"android":"levelo://app?vid=5737a4cb-abfe-4b62-a472-b22ff3c5f959","ios":"levelo://app?vid=5737a4cb-abfe-4b62-a472-b22ff3c5f959"},"vehicle_type_id":"4","last_reported":1701454156,"current_range_meters":30000,"station_id":"ce4bgt12rcd13ifvqcd0","pricing_plan_id":"free"},{"bike_id":"eac0cd26-c933-49ed-a395-846f24e0e471","system_id":"levelo_inurba_marseille","lat":43.314811,"lon":5.373103,"is_reserved":false,"is_disabled":false,"rental_uris":{"android":"levelo://app?vid=eac0cd26-c933-49ed-a395-846f24e0e471","ios":"levelo://app?vid=eac0cd26-c933-49ed-a395-846f24e0e471"},"vehicle_type_id":"4","last_reported":1701454156,"current_range_meters":5200,"station_id":"ce4bgt12rcd13ifvqcd0","pricing_plan_id":"free"},{"bike_id":"16090837-2d82-482c-b983-7a41e70244bb","system_id":"levelo_inurba_marseille","lat":43.305989,"lon":5.37225,"is_reserved":false,"is_disabled":false,"rental_uris":{"android":"levelo://app?vid=16090837-2d82-482c-b983-7a41e70244bb","ios":"levelo://app?vid=16090837-2d82-482c-b983-7a41e70244bb"},"vehicle_type_id":"4","last_reported":1701454156,"current_range_meters":20400,"station_id":"ce4bgqh2rcd13ifvqc4g","pricing_plan_id":"free"},{"bike_id":"7bdbcfe9-924e-49e5-849f-fb7276f261aa","system_id":"levelo_inurba_marseille","lat":43.310567,"lon":5.377489,"is_reserved":false,"is_disabled":false,"rental_uris":{"android":"levelo://app?vid=7bdbcfe9-924e-49e5-849f-fb7276f261aa","ios":"levelo://app?vid=7bdbcfe9-924e-49e5-849f-fb7276f261aa"},"vehicle_type_id":"4","last_reported":1701454156,"current_range_meters":10000,"station_id":"","pricing_plan_id":"free"},{"bike_id":"f3e78d26-def7-4e22-ad54-42ee11372ec6","system_id":"levelo_inurba_marseille","lat":43.30439,"lon":5.36753,"is_reserved":false,"is_disabled":false,"rental_uris":{"android":"levelo://app?vid=f3e78d26-def7-4e22-ad54-42ee11372ec6","ios":"levelo://app?vid=f3e78d26-def7-4e22-ad54-42ee11372ec6"},"vehicle_type_id":"4","last_reported":1701454156,"current_range_meters":27200,"station_id":"","pricing_plan_id":"free"},{"bike_id":"1543f747-0cbd-4321-a65f-547a55674136","system_id":"levelo_inurba_marseille","lat":43.32037,"lon":5.37185,"is_reserved":false,"is_disabled":false,"rental_uris":{"android":"levelo://app?vid=1543f747-0cbd-4321-a65f-547a55674136","ios":"levelo://app?vid=1543f747-0cbd-4321-a65f-547a55674136"},"vehicle_type_id":"4","last_reported":1701454156,"current_range_meters":0,"station_id":"","pricing_plan_id":"free"},{"bike_id":"f427a2c3-6e4a-446b-ae2f-9be8aa7f4122","system_id":"levelo_inurba_marseille","lat":43.31719,"lon":5.376813,"is_reserved":false,"is_disabled":false,"rental_uris":{"android":"levelo://app?vid=f427a2c3-6e4a-446b-ae2f-9be8aa7f4122","ios":"levelo://app?vid=f427a2c3-6e4a-446b-ae2f-9be8aa7f4122"},"vehicle_type_id":"4","last_reported":1701454156,"current_range_meters":1200,"station_id":"","pricing_plan_id":"free"},{"bike_id":"e913f328-1e31-4c22-bd87-f809ea246de4","system_id":"levelo_inurba_marseille","lat":43.317168,"lon":5.376883,"is_reserved":false,"is_disabled":false,"rental_uris":{"android":"levelo://app?vid=e913f328-1e31-4c22-bd87-f809ea246de4","ios":"levelo://app?vid=e913f328-1e31-4c22-bd87-f809ea246de4"},"vehicle_type_id":"4","last_reported":1701454156,"current_range_meters":3200,"station_id":"","pricing_plan_id":"free"},{"bike_id":"cfd3bb51-5657-4943-be4a-4ca2f802bb01","system_id":"levelo_inurba_marseille","lat":43.30806,"lon":5.37673,"is_reserved":false,"is_disabled":false,"rental_uris":{"android":"levelo://app?vid=cfd3bb51-5657-4943-be4a-4ca2f802bb01","ios":"levelo://app?vid=cfd3bb51-5657-4943-be4a-4ca2f802bb01"},"vehicle_type_id":"4","last_reported":1701454156,"current_range_meters":14400,"station_id":"ce4bgv92rcd13ifvqcq0","pricing_plan_id":"free"},{"bike_id":"bb803cde-80b8-4673-8473-73e1dc612ec3","system_id":"levelo_inurba_marseille","lat":43.316987,"lon":5.377517,"is_reserved":false,"is_disabled":false,"rental_uris":{"android":"levelo://app?vid=bb803cde-80b8-4673-8473-73e1dc612ec3","ios":"levelo://app?vid=bb803cde-80b8-4673-8473-73e1dc612ec3"},"vehicle_type_id":"4","last_reported":1701454156,"current_range_meters":2000,"station_id":"ce4bgth2rcd13ifvqch0","pricing_plan_id":"free"},{"bike_id":"4424e131-6fff-435f-9a49-93f46fb125d5","system_id":"levelo_inurba_marseille","lat":43.317075,"lon":5.377367,"is_reserved":false,"is_disabled":false,"rental_uris":{"android":"levelo://app?vid=4424e131-6fff-435f-9a49-93f46fb125d5","ios":"levelo://app?vid=4424e131-6fff-435f-9a49-93f46fb125d5"},"vehicle_type_id":"4","last_reported":1701454156,"current_range_meters":31200,"station_id":"ce4bgth2rcd13ifvqch0","pricing_plan_id":"free"},{"bike_id":"fb6fd937-527b-4585-9058-0dfdc6436ac8","system_id":"levelo_inurba_marseille","lat":43.31351,"lon":5.37909,"is_reserved":false,"is_disabled":false,"rental_uris":{"android":"levelo://app?vid=fb6fd937-527b-4585-9058-0dfdc6436ac8","ios":"levelo://app?vid=fb6fd937-527b-4585-9058-0dfdc6436ac8"},"vehicle_type_id":"4","last_reported":1701454156,"current_range_meters":24800,"station_id":"","pricing_plan_id":"free"},{"bike_id":"6d583b2d-dd94-484f-bd23-31135b1cc0ef","system_id":"levelo_inurba_marseille","lat":43.30938,"lon":5.37823,"is_reserved":false,"is_disabled":false,"rental_uris":{"android":"levelo://app?vid=6d583b2d-dd94-484f-bd23-31135b1cc0ef","ios":"levelo://app?vid=6d583b2d-dd94-484f-bd23-31135b1cc0ef"},"vehicle_type_id":"4","last_reported":1701454156,"current_range_meters":26000,"station_id":"","pricing_plan_id":"free"},{"bike_id":"f6511934-62a6-4534-8f58-ac2ec3dc32a7","system_id":"levelo_inurba_marseille","lat":43.308457,"lon":5.379123,"is_reserved":false,"is_disabled":false,"rental_uris":{"android":"levelo://app?vid=f6511934-62a6-4534-8f58-ac2ec3dc32a7","ios":"levelo://app?vid=f6511934-62a6-4534-8f58-ac2ec3dc32a7"},"vehicle_type_id":"4","last_reported":1701454156,"current_range_meters":5600,"station_id":"","pricing_plan_id":"free"},{"bike_id":"c8e9aea8-c67e-490b-bfaa-52efc9939d7f","system_id":"levelo_inurba_marseille","lat":43.315293,"lon":5.380349,"is_reserved":false,"is_disabled":false,"rental_uris":{"android":"levelo://app?vid=c8e9aea8-c67e-490b-bfaa-52efc9939d7f","ios":"levelo://app?vid=c8e9aea8-c67e-490b-bfaa-52efc9939d7f"},"vehicle_type_id":"4","last_reported":1701454156,"current_range_meters":24000,"station_id":"ce4bhsp2rcd13ifvqi50","pricing_plan_id":"free"},{"bike_id":"dc305382-927d-42c6-8f76-96c1ce53c9bc","system_id":"levelo_inurba_marseille","lat":43.30801,"lon":5.38147,"is_reserved":false,"is_disabled":false,"rental_uris":{"android":"levelo://app?vid=dc305382-927d-42c6-8f76-96c1ce53c9bc","ios":"levelo://app?vid=dc305382-927d-42c6-8f76-96c1ce53c9bc"},"vehicle_type_id":"4","last_reported":1701454156,"current_range_meters":10800,"station_id":"ce4bgt12rcd13ifvqce0","pricing_plan_id":"free"},{"bike_id":"e8686491-2569-4258-ba3d-b6271c53c7ed","system_id":"levelo_inurba_marseille","lat":43.308012,"lon":5.381511,"is_reserved":false,"is_disabled":false,"rental_uris":{"android":"levelo://app?vid=e8686491-2569-4258-ba3d-b6271c53c7ed","ios":"levelo://app?vid=e8686491-2569-4258-ba3d-b6271c53c7ed"},"vehicle_type_id":"4","last_reported":1701454156,"current_range_meters":30000,"station_id":"ce4bgt12rcd13ifvqce0","pricing_plan_id":"free"},{"bike_id":"625474ad-524c-4e1a-a745-016e10ecc890","system_id":"levelo_inurba_marseille","lat":43.308012,"lon":5.381511,"is_reserved":false,"is_disabled":false,"rental_uris":{"android":"levelo://app?vid=625474ad-524c-4e1a-a745-016e10ecc890","ios":"levelo://app?vid=625474ad-524c-4e1a-a745-016e10ecc890"},"vehicle_type_id":"4","last_reported":1701454156,"current_range_meters":18400,"station_id":"ce4bgt12rcd13ifvqce0","pricing_plan_id":"free"},{"bike_id":"486c4b30-d080-41e8-9d43-31e3c696ad98","system_id":"levelo_inurba_marseille","lat":43.308012,"lon":5.381511,"is_reserved":false,"is_disabled":false,"rental_uris":{"android":"levelo://app?vid=486c4b30-d080-41e8-9d43-31e3c696ad98","ios":"levelo://app?vid=486c4b30-d080-41e8-9d43-31e3c696ad98"},"vehicle_type_id":"4","last_reported":1701454156,"current_range_meters":26800,"station_id":"ce4bgt12rcd13ifvqce0","pricing_plan_id":"free"},{"bike_id":"4ef2956f-4af7-4ba9-9aed-cb7b3f742e76","system_id":"levelo_inurba_marseille","lat":43.304606,"lon":5.379026,"is_reserved":false,"is_disabled":false,"rental_uris":{"android":"levelo://app?vid=4ef2956f-4af7-4ba9-9aed-cb7b3f742e76","ios":"levelo://app?vid=4ef2956f-4af7-4ba9-9aed-cb7b3f742e76"},"vehicle_type_id":"4","last_reported":1701454156,"current_range_meters":28400,"station_id":"ce4bgup2rcd13ifvqcn0","pricing_plan_id":"free"},{"bike_id":"c98c61f7-1ace-4054-ad3c-0d93eb0eec77","system_id":"levelo_inurba_marseille","lat":43.304606,"lon":5.379026,"is_reserved":false,"is_disabled":false,"rental_uris":{"android":"levelo://app?vid=c98c61f7-1ace-4054-ad3c-0d93eb0eec77","ios":"levelo://app?vid=c98c61f7-1ace-4054-ad3c-0d93eb0eec77"},"vehicle_type_id":"4","last_reported":1701454156,"current_range_meters":7200,"station_id":"ce4bgup2rcd13ifvqcn0","pricing_plan_id":"free"},{"bike_id":"a6475a8a-11b3-4af0-85f3-fd2cabbfdd22","system_id":"levelo_inurba_marseille","lat":43.324771,"lon":5.36557,"is_reserved":false,"is_disabled":false,"rental_uris":{"android":"levelo://app?vid=a6475a8a-11b3-4af0-85f3-fd2cabbfdd22","ios":"levelo://app?vid=a6475a8a-11b3-4af0-85f3-fd2cabbfdd22"},"vehicle_type_id":"4","last_reported":1701454156,"current_range_meters":21600,"station_id":"ce4bhs12rcd13ifvqhvg","pricing_plan_id":"free"},{"bike_id":"19dcde97-826d-4c77-b8cf-d90ba7f775b0","system_id":"levelo_inurba_marseille","lat":43.32488,"lon":5.36561,"is_reserved":false,"is_disabled":false,"rental_uris":{"android":"levelo://app?vid=19dcde97-826d-4c77-b8cf-d90ba7f775b0","ios":"levelo://app?vid=19dcde97-826d-4c77-b8cf-d90ba7f775b0"},"vehicle_type_id":"4","last_reported":1701454156,"current_range_meters":17600,"station_id":"ce4bhs12rcd13ifvqhvg","pricing_plan_id":"free"},{"bike_id":"59cb3502-9ce9-48ee-ba46-8ff5ab96af44","system_id":"levelo_inurba_marseille","lat":43.301429,"lon":5.37413,"is_reserved":false,"is_disabled":false,"rental_uris":{"android":"levelo://app?vid=59cb3502-9ce9-48ee-ba46-8ff5ab96af44","ios":"levelo://app?vid=59cb3502-9ce9-48ee-ba46-8ff5ab96af44"},"vehicle_type_id":"4","last_reported":1701454156,"current_range_meters":23600,"station_id":"ce4bgs92rcd13ifvqcc0","pricing_plan_id":"free"},{"bike_id":"29e42e0b-4f67-4117-affa-64206f27a0d1","system_id":"levelo_inurba_marseille","lat":43.31994,"lon":5.38151,"is_reserved":false,"is_disabled":false,"rental_uris":{"android":"levelo://app?vid=29e42e0b-4f67-4117-affa-64206f27a0d1","ios":"levelo://app?vid=29e42e0b-4f67-4117-affa-64206f27a0d1"},"vehicle_type_id":"4","last_reported":1701454156,"current_range_meters":20400,"station_id":"ce4bhr12rcd13ifvqhpg","pricing_plan_id":"free"},{"bike_id":"2275aca5-3158-4c2c-8022-ca5d2714bc86","system_id":"levelo_inurba_marseille","lat":43.319997,"lon":5.381594,"is_reserved":false,"is_disabled":false,"rental_uris":{"android":"levelo://app?vid=2275aca5-3158-4c2c-8022-ca5d2714bc86","ios":"levelo://app?vid=2275aca5-3158-4c2c-8022-ca5d2714bc86"},"vehicle_type_id":"4","last_reported":1701454156,"current_range_meters":18400,"station_id":"ce4bhr12rcd13ifvqhpg","pricing_plan_id":"free"},{"bike_id":"e828068e-12f2-4365-9553-c37e79829689","system_id":"levelo_inurba_marseille","lat":43.313571,"lon":5.384829,"is_reserved":false,"is_disabled":false,"rental_uris":{"android":"levelo://app?vid=e828068e-12f2-4365-9553-c37e79829689","ios":"levelo://app?vid=e828068e-12f2-4365-9553-c37e79829689"},"vehicle_type_id":"4","last_reported":1701454156,"current_range_meters":18400,"station_id":"ce4bgt92rcd13ifvqcf0","pricing_plan_id":"free"},{"bike_id":"9fdb7f97-586d-42d2-befd-15216ba2e422","system_id":"levelo_inurba_marseille","lat":43.31183,"lon":5.38523,"is_reserved":false,"is_disabled":false,"rental_uris":{"android":"levelo://app?vid=9fdb7f97-586d-42d2-befd-15216ba2e422","ios":"levelo://app?vid=9fdb7f97-586d-42d2-befd-15216ba2e422"},"vehicle_type_id":"4","last_reported":1701454156,"current_range_meters":4400,"station_id":"","pricing_plan_id":"free"},{"bike_id":"49f20bb2-e4d8-47e4-b840-31ff0f920fab","system_id":"levelo_inurba_marseille","lat":43.29978,"lon":5.37192,"is_reserved":false,"is_disabled":false,"rental_uris":{"android":"levelo://app?vid=49f20bb2-e4d8-47e4-b840-31ff0f920fab","ios":"levelo://app?vid=49f20bb2-e4d8-47e4-b840-31ff0f920fab"},"vehicle_type_id":"4","last_reported":1701454156,"current_range_meters":26400,"station_id":"ce4bgr92rcd13ifvqc7g","pricing_plan_id":"free"},{"bike_id":"e1a7d3bd-7c56-42fc-a950-fdd901de9f98","system_id":"levelo_inurba_marseille","lat":43.299724,"lon":5.371829,"is_reserved":false,"is_disabled":false,"rental_uris":{"android":"levelo://app?vid=e1a7d3bd-7c56-42fc-a950-fdd901de9f98","ios":"levelo://app?vid=e1a7d3bd-7c56-42fc-a950-fdd901de9f98"},"vehicle_type_id":"4","last_reported":1701454156,"current_range_meters":4400,"station_id":"ce4bgr92rcd13ifvqc7g","pricing_plan_id":"free"},{"bike_id":"748d12ab-8e09-4ecd-b2d2-cbe0ea9624f6","system_id":"levelo_inurba_marseille","lat":43.29848,"lon":5.36759,"is_reserved":false,"is_disabled":false,"rental_uris":{"android":"levelo://app?vid=748d12ab-8e09-4ecd-b2d2-cbe0ea9624f6","ios":"levelo://app?vid=748d12ab-8e09-4ecd-b2d2-cbe0ea9624f6"},"vehicle_type_id":"4","last_reported":1701454156,"current_range_meters":10000,"station_id":"","pricing_plan_id":"free"},{"bike_id":"4a4eb50c-75bb-4e6b-9faa-8e5527e44948","system_id":"levelo_inurba_marseille","lat":43.31158,"lon":5.3867,"is_reserved":false,"is_disabled":false,"rental_uris":{"android":"levelo://app?vid=4a4eb50c-75bb-4e6b-9faa-8e5527e44948","ios":"levelo://app?vid=4a4eb50c-75bb-4e6b-9faa-8e5527e44948"},"vehicle_type_id":"4","last_reported":1701454156,"current_range_meters":8000,"station_id":"ce4bgv12rcd13ifvqcp0","pricing_plan_id":"free"},{"bike_id":"9f5b6bf0-937d-4f64-9748-cbb620b98226","system_id":"levelo_inurba_marseille","lat":43.305364,"lon":5.384119,"is_reserved":false,"is_disabled":false,"rental_uris":{"android":"levelo://app?vid=9f5b6bf0-937d-4f64-9748-cbb620b98226","ios":"levelo://app?vid=9f5b6bf0-937d-4f64-9748-cbb620b98226"},"vehicle_type_id":"4","last_reported":1701454156,"current_range_meters":16000,"station_id":"ce4bgg92rcd13ifvqb30","pricing_plan_id":"free"},{"bike_id":"84a694c2-2309-4a38-baf4-815ac0d01981","system_id":"levelo_inurba_marseille","lat":43.297794,"lon":5.370888,"is_reserved":false,"is_disabled":false,"rental_uris":{"android":"levelo://app?vid=84a694c2-2309-4a38-baf4-815ac0d01981","ios":"levelo://app?vid=84a694c2-2309-4a38-baf4-815ac0d01981"},"vehicle_type_id":"4","last_reported":1701454156,"current_range_meters":30000,"station_id":"ce4bgop2rcd13ifvqc1g","pricing_plan_id":"free"},{"bike_id":"e9c2a1db-09ba-458a-8020-96222a840fa4","system_id":"levelo_inurba_marseille","lat":43.322872,"lon":5.382756,"is_reserved":false,"is_disabled":false,"rental_uris":{"android":"levelo://app?vid=e9c2a1db-09ba-458a-8020-96222a840fa4","ios":"levelo://app?vid=e9c2a1db-09ba-458a-8020-96222a840fa4"},"vehicle_type_id":"4","last_reported":1701454156,"current_range_meters":20000,"station_id":"ce4bhr12rcd13ifvqhqg","pricing_plan_id":"free"},{"bike_id":"65073be3-64d5-4947-9113-fd11101b78dd","system_id":"levelo_inurba_marseille","lat":43.322872,"lon":5.382756,"is_reserved":false,"is_disabled":false,"rental_uris":{"android":"levelo://app?vid=65073be3-64d5-4947-9113-fd11101b78dd","ios":"levelo://app?vid=65073be3-64d5-4947-9113-fd11101b78dd"},"vehicle_type_id":"4","last_reported":1701454156,"current_range_meters":12000,"station_id":"ce4bhr12rcd13ifvqhqg","pricing_plan_id":"free"},{"bike_id":"38b36a3d-7fa0-425f-884d-37f0109ceebf","system_id":"levelo_inurba_marseille","lat":43.32836,"lon":5.36694,"is_reserved":false,"is_disabled":false,"rental_uris":{"android":"levelo://app?vid=38b36a3d-7fa0-425f-884d-37f0109ceebf","ios":"levelo://app?vid=38b36a3d-7fa0-425f-884d-37f0109ceebf"},"vehicle_type_id":"4","last_reported":1701454156,"current_range_meters":16400,"station_id":"ce4bhs92rcd13ifvqi0g","pricing_plan_id":"free"},{"bike_id":"5983625d-69f5-485f-a399-daec2999c965","system_id":"levelo_inurba_marseille","lat":43.321489,"lon":5.385709,"is_reserved":false,"is_disabled":false,"rental_uris":{"android":"levelo://app?vid=5983625d-69f5-485f-a399-daec2999c965","ios":"levelo://app?vid=5983625d-69f5-485f-a399-daec2999c965"},"vehicle_type_id":"4","last_reported":1701454156,"current_range_meters":5600,"station_id":"","pricing_plan_id":"free"},{"bike_id":"d1b54edb-4179-477c-bd05-036dd4f393fe","system_id":"levelo_inurba_marseille","lat":43.29593,"lon":5.368193,"is_reserved":false,"is_disabled":false,"rental_uris":{"android":"levelo://app?vid=d1b54edb-4179-477c-bd05-036dd4f393fe","ios":"levelo://app?vid=d1b54edb-4179-477c-bd05-036dd4f393fe"},"vehicle_type_id":"4","last_reported":1701454156,"current_range_meters":5600,"station_id":"","pricing_plan_id":"free"},{"bike_id":"e69b2215-918d-4771-bf59-4ce3724d88db","system_id":"levelo_inurba_marseille","lat":43.296131,"lon":5.370773,"is_reserved":false,"is_disabled":false,"rental_uris":{"android":"levelo://app?vid=e69b2215-918d-4771-bf59-4ce3724d88db","ios":"levelo://app?vid=e69b2215-918d-4771-bf59-4ce3724d88db"},"vehicle_type_id":"4","last_reported":1701454156,"current_range_meters":22000,"station_id":"ce4bgnh2rcd13ifvqc0g","pricing_plan_id":"free"},{"bike_id":"81c81765-686e-4ef8-8ba0-60d7276501a3","system_id":"levelo_inurba_marseille","lat":43.32262,"lon":5.38648,"is_reserved":false,"is_disabled":false,"rental_uris":{"android":"levelo://app?vid=81c81765-686e-4ef8-8ba0-60d7276501a3","ios":"levelo://app?vid=81c81765-686e-4ef8-8ba0-60d7276501a3"},"vehicle_type_id":"4","last_reported":1701454156,"current_range_meters":25200,"station_id":"","pricing_plan_id":"free"},{"bike_id":"c3b0cb8b-f359-4b90-8ae7-a7c8464f9ce3","system_id":"levelo_inurba_marseille","lat":43.299028,"lon":5.381509,"is_reserved":false,"is_disabled":false,"rental_uris":{"android":"levelo://app?vid=c3b0cb8b-f359-4b90-8ae7-a7c8464f9ce3","ios":"levelo://app?vid=c3b0cb8b-f359-4b90-8ae7-a7c8464f9ce3"},"vehicle_type_id":"4","last_reported":1701454156,"current_range_meters":20400,"station_id":"ce4bgj12rcd13ifvqbc0","pricing_plan_id":"free"},{"bike_id":"4b810201-ac91-4c2a-9fc2-154f24f02568","system_id":"levelo_inurba_marseille","lat":43.29898,"lon":5.38143,"is_reserved":false,"is_disabled":false,"rental_uris":{"android":"levelo://app?vid=4b810201-ac91-4c2a-9fc2-154f24f02568","ios":"levelo://app?vid=4b810201-ac91-4c2a-9fc2-154f24f02568"},"vehicle_type_id":"4","last_reported":1701454156,"current_range_meters":0,"station_id":"ce4bgj12rcd13ifvqbc0","pricing_plan_id":"free"},{"bike_id":"924ed6f9-6e16-47ad-b0f3-2c783d56abbe","system_id":"levelo_inurba_marseille","lat":43.31745,"lon":5.39008,"is_reserved":false,"is_disabled":false,"rental_uris":{"android":"levelo://app?vid=924ed6f9-6e16-47ad-b0f3-2c783d56abbe","ios":"levelo://app?vid=924ed6f9-6e16-47ad-b0f3-2c783d56abbe"},"vehicle_type_id":"4","last_reported":1701454156,"current_range_meters":14400,"station_id":"ce4bhqp2rcd13ifvqhng","pricing_plan_id":"free"},{"bike_id":"b518acf2-82c7-4da6-881e-26eec680c27a","system_id":"levelo_inurba_marseille","lat":43.317557,"lon":5.390173,"is_reserved":false,"is_disabled":false,"rental_uris":{"android":"levelo://app?vid=b518acf2-82c7-4da6-881e-26eec680c27a","ios":"levelo://app?vid=b518acf2-82c7-4da6-881e-26eec680c27a"},"vehicle_type_id":"4","last_reported":1701454156,"current_range_meters":30400,"station_id":"ce4bhqp2rcd13ifvqhng","pricing_plan_id":"free"},{"bike_id":"99263d35-6055-4dd7-9f57-42166970aeba","system_id":"levelo_inurba_marseille","lat":43.31753,"lon":5.39023,"is_reserved":false,"is_disabled":false,"rental_uris":{"android":"levelo://app?vid=99263d35-6055-4dd7-9f57-42166970aeba","ios":"levelo://app?vid=99263d35-6055-4dd7-9f57-42166970aeba"},"vehicle_type_id":"4","last_reported":1701454156,"current_range_meters":0,"station_id":"ce4bhqp2rcd13ifvqhng","pricing_plan_id":"free"},{"bike_id":"504a5a58-713d-430e-8c6d-3676b8338d63","system_id":"levelo_inurba_marseille","lat":43.304278,"lon":5.388868,"is_reserved":false,"is_disabled":false,"rental_uris":{"android":"levelo://app?vid=504a5a58-713d-430e-8c6d-3676b8338d63","ios":"levelo://app?vid=504a5a58-713d-430e-8c6d-3676b8338d63"},"vehicle_type_id":"4","last_reported":1701454156,"current_range_meters":24800,"station_id":"ce4bgk12rcd13ifvqbi0","pricing_plan_id":"free"},{"bike_id":"13ca97e5-82b5-4e06-8d78-e9793b7e594e","system_id":"levelo_inurba_marseille","lat":43.297142,"lon":5.379705,"is_reserved":false,"is_disabled":false,"rental_uris":{"android":"levelo://app?vid=13ca97e5-82b5-4e06-8d78-e9793b7e594e","ios":"levelo://app?vid=13ca97e5-82b5-4e06-8d78-e9793b7e594e"},"vehicle_type_id":"4","last_reported":1701454156,"current_range_meters":22400,"station_id":"","pricing_plan_id":"free"},{"bike_id":"b982eacb-0fc4-4c67-bb54-96004d59e108","system_id":"levelo_inurba_marseille","lat":43.295748,"lon":5.37522,"is_reserved":false,"is_disabled":false,"rental_uris":{"android":"levelo://app?vid=b982eacb-0fc4-4c67-bb54-96004d59e108","ios":"levelo://app?vid=b982eacb-0fc4-4c67-bb54-96004d59e108"},"vehicle_type_id":"4","last_reported":1701454156,"current_range_meters":2000,"station_id":"ce4bgh92rcd13ifvqb50","pricing_plan_id":"free"},{"bike_id":"9b351ce9-6cf7-42cb-a04f-bd06b4842c84","system_id":"levelo_inurba_marseille","lat":43.304274,"lon":5.388873,"is_reserved":false,"is_disabled":false,"rental_uris":{"android":"levelo://app?vid=9b351ce9-6cf7-42cb-a04f-bd06b4842c84","ios":"levelo://app?vid=9b351ce9-6cf7-42cb-a04f-bd06b4842c84"},"vehicle_type_id":"4","last_reported":1701454156,"current_range_meters":28000,"station_id":"ce4bgk12rcd13ifvqbi0","pricing_plan_id":"free"},{"bike_id":"b6dd91ec-c053-4f66-9963-cf1d83d3416b","system_id":"levelo_inurba_marseille","lat":43.298037,"lon":5.381066,"is_reserved":false,"is_disabled":false,"rental_uris":{"android":"levelo://app?vid=b6dd91ec-c053-4f66-9963-cf1d83d3416b","ios":"levelo://app?vid=b6dd91ec-c053-4f66-9963-cf1d83d3416b"},"vehicle_type_id":"4","last_reported":1701454156,"current_range_meters":5200,"station_id":"ce4bgip2rcd13ifvqbb0","pricing_plan_id":"free"},{"bike_id":"df320150-8051-4898-8cde-9f09f3978ae0","system_id":"levelo_inurba_marseille","lat":43.29599,"lon":5.37717,"is_reserved":false,"is_disabled":false,"rental_uris":{"android":"levelo://app?vid=df320150-8051-4898-8cde-9f09f3978ae0","ios":"levelo://app?vid=df320150-8051-4898-8cde-9f09f3978ae0"},"vehicle_type_id":"4","last_reported":1701454156,"current_range_meters":0,"station_id":"ce4bgi92rcd13ifvqb90","pricing_plan_id":"free"},{"bike_id":"0d35e359-5ab4-40f1-abee-069ddc83ce84","system_id":"levelo_inurba_marseille","lat":43.293259,"lon":5.371586,"is_reserved":false,"is_disabled":false,"rental_uris":{"android":"levelo://app?vid=0d35e359-5ab4-40f1-abee-069ddc83ce84","ios":"levelo://app?vid=0d35e359-5ab4-40f1-abee-069ddc83ce84"},"vehicle_type_id":"4","last_reported":1701454156,"current_range_meters":12400,"station_id":"ce4bgh92rcd13ifvqb40","pricing_plan_id":"free"},{"bike_id":"11df5390-3569-4fb3-aa8a-105cd2fb6e3f","system_id":"levelo_inurba_marseille","lat":43.293259,"lon":5.371586,"is_reserved":false,"is_disabled":false,"rental_uris":{"android":"levelo://app?vid=11df5390-3569-4fb3-aa8a-105cd2fb6e3f","ios":"levelo://app?vid=11df5390-3569-4fb3-aa8a-105cd2fb6e3f"},"vehicle_type_id":"4","last_reported":1701454156,"current_range_meters":30800,"station_id":"ce4bgh92rcd13ifvqb40","pricing_plan_id":"free"},{"bike_id":"77b26080-af9d-4d9c-a0c1-0fe260169f74","system_id":"levelo_inurba_marseille","lat":43.293259,"lon":5.371586,"is_reserved":false,"is_disabled":false,"rental_uris":{"android":"levelo://app?vid=77b26080-af9d-4d9c-a0c1-0fe260169f74","ios":"levelo://app?vid=77b26080-af9d-4d9c-a0c1-0fe260169f74"},"vehicle_type_id":"4","last_reported":1701454156,"current_range_meters":15200,"station_id":"ce4bgh92rcd13ifvqb40","pricing_plan_id":"free"},{"bike_id":"4d61b5bd-e108-418a-ac44-53ad562b9ae1","system_id":"levelo_inurba_marseille","lat":43.292749,"lon":5.368402,"is_reserved":false,"is_disabled":false,"rental_uris":{"android":"levelo://app?vid=4d61b5bd-e108-418a-ac44-53ad562b9ae1","ios":"levelo://app?vid=4d61b5bd-e108-418a-ac44-53ad562b9ae1"},"vehicle_type_id":"4","last_reported":1701454156,"current_range_meters":4800,"station_id":"ce4bhbp2rcd13ifvqesg","pricing_plan_id":"free"},{"bike_id":"55b964ac-bab1-45f3-81c2-af97d21646ab","system_id":"levelo_inurba_marseille","lat":43.292749,"lon":5.368402,"is_reserved":false,"is_disabled":false,"rental_uris":{"android":"levelo://app?vid=55b964ac-bab1-45f3-81c2-af97d21646ab","ios":"levelo://app?vid=55b964ac-bab1-45f3-81c2-af97d21646ab"},"vehicle_type_id":"4","last_reported":1701454156,"current_range_meters":23200,"station_id":"ce4bhbp2rcd13ifvqesg","pricing_plan_id":"free"},{"bike_id":"eaa0e7e7-2390-47fa-909b-7b240952cbef","system_id":"levelo_inurba_marseille","lat":43.324324,"lon":5.389894,"is_reserved":false,"is_disabled":false,"rental_uris":{"android":"levelo://app?vid=eaa0e7e7-2390-47fa-909b-7b240952cbef","ios":"levelo://app?vid=eaa0e7e7-2390-47fa-909b-7b240952cbef"},"vehicle_type_id":"4","last_reported":1701454156,"current_range_meters":18400,"station_id":"","pricing_plan_id":"free"},{"bike_id":"39d30a03-35d7-4498-a4c4-baee0b9f7237","system_id":"levelo_inurba_marseille","lat":43.293009,"lon":5.374584,"is_reserved":false,"is_disabled":false,"rental_uris":{"android":"levelo://app?vid=39d30a03-35d7-4498-a4c4-baee0b9f7237","ios":"levelo://app?vid=39d30a03-35d7-4498-a4c4-baee0b9f7237"},"vehicle_type_id":"4","last_reported":1701454156,"current_range_meters":25200,"station_id":"ce4bgi12rcd13ifvqb70","pricing_plan_id":"free"},{"bike_id":"ae05bd68-90b6-490c-9ad4-fb347c9bd0dc","system_id":"levelo_inurba_marseille","lat":43.292311,"lon":5.360731,"is_reserved":false,"is_disabled":false,"rental_uris":{"android":"levelo://app?vid=ae05bd68-90b6-490c-9ad4-fb347c9bd0dc","ios":"levelo://app?vid=ae05bd68-90b6-490c-9ad4-fb347c9bd0dc"},"vehicle_type_id":"4","last_reported":1701454156,"current_range_meters":27200,"station_id":"ce4bhbh2rcd13ifvqeqg","pricing_plan_id":"free"},{"bike_id":"c7516e41-fb13-4163-9f39-ad92717489ae","system_id":"levelo_inurba_marseille","lat":43.291675,"lon":5.371583,"is_reserved":false,"is_disabled":false,"rental_uris":{"android":"levelo://app?vid=c7516e41-fb13-4163-9f39-ad92717489ae","ios":"levelo://app?vid=c7516e41-fb13-4163-9f39-ad92717489ae"},"vehicle_type_id":"4","last_reported":1701454156,"current_range_meters":17600,"station_id":"ce4bha92rcd13ifvqeh0","pricing_plan_id":"free"},{"bike_id":"5f95b65d-e90d-443c-a4e6-28241f90659e","system_id":"levelo_inurba_marseille","lat":43.291671,"lon":5.371575,"is_reserved":false,"is_disabled":false,"rental_uris":{"android":"levelo://app?vid=5f95b65d-e90d-443c-a4e6-28241f90659e","ios":"levelo://app?vid=5f95b65d-e90d-443c-a4e6-28241f90659e"},"vehicle_type_id":"4","last_reported":1701454156,"current_range_meters":8400,"station_id":"ce4bha92rcd13ifvqeh0","pricing_plan_id":"free"},{"bike_id":"78b63b1a-893d-4e7d-91d4-079280229d5e","system_id":"levelo_inurba_marseille","lat":43.3133,"lon":5.39687,"is_reserved":false,"is_disabled":false,"rental_uris":{"android":"levelo://app?vid=78b63b1a-893d-4e7d-91d4-079280229d5e","ios":"levelo://app?vid=78b63b1a-893d-4e7d-91d4-079280229d5e"},"vehicle_type_id":"4","last_reported":1701454156,"current_range_meters":20000,"station_id":"ce4bgvp2rcd13ifvqcu0","pricing_plan_id":"free"},{"bike_id":"f24c4fb5-1580-43c9-ae6f-8096f73e3410","system_id":"levelo_inurba_marseille","lat":43.309038,"lon":5.396546,"is_reserved":false,"is_disabled":false,"rental_uris":{"android":"levelo://app?vid=f24c4fb5-1580-43c9-ae6f-8096f73e3410","ios":"levelo://app?vid=f24c4fb5-1580-43c9-ae6f-8096f73e3410"},"vehicle_type_id":"4","last_reported":1701454156,"current_range_meters":21600,"station_id":"ce4bh012rcd13ifvqcv0","pricing_plan_id":"free"},{"bike_id":"59441db6-e1d4-4559-bcda-fa587256ec7f","system_id":"levelo_inurba_marseille","lat":43.31324,"lon":5.39695,"is_reserved":false,"is_disabled":false,"rental_uris":{"android":"levelo://app?vid=59441db6-e1d4-4559-bcda-fa587256ec7f","ios":"levelo://app?vid=59441db6-e1d4-4559-bcda-fa587256ec7f"},"vehicle_type_id":"4","last_reported":1701454156,"current_range_meters":6800,"station_id":"ce4bgvp2rcd13ifvqcu0","pricing_plan_id":"free"},{"bike_id":"3714c028-6ab8-4979-a60d-723d6675a298","system_id":"levelo_inurba_marseille","lat":43.294153,"lon":5.386305,"is_reserved":false,"is_disabled":false,"rental_uris":{"android":"levelo://app?vid=3714c028-6ab8-4979-a60d-723d6675a298","ios":"levelo://app?vid=3714c028-6ab8-4979-a60d-723d6675a298"},"vehicle_type_id":"4","last_reported":1701454156,"current_range_meters":7600,"station_id":"ce4bh2h2rcd13ifvqdh0","pricing_plan_id":"free"},{"bike_id":"1760b87b-243c-4b3e-ab60-b50883ca62b3","system_id":"levelo_inurba_marseille","lat":43.289468,"lon":5.363719,"is_reserved":false,"is_disabled":false,"rental_uris":{"android":"levelo://app?vid=1760b87b-243c-4b3e-ab60-b50883ca62b3","ios":"levelo://app?vid=1760b87b-243c-4b3e-ab60-b50883ca62b3"},"vehicle_type_id":"4","last_reported":1701454156,"current_range_meters":29200,"station_id":"ce4bhc92rcd13ifvqetg","pricing_plan_id":"free"},{"bike_id":"30addb74-34f5-4911-bdf5-2bdff615712c","system_id":"levelo_inurba_marseille","lat":43.289184,"lon":5.366408,"is_reserved":false,"is_disabled":false,"rental_uris":{"android":"levelo://app?vid=30addb74-34f5-4911-bdf5-2bdff615712c","ios":"levelo://app?vid=30addb74-34f5-4911-bdf5-2bdff615712c"},"vehicle_type_id":"4","last_reported":1701454156,"current_range_meters":4400,"station_id":"ce4bhap2rcd13ifvqek0","pricing_plan_id":"free"},{"bike_id":"9bd646fa-0bb1-4dab-987e-d05bd58e2f4a","system_id":"levelo_inurba_marseille","lat":43.289184,"lon":5.366408,"is_reserved":false,"is_disabled":false,"rental_uris":{"android":"levelo://app?vid=9bd646fa-0bb1-4dab-987e-d05bd58e2f4a","ios":"levelo://app?vid=9bd646fa-0bb1-4dab-987e-d05bd58e2f4a"},"vehicle_type_id":"4","last_reported":1701454156,"current_range_meters":20400,"station_id":"ce4bhap2rcd13ifvqek0","pricing_plan_id":"free"},{"bike_id":"7d9d335f-b205-4e43-9355-051322a80a82","system_id":"levelo_inurba_marseille","lat":43.294162,"lon":5.386292,"is_reserved":false,"is_disabled":false,"rental_uris":{"android":"levelo://app?vid=7d9d335f-b205-4e43-9355-051322a80a82","ios":"levelo://app?vid=7d9d335f-b205-4e43-9355-051322a80a82"},"vehicle_type_id":"4","last_reported":1701454156,"current_range_meters":18000,"station_id":"ce4bh2h2rcd13ifvqdh0","pricing_plan_id":"free"},{"bike_id":"af927da1-4a35-45a0-9b3e-7da405702667","system_id":"levelo_inurba_marseille","lat":43.29257,"lon":5.38317,"is_reserved":false,"is_disabled":false,"rental_uris":{"android":"levelo://app?vid=af927da1-4a35-45a0-9b3e-7da405702667","ios":"levelo://app?vid=af927da1-4a35-45a0-9b3e-7da405702667"},"vehicle_type_id":"4","last_reported":1701454156,"current_range_meters":8800,"station_id":"","pricing_plan_id":"free"},{"bike_id":"e413c7df-efb7-4671-81d7-e39429837733","system_id":"levelo_inurba_marseille","lat":43.302592,"lon":5.396146,"is_reserved":false,"is_disabled":false,"rental_uris":{"android":"levelo://app?vid=e413c7df-efb7-4671-81d7-e39429837733","ios":"levelo://app?vid=e413c7df-efb7-4671-81d7-e39429837733"},"vehicle_type_id":"4","last_reported":1701454156,"current_range_meters":24000,"station_id":"","pricing_plan_id":"free"},{"bike_id":"744e2d40-b400-4195-b3a5-ef6d5dc99760","system_id":"levelo_inurba_marseille","lat":43.292642,"lon":5.384254,"is_reserved":false,"is_disabled":false,"rental_uris":{"android":"levelo://app?vid=744e2d40-b400-4195-b3a5-ef6d5dc99760","ios":"levelo://app?vid=744e2d40-b400-4195-b3a5-ef6d5dc99760"},"vehicle_type_id":"4","last_reported":1701454156,"current_range_meters":29200,"station_id":"ce4bh692rcd13ifvqea0","pricing_plan_id":"free"},{"bike_id":"9d07b17c-38a5-44ff-9706-ccf004900099","system_id":"levelo_inurba_marseille","lat":43.290104,"lon":5.356111,"is_reserved":false,"is_disabled":false,"rental_uris":{"android":"levelo://app?vid=9d07b17c-38a5-44ff-9706-ccf004900099","ios":"levelo://app?vid=9d07b17c-38a5-44ff-9706-ccf004900099"},"vehicle_type_id":"4","last_reported":1701454156,"current_range_meters":25600,"station_id":"ce4bhb92rcd13ifvqen0","pricing_plan_id":"free"},{"bike_id":"90408da1-0be5-41e7-a5d4-4fb647bb89a6","system_id":"levelo_inurba_marseille","lat":43.3304,"lon":5.38928,"is_reserved":false,"is_disabled":false,"rental_uris":{"android":"levelo://app?vid=90408da1-0be5-41e7-a5d4-4fb647bb89a6","ios":"levelo://app?vid=90408da1-0be5-41e7-a5d4-4fb647bb89a6"},"vehicle_type_id":"4","last_reported":1701454156,"current_range_meters":22800,"station_id":"ce4bhr92rcd13ifvqhrg","pricing_plan_id":"free"},{"bike_id":"d9302871-7015-4d9d-8c46-66ebf69fc7e2","system_id":"levelo_inurba_marseille","lat":43.290103,"lon":5.356114,"is_reserved":false,"is_disabled":false,"rental_uris":{"android":"levelo://app?vid=d9302871-7015-4d9d-8c46-66ebf69fc7e2","ios":"levelo://app?vid=d9302871-7015-4d9d-8c46-66ebf69fc7e2"},"vehicle_type_id":"4","last_reported":1701454156,"current_range_meters":27200,"station_id":"ce4bhb92rcd13ifvqen0","pricing_plan_id":"free"},{"bike_id":"5d77492a-992d-478a-b923-e653dae56f75","system_id":"levelo_inurba_marseille","lat":43.289741,"lon":5.378306,"is_reserved":false,"is_disabled":false,"rental_uris":{"android":"levelo://app?vid=5d77492a-992d-478a-b923-e653dae56f75","ios":"levelo://app?vid=5d77492a-992d-478a-b923-e653dae56f75"},"vehicle_type_id":"4","last_reported":1701454156,"current_range_meters":15600,"station_id":"ce4bh9p2rcd13ifvqed0","pricing_plan_id":"free"},{"bike_id":"a0642032-5ea2-495c-9199-64c1798e8114","system_id":"levelo_inurba_marseille","lat":43.290995,"lon":5.381361,"is_reserved":false,"is_disabled":false,"rental_uris":{"android":"levelo://app?vid=a0642032-5ea2-495c-9199-64c1798e8114","ios":"levelo://app?vid=a0642032-5ea2-495c-9199-64c1798e8114"},"vehicle_type_id":"4","last_reported":1701454156,"current_range_meters":25600,"station_id":"ce4bh512rcd13ifvqe2g","pricing_plan_id":"free"},{"bike_id":"85fe53d6-1792-4af7-a42e-db7e15924384","system_id":"levelo_inurba_marseille","lat":43.290995,"lon":5.381361,"is_reserved":false,"is_disabled":false,"rental_uris":{"android":"levelo://app?vid=85fe53d6-1792-4af7-a42e-db7e15924384","ios":"levelo://app?vid=85fe53d6-1792-4af7-a42e-db7e15924384"},"vehicle_type_id":"4","last_reported":1701454156,"current_range_meters":26800,"station_id":"ce4bh512rcd13ifvqe2g","pricing_plan_id":"free"},{"bike_id":"0911ad20-dbea-4327-805a-fc5e65dc1c76","system_id":"levelo_inurba_marseille","lat":43.289743,"lon":5.378304,"is_reserved":false,"is_disabled":false,"rental_uris":{"android":"levelo://app?vid=0911ad20-dbea-4327-805a-fc5e65dc1c76","ios":"levelo://app?vid=0911ad20-dbea-4327-805a-fc5e65dc1c76"},"vehicle_type_id":"4","last_reported":1701454156,"current_range_meters":25200,"station_id":"ce4bh9p2rcd13ifvqed0","pricing_plan_id":"free"},{"bike_id":"7971050e-e06c-493a-94ec-5283932e625b","system_id":"levelo_inurba_marseille","lat":43.295169,"lon":5.390426,"is_reserved":false,"is_disabled":false,"rental_uris":{"android":"levelo://app?vid=7971050e-e06c-493a-94ec-5283932e625b","ios":"levelo://app?vid=7971050e-e06c-493a-94ec-5283932e625b"},"vehicle_type_id":"4","last_reported":1701454156,"current_range_meters":17600,"station_id":"ce4bh3p2rcd13ifvqdp0","pricing_plan_id":"free"},{"bike_id":"fdc2fc9e-2f29-4c49-bcea-7a560d4446be","system_id":"levelo_inurba_marseille","lat":43.33044,"lon":5.39052,"is_reserved":false,"is_disabled":false,"rental_uris":{"android":"levelo://app?vid=fdc2fc9e-2f29-4c49-bcea-7a560d4446be","ios":"levelo://app?vid=fdc2fc9e-2f29-4c49-bcea-7a560d4446be"},"vehicle_type_id":"4","last_reported":1701454156,"current_range_meters":12000,"station_id":"","pricing_plan_id":"free"},{"bike_id":"f71bec80-1512-44cd-95d2-3d7fdee5df30","system_id":"levelo_inurba_marseille","lat":43.33053,"lon":5.390638,"is_reserved":false,"is_disabled":false,"rental_uris":{"android":"levelo://app?vid=f71bec80-1512-44cd-95d2-3d7fdee5df30","ios":"levelo://app?vid=f71bec80-1512-44cd-95d2-3d7fdee5df30"},"vehicle_type_id":"4","last_reported":1701454156,"current_range_meters":15200,"station_id":"","pricing_plan_id":"free"},{"bike_id":"f66c9213-dd9b-4e84-b7da-8d1f252b7578","system_id":"levelo_inurba_marseille","lat":43.288682,"lon":5.358408,"is_reserved":false,"is_disabled":false,"rental_uris":{"android":"levelo://app?vid=f66c9213-dd9b-4e84-b7da-8d1f252b7578","ios":"levelo://app?vid=f66c9213-dd9b-4e84-b7da-8d1f252b7578"},"vehicle_type_id":"4","last_reported":1701454156,"current_range_meters":0,"station_id":"ce4bhb12rcd13ifvqem0","pricing_plan_id":"free"},{"bike_id":"d6f45f16-dec9-43f2-aa48-6d10bb9b9741","system_id":"levelo_inurba_marseille","lat":43.29333,"lon":5.388672,"is_reserved":false,"is_disabled":false,"rental_uris":{"android":"levelo://app?vid=d6f45f16-dec9-43f2-aa48-6d10bb9b9741","ios":"levelo://app?vid=d6f45f16-dec9-43f2-aa48-6d10bb9b9741"},"vehicle_type_id":"4","last_reported":1701454156,"current_range_meters":0,"station_id":"","pricing_plan_id":"free"},{"bike_id":"e59763ce-11f9-4c91-bd85-ce19a2173acf","system_id":"levelo_inurba_marseille","lat":43.28843,"lon":5.35861,"is_reserved":false,"is_disabled":false,"rental_uris":{"android":"levelo://app?vid=e59763ce-11f9-4c91-bd85-ce19a2173acf","ios":"levelo://app?vid=e59763ce-11f9-4c91-bd85-ce19a2173acf"},"vehicle_type_id":"4","last_reported":1701454156,"current_range_meters":7600,"station_id":"ce4bhb12rcd13ifvqem0","pricing_plan_id":"free"},{"bike_id":"920728c3-d140-4eb7-9410-cfa127aa414b","system_id":"levelo_inurba_marseille","lat":43.33744,"lon":5.37448,"is_reserved":false,"is_disabled":false,"rental_uris":{"android":"levelo://app?vid=920728c3-d140-4eb7-9410-cfa127aa414b","ios":"levelo://app?vid=920728c3-d140-4eb7-9410-cfa127aa414b"},"vehicle_type_id":"4","last_reported":1701454156,"current_range_meters":28800,"station_id":"","pricing_plan_id":"free"},{"bike_id":"4c6f3b1f-ec09-4e79-af01-92ab99bb9f86","system_id":"levelo_inurba_marseille","lat":43.3127,"lon":5.40171,"is_reserved":false,"is_disabled":false,"rental_uris":{"android":"levelo://app?vid=4c6f3b1f-ec09-4e79-af01-92ab99bb9f86","ios":"levelo://app?vid=4c6f3b1f-ec09-4e79-af01-92ab99bb9f86"},"vehicle_type_id":"4","last_reported":1701454156,"current_range_meters":24000,"station_id":"ce4bh092rcd13ifvqd30","pricing_plan_id":"free"},{"bike_id":"38025600-443e-43a8-8800-d7d7bfaaeb0d","system_id":"levelo_inurba_marseille","lat":43.31268,"lon":5.40178,"is_reserved":false,"is_disabled":false,"rental_uris":{"android":"levelo://app?vid=38025600-443e-43a8-8800-d7d7bfaaeb0d","ios":"levelo://app?vid=38025600-443e-43a8-8800-d7d7bfaaeb0d"},"vehicle_type_id":"4","last_reported":1701454156,"current_range_meters":4800,"station_id":"ce4bh092rcd13ifvqd30","pricing_plan_id":"free"},{"bike_id":"b4c1aa2e-4d41-4d24-b2bb-d7385c0eb780","system_id":"levelo_inurba_marseille","lat":43.30935,"lon":5.40147,"is_reserved":false,"is_disabled":false,"rental_uris":{"android":"levelo://app?vid=b4c1aa2e-4d41-4d24-b2bb-d7385c0eb780","ios":"levelo://app?vid=b4c1aa2e-4d41-4d24-b2bb-d7385c0eb780"},"vehicle_type_id":"4","last_reported":1701454156,"current_range_meters":4800,"station_id":"ce4bgvp2rcd13ifvqct0","pricing_plan_id":"free"},{"bike_id":"4d2a9e0f-ee97-450b-a787-b1f222dcb3fa","system_id":"levelo_inurba_marseille","lat":43.33762,"lon":5.3744,"is_reserved":false,"is_disabled":false,"rental_uris":{"android":"levelo://app?vid=4d2a9e0f-ee97-450b-a787-b1f222dcb3fa","ios":"levelo://app?vid=4d2a9e0f-ee97-450b-a787-b1f222dcb3fa"},"vehicle_type_id":"4","last_reported":1701454156,"current_range_meters":28800,"station_id":"","pricing_plan_id":"free"},{"bike_id":"01bdb905-19d1-43c9-bdb1-9718f69f28c6","system_id":"levelo_inurba_marseille","lat":43.33774,"lon":5.37446,"is_reserved":false,"is_disabled":false,"rental_uris":{"android":"levelo://app?vid=01bdb905-19d1-43c9-bdb1-9718f69f28c6","ios":"levelo://app?vid=01bdb905-19d1-43c9-bdb1-9718f69f28c6"},"vehicle_type_id":"4","last_reported":1701454156,"current_range_meters":14800,"station_id":"","pricing_plan_id":"free"},{"bike_id":"94907f9a-2d73-4196-93bb-c5df451ea335","system_id":"levelo_inurba_marseille","lat":43.33775,"lon":5.37453,"is_reserved":false,"is_disabled":false,"rental_uris":{"android":"levelo://app?vid=94907f9a-2d73-4196-93bb-c5df451ea335","ios":"levelo://app?vid=94907f9a-2d73-4196-93bb-c5df451ea335"},"vehicle_type_id":"4","last_reported":1701454156,"current_range_meters":23200,"station_id":"","pricing_plan_id":"free"},{"bike_id":"6e7e7930-c941-4aa6-bdfb-06048d0dcabb","system_id":"levelo_inurba_marseille","lat":43.28727,"lon":5.36078,"is_reserved":false,"is_disabled":false,"rental_uris":{"android":"levelo://app?vid=6e7e7930-c941-4aa6-bdfb-06048d0dcabb","ios":"levelo://app?vid=6e7e7930-c941-4aa6-bdfb-06048d0dcabb"},"vehicle_type_id":"4","last_reported":1701454156,"current_range_meters":24000,"station_id":"cki0cbj6b192h4jlfktg","pricing_plan_id":"free"},{"bike_id":"f5cb98aa-91b2-4aaa-b991-9f1736f6cf24","system_id":"levelo_inurba_marseille","lat":43.286591,"lon":5.363346,"is_reserved":false,"is_disabled":false,"rental_uris":{"android":"levelo://app?vid=f5cb98aa-91b2-4aaa-b991-9f1736f6cf24","ios":"levelo://app?vid=f5cb98aa-91b2-4aaa-b991-9f1736f6cf24"},"vehicle_type_id":"4","last_reported":1701454156,"current_range_meters":28800,"station_id":"ce4bhah2rcd13ifvqej0","pricing_plan_id":"free"},{"bike_id":"301d7ab0-5a0f-4130-aa43-f36db85577e7","system_id":"levelo_inurba_marseille","lat":43.286961,"lon":5.373785,"is_reserved":false,"is_disabled":false,"rental_uris":{"android":"levelo://app?vid=301d7ab0-5a0f-4130-aa43-f36db85577e7","ios":"levelo://app?vid=301d7ab0-5a0f-4130-aa43-f36db85577e7"},"vehicle_type_id":"4","last_reported":1701454156,"current_range_meters":15200,"station_id":"ce4bh3p2rcd13ifvqdq0","pricing_plan_id":"free"},{"bike_id":"3c0a753d-1f58-4601-b7e3-26a10723a306","system_id":"levelo_inurba_marseille","lat":43.302759,"lon":5.400793,"is_reserved":false,"is_disabled":false,"rental_uris":{"android":"levelo://app?vid=3c0a753d-1f58-4601-b7e3-26a10723a306","ios":"levelo://app?vid=3c0a753d-1f58-4601-b7e3-26a10723a306"},"vehicle_type_id":"4","last_reported":1701454156,"current_range_meters":24800,"station_id":"ce4bgvh2rcd13ifvqcs0","pricing_plan_id":"free"},{"bike_id":"30c221c9-833d-409c-83a7-7fd48d03eff9","system_id":"levelo_inurba_marseille","lat":43.29518,"lon":5.39405,"is_reserved":false,"is_disabled":false,"rental_uris":{"android":"levelo://app?vid=30c221c9-833d-409c-83a7-7fd48d03eff9","ios":"levelo://app?vid=30c221c9-833d-409c-83a7-7fd48d03eff9"},"vehicle_type_id":"4","last_reported":1701454156,"current_range_meters":20000,"station_id":"ce4bh292rcd13ifvqdf0","pricing_plan_id":"free"},{"bike_id":"40193950-0867-4078-8529-bbac0ef8991a","system_id":"levelo_inurba_marseille","lat":43.302759,"lon":5.400793,"is_reserved":false,"is_disabled":false,"rental_uris":{"android":"levelo://app?vid=40193950-0867-4078-8529-bbac0ef8991a","ios":"levelo://app?vid=40193950-0867-4078-8529-bbac0ef8991a"},"vehicle_type_id":"4","last_reported":1701454156,"current_range_meters":13600,"station_id":"ce4bgvh2rcd13ifvqcs0","pricing_plan_id":"free"},{"bike_id":"1d26fb70-113b-46d4-a2ac-22c85cc36340","system_id":"levelo_inurba_marseille","lat":43.289307,"lon":5.38406,"is_reserved":false,"is_disabled":false,"rental_uris":{"android":"levelo://app?vid=1d26fb70-113b-46d4-a2ac-22c85cc36340","ios":"levelo://app?vid=1d26fb70-113b-46d4-a2ac-22c85cc36340"},"vehicle_type_id":"4","last_reported":1701454156,"current_range_meters":27200,"station_id":"ce4bh612rcd13ifvqe6g","pricing_plan_id":"free"},{"bike_id":"eab81896-ecb1-4bf3-a582-eeb4e31676fd","system_id":"levelo_inurba_marseille","lat":43.3025,"lon":5.40083,"is_reserved":false,"is_disabled":false,"rental_uris":{"android":"levelo://app?vid=eab81896-ecb1-4bf3-a582-eeb4e31676fd","ios":"levelo://app?vid=eab81896-ecb1-4bf3-a582-eeb4e31676fd"},"vehicle_type_id":"4","last_reported":1701454156,"current_range_meters":30800,"station_id":"ce4bgvh2rcd13ifvqcs0","pricing_plan_id":"free"},{"bike_id":"6ae8953d-9283-485c-b565-88f2a2efd1c4","system_id":"levelo_inurba_marseille","lat":43.287184,"lon":5.37937,"is_reserved":false,"is_disabled":false,"rental_uris":{"android":"levelo://app?vid=6ae8953d-9283-485c-b565-88f2a2efd1c4","ios":"levelo://app?vid=6ae8953d-9283-485c-b565-88f2a2efd1c4"},"vehicle_type_id":"4","last_reported":1701454156,"current_range_meters":25600,"station_id":"ce4bh9p2rcd13ifvqec0","pricing_plan_id":"free"},{"bike_id":"888a61e1-0eba-4525-bd7b-3db928d4ca23","system_id":"levelo_inurba_marseille","lat":43.286039,"lon":5.370681,"is_reserved":false,"is_disabled":false,"rental_uris":{"android":"levelo://app?vid=888a61e1-0eba-4525-bd7b-3db928d4ca23","ios":"levelo://app?vid=888a61e1-0eba-4525-bd7b-3db928d4ca23"},"vehicle_type_id":"4","last_reported":1701454156,"current_range_meters":1600,"station_id":"ce4bht12rcd13ifvqi60","pricing_plan_id":"free"},{"bike_id":"51e80092-f709-463a-96a2-8b25587b914d","system_id":"levelo_inurba_marseille","lat":43.286039,"lon":5.370681,"is_reserved":false,"is_disabled":false,"rental_uris":{"android":"levelo://app?vid=51e80092-f709-463a-96a2-8b25587b914d","ios":"levelo://app?vid=51e80092-f709-463a-96a2-8b25587b914d"},"vehicle_type_id":"4","last_reported":1701454156,"current_range_meters":28000,"station_id":"ce4bht12rcd13ifvqi60","pricing_plan_id":"free"},{"bike_id":"6ec219dd-e2f0-43e6-97be-b9ed2327cf64","system_id":"levelo_inurba_marseille","lat":43.286039,"lon":5.370679,"is_reserved":false,"is_disabled":false,"rental_uris":{"android":"levelo://app?vid=6ec219dd-e2f0-43e6-97be-b9ed2327cf64","ios":"levelo://app?vid=6ec219dd-e2f0-43e6-97be-b9ed2327cf64"},"vehicle_type_id":"4","last_reported":1701454156,"current_range_meters":29200,"station_id":"ce4bht12rcd13ifvqi60","pricing_plan_id":"free"},{"bike_id":"ab0a5040-9b0b-456e-9bc8-b22c631ba1b2","system_id":"levelo_inurba_marseille","lat":43.28805,"lon":5.35238,"is_reserved":false,"is_disabled":false,"rental_uris":{"android":"levelo://app?vid=ab0a5040-9b0b-456e-9bc8-b22c631ba1b2","ios":"levelo://app?vid=ab0a5040-9b0b-456e-9bc8-b22c631ba1b2"},"vehicle_type_id":"4","last_reported":1701454156,"current_range_meters":0,"station_id":"","pricing_plan_id":"free"},{"bike_id":"520b5631-1d6b-4b53-90ca-37adc95e1765","system_id":"levelo_inurba_marseille","lat":43.287185,"lon":5.379373,"is_reserved":false,"is_disabled":false,"rental_uris":{"android":"levelo://app?vid=520b5631-1d6b-4b53-90ca-37adc95e1765","ios":"levelo://app?vid=520b5631-1d6b-4b53-90ca-37adc95e1765"},"vehicle_type_id":"4","last_reported":1701454156,"current_range_meters":15200,"station_id":"ce4bh9p2rcd13ifvqec0","pricing_plan_id":"free"},{"bike_id":"23aa48d9-ab37-4f7c-8484-2fa8d1c10775","system_id":"levelo_inurba_marseille","lat":43.316517,"lon":5.404375,"is_reserved":false,"is_disabled":false,"rental_uris":{"android":"levelo://app?vid=23aa48d9-ab37-4f7c-8484-2fa8d1c10775","ios":"levelo://app?vid=23aa48d9-ab37-4f7c-8484-2fa8d1c10775"},"vehicle_type_id":"4","last_reported":1701454156,"current_range_meters":15200,"station_id":"ce4bh012rcd13ifvqd00","pricing_plan_id":"free"},{"bike_id":"c2fcd557-ce29-4d17-973c-1953e3254263","system_id":"levelo_inurba_marseille","lat":43.285848,"lon":5.350787,"is_reserved":false,"is_disabled":false,"rental_uris":{"android":"levelo://app?vid=c2fcd557-ce29-4d17-973c-1953e3254263","ios":"levelo://app?vid=c2fcd557-ce29-4d17-973c-1953e3254263"},"vehicle_type_id":"4","last_reported":1701454156,"current_range_meters":2000,"station_id":"ce4bhch2rcd13ifvqeug","pricing_plan_id":"free"},{"bike_id":"acd92728-0384-432a-b7d7-40a8682fc525","system_id":"levelo_inurba_marseille","lat":43.295713,"lon":5.399639,"is_reserved":false,"is_disabled":false,"rental_uris":{"android":"levelo://app?vid=acd92728-0384-432a-b7d7-40a8682fc525","ios":"levelo://app?vid=acd92728-0384-432a-b7d7-40a8682fc525"},"vehicle_type_id":"4","last_reported":1701454156,"current_range_meters":17600,"station_id":"ce4bh312rcd13ifvqdj0","pricing_plan_id":"free"},{"bike_id":"8cf125c3-40d5-4a36-a13f-44902ba283d7","system_id":"levelo_inurba_marseille","lat":43.295713,"lon":5.399639,"is_reserved":false,"is_disabled":false,"rental_uris":{"android":"levelo://app?vid=8cf125c3-40d5-4a36-a13f-44902ba283d7","ios":"levelo://app?vid=8cf125c3-40d5-4a36-a13f-44902ba283d7"},"vehicle_type_id":"4","last_reported":1701454156,"current_range_meters":24800,"station_id":"ce4bh312rcd13ifvqdj0","pricing_plan_id":"free"},{"bike_id":"eda1eb49-8e88-4bdb-8b53-712138904b29","system_id":"levelo_inurba_marseille","lat":43.295713,"lon":5.399639,"is_reserved":false,"is_disabled":false,"rental_uris":{"android":"levelo://app?vid=eda1eb49-8e88-4bdb-8b53-712138904b29","ios":"levelo://app?vid=eda1eb49-8e88-4bdb-8b53-712138904b29"},"vehicle_type_id":"4","last_reported":1701454156,"current_range_meters":20000,"station_id":"ce4bh312rcd13ifvqdj0","pricing_plan_id":"free"},{"bike_id":"7f9d8d17-7ea2-4c45-972b-7880013cb4d4","system_id":"levelo_inurba_marseille","lat":43.286595,"lon":5.386795,"is_reserved":false,"is_disabled":false,"rental_uris":{"android":"levelo://app?vid=7f9d8d17-7ea2-4c45-972b-7880013cb4d4","ios":"levelo://app?vid=7f9d8d17-7ea2-4c45-972b-7880013cb4d4"},"vehicle_type_id":"4","last_reported":1701454156,"current_range_meters":27200,"station_id":"ce4bh492rcd13ifvqdug","pricing_plan_id":"free"},{"bike_id":"5dd5ade7-fd49-47bf-af7b-1b12188553b7","system_id":"levelo_inurba_marseille","lat":43.286595,"lon":5.386795,"is_reserved":false,"is_disabled":false,"rental_uris":{"android":"levelo://app?vid=5dd5ade7-fd49-47bf-af7b-1b12188553b7","ios":"levelo://app?vid=5dd5ade7-fd49-47bf-af7b-1b12188553b7"},"vehicle_type_id":"4","last_reported":1701454156,"current_range_meters":16800,"station_id":"ce4bh492rcd13ifvqdug","pricing_plan_id":"free"},{"bike_id":"54328ae2-d175-4455-8539-0920784dc633","system_id":"levelo_inurba_marseille","lat":43.319179,"lon":5.407725,"is_reserved":false,"is_disabled":false,"rental_uris":{"android":"levelo://app?vid=54328ae2-d175-4455-8539-0920784dc633","ios":"levelo://app?vid=54328ae2-d175-4455-8539-0920784dc633"},"vehicle_type_id":"4","last_reported":1701454156,"current_range_meters":25200,"station_id":"ce4bhq12rcd13ifvqhig","pricing_plan_id":"free"},{"bike_id":"f99fc4d8-709b-4cee-a32c-2cdd6f1e8b1e","system_id":"levelo_inurba_marseille","lat":43.337168,"lon":5.391825,"is_reserved":false,"is_disabled":false,"rental_uris":{"android":"levelo://app?vid=f99fc4d8-709b-4cee-a32c-2cdd6f1e8b1e","ios":"levelo://app?vid=f99fc4d8-709b-4cee-a32c-2cdd6f1e8b1e"},"vehicle_type_id":"4","last_reported":1701454156,"current_range_meters":26400,"station_id":"ce4bhr92rcd13ifvqhsg","pricing_plan_id":"free"},{"bike_id":"7f458fab-3a0c-4609-8310-733ff5bbba57","system_id":"levelo_inurba_marseille","lat":43.33717,"lon":5.391857,"is_reserved":false,"is_disabled":false,"rental_uris":{"android":"levelo://app?vid=7f458fab-3a0c-4609-8310-733ff5bbba57","ios":"levelo://app?vid=7f458fab-3a0c-4609-8310-733ff5bbba57"},"vehicle_type_id":"4","last_reported":1701454156,"current_range_meters":30000,"station_id":"ce4bhr92rcd13ifvqhsg","pricing_plan_id":"free"},{"bike_id":"85fc8ccb-488f-4e86-8f0a-401279532708","system_id":"levelo_inurba_marseille","lat":43.283494,"lon":5.380945,"is_reserved":false,"is_disabled":false,"rental_uris":{"android":"levelo://app?vid=85fc8ccb-488f-4e86-8f0a-401279532708","ios":"levelo://app?vid=85fc8ccb-488f-4e86-8f0a-401279532708"},"vehicle_type_id":"4","last_reported":1701454156,"current_range_meters":8800,"station_id":"ce4bh412rcd13ifvqdr0","pricing_plan_id":"free"},{"bike_id":"c881b8e4-497f-47a9-8761-af6e00ab96eb","system_id":"levelo_inurba_marseille","lat":43.283494,"lon":5.380945,"is_reserved":false,"is_disabled":false,"rental_uris":{"android":"levelo://app?vid=c881b8e4-497f-47a9-8761-af6e00ab96eb","ios":"levelo://app?vid=c881b8e4-497f-47a9-8761-af6e00ab96eb"},"vehicle_type_id":"4","last_reported":1701454156,"current_range_meters":18800,"station_id":"ce4bh412rcd13ifvqdr0","pricing_plan_id":"free"},{"bike_id":"52c2ea1f-f85d-4926-b6ac-b62e9e5fc24c","system_id":"levelo_inurba_marseille","lat":43.283494,"lon":5.380945,"is_reserved":false,"is_disabled":false,"rental_uris":{"android":"levelo://app?vid=52c2ea1f-f85d-4926-b6ac-b62e9e5fc24c","ios":"levelo://app?vid=52c2ea1f-f85d-4926-b6ac-b62e9e5fc24c"},"vehicle_type_id":"4","last_reported":1701454156,"current_range_meters":29600,"station_id":"ce4bh412rcd13ifvqdr0","pricing_plan_id":"free"},{"bike_id":"e5769db9-41fe-4ceb-8409-4b45da7aaa0c","system_id":"levelo_inurba_marseille","lat":43.283498,"lon":5.380948,"is_reserved":false,"is_disabled":false,"rental_uris":{"android":"levelo://app?vid=e5769db9-41fe-4ceb-8409-4b45da7aaa0c","ios":"levelo://app?vid=e5769db9-41fe-4ceb-8409-4b45da7aaa0c"},"vehicle_type_id":"4","last_reported":1701454156,"current_range_meters":21600,"station_id":"ce4bh412rcd13ifvqdr0","pricing_plan_id":"free"},{"bike_id":"cc46b1a6-6dbc-4dad-a2ee-7cb03c422af6","system_id":"levelo_inurba_marseille","lat":43.283502,"lon":5.386471,"is_reserved":false,"is_disabled":false,"rental_uris":{"android":"levelo://app?vid=cc46b1a6-6dbc-4dad-a2ee-7cb03c422af6","ios":"levelo://app?vid=cc46b1a6-6dbc-4dad-a2ee-7cb03c422af6"},"vehicle_type_id":"4","last_reported":1701454156,"current_range_meters":4400,"station_id":"ce4bh492rcd13ifvqdvg","pricing_plan_id":"free"},{"bike_id":"018d4469-82f1-471f-9f67-5056c3d27c36","system_id":"levelo_inurba_marseille","lat":43.28039,"lon":5.369297,"is_reserved":false,"is_disabled":false,"rental_uris":{"android":"levelo://app?vid=018d4469-82f1-471f-9f67-5056c3d27c36","ios":"levelo://app?vid=018d4469-82f1-471f-9f67-5056c3d27c36"},"vehicle_type_id":"4","last_reported":1701454156,"current_range_meters":30800,"station_id":"ce4bha12rcd13ifvqef0","pricing_plan_id":"free"},{"bike_id":"a9e2c13e-c278-44fb-b95d-b7c6c887fd1e","system_id":"levelo_inurba_marseille","lat":43.280382,"lon":5.369291,"is_reserved":false,"is_disabled":false,"rental_uris":{"android":"levelo://app?vid=a9e2c13e-c278-44fb-b95d-b7c6c887fd1e","ios":"levelo://app?vid=a9e2c13e-c278-44fb-b95d-b7c6c887fd1e"},"vehicle_type_id":"4","last_reported":1701454156,"current_range_meters":29200,"station_id":"ce4bha12rcd13ifvqef0","pricing_plan_id":"free"},{"bike_id":"919cc2a5-58d3-41e4-93a7-cf4f2ffc7e96","system_id":"levelo_inurba_marseille","lat":43.29041,"lon":5.399634,"is_reserved":false,"is_disabled":false,"rental_uris":{"android":"levelo://app?vid=919cc2a5-58d3-41e4-93a7-cf4f2ffc7e96","ios":"levelo://app?vid=919cc2a5-58d3-41e4-93a7-cf4f2ffc7e96"},"vehicle_type_id":"4","last_reported":1701454156,"current_range_meters":1600,"station_id":"ce4bh392rcd13ifvqdm0","pricing_plan_id":"free"},{"bike_id":"3e86afff-817e-46d5-8986-c4d4409f854f","system_id":"levelo_inurba_marseille","lat":43.28573,"lon":5.394992,"is_reserved":false,"is_disabled":false,"rental_uris":{"android":"levelo://app?vid=3e86afff-817e-46d5-8986-c4d4409f854f","ios":"levelo://app?vid=3e86afff-817e-46d5-8986-c4d4409f854f"},"vehicle_type_id":"4","last_reported":1701454156,"current_range_meters":12800,"station_id":"ce4bh292rcd13ifvqdg0","pricing_plan_id":"free"},{"bike_id":"96496c0a-f1aa-4bd5-b562-e791274ad1b2","system_id":"levelo_inurba_marseille","lat":43.326605,"lon":5.409903,"is_reserved":false,"is_disabled":false,"rental_uris":{"android":"levelo://app?vid=96496c0a-f1aa-4bd5-b562-e791274ad1b2","ios":"levelo://app?vid=96496c0a-f1aa-4bd5-b562-e791274ad1b2"},"vehicle_type_id":"4","last_reported":1701454156,"current_range_meters":18000,"station_id":"ce4bhpp2rcd13ifvqhgg","pricing_plan_id":"free"},{"bike_id":"a50c0429-afba-467a-8379-c3b5803a834a","system_id":"levelo_inurba_marseille","lat":43.304188,"lon":5.412904,"is_reserved":false,"is_disabled":false,"rental_uris":{"android":"levelo://app?vid=a50c0429-afba-467a-8379-c3b5803a834a","ios":"levelo://app?vid=a50c0429-afba-467a-8379-c3b5803a834a"},"vehicle_type_id":"4","last_reported":1701454156,"current_range_meters":28000,"station_id":"ce4bhop2rcd13ifvqh8g","pricing_plan_id":"free"},{"bike_id":"2fa0b6bb-3c6a-4b6e-9fb4-475607fc8890","system_id":"levelo_inurba_marseille","lat":43.304188,"lon":5.412904,"is_reserved":false,"is_disabled":false,"rental_uris":{"android":"levelo://app?vid=2fa0b6bb-3c6a-4b6e-9fb4-475607fc8890","ios":"levelo://app?vid=2fa0b6bb-3c6a-4b6e-9fb4-475607fc8890"},"vehicle_type_id":"4","last_reported":1701454156,"current_range_meters":3600,"station_id":"ce4bhop2rcd13ifvqh8g","pricing_plan_id":"free"},{"bike_id":"c93b1c9a-c4ae-4c26-bf86-e2b074651c4d","system_id":"levelo_inurba_marseille","lat":43.304188,"lon":5.412904,"is_reserved":false,"is_disabled":false,"rental_uris":{"android":"levelo://app?vid=c93b1c9a-c4ae-4c26-bf86-e2b074651c4d","ios":"levelo://app?vid=c93b1c9a-c4ae-4c26-bf86-e2b074651c4d"},"vehicle_type_id":"4","last_reported":1701454156,"current_range_meters":19600,"station_id":"ce4bhop2rcd13ifvqh8g","pricing_plan_id":"free"},{"bike_id":"2b6efb40-d591-4279-a097-35015bf3d40e","system_id":"levelo_inurba_marseille","lat":43.279087,"lon":5.380114,"is_reserved":false,"is_disabled":false,"rental_uris":{"android":"levelo://app?vid=2b6efb40-d591-4279-a097-35015bf3d40e","ios":"levelo://app?vid=2b6efb40-d591-4279-a097-35015bf3d40e"},"vehicle_type_id":"4","last_reported":1701454156,"current_range_meters":10800,"station_id":"ce4bhf92rcd13ifvqf50","pricing_plan_id":"free"},{"bike_id":"8fbf3d61-038c-4d2e-a745-775230905bcc","system_id":"levelo_inurba_marseille","lat":43.27994,"lon":5.38728,"is_reserved":false,"is_disabled":false,"rental_uris":{"android":"levelo://app?vid=8fbf3d61-038c-4d2e-a745-775230905bcc","ios":"levelo://app?vid=8fbf3d61-038c-4d2e-a745-775230905bcc"},"vehicle_type_id":"4","last_reported":1701454156,"current_range_meters":0,"station_id":"ce4bhg12rcd13ifvqf80","pricing_plan_id":"free"},{"bike_id":"f76eb47c-1d9f-4089-89a1-a981323ccd59","system_id":"levelo_inurba_marseille","lat":43.320417,"lon":5.415484,"is_reserved":false,"is_disabled":false,"rental_uris":{"android":"levelo://app?vid=f76eb47c-1d9f-4089-89a1-a981323ccd59","ios":"levelo://app?vid=f76eb47c-1d9f-4089-89a1-a981323ccd59"},"vehicle_type_id":"4","last_reported":1701454156,"current_range_meters":25200,"station_id":"ce4bhq92rcd13ifvqhkg","pricing_plan_id":"free"},{"bike_id":"4c0cd8ad-37f1-4073-9c50-bdb06f005215","system_id":"levelo_inurba_marseille","lat":43.279691,"lon":5.387439,"is_reserved":false,"is_disabled":false,"rental_uris":{"android":"levelo://app?vid=4c0cd8ad-37f1-4073-9c50-bdb06f005215","ios":"levelo://app?vid=4c0cd8ad-37f1-4073-9c50-bdb06f005215"},"vehicle_type_id":"4","last_reported":1701454156,"current_range_meters":23200,"station_id":"","pricing_plan_id":"free"},{"bike_id":"20eba04d-dd65-47b6-8298-cd4c56b3d2f5","system_id":"levelo_inurba_marseille","lat":43.292569,"lon":5.409107,"is_reserved":false,"is_disabled":false,"rental_uris":{"android":"levelo://app?vid=20eba04d-dd65-47b6-8298-cd4c56b3d2f5","ios":"levelo://app?vid=20eba04d-dd65-47b6-8298-cd4c56b3d2f5"},"vehicle_type_id":"4","last_reported":1701454156,"current_range_meters":800,"station_id":"ce4bh192rcd13ifvqdc0","pricing_plan_id":"free"},{"bike_id":"662d7ac0-b60c-4589-b775-59c466096683","system_id":"levelo_inurba_marseille","lat":43.325233,"lon":5.414318,"is_reserved":false,"is_disabled":false,"rental_uris":{"android":"levelo://app?vid=662d7ac0-b60c-4589-b775-59c466096683","ios":"levelo://app?vid=662d7ac0-b60c-4589-b775-59c466096683"},"vehicle_type_id":"4","last_reported":1701454156,"current_range_meters":15200,"station_id":"ce4bhq12rcd13ifvqhhg","pricing_plan_id":"free"},{"bike_id":"50f7840e-a9cf-4f40-b946-216ee75649a2","system_id":"levelo_inurba_marseille","lat":43.27609,"lon":5.36117,"is_reserved":false,"is_disabled":false,"rental_uris":{"android":"levelo://app?vid=50f7840e-a9cf-4f40-b946-216ee75649a2","ios":"levelo://app?vid=50f7840e-a9cf-4f40-b946-216ee75649a2"},"vehicle_type_id":"4","last_reported":1701454156,"current_range_meters":2800,"station_id":"","pricing_plan_id":"free"},{"bike_id":"b1bc44a7-88f9-4b86-9fa4-211a87bae144","system_id":"levelo_inurba_marseille","lat":43.303837,"lon":5.418724,"is_reserved":false,"is_disabled":false,"rental_uris":{"android":"levelo://app?vid=b1bc44a7-88f9-4b86-9fa4-211a87bae144","ios":"levelo://app?vid=b1bc44a7-88f9-4b86-9fa4-211a87bae144"},"vehicle_type_id":"4","last_reported":1701454156,"current_range_meters":14400,"station_id":"ce4bhop2rcd13ifvqh7g","pricing_plan_id":"free"},{"bike_id":"ae81a803-fec5-4b93-9ab4-4d8a4c5332eb","system_id":"levelo_inurba_marseille","lat":43.303837,"lon":5.418724,"is_reserved":false,"is_disabled":false,"rental_uris":{"android":"levelo://app?vid=ae81a803-fec5-4b93-9ab4-4d8a4c5332eb","ios":"levelo://app?vid=ae81a803-fec5-4b93-9ab4-4d8a4c5332eb"},"vehicle_type_id":"4","last_reported":1701454156,"current_range_meters":15200,"station_id":"ce4bhop2rcd13ifvqh7g","pricing_plan_id":"free"},{"bike_id":"ae130eb3-69a3-4569-9978-7e5ec544228e","system_id":"levelo_inurba_marseille","lat":43.303837,"lon":5.418724,"is_reserved":false,"is_disabled":false,"rental_uris":{"android":"levelo://app?vid=ae130eb3-69a3-4569-9978-7e5ec544228e","ios":"levelo://app?vid=ae130eb3-69a3-4569-9978-7e5ec544228e"},"vehicle_type_id":"4","last_reported":1701454156,"current_range_meters":28000,"station_id":"ce4bhop2rcd13ifvqh7g","pricing_plan_id":"free"},{"bike_id":"9ca3d1f2-444d-48f8-af45-94396c45809c","system_id":"levelo_inurba_marseille","lat":43.279975,"lon":5.40009,"is_reserved":false,"is_disabled":false,"rental_uris":{"android":"levelo://app?vid=9ca3d1f2-444d-48f8-af45-94396c45809c","ios":"levelo://app?vid=9ca3d1f2-444d-48f8-af45-94396c45809c"},"vehicle_type_id":"4","last_reported":1701454156,"current_range_meters":13200,"station_id":"ce4bho92rcd13ifvqh4g","pricing_plan_id":"free"},{"bike_id":"8b95fa19-34cb-496e-ada5-cf4ce57829c5","system_id":"levelo_inurba_marseille","lat":43.279952,"lon":5.400085,"is_reserved":false,"is_disabled":false,"rental_uris":{"android":"levelo://app?vid=8b95fa19-34cb-496e-ada5-cf4ce57829c5","ios":"levelo://app?vid=8b95fa19-34cb-496e-ada5-cf4ce57829c5"},"vehicle_type_id":"4","last_reported":1701454156,"current_range_meters":30000,"station_id":"ce4bho92rcd13ifvqh4g","pricing_plan_id":"free"},{"bike_id":"db7ffdb9-f10e-41dc-9854-cecf34a3d463","system_id":"levelo_inurba_marseille","lat":43.279952,"lon":5.400085,"is_reserved":false,"is_disabled":false,"rental_uris":{"android":"levelo://app?vid=db7ffdb9-f10e-41dc-9854-cecf34a3d463","ios":"levelo://app?vid=db7ffdb9-f10e-41dc-9854-cecf34a3d463"},"vehicle_type_id":"4","last_reported":1701454156,"current_range_meters":32000,"station_id":"ce4bho92rcd13ifvqh4g","pricing_plan_id":"free"},{"bike_id":"b83f0b9f-1486-435e-97de-ebbda5a8317d","system_id":"levelo_inurba_marseille","lat":43.279975,"lon":5.40009,"is_reserved":false,"is_disabled":false,"rental_uris":{"android":"levelo://app?vid=b83f0b9f-1486-435e-97de-ebbda5a8317d","ios":"levelo://app?vid=b83f0b9f-1486-435e-97de-ebbda5a8317d"},"vehicle_type_id":"4","last_reported":1701454156,"current_range_meters":22800,"station_id":"ce4bho92rcd13ifvqh4g","pricing_plan_id":"free"},{"bike_id":"b1aa665c-2e5d-4c40-8fd2-4fd96b4e5154","system_id":"levelo_inurba_marseille","lat":43.279952,"lon":5.400085,"is_reserved":false,"is_disabled":false,"rental_uris":{"android":"levelo://app?vid=b1aa665c-2e5d-4c40-8fd2-4fd96b4e5154","ios":"levelo://app?vid=b1aa665c-2e5d-4c40-8fd2-4fd96b4e5154"},"vehicle_type_id":"4","last_reported":1701454156,"current_range_meters":23200,"station_id":"ce4bho92rcd13ifvqh4g","pricing_plan_id":"free"},{"bike_id":"2008ad1c-c3ed-4aab-a90a-ec11e3a4e262","system_id":"levelo_inurba_marseille","lat":43.279952,"lon":5.400085,"is_reserved":false,"is_disabled":false,"rental_uris":{"android":"levelo://app?vid=2008ad1c-c3ed-4aab-a90a-ec11e3a4e262","ios":"levelo://app?vid=2008ad1c-c3ed-4aab-a90a-ec11e3a4e262"},"vehicle_type_id":"4","last_reported":1701454156,"current_range_meters":23600,"station_id":"ce4bho92rcd13ifvqh4g","pricing_plan_id":"free"},{"bike_id":"33918e0d-cdb0-4611-a687-3272d72d60a6","system_id":"levelo_inurba_marseille","lat":43.3253,"lon":5.42129,"is_reserved":false,"is_disabled":false,"rental_uris":{"android":"levelo://app?vid=33918e0d-cdb0-4611-a687-3272d72d60a6","ios":"levelo://app?vid=33918e0d-cdb0-4611-a687-3272d72d60a6"},"vehicle_type_id":"4","last_reported":1701454156,"current_range_meters":27600,"station_id":"","pricing_plan_id":"free"},{"bike_id":"0bf39cc2-12ce-46b3-a06b-31e1c17ddc34","system_id":"levelo_inurba_marseille","lat":43.31721,"lon":5.42399,"is_reserved":false,"is_disabled":false,"rental_uris":{"android":"levelo://app?vid=0bf39cc2-12ce-46b3-a06b-31e1c17ddc34","ios":"levelo://app?vid=0bf39cc2-12ce-46b3-a06b-31e1c17ddc34"},"vehicle_type_id":"4","last_reported":1701454156,"current_range_meters":22800,"station_id":"ce4bhp92rcd13ifvqhbg","pricing_plan_id":"free"},{"bike_id":"894f6494-585b-4b1b-a39f-39b137cf17d0","system_id":"levelo_inurba_marseille","lat":43.310785,"lon":5.424305,"is_reserved":false,"is_disabled":false,"rental_uris":{"android":"levelo://app?vid=894f6494-585b-4b1b-a39f-39b137cf17d0","ios":"levelo://app?vid=894f6494-585b-4b1b-a39f-39b137cf17d0"},"vehicle_type_id":"4","last_reported":1701454156,"current_range_meters":12800,"station_id":"ce4bhp92rcd13ifvqhag","pricing_plan_id":"free"},{"bike_id":"852ce070-8c7e-40d0-8815-ccf67500ab24","system_id":"levelo_inurba_marseille","lat":43.27424,"lon":5.3942,"is_reserved":false,"is_disabled":false,"rental_uris":{"android":"levelo://app?vid=852ce070-8c7e-40d0-8815-ccf67500ab24","ios":"levelo://app?vid=852ce070-8c7e-40d0-8815-ccf67500ab24"},"vehicle_type_id":"4","last_reported":1701454156,"current_range_meters":22800,"station_id":"ce4bhdp2rcd13ifvqf20","pricing_plan_id":"free"},{"bike_id":"81a6ce47-a063-4424-9999-238b3d94e8ac","system_id":"levelo_inurba_marseille","lat":43.27392,"lon":5.39342,"is_reserved":false,"is_disabled":false,"rental_uris":{"android":"levelo://app?vid=81a6ce47-a063-4424-9999-238b3d94e8ac","ios":"levelo://app?vid=81a6ce47-a063-4424-9999-238b3d94e8ac"},"vehicle_type_id":"4","last_reported":1701454156,"current_range_meters":5600,"station_id":"ce4bhdp2rcd13ifvqf20","pricing_plan_id":"free"},{"bike_id":"143ad672-41c3-4e88-9172-e4ae3aa433f5","system_id":"levelo_inurba_marseille","lat":43.304151,"lon":5.425419,"is_reserved":false,"is_disabled":false,"rental_uris":{"android":"levelo://app?vid=143ad672-41c3-4e88-9172-e4ae3aa433f5","ios":"levelo://app?vid=143ad672-41c3-4e88-9172-e4ae3aa433f5"},"vehicle_type_id":"4","last_reported":1701454156,"current_range_meters":4000,"station_id":"ce4bhoh2rcd13ifvqh6g","pricing_plan_id":"free"},{"bike_id":"2fd3642f-f043-47ed-8015-d904c8b402fd","system_id":"levelo_inurba_marseille","lat":43.27212,"lon":5.39139,"is_reserved":false,"is_disabled":false,"rental_uris":{"android":"levelo://app?vid=2fd3642f-f043-47ed-8015-d904c8b402fd","ios":"levelo://app?vid=2fd3642f-f043-47ed-8015-d904c8b402fd"},"vehicle_type_id":"4","last_reported":1701454156,"current_range_meters":0,"station_id":"ce4bhhp2rcd13ifvqfm0","pricing_plan_id":"free"},{"bike_id":"03057f69-bf70-4e5d-96b3-ffd155c96c7e","system_id":"levelo_inurba_marseille","lat":43.278128,"lon":5.407195,"is_reserved":false,"is_disabled":false,"rental_uris":{"android":"levelo://app?vid=03057f69-bf70-4e5d-96b3-ffd155c96c7e","ios":"levelo://app?vid=03057f69-bf70-4e5d-96b3-ffd155c96c7e"},"vehicle_type_id":"4","last_reported":1701454156,"current_range_meters":22000,"station_id":"ce4bhnh2rcd13ifvqgtg","pricing_plan_id":"free"},{"bike_id":"9cf464e2-fe9f-4ab0-a8af-228cd68ee038","system_id":"levelo_inurba_marseille","lat":43.278128,"lon":5.407195,"is_reserved":false,"is_disabled":false,"rental_uris":{"android":"levelo://app?vid=9cf464e2-fe9f-4ab0-a8af-228cd68ee038","ios":"levelo://app?vid=9cf464e2-fe9f-4ab0-a8af-228cd68ee038"},"vehicle_type_id":"4","last_reported":1701454156,"current_range_meters":6000,"station_id":"ce4bhnh2rcd13ifvqgtg","pricing_plan_id":"free"},{"bike_id":"354d9ba5-c5be-425c-8fe6-4ae98806f5f6","system_id":"levelo_inurba_marseille","lat":43.278128,"lon":5.407195,"is_reserved":false,"is_disabled":false,"rental_uris":{"android":"levelo://app?vid=354d9ba5-c5be-425c-8fe6-4ae98806f5f6","ios":"levelo://app?vid=354d9ba5-c5be-425c-8fe6-4ae98806f5f6"},"vehicle_type_id":"4","last_reported":1701454156,"current_range_meters":26800,"station_id":"ce4bhnh2rcd13ifvqgtg","pricing_plan_id":"free"},{"bike_id":"b22c11d7-e716-4275-b675-92c11c1bdf14","system_id":"levelo_inurba_marseille","lat":43.269467,"lon":5.386439,"is_reserved":false,"is_disabled":false,"rental_uris":{"android":"levelo://app?vid=b22c11d7-e716-4275-b675-92c11c1bdf14","ios":"levelo://app?vid=b22c11d7-e716-4275-b675-92c11c1bdf14"},"vehicle_type_id":"4","last_reported":1701454156,"current_range_meters":26000,"station_id":"ce4bhh92rcd13ifvqfh0","pricing_plan_id":"free"},{"bike_id":"21f0e8a9-42b9-4676-ad53-9cc9a8b916c5","system_id":"levelo_inurba_marseille","lat":43.27949,"lon":5.41044,"is_reserved":false,"is_disabled":false,"rental_uris":{"android":"levelo://app?vid=21f0e8a9-42b9-4676-ad53-9cc9a8b916c5","ios":"levelo://app?vid=21f0e8a9-42b9-4676-ad53-9cc9a8b916c5"},"vehicle_type_id":"4","last_reported":1701454156,"current_range_meters":21200,"station_id":"ce4bhnp2rcd13ifvqh0g","pricing_plan_id":"free"},{"bike_id":"55b4152c-f5e2-4860-b016-93f7d135d41f","system_id":"levelo_inurba_marseille","lat":43.308051,"lon":5.43527,"is_reserved":false,"is_disabled":false,"rental_uris":{"android":"levelo://app?vid=55b4152c-f5e2-4860-b016-93f7d135d41f","ios":"levelo://app?vid=55b4152c-f5e2-4860-b016-93f7d135d41f"},"vehicle_type_id":"4","last_reported":1701454156,"current_range_meters":11200,"station_id":"ce4bhph2rcd13ifvqheg","pricing_plan_id":"free"},{"bike_id":"96955054-4ce7-4a14-a90a-abe2d6fa5249","system_id":"levelo_inurba_marseille","lat":43.26938,"lon":5.40262,"is_reserved":false,"is_disabled":false,"rental_uris":{"android":"levelo://app?vid=96955054-4ce7-4a14-a90a-abe2d6fa5249","ios":"levelo://app?vid=96955054-4ce7-4a14-a90a-abe2d6fa5249"},"vehicle_type_id":"4","last_reported":1701454156,"current_range_meters":29200,"station_id":"cjm6bp8fraef2m0cb0m0","pricing_plan_id":"free"},{"bike_id":"fe045a06-5b14-4d26-b1db-f7ace0c0b77e","system_id":"levelo_inurba_marseille","lat":43.26949,"lon":5.40262,"is_reserved":false,"is_disabled":false,"rental_uris":{"android":"levelo://app?vid=fe045a06-5b14-4d26-b1db-f7ace0c0b77e","ios":"levelo://app?vid=fe045a06-5b14-4d26-b1db-f7ace0c0b77e"},"vehicle_type_id":"4","last_reported":1701454156,"current_range_meters":31200,"station_id":"cjm6bp8fraef2m0cb0m0","pricing_plan_id":"free"},{"bike_id":"6c9805ea-eb6d-491d-97d7-42799725520b","system_id":"levelo_inurba_marseille","lat":43.26937,"lon":5.40261,"is_reserved":false,"is_disabled":false,"rental_uris":{"android":"levelo://app?vid=6c9805ea-eb6d-491d-97d7-42799725520b","ios":"levelo://app?vid=6c9805ea-eb6d-491d-97d7-42799725520b"},"vehicle_type_id":"4","last_reported":1701454156,"current_range_meters":18800,"station_id":"cjm6bp8fraef2m0cb0m0","pricing_plan_id":"free"},{"bike_id":"c71160fc-c7b7-4c0b-8b7c-da5014dcb825","system_id":"levelo_inurba_marseille","lat":43.317104,"lon":5.436818,"is_reserved":false,"is_disabled":false,"rental_uris":{"android":"levelo://app?vid=c71160fc-c7b7-4c0b-8b7c-da5014dcb825","ios":"levelo://app?vid=c71160fc-c7b7-4c0b-8b7c-da5014dcb825"},"vehicle_type_id":"4","last_reported":1701454156,"current_range_meters":27200,"station_id":"ce4bhp92rcd13ifvqhcg","pricing_plan_id":"free"},{"bike_id":"791d1dda-2de1-46e3-8ff5-c68504aa3c2f","system_id":"levelo_inurba_marseille","lat":43.271368,"lon":5.40928,"is_reserved":false,"is_disabled":false,"rental_uris":{"android":"levelo://app?vid=791d1dda-2de1-46e3-8ff5-c68504aa3c2f","ios":"levelo://app?vid=791d1dda-2de1-46e3-8ff5-c68504aa3c2f"},"vehicle_type_id":"4","last_reported":1701454156,"current_range_meters":0,"station_id":"ce4bhl12rcd13ifvqgf0","pricing_plan_id":"free"},{"bike_id":"6d5827bb-e379-4067-bb3f-6136611daee9","system_id":"levelo_inurba_marseille","lat":43.298768,"lon":5.43643,"is_reserved":false,"is_disabled":false,"rental_uris":{"android":"levelo://app?vid=6d5827bb-e379-4067-bb3f-6136611daee9","ios":"levelo://app?vid=6d5827bb-e379-4067-bb3f-6136611daee9"},"vehicle_type_id":"4","last_reported":1701454156,"current_range_meters":31200,"station_id":"ce4bhpp2rcd13ifvqhfg","pricing_plan_id":"free"},{"bike_id":"f36b403e-e5fd-4fc2-96cd-69acf29c1e34","system_id":"levelo_inurba_marseille","lat":43.28157,"lon":5.42647,"is_reserved":false,"is_disabled":false,"rental_uris":{"android":"levelo://app?vid=f36b403e-e5fd-4fc2-96cd-69acf29c1e34","ios":"levelo://app?vid=f36b403e-e5fd-4fc2-96cd-69acf29c1e34"},"vehicle_type_id":"4","last_reported":1701454156,"current_range_meters":4400,"station_id":"ce4bhnh2rcd13ifvqgug","pricing_plan_id":"free"},{"bike_id":"d3df04f1-aa36-401c-b9f0-16ea3bba87de","system_id":"levelo_inurba_marseille","lat":43.28152,"lon":5.42644,"is_reserved":false,"is_disabled":false,"rental_uris":{"android":"levelo://app?vid=d3df04f1-aa36-401c-b9f0-16ea3bba87de","ios":"levelo://app?vid=d3df04f1-aa36-401c-b9f0-16ea3bba87de"},"vehicle_type_id":"4","last_reported":1701454156,"current_range_meters":16800,"station_id":"ce4bhnh2rcd13ifvqgug","pricing_plan_id":"free"},{"bike_id":"a265f57d-2203-4406-8278-bc194922c399","system_id":"levelo_inurba_marseille","lat":43.28151,"lon":5.42644,"is_reserved":false,"is_disabled":false,"rental_uris":{"android":"levelo://app?vid=a265f57d-2203-4406-8278-bc194922c399","ios":"levelo://app?vid=a265f57d-2203-4406-8278-bc194922c399"},"vehicle_type_id":"4","last_reported":1701454156,"current_range_meters":30400,"station_id":"ce4bhnh2rcd13ifvqgug","pricing_plan_id":"free"},{"bike_id":"3de40b48-7293-4590-b1e4-a9c54e991d0a","system_id":"levelo_inurba_marseille","lat":43.2815,"lon":5.42644,"is_reserved":false,"is_disabled":false,"rental_uris":{"android":"levelo://app?vid=3de40b48-7293-4590-b1e4-a9c54e991d0a","ios":"levelo://app?vid=3de40b48-7293-4590-b1e4-a9c54e991d0a"},"vehicle_type_id":"4","last_reported":1701454156,"current_range_meters":18800,"station_id":"ce4bhnh2rcd13ifvqgug","pricing_plan_id":"free"},{"bike_id":"3532a786-7312-4db1-88be-2e5e8a274941","system_id":"levelo_inurba_marseille","lat":43.28156,"lon":5.42655,"is_reserved":false,"is_disabled":false,"rental_uris":{"android":"levelo://app?vid=3532a786-7312-4db1-88be-2e5e8a274941","ios":"levelo://app?vid=3532a786-7312-4db1-88be-2e5e8a274941"},"vehicle_type_id":"4","last_reported":1701454156,"current_range_meters":27200,"station_id":"ce4bhnh2rcd13ifvqgug","pricing_plan_id":"free"},{"bike_id":"b802834e-51f4-41a4-96cb-c31681473515","system_id":"levelo_inurba_marseille","lat":43.281531,"lon":5.426523,"is_reserved":false,"is_disabled":false,"rental_uris":{"android":"levelo://app?vid=b802834e-51f4-41a4-96cb-c31681473515","ios":"levelo://app?vid=b802834e-51f4-41a4-96cb-c31681473515"},"vehicle_type_id":"4","last_reported":1701454156,"current_range_meters":31200,"station_id":"ce4bhnh2rcd13ifvqgug","pricing_plan_id":"free"},{"bike_id":"08b64681-f98c-4572-9311-c069d61e9dd0","system_id":"levelo_inurba_marseille","lat":43.275028,"lon":5.424534,"is_reserved":false,"is_disabled":false,"rental_uris":{"android":"levelo://app?vid=08b64681-f98c-4572-9311-c069d61e9dd0","ios":"levelo://app?vid=08b64681-f98c-4572-9311-c069d61e9dd0"},"vehicle_type_id":"4","last_reported":1701454156,"current_range_meters":6000,"station_id":"ce4bhn92rcd13ifvqgrg","pricing_plan_id":"free"},{"bike_id":"1bdec686-727a-4d55-9288-592608697e45","system_id":"levelo_inurba_marseille","lat":43.25577,"lon":5.38235,"is_reserved":false,"is_disabled":false,"rental_uris":{"android":"levelo://app?vid=1bdec686-727a-4d55-9288-592608697e45","ios":"levelo://app?vid=1bdec686-727a-4d55-9288-592608697e45"},"vehicle_type_id":"4","last_reported":1701454156,"current_range_meters":21600,"station_id":"ce4bhih2rcd13ifvqfs0","pricing_plan_id":"free"},{"bike_id":"b047c1b1-3200-44b4-a91d-d8bfa0aeb44e","system_id":"levelo_inurba_marseille","lat":43.258658,"lon":5.398935,"is_reserved":false,"is_disabled":false,"rental_uris":{"android":"levelo://app?vid=b047c1b1-3200-44b4-a91d-d8bfa0aeb44e","ios":"levelo://app?vid=b047c1b1-3200-44b4-a91d-d8bfa0aeb44e"},"vehicle_type_id":"4","last_reported":1701454156,"current_range_meters":9200,"station_id":"ce4bhl92rcd13ifvqghg","pricing_plan_id":"free"},{"bike_id":"e2c05adc-f0fb-4f54-aa18-650960bc1e61","system_id":"levelo_inurba_marseille","lat":43.25082,"lon":5.39528,"is_reserved":false,"is_disabled":false,"rental_uris":{"android":"levelo://app?vid=e2c05adc-f0fb-4f54-aa18-650960bc1e61","ios":"levelo://app?vid=e2c05adc-f0fb-4f54-aa18-650960bc1e61"},"vehicle_type_id":"4","last_reported":1701454156,"current_range_meters":20000,"station_id":"ce4bhm12rcd13ifvqgkg","pricing_plan_id":"free"},{"bike_id":"7aa24d96-c95d-4468-a02b-494a7d7dd09e","system_id":"levelo_inurba_marseille","lat":43.25079,"lon":5.39519,"is_reserved":false,"is_disabled":false,"rental_uris":{"android":"levelo://app?vid=7aa24d96-c95d-4468-a02b-494a7d7dd09e","ios":"levelo://app?vid=7aa24d96-c95d-4468-a02b-494a7d7dd09e"},"vehicle_type_id":"4","last_reported":1701454156,"current_range_meters":13600,"station_id":"ce4bhm12rcd13ifvqgkg","pricing_plan_id":"free"},{"bike_id":"7b86737e-88b6-402e-953d-d66f821e4367","system_id":"levelo_inurba_marseille","lat":43.25078,"lon":5.39522,"is_reserved":false,"is_disabled":false,"rental_uris":{"android":"levelo://app?vid=7b86737e-88b6-402e-953d-d66f821e4367","ios":"levelo://app?vid=7b86737e-88b6-402e-953d-d66f821e4367"},"vehicle_type_id":"4","last_reported":1701454156,"current_range_meters":31200,"station_id":"ce4bhm12rcd13ifvqgkg","pricing_plan_id":"free"},{"bike_id":"e7aad632-367b-4496-9cef-bcfeaf0ec9a0","system_id":"levelo_inurba_marseille","lat":43.246461,"lon":5.389014,"is_reserved":false,"is_disabled":false,"rental_uris":{"android":"levelo://app?vid=e7aad632-367b-4496-9cef-bcfeaf0ec9a0","ios":"levelo://app?vid=e7aad632-367b-4496-9cef-bcfeaf0ec9a0"},"vehicle_type_id":"4","last_reported":1701454156,"current_range_meters":30800,"station_id":"ce4bhg12rcd13ifvqf60","pricing_plan_id":"free"},{"bike_id":"4bea248b-4255-4758-adb0-84a04e4dd17f","system_id":"levelo_inurba_marseille","lat":43.246467,"lon":5.388984,"is_reserved":false,"is_disabled":false,"rental_uris":{"android":"levelo://app?vid=4bea248b-4255-4758-adb0-84a04e4dd17f","ios":"levelo://app?vid=4bea248b-4255-4758-adb0-84a04e4dd17f"},"vehicle_type_id":"4","last_reported":1701454156,"current_range_meters":30800,"station_id":"ce4bhg12rcd13ifvqf60","pricing_plan_id":"free"},{"bike_id":"311269c7-73e5-44dd-9e19-cf1037a422fa","system_id":"levelo_inurba_marseille","lat":43.243884,"lon":5.370736,"is_reserved":false,"is_disabled":false,"rental_uris":{"android":"levelo://app?vid=311269c7-73e5-44dd-9e19-cf1037a422fa","ios":"levelo://app?vid=311269c7-73e5-44dd-9e19-cf1037a422fa"},"vehicle_type_id":"4","last_reported":1701454156,"current_range_meters":30800,"station_id":"ce4bhhh2rcd13ifvqfk0","pricing_plan_id":"free"},{"bike_id":"8f8a08c5-5ca8-4694-93c6-b968749a30c2","system_id":"levelo_inurba_marseille","lat":43.245581,"lon":5.395069,"is_reserved":false,"is_disabled":false,"rental_uris":{"android":"levelo://app?vid=8f8a08c5-5ca8-4694-93c6-b968749a30c2","ios":"levelo://app?vid=8f8a08c5-5ca8-4694-93c6-b968749a30c2"},"vehicle_type_id":"4","last_reported":1701454156,"current_range_meters":31200,"station_id":"ce4bhlp2rcd13ifvqgjg","pricing_plan_id":"free"},{"bike_id":"8a6d21ee-8178-4f32-b8d1-754b3c0d95f1","system_id":"levelo_inurba_marseille","lat":43.245581,"lon":5.395069,"is_reserved":false,"is_disabled":false,"rental_uris":{"android":"levelo://app?vid=8a6d21ee-8178-4f32-b8d1-754b3c0d95f1","ios":"levelo://app?vid=8a6d21ee-8178-4f32-b8d1-754b3c0d95f1"},"vehicle_type_id":"4","last_reported":1701454156,"current_range_meters":31600,"station_id":"ce4bhlp2rcd13ifvqgjg","pricing_plan_id":"free"},{"bike_id":"f44122c3-b152-40c3-bace-5f58768a5b54","system_id":"levelo_inurba_marseille","lat":43.245581,"lon":5.395069,"is_reserved":false,"is_disabled":false,"rental_uris":{"android":"levelo://app?vid=f44122c3-b152-40c3-bace-5f58768a5b54","ios":"levelo://app?vid=f44122c3-b152-40c3-bace-5f58768a5b54"},"vehicle_type_id":"4","last_reported":1701454156,"current_range_meters":29600,"station_id":"ce4bhlp2rcd13ifvqgjg","pricing_plan_id":"free"},{"bike_id":"6bea93d9-53ff-4d1d-97d2-2260eb4c4435","system_id":"levelo_inurba_marseille","lat":43.245581,"lon":5.395069,"is_reserved":false,"is_disabled":false,"rental_uris":{"android":"levelo://app?vid=6bea93d9-53ff-4d1d-97d2-2260eb4c4435","ios":"levelo://app?vid=6bea93d9-53ff-4d1d-97d2-2260eb4c4435"},"vehicle_type_id":"4","last_reported":1701454156,"current_range_meters":8800,"station_id":"ce4bhlp2rcd13ifvqgjg","pricing_plan_id":"free"},{"bike_id":"46bdf028-6253-4a5d-8b03-4af9546668af","system_id":"levelo_inurba_marseille","lat":43.24071,"lon":5.37765,"is_reserved":false,"is_disabled":false,"rental_uris":{"android":"levelo://app?vid=46bdf028-6253-4a5d-8b03-4af9546668af","ios":"levelo://app?vid=46bdf028-6253-4a5d-8b03-4af9546668af"},"vehicle_type_id":"4","last_reported":1701454156,"current_range_meters":29600,"station_id":"ce4bhnp2rcd13ifvqgvg","pricing_plan_id":"free"},{"bike_id":"a597f3b8-a123-45ea-8c43-e437b8beab29","system_id":"levelo_inurba_marseille","lat":43.240623,"lon":5.377642,"is_reserved":false,"is_disabled":false,"rental_uris":{"android":"levelo://app?vid=a597f3b8-a123-45ea-8c43-e437b8beab29","ios":"levelo://app?vid=a597f3b8-a123-45ea-8c43-e437b8beab29"},"vehicle_type_id":"4","last_reported":1701454156,"current_range_meters":31200,"station_id":"ce4bhnp2rcd13ifvqgvg","pricing_plan_id":"free"},{"bike_id":"9cc60b15-9c6b-4a0b-b101-fed3f3e67a1f","system_id":"levelo_inurba_marseille","lat":43.240623,"lon":5.377642,"is_reserved":false,"is_disabled":false,"rental_uris":{"android":"levelo://app?vid=9cc60b15-9c6b-4a0b-b101-fed3f3e67a1f","ios":"levelo://app?vid=9cc60b15-9c6b-4a0b-b101-fed3f3e67a1f"},"vehicle_type_id":"4","last_reported":1701454156,"current_range_meters":22800,"station_id":"ce4bhnp2rcd13ifvqgvg","pricing_plan_id":"free"},{"bike_id":"cd2806e3-7a91-44f5-9e97-e41c2a460e29","system_id":"levelo_inurba_marseille","lat":43.241782,"lon":5.397264,"is_reserved":false,"is_disabled":false,"rental_uris":{"android":"levelo://app?vid=cd2806e3-7a91-44f5-9e97-e41c2a460e29","ios":"levelo://app?vid=cd2806e3-7a91-44f5-9e97-e41c2a460e29"},"vehicle_type_id":"4","last_reported":1701454156,"current_range_meters":2800,"station_id":"ce4bhn12rcd13ifvqgpg","pricing_plan_id":"free"},{"bike_id":"89bb94a8-804d-4b79-ba22-ba6b8b8b8ed0","system_id":"levelo_inurba_marseille","lat":43.2418,"lon":5.39724,"is_reserved":false,"is_disabled":false,"rental_uris":{"android":"levelo://app?vid=89bb94a8-804d-4b79-ba22-ba6b8b8b8ed0","ios":"levelo://app?vid=89bb94a8-804d-4b79-ba22-ba6b8b8b8ed0"},"vehicle_type_id":"4","last_reported":1701454156,"current_range_meters":26400,"station_id":"ce4bhn12rcd13ifvqgpg","pricing_plan_id":"free"},{"bike_id":"460ff11d-43d6-4fa0-9381-c598ad26d49a","system_id":"levelo_inurba_marseille","lat":43.241782,"lon":5.397261,"is_reserved":false,"is_disabled":false,"rental_uris":{"android":"levelo://app?vid=460ff11d-43d6-4fa0-9381-c598ad26d49a","ios":"levelo://app?vid=460ff11d-43d6-4fa0-9381-c598ad26d49a"},"vehicle_type_id":"4","last_reported":1701454156,"current_range_meters":31200,"station_id":"ce4bhn12rcd13ifvqgpg","pricing_plan_id":"free"},{"bike_id":"6462fbc5-ceb8-47e3-b56d-fc1e69bef19f","system_id":"levelo_inurba_marseille","lat":43.231919,"lon":5.355532,"is_reserved":false,"is_disabled":false,"rental_uris":{"android":"levelo://app?vid=6462fbc5-ceb8-47e3-b56d-fc1e69bef19f","ios":"levelo://app?vid=6462fbc5-ceb8-47e3-b56d-fc1e69bef19f"},"vehicle_type_id":"4","last_reported":1701454156,"current_range_meters":31200,"station_id":"ce4bhu92rcd13ifvqi70","pricing_plan_id":"free"},{"bike_id":"6382809b-45d0-4ad2-8be7-697249f82077","system_id":"levelo_inurba_marseille","lat":43.231919,"lon":5.355532,"is_reserved":false,"is_disabled":false,"rental_uris":{"android":"levelo://app?vid=6382809b-45d0-4ad2-8be7-697249f82077","ios":"levelo://app?vid=6382809b-45d0-4ad2-8be7-697249f82077"},"vehicle_type_id":"4","last_reported":1701454156,"current_range_meters":31200,"station_id":"ce4bhu92rcd13ifvqi70","pricing_plan_id":"free"},{"bike_id":"d919cd84-7675-4a37-b94c-3ba2519b645c","system_id":"levelo_inurba_marseille","lat":43.231919,"lon":5.355532,"is_reserved":false,"is_disabled":false,"rental_uris":{"android":"levelo://app?vid=d919cd84-7675-4a37-b94c-3ba2519b645c","ios":"levelo://app?vid=d919cd84-7675-4a37-b94c-3ba2519b645c"},"vehicle_type_id":"4","last_reported":1701454156,"current_range_meters":28000,"station_id":"ce4bhu92rcd13ifvqi70","pricing_plan_id":"free"},{"bike_id":"cf3102c4-88e0-4a41-86b7-69a76932d3e6","system_id":"levelo_inurba_marseille","lat":43.23192,"lon":5.35557,"is_reserved":false,"is_disabled":false,"rental_uris":{"android":"levelo://app?vid=cf3102c4-88e0-4a41-86b7-69a76932d3e6","ios":"levelo://app?vid=cf3102c4-88e0-4a41-86b7-69a76932d3e6"},"vehicle_type_id":"4","last_reported":1701454156,"current_range_meters":31200,"station_id":"ce4bhu92rcd13ifvqi70","pricing_plan_id":"free"},{"bike_id":"d1703505-b125-4a98-a807-11024241bc04","system_id":"levelo_inurba_marseille","lat":43.23192,"lon":5.35555,"is_reserved":false,"is_disabled":false,"rental_uris":{"android":"levelo://app?vid=d1703505-b125-4a98-a807-11024241bc04","ios":"levelo://app?vid=d1703505-b125-4a98-a807-11024241bc04"},"vehicle_type_id":"4","last_reported":1701454156,"current_range_meters":31200,"station_id":"ce4bhu92rcd13ifvqi70","pricing_plan_id":"free"},{"bike_id":"5aaa36a6-4257-480d-95b7-86aa5f368a64","system_id":"levelo_inurba_marseille","lat":43.231919,"lon":5.355532,"is_reserved":false,"is_disabled":false,"rental_uris":{"android":"levelo://app?vid=5aaa36a6-4257-480d-95b7-86aa5f368a64","ios":"levelo://app?vid=5aaa36a6-4257-480d-95b7-86aa5f368a64"},"vehicle_type_id":"4","last_reported":1701454156,"current_range_meters":21600,"station_id":"ce4bhu92rcd13ifvqi70","pricing_plan_id":"free"},{"bike_id":"179bc0fb-370c-4234-b30f-9121ae3c4192","system_id":"levelo_inurba_marseille","lat":43.231794,"lon":5.400052,"is_reserved":false,"is_disabled":false,"rental_uris":{"android":"levelo://app?vid=179bc0fb-370c-4234-b30f-9121ae3c4192","ios":"levelo://app?vid=179bc0fb-370c-4234-b30f-9121ae3c4192"},"vehicle_type_id":"4","last_reported":1701454156,"current_range_meters":29200,"station_id":"ce4bhn12rcd13ifvqgqg","pricing_plan_id":"free"},{"bike_id":"22bd98e3-c33f-4c44-ae2b-f96729d36f4f","system_id":"levelo_inurba_marseille","lat":43.23187,"lon":5.39995,"is_reserved":false,"is_disabled":false,"rental_uris":{"android":"levelo://app?vid=22bd98e3-c33f-4c44-ae2b-f96729d36f4f","ios":"levelo://app?vid=22bd98e3-c33f-4c44-ae2b-f96729d36f4f"},"vehicle_type_id":"4","last_reported":1701454156,"current_range_meters":31200,"station_id":"ce4bhn12rcd13ifvqgqg","pricing_plan_id":"free"},{"bike_id":"d0b35396-6769-42d4-8160-8b44cb829902","system_id":"levelo_inurba_marseille","lat":43.231793,"lon":5.400044,"is_reserved":false,"is_disabled":false,"rental_uris":{"android":"levelo://app?vid=d0b35396-6769-42d4-8160-8b44cb829902","ios":"levelo://app?vid=d0b35396-6769-42d4-8160-8b44cb829902"},"vehicle_type_id":"4","last_reported":1701454156,"current_range_meters":31600,"station_id":"ce4bhn12rcd13ifvqgqg","pricing_plan_id":"free"},{"bike_id":"1eeab9a5-d341-4bc8-8d21-ee151ff9d9b2","system_id":"levelo_inurba_marseille","lat":43.23181,"lon":5.399983,"is_reserved":false,"is_disabled":false,"rental_uris":{"android":"levelo://app?vid=1eeab9a5-d341-4bc8-8d21-ee151ff9d9b2","ios":"levelo://app?vid=1eeab9a5-d341-4bc8-8d21-ee151ff9d9b2"},"vehicle_type_id":"4","last_reported":1701454156,"current_range_meters":21600,"station_id":"ce4bhn12rcd13ifvqgqg","pricing_plan_id":"free"},{"bike_id":"bfb1ccb5-dfa1-425d-901e-02799fedd445","system_id":"levelo_inurba_marseille","lat":43.23179,"lon":5.399976,"is_reserved":false,"is_disabled":false,"rental_uris":{"android":"levelo://app?vid=bfb1ccb5-dfa1-425d-901e-02799fedd445","ios":"levelo://app?vid=bfb1ccb5-dfa1-425d-901e-02799fedd445"},"vehicle_type_id":"4","last_reported":1701454156,"current_range_meters":13200,"station_id":"ce4bhn12rcd13ifvqgqg","pricing_plan_id":"free"},{"bike_id":"457c552c-8af5-4b7b-9f6b-8c901265a623","system_id":"levelo_inurba_marseille","lat":43.231793,"lon":5.400044,"is_reserved":false,"is_disabled":false,"rental_uris":{"android":"levelo://app?vid=457c552c-8af5-4b7b-9f6b-8c901265a623","ios":"levelo://app?vid=457c552c-8af5-4b7b-9f6b-8c901265a623"},"vehicle_type_id":"4","last_reported":1701454156,"current_range_meters":21600,"station_id":"ce4bhn12rcd13ifvqgqg","pricing_plan_id":"free"},{"bike_id":"d000766e-0cd3-41c9-b7fb-980286eca45c","system_id":"levelo_inurba_marseille","lat":43.231793,"lon":5.400044,"is_reserved":false,"is_disabled":false,"rental_uris":{"android":"levelo://app?vid=d000766e-0cd3-41c9-b7fb-980286eca45c","ios":"levelo://app?vid=d000766e-0cd3-41c9-b7fb-980286eca45c"},"vehicle_type_id":"4","last_reported":1701454156,"current_range_meters":16000,"station_id":"ce4bhn12rcd13ifvqgqg","pricing_plan_id":"free"},{"bike_id":"f00f7629-468e-4d2d-bfc2-c8b4ed4d50cb","system_id":"levelo_inurba_marseille","lat":43.23149,"lon":5.43721,"is_reserved":false,"is_disabled":false,"rental_uris":{"android":"levelo://app?vid=f00f7629-468e-4d2d-bfc2-c8b4ed4d50cb","ios":"levelo://app?vid=f00f7629-468e-4d2d-bfc2-c8b4ed4d50cb"},"vehicle_type_id":"4","last_reported":1701454156,"current_range_meters":23200,"station_id":"ce4bhmp2rcd13ifvqgog","pricing_plan_id":"free"}]}}