{"last_updated":1700460602,"ttl":30,"version":"2.2","data":{"bikes":[{"bike_id":"66d006e6-4bfc-429c-9763-1ea3e4a4c668","system_id":"levelo_inurba_marseille","lat":43.313391,"lon":5.36706,"is_reserved":false,"is_disabled":false,"rental_uris":{"android":"levelo://app?vid=66d006e6-4bfc-429c-9763-1ea3e4a4c668","ios":"levelo://app?vid=66d006e6-4bfc-429c-9763-1ea3e4a4c668"},"vehicle_type_id":"4","last_reported":1700460602,"current_range_meters":24800,"station_id":"ce4bgr92rcd13ifvqc6g","pricing_plan_id":"free"},{"bike_id":"4d786714-d5f8-4333-b0df-6e116088fd52","system_id":"levelo_inurba_marseille","lat":43.312239,"lon":5.368562,"is_reserved":false,"is_disabled":false,"rental_uris":{"android":"levelo://app?vid=4d786714-d5f8-4333-b0df-6e116088fd52","ios":"levelo://app?vid=4d786714-d5f8-4333-b0df-6e116088fd52"},"vehicle_type_id":"4","last_reported":1700460602,"current_range_meters":30400,"station_id":"ce4bgl92rcd13ifvqbq0","pricing_plan_id":"free"},{"bike_id":"975314dd-48de-4f66-b027-83f2f61b524c","system_id":"levelo_inurba_marseille","lat":43.312239,"lon":5.368562,"is_reserved":false,"is_disabled":false,"rental_uris":{"android":"levelo://app?vid=975314dd-48de-4f66-b027-83f2f61b524c","ios":"levelo://app?vid=975314dd-48de-4f66-b027-83f2f61b524c"},"vehicle_type_id":"4","last_reported":1700460602,"current_range_meters":31200,"station_id":"ce4bgl92rcd13ifvqbq0","pricing_plan_id":"free"},{"bike_id":"f874da3e-b17e-47f0-a499-90fd16b42a65","system_id":"levelo_inurba_marseille","lat":43.311588,"lon":5.368873,"is_reserved":false,"is_disabled":false,"rental_uris":{"android":"levelo://app?vid=f874da3e-b17e-47f0-a499-90fd16b42a65","ios":"levelo://app?vid=f874da3e-b17e-47f0-a499-90fd16b42a65"},"vehicle_type_id":"4","last_reported":1700460602,"current_range_meters":0,"station_id":"","pricing_plan_id":"free"},{"bike_id":"aa9dafa9-7021-4086-a1bf-33f74f2110ab","system_id":"levelo_inurba_marseille","lat":43.314811,"lon":5.373103,"is_reserved":false,"is_disabled":false,"rental_uris":{"android":"levelo://app?vid=aa9dafa9-7021-4086-a1bf-33f74f2110ab","ios":"levelo://app?vid=aa9dafa9-7021-4086-a1bf-33f74f2110ab"},"vehicle_type_id":"4","last_reported":1700460602,"current_range_meters":31200,"station_id":"ce4bgt12rcd13ifvqcd0","pricing_plan_id":"free"},{"bike_id":"53590373-243b-4d82-9eec-4361b34ec63e","system_id":"levelo_inurba_marseille","lat":43.314811,"lon":5.373104,"is_reserved":false,"is_disabled":false,"rental_uris":{"android":"levelo://app?vid=53590373-243b-4d82-9eec-4361b34ec63e","ios":"levelo://app?vid=53590373-243b-4d82-9eec-4361b34ec63e"},"vehicle_type_id":"4","last_reported":1700460602,"current_range_meters":26000,"station_id":"ce4bgt12rcd13ifvqcd0","pricing_plan_id":"free"},{"bike_id":"3475d204-43b6-43d9-b615-ca1d0d58200e","system_id":"levelo_inurba_marseille","lat":43.30679,"lon":5.3679,"is_reserved":false,"is_disabled":false,"rental_uris":{"android":"levelo://app?vid=3475d204-43b6-43d9-b615-ca1d0d58200e","ios":"levelo://app?vid=3475d204-43b6-43d9-b615-ca1d0d58200e"},"vehicle_type_id":"4","last_reported":1700460602,"current_range_meters":8000,"station_id":"","pricing_plan_id":"free"},{"bike_id":"34c2e47c-93fb-4085-a86b-02aed4c7542f","system_id":"levelo_inurba_marseille","lat":43.305489,"lon":5.367048,"is_reserved":false,"is_disabled":false,"rental_uris":{"android":"levelo://app?vid=34c2e47c-93fb-4085-a86b-02aed4c7542f","ios":"levelo://app?vid=34c2e47c-93fb-4085-a86b-02aed4c7542f"},"vehicle_type_id":"4","last_reported":1700460602,"current_range_meters":0,"station_id":"ce4bgrp2rcd13ifvqc9g","pricing_plan_id":"free"},{"bike_id":"20e61284-66c8-4e3c-b9a9-4601a49f2e5d","system_id":"levelo_inurba_marseille","lat":43.305712,"lon":5.365641,"is_reserved":false,"is_disabled":false,"rental_uris":{"android":"levelo://app?vid=20e61284-66c8-4e3c-b9a9-4601a49f2e5d","ios":"levelo://app?vid=20e61284-66c8-4e3c-b9a9-4601a49f2e5d"},"vehicle_type_id":"4","last_reported":1700460602,"current_range_meters":30400,"station_id":"ce4bgs12rcd13ifvqcag","pricing_plan_id":"free"},{"bike_id":"82a742ba-fe05-48d0-8f1a-221ee866fef8","system_id":"levelo_inurba_marseille","lat":43.305714,"lon":5.365633,"is_reserved":false,"is_disabled":false,"rental_uris":{"android":"levelo://app?vid=82a742ba-fe05-48d0-8f1a-221ee866fef8","ios":"levelo://app?vid=82a742ba-fe05-48d0-8f1a-221ee866fef8"},"vehicle_type_id":"4","last_reported":1700460602,"current_range_meters":22800,"station_id":"ce4bgs12rcd13ifvqcag","pricing_plan_id":"free"},{"bike_id":"eb60b594-5121-4262-a9bb-930c6e7979c4","system_id":"levelo_inurba_marseille","lat":43.305706,"lon":5.365654,"is_reserved":false,"is_disabled":false,"rental_uris":{"android":"levelo://app?vid=eb60b594-5121-4262-a9bb-930c6e7979c4","ios":"levelo://app?vid=eb60b594-5121-4262-a9bb-930c6e7979c4"},"vehicle_type_id":"4","last_reported":1700460602,"current_range_meters":28400,"station_id":"ce4bgs12rcd13ifvqcag","pricing_plan_id":"free"},{"bike_id":"405263ae-d107-4a37-a5b5-b0d4ee34e7cb","system_id":"levelo_inurba_marseille","lat":43.305706,"lon":5.365654,"is_reserved":false,"is_disabled":false,"rental_uris":{"android":"levelo://app?vid=405263ae-d107-4a37-a5b5-b0d4ee34e7cb","ios":"levelo://app?vid=405263ae-d107-4a37-a5b5-b0d4ee34e7cb"},"vehicle_type_id":"4","last_reported":1700460602,"current_range_meters":30000,"station_id":"ce4bgs12rcd13ifvqcag","pricing_plan_id":"free"},{"bike_id":"7443302a-20ce-4d02-af77-3fa7ae3026ae","system_id":"levelo_inurba_marseille","lat":43.305368,"lon":5.367343,"is_reserved":false,"is_disabled":false,"rental_uris":{"android":"levelo://app?vid=7443302a-20ce-4d02-af77-3fa7ae3026ae","ios":"levelo://app?vid=7443302a-20ce-4d02-af77-3fa7ae3026ae"},"vehicle_type_id":"4","last_reported":1700460602,"current_range_meters":0,"station_id":"ce4bgrp2rcd13ifvqc9g","pricing_plan_id":"free"},{"bike_id":"9bd3ad0a-ab1f-4368-a3b2-08cd4ec74456","system_id":"levelo_inurba_marseille","lat":43.305706,"lon":5.365654,"is_reserved":false,"is_disabled":false,"rental_uris":{"android":"levelo://app?vid=9bd3ad0a-ab1f-4368-a3b2-08cd4ec74456","ios":"levelo://app?vid=9bd3ad0a-ab1f-4368-a3b2-08cd4ec74456"},"vehicle_type_id":"4","last_reported":1700460602,"current_range_meters":31200,"station_id":"ce4bgs12rcd13ifvqcag","pricing_plan_id":"free"},{"bike_id":"8d92306a-be43-4837-829d-9eb08437f384","system_id":"levelo_inurba_marseille","lat":43.311239,"lon":5.377631,"is_reserved":false,"is_disabled":false,"rental_uris":{"android":"levelo://app?vid=8d92306a-be43-4837-829d-9eb08437f384","ios":"levelo://app?vid=8d92306a-be43-4837-829d-9eb08437f384"},"vehicle_type_id":"4","last_reported":1700460602,"current_range_meters":17600,"station_id":"ce4bgt92rcd13ifvqcg0","pricing_plan_id":"free"},{"bike_id":"9309ee71-2e1a-4cfb-a93e-8bae5a928dc1","system_id":"levelo_inurba_marseille","lat":43.308172,"lon":5.37654,"is_reserved":false,"is_disabled":false,"rental_uris":{"android":"levelo://app?vid=9309ee71-2e1a-4cfb-a93e-8bae5a928dc1","ios":"levelo://app?vid=9309ee71-2e1a-4cfb-a93e-8bae5a928dc1"},"vehicle_type_id":"4","last_reported":1700460602,"current_range_meters":8000,"station_id":"ce4bgv92rcd13ifvqcq0","pricing_plan_id":"free"},{"bike_id":"df755a02-7a8a-4a1f-8fab-69a8b08bd6d7","system_id":"levelo_inurba_marseille","lat":43.315293,"lon":5.380349,"is_reserved":false,"is_disabled":false,"rental_uris":{"android":"levelo://app?vid=df755a02-7a8a-4a1f-8fab-69a8b08bd6d7","ios":"levelo://app?vid=df755a02-7a8a-4a1f-8fab-69a8b08bd6d7"},"vehicle_type_id":"4","last_reported":1700460602,"current_range_meters":12000,"station_id":"ce4bhsp2rcd13ifvqi50","pricing_plan_id":"free"},{"bike_id":"5b915d7f-0f09-4cbb-a933-dbedf34f3dd8","system_id":"levelo_inurba_marseille","lat":43.301939,"lon":5.366286,"is_reserved":false,"is_disabled":false,"rental_uris":{"android":"levelo://app?vid=5b915d7f-0f09-4cbb-a933-dbedf34f3dd8","ios":"levelo://app?vid=5b915d7f-0f09-4cbb-a933-dbedf34f3dd8"},"vehicle_type_id":"4","last_reported":1700460602,"current_range_meters":31200,"station_id":"ce4bgrh2rcd13ifvqc8g","pricing_plan_id":"free"},{"bike_id":"87d62336-22da-40d9-8af8-3211685a10c2","system_id":"levelo_inurba_marseille","lat":43.30836,"lon":5.381175,"is_reserved":false,"is_disabled":false,"rental_uris":{"android":"levelo://app?vid=87d62336-22da-40d9-8af8-3211685a10c2","ios":"levelo://app?vid=87d62336-22da-40d9-8af8-3211685a10c2"},"vehicle_type_id":"4","last_reported":1700460602,"current_range_meters":11200,"station_id":"ce4bgt12rcd13ifvqce0","pricing_plan_id":"free"},{"bike_id":"15a3fce8-1ce9-4c31-844c-9dbaabdaf954","system_id":"levelo_inurba_marseille","lat":43.307931,"lon":5.381529,"is_reserved":false,"is_disabled":false,"rental_uris":{"android":"levelo://app?vid=15a3fce8-1ce9-4c31-844c-9dbaabdaf954","ios":"levelo://app?vid=15a3fce8-1ce9-4c31-844c-9dbaabdaf954"},"vehicle_type_id":"4","last_reported":1700460602,"current_range_meters":5200,"station_id":"ce4bgt12rcd13ifvqce0","pricing_plan_id":"free"},{"bike_id":"2f150f50-714d-4964-86f7-776aea829379","system_id":"levelo_inurba_marseille","lat":43.304624,"lon":5.378888,"is_reserved":false,"is_disabled":false,"rental_uris":{"android":"levelo://app?vid=2f150f50-714d-4964-86f7-776aea829379","ios":"levelo://app?vid=2f150f50-714d-4964-86f7-776aea829379"},"vehicle_type_id":"4","last_reported":1700460602,"current_range_meters":24000,"station_id":"ce4bgup2rcd13ifvqcn0","pricing_plan_id":"free"},{"bike_id":"5e457378-59e6-47ed-a640-a4e666fba5c6","system_id":"levelo_inurba_marseille","lat":43.304606,"lon":5.379026,"is_reserved":false,"is_disabled":false,"rental_uris":{"android":"levelo://app?vid=5e457378-59e6-47ed-a640-a4e666fba5c6","ios":"levelo://app?vid=5e457378-59e6-47ed-a640-a4e666fba5c6"},"vehicle_type_id":"4","last_reported":1700460602,"current_range_meters":30000,"station_id":"ce4bgup2rcd13ifvqcn0","pricing_plan_id":"free"},{"bike_id":"c5e23211-d76c-4c86-9568-db203e681012","system_id":"levelo_inurba_marseille","lat":43.304606,"lon":5.379026,"is_reserved":false,"is_disabled":false,"rental_uris":{"android":"levelo://app?vid=c5e23211-d76c-4c86-9568-db203e681012","ios":"levelo://app?vid=c5e23211-d76c-4c86-9568-db203e681012"},"vehicle_type_id":"4","last_reported":1700460602,"current_range_meters":30000,"station_id":"ce4bgup2rcd13ifvqcn0","pricing_plan_id":"free"},{"bike_id":"3c3113e6-2f81-4292-b445-ed20760f3950","system_id":"levelo_inurba_marseille","lat":43.304606,"lon":5.379026,"is_reserved":false,"is_disabled":false,"rental_uris":{"android":"levelo://app?vid=3c3113e6-2f81-4292-b445-ed20760f3950","ios":"levelo://app?vid=3c3113e6-2f81-4292-b445-ed20760f3950"},"vehicle_type_id":"4","last_reported":1700460602,"current_range_meters":24800,"station_id":"ce4bgup2rcd13ifvqcn0","pricing_plan_id":"free"},{"bike_id":"d9eafd86-28e7-4609-b093-79a61fa1af0b","system_id":"levelo_inurba_marseille","lat":43.304606,"lon":5.379026,"is_reserved":false,"is_disabled":false,"rental_uris":{"android":"levelo://app?vid=d9eafd86-28e7-4609-b093-79a61fa1af0b","ios":"levelo://app?vid=d9eafd86-28e7-4609-b093-79a61fa1af0b"},"vehicle_type_id":"4","last_reported":1700460602,"current_range_meters":21200,"station_id":"ce4bgup2rcd13ifvqcn0","pricing_plan_id":"free"},{"bike_id":"c1264497-9de6-44ef-8687-b4a685527e1b","system_id":"levelo_inurba_marseille","lat":43.304606,"lon":5.379026,"is_reserved":false,"is_disabled":false,"rental_uris":{"android":"levelo://app?vid=c1264497-9de6-44ef-8687-b4a685527e1b","ios":"levelo://app?vid=c1264497-9de6-44ef-8687-b4a685527e1b"},"vehicle_type_id":"4","last_reported":1700460602,"current_range_meters":28400,"station_id":"ce4bgup2rcd13ifvqcn0","pricing_plan_id":"free"},{"bike_id":"28760a91-830f-4a37-bf99-41fde3351fbf","system_id":"levelo_inurba_marseille","lat":43.304606,"lon":5.379026,"is_reserved":false,"is_disabled":false,"rental_uris":{"android":"levelo://app?vid=28760a91-830f-4a37-bf99-41fde3351fbf","ios":"levelo://app?vid=28760a91-830f-4a37-bf99-41fde3351fbf"},"vehicle_type_id":"4","last_reported":1700460602,"current_range_meters":30800,"station_id":"ce4bgup2rcd13ifvqcn0","pricing_plan_id":"free"},{"bike_id":"c2958899-8b00-4188-8f46-e28498d229cb","system_id":"levelo_inurba_marseille","lat":43.304606,"lon":5.379026,"is_reserved":false,"is_disabled":false,"rental_uris":{"android":"levelo://app?vid=c2958899-8b00-4188-8f46-e28498d229cb","ios":"levelo://app?vid=c2958899-8b00-4188-8f46-e28498d229cb"},"vehicle_type_id":"4","last_reported":1700460602,"current_range_meters":13200,"station_id":"ce4bgup2rcd13ifvqcn0","pricing_plan_id":"free"},{"bike_id":"a48e3e72-fc9c-475d-a947-29126e11dda5","system_id":"levelo_inurba_marseille","lat":43.304606,"lon":5.379026,"is_reserved":false,"is_disabled":false,"rental_uris":{"android":"levelo://app?vid=a48e3e72-fc9c-475d-a947-29126e11dda5","ios":"levelo://app?vid=a48e3e72-fc9c-475d-a947-29126e11dda5"},"vehicle_type_id":"4","last_reported":1700460602,"current_range_meters":25600,"station_id":"ce4bgup2rcd13ifvqcn0","pricing_plan_id":"free"},{"bike_id":"01b91b68-bdb3-4a2d-98fe-264c47422676","system_id":"levelo_inurba_marseille","lat":43.304606,"lon":5.379026,"is_reserved":false,"is_disabled":false,"rental_uris":{"android":"levelo://app?vid=01b91b68-bdb3-4a2d-98fe-264c47422676","ios":"levelo://app?vid=01b91b68-bdb3-4a2d-98fe-264c47422676"},"vehicle_type_id":"4","last_reported":1700460602,"current_range_meters":17200,"station_id":"ce4bgup2rcd13ifvqcn0","pricing_plan_id":"free"},{"bike_id":"7a1f38e7-8e2e-43fb-a7b5-234726f46b7a","system_id":"levelo_inurba_marseille","lat":43.30461,"lon":5.37908,"is_reserved":false,"is_disabled":false,"rental_uris":{"android":"levelo://app?vid=7a1f38e7-8e2e-43fb-a7b5-234726f46b7a","ios":"levelo://app?vid=7a1f38e7-8e2e-43fb-a7b5-234726f46b7a"},"vehicle_type_id":"4","last_reported":1700460602,"current_range_meters":24400,"station_id":"ce4bgup2rcd13ifvqcn0","pricing_plan_id":"free"},{"bike_id":"bbfbb62d-65e5-485a-973c-6402854f4ce1","system_id":"levelo_inurba_marseille","lat":43.304606,"lon":5.379026,"is_reserved":false,"is_disabled":false,"rental_uris":{"android":"levelo://app?vid=bbfbb62d-65e5-485a-973c-6402854f4ce1","ios":"levelo://app?vid=bbfbb62d-65e5-485a-973c-6402854f4ce1"},"vehicle_type_id":"4","last_reported":1700460602,"current_range_meters":13600,"station_id":"ce4bgup2rcd13ifvqcn0","pricing_plan_id":"free"},{"bike_id":"cad43488-ebc4-49b7-b395-c5bb02169fcc","system_id":"levelo_inurba_marseille","lat":43.304606,"lon":5.379026,"is_reserved":false,"is_disabled":false,"rental_uris":{"android":"levelo://app?vid=cad43488-ebc4-49b7-b395-c5bb02169fcc","ios":"levelo://app?vid=cad43488-ebc4-49b7-b395-c5bb02169fcc"},"vehicle_type_id":"4","last_reported":1700460602,"current_range_meters":24000,"station_id":"ce4bgup2rcd13ifvqcn0","pricing_plan_id":"free"},{"bike_id":"ced8dd53-1143-4842-b247-4ba08efb19da","system_id":"levelo_inurba_marseille","lat":43.304606,"lon":5.379026,"is_reserved":false,"is_disabled":false,"rental_uris":{"android":"levelo://app?vid=ced8dd53-1143-4842-b247-4ba08efb19da","ios":"levelo://app?vid=ced8dd53-1143-4842-b247-4ba08efb19da"},"vehicle_type_id":"4","last_reported":1700460602,"current_range_meters":23600,"station_id":"ce4bgup2rcd13ifvqcn0","pricing_plan_id":"free"},{"bike_id":"bc5c0a2e-73d1-4627-86df-eb894dfe7d5b","system_id":"levelo_inurba_marseille","lat":43.304606,"lon":5.379026,"is_reserved":false,"is_disabled":false,"rental_uris":{"android":"levelo://app?vid=bc5c0a2e-73d1-4627-86df-eb894dfe7d5b","ios":"levelo://app?vid=bc5c0a2e-73d1-4627-86df-eb894dfe7d5b"},"vehicle_type_id":"4","last_reported":1700460602,"current_range_meters":20000,"station_id":"ce4bgup2rcd13ifvqcn0","pricing_plan_id":"free"},{"bike_id":"e5cacde2-0093-4a80-813e-38399ebe060c","system_id":"levelo_inurba_marseille","lat":43.304606,"lon":5.379026,"is_reserved":false,"is_disabled":false,"rental_uris":{"android":"levelo://app?vid=e5cacde2-0093-4a80-813e-38399ebe060c","ios":"levelo://app?vid=e5cacde2-0093-4a80-813e-38399ebe060c"},"vehicle_type_id":"4","last_reported":1700460602,"current_range_meters":31600,"station_id":"ce4bgup2rcd13ifvqcn0","pricing_plan_id":"free"},{"bike_id":"3a722b20-8d9a-4ed7-bed2-82edca53ad10","system_id":"levelo_inurba_marseille","lat":43.324886,"lon":5.365617,"is_reserved":false,"is_disabled":false,"rental_uris":{"android":"levelo://app?vid=3a722b20-8d9a-4ed7-bed2-82edca53ad10","ios":"levelo://app?vid=3a722b20-8d9a-4ed7-bed2-82edca53ad10"},"vehicle_type_id":"4","last_reported":1700460602,"current_range_meters":11600,"station_id":"ce4bhs12rcd13ifvqhvg","pricing_plan_id":"free"},{"bike_id":"f88f70f6-5dec-47e8-88d7-7536575375c3","system_id":"levelo_inurba_marseille","lat":43.31996,"lon":5.38146,"is_reserved":false,"is_disabled":false,"rental_uris":{"android":"levelo://app?vid=f88f70f6-5dec-47e8-88d7-7536575375c3","ios":"levelo://app?vid=f88f70f6-5dec-47e8-88d7-7536575375c3"},"vehicle_type_id":"4","last_reported":1700460602,"current_range_meters":22000,"station_id":"ce4bhr12rcd13ifvqhpg","pricing_plan_id":"free"},{"bike_id":"38e7561f-341a-4b31-9fe8-9303ec26abd7","system_id":"levelo_inurba_marseille","lat":43.319935,"lon":5.381699,"is_reserved":false,"is_disabled":false,"rental_uris":{"android":"levelo://app?vid=38e7561f-341a-4b31-9fe8-9303ec26abd7","ios":"levelo://app?vid=38e7561f-341a-4b31-9fe8-9303ec26abd7"},"vehicle_type_id":"4","last_reported":1700460602,"current_range_meters":12000,"station_id":"ce4bhr12rcd13ifvqhpg","pricing_plan_id":"free"},{"bike_id":"b86bd29c-7dae-4d1a-900b-90742660a871","system_id":"levelo_inurba_marseille","lat":43.32002,"lon":5.38147,"is_reserved":false,"is_disabled":false,"rental_uris":{"android":"levelo://app?vid=b86bd29c-7dae-4d1a-900b-90742660a871","ios":"levelo://app?vid=b86bd29c-7dae-4d1a-900b-90742660a871"},"vehicle_type_id":"4","last_reported":1700460602,"current_range_meters":22800,"station_id":"ce4bhr12rcd13ifvqhpg","pricing_plan_id":"free"},{"bike_id":"cb9aaf1e-c165-4477-b766-07ed6f860aa9","system_id":"levelo_inurba_marseille","lat":43.319935,"lon":5.381699,"is_reserved":false,"is_disabled":false,"rental_uris":{"android":"levelo://app?vid=cb9aaf1e-c165-4477-b766-07ed6f860aa9","ios":"levelo://app?vid=cb9aaf1e-c165-4477-b766-07ed6f860aa9"},"vehicle_type_id":"4","last_reported":1700460602,"current_range_meters":0,"station_id":"ce4bhr12rcd13ifvqhpg","pricing_plan_id":"free"},{"bike_id":"b223af4a-c571-4204-ac67-711cb8d69c23","system_id":"levelo_inurba_marseille","lat":43.298433,"lon":5.362774,"is_reserved":false,"is_disabled":false,"rental_uris":{"android":"levelo://app?vid=b223af4a-c571-4204-ac67-711cb8d69c23","ios":"levelo://app?vid=b223af4a-c571-4204-ac67-711cb8d69c23"},"vehicle_type_id":"4","last_reported":1700460602,"current_range_meters":27200,"station_id":"ce4bgpp2rcd13ifvqc3g","pricing_plan_id":"free"},{"bike_id":"2942a5e4-485b-4424-afe9-46af23362d5d","system_id":"levelo_inurba_marseille","lat":43.305364,"lon":5.384119,"is_reserved":false,"is_disabled":false,"rental_uris":{"android":"levelo://app?vid=2942a5e4-485b-4424-afe9-46af23362d5d","ios":"levelo://app?vid=2942a5e4-485b-4424-afe9-46af23362d5d"},"vehicle_type_id":"4","last_reported":1700460602,"current_range_meters":30000,"station_id":"ce4bgg92rcd13ifvqb30","pricing_plan_id":"free"},{"bike_id":"4bfed5e0-8d2d-4aac-b233-c7d8cf5f1c05","system_id":"levelo_inurba_marseille","lat":43.311722,"lon":5.387247,"is_reserved":false,"is_disabled":false,"rental_uris":{"android":"levelo://app?vid=4bfed5e0-8d2d-4aac-b233-c7d8cf5f1c05","ios":"levelo://app?vid=4bfed5e0-8d2d-4aac-b233-c7d8cf5f1c05"},"vehicle_type_id":"4","last_reported":1700460602,"current_range_meters":31200,"station_id":"ce4bgv12rcd13ifvqcp0","pricing_plan_id":"free"},{"bike_id":"96f889c7-720d-4fb5-aa27-276a7a5f0e89","system_id":"levelo_inurba_marseille","lat":43.311722,"lon":5.387247,"is_reserved":false,"is_disabled":false,"rental_uris":{"android":"levelo://app?vid=96f889c7-720d-4fb5-aa27-276a7a5f0e89","ios":"levelo://app?vid=96f889c7-720d-4fb5-aa27-276a7a5f0e89"},"vehicle_type_id":"4","last_reported":1700460602,"current_range_meters":31200,"station_id":"ce4bgv12rcd13ifvqcp0","pricing_plan_id":"free"},{"bike_id":"1dc0dbc9-a05b-4919-9a64-72cefc142915","system_id":"levelo_inurba_marseille","lat":43.311722,"lon":5.387247,"is_reserved":false,"is_disabled":false,"rental_uris":{"android":"levelo://app?vid=1dc0dbc9-a05b-4919-9a64-72cefc142915","ios":"levelo://app?vid=1dc0dbc9-a05b-4919-9a64-72cefc142915"},"vehicle_type_id":"4","last_reported":1700460602,"current_range_meters":31200,"station_id":"ce4bgv12rcd13ifvqcp0","pricing_plan_id":"free"},{"bike_id":"c8725501-4b55-4c9f-96e8-0849f4a16d4c","system_id":"levelo_inurba_marseille","lat":43.311722,"lon":5.387247,"is_reserved":false,"is_disabled":false,"rental_uris":{"android":"levelo://app?vid=c8725501-4b55-4c9f-96e8-0849f4a16d4c","ios":"levelo://app?vid=c8725501-4b55-4c9f-96e8-0849f4a16d4c"},"vehicle_type_id":"4","last_reported":1700460602,"current_range_meters":4800,"station_id":"ce4bgv12rcd13ifvqcp0","pricing_plan_id":"free"},{"bike_id":"401d4e72-6e5b-4cf3-9a42-d3b1f2ab0649","system_id":"levelo_inurba_marseille","lat":43.311722,"lon":5.387247,"is_reserved":false,"is_disabled":false,"rental_uris":{"android":"levelo://app?vid=401d4e72-6e5b-4cf3-9a42-d3b1f2ab0649","ios":"levelo://app?vid=401d4e72-6e5b-4cf3-9a42-d3b1f2ab0649"},"vehicle_type_id":"4","last_reported":1700460602,"current_range_meters":0,"station_id":"ce4bgv12rcd13ifvqcp0","pricing_plan_id":"free"},{"bike_id":"6a39162c-e492-4006-ac88-ecec59ca91a0","system_id":"levelo_inurba_marseille","lat":43.297934,"lon":5.371099,"is_reserved":false,"is_disabled":false,"rental_uris":{"android":"levelo://app?vid=6a39162c-e492-4006-ac88-ecec59ca91a0","ios":"levelo://app?vid=6a39162c-e492-4006-ac88-ecec59ca91a0"},"vehicle_type_id":"4","last_reported":1700460602,"current_range_meters":0,"station_id":"ce4bgop2rcd13ifvqc1g","pricing_plan_id":"free"},{"bike_id":"57a99e44-4b87-45cd-814d-913391f08902","system_id":"levelo_inurba_marseille","lat":43.297163,"lon":5.365866,"is_reserved":false,"is_disabled":false,"rental_uris":{"android":"levelo://app?vid=57a99e44-4b87-45cd-814d-913391f08902","ios":"levelo://app?vid=57a99e44-4b87-45cd-814d-913391f08902"},"vehicle_type_id":"4","last_reported":1700460602,"current_range_meters":28400,"station_id":"ce4bgn12rcd13ifvqbt0","pricing_plan_id":"free"},{"bike_id":"de22f57b-085f-4571-b5f3-f5640ec7a2d7","system_id":"levelo_inurba_marseille","lat":43.310855,"lon":5.38855,"is_reserved":false,"is_disabled":false,"rental_uris":{"android":"levelo://app?vid=de22f57b-085f-4571-b5f3-f5640ec7a2d7","ios":"levelo://app?vid=de22f57b-085f-4571-b5f3-f5640ec7a2d7"},"vehicle_type_id":"4","last_reported":1700460602,"current_range_meters":25200,"station_id":"","pricing_plan_id":"free"},{"bike_id":"bbba92a3-ba6e-4621-a390-1b142f7c7c2b","system_id":"levelo_inurba_marseille","lat":43.296282,"lon":5.371538,"is_reserved":false,"is_disabled":false,"rental_uris":{"android":"levelo://app?vid=bbba92a3-ba6e-4621-a390-1b142f7c7c2b","ios":"levelo://app?vid=bbba92a3-ba6e-4621-a390-1b142f7c7c2b"},"vehicle_type_id":"4","last_reported":1700460602,"current_range_meters":29600,"station_id":"ce4bgnh2rcd13ifvqc0g","pricing_plan_id":"free"},{"bike_id":"ed8c1f45-10f5-414d-81b3-b06491835906","system_id":"levelo_inurba_marseille","lat":43.29624,"lon":5.37149,"is_reserved":false,"is_disabled":false,"rental_uris":{"android":"levelo://app?vid=ed8c1f45-10f5-414d-81b3-b06491835906","ios":"levelo://app?vid=ed8c1f45-10f5-414d-81b3-b06491835906"},"vehicle_type_id":"4","last_reported":1700460602,"current_range_meters":31200,"station_id":"ce4bgk12rcd13ifvqbj0","pricing_plan_id":"free"},{"bike_id":"441aa437-097e-465d-80a6-9f6f44ecc016","system_id":"levelo_inurba_marseille","lat":43.296131,"lon":5.370791,"is_reserved":false,"is_disabled":false,"rental_uris":{"android":"levelo://app?vid=441aa437-097e-465d-80a6-9f6f44ecc016","ios":"levelo://app?vid=441aa437-097e-465d-80a6-9f6f44ecc016"},"vehicle_type_id":"4","last_reported":1700460602,"current_range_meters":29200,"station_id":"ce4bgnh2rcd13ifvqc0g","pricing_plan_id":"free"},{"bike_id":"47ca9adf-7a15-48cb-bb6a-0eaa1a4c6013","system_id":"levelo_inurba_marseille","lat":43.296921,"lon":5.376579,"is_reserved":false,"is_disabled":false,"rental_uris":{"android":"levelo://app?vid=47ca9adf-7a15-48cb-bb6a-0eaa1a4c6013","ios":"levelo://app?vid=47ca9adf-7a15-48cb-bb6a-0eaa1a4c6013"},"vehicle_type_id":"4","last_reported":1700460602,"current_range_meters":14800,"station_id":"ce4bgkh2rcd13ifvqbl0","pricing_plan_id":"free"},{"bike_id":"3ae72b9a-0131-4c61-88af-66fd3897507a","system_id":"levelo_inurba_marseille","lat":43.297292,"lon":5.376864,"is_reserved":false,"is_disabled":false,"rental_uris":{"android":"levelo://app?vid=3ae72b9a-0131-4c61-88af-66fd3897507a","ios":"levelo://app?vid=3ae72b9a-0131-4c61-88af-66fd3897507a"},"vehicle_type_id":"4","last_reported":1700460602,"current_range_meters":28400,"station_id":"ce4bgkh2rcd13ifvqbl0","pricing_plan_id":"free"},{"bike_id":"f73e4b62-db53-41c8-9427-31b1dc519812","system_id":"levelo_inurba_marseille","lat":43.297244,"lon":5.376841,"is_reserved":false,"is_disabled":false,"rental_uris":{"android":"levelo://app?vid=f73e4b62-db53-41c8-9427-31b1dc519812","ios":"levelo://app?vid=f73e4b62-db53-41c8-9427-31b1dc519812"},"vehicle_type_id":"4","last_reported":1700460602,"current_range_meters":21200,"station_id":"ce4bgkh2rcd13ifvqbl0","pricing_plan_id":"free"},{"bike_id":"1947d28f-c631-4d77-8838-0c4f3fb9398d","system_id":"levelo_inurba_marseille","lat":43.299028,"lon":5.381509,"is_reserved":false,"is_disabled":false,"rental_uris":{"android":"levelo://app?vid=1947d28f-c631-4d77-8838-0c4f3fb9398d","ios":"levelo://app?vid=1947d28f-c631-4d77-8838-0c4f3fb9398d"},"vehicle_type_id":"4","last_reported":1700460602,"current_range_meters":24800,"station_id":"ce4bgj12rcd13ifvqbc0","pricing_plan_id":"free"},{"bike_id":"813d76ce-121b-475d-8603-79f4a907faeb","system_id":"levelo_inurba_marseille","lat":43.299028,"lon":5.381509,"is_reserved":false,"is_disabled":false,"rental_uris":{"android":"levelo://app?vid=813d76ce-121b-475d-8603-79f4a907faeb","ios":"levelo://app?vid=813d76ce-121b-475d-8603-79f4a907faeb"},"vehicle_type_id":"4","last_reported":1700460602,"current_range_meters":26000,"station_id":"ce4bgj12rcd13ifvqbc0","pricing_plan_id":"free"},{"bike_id":"8a4e1432-ab00-4b57-88b8-b46b0eaaa30d","system_id":"levelo_inurba_marseille","lat":43.296935,"lon":5.376544,"is_reserved":false,"is_disabled":false,"rental_uris":{"android":"levelo://app?vid=8a4e1432-ab00-4b57-88b8-b46b0eaaa30d","ios":"levelo://app?vid=8a4e1432-ab00-4b57-88b8-b46b0eaaa30d"},"vehicle_type_id":"4","last_reported":1700460602,"current_range_meters":26800,"station_id":"ce4bgkh2rcd13ifvqbl0","pricing_plan_id":"free"},{"bike_id":"8e482e2c-895c-486b-80c2-a4c0e8fabf11","system_id":"levelo_inurba_marseille","lat":43.299028,"lon":5.381509,"is_reserved":false,"is_disabled":false,"rental_uris":{"android":"levelo://app?vid=8e482e2c-895c-486b-80c2-a4c0e8fabf11","ios":"levelo://app?vid=8e482e2c-895c-486b-80c2-a4c0e8fabf11"},"vehicle_type_id":"4","last_reported":1700460602,"current_range_meters":31200,"station_id":"ce4bgj12rcd13ifvqbc0","pricing_plan_id":"free"},{"bike_id":"c86e2392-3a35-4459-9b66-c799d972cddd","system_id":"levelo_inurba_marseille","lat":43.299028,"lon":5.381509,"is_reserved":false,"is_disabled":false,"rental_uris":{"android":"levelo://app?vid=c86e2392-3a35-4459-9b66-c799d972cddd","ios":"levelo://app?vid=c86e2392-3a35-4459-9b66-c799d972cddd"},"vehicle_type_id":"4","last_reported":1700460602,"current_range_meters":27200,"station_id":"ce4bgj12rcd13ifvqbc0","pricing_plan_id":"free"},{"bike_id":"1795a741-3f31-4396-aa13-1ee293878273","system_id":"levelo_inurba_marseille","lat":43.298037,"lon":5.381066,"is_reserved":false,"is_disabled":false,"rental_uris":{"android":"levelo://app?vid=1795a741-3f31-4396-aa13-1ee293878273","ios":"levelo://app?vid=1795a741-3f31-4396-aa13-1ee293878273"},"vehicle_type_id":"4","last_reported":1700460602,"current_range_meters":20400,"station_id":"ce4bgip2rcd13ifvqbb0","pricing_plan_id":"free"},{"bike_id":"15a3e63e-d7fa-44fa-b6b1-e060a5b17ce9","system_id":"levelo_inurba_marseille","lat":43.295774,"lon":5.375024,"is_reserved":false,"is_disabled":false,"rental_uris":{"android":"levelo://app?vid=15a3e63e-d7fa-44fa-b6b1-e060a5b17ce9","ios":"levelo://app?vid=15a3e63e-d7fa-44fa-b6b1-e060a5b17ce9"},"vehicle_type_id":"4","last_reported":1700460602,"current_range_meters":27200,"station_id":"ce4bgh92rcd13ifvqb50","pricing_plan_id":"free"},{"bike_id":"ae5aa86b-ede0-48f0-9d65-8954bd8210f9","system_id":"levelo_inurba_marseille","lat":43.295732,"lon":5.375069,"is_reserved":false,"is_disabled":false,"rental_uris":{"android":"levelo://app?vid=ae5aa86b-ede0-48f0-9d65-8954bd8210f9","ios":"levelo://app?vid=ae5aa86b-ede0-48f0-9d65-8954bd8210f9"},"vehicle_type_id":"4","last_reported":1700460602,"current_range_meters":31200,"station_id":"ce4bgh92rcd13ifvqb50","pricing_plan_id":"free"},{"bike_id":"920614a4-249c-4c88-bd94-6e56905ab083","system_id":"levelo_inurba_marseille","lat":43.295748,"lon":5.37522,"is_reserved":false,"is_disabled":false,"rental_uris":{"android":"levelo://app?vid=920614a4-249c-4c88-bd94-6e56905ab083","ios":"levelo://app?vid=920614a4-249c-4c88-bd94-6e56905ab083"},"vehicle_type_id":"4","last_reported":1700460602,"current_range_meters":26400,"station_id":"ce4bgh92rcd13ifvqb50","pricing_plan_id":"free"},{"bike_id":"3e3e92fe-39b7-4933-99ff-3747b28b5d69","system_id":"levelo_inurba_marseille","lat":43.328154,"lon":5.380034,"is_reserved":false,"is_disabled":false,"rental_uris":{"android":"levelo://app?vid=3e3e92fe-39b7-4933-99ff-3747b28b5d69","ios":"levelo://app?vid=3e3e92fe-39b7-4933-99ff-3747b28b5d69"},"vehicle_type_id":"4","last_reported":1700460602,"current_range_meters":3200,"station_id":"","pricing_plan_id":"free"},{"bike_id":"67ffd28a-0325-489b-a10f-d90500122751","system_id":"levelo_inurba_marseille","lat":43.295748,"lon":5.37522,"is_reserved":false,"is_disabled":false,"rental_uris":{"android":"levelo://app?vid=67ffd28a-0325-489b-a10f-d90500122751","ios":"levelo://app?vid=67ffd28a-0325-489b-a10f-d90500122751"},"vehicle_type_id":"4","last_reported":1700460602,"current_range_meters":30000,"station_id":"ce4bgh92rcd13ifvqb50","pricing_plan_id":"free"},{"bike_id":"c5388730-86a7-47d6-8a35-ea1808e84fe1","system_id":"levelo_inurba_marseille","lat":43.296148,"lon":5.377083,"is_reserved":false,"is_disabled":false,"rental_uris":{"android":"levelo://app?vid=c5388730-86a7-47d6-8a35-ea1808e84fe1","ios":"levelo://app?vid=c5388730-86a7-47d6-8a35-ea1808e84fe1"},"vehicle_type_id":"4","last_reported":1700460602,"current_range_meters":29600,"station_id":"ce4bgi92rcd13ifvqb90","pricing_plan_id":"free"},{"bike_id":"d81c4363-315d-4cd7-b4f5-d49d22faf266","system_id":"levelo_inurba_marseille","lat":43.296184,"lon":5.377313,"is_reserved":false,"is_disabled":false,"rental_uris":{"android":"levelo://app?vid=d81c4363-315d-4cd7-b4f5-d49d22faf266","ios":"levelo://app?vid=d81c4363-315d-4cd7-b4f5-d49d22faf266"},"vehicle_type_id":"4","last_reported":1700460602,"current_range_meters":28400,"station_id":"ce4bgi92rcd13ifvqb90","pricing_plan_id":"free"},{"bike_id":"e096c9ae-f29c-4a7e-b651-9af2281dd0b8","system_id":"levelo_inurba_marseille","lat":43.29617,"lon":5.37731,"is_reserved":false,"is_disabled":false,"rental_uris":{"android":"levelo://app?vid=e096c9ae-f29c-4a7e-b651-9af2281dd0b8","ios":"levelo://app?vid=e096c9ae-f29c-4a7e-b651-9af2281dd0b8"},"vehicle_type_id":"4","last_reported":1700460602,"current_range_meters":22800,"station_id":"ce4bgi92rcd13ifvqb90","pricing_plan_id":"free"},{"bike_id":"49b13a46-d50c-4b26-b800-3065917291cd","system_id":"levelo_inurba_marseille","lat":43.296155,"lon":5.377303,"is_reserved":false,"is_disabled":false,"rental_uris":{"android":"levelo://app?vid=49b13a46-d50c-4b26-b800-3065917291cd","ios":"levelo://app?vid=49b13a46-d50c-4b26-b800-3065917291cd"},"vehicle_type_id":"4","last_reported":1700460602,"current_range_meters":20000,"station_id":"ce4bgi92rcd13ifvqb90","pricing_plan_id":"free"},{"bike_id":"7305f4bc-fd5a-47b9-b3e5-3357b2f0dad9","system_id":"levelo_inurba_marseille","lat":43.29612,"lon":5.37732,"is_reserved":false,"is_disabled":false,"rental_uris":{"android":"levelo://app?vid=7305f4bc-fd5a-47b9-b3e5-3357b2f0dad9","ios":"levelo://app?vid=7305f4bc-fd5a-47b9-b3e5-3357b2f0dad9"},"vehicle_type_id":"4","last_reported":1700460602,"current_range_meters":30000,"station_id":"ce4bgi92rcd13ifvqb90","pricing_plan_id":"free"},{"bike_id":"0c887b59-ce69-452e-9ee2-8078ee0f0bb3","system_id":"levelo_inurba_marseille","lat":43.295339,"lon":5.374969,"is_reserved":false,"is_disabled":false,"rental_uris":{"android":"levelo://app?vid=0c887b59-ce69-452e-9ee2-8078ee0f0bb3","ios":"levelo://app?vid=0c887b59-ce69-452e-9ee2-8078ee0f0bb3"},"vehicle_type_id":"4","last_reported":1700460602,"current_range_meters":26800,"station_id":"ce4bgkp2rcd13ifvqbmg","pricing_plan_id":"free"},{"bike_id":"e0f9a472-8922-4b98-a164-c60a1070296b","system_id":"levelo_inurba_marseille","lat":43.29595,"lon":5.3773,"is_reserved":false,"is_disabled":false,"rental_uris":{"android":"levelo://app?vid=e0f9a472-8922-4b98-a164-c60a1070296b","ios":"levelo://app?vid=e0f9a472-8922-4b98-a164-c60a1070296b"},"vehicle_type_id":"4","last_reported":1700460602,"current_range_meters":10800,"station_id":"ce4bgi92rcd13ifvqb90","pricing_plan_id":"free"},{"bike_id":"8fe45b90-ddfa-42f3-b73a-37be4270fda4","system_id":"levelo_inurba_marseille","lat":43.299717,"lon":5.384845,"is_reserved":false,"is_disabled":false,"rental_uris":{"android":"levelo://app?vid=8fe45b90-ddfa-42f3-b73a-37be4270fda4","ios":"levelo://app?vid=8fe45b90-ddfa-42f3-b73a-37be4270fda4"},"vehicle_type_id":"4","last_reported":1700460602,"current_range_meters":30800,"station_id":"ce4bgj92rcd13ifvqbd0","pricing_plan_id":"free"},{"bike_id":"e91a6cdb-f322-4dc3-82d6-2ba84bde2e08","system_id":"levelo_inurba_marseille","lat":43.299717,"lon":5.384845,"is_reserved":false,"is_disabled":false,"rental_uris":{"android":"levelo://app?vid=e91a6cdb-f322-4dc3-82d6-2ba84bde2e08","ios":"levelo://app?vid=e91a6cdb-f322-4dc3-82d6-2ba84bde2e08"},"vehicle_type_id":"4","last_reported":1700460602,"current_range_meters":30400,"station_id":"ce4bgj92rcd13ifvqbd0","pricing_plan_id":"free"},{"bike_id":"7721d0d2-10e5-4e54-85c2-3e8a26d1134e","system_id":"levelo_inurba_marseille","lat":43.299724,"lon":5.384848,"is_reserved":false,"is_disabled":false,"rental_uris":{"android":"levelo://app?vid=7721d0d2-10e5-4e54-85c2-3e8a26d1134e","ios":"levelo://app?vid=7721d0d2-10e5-4e54-85c2-3e8a26d1134e"},"vehicle_type_id":"4","last_reported":1700460602,"current_range_meters":28000,"station_id":"ce4bgj92rcd13ifvqbd0","pricing_plan_id":"free"},{"bike_id":"25e97ca4-caac-4b29-9524-d02fab5f4e8a","system_id":"levelo_inurba_marseille","lat":43.314015,"lon":5.392855,"is_reserved":false,"is_disabled":false,"rental_uris":{"android":"levelo://app?vid=25e97ca4-caac-4b29-9524-d02fab5f4e8a","ios":"levelo://app?vid=25e97ca4-caac-4b29-9524-d02fab5f4e8a"},"vehicle_type_id":"4","last_reported":1700460602,"current_range_meters":20000,"station_id":"","pricing_plan_id":"free"},{"bike_id":"e145a3f7-00ac-4f8f-bfe5-435bc38ccaf7","system_id":"levelo_inurba_marseille","lat":43.293801,"lon":5.363066,"is_reserved":false,"is_disabled":false,"rental_uris":{"android":"levelo://app?vid=e145a3f7-00ac-4f8f-bfe5-435bc38ccaf7","ios":"levelo://app?vid=e145a3f7-00ac-4f8f-bfe5-435bc38ccaf7"},"vehicle_type_id":"4","last_reported":1700460602,"current_range_meters":20800,"station_id":"","pricing_plan_id":"free"},{"bike_id":"94f35869-741c-4e5f-8198-d4693fca93ce","system_id":"levelo_inurba_marseille","lat":43.323385,"lon":5.389648,"is_reserved":false,"is_disabled":false,"rental_uris":{"android":"levelo://app?vid=94f35869-741c-4e5f-8198-d4693fca93ce","ios":"levelo://app?vid=94f35869-741c-4e5f-8198-d4693fca93ce"},"vehicle_type_id":"4","last_reported":1700460602,"current_range_meters":0,"station_id":"","pricing_plan_id":"free"},{"bike_id":"d04abcf5-f6a6-44c5-acfc-962b5d70e9af","system_id":"levelo_inurba_marseille","lat":43.293259,"lon":5.371586,"is_reserved":false,"is_disabled":false,"rental_uris":{"android":"levelo://app?vid=d04abcf5-f6a6-44c5-acfc-962b5d70e9af","ios":"levelo://app?vid=d04abcf5-f6a6-44c5-acfc-962b5d70e9af"},"vehicle_type_id":"4","last_reported":1700460602,"current_range_meters":28400,"station_id":"ce4bgh92rcd13ifvqb40","pricing_plan_id":"free"},{"bike_id":"d41deec9-7861-448e-a9e2-745a49f146dc","system_id":"levelo_inurba_marseille","lat":43.29278,"lon":5.36839,"is_reserved":false,"is_disabled":false,"rental_uris":{"android":"levelo://app?vid=d41deec9-7861-448e-a9e2-745a49f146dc","ios":"levelo://app?vid=d41deec9-7861-448e-a9e2-745a49f146dc"},"vehicle_type_id":"4","last_reported":1700460602,"current_range_meters":28800,"station_id":"ce4bhbp2rcd13ifvqesg","pricing_plan_id":"free"},{"bike_id":"1079dd62-0914-49a7-b707-bd746c4f995d","system_id":"levelo_inurba_marseille","lat":43.292761,"lon":5.368375,"is_reserved":false,"is_disabled":false,"rental_uris":{"android":"levelo://app?vid=1079dd62-0914-49a7-b707-bd746c4f995d","ios":"levelo://app?vid=1079dd62-0914-49a7-b707-bd746c4f995d"},"vehicle_type_id":"4","last_reported":1700460602,"current_range_meters":27600,"station_id":"ce4bhbp2rcd13ifvqesg","pricing_plan_id":"free"},{"bike_id":"7bfaab12-8b27-4ef6-88af-e5a7a0b52a27","system_id":"levelo_inurba_marseille","lat":43.292756,"lon":5.368402,"is_reserved":false,"is_disabled":false,"rental_uris":{"android":"levelo://app?vid=7bfaab12-8b27-4ef6-88af-e5a7a0b52a27","ios":"levelo://app?vid=7bfaab12-8b27-4ef6-88af-e5a7a0b52a27"},"vehicle_type_id":"4","last_reported":1700460602,"current_range_meters":30000,"station_id":"ce4bhbp2rcd13ifvqesg","pricing_plan_id":"free"},{"bike_id":"5bf0267f-0708-4432-805a-722b1cc8d4c4","system_id":"levelo_inurba_marseille","lat":43.292747,"lon":5.368404,"is_reserved":false,"is_disabled":false,"rental_uris":{"android":"levelo://app?vid=5bf0267f-0708-4432-805a-722b1cc8d4c4","ios":"levelo://app?vid=5bf0267f-0708-4432-805a-722b1cc8d4c4"},"vehicle_type_id":"4","last_reported":1700460602,"current_range_meters":23200,"station_id":"ce4bhbp2rcd13ifvqesg","pricing_plan_id":"free"},{"bike_id":"cac3f828-d55e-45e2-ae67-1d0ca20ab6f8","system_id":"levelo_inurba_marseille","lat":43.292748,"lon":5.368496,"is_reserved":false,"is_disabled":false,"rental_uris":{"android":"levelo://app?vid=cac3f828-d55e-45e2-ae67-1d0ca20ab6f8","ios":"levelo://app?vid=cac3f828-d55e-45e2-ae67-1d0ca20ab6f8"},"vehicle_type_id":"4","last_reported":1700460602,"current_range_meters":23600,"station_id":"ce4bhbp2rcd13ifvqesg","pricing_plan_id":"free"},{"bike_id":"17caa0b4-1fcd-4596-9270-5d412834ea25","system_id":"levelo_inurba_marseille","lat":43.292749,"lon":5.368402,"is_reserved":false,"is_disabled":false,"rental_uris":{"android":"levelo://app?vid=17caa0b4-1fcd-4596-9270-5d412834ea25","ios":"levelo://app?vid=17caa0b4-1fcd-4596-9270-5d412834ea25"},"vehicle_type_id":"4","last_reported":1700460602,"current_range_meters":28000,"station_id":"ce4bhbp2rcd13ifvqesg","pricing_plan_id":"free"},{"bike_id":"aad9d01f-95cb-4bc9-83a0-c70333b53a84","system_id":"levelo_inurba_marseille","lat":43.293009,"lon":5.374584,"is_reserved":false,"is_disabled":false,"rental_uris":{"android":"levelo://app?vid=aad9d01f-95cb-4bc9-83a0-c70333b53a84","ios":"levelo://app?vid=aad9d01f-95cb-4bc9-83a0-c70333b53a84"},"vehicle_type_id":"4","last_reported":1700460602,"current_range_meters":31200,"station_id":"ce4bgi12rcd13ifvqb70","pricing_plan_id":"free"},{"bike_id":"7b92369f-35b8-474b-873d-f41efa2c8c93","system_id":"levelo_inurba_marseille","lat":43.305994,"lon":5.393687,"is_reserved":false,"is_disabled":false,"rental_uris":{"android":"levelo://app?vid=7b92369f-35b8-474b-873d-f41efa2c8c93","ios":"levelo://app?vid=7b92369f-35b8-474b-873d-f41efa2c8c93"},"vehicle_type_id":"4","last_reported":1700460602,"current_range_meters":27200,"station_id":"ce4bh0p2rcd13ifvqd80","pricing_plan_id":"free"},{"bike_id":"53d18f5f-7b8c-4879-a129-d80cd7b4ca2e","system_id":"levelo_inurba_marseille","lat":43.293009,"lon":5.374584,"is_reserved":false,"is_disabled":false,"rental_uris":{"android":"levelo://app?vid=53d18f5f-7b8c-4879-a129-d80cd7b4ca2e","ios":"levelo://app?vid=53d18f5f-7b8c-4879-a129-d80cd7b4ca2e"},"vehicle_type_id":"4","last_reported":1700460602,"current_range_meters":28400,"station_id":"ce4bgi12rcd13ifvqb70","pricing_plan_id":"free"},{"bike_id":"054b9cd7-c21d-4dbd-990e-9e936e8ba793","system_id":"levelo_inurba_marseille","lat":43.293009,"lon":5.374584,"is_reserved":false,"is_disabled":false,"rental_uris":{"android":"levelo://app?vid=054b9cd7-c21d-4dbd-990e-9e936e8ba793","ios":"levelo://app?vid=054b9cd7-c21d-4dbd-990e-9e936e8ba793"},"vehicle_type_id":"4","last_reported":1700460602,"current_range_meters":28000,"station_id":"ce4bgi12rcd13ifvqb70","pricing_plan_id":"free"},{"bike_id":"88aa9a63-5631-4217-9bf1-a724297c4968","system_id":"levelo_inurba_marseille","lat":43.30287,"lon":5.392045,"is_reserved":false,"is_disabled":false,"rental_uris":{"android":"levelo://app?vid=88aa9a63-5631-4217-9bf1-a724297c4968","ios":"levelo://app?vid=88aa9a63-5631-4217-9bf1-a724297c4968"},"vehicle_type_id":"4","last_reported":1700460602,"current_range_meters":28400,"station_id":"ce4bgkh2rcd13ifvqbk0","pricing_plan_id":"free"},{"bike_id":"b4895ba3-9ee0-478b-83e5-204bcabc55c7","system_id":"levelo_inurba_marseille","lat":43.293672,"lon":5.378534,"is_reserved":false,"is_disabled":false,"rental_uris":{"android":"levelo://app?vid=b4895ba3-9ee0-478b-83e5-204bcabc55c7","ios":"levelo://app?vid=b4895ba3-9ee0-478b-83e5-204bcabc55c7"},"vehicle_type_id":"4","last_reported":1700460602,"current_range_meters":0,"station_id":"ce4bgjh2rcd13ifvqbf0","pricing_plan_id":"free"},{"bike_id":"47a45cf3-eb9e-40db-8f6d-b572683fb4a7","system_id":"levelo_inurba_marseille","lat":43.292311,"lon":5.360731,"is_reserved":false,"is_disabled":false,"rental_uris":{"android":"levelo://app?vid=47a45cf3-eb9e-40db-8f6d-b572683fb4a7","ios":"levelo://app?vid=47a45cf3-eb9e-40db-8f6d-b572683fb4a7"},"vehicle_type_id":"4","last_reported":1700460602,"current_range_meters":25200,"station_id":"ce4bhbh2rcd13ifvqeqg","pricing_plan_id":"free"},{"bike_id":"5d96c0aa-544a-4c1d-99c1-1295b4beedc2","system_id":"levelo_inurba_marseille","lat":43.292202,"lon":5.360504,"is_reserved":false,"is_disabled":false,"rental_uris":{"android":"levelo://app?vid=5d96c0aa-544a-4c1d-99c1-1295b4beedc2","ios":"levelo://app?vid=5d96c0aa-544a-4c1d-99c1-1295b4beedc2"},"vehicle_type_id":"4","last_reported":1700460602,"current_range_meters":20000,"station_id":"ce4bhbh2rcd13ifvqeqg","pricing_plan_id":"free"},{"bike_id":"58744d8f-c6c0-4408-bb3d-1bb4a9abf1e7","system_id":"levelo_inurba_marseille","lat":43.292176,"lon":5.360562,"is_reserved":false,"is_disabled":false,"rental_uris":{"android":"levelo://app?vid=58744d8f-c6c0-4408-bb3d-1bb4a9abf1e7","ios":"levelo://app?vid=58744d8f-c6c0-4408-bb3d-1bb4a9abf1e7"},"vehicle_type_id":"4","last_reported":1700460602,"current_range_meters":29200,"station_id":"ce4bhbh2rcd13ifvqeqg","pricing_plan_id":"free"},{"bike_id":"790e35c8-2555-4df4-8316-0bd46762a5de","system_id":"levelo_inurba_marseille","lat":43.2917,"lon":5.371434,"is_reserved":false,"is_disabled":false,"rental_uris":{"android":"levelo://app?vid=790e35c8-2555-4df4-8316-0bd46762a5de","ios":"levelo://app?vid=790e35c8-2555-4df4-8316-0bd46762a5de"},"vehicle_type_id":"4","last_reported":1700460602,"current_range_meters":28800,"station_id":"ce4bha92rcd13ifvqeh0","pricing_plan_id":"free"},{"bike_id":"2a510722-9c51-406b-8f54-1517a9949ecb","system_id":"levelo_inurba_marseille","lat":43.291995,"lon":5.357948,"is_reserved":false,"is_disabled":false,"rental_uris":{"android":"levelo://app?vid=2a510722-9c51-406b-8f54-1517a9949ecb","ios":"levelo://app?vid=2a510722-9c51-406b-8f54-1517a9949ecb"},"vehicle_type_id":"4","last_reported":1700460602,"current_range_meters":26400,"station_id":"ce4bhb12rcd13ifvqel0","pricing_plan_id":"free"},{"bike_id":"48438ead-ec81-4c4b-9428-7132a5e4417a","system_id":"levelo_inurba_marseille","lat":43.309047,"lon":5.396551,"is_reserved":false,"is_disabled":false,"rental_uris":{"android":"levelo://app?vid=48438ead-ec81-4c4b-9428-7132a5e4417a","ios":"levelo://app?vid=48438ead-ec81-4c4b-9428-7132a5e4417a"},"vehicle_type_id":"4","last_reported":1700460602,"current_range_meters":31200,"station_id":"ce4bh012rcd13ifvqcv0","pricing_plan_id":"free"},{"bike_id":"70ef212a-b5d3-471c-a1d3-04bc66e9e85a","system_id":"levelo_inurba_marseille","lat":43.30882,"lon":5.39642,"is_reserved":false,"is_disabled":false,"rental_uris":{"android":"levelo://app?vid=70ef212a-b5d3-471c-a1d3-04bc66e9e85a","ios":"levelo://app?vid=70ef212a-b5d3-471c-a1d3-04bc66e9e85a"},"vehicle_type_id":"4","last_reported":1700460602,"current_range_meters":12400,"station_id":"ce4bh012rcd13ifvqcv0","pricing_plan_id":"free"},{"bike_id":"1f3d5387-b403-44cf-b699-2e161b11653d","system_id":"levelo_inurba_marseille","lat":43.31333,"lon":5.39694,"is_reserved":false,"is_disabled":false,"rental_uris":{"android":"levelo://app?vid=1f3d5387-b403-44cf-b699-2e161b11653d","ios":"levelo://app?vid=1f3d5387-b403-44cf-b699-2e161b11653d"},"vehicle_type_id":"4","last_reported":1700460602,"current_range_meters":14800,"station_id":"ce4bgvp2rcd13ifvqcu0","pricing_plan_id":"free"},{"bike_id":"fda4ac8a-3f43-4923-b673-fcd8433b1628","system_id":"levelo_inurba_marseille","lat":43.313338,"lon":5.396959,"is_reserved":false,"is_disabled":false,"rental_uris":{"android":"levelo://app?vid=fda4ac8a-3f43-4923-b673-fcd8433b1628","ios":"levelo://app?vid=fda4ac8a-3f43-4923-b673-fcd8433b1628"},"vehicle_type_id":"4","last_reported":1700460602,"current_range_meters":31600,"station_id":"ce4bgvp2rcd13ifvqcu0","pricing_plan_id":"free"},{"bike_id":"dfc1d560-65e3-451e-90ea-ff9a42e850b9","system_id":"levelo_inurba_marseille","lat":43.31327,"lon":5.39697,"is_reserved":false,"is_disabled":false,"rental_uris":{"android":"levelo://app?vid=dfc1d560-65e3-451e-90ea-ff9a42e850b9","ios":"levelo://app?vid=dfc1d560-65e3-451e-90ea-ff9a42e850b9"},"vehicle_type_id":"4","last_reported":1700460602,"current_range_meters":26400,"station_id":"ce4bgvp2rcd13ifvqcu0","pricing_plan_id":"free"},{"bike_id":"bb1248fe-e61d-4bc6-b335-16e44631128e","system_id":"levelo_inurba_marseille","lat":43.2954,"lon":5.38539,"is_reserved":false,"is_disabled":false,"rental_uris":{"android":"levelo://app?vid=bb1248fe-e61d-4bc6-b335-16e44631128e","ios":"levelo://app?vid=bb1248fe-e61d-4bc6-b335-16e44631128e"},"vehicle_type_id":"4","last_reported":1700460602,"current_range_meters":8400,"station_id":"ce4bgih2rcd13ifvqba0","pricing_plan_id":"free"},{"bike_id":"78d9ea8f-c493-4c99-ac69-e45de1bcd0a0","system_id":"levelo_inurba_marseille","lat":43.295372,"lon":5.385492,"is_reserved":false,"is_disabled":false,"rental_uris":{"android":"levelo://app?vid=78d9ea8f-c493-4c99-ac69-e45de1bcd0a0","ios":"levelo://app?vid=78d9ea8f-c493-4c99-ac69-e45de1bcd0a0"},"vehicle_type_id":"4","last_reported":1700460602,"current_range_meters":21200,"station_id":"ce4bgih2rcd13ifvqba0","pricing_plan_id":"free"},{"bike_id":"7367932f-3da5-4b89-9858-10abecc39cca","system_id":"levelo_inurba_marseille","lat":43.29529,"lon":5.385581,"is_reserved":false,"is_disabled":false,"rental_uris":{"android":"levelo://app?vid=7367932f-3da5-4b89-9858-10abecc39cca","ios":"levelo://app?vid=7367932f-3da5-4b89-9858-10abecc39cca"},"vehicle_type_id":"4","last_reported":1700460602,"current_range_meters":27600,"station_id":"ce4bgih2rcd13ifvqba0","pricing_plan_id":"free"},{"bike_id":"3e9c2863-5269-4f58-8edf-391650c9c274","system_id":"levelo_inurba_marseille","lat":43.290631,"lon":5.359244,"is_reserved":false,"is_disabled":false,"rental_uris":{"android":"levelo://app?vid=3e9c2863-5269-4f58-8edf-391650c9c274","ios":"levelo://app?vid=3e9c2863-5269-4f58-8edf-391650c9c274"},"vehicle_type_id":"4","last_reported":1700460602,"current_range_meters":30000,"station_id":"ce4bha92rcd13ifvqeg0","pricing_plan_id":"free"},{"bike_id":"96985b75-9492-4cd1-bd98-4dbaadb89765","system_id":"levelo_inurba_marseille","lat":43.289431,"lon":5.36633,"is_reserved":false,"is_disabled":false,"rental_uris":{"android":"levelo://app?vid=96985b75-9492-4cd1-bd98-4dbaadb89765","ios":"levelo://app?vid=96985b75-9492-4cd1-bd98-4dbaadb89765"},"vehicle_type_id":"4","last_reported":1700460602,"current_range_meters":400,"station_id":"ce4bhap2rcd13ifvqek0","pricing_plan_id":"free"},{"bike_id":"bde7dd06-baa8-44cf-b42e-76b661db65ea","system_id":"levelo_inurba_marseille","lat":43.29419,"lon":5.38635,"is_reserved":false,"is_disabled":false,"rental_uris":{"android":"levelo://app?vid=bde7dd06-baa8-44cf-b42e-76b661db65ea","ios":"levelo://app?vid=bde7dd06-baa8-44cf-b42e-76b661db65ea"},"vehicle_type_id":"4","last_reported":1700460602,"current_range_meters":31200,"station_id":"ce4bh2h2rcd13ifvqdh0","pricing_plan_id":"free"},{"bike_id":"2d8930d3-eeca-4a57-8983-443fcdc2be04","system_id":"levelo_inurba_marseille","lat":43.290327,"lon":5.375711,"is_reserved":false,"is_disabled":false,"rental_uris":{"android":"levelo://app?vid=2d8930d3-eeca-4a57-8983-443fcdc2be04","ios":"levelo://app?vid=2d8930d3-eeca-4a57-8983-443fcdc2be04"},"vehicle_type_id":"4","last_reported":1700460602,"current_range_meters":26400,"station_id":"ce4bh692rcd13ifvqe90","pricing_plan_id":"free"},{"bike_id":"9e26eb1b-2f23-4934-826b-d933d2d37c4c","system_id":"levelo_inurba_marseille","lat":43.28947,"lon":5.36389,"is_reserved":false,"is_disabled":false,"rental_uris":{"android":"levelo://app?vid=9e26eb1b-2f23-4934-826b-d933d2d37c4c","ios":"levelo://app?vid=9e26eb1b-2f23-4934-826b-d933d2d37c4c"},"vehicle_type_id":"4","last_reported":1700460602,"current_range_meters":9200,"station_id":"ce4bhc92rcd13ifvqetg","pricing_plan_id":"free"},{"bike_id":"61ebf679-cd02-40b3-ae84-333265662308","system_id":"levelo_inurba_marseille","lat":43.292642,"lon":5.384254,"is_reserved":false,"is_disabled":false,"rental_uris":{"android":"levelo://app?vid=61ebf679-cd02-40b3-ae84-333265662308","ios":"levelo://app?vid=61ebf679-cd02-40b3-ae84-333265662308"},"vehicle_type_id":"4","last_reported":1700460602,"current_range_meters":28400,"station_id":"ce4bh692rcd13ifvqea0","pricing_plan_id":"free"},{"bike_id":"c18b1ace-c0cf-442b-a09c-5ffb0b5dfccf","system_id":"levelo_inurba_marseille","lat":43.29267,"lon":5.384472,"is_reserved":false,"is_disabled":false,"rental_uris":{"android":"levelo://app?vid=c18b1ace-c0cf-442b-a09c-5ffb0b5dfccf","ios":"levelo://app?vid=c18b1ace-c0cf-442b-a09c-5ffb0b5dfccf"},"vehicle_type_id":"4","last_reported":1700460602,"current_range_meters":30000,"station_id":"ce4bh692rcd13ifvqea0","pricing_plan_id":"free"},{"bike_id":"65e2fd6f-440e-4533-a79b-4099715b11a0","system_id":"levelo_inurba_marseille","lat":43.290104,"lon":5.356111,"is_reserved":false,"is_disabled":false,"rental_uris":{"android":"levelo://app?vid=65e2fd6f-440e-4533-a79b-4099715b11a0","ios":"levelo://app?vid=65e2fd6f-440e-4533-a79b-4099715b11a0"},"vehicle_type_id":"4","last_reported":1700460602,"current_range_meters":12000,"station_id":"ce4bhb92rcd13ifvqen0","pricing_plan_id":"free"},{"bike_id":"ee495f13-0eaa-424b-a9f8-ff6b7289d58f","system_id":"levelo_inurba_marseille","lat":43.290104,"lon":5.356111,"is_reserved":false,"is_disabled":false,"rental_uris":{"android":"levelo://app?vid=ee495f13-0eaa-424b-a9f8-ff6b7289d58f","ios":"levelo://app?vid=ee495f13-0eaa-424b-a9f8-ff6b7289d58f"},"vehicle_type_id":"4","last_reported":1700460602,"current_range_meters":25200,"station_id":"ce4bhb92rcd13ifvqen0","pricing_plan_id":"free"},{"bike_id":"5d56f7ce-3a2e-405f-88e1-fad40d4e0d92","system_id":"levelo_inurba_marseille","lat":43.290104,"lon":5.356111,"is_reserved":false,"is_disabled":false,"rental_uris":{"android":"levelo://app?vid=5d56f7ce-3a2e-405f-88e1-fad40d4e0d92","ios":"levelo://app?vid=5d56f7ce-3a2e-405f-88e1-fad40d4e0d92"},"vehicle_type_id":"4","last_reported":1700460602,"current_range_meters":18000,"station_id":"ce4bhb92rcd13ifvqen0","pricing_plan_id":"free"},{"bike_id":"4a6bbce1-c04f-4922-aaa4-011c77fcb945","system_id":"levelo_inurba_marseille","lat":43.290103,"lon":5.356114,"is_reserved":false,"is_disabled":false,"rental_uris":{"android":"levelo://app?vid=4a6bbce1-c04f-4922-aaa4-011c77fcb945","ios":"levelo://app?vid=4a6bbce1-c04f-4922-aaa4-011c77fcb945"},"vehicle_type_id":"4","last_reported":1700460602,"current_range_meters":28400,"station_id":"ce4bhb92rcd13ifvqen0","pricing_plan_id":"free"},{"bike_id":"387a3277-02d4-42ab-8109-e2a42a1bf930","system_id":"levelo_inurba_marseille","lat":43.290104,"lon":5.356111,"is_reserved":false,"is_disabled":false,"rental_uris":{"android":"levelo://app?vid=387a3277-02d4-42ab-8109-e2a42a1bf930","ios":"levelo://app?vid=387a3277-02d4-42ab-8109-e2a42a1bf930"},"vehicle_type_id":"4","last_reported":1700460602,"current_range_meters":18400,"station_id":"ce4bhb92rcd13ifvqen0","pricing_plan_id":"free"},{"bike_id":"2745b48b-9370-4aab-a442-5897fed4c497","system_id":"levelo_inurba_marseille","lat":43.290103,"lon":5.356114,"is_reserved":false,"is_disabled":false,"rental_uris":{"android":"levelo://app?vid=2745b48b-9370-4aab-a442-5897fed4c497","ios":"levelo://app?vid=2745b48b-9370-4aab-a442-5897fed4c497"},"vehicle_type_id":"4","last_reported":1700460602,"current_range_meters":18000,"station_id":"ce4bhb92rcd13ifvqen0","pricing_plan_id":"free"},{"bike_id":"4ddc9358-0ad3-4ada-ac64-702af777b9bb","system_id":"levelo_inurba_marseille","lat":43.290995,"lon":5.381361,"is_reserved":false,"is_disabled":false,"rental_uris":{"android":"levelo://app?vid=4ddc9358-0ad3-4ada-ac64-702af777b9bb","ios":"levelo://app?vid=4ddc9358-0ad3-4ada-ac64-702af777b9bb"},"vehicle_type_id":"4","last_reported":1700460602,"current_range_meters":22800,"station_id":"ce4bh512rcd13ifvqe2g","pricing_plan_id":"free"},{"bike_id":"db36bf19-809a-43d6-89b3-a02362a882e1","system_id":"levelo_inurba_marseille","lat":43.291024,"lon":5.381526,"is_reserved":false,"is_disabled":false,"rental_uris":{"android":"levelo://app?vid=db36bf19-809a-43d6-89b3-a02362a882e1","ios":"levelo://app?vid=db36bf19-809a-43d6-89b3-a02362a882e1"},"vehicle_type_id":"4","last_reported":1700460602,"current_range_meters":31200,"station_id":"ce4bh512rcd13ifvqe2g","pricing_plan_id":"free"},{"bike_id":"90cd6d0d-5456-439b-8b10-5d1af17dd18e","system_id":"levelo_inurba_marseille","lat":43.291017,"lon":5.381558,"is_reserved":false,"is_disabled":false,"rental_uris":{"android":"levelo://app?vid=90cd6d0d-5456-439b-8b10-5d1af17dd18e","ios":"levelo://app?vid=90cd6d0d-5456-439b-8b10-5d1af17dd18e"},"vehicle_type_id":"4","last_reported":1700460602,"current_range_meters":30800,"station_id":"ce4bh512rcd13ifvqe2g","pricing_plan_id":"free"},{"bike_id":"6526ff37-1713-430e-a983-cfc5771d7863","system_id":"levelo_inurba_marseille","lat":43.289743,"lon":5.378304,"is_reserved":false,"is_disabled":false,"rental_uris":{"android":"levelo://app?vid=6526ff37-1713-430e-a983-cfc5771d7863","ios":"levelo://app?vid=6526ff37-1713-430e-a983-cfc5771d7863"},"vehicle_type_id":"4","last_reported":1700460602,"current_range_meters":30000,"station_id":"ce4bh9p2rcd13ifvqed0","pricing_plan_id":"free"},{"bike_id":"7e32be8a-f777-4c46-9ce9-34c4d4419e31","system_id":"levelo_inurba_marseille","lat":43.289741,"lon":5.378306,"is_reserved":false,"is_disabled":false,"rental_uris":{"android":"levelo://app?vid=7e32be8a-f777-4c46-9ce9-34c4d4419e31","ios":"levelo://app?vid=7e32be8a-f777-4c46-9ce9-34c4d4419e31"},"vehicle_type_id":"4","last_reported":1700460602,"current_range_meters":29200,"station_id":"ce4bh9p2rcd13ifvqed0","pricing_plan_id":"free"},{"bike_id":"593168e2-abb8-4750-9255-5d6ed6eb0ad3","system_id":"levelo_inurba_marseille","lat":43.2901,"lon":5.381269,"is_reserved":false,"is_disabled":false,"rental_uris":{"android":"levelo://app?vid=593168e2-abb8-4750-9255-5d6ed6eb0ad3","ios":"levelo://app?vid=593168e2-abb8-4750-9255-5d6ed6eb0ad3"},"vehicle_type_id":"4","last_reported":1700460602,"current_range_meters":29200,"station_id":"ce4bh4p2rcd13ifvqe1g","pricing_plan_id":"free"},{"bike_id":"1042bcde-fd85-4133-8947-4e433c680c1a","system_id":"levelo_inurba_marseille","lat":43.288445,"lon":5.35843,"is_reserved":false,"is_disabled":false,"rental_uris":{"android":"levelo://app?vid=1042bcde-fd85-4133-8947-4e433c680c1a","ios":"levelo://app?vid=1042bcde-fd85-4133-8947-4e433c680c1a"},"vehicle_type_id":"4","last_reported":1700460602,"current_range_meters":16400,"station_id":"ce4bhb12rcd13ifvqem0","pricing_plan_id":"free"},{"bike_id":"07202f70-50d7-46f0-a5bd-59712659d6a0","system_id":"levelo_inurba_marseille","lat":43.31251,"lon":5.40162,"is_reserved":false,"is_disabled":false,"rental_uris":{"android":"levelo://app?vid=07202f70-50d7-46f0-a5bd-59712659d6a0","ios":"levelo://app?vid=07202f70-50d7-46f0-a5bd-59712659d6a0"},"vehicle_type_id":"4","last_reported":1700460602,"current_range_meters":8400,"station_id":"","pricing_plan_id":"free"},{"bike_id":"1ced8fdc-a6aa-4275-8265-965750bc86a3","system_id":"levelo_inurba_marseille","lat":43.312857,"lon":5.40172,"is_reserved":false,"is_disabled":false,"rental_uris":{"android":"levelo://app?vid=1ced8fdc-a6aa-4275-8265-965750bc86a3","ios":"levelo://app?vid=1ced8fdc-a6aa-4275-8265-965750bc86a3"},"vehicle_type_id":"4","last_reported":1700460602,"current_range_meters":4000,"station_id":"ce4bh092rcd13ifvqd30","pricing_plan_id":"free"},{"bike_id":"d42c3ac2-1c96-47da-942b-7cb85a47a349","system_id":"levelo_inurba_marseille","lat":43.30642,"lon":5.401031,"is_reserved":false,"is_disabled":false,"rental_uris":{"android":"levelo://app?vid=d42c3ac2-1c96-47da-942b-7cb85a47a349","ios":"levelo://app?vid=d42c3ac2-1c96-47da-942b-7cb85a47a349"},"vehicle_type_id":"4","last_reported":1700460602,"current_range_meters":26000,"station_id":"ce4bh112rcd13ifvqda0","pricing_plan_id":"free"},{"bike_id":"89b48ee5-03b6-498d-b028-437a2392771f","system_id":"levelo_inurba_marseille","lat":43.30935,"lon":5.40148,"is_reserved":false,"is_disabled":false,"rental_uris":{"android":"levelo://app?vid=89b48ee5-03b6-498d-b028-437a2392771f","ios":"levelo://app?vid=89b48ee5-03b6-498d-b028-437a2392771f"},"vehicle_type_id":"4","last_reported":1700460602,"current_range_meters":30800,"station_id":"ce4bgvp2rcd13ifvqct0","pricing_plan_id":"free"},{"bike_id":"7e8fb516-3c5f-4ce3-a4ed-4c2dfc396eb0","system_id":"levelo_inurba_marseille","lat":43.309351,"lon":5.401523,"is_reserved":false,"is_disabled":false,"rental_uris":{"android":"levelo://app?vid=7e8fb516-3c5f-4ce3-a4ed-4c2dfc396eb0","ios":"levelo://app?vid=7e8fb516-3c5f-4ce3-a4ed-4c2dfc396eb0"},"vehicle_type_id":"4","last_reported":1700460602,"current_range_meters":11200,"station_id":"ce4bgvp2rcd13ifvqct0","pricing_plan_id":"free"},{"bike_id":"d5593712-5973-410d-8ffe-0970ba27da89","system_id":"levelo_inurba_marseille","lat":43.30642,"lon":5.401031,"is_reserved":false,"is_disabled":false,"rental_uris":{"android":"levelo://app?vid=d5593712-5973-410d-8ffe-0970ba27da89","ios":"levelo://app?vid=d5593712-5973-410d-8ffe-0970ba27da89"},"vehicle_type_id":"4","last_reported":1700460602,"current_range_meters":30000,"station_id":"ce4bh112rcd13ifvqda0","pricing_plan_id":"free"},{"bike_id":"375bd0f8-1b09-4b1f-901d-f2dbf44eaa48","system_id":"levelo_inurba_marseille","lat":43.30642,"lon":5.401031,"is_reserved":false,"is_disabled":false,"rental_uris":{"android":"levelo://app?vid=375bd0f8-1b09-4b1f-901d-f2dbf44eaa48","ios":"levelo://app?vid=375bd0f8-1b09-4b1f-901d-f2dbf44eaa48"},"vehicle_type_id":"4","last_reported":1700460602,"current_range_meters":8400,"station_id":"ce4bh112rcd13ifvqda0","pricing_plan_id":"free"},{"bike_id":"b606b783-e792-49e9-aa4a-26ee0d218c26","system_id":"levelo_inurba_marseille","lat":43.306581,"lon":5.400943,"is_reserved":false,"is_disabled":false,"rental_uris":{"android":"levelo://app?vid=b606b783-e792-49e9-aa4a-26ee0d218c26","ios":"levelo://app?vid=b606b783-e792-49e9-aa4a-26ee0d218c26"},"vehicle_type_id":"4","last_reported":1700460602,"current_range_meters":20400,"station_id":"ce4bh112rcd13ifvqda0","pricing_plan_id":"free"},{"bike_id":"3735b4ac-0725-41ac-a50d-dab88529fdf7","system_id":"levelo_inurba_marseille","lat":43.28727,"lon":5.36078,"is_reserved":false,"is_disabled":false,"rental_uris":{"android":"levelo://app?vid=3735b4ac-0725-41ac-a50d-dab88529fdf7","ios":"levelo://app?vid=3735b4ac-0725-41ac-a50d-dab88529fdf7"},"vehicle_type_id":"4","last_reported":1700460602,"current_range_meters":22400,"station_id":"cki0cbj6b192h4jlfktg","pricing_plan_id":"free"},{"bike_id":"bf6ecd45-d70e-454a-b3d2-d60d180de38a","system_id":"levelo_inurba_marseille","lat":43.286961,"lon":5.373785,"is_reserved":false,"is_disabled":false,"rental_uris":{"android":"levelo://app?vid=bf6ecd45-d70e-454a-b3d2-d60d180de38a","ios":"levelo://app?vid=bf6ecd45-d70e-454a-b3d2-d60d180de38a"},"vehicle_type_id":"4","last_reported":1700460602,"current_range_meters":18400,"station_id":"ce4bh3p2rcd13ifvqdq0","pricing_plan_id":"free"},{"bike_id":"bd85051e-76f8-4e8f-89c0-bac4acb1b4a9","system_id":"levelo_inurba_marseille","lat":43.298681,"lon":5.397225,"is_reserved":false,"is_disabled":false,"rental_uris":{"android":"levelo://app?vid=bd85051e-76f8-4e8f-89c0-bac4acb1b4a9","ios":"levelo://app?vid=bd85051e-76f8-4e8f-89c0-bac4acb1b4a9"},"vehicle_type_id":"4","last_reported":1700460602,"current_range_meters":23200,"station_id":"ce4bh0h2rcd13ifvqd50","pricing_plan_id":"free"},{"bike_id":"7bf5f36e-b80b-43e3-b4bd-7e4475bb055c","system_id":"levelo_inurba_marseille","lat":43.286961,"lon":5.373785,"is_reserved":false,"is_disabled":false,"rental_uris":{"android":"levelo://app?vid=7bf5f36e-b80b-43e3-b4bd-7e4475bb055c","ios":"levelo://app?vid=7bf5f36e-b80b-43e3-b4bd-7e4475bb055c"},"vehicle_type_id":"4","last_reported":1700460602,"current_range_meters":30400,"station_id":"ce4bh3p2rcd13ifvqdq0","pricing_plan_id":"free"},{"bike_id":"88f42187-4280-4e7e-be69-90fea2faf6db","system_id":"levelo_inurba_marseille","lat":43.286961,"lon":5.373785,"is_reserved":false,"is_disabled":false,"rental_uris":{"android":"levelo://app?vid=88f42187-4280-4e7e-be69-90fea2faf6db","ios":"levelo://app?vid=88f42187-4280-4e7e-be69-90fea2faf6db"},"vehicle_type_id":"4","last_reported":1700460602,"current_range_meters":28000,"station_id":"ce4bh3p2rcd13ifvqdq0","pricing_plan_id":"free"},{"bike_id":"dd353de6-0d7a-48dc-8090-d433a85de0d3","system_id":"levelo_inurba_marseille","lat":43.286961,"lon":5.373785,"is_reserved":false,"is_disabled":false,"rental_uris":{"android":"levelo://app?vid=dd353de6-0d7a-48dc-8090-d433a85de0d3","ios":"levelo://app?vid=dd353de6-0d7a-48dc-8090-d433a85de0d3"},"vehicle_type_id":"4","last_reported":1700460602,"current_range_meters":30800,"station_id":"ce4bh3p2rcd13ifvqdq0","pricing_plan_id":"free"},{"bike_id":"668a58be-3b97-49b0-8ecb-a2d5b16ce93b","system_id":"levelo_inurba_marseille","lat":43.286635,"lon":5.363586,"is_reserved":false,"is_disabled":false,"rental_uris":{"android":"levelo://app?vid=668a58be-3b97-49b0-8ecb-a2d5b16ce93b","ios":"levelo://app?vid=668a58be-3b97-49b0-8ecb-a2d5b16ce93b"},"vehicle_type_id":"4","last_reported":1700460602,"current_range_meters":26400,"station_id":"ce4bhah2rcd13ifvqej0","pricing_plan_id":"free"},{"bike_id":"e6ff9369-a2dc-4501-8cfd-4e9d0e360e2c","system_id":"levelo_inurba_marseille","lat":43.286593,"lon":5.363346,"is_reserved":false,"is_disabled":false,"rental_uris":{"android":"levelo://app?vid=e6ff9369-a2dc-4501-8cfd-4e9d0e360e2c","ios":"levelo://app?vid=e6ff9369-a2dc-4501-8cfd-4e9d0e360e2c"},"vehicle_type_id":"4","last_reported":1700460602,"current_range_meters":29200,"station_id":"ce4bhah2rcd13ifvqej0","pricing_plan_id":"free"},{"bike_id":"ac565028-1bb3-4216-89d9-edc3cef2e6b5","system_id":"levelo_inurba_marseille","lat":43.286961,"lon":5.373785,"is_reserved":false,"is_disabled":false,"rental_uris":{"android":"levelo://app?vid=ac565028-1bb3-4216-89d9-edc3cef2e6b5","ios":"levelo://app?vid=ac565028-1bb3-4216-89d9-edc3cef2e6b5"},"vehicle_type_id":"4","last_reported":1700460602,"current_range_meters":27600,"station_id":"ce4bh3p2rcd13ifvqdq0","pricing_plan_id":"free"},{"bike_id":"0980a90a-5de9-4744-9de4-fe3e68b1e57a","system_id":"levelo_inurba_marseille","lat":43.286961,"lon":5.373785,"is_reserved":false,"is_disabled":false,"rental_uris":{"android":"levelo://app?vid=0980a90a-5de9-4744-9de4-fe3e68b1e57a","ios":"levelo://app?vid=0980a90a-5de9-4744-9de4-fe3e68b1e57a"},"vehicle_type_id":"4","last_reported":1700460602,"current_range_meters":31200,"station_id":"ce4bh3p2rcd13ifvqdq0","pricing_plan_id":"free"},{"bike_id":"7fa372e6-8dd5-44e7-9b88-912c787d3790","system_id":"levelo_inurba_marseille","lat":43.29517,"lon":5.39402,"is_reserved":false,"is_disabled":false,"rental_uris":{"android":"levelo://app?vid=7fa372e6-8dd5-44e7-9b88-912c787d3790","ios":"levelo://app?vid=7fa372e6-8dd5-44e7-9b88-912c787d3790"},"vehicle_type_id":"4","last_reported":1700460602,"current_range_meters":31200,"station_id":"ce4bh292rcd13ifvqdf0","pricing_plan_id":"free"},{"bike_id":"54d65b00-44a6-4bd0-afcc-58a3dcf3be4d","system_id":"levelo_inurba_marseille","lat":43.290335,"lon":5.386323,"is_reserved":false,"is_disabled":false,"rental_uris":{"android":"levelo://app?vid=54d65b00-44a6-4bd0-afcc-58a3dcf3be4d","ios":"levelo://app?vid=54d65b00-44a6-4bd0-afcc-58a3dcf3be4d"},"vehicle_type_id":"4","last_reported":1700460602,"current_range_meters":23600,"station_id":"ce4bh4p2rcd13ifvqe0g","pricing_plan_id":"free"},{"bike_id":"6e65880d-414e-4771-8b8f-4db54365c8b7","system_id":"levelo_inurba_marseille","lat":43.290317,"lon":5.386342,"is_reserved":false,"is_disabled":false,"rental_uris":{"android":"levelo://app?vid=6e65880d-414e-4771-8b8f-4db54365c8b7","ios":"levelo://app?vid=6e65880d-414e-4771-8b8f-4db54365c8b7"},"vehicle_type_id":"4","last_reported":1700460602,"current_range_meters":31600,"station_id":"ce4bh4p2rcd13ifvqe0g","pricing_plan_id":"free"},{"bike_id":"7448a8af-c0be-4249-8043-7a0a58d660f7","system_id":"levelo_inurba_marseille","lat":43.287185,"lon":5.379373,"is_reserved":false,"is_disabled":false,"rental_uris":{"android":"levelo://app?vid=7448a8af-c0be-4249-8043-7a0a58d660f7","ios":"levelo://app?vid=7448a8af-c0be-4249-8043-7a0a58d660f7"},"vehicle_type_id":"4","last_reported":1700460602,"current_range_meters":23600,"station_id":"ce4bh9p2rcd13ifvqec0","pricing_plan_id":"free"},{"bike_id":"104dbfff-841c-4d27-87f1-ff7c7c719c4c","system_id":"levelo_inurba_marseille","lat":43.287185,"lon":5.379373,"is_reserved":false,"is_disabled":false,"rental_uris":{"android":"levelo://app?vid=104dbfff-841c-4d27-87f1-ff7c7c719c4c","ios":"levelo://app?vid=104dbfff-841c-4d27-87f1-ff7c7c719c4c"},"vehicle_type_id":"4","last_reported":1700460602,"current_range_meters":21600,"station_id":"ce4bh9p2rcd13ifvqec0","pricing_plan_id":"free"},{"bike_id":"82f0bec1-510e-4e11-b022-4e2ec4798ad3","system_id":"levelo_inurba_marseille","lat":43.316517,"lon":5.404375,"is_reserved":false,"is_disabled":false,"rental_uris":{"android":"levelo://app?vid=82f0bec1-510e-4e11-b022-4e2ec4798ad3","ios":"levelo://app?vid=82f0bec1-510e-4e11-b022-4e2ec4798ad3"},"vehicle_type_id":"4","last_reported":1700460602,"current_range_meters":10800,"station_id":"ce4bh012rcd13ifvqd00","pricing_plan_id":"free"},{"bike_id":"2510d533-a2aa-44b6-b9bf-d69e443f46f6","system_id":"levelo_inurba_marseille","lat":43.286179,"lon":5.350982,"is_reserved":false,"is_disabled":false,"rental_uris":{"android":"levelo://app?vid=2510d533-a2aa-44b6-b9bf-d69e443f46f6","ios":"levelo://app?vid=2510d533-a2aa-44b6-b9bf-d69e443f46f6"},"vehicle_type_id":"4","last_reported":1700460602,"current_range_meters":27600,"station_id":"ce4bhch2rcd13ifvqeug","pricing_plan_id":"free"},{"bike_id":"38a9956c-e9e2-49db-bda6-2d7b54a9aa53","system_id":"levelo_inurba_marseille","lat":43.286143,"lon":5.351035,"is_reserved":false,"is_disabled":false,"rental_uris":{"android":"levelo://app?vid=38a9956c-e9e2-49db-bda6-2d7b54a9aa53","ios":"levelo://app?vid=38a9956c-e9e2-49db-bda6-2d7b54a9aa53"},"vehicle_type_id":"4","last_reported":1700460602,"current_range_meters":30400,"station_id":"ce4bhch2rcd13ifvqeug","pricing_plan_id":"free"},{"bike_id":"2cb5446b-79f2-48ea-aa99-573682f9e802","system_id":"levelo_inurba_marseille","lat":43.28615,"lon":5.35096,"is_reserved":false,"is_disabled":false,"rental_uris":{"android":"levelo://app?vid=2cb5446b-79f2-48ea-aa99-573682f9e802","ios":"levelo://app?vid=2cb5446b-79f2-48ea-aa99-573682f9e802"},"vehicle_type_id":"4","last_reported":1700460602,"current_range_meters":30800,"station_id":"ce4bhch2rcd13ifvqeug","pricing_plan_id":"free"},{"bike_id":"06112d3a-4699-4a1f-b924-2e250542d358","system_id":"levelo_inurba_marseille","lat":43.28411,"lon":5.37508,"is_reserved":false,"is_disabled":false,"rental_uris":{"android":"levelo://app?vid=06112d3a-4699-4a1f-b924-2e250542d358","ios":"levelo://app?vid=06112d3a-4699-4a1f-b924-2e250542d358"},"vehicle_type_id":"4","last_reported":1700460602,"current_range_meters":30800,"station_id":"ce4bh412rcd13ifvqds0","pricing_plan_id":"free"},{"bike_id":"61163de4-dfa6-4983-8481-10206c9069b9","system_id":"levelo_inurba_marseille","lat":43.283998,"lon":5.375062,"is_reserved":false,"is_disabled":false,"rental_uris":{"android":"levelo://app?vid=61163de4-dfa6-4983-8481-10206c9069b9","ios":"levelo://app?vid=61163de4-dfa6-4983-8481-10206c9069b9"},"vehicle_type_id":"4","last_reported":1700460602,"current_range_meters":18800,"station_id":"ce4bh412rcd13ifvqds0","pricing_plan_id":"free"},{"bike_id":"f16c7963-22c6-4c10-9d93-914892954d35","system_id":"levelo_inurba_marseille","lat":43.313219,"lon":5.407111,"is_reserved":false,"is_disabled":false,"rental_uris":{"android":"levelo://app?vid=f16c7963-22c6-4c10-9d93-914892954d35","ios":"levelo://app?vid=f16c7963-22c6-4c10-9d93-914892954d35"},"vehicle_type_id":"4","last_reported":1700460602,"current_range_meters":12000,"station_id":"","pricing_plan_id":"free"},{"bike_id":"1b0edb4a-22e2-47ee-a937-d965b08da0c6","system_id":"levelo_inurba_marseille","lat":43.295716,"lon":5.399656,"is_reserved":false,"is_disabled":false,"rental_uris":{"android":"levelo://app?vid=1b0edb4a-22e2-47ee-a937-d965b08da0c6","ios":"levelo://app?vid=1b0edb4a-22e2-47ee-a937-d965b08da0c6"},"vehicle_type_id":"4","last_reported":1700460602,"current_range_meters":29600,"station_id":"ce4bh312rcd13ifvqdj0","pricing_plan_id":"free"},{"bike_id":"4a4a0380-28ee-4022-ab36-4a03b8c2f60d","system_id":"levelo_inurba_marseille","lat":43.284057,"lon":5.375149,"is_reserved":false,"is_disabled":false,"rental_uris":{"android":"levelo://app?vid=4a4a0380-28ee-4022-ab36-4a03b8c2f60d","ios":"levelo://app?vid=4a4a0380-28ee-4022-ab36-4a03b8c2f60d"},"vehicle_type_id":"4","last_reported":1700460602,"current_range_meters":29600,"station_id":"ce4bh412rcd13ifvqds0","pricing_plan_id":"free"},{"bike_id":"b386c879-7fc7-47af-8a2f-31d811512912","system_id":"levelo_inurba_marseille","lat":43.295717,"lon":5.399697,"is_reserved":false,"is_disabled":false,"rental_uris":{"android":"levelo://app?vid=b386c879-7fc7-47af-8a2f-31d811512912","ios":"levelo://app?vid=b386c879-7fc7-47af-8a2f-31d811512912"},"vehicle_type_id":"4","last_reported":1700460602,"current_range_meters":7200,"station_id":"","pricing_plan_id":"free"},{"bike_id":"e7c4b01d-d4b4-49a9-8cd6-a0c00760cd3f","system_id":"levelo_inurba_marseille","lat":43.28402,"lon":5.375113,"is_reserved":false,"is_disabled":false,"rental_uris":{"android":"levelo://app?vid=e7c4b01d-d4b4-49a9-8cd6-a0c00760cd3f","ios":"levelo://app?vid=e7c4b01d-d4b4-49a9-8cd6-a0c00760cd3f"},"vehicle_type_id":"4","last_reported":1700460602,"current_range_meters":28800,"station_id":"ce4bh412rcd13ifvqds0","pricing_plan_id":"free"},{"bike_id":"18d4b2ae-7e68-4e34-9b60-b1edd47133f6","system_id":"levelo_inurba_marseille","lat":43.295713,"lon":5.399639,"is_reserved":false,"is_disabled":false,"rental_uris":{"android":"levelo://app?vid=18d4b2ae-7e68-4e34-9b60-b1edd47133f6","ios":"levelo://app?vid=18d4b2ae-7e68-4e34-9b60-b1edd47133f6"},"vehicle_type_id":"4","last_reported":1700460602,"current_range_meters":26800,"station_id":"ce4bh312rcd13ifvqdj0","pricing_plan_id":"free"},{"bike_id":"0ca4804c-80db-4971-b28c-e6f206ef7314","system_id":"levelo_inurba_marseille","lat":43.323717,"lon":5.40542,"is_reserved":false,"is_disabled":false,"rental_uris":{"android":"levelo://app?vid=0ca4804c-80db-4971-b28c-e6f206ef7314","ios":"levelo://app?vid=0ca4804c-80db-4971-b28c-e6f206ef7314"},"vehicle_type_id":"4","last_reported":1700460602,"current_range_meters":29600,"station_id":"","pricing_plan_id":"free"},{"bike_id":"5974ad3b-da81-42ca-a08b-1b3632a47afa","system_id":"levelo_inurba_marseille","lat":43.33237,"lon":5.3985,"is_reserved":false,"is_disabled":false,"rental_uris":{"android":"levelo://app?vid=5974ad3b-da81-42ca-a08b-1b3632a47afa","ios":"levelo://app?vid=5974ad3b-da81-42ca-a08b-1b3632a47afa"},"vehicle_type_id":"4","last_reported":1700460602,"current_range_meters":0,"station_id":"","pricing_plan_id":"free"},{"bike_id":"fa5d45d4-52fa-4535-887e-f918708c15f1","system_id":"levelo_inurba_marseille","lat":43.284793,"lon":5.384119,"is_reserved":false,"is_disabled":false,"rental_uris":{"android":"levelo://app?vid=fa5d45d4-52fa-4535-887e-f918708c15f1","ios":"levelo://app?vid=fa5d45d4-52fa-4535-887e-f918708c15f1"},"vehicle_type_id":"4","last_reported":1700460602,"current_range_meters":28800,"station_id":"ce4bh512rcd13ifvqe3g","pricing_plan_id":"free"},{"bike_id":"953ee5b9-ce1c-46af-9d96-16c9fb52bef1","system_id":"levelo_inurba_marseille","lat":43.288501,"lon":5.393087,"is_reserved":false,"is_disabled":false,"rental_uris":{"android":"levelo://app?vid=953ee5b9-ce1c-46af-9d96-16c9fb52bef1","ios":"levelo://app?vid=953ee5b9-ce1c-46af-9d96-16c9fb52bef1"},"vehicle_type_id":"4","last_reported":1700460602,"current_range_meters":14400,"station_id":"ce4bh2p2rcd13ifvqdi0","pricing_plan_id":"free"},{"bike_id":"314f21e3-d12c-4df0-85de-bd1a89a721df","system_id":"levelo_inurba_marseille","lat":43.288501,"lon":5.393087,"is_reserved":false,"is_disabled":false,"rental_uris":{"android":"levelo://app?vid=314f21e3-d12c-4df0-85de-bd1a89a721df","ios":"levelo://app?vid=314f21e3-d12c-4df0-85de-bd1a89a721df"},"vehicle_type_id":"4","last_reported":1700460602,"current_range_meters":29200,"station_id":"ce4bh2p2rcd13ifvqdi0","pricing_plan_id":"free"},{"bike_id":"0fe52cb4-34f1-43b0-ba3f-a639b024a4ff","system_id":"levelo_inurba_marseille","lat":43.288501,"lon":5.393087,"is_reserved":false,"is_disabled":false,"rental_uris":{"android":"levelo://app?vid=0fe52cb4-34f1-43b0-ba3f-a639b024a4ff","ios":"levelo://app?vid=0fe52cb4-34f1-43b0-ba3f-a639b024a4ff"},"vehicle_type_id":"4","last_reported":1700460602,"current_range_meters":24400,"station_id":"ce4bh2p2rcd13ifvqdi0","pricing_plan_id":"free"},{"bike_id":"a2c086fb-05e9-4373-a20f-fb24b6980209","system_id":"levelo_inurba_marseille","lat":43.283494,"lon":5.380945,"is_reserved":false,"is_disabled":false,"rental_uris":{"android":"levelo://app?vid=a2c086fb-05e9-4373-a20f-fb24b6980209","ios":"levelo://app?vid=a2c086fb-05e9-4373-a20f-fb24b6980209"},"vehicle_type_id":"4","last_reported":1700460602,"current_range_meters":31600,"station_id":"ce4bh412rcd13ifvqdr0","pricing_plan_id":"free"},{"bike_id":"b7da9083-5fd6-4f00-b4cf-3e929d01706e","system_id":"levelo_inurba_marseille","lat":43.283498,"lon":5.380948,"is_reserved":false,"is_disabled":false,"rental_uris":{"android":"levelo://app?vid=b7da9083-5fd6-4f00-b4cf-3e929d01706e","ios":"levelo://app?vid=b7da9083-5fd6-4f00-b4cf-3e929d01706e"},"vehicle_type_id":"4","last_reported":1700460602,"current_range_meters":29200,"station_id":"ce4bh412rcd13ifvqdr0","pricing_plan_id":"free"},{"bike_id":"3eed9e98-a53b-4dc4-aa65-7a55c54585fd","system_id":"levelo_inurba_marseille","lat":43.283494,"lon":5.380945,"is_reserved":false,"is_disabled":false,"rental_uris":{"android":"levelo://app?vid=3eed9e98-a53b-4dc4-aa65-7a55c54585fd","ios":"levelo://app?vid=3eed9e98-a53b-4dc4-aa65-7a55c54585fd"},"vehicle_type_id":"4","last_reported":1700460602,"current_range_meters":12800,"station_id":"ce4bh412rcd13ifvqdr0","pricing_plan_id":"free"},{"bike_id":"9cb3374d-88b0-487e-987b-7ca530a3e4a2","system_id":"levelo_inurba_marseille","lat":43.343629,"lon":5.375078,"is_reserved":false,"is_disabled":false,"rental_uris":{"android":"levelo://app?vid=9cb3374d-88b0-487e-987b-7ca530a3e4a2","ios":"levelo://app?vid=9cb3374d-88b0-487e-987b-7ca530a3e4a2"},"vehicle_type_id":"4","last_reported":1700460602,"current_range_meters":0,"station_id":"","pricing_plan_id":"free"},{"bike_id":"fa95b495-2354-4760-b7bc-82eee0ae8097","system_id":"levelo_inurba_marseille","lat":43.289363,"lon":5.396322,"is_reserved":false,"is_disabled":false,"rental_uris":{"android":"levelo://app?vid=fa95b495-2354-4760-b7bc-82eee0ae8097","ios":"levelo://app?vid=fa95b495-2354-4760-b7bc-82eee0ae8097"},"vehicle_type_id":"4","last_reported":1700460602,"current_range_meters":20800,"station_id":"ce4bh3h2rcd13ifvqdn0","pricing_plan_id":"free"},{"bike_id":"61ab78ed-24b3-4fb6-bfff-356ae9705b9d","system_id":"levelo_inurba_marseille","lat":43.28274,"lon":5.350683,"is_reserved":false,"is_disabled":false,"rental_uris":{"android":"levelo://app?vid=61ab78ed-24b3-4fb6-bfff-356ae9705b9d","ios":"levelo://app?vid=61ab78ed-24b3-4fb6-bfff-356ae9705b9d"},"vehicle_type_id":"4","last_reported":1700460602,"current_range_meters":31200,"station_id":"ce4bhbp2rcd13ifvqerg","pricing_plan_id":"free"},{"bike_id":"6493c972-2e32-42a4-ba33-a39a1ddb1432","system_id":"levelo_inurba_marseille","lat":43.282688,"lon":5.350711,"is_reserved":false,"is_disabled":false,"rental_uris":{"android":"levelo://app?vid=6493c972-2e32-42a4-ba33-a39a1ddb1432","ios":"levelo://app?vid=6493c972-2e32-42a4-ba33-a39a1ddb1432"},"vehicle_type_id":"4","last_reported":1700460602,"current_range_meters":29200,"station_id":"ce4bhbp2rcd13ifvqerg","pricing_plan_id":"free"},{"bike_id":"54f2fb80-510c-4e5b-b18e-f5eed5a66836","system_id":"levelo_inurba_marseille","lat":43.283502,"lon":5.386471,"is_reserved":false,"is_disabled":false,"rental_uris":{"android":"levelo://app?vid=54f2fb80-510c-4e5b-b18e-f5eed5a66836","ios":"levelo://app?vid=54f2fb80-510c-4e5b-b18e-f5eed5a66836"},"vehicle_type_id":"4","last_reported":1700460602,"current_range_meters":25200,"station_id":"ce4bh492rcd13ifvqdvg","pricing_plan_id":"free"},{"bike_id":"22c66337-ccc9-4e40-b4ac-433a51dc9b17","system_id":"levelo_inurba_marseille","lat":43.280369,"lon":5.369526,"is_reserved":false,"is_disabled":false,"rental_uris":{"android":"levelo://app?vid=22c66337-ccc9-4e40-b4ac-433a51dc9b17","ios":"levelo://app?vid=22c66337-ccc9-4e40-b4ac-433a51dc9b17"},"vehicle_type_id":"4","last_reported":1700460602,"current_range_meters":22800,"station_id":"ce4bha12rcd13ifvqef0","pricing_plan_id":"free"},{"bike_id":"c272454a-c762-470a-b13a-c52c37891705","system_id":"levelo_inurba_marseille","lat":43.28036,"lon":5.369552,"is_reserved":false,"is_disabled":false,"rental_uris":{"android":"levelo://app?vid=c272454a-c762-470a-b13a-c52c37891705","ios":"levelo://app?vid=c272454a-c762-470a-b13a-c52c37891705"},"vehicle_type_id":"4","last_reported":1700460602,"current_range_meters":10400,"station_id":"ce4bha12rcd13ifvqef0","pricing_plan_id":"free"},{"bike_id":"eb3c6a59-8829-42fd-afae-17d0f065e2da","system_id":"levelo_inurba_marseille","lat":43.28039,"lon":5.369297,"is_reserved":false,"is_disabled":false,"rental_uris":{"android":"levelo://app?vid=eb3c6a59-8829-42fd-afae-17d0f065e2da","ios":"levelo://app?vid=eb3c6a59-8829-42fd-afae-17d0f065e2da"},"vehicle_type_id":"4","last_reported":1700460602,"current_range_meters":30800,"station_id":"ce4bha12rcd13ifvqef0","pricing_plan_id":"free"},{"bike_id":"aa574e3e-c56c-4559-b7b0-94b5225e97ef","system_id":"levelo_inurba_marseille","lat":43.280313,"lon":5.36953,"is_reserved":false,"is_disabled":false,"rental_uris":{"android":"levelo://app?vid=aa574e3e-c56c-4559-b7b0-94b5225e97ef","ios":"levelo://app?vid=aa574e3e-c56c-4559-b7b0-94b5225e97ef"},"vehicle_type_id":"4","last_reported":1700460602,"current_range_meters":21200,"station_id":"ce4bha12rcd13ifvqef0","pricing_plan_id":"free"},{"bike_id":"4541a55d-acd9-42ef-ac59-d3974d8c3488","system_id":"levelo_inurba_marseille","lat":43.28024,"lon":5.36955,"is_reserved":false,"is_disabled":false,"rental_uris":{"android":"levelo://app?vid=4541a55d-acd9-42ef-ac59-d3974d8c3488","ios":"levelo://app?vid=4541a55d-acd9-42ef-ac59-d3974d8c3488"},"vehicle_type_id":"4","last_reported":1700460602,"current_range_meters":27600,"station_id":"ce4bha12rcd13ifvqef0","pricing_plan_id":"free"},{"bike_id":"7d138bf8-dee6-44ee-98ab-84d3fd56c891","system_id":"levelo_inurba_marseille","lat":43.29046,"lon":5.399574,"is_reserved":false,"is_disabled":false,"rental_uris":{"android":"levelo://app?vid=7d138bf8-dee6-44ee-98ab-84d3fd56c891","ios":"levelo://app?vid=7d138bf8-dee6-44ee-98ab-84d3fd56c891"},"vehicle_type_id":"4","last_reported":1700460602,"current_range_meters":30800,"station_id":"ce4bh392rcd13ifvqdm0","pricing_plan_id":"free"},{"bike_id":"dfd1488e-0be7-49d2-afcc-b9da42221aa3","system_id":"levelo_inurba_marseille","lat":43.29044,"lon":5.39977,"is_reserved":false,"is_disabled":false,"rental_uris":{"android":"levelo://app?vid=dfd1488e-0be7-49d2-afcc-b9da42221aa3","ios":"levelo://app?vid=dfd1488e-0be7-49d2-afcc-b9da42221aa3"},"vehicle_type_id":"4","last_reported":1700460602,"current_range_meters":31200,"station_id":"ce4bh392rcd13ifvqdm0","pricing_plan_id":"free"},{"bike_id":"15a953eb-8f3f-4bc7-9a92-356b95a82b29","system_id":"levelo_inurba_marseille","lat":43.290412,"lon":5.399633,"is_reserved":false,"is_disabled":false,"rental_uris":{"android":"levelo://app?vid=15a953eb-8f3f-4bc7-9a92-356b95a82b29","ios":"levelo://app?vid=15a953eb-8f3f-4bc7-9a92-356b95a82b29"},"vehicle_type_id":"4","last_reported":1700460602,"current_range_meters":400,"station_id":"ce4bh392rcd13ifvqdm0","pricing_plan_id":"free"},{"bike_id":"ce6e0550-b494-4609-aa7a-4af06187d851","system_id":"levelo_inurba_marseille","lat":43.29041,"lon":5.399634,"is_reserved":false,"is_disabled":false,"rental_uris":{"android":"levelo://app?vid=ce6e0550-b494-4609-aa7a-4af06187d851","ios":"levelo://app?vid=ce6e0550-b494-4609-aa7a-4af06187d851"},"vehicle_type_id":"4","last_reported":1700460602,"current_range_meters":20400,"station_id":"ce4bh392rcd13ifvqdm0","pricing_plan_id":"free"},{"bike_id":"28056f9e-1681-4e70-ad67-9b6081e656ac","system_id":"levelo_inurba_marseille","lat":43.296263,"lon":5.40601,"is_reserved":false,"is_disabled":false,"rental_uris":{"android":"levelo://app?vid=28056f9e-1681-4e70-ad67-9b6081e656ac","ios":"levelo://app?vid=28056f9e-1681-4e70-ad67-9b6081e656ac"},"vehicle_type_id":"4","last_reported":1700460602,"current_range_meters":20800,"station_id":"ce4bh0h2rcd13ifvqd60","pricing_plan_id":"free"},{"bike_id":"bca4dfb7-3a26-43bc-a5ea-78d6c2ea92d0","system_id":"levelo_inurba_marseille","lat":43.28442,"lon":5.39182,"is_reserved":false,"is_disabled":false,"rental_uris":{"android":"levelo://app?vid=bca4dfb7-3a26-43bc-a5ea-78d6c2ea92d0","ios":"levelo://app?vid=bca4dfb7-3a26-43bc-a5ea-78d6c2ea92d0"},"vehicle_type_id":"4","last_reported":1700460602,"current_range_meters":13200,"station_id":"ce4bhoh2rcd13ifvqh5g","pricing_plan_id":"free"},{"bike_id":"ccf9b17e-2fb6-47d5-b5cb-73ea08fcb6e5","system_id":"levelo_inurba_marseille","lat":43.28575,"lon":5.39498,"is_reserved":false,"is_disabled":false,"rental_uris":{"android":"levelo://app?vid=ccf9b17e-2fb6-47d5-b5cb-73ea08fcb6e5","ios":"levelo://app?vid=ccf9b17e-2fb6-47d5-b5cb-73ea08fcb6e5"},"vehicle_type_id":"4","last_reported":1700460602,"current_range_meters":0,"station_id":"ce4bh292rcd13ifvqdg0","pricing_plan_id":"free"},{"bike_id":"fca3052f-8ec4-4ccf-bf65-31895f59b3e8","system_id":"levelo_inurba_marseille","lat":43.28714,"lon":5.39976,"is_reserved":false,"is_disabled":false,"rental_uris":{"android":"levelo://app?vid=fca3052f-8ec4-4ccf-bf65-31895f59b3e8","ios":"levelo://app?vid=fca3052f-8ec4-4ccf-bf65-31895f59b3e8"},"vehicle_type_id":"4","last_reported":1700460602,"current_range_meters":21600,"station_id":"ce4bho92rcd13ifvqh3g","pricing_plan_id":"free"},{"bike_id":"81b8e324-48e8-43c4-a9ef-3759cbf406ed","system_id":"levelo_inurba_marseille","lat":43.279087,"lon":5.380114,"is_reserved":false,"is_disabled":false,"rental_uris":{"android":"levelo://app?vid=81b8e324-48e8-43c4-a9ef-3759cbf406ed","ios":"levelo://app?vid=81b8e324-48e8-43c4-a9ef-3759cbf406ed"},"vehicle_type_id":"4","last_reported":1700460602,"current_range_meters":30000,"station_id":"ce4bhf92rcd13ifvqf50","pricing_plan_id":"free"},{"bike_id":"6b686fd8-6af4-4d87-acca-58335e891be3","system_id":"levelo_inurba_marseille","lat":43.287154,"lon":5.399979,"is_reserved":false,"is_disabled":false,"rental_uris":{"android":"levelo://app?vid=6b686fd8-6af4-4d87-acca-58335e891be3","ios":"levelo://app?vid=6b686fd8-6af4-4d87-acca-58335e891be3"},"vehicle_type_id":"4","last_reported":1700460602,"current_range_meters":30800,"station_id":"ce4bho92rcd13ifvqh3g","pricing_plan_id":"free"},{"bike_id":"04546a3f-e5f9-4ed7-8b64-5f947ebfbbf7","system_id":"levelo_inurba_marseille","lat":43.287154,"lon":5.399979,"is_reserved":false,"is_disabled":false,"rental_uris":{"android":"levelo://app?vid=04546a3f-e5f9-4ed7-8b64-5f947ebfbbf7","ios":"levelo://app?vid=04546a3f-e5f9-4ed7-8b64-5f947ebfbbf7"},"vehicle_type_id":"4","last_reported":1700460602,"current_range_meters":24000,"station_id":"ce4bho92rcd13ifvqh3g","pricing_plan_id":"free"},{"bike_id":"419c2f00-cea0-4bbb-aaf8-3287480aa26a","system_id":"levelo_inurba_marseille","lat":43.287257,"lon":5.400059,"is_reserved":false,"is_disabled":false,"rental_uris":{"android":"levelo://app?vid=419c2f00-cea0-4bbb-aaf8-3287480aa26a","ios":"levelo://app?vid=419c2f00-cea0-4bbb-aaf8-3287480aa26a"},"vehicle_type_id":"4","last_reported":1700460602,"current_range_meters":8800,"station_id":"ce4bho92rcd13ifvqh3g","pricing_plan_id":"free"},{"bike_id":"b5f3ebd8-3e96-47e5-807a-8523ccf3d920","system_id":"levelo_inurba_marseille","lat":43.287154,"lon":5.399979,"is_reserved":false,"is_disabled":false,"rental_uris":{"android":"levelo://app?vid=b5f3ebd8-3e96-47e5-807a-8523ccf3d920","ios":"levelo://app?vid=b5f3ebd8-3e96-47e5-807a-8523ccf3d920"},"vehicle_type_id":"4","last_reported":1700460602,"current_range_meters":31200,"station_id":"ce4bho92rcd13ifvqh3g","pricing_plan_id":"free"},{"bike_id":"26ed06fb-65c3-4a06-9042-7ed81835e8bc","system_id":"levelo_inurba_marseille","lat":43.287032,"lon":5.399779,"is_reserved":false,"is_disabled":false,"rental_uris":{"android":"levelo://app?vid=26ed06fb-65c3-4a06-9042-7ed81835e8bc","ios":"levelo://app?vid=26ed06fb-65c3-4a06-9042-7ed81835e8bc"},"vehicle_type_id":"4","last_reported":1700460602,"current_range_meters":25200,"station_id":"ce4bho92rcd13ifvqh3g","pricing_plan_id":"free"},{"bike_id":"1cd4f039-ac36-4596-9847-31c56c0dc7ca","system_id":"levelo_inurba_marseille","lat":43.287154,"lon":5.399979,"is_reserved":false,"is_disabled":false,"rental_uris":{"android":"levelo://app?vid=1cd4f039-ac36-4596-9847-31c56c0dc7ca","ios":"levelo://app?vid=1cd4f039-ac36-4596-9847-31c56c0dc7ca"},"vehicle_type_id":"4","last_reported":1700460602,"current_range_meters":28000,"station_id":"ce4bho92rcd13ifvqh3g","pricing_plan_id":"free"},{"bike_id":"19bd35b7-b038-4d0f-8771-f9898da1b595","system_id":"levelo_inurba_marseille","lat":43.28699,"lon":5.3998,"is_reserved":false,"is_disabled":false,"rental_uris":{"android":"levelo://app?vid=19bd35b7-b038-4d0f-8771-f9898da1b595","ios":"levelo://app?vid=19bd35b7-b038-4d0f-8771-f9898da1b595"},"vehicle_type_id":"4","last_reported":1700460602,"current_range_meters":3600,"station_id":"ce4bho92rcd13ifvqh3g","pricing_plan_id":"free"},{"bike_id":"2836fb25-90fd-419f-ab95-f049a7d008c0","system_id":"levelo_inurba_marseille","lat":43.287154,"lon":5.399979,"is_reserved":false,"is_disabled":false,"rental_uris":{"android":"levelo://app?vid=2836fb25-90fd-419f-ab95-f049a7d008c0","ios":"levelo://app?vid=2836fb25-90fd-419f-ab95-f049a7d008c0"},"vehicle_type_id":"4","last_reported":1700460602,"current_range_meters":31200,"station_id":"ce4bho92rcd13ifvqh3g","pricing_plan_id":"free"},{"bike_id":"a470fe4d-0de8-4153-9093-7bc98b7e8458","system_id":"levelo_inurba_marseille","lat":43.286988,"lon":5.399825,"is_reserved":false,"is_disabled":false,"rental_uris":{"android":"levelo://app?vid=a470fe4d-0de8-4153-9093-7bc98b7e8458","ios":"levelo://app?vid=a470fe4d-0de8-4153-9093-7bc98b7e8458"},"vehicle_type_id":"4","last_reported":1700460602,"current_range_meters":24000,"station_id":"ce4bho92rcd13ifvqh3g","pricing_plan_id":"free"},{"bike_id":"5671142f-08c6-4051-b19f-55604c1bbf74","system_id":"levelo_inurba_marseille","lat":43.28695,"lon":5.39981,"is_reserved":false,"is_disabled":false,"rental_uris":{"android":"levelo://app?vid=5671142f-08c6-4051-b19f-55604c1bbf74","ios":"levelo://app?vid=5671142f-08c6-4051-b19f-55604c1bbf74"},"vehicle_type_id":"4","last_reported":1700460602,"current_range_meters":26400,"station_id":"ce4bho92rcd13ifvqh3g","pricing_plan_id":"free"},{"bike_id":"c319da8a-9a1c-4d0a-a661-35e27f63149e","system_id":"levelo_inurba_marseille","lat":43.320045,"lon":5.415046,"is_reserved":false,"is_disabled":false,"rental_uris":{"android":"levelo://app?vid=c319da8a-9a1c-4d0a-a661-35e27f63149e","ios":"levelo://app?vid=c319da8a-9a1c-4d0a-a661-35e27f63149e"},"vehicle_type_id":"4","last_reported":1700460602,"current_range_meters":26800,"station_id":"ce4bhq92rcd13ifvqhkg","pricing_plan_id":"free"},{"bike_id":"37c567bc-cf03-4f5b-b022-608729a5bae9","system_id":"levelo_inurba_marseille","lat":43.292571,"lon":5.409107,"is_reserved":false,"is_disabled":false,"rental_uris":{"android":"levelo://app?vid=37c567bc-cf03-4f5b-b022-608729a5bae9","ios":"levelo://app?vid=37c567bc-cf03-4f5b-b022-608729a5bae9"},"vehicle_type_id":"4","last_reported":1700460602,"current_range_meters":29600,"station_id":"ce4bh192rcd13ifvqdc0","pricing_plan_id":"free"},{"bike_id":"8422d518-20c1-48a7-9f06-0b0cb2064dc3","system_id":"levelo_inurba_marseille","lat":43.29254,"lon":5.40906,"is_reserved":false,"is_disabled":false,"rental_uris":{"android":"levelo://app?vid=8422d518-20c1-48a7-9f06-0b0cb2064dc3","ios":"levelo://app?vid=8422d518-20c1-48a7-9f06-0b0cb2064dc3"},"vehicle_type_id":"4","last_reported":1700460602,"current_range_meters":31200,"station_id":"ce4bh192rcd13ifvqdc0","pricing_plan_id":"free"},{"bike_id":"4da097bb-9c81-41dd-90ad-c3b5e2941019","system_id":"levelo_inurba_marseille","lat":43.292591,"lon":5.409136,"is_reserved":false,"is_disabled":false,"rental_uris":{"android":"levelo://app?vid=4da097bb-9c81-41dd-90ad-c3b5e2941019","ios":"levelo://app?vid=4da097bb-9c81-41dd-90ad-c3b5e2941019"},"vehicle_type_id":"4","last_reported":1700460602,"current_range_meters":28400,"station_id":"ce4bh192rcd13ifvqdc0","pricing_plan_id":"free"},{"bike_id":"b087b94b-6db9-41ae-a219-b7fecb0461be","system_id":"levelo_inurba_marseille","lat":43.29254,"lon":5.40909,"is_reserved":false,"is_disabled":false,"rental_uris":{"android":"levelo://app?vid=b087b94b-6db9-41ae-a219-b7fecb0461be","ios":"levelo://app?vid=b087b94b-6db9-41ae-a219-b7fecb0461be"},"vehicle_type_id":"4","last_reported":1700460602,"current_range_meters":28000,"station_id":"ce4bh192rcd13ifvqdc0","pricing_plan_id":"free"},{"bike_id":"779bc83f-588e-4c13-9bfc-4f04a5f63e9d","system_id":"levelo_inurba_marseille","lat":43.29249,"lon":5.40905,"is_reserved":false,"is_disabled":false,"rental_uris":{"android":"levelo://app?vid=779bc83f-588e-4c13-9bfc-4f04a5f63e9d","ios":"levelo://app?vid=779bc83f-588e-4c13-9bfc-4f04a5f63e9d"},"vehicle_type_id":"4","last_reported":1700460602,"current_range_meters":24400,"station_id":"ce4bh192rcd13ifvqdc0","pricing_plan_id":"free"},{"bike_id":"8ccdbe57-1aa5-4e13-b9e3-67770d6b3584","system_id":"levelo_inurba_marseille","lat":43.292571,"lon":5.409107,"is_reserved":false,"is_disabled":false,"rental_uris":{"android":"levelo://app?vid=8ccdbe57-1aa5-4e13-b9e3-67770d6b3584","ios":"levelo://app?vid=8ccdbe57-1aa5-4e13-b9e3-67770d6b3584"},"vehicle_type_id":"4","last_reported":1700460602,"current_range_meters":28400,"station_id":"ce4bh192rcd13ifvqdc0","pricing_plan_id":"free"},{"bike_id":"68808272-8950-431f-b606-37b733153546","system_id":"levelo_inurba_marseille","lat":43.292513,"lon":5.4091,"is_reserved":false,"is_disabled":false,"rental_uris":{"android":"levelo://app?vid=68808272-8950-431f-b606-37b733153546","ios":"levelo://app?vid=68808272-8950-431f-b606-37b733153546"},"vehicle_type_id":"4","last_reported":1700460602,"current_range_meters":30800,"station_id":"ce4bh192rcd13ifvqdc0","pricing_plan_id":"free"},{"bike_id":"59c21b93-4531-4fa3-88ab-f8b658605935","system_id":"levelo_inurba_marseille","lat":43.276131,"lon":5.361083,"is_reserved":false,"is_disabled":false,"rental_uris":{"android":"levelo://app?vid=59c21b93-4531-4fa3-88ab-f8b658605935","ios":"levelo://app?vid=59c21b93-4531-4fa3-88ab-f8b658605935"},"vehicle_type_id":"4","last_reported":1700460602,"current_range_meters":11200,"station_id":"ce4bgj92rcd13ifvqbe0","pricing_plan_id":"free"},{"bike_id":"1693c599-33fb-4470-99dd-e396cc305b93","system_id":"levelo_inurba_marseille","lat":43.303837,"lon":5.418724,"is_reserved":false,"is_disabled":false,"rental_uris":{"android":"levelo://app?vid=1693c599-33fb-4470-99dd-e396cc305b93","ios":"levelo://app?vid=1693c599-33fb-4470-99dd-e396cc305b93"},"vehicle_type_id":"4","last_reported":1700460602,"current_range_meters":28400,"station_id":"ce4bhop2rcd13ifvqh7g","pricing_plan_id":"free"},{"bike_id":"4c56b552-70cd-49bb-9180-22659d6e0f31","system_id":"levelo_inurba_marseille","lat":43.303837,"lon":5.418724,"is_reserved":false,"is_disabled":false,"rental_uris":{"android":"levelo://app?vid=4c56b552-70cd-49bb-9180-22659d6e0f31","ios":"levelo://app?vid=4c56b552-70cd-49bb-9180-22659d6e0f31"},"vehicle_type_id":"4","last_reported":1700460602,"current_range_meters":31200,"station_id":"ce4bhop2rcd13ifvqh7g","pricing_plan_id":"free"},{"bike_id":"8e97420c-f368-4679-aebd-6fa9d8ab1f29","system_id":"levelo_inurba_marseille","lat":43.27388,"lon":5.36259,"is_reserved":false,"is_disabled":false,"rental_uris":{"android":"levelo://app?vid=8e97420c-f368-4679-aebd-6fa9d8ab1f29","ios":"levelo://app?vid=8e97420c-f368-4679-aebd-6fa9d8ab1f29"},"vehicle_type_id":"4","last_reported":1700460602,"current_range_meters":29600,"station_id":"ce4bhbh2rcd13ifvqeo0","pricing_plan_id":"free"},{"bike_id":"961e5067-d491-4c1a-8392-7d0f99cd1774","system_id":"levelo_inurba_marseille","lat":43.278399,"lon":5.392139,"is_reserved":false,"is_disabled":false,"rental_uris":{"android":"levelo://app?vid=961e5067-d491-4c1a-8392-7d0f99cd1774","ios":"levelo://app?vid=961e5067-d491-4c1a-8392-7d0f99cd1774"},"vehicle_type_id":"4","last_reported":1700460602,"current_range_meters":28400,"station_id":"ce4bhjp2rcd13ifvqga0","pricing_plan_id":"free"},{"bike_id":"d29ba1d7-97d8-4f22-8896-821e48318223","system_id":"levelo_inurba_marseille","lat":43.273819,"lon":5.362501,"is_reserved":false,"is_disabled":false,"rental_uris":{"android":"levelo://app?vid=d29ba1d7-97d8-4f22-8896-821e48318223","ios":"levelo://app?vid=d29ba1d7-97d8-4f22-8896-821e48318223"},"vehicle_type_id":"4","last_reported":1700460602,"current_range_meters":29200,"station_id":"ce4bhbh2rcd13ifvqeo0","pricing_plan_id":"free"},{"bike_id":"8b7656ce-00bc-4804-aad0-dee2ca34f7ef","system_id":"levelo_inurba_marseille","lat":43.2738,"lon":5.36256,"is_reserved":false,"is_disabled":false,"rental_uris":{"android":"levelo://app?vid=8b7656ce-00bc-4804-aad0-dee2ca34f7ef","ios":"levelo://app?vid=8b7656ce-00bc-4804-aad0-dee2ca34f7ef"},"vehicle_type_id":"4","last_reported":1700460602,"current_range_meters":29200,"station_id":"ce4bhbh2rcd13ifvqeo0","pricing_plan_id":"free"},{"bike_id":"01ed7991-eaca-4c39-b3f9-40b4ebe9e070","system_id":"levelo_inurba_marseille","lat":43.27379,"lon":5.362481,"is_reserved":false,"is_disabled":false,"rental_uris":{"android":"levelo://app?vid=01ed7991-eaca-4c39-b3f9-40b4ebe9e070","ios":"levelo://app?vid=01ed7991-eaca-4c39-b3f9-40b4ebe9e070"},"vehicle_type_id":"4","last_reported":1700460602,"current_range_meters":30400,"station_id":"ce4bhbh2rcd13ifvqeo0","pricing_plan_id":"free"},{"bike_id":"a92d23bb-1057-4a39-9570-716e9b798b5d","system_id":"levelo_inurba_marseille","lat":43.275625,"lon":5.384392,"is_reserved":false,"is_disabled":false,"rental_uris":{"android":"levelo://app?vid=a92d23bb-1057-4a39-9570-716e9b798b5d","ios":"levelo://app?vid=a92d23bb-1057-4a39-9570-716e9b798b5d"},"vehicle_type_id":"4","last_reported":1700460602,"current_range_meters":28000,"station_id":"ce4bhh92rcd13ifvqfi0","pricing_plan_id":"free"},{"bike_id":"b5dfed9a-5081-421c-aac0-95127032a7a0","system_id":"levelo_inurba_marseille","lat":43.33612,"lon":5.410321,"is_reserved":false,"is_disabled":false,"rental_uris":{"android":"levelo://app?vid=b5dfed9a-5081-421c-aac0-95127032a7a0","ios":"levelo://app?vid=b5dfed9a-5081-421c-aac0-95127032a7a0"},"vehicle_type_id":"4","last_reported":1700460602,"current_range_meters":31600,"station_id":"ce4bhqh2rcd13ifvqhmg","pricing_plan_id":"free"},{"bike_id":"820bf453-c21d-40da-b999-cf7ceb26f13e","system_id":"levelo_inurba_marseille","lat":43.33612,"lon":5.410321,"is_reserved":false,"is_disabled":false,"rental_uris":{"android":"levelo://app?vid=820bf453-c21d-40da-b999-cf7ceb26f13e","ios":"levelo://app?vid=820bf453-c21d-40da-b999-cf7ceb26f13e"},"vehicle_type_id":"4","last_reported":1700460602,"current_range_meters":20400,"station_id":"ce4bhqh2rcd13ifvqhmg","pricing_plan_id":"free"},{"bike_id":"5581f9e8-504c-4d2f-a780-7465313f92c2","system_id":"levelo_inurba_marseille","lat":43.336134,"lon":5.410341,"is_reserved":false,"is_disabled":false,"rental_uris":{"android":"levelo://app?vid=5581f9e8-504c-4d2f-a780-7465313f92c2","ios":"levelo://app?vid=5581f9e8-504c-4d2f-a780-7465313f92c2"},"vehicle_type_id":"4","last_reported":1700460602,"current_range_meters":25600,"station_id":"ce4bhqh2rcd13ifvqhmg","pricing_plan_id":"free"},{"bike_id":"dec73f52-8ebd-406d-8694-3388896d0d7c","system_id":"levelo_inurba_marseille","lat":43.275625,"lon":5.384392,"is_reserved":false,"is_disabled":false,"rental_uris":{"android":"levelo://app?vid=dec73f52-8ebd-406d-8694-3388896d0d7c","ios":"levelo://app?vid=dec73f52-8ebd-406d-8694-3388896d0d7c"},"vehicle_type_id":"4","last_reported":1700460602,"current_range_meters":27600,"station_id":"ce4bhh92rcd13ifvqfi0","pricing_plan_id":"free"},{"bike_id":"6a93a014-1427-427d-b06c-a403bacb72b2","system_id":"levelo_inurba_marseille","lat":43.336134,"lon":5.410341,"is_reserved":false,"is_disabled":false,"rental_uris":{"android":"levelo://app?vid=6a93a014-1427-427d-b06c-a403bacb72b2","ios":"levelo://app?vid=6a93a014-1427-427d-b06c-a403bacb72b2"},"vehicle_type_id":"4","last_reported":1700460602,"current_range_meters":27600,"station_id":"ce4bhqh2rcd13ifvqhmg","pricing_plan_id":"free"},{"bike_id":"8f64ab4c-e41b-42bc-8b04-fd401c60b361","system_id":"levelo_inurba_marseille","lat":43.279952,"lon":5.400085,"is_reserved":false,"is_disabled":false,"rental_uris":{"android":"levelo://app?vid=8f64ab4c-e41b-42bc-8b04-fd401c60b361","ios":"levelo://app?vid=8f64ab4c-e41b-42bc-8b04-fd401c60b361"},"vehicle_type_id":"4","last_reported":1700460602,"current_range_meters":31200,"station_id":"ce4bho92rcd13ifvqh4g","pricing_plan_id":"free"},{"bike_id":"26e38500-cf06-412c-84c9-f57ade123ddf","system_id":"levelo_inurba_marseille","lat":43.279938,"lon":5.400163,"is_reserved":false,"is_disabled":false,"rental_uris":{"android":"levelo://app?vid=26e38500-cf06-412c-84c9-f57ade123ddf","ios":"levelo://app?vid=26e38500-cf06-412c-84c9-f57ade123ddf"},"vehicle_type_id":"4","last_reported":1700460602,"current_range_meters":31200,"station_id":"ce4bho92rcd13ifvqh4g","pricing_plan_id":"free"},{"bike_id":"09598e6a-b738-4f12-ac60-d1462555796f","system_id":"levelo_inurba_marseille","lat":43.279952,"lon":5.400085,"is_reserved":false,"is_disabled":false,"rental_uris":{"android":"levelo://app?vid=09598e6a-b738-4f12-ac60-d1462555796f","ios":"levelo://app?vid=09598e6a-b738-4f12-ac60-d1462555796f"},"vehicle_type_id":"4","last_reported":1700460602,"current_range_meters":31200,"station_id":"ce4bho92rcd13ifvqh4g","pricing_plan_id":"free"},{"bike_id":"130d76e3-8fce-46cb-8cc7-0c8a4297873b","system_id":"levelo_inurba_marseille","lat":43.310785,"lon":5.424305,"is_reserved":false,"is_disabled":false,"rental_uris":{"android":"levelo://app?vid=130d76e3-8fce-46cb-8cc7-0c8a4297873b","ios":"levelo://app?vid=130d76e3-8fce-46cb-8cc7-0c8a4297873b"},"vehicle_type_id":"4","last_reported":1700460602,"current_range_meters":28000,"station_id":"ce4bhp92rcd13ifvqhag","pricing_plan_id":"free"},