{"last_updated":1722265737,"ttl":30,"version":"2.2","data":{"bikes":[{"bike_id":"def5710e-d266-4f5d-9f1f-fd3103fccbef","system_id":"levelo_inurba_marseille","lat":43.31243,"lon":5.36825,"is_reserved":false,"is_disabled":false,"rental_uris":{"android":"levelo://app?vid=def5710e-d266-4f5d-9f1f-fd3103fccbef","ios":"levelo://app?vid=def5710e-d266-4f5d-9f1f-fd3103fccbef"},"vehicle_type_id":"4","last_reported":1722265737,"current_range_meters":2800,"station_id":"","pricing_plan_id":"cebpf4jnsgd1na2vs0mg"},{"bike_id":"0d91ebec-4c3e-47e2-9ffd-302d651857a7","system_id":"levelo_inurba_marseille","lat":43.309076,"lon":5.368465,"is_reserved":false,"is_disabled":false,"rental_uris":{"android":"levelo://app?vid=0d91ebec-4c3e-47e2-9ffd-302d651857a7","ios":"levelo://app?vid=0d91ebec-4c3e-47e2-9ffd-302d651857a7"},"vehicle_type_id":"4","last_reported":1722265737,"current_range_meters":30000,"station_id":"ce4bgn92rcd13ifvqbvg","pricing_plan_id":"cebpf4jnsgd1na2vs0mg"},{"bike_id":"f7fa121c-7872-4468-a99c-9a2ae668c4a9","system_id":"levelo_inurba_marseille","lat":43.309076,"lon":5.368465,"is_reserved":false,"is_disabled":false,"rental_uris":{"android":"levelo://app?vid=f7fa121c-7872-4468-a99c-9a2ae668c4a9","ios":"levelo://app?vid=f7fa121c-7872-4468-a99c-9a2ae668c4a9"},"vehicle_type_id":"4","last_reported":1722265737,"current_range_meters":24800,"station_id":"ce4bgn92rcd13ifvqbvg","pricing_plan_id":"cebpf4jnsgd1na2vs0mg"},{"bike_id":"b359361d-fd1d-480b-923f-e742fd8d521c","system_id":"levelo_inurba_marseille","lat":43.309076,"lon":5.368465,"is_reserved":false,"is_disabled":false,"rental_uris":{"android":"levelo://app?vid=b359361d-fd1d-480b-923f-e742fd8d521c","ios":"levelo://app?vid=b359361d-fd1d-480b-923f-e742fd8d521c"},"vehicle_type_id":"4","last_reported":1722265737,"current_range_meters":31200,"station_id":"ce4bgn92rcd13ifvqbvg","pricing_plan_id":"cebpf4jnsgd1na2vs0mg"},{"bike_id":"53d9efac-a4a8-4af5-9c5b-7ceb03eb2801","system_id":"levelo_inurba_marseille","lat":43.309076,"lon":5.368465,"is_reserved":false,"is_disabled":false,"rental_uris":{"android":"levelo://app?vid=53d9efac-a4a8-4af5-9c5b-7ceb03eb2801","ios":"levelo://app?vid=53d9efac-a4a8-4af5-9c5b-7ceb03eb2801"},"vehicle_type_id":"4","last_reported":1722265737,"current_range_meters":22800,"station_id":"ce4bgn92rcd13ifvqbvg","pricing_plan_id":"cebpf4jnsgd1na2vs0mg"},{"bike_id":"bdb62666-edd9-40e4-93e7-767506dfe714","system_id":"levelo_inurba_marseille","lat":43.30904,"lon":5.36849,"is_reserved":false,"is_disabled":false,"rental_uris":{"android":"levelo://app?vid=bdb62666-edd9-40e4-93e7-767506dfe714","ios":"levelo://app?vid=bdb62666-edd9-40e4-93e7-767506dfe714"},"vehicle_type_id":"4","last_reported":1722265737,"current_range_meters":31200,"station_id":"ce4bgn92rcd13ifvqbvg","pricing_plan_id":"cebpf4jnsgd1na2vs0mg"},{"bike_id":"d88eb206-c7bc-43a0-bb07-71b94267363c","system_id":"levelo_inurba_marseille","lat":43.309076,"lon":5.368465,"is_reserved":false,"is_disabled":false,"rental_uris":{"android":"levelo://app?vid=d88eb206-c7bc-43a0-bb07-71b94267363c","ios":"levelo://app?vid=d88eb206-c7bc-43a0-bb07-71b94267363c"},"vehicle_type_id":"4","last_reported":1722265737,"current_range_meters":2800,"station_id":"ce4bgn92rcd13ifvqbvg","pricing_plan_id":"cebpf4jnsgd1na2vs0mg"},{"bike_id":"2c4abadc-638d-46e4-ab30-12f4e0b6aa45","system_id":"levelo_inurba_marseille","lat":43.309076,"lon":5.368465,"is_reserved":false,"is_disabled":false,"rental_uris":{"android":"levelo://app?vid=2c4abadc-638d-46e4-ab30-12f4e0b6aa45","ios":"levelo://app?vid=2c4abadc-638d-46e4-ab30-12f4e0b6aa45"},"vehicle_type_id":"4","last_reported":1722265737,"current_range_meters":26000,"station_id":"ce4bgn92rcd13ifvqbvg","pricing_plan_id":"cebpf4jnsgd1na2vs0mg"},{"bike_id":"ade63b5e-3821-4b0c-86d6-f1284ae6d005","system_id":"levelo_inurba_marseille","lat":43.314811,"lon":5.373103,"is_reserved":false,"is_disabled":false,"rental_uris":{"android":"levelo://app?vid=ade63b5e-3821-4b0c-86d6-f1284ae6d005","ios":"levelo://app?vid=ade63b5e-3821-4b0c-86d6-f1284ae6d005"},"vehicle_type_id":"4","last_reported":1722265737,"current_range_meters":11200,"station_id":"ce4bgt12rcd13ifvqcd0","pricing_plan_id":"cebpf4jnsgd1na2vs0mg"},{"bike_id":"00bfdede-eb7f-4155-8100-2dcc0cec45b9","system_id":"levelo_inurba_marseille","lat":43.314922,"lon":5.373086,"is_reserved":false,"is_disabled":false,"rental_uris":{"android":"levelo://app?vid=00bfdede-eb7f-4155-8100-2dcc0cec45b9","ios":"levelo://app?vid=00bfdede-eb7f-4155-8100-2dcc0cec45b9"},"vehicle_type_id":"4","last_reported":1722265737,"current_range_meters":8800,"station_id":"","pricing_plan_id":"cebpf4jnsgd1na2vs0mg"},{"bike_id":"aed48a50-484f-4476-8a9f-8847b68245c6","system_id":"levelo_inurba_marseille","lat":43.309039,"lon":5.371797,"is_reserved":false,"is_disabled":false,"rental_uris":{"android":"levelo://app?vid=aed48a50-484f-4476-8a9f-8847b68245c6","ios":"levelo://app?vid=aed48a50-484f-4476-8a9f-8847b68245c6"},"vehicle_type_id":"4","last_reported":1722265737,"current_range_meters":30400,"station_id":"ce4bguh2rcd13ifvqckg","pricing_plan_id":"cebpf4jnsgd1na2vs0mg"},{"bike_id":"77fefa5e-6430-44be-871d-add52f1d7d61","system_id":"levelo_inurba_marseille","lat":43.30685,"lon":5.372127,"is_reserved":false,"is_disabled":false,"rental_uris":{"android":"levelo://app?vid=77fefa5e-6430-44be-871d-add52f1d7d61","ios":"levelo://app?vid=77fefa5e-6430-44be-871d-add52f1d7d61"},"vehicle_type_id":"4","last_reported":1722265737,"current_range_meters":28800,"station_id":"","pricing_plan_id":"cebpf4jnsgd1na2vs0mg"},{"bike_id":"f72868bd-906d-48ed-b188-3cd83e49ac92","system_id":"levelo_inurba_marseille","lat":43.311125,"lon":5.377624,"is_reserved":false,"is_disabled":false,"rental_uris":{"android":"levelo://app?vid=f72868bd-906d-48ed-b188-3cd83e49ac92","ios":"levelo://app?vid=f72868bd-906d-48ed-b188-3cd83e49ac92"},"vehicle_type_id":"4","last_reported":1722265737,"current_range_meters":24800,"station_id":"ce4bgt92rcd13ifvqcg0","pricing_plan_id":"cebpf4jnsgd1na2vs0mg"},{"bike_id":"60309161-19d8-4dab-910c-311ce55e4f71","system_id":"levelo_inurba_marseille","lat":43.308544,"lon":5.376228,"is_reserved":false,"is_disabled":false,"rental_uris":{"android":"levelo://app?vid=60309161-19d8-4dab-910c-311ce55e4f71","ios":"levelo://app?vid=60309161-19d8-4dab-910c-311ce55e4f71"},"vehicle_type_id":"4","last_reported":1722265737,"current_range_meters":14000,"station_id":"","pricing_plan_id":"cebpf4jnsgd1na2vs0mg"},{"bike_id":"5484b4fe-4e05-4184-a129-b0c83c338f82","system_id":"levelo_inurba_marseille","lat":43.311125,"lon":5.377624,"is_reserved":false,"is_disabled":false,"rental_uris":{"android":"levelo://app?vid=5484b4fe-4e05-4184-a129-b0c83c338f82","ios":"levelo://app?vid=5484b4fe-4e05-4184-a129-b0c83c338f82"},"vehicle_type_id":"4","last_reported":1722265737,"current_range_meters":19600,"station_id":"ce4bgt92rcd13ifvqcg0","pricing_plan_id":"cebpf4jnsgd1na2vs0mg"},{"bike_id":"dd0c037f-1878-433d-a3d4-c976c87af073","system_id":"levelo_inurba_marseille","lat":43.311125,"lon":5.377624,"is_reserved":false,"is_disabled":false,"rental_uris":{"android":"levelo://app?vid=dd0c037f-1878-433d-a3d4-c976c87af073","ios":"levelo://app?vid=dd0c037f-1878-433d-a3d4-c976c87af073"},"vehicle_type_id":"4","last_reported":1722265737,"current_range_meters":0,"station_id":"ce4bgt92rcd13ifvqcg0","pricing_plan_id":"cebpf4jnsgd1na2vs0mg"},{"bike_id":"c2ec89c9-420d-412f-82cc-e02191e0c7dd","system_id":"levelo_inurba_marseille","lat":43.307945,"lon":5.376487,"is_reserved":false,"is_disabled":false,"rental_uris":{"android":"levelo://app?vid=c2ec89c9-420d-412f-82cc-e02191e0c7dd","ios":"levelo://app?vid=c2ec89c9-420d-412f-82cc-e02191e0c7dd"},"vehicle_type_id":"4","last_reported":1722265737,"current_range_meters":9600,"station_id":"ce4bgv92rcd13ifvqcq0","pricing_plan_id":"cebpf4jnsgd1na2vs0mg"},{"bike_id":"8a2c5eae-ecdf-47b0-97d6-5e8edd806dbb","system_id":"levelo_inurba_marseille","lat":43.310955,"lon":5.379468,"is_reserved":false,"is_disabled":false,"rental_uris":{"android":"levelo://app?vid=8a2c5eae-ecdf-47b0-97d6-5e8edd806dbb","ios":"levelo://app?vid=8a2c5eae-ecdf-47b0-97d6-5e8edd806dbb"},"vehicle_type_id":"4","last_reported":1722265737,"current_range_meters":28000,"station_id":"","pricing_plan_id":"cebpf4jnsgd1na2vs0mg"},{"bike_id":"7453dbed-bcae-4309-a196-26f300ff86ed","system_id":"levelo_inurba_marseille","lat":43.315289,"lon":5.380349,"is_reserved":false,"is_disabled":false,"rental_uris":{"android":"levelo://app?vid=7453dbed-bcae-4309-a196-26f300ff86ed","ios":"levelo://app?vid=7453dbed-bcae-4309-a196-26f300ff86ed"},"vehicle_type_id":"4","last_reported":1722265737,"current_range_meters":8400,"station_id":"ce4bhsp2rcd13ifvqi50","pricing_plan_id":"cebpf4jnsgd1na2vs0mg"},{"bike_id":"640b45ff-90c3-47bf-974b-b5447feefc5d","system_id":"levelo_inurba_marseille","lat":43.31548,"lon":5.38058,"is_reserved":false,"is_disabled":false,"rental_uris":{"android":"levelo://app?vid=640b45ff-90c3-47bf-974b-b5447feefc5d","ios":"levelo://app?vid=640b45ff-90c3-47bf-974b-b5447feefc5d"},"vehicle_type_id":"4","last_reported":1722265737,"current_range_meters":16000,"station_id":"ce4bhsp2rcd13ifvqi50","pricing_plan_id":"cebpf4jnsgd1na2vs0mg"},{"bike_id":"5b49682f-f21f-4335-a83c-c7d559f3c586","system_id":"levelo_inurba_marseille","lat":43.30192,"lon":5.36631,"is_reserved":false,"is_disabled":false,"rental_uris":{"android":"levelo://app?vid=5b49682f-f21f-4335-a83c-c7d559f3c586","ios":"levelo://app?vid=5b49682f-f21f-4335-a83c-c7d559f3c586"},"vehicle_type_id":"4","last_reported":1722265737,"current_range_meters":25200,"station_id":"ce4bgrh2rcd13ifvqc8g","pricing_plan_id":"cebpf4jnsgd1na2vs0mg"},{"bike_id":"8f41987b-7a5a-4494-aa33-c6e5c1f7ed7b","system_id":"levelo_inurba_marseille","lat":43.301939,"lon":5.366286,"is_reserved":false,"is_disabled":false,"rental_uris":{"android":"levelo://app?vid=8f41987b-7a5a-4494-aa33-c6e5c1f7ed7b","ios":"levelo://app?vid=8f41987b-7a5a-4494-aa33-c6e5c1f7ed7b"},"vehicle_type_id":"4","last_reported":1722265737,"current_range_meters":19200,"station_id":"ce4bgrh2rcd13ifvqc8g","pricing_plan_id":"cebpf4jnsgd1na2vs0mg"},{"bike_id":"97da47e5-31f3-409a-93af-66ebc9dd846e","system_id":"levelo_inurba_marseille","lat":43.306035,"lon":5.380096,"is_reserved":false,"is_disabled":false,"rental_uris":{"android":"levelo://app?vid=97da47e5-31f3-409a-93af-66ebc9dd846e","ios":"levelo://app?vid=97da47e5-31f3-409a-93af-66ebc9dd846e"},"vehicle_type_id":"4","last_reported":1722265737,"current_range_meters":10000,"station_id":"","pricing_plan_id":"cebpf4jnsgd1na2vs0mg"},{"bike_id":"eb741ba1-a89e-488a-b605-31985469bd4f","system_id":"levelo_inurba_marseille","lat":43.304606,"lon":5.379026,"is_reserved":false,"is_disabled":false,"rental_uris":{"android":"levelo://app?vid=eb741ba1-a89e-488a-b605-31985469bd4f","ios":"levelo://app?vid=eb741ba1-a89e-488a-b605-31985469bd4f"},"vehicle_type_id":"4","last_reported":1722265737,"current_range_meters":0,"station_id":"ce4bgup2rcd13ifvqcn0","pricing_plan_id":"cebpf4jnsgd1na2vs0mg"},{"bike_id":"a578b6c5-8cf3-4b17-9381-8cc8bc665553","system_id":"levelo_inurba_marseille","lat":43.324771,"lon":5.36557,"is_reserved":false,"is_disabled":false,"rental_uris":{"android":"levelo://app?vid=a578b6c5-8cf3-4b17-9381-8cc8bc665553","ios":"levelo://app?vid=a578b6c5-8cf3-4b17-9381-8cc8bc665553"},"vehicle_type_id":"4","last_reported":1722265737,"current_range_meters":18800,"station_id":"ce4bhs12rcd13ifvqhvg","pricing_plan_id":"cebpf4jnsgd1na2vs0mg"},{"bike_id":"188a547f-057e-4867-8b9f-9b7f5e87fd4c","system_id":"levelo_inurba_marseille","lat":43.324771,"lon":5.36557,"is_reserved":false,"is_disabled":false,"rental_uris":{"android":"levelo://app?vid=188a547f-057e-4867-8b9f-9b7f5e87fd4c","ios":"levelo://app?vid=188a547f-057e-4867-8b9f-9b7f5e87fd4c"},"vehicle_type_id":"4","last_reported":1722265737,"current_range_meters":8000,"station_id":"ce4bhs12rcd13ifvqhvg","pricing_plan_id":"cebpf4jnsgd1na2vs0mg"},{"bike_id":"40ee0094-b220-4bf6-8263-fbc75a01aa8a","system_id":"levelo_inurba_marseille","lat":43.3248,"lon":5.36585,"is_reserved":false,"is_disabled":false,"rental_uris":{"android":"levelo://app?vid=40ee0094-b220-4bf6-8263-fbc75a01aa8a","ios":"levelo://app?vid=40ee0094-b220-4bf6-8263-fbc75a01aa8a"},"vehicle_type_id":"4","last_reported":1722265737,"current_range_meters":24000,"station_id":"ce4bhs12rcd13ifvqhvg","pricing_plan_id":"cebpf4jnsgd1na2vs0mg"},{"bike_id":"655fc802-d0e6-4b06-ab06-21a145e6698f","system_id":"levelo_inurba_marseille","lat":43.324771,"lon":5.36557,"is_reserved":false,"is_disabled":false,"rental_uris":{"android":"levelo://app?vid=655fc802-d0e6-4b06-ab06-21a145e6698f","ios":"levelo://app?vid=655fc802-d0e6-4b06-ab06-21a145e6698f"},"vehicle_type_id":"4","last_reported":1722265737,"current_range_meters":32000,"station_id":"ce4bhs12rcd13ifvqhvg","pricing_plan_id":"cebpf4jnsgd1na2vs0mg"},{"bike_id":"cf2295fe-e9a5-4fa3-992d-424feac9b7ac","system_id":"levelo_inurba_marseille","lat":43.3248,"lon":5.36582,"is_reserved":false,"is_disabled":false,"rental_uris":{"android":"levelo://app?vid=cf2295fe-e9a5-4fa3-992d-424feac9b7ac","ios":"levelo://app?vid=cf2295fe-e9a5-4fa3-992d-424feac9b7ac"},"vehicle_type_id":"4","last_reported":1722265737,"current_range_meters":7200,"station_id":"ce4bhs12rcd13ifvqhvg","pricing_plan_id":"cebpf4jnsgd1na2vs0mg"},{"bike_id":"5cb11c86-dec1-4ef0-b36d-e5b33b711230","system_id":"levelo_inurba_marseille","lat":43.324771,"lon":5.36557,"is_reserved":false,"is_disabled":false,"rental_uris":{"android":"levelo://app?vid=5cb11c86-dec1-4ef0-b36d-e5b33b711230","ios":"levelo://app?vid=5cb11c86-dec1-4ef0-b36d-e5b33b711230"},"vehicle_type_id":"4","last_reported":1722265737,"current_range_meters":15600,"station_id":"ce4bhs12rcd13ifvqhvg","pricing_plan_id":"cebpf4jnsgd1na2vs0mg"},{"bike_id":"38b017ec-053e-4e70-a8ba-873be27e4790","system_id":"levelo_inurba_marseille","lat":43.324771,"lon":5.36557,"is_reserved":false,"is_disabled":false,"rental_uris":{"android":"levelo://app?vid=38b017ec-053e-4e70-a8ba-873be27e4790","ios":"levelo://app?vid=38b017ec-053e-4e70-a8ba-873be27e4790"},"vehicle_type_id":"4","last_reported":1722265737,"current_range_meters":31200,"station_id":"ce4bhs12rcd13ifvqhvg","pricing_plan_id":"cebpf4jnsgd1na2vs0mg"},{"bike_id":"abad09fd-a54b-4639-9948-e20cfd0eac77","system_id":"levelo_inurba_marseille","lat":43.324771,"lon":5.36557,"is_reserved":false,"is_disabled":false,"rental_uris":{"android":"levelo://app?vid=abad09fd-a54b-4639-9948-e20cfd0eac77","ios":"levelo://app?vid=abad09fd-a54b-4639-9948-e20cfd0eac77"},"vehicle_type_id":"4","last_reported":1722265737,"current_range_meters":28000,"station_id":"ce4bhs12rcd13ifvqhvg","pricing_plan_id":"cebpf4jnsgd1na2vs0mg"},{"bike_id":"cc299a00-967f-4730-9e52-33f4589166b6","system_id":"levelo_inurba_marseille","lat":43.324771,"lon":5.36557,"is_reserved":false,"is_disabled":false,"rental_uris":{"android":"levelo://app?vid=cc299a00-967f-4730-9e52-33f4589166b6","ios":"levelo://app?vid=cc299a00-967f-4730-9e52-33f4589166b6"},"vehicle_type_id":"4","last_reported":1722265737,"current_range_meters":4000,"station_id":"ce4bhs12rcd13ifvqhvg","pricing_plan_id":"cebpf4jnsgd1na2vs0mg"},{"bike_id":"a1747e0f-f488-465d-ac4e-12e53561eabc","system_id":"levelo_inurba_marseille","lat":43.324771,"lon":5.36557,"is_reserved":false,"is_disabled":false,"rental_uris":{"android":"levelo://app?vid=a1747e0f-f488-465d-ac4e-12e53561eabc","ios":"levelo://app?vid=a1747e0f-f488-465d-ac4e-12e53561eabc"},"vehicle_type_id":"4","last_reported":1722265737,"current_range_meters":31200,"station_id":"ce4bhs12rcd13ifvqhvg","pricing_plan_id":"cebpf4jnsgd1na2vs0mg"},{"bike_id":"3462917e-4878-4e24-88ae-a7149e833e3d","system_id":"levelo_inurba_marseille","lat":43.324771,"lon":5.36557,"is_reserved":false,"is_disabled":false,"rental_uris":{"android":"levelo://app?vid=3462917e-4878-4e24-88ae-a7149e833e3d","ios":"levelo://app?vid=3462917e-4878-4e24-88ae-a7149e833e3d"},"vehicle_type_id":"4","last_reported":1722265737,"current_range_meters":4400,"station_id":"ce4bhs12rcd13ifvqhvg","pricing_plan_id":"cebpf4jnsgd1na2vs0mg"},{"bike_id":"0da5c3f5-c802-4329-973e-05e47c531157","system_id":"levelo_inurba_marseille","lat":43.324771,"lon":5.36557,"is_reserved":false,"is_disabled":false,"rental_uris":{"android":"levelo://app?vid=0da5c3f5-c802-4329-973e-05e47c531157","ios":"levelo://app?vid=0da5c3f5-c802-4329-973e-05e47c531157"},"vehicle_type_id":"4","last_reported":1722265737,"current_range_meters":13200,"station_id":"ce4bhs12rcd13ifvqhvg","pricing_plan_id":"cebpf4jnsgd1na2vs0mg"},{"bike_id":"5ee9c06a-c4ca-4c9a-8a6d-014c26b0e602","system_id":"levelo_inurba_marseille","lat":43.324771,"lon":5.36557,"is_reserved":false,"is_disabled":false,"rental_uris":{"android":"levelo://app?vid=5ee9c06a-c4ca-4c9a-8a6d-014c26b0e602","ios":"levelo://app?vid=5ee9c06a-c4ca-4c9a-8a6d-014c26b0e602"},"vehicle_type_id":"4","last_reported":1722265737,"current_range_meters":2800,"station_id":"ce4bhs12rcd13ifvqhvg","pricing_plan_id":"cebpf4jnsgd1na2vs0mg"},{"bike_id":"49860981-7a83-48d6-a020-1e29391611d2","system_id":"levelo_inurba_marseille","lat":43.319935,"lon":5.381699,"is_reserved":false,"is_disabled":false,"rental_uris":{"android":"levelo://app?vid=49860981-7a83-48d6-a020-1e29391611d2","ios":"levelo://app?vid=49860981-7a83-48d6-a020-1e29391611d2"},"vehicle_type_id":"4","last_reported":1722265737,"current_range_meters":29600,"station_id":"ce4bhr12rcd13ifvqhpg","pricing_plan_id":"cebpf4jnsgd1na2vs0mg"},{"bike_id":"0531df55-6c72-4514-9989-c865d79bfefd","system_id":"levelo_inurba_marseille","lat":43.31996,"lon":5.38154,"is_reserved":false,"is_disabled":false,"rental_uris":{"android":"levelo://app?vid=0531df55-6c72-4514-9989-c865d79bfefd","ios":"levelo://app?vid=0531df55-6c72-4514-9989-c865d79bfefd"},"vehicle_type_id":"4","last_reported":1722265737,"current_range_meters":30000,"station_id":"ce4bhr12rcd13ifvqhpg","pricing_plan_id":"cebpf4jnsgd1na2vs0mg"},{"bike_id":"fce032b0-93fa-4089-be7a-381e21bb6280","system_id":"levelo_inurba_marseille","lat":43.299724,"lon":5.371829,"is_reserved":false,"is_disabled":false,"rental_uris":{"android":"levelo://app?vid=fce032b0-93fa-4089-be7a-381e21bb6280","ios":"levelo://app?vid=fce032b0-93fa-4089-be7a-381e21bb6280"},"vehicle_type_id":"4","last_reported":1722265737,"current_range_meters":30800,"station_id":"ce4bgr92rcd13ifvqc7g","pricing_plan_id":"cebpf4jnsgd1na2vs0mg"},{"bike_id":"8a9fcde1-0a55-4921-a59f-392fa0c9f392","system_id":"levelo_inurba_marseille","lat":43.299724,"lon":5.371829,"is_reserved":false,"is_disabled":false,"rental_uris":{"android":"levelo://app?vid=8a9fcde1-0a55-4921-a59f-392fa0c9f392","ios":"levelo://app?vid=8a9fcde1-0a55-4921-a59f-392fa0c9f392"},"vehicle_type_id":"4","last_reported":1722265737,"current_range_meters":5200,"station_id":"ce4bgr92rcd13ifvqc7g","pricing_plan_id":"cebpf4jnsgd1na2vs0mg"},{"bike_id":"1be575e7-01f7-41c0-ad72-ac77f0083a25","system_id":"levelo_inurba_marseille","lat":43.29851,"lon":5.36289,"is_reserved":false,"is_disabled":false,"rental_uris":{"android":"levelo://app?vid=1be575e7-01f7-41c0-ad72-ac77f0083a25","ios":"levelo://app?vid=1be575e7-01f7-41c0-ad72-ac77f0083a25"},"vehicle_type_id":"4","last_reported":1722265737,"current_range_meters":22800,"station_id":"ce4bgpp2rcd13ifvqc3g","pricing_plan_id":"cebpf4jnsgd1na2vs0mg"},{"bike_id":"09d4f235-cb64-4aa8-b347-a9be72a8f24a","system_id":"levelo_inurba_marseille","lat":43.29852,"lon":5.36275,"is_reserved":false,"is_disabled":false,"rental_uris":{"android":"levelo://app?vid=09d4f235-cb64-4aa8-b347-a9be72a8f24a","ios":"levelo://app?vid=09d4f235-cb64-4aa8-b347-a9be72a8f24a"},"vehicle_type_id":"4","last_reported":1722265737,"current_range_meters":29600,"station_id":"ce4bgpp2rcd13ifvqc3g","pricing_plan_id":"cebpf4jnsgd1na2vs0mg"},{"bike_id":"82402329-e909-4585-9c95-95cd8c835e53","system_id":"levelo_inurba_marseille","lat":43.305364,"lon":5.384119,"is_reserved":false,"is_disabled":false,"rental_uris":{"android":"levelo://app?vid=82402329-e909-4585-9c95-95cd8c835e53","ios":"levelo://app?vid=82402329-e909-4585-9c95-95cd8c835e53"},"vehicle_type_id":"4","last_reported":1722265737,"current_range_meters":26000,"station_id":"ce4bgg92rcd13ifvqb30","pricing_plan_id":"cebpf4jnsgd1na2vs0mg"},{"bike_id":"b4470ea4-8872-45e2-bcc8-19058d387b60","system_id":"levelo_inurba_marseille","lat":43.31172,"lon":5.38715,"is_reserved":false,"is_disabled":false,"rental_uris":{"android":"levelo://app?vid=b4470ea4-8872-45e2-bcc8-19058d387b60","ios":"levelo://app?vid=b4470ea4-8872-45e2-bcc8-19058d387b60"},"vehicle_type_id":"4","last_reported":1722265737,"current_range_meters":0,"station_id":"ce4bgv12rcd13ifvqcp0","pricing_plan_id":"cebpf4jnsgd1na2vs0mg"},{"bike_id":"0342fdb3-5ae9-4c8c-b13f-b314e2c9dc29","system_id":"levelo_inurba_marseille","lat":43.311722,"lon":5.387247,"is_reserved":false,"is_disabled":false,"rental_uris":{"android":"levelo://app?vid=0342fdb3-5ae9-4c8c-b13f-b314e2c9dc29","ios":"levelo://app?vid=0342fdb3-5ae9-4c8c-b13f-b314e2c9dc29"},"vehicle_type_id":"4","last_reported":1722265737,"current_range_meters":29200,"station_id":"ce4bgv12rcd13ifvqcp0","pricing_plan_id":"cebpf4jnsgd1na2vs0mg"},{"bike_id":"60fdca0d-5d8b-4d2c-a892-4dcc3626d926","system_id":"levelo_inurba_marseille","lat":43.311722,"lon":5.387247,"is_reserved":false,"is_disabled":false,"rental_uris":{"android":"levelo://app?vid=60fdca0d-5d8b-4d2c-a892-4dcc3626d926","ios":"levelo://app?vid=60fdca0d-5d8b-4d2c-a892-4dcc3626d926"},"vehicle_type_id":"4","last_reported":1722265737,"current_range_meters":20000,"station_id":"ce4bgv12rcd13ifvqcp0","pricing_plan_id":"cebpf4jnsgd1na2vs0mg"},{"bike_id":"2b8435d3-2a96-4e20-b541-268eb9a6d68e","system_id":"levelo_inurba_marseille","lat":43.30162,"lon":5.38094,"is_reserved":false,"is_disabled":false,"rental_uris":{"android":"levelo://app?vid=2b8435d3-2a96-4e20-b541-268eb9a6d68e","ios":"levelo://app?vid=2b8435d3-2a96-4e20-b541-268eb9a6d68e"},"vehicle_type_id":"4","last_reported":1722265737,"current_range_meters":0,"station_id":"","pricing_plan_id":"cebpf4jnsgd1na2vs0mg"},{"bike_id":"b8fc2f32-9c7f-4b76-82fb-afbfc07733e6","system_id":"levelo_inurba_marseille","lat":43.3015,"lon":5.38082,"is_reserved":false,"is_disabled":false,"rental_uris":{"android":"levelo://app?vid=b8fc2f32-9c7f-4b76-82fb-afbfc07733e6","ios":"levelo://app?vid=b8fc2f32-9c7f-4b76-82fb-afbfc07733e6"},"vehicle_type_id":"4","last_reported":1722265737,"current_range_meters":24800,"station_id":"","pricing_plan_id":"cebpf4jnsgd1na2vs0mg"},{"bike_id":"7b81a626-f2f9-4612-ad70-7118fc386087","system_id":"levelo_inurba_marseille","lat":43.301535,"lon":5.380887,"is_reserved":false,"is_disabled":false,"rental_uris":{"android":"levelo://app?vid=7b81a626-f2f9-4612-ad70-7118fc386087","ios":"levelo://app?vid=7b81a626-f2f9-4612-ad70-7118fc386087"},"vehicle_type_id":"4","last_reported":1722265737,"current_range_meters":0,"station_id":"","pricing_plan_id":"cebpf4jnsgd1na2vs0mg"},{"bike_id":"4439596d-c1ee-4863-a418-9f0168a23a6a","system_id":"levelo_inurba_marseille","lat":43.297794,"lon":5.370888,"is_reserved":false,"is_disabled":false,"rental_uris":{"android":"levelo://app?vid=4439596d-c1ee-4863-a418-9f0168a23a6a","ios":"levelo://app?vid=4439596d-c1ee-4863-a418-9f0168a23a6a"},"vehicle_type_id":"4","last_reported":1722265737,"current_range_meters":6000,"station_id":"ce4bgop2rcd13ifvqc1g","pricing_plan_id":"cebpf4jnsgd1na2vs0mg"},{"bike_id":"71557738-556d-4365-9ced-93de6b0c5e26","system_id":"levelo_inurba_marseille","lat":43.322872,"lon":5.382756,"is_reserved":false,"is_disabled":false,"rental_uris":{"android":"levelo://app?vid=71557738-556d-4365-9ced-93de6b0c5e26","ios":"levelo://app?vid=71557738-556d-4365-9ced-93de6b0c5e26"},"vehicle_type_id":"4","last_reported":1722265737,"current_range_meters":22800,"station_id":"ce4bhr12rcd13ifvqhqg","pricing_plan_id":"cebpf4jnsgd1na2vs0mg"},{"bike_id":"eeee6de8-3c03-4b07-9df0-cc7b7076def6","system_id":"levelo_inurba_marseille","lat":43.322872,"lon":5.382756,"is_reserved":false,"is_disabled":false,"rental_uris":{"android":"levelo://app?vid=eeee6de8-3c03-4b07-9df0-cc7b7076def6","ios":"levelo://app?vid=eeee6de8-3c03-4b07-9df0-cc7b7076def6"},"vehicle_type_id":"4","last_reported":1722265737,"current_range_meters":27600,"station_id":"ce4bhr12rcd13ifvqhqg","pricing_plan_id":"cebpf4jnsgd1na2vs0mg"},{"bike_id":"9266143a-9546-4c26-9e06-b1ecc4abae8a","system_id":"levelo_inurba_marseille","lat":43.30075,"lon":5.38124,"is_reserved":false,"is_disabled":false,"rental_uris":{"android":"levelo://app?vid=9266143a-9546-4c26-9e06-b1ecc4abae8a","ios":"levelo://app?vid=9266143a-9546-4c26-9e06-b1ecc4abae8a"},"vehicle_type_id":"4","last_reported":1722265737,"current_range_meters":10400,"station_id":"","pricing_plan_id":"cebpf4jnsgd1na2vs0mg"},{"bike_id":"fb6712f6-e3d2-4e70-9a10-260796e0336d","system_id":"levelo_inurba_marseille","lat":43.325941,"lon":5.379713,"is_reserved":false,"is_disabled":false,"rental_uris":{"android":"levelo://app?vid=fb6712f6-e3d2-4e70-9a10-260796e0336d","ios":"levelo://app?vid=fb6712f6-e3d2-4e70-9a10-260796e0336d"},"vehicle_type_id":"4","last_reported":1722265737,"current_range_meters":12000,"station_id":"","pricing_plan_id":"cebpf4jnsgd1na2vs0mg"},{"bike_id":"01906cef-ebe3-4cff-8cb6-fc22e1cc2d4e","system_id":"levelo_inurba_marseille","lat":43.2976,"lon":5.37666,"is_reserved":false,"is_disabled":false,"rental_uris":{"android":"levelo://app?vid=01906cef-ebe3-4cff-8cb6-fc22e1cc2d4e","ios":"levelo://app?vid=01906cef-ebe3-4cff-8cb6-fc22e1cc2d4e"},"vehicle_type_id":"4","last_reported":1722265737,"current_range_meters":10800,"station_id":"","pricing_plan_id":"cebpf4jnsgd1na2vs0mg"},{"bike_id":"958d3f2a-4aac-474e-b203-5058abf1690a","system_id":"levelo_inurba_marseille","lat":43.29573,"lon":5.367355,"is_reserved":false,"is_disabled":false,"rental_uris":{"android":"levelo://app?vid=958d3f2a-4aac-474e-b203-5058abf1690a","ios":"levelo://app?vid=958d3f2a-4aac-474e-b203-5058abf1690a"},"vehicle_type_id":"4","last_reported":1722265737,"current_range_meters":1600,"station_id":"ce4bgph2rcd13ifvqc2g","pricing_plan_id":"cebpf4jnsgd1na2vs0mg"},{"bike_id":"fcb772f0-3f3f-4af9-96d7-47a82b14b769","system_id":"levelo_inurba_marseille","lat":43.29573,"lon":5.367355,"is_reserved":false,"is_disabled":false,"rental_uris":{"android":"levelo://app?vid=fcb772f0-3f3f-4af9-96d7-47a82b14b769","ios":"levelo://app?vid=fcb772f0-3f3f-4af9-96d7-47a82b14b769"},"vehicle_type_id":"4","last_reported":1722265737,"current_range_meters":14000,"station_id":"ce4bgph2rcd13ifvqc2g","pricing_plan_id":"cebpf4jnsgd1na2vs0mg"},{"bike_id":"834113ad-f76e-47e8-af23-722000872b35","system_id":"levelo_inurba_marseille","lat":43.296131,"lon":5.370791,"is_reserved":false,"is_disabled":false,"rental_uris":{"android":"levelo://app?vid=834113ad-f76e-47e8-af23-722000872b35","ios":"levelo://app?vid=834113ad-f76e-47e8-af23-722000872b35"},"vehicle_type_id":"4","last_reported":1722265737,"current_range_meters":17200,"station_id":"ce4bgnh2rcd13ifvqc0g","pricing_plan_id":"cebpf4jnsgd1na2vs0mg"},{"bike_id":"970ca3ab-15b9-409c-9eeb-0063ed26debc","system_id":"levelo_inurba_marseille","lat":43.231919,"lon":5.355532,"is_reserved":false,"is_disabled":false,"rental_uris":{"android":"levelo://app?vid=970ca3ab-15b9-409c-9eeb-0063ed26debc","ios":"levelo://app?vid=970ca3ab-15b9-409c-9eeb-0063ed26debc"},"vehicle_type_id":"4","last_reported":1722265737,"current_range_meters":31200,"station_id":"ce4bhu92rcd13ifvqi70","pricing_plan_id":"cebpf4jnsgd1na2vs0mg"},{"bike_id":"205de4cc-e00e-4032-a93d-08cd2f19d365","system_id":"levelo_inurba_marseille","lat":43.317557,"lon":5.390173,"is_reserved":false,"is_disabled":false,"rental_uris":{"android":"levelo://app?vid=205de4cc-e00e-4032-a93d-08cd2f19d365","ios":"levelo://app?vid=205de4cc-e00e-4032-a93d-08cd2f19d365"},"vehicle_type_id":"4","last_reported":1722265737,"current_range_meters":24000,"station_id":"ce4bhqp2rcd13ifvqhng","pricing_plan_id":"cebpf4jnsgd1na2vs0mg"},{"bike_id":"fd66631c-f890-4e61-996a-a529363ba03c","system_id":"levelo_inurba_marseille","lat":43.317557,"lon":5.390173,"is_reserved":false,"is_disabled":false,"rental_uris":{"android":"levelo://app?vid=fd66631c-f890-4e61-996a-a529363ba03c","ios":"levelo://app?vid=fd66631c-f890-4e61-996a-a529363ba03c"},"vehicle_type_id":"4","last_reported":1722265737,"current_range_meters":27200,"station_id":"ce4bhqp2rcd13ifvqhng","pricing_plan_id":"cebpf4jnsgd1na2vs0mg"},{"bike_id":"8784ce28-8aab-40c0-984e-6ef10a824125","system_id":"levelo_inurba_marseille","lat":43.317557,"lon":5.390173,"is_reserved":false,"is_disabled":false,"rental_uris":{"android":"levelo://app?vid=8784ce28-8aab-40c0-984e-6ef10a824125","ios":"levelo://app?vid=8784ce28-8aab-40c0-984e-6ef10a824125"},"vehicle_type_id":"4","last_reported":1722265737,"current_range_meters":24400,"station_id":"ce4bhqp2rcd13ifvqhng","pricing_plan_id":"cebpf4jnsgd1na2vs0mg"},{"bike_id":"c0485751-4b36-43f9-8134-78a371e0ca2c","system_id":"levelo_inurba_marseille","lat":43.2958,"lon":5.37519,"is_reserved":false,"is_disabled":false,"rental_uris":{"android":"levelo://app?vid=c0485751-4b36-43f9-8134-78a371e0ca2c","ios":"levelo://app?vid=c0485751-4b36-43f9-8134-78a371e0ca2c"},"vehicle_type_id":"4","last_reported":1722265737,"current_range_meters":27200,"station_id":"ce4bgh92rcd13ifvqb50","pricing_plan_id":"cebpf4jnsgd1na2vs0mg"},{"bike_id":"8cd503ed-7f38-47ec-8894-a0b46c34e729","system_id":"levelo_inurba_marseille","lat":43.295748,"lon":5.37522,"is_reserved":false,"is_disabled":false,"rental_uris":{"android":"levelo://app?vid=8cd503ed-7f38-47ec-8894-a0b46c34e729","ios":"levelo://app?vid=8cd503ed-7f38-47ec-8894-a0b46c34e729"},"vehicle_type_id":"4","last_reported":1722265737,"current_range_meters":19600,"station_id":"ce4bgh92rcd13ifvqb50","pricing_plan_id":"cebpf4jnsgd1na2vs0mg"},{"bike_id":"38b0ade3-23e6-4845-97ae-49abc1c89a00","system_id":"levelo_inurba_marseille","lat":43.295748,"lon":5.37522,"is_reserved":false,"is_disabled":false,"rental_uris":{"android":"levelo://app?vid=38b0ade3-23e6-4845-97ae-49abc1c89a00","ios":"levelo://app?vid=38b0ade3-23e6-4845-97ae-49abc1c89a00"},"vehicle_type_id":"4","last_reported":1722265737,"current_range_meters":1200,"station_id":"ce4bgh92rcd13ifvqb50","pricing_plan_id":"cebpf4jnsgd1na2vs0mg"},{"bike_id":"e78d1a8d-6d57-419e-87e6-ad025e8afe10","system_id":"levelo_inurba_marseille","lat":43.29659,"lon":5.37806,"is_reserved":false,"is_disabled":false,"rental_uris":{"android":"levelo://app?vid=e78d1a8d-6d57-419e-87e6-ad025e8afe10","ios":"levelo://app?vid=e78d1a8d-6d57-419e-87e6-ad025e8afe10"},"vehicle_type_id":"4","last_reported":1722265737,"current_range_meters":26400,"station_id":"","pricing_plan_id":"cebpf4jnsgd1na2vs0mg"},{"bike_id":"84e1f193-0a7f-4c6f-988e-8559dbf29960","system_id":"levelo_inurba_marseille","lat":43.298037,"lon":5.381066,"is_reserved":false,"is_disabled":false,"rental_uris":{"android":"levelo://app?vid=84e1f193-0a7f-4c6f-988e-8559dbf29960","ios":"levelo://app?vid=84e1f193-0a7f-4c6f-988e-8559dbf29960"},"vehicle_type_id":"4","last_reported":1722265737,"current_range_meters":27200,"station_id":"ce4bgip2rcd13ifvqbb0","pricing_plan_id":"cebpf4jnsgd1na2vs0mg"},{"bike_id":"74557361-175d-4cf4-bddc-913d76625507","system_id":"levelo_inurba_marseille","lat":43.29566,"lon":5.37527,"is_reserved":false,"is_disabled":false,"rental_uris":{"android":"levelo://app?vid=74557361-175d-4cf4-bddc-913d76625507","ios":"levelo://app?vid=74557361-175d-4cf4-bddc-913d76625507"},"vehicle_type_id":"4","last_reported":1722265737,"current_range_meters":9600,"station_id":"ce4bgh92rcd13ifvqb50","pricing_plan_id":"cebpf4jnsgd1na2vs0mg"},{"bike_id":"3a9e42f2-224b-4b46-8d7d-1641b4d77d84","system_id":"levelo_inurba_marseille","lat":43.296263,"lon":5.377094,"is_reserved":false,"is_disabled":false,"rental_uris":{"android":"levelo://app?vid=3a9e42f2-224b-4b46-8d7d-1641b4d77d84","ios":"levelo://app?vid=3a9e42f2-224b-4b46-8d7d-1641b4d77d84"},"vehicle_type_id":"4","last_reported":1722265737,"current_range_meters":29600,"station_id":"ce4bgi92rcd13ifvqb90","pricing_plan_id":"cebpf4jnsgd1na2vs0mg"},{"bike_id":"4c9b2a69-157c-4d96-9abb-2a7226d78bd9","system_id":"levelo_inurba_marseille","lat":43.323147,"lon":5.389289,"is_reserved":false,"is_disabled":false,"rental_uris":{"android":"levelo://app?vid=4c9b2a69-157c-4d96-9abb-2a7226d78bd9","ios":"levelo://app?vid=4c9b2a69-157c-4d96-9abb-2a7226d78bd9"},"vehicle_type_id":"4","last_reported":1722265737,"current_range_meters":12800,"station_id":"","pricing_plan_id":"cebpf4jnsgd1na2vs0mg"},{"bike_id":"7ec4e688-f6d2-40a3-aaf2-18397ca467ab","system_id":"levelo_inurba_marseille","lat":43.32367,"lon":5.388836,"is_reserved":false,"is_disabled":false,"rental_uris":{"android":"levelo://app?vid=7ec4e688-f6d2-40a3-aaf2-18397ca467ab","ios":"levelo://app?vid=7ec4e688-f6d2-40a3-aaf2-18397ca467ab"},"vehicle_type_id":"4","last_reported":1722265737,"current_range_meters":4400,"station_id":"ce4bhqp2rcd13ifvqhog","pricing_plan_id":"cebpf4jnsgd1na2vs0mg"},{"bike_id":"674b61a7-0830-4ecd-a9e8-17fa3691536a","system_id":"levelo_inurba_marseille","lat":43.323151,"lon":5.389354,"is_reserved":false,"is_disabled":false,"rental_uris":{"android":"levelo://app?vid=674b61a7-0830-4ecd-a9e8-17fa3691536a","ios":"levelo://app?vid=674b61a7-0830-4ecd-a9e8-17fa3691536a"},"vehicle_type_id":"4","last_reported":1722265737,"current_range_meters":15200,"station_id":"","pricing_plan_id":"cebpf4jnsgd1na2vs0mg"},{"bike_id":"2911289b-09b4-40d6-99bc-194da9e5fa9d","system_id":"levelo_inurba_marseille","lat":43.29588,"lon":5.38098,"is_reserved":false,"is_disabled":false,"rental_uris":{"android":"levelo://app?vid=2911289b-09b4-40d6-99bc-194da9e5fa9d","ios":"levelo://app?vid=2911289b-09b4-40d6-99bc-194da9e5fa9d"},"vehicle_type_id":"4","last_reported":1722265737,"current_range_meters":17600,"station_id":"ce4bgl12rcd13ifvqbo0","pricing_plan_id":"cebpf4jnsgd1na2vs0mg"},{"bike_id":"6affba43-abf4-4f2e-b927-15af6a2291a5","system_id":"levelo_inurba_marseille","lat":43.2931,"lon":5.37175,"is_reserved":false,"is_disabled":false,"rental_uris":{"android":"levelo://app?vid=6affba43-abf4-4f2e-b927-15af6a2291a5","ios":"levelo://app?vid=6affba43-abf4-4f2e-b927-15af6a2291a5"},"vehicle_type_id":"4","last_reported":1722265737,"current_range_meters":16000,"station_id":"ce4bgh92rcd13ifvqb40","pricing_plan_id":"cebpf4jnsgd1na2vs0mg"},{"bike_id":"7858a0a0-6058-45b9-9a9f-c90742925818","system_id":"levelo_inurba_marseille","lat":43.29278,"lon":5.36847,"is_reserved":false,"is_disabled":false,"rental_uris":{"android":"levelo://app?vid=7858a0a0-6058-45b9-9a9f-c90742925818","ios":"levelo://app?vid=7858a0a0-6058-45b9-9a9f-c90742925818"},"vehicle_type_id":"4","last_reported":1722265737,"current_range_meters":8000,"station_id":"","pricing_plan_id":"cebpf4jnsgd1na2vs0mg"},{"bike_id":"5a32de80-010b-4c8f-a399-8b67ef61a433","system_id":"levelo_inurba_marseille","lat":43.29305,"lon":5.37175,"is_reserved":false,"is_disabled":false,"rental_uris":{"android":"levelo://app?vid=5a32de80-010b-4c8f-a399-8b67ef61a433","ios":"levelo://app?vid=5a32de80-010b-4c8f-a399-8b67ef61a433"},"vehicle_type_id":"4","last_reported":1722265737,"current_range_meters":18400,"station_id":"ce4bgh92rcd13ifvqb40","pricing_plan_id":"cebpf4jnsgd1na2vs0mg"},{"bike_id":"1a461864-9abd-4deb-9bf3-23c5fa5c6265","system_id":"levelo_inurba_marseille","lat":43.29302,"lon":5.3718,"is_reserved":false,"is_disabled":false,"rental_uris":{"android":"levelo://app?vid=1a461864-9abd-4deb-9bf3-23c5fa5c6265","ios":"levelo://app?vid=1a461864-9abd-4deb-9bf3-23c5fa5c6265"},"vehicle_type_id":"4","last_reported":1722265737,"current_range_meters":0,"station_id":"ce4bgh92rcd13ifvqb40","pricing_plan_id":"cebpf4jnsgd1na2vs0mg"},{"bike_id":"702b6cb3-a88e-476a-a8ec-aa65f8430daf","system_id":"levelo_inurba_marseille","lat":43.29272,"lon":5.36841,"is_reserved":false,"is_disabled":false,"rental_uris":{"android":"levelo://app?vid=702b6cb3-a88e-476a-a8ec-aa65f8430daf","ios":"levelo://app?vid=702b6cb3-a88e-476a-a8ec-aa65f8430daf"},"vehicle_type_id":"4","last_reported":1722265737,"current_range_meters":12400,"station_id":"ce4bhbp2rcd13ifvqesg","pricing_plan_id":"cebpf4jnsgd1na2vs0mg"},{"bike_id":"a59f5994-56d5-4dde-8b35-ff786116ba7f","system_id":"levelo_inurba_marseille","lat":43.305994,"lon":5.393687,"is_reserved":false,"is_disabled":false,"rental_uris":{"android":"levelo://app?vid=a59f5994-56d5-4dde-8b35-ff786116ba7f","ios":"levelo://app?vid=a59f5994-56d5-4dde-8b35-ff786116ba7f"},"vehicle_type_id":"4","last_reported":1722265737,"current_range_meters":26800,"station_id":"ce4bh0p2rcd13ifvqd80","pricing_plan_id":"cebpf4jnsgd1na2vs0mg"},{"bike_id":"8b74385b-ede6-43ec-9791-9aa65aefc4aa","system_id":"levelo_inurba_marseille","lat":43.30294,"lon":5.39219,"is_reserved":false,"is_disabled":false,"rental_uris":{"android":"levelo://app?vid=8b74385b-ede6-43ec-9791-9aa65aefc4aa","ios":"levelo://app?vid=8b74385b-ede6-43ec-9791-9aa65aefc4aa"},"vehicle_type_id":"4","last_reported":1722265737,"current_range_meters":25200,"station_id":"ce4bgkh2rcd13ifvqbk0","pricing_plan_id":"cebpf4jnsgd1na2vs0mg"},{"bike_id":"8c3145be-38c9-41aa-9a1f-49b3028128fe","system_id":"levelo_inurba_marseille","lat":43.2936,"lon":5.37835,"is_reserved":false,"is_disabled":false,"rental_uris":{"android":"levelo://app?vid=8c3145be-38c9-41aa-9a1f-49b3028128fe","ios":"levelo://app?vid=8c3145be-38c9-41aa-9a1f-49b3028128fe"},"vehicle_type_id":"4","last_reported":1722265737,"current_range_meters":23200,"station_id":"ce4bgjh2rcd13ifvqbf0","pricing_plan_id":"cebpf4jnsgd1na2vs0mg"},{"bike_id":"0198308d-0b23-46e2-b0c0-9cc9aafd5fd4","system_id":"levelo_inurba_marseille","lat":43.2936,"lon":5.37835,"is_reserved":false,"is_disabled":false,"rental_uris":{"android":"levelo://app?vid=0198308d-0b23-46e2-b0c0-9cc9aafd5fd4","ios":"levelo://app?vid=0198308d-0b23-46e2-b0c0-9cc9aafd5fd4"},"vehicle_type_id":"4","last_reported":1722265737,"current_range_meters":20800,"station_id":"ce4bgjh2rcd13ifvqbf0","pricing_plan_id":"cebpf4jnsgd1na2vs0mg"},{"bike_id":"6e6a674d-0bf9-4216-99a3-657f8bf879f0","system_id":"levelo_inurba_marseille","lat":43.292311,"lon":5.360731,"is_reserved":false,"is_disabled":false,"rental_uris":{"android":"levelo://app?vid=6e6a674d-0bf9-4216-99a3-657f8bf879f0","ios":"levelo://app?vid=6e6a674d-0bf9-4216-99a3-657f8bf879f0"},"vehicle_type_id":"4","last_reported":1722265737,"current_range_meters":30000,"station_id":"ce4bhbh2rcd13ifvqeqg","pricing_plan_id":"cebpf4jnsgd1na2vs0mg"},{"bike_id":"f94c1439-e9f7-4930-9cf8-b3677c86d191","system_id":"levelo_inurba_marseille","lat":43.30085,"lon":5.390856,"is_reserved":false,"is_disabled":false,"rental_uris":{"android":"levelo://app?vid=f94c1439-e9f7-4930-9cf8-b3677c86d191","ios":"levelo://app?vid=f94c1439-e9f7-4930-9cf8-b3677c86d191"},"vehicle_type_id":"4","last_reported":1722265737,"current_range_meters":14000,"station_id":"ce4bh192rcd13ifvqdb0","pricing_plan_id":"cebpf4jnsgd1na2vs0mg"},{"bike_id":"b1e7c1f7-72b5-4fd2-9615-ee3d67cf75ca","system_id":"levelo_inurba_marseille","lat":43.30085,"lon":5.390856,"is_reserved":false,"is_disabled":false,"rental_uris":{"android":"levelo://app?vid=b1e7c1f7-72b5-4fd2-9615-ee3d67cf75ca","ios":"levelo://app?vid=b1e7c1f7-72b5-4fd2-9615-ee3d67cf75ca"},"vehicle_type_id":"4","last_reported":1722265737,"current_range_meters":8400,"station_id":"ce4bh192rcd13ifvqdb0","pricing_plan_id":"cebpf4jnsgd1na2vs0mg"},{"bike_id":"f4aba009-49bb-4424-8dd5-728156fefbdf","system_id":"levelo_inurba_marseille","lat":43.30085,"lon":5.390856,"is_reserved":false,"is_disabled":false,"rental_uris":{"android":"levelo://app?vid=f4aba009-49bb-4424-8dd5-728156fefbdf","ios":"levelo://app?vid=f4aba009-49bb-4424-8dd5-728156fefbdf"},"vehicle_type_id":"4","last_reported":1722265737,"current_range_meters":14400,"station_id":"ce4bh192rcd13ifvqdb0","pricing_plan_id":"cebpf4jnsgd1na2vs0mg"},{"bike_id":"cd70c33c-476f-4492-9755-c98cfb837d94","system_id":"levelo_inurba_marseille","lat":43.293009,"lon":5.374584,"is_reserved":false,"is_disabled":false,"rental_uris":{"android":"levelo://app?vid=cd70c33c-476f-4492-9755-c98cfb837d94","ios":"levelo://app?vid=cd70c33c-476f-4492-9755-c98cfb837d94"},"vehicle_type_id":"4","last_reported":1722265737,"current_range_meters":2000,"station_id":"ce4bgi12rcd13ifvqb70","pricing_plan_id":"cebpf4jnsgd1na2vs0mg"},{"bike_id":"14d8d4f8-8ed1-45b7-ae29-67121a125c23","system_id":"levelo_inurba_marseille","lat":43.293009,"lon":5.374584,"is_reserved":false,"is_disabled":false,"rental_uris":{"android":"levelo://app?vid=14d8d4f8-8ed1-45b7-ae29-67121a125c23","ios":"levelo://app?vid=14d8d4f8-8ed1-45b7-ae29-67121a125c23"},"vehicle_type_id":"4","last_reported":1722265737,"current_range_meters":16000,"station_id":"ce4bgi12rcd13ifvqb70","pricing_plan_id":"cebpf4jnsgd1na2vs0mg"},{"bike_id":"2262d678-d4aa-448c-8914-2d404e16ea0b","system_id":"levelo_inurba_marseille","lat":43.29203,"lon":5.35791,"is_reserved":false,"is_disabled":false,"rental_uris":{"android":"levelo://app?vid=2262d678-d4aa-448c-8914-2d404e16ea0b","ios":"levelo://app?vid=2262d678-d4aa-448c-8914-2d404e16ea0b"},"vehicle_type_id":"4","last_reported":1722265737,"current_range_meters":0,"station_id":"","pricing_plan_id":"cebpf4jnsgd1na2vs0mg"},{"bike_id":"b4a14ffa-a61c-4804-83a7-946c874dc3a2","system_id":"levelo_inurba_marseille","lat":43.292005,"lon":5.357875,"is_reserved":false,"is_disabled":false,"rental_uris":{"android":"levelo://app?vid=b4a14ffa-a61c-4804-83a7-946c874dc3a2","ios":"levelo://app?vid=b4a14ffa-a61c-4804-83a7-946c874dc3a2"},"vehicle_type_id":"4","last_reported":1722265737,"current_range_meters":20800,"station_id":"ce4bhb12rcd13ifvqel0","pricing_plan_id":"cebpf4jnsgd1na2vs0mg"},{"bike_id":"29c923bc-0bac-4595-b49a-5704248d9cfd","system_id":"levelo_inurba_marseille","lat":43.302008,"lon":5.394694,"is_reserved":false,"is_disabled":false,"rental_uris":{"android":"levelo://app?vid=29c923bc-0bac-4595-b49a-5704248d9cfd","ios":"levelo://app?vid=29c923bc-0bac-4595-b49a-5704248d9cfd"},"vehicle_type_id":"4","last_reported":1722265737,"current_range_meters":25200,"station_id":"ce4bh0p2rcd13ifvqd70","pricing_plan_id":"cebpf4jnsgd1na2vs0mg"},{"bike_id":"5e7a0b26-0055-4dab-8640-e2876be103d4","system_id":"levelo_inurba_marseille","lat":43.290631,"lon":5.359244,"is_reserved":false,"is_disabled":false,"rental_uris":{"android":"levelo://app?vid=5e7a0b26-0055-4dab-8640-e2876be103d4","ios":"levelo://app?vid=5e7a0b26-0055-4dab-8640-e2876be103d4"},"vehicle_type_id":"4","last_reported":1722265737,"current_range_meters":29600,"station_id":"ce4bha92rcd13ifvqeg0","pricing_plan_id":"cebpf4jnsgd1na2vs0mg"},{"bike_id":"3250cc91-3612-4f33-8bab-0e8b7320d75a","system_id":"levelo_inurba_marseille","lat":43.294153,"lon":5.386305,"is_reserved":false,"is_disabled":false,"rental_uris":{"android":"levelo://app?vid=3250cc91-3612-4f33-8bab-0e8b7320d75a","ios":"levelo://app?vid=3250cc91-3612-4f33-8bab-0e8b7320d75a"},"vehicle_type_id":"4","last_reported":1722265737,"current_range_meters":22000,"station_id":"ce4bh2h2rcd13ifvqdh0","pricing_plan_id":"cebpf4jnsgd1na2vs0mg"},{"bike_id":"51985506-27b2-4af7-a318-faeddfa68358","system_id":"levelo_inurba_marseille","lat":43.289184,"lon":5.366408,"is_reserved":false,"is_disabled":false,"rental_uris":{"android":"levelo://app?vid=51985506-27b2-4af7-a318-faeddfa68358","ios":"levelo://app?vid=51985506-27b2-4af7-a318-faeddfa68358"},"vehicle_type_id":"4","last_reported":1722265737,"current_range_meters":0,"station_id":"ce4bhap2rcd13ifvqek0","pricing_plan_id":"cebpf4jnsgd1na2vs0mg"},{"bike_id":"79995c74-90d9-4b11-b60f-9b3108e5d954","system_id":"levelo_inurba_marseille","lat":43.294153,"lon":5.386305,"is_reserved":false,"is_disabled":false,"rental_uris":{"android":"levelo://app?vid=79995c74-90d9-4b11-b60f-9b3108e5d954","ios":"levelo://app?vid=79995c74-90d9-4b11-b60f-9b3108e5d954"},"vehicle_type_id":"4","last_reported":1722265737,"current_range_meters":400,"station_id":"ce4bh2h2rcd13ifvqdh0","pricing_plan_id":"cebpf4jnsgd1na2vs0mg"},{"bike_id":"51d3848b-80ea-438b-8804-f92457ffdd74","system_id":"levelo_inurba_marseille","lat":43.289184,"lon":5.366408,"is_reserved":false,"is_disabled":false,"rental_uris":{"android":"levelo://app?vid=51d3848b-80ea-438b-8804-f92457ffdd74","ios":"levelo://app?vid=51d3848b-80ea-438b-8804-f92457ffdd74"},"vehicle_type_id":"4","last_reported":1722265737,"current_range_meters":6000,"station_id":"ce4bhap2rcd13ifvqek0","pricing_plan_id":"cebpf4jnsgd1na2vs0mg"},{"bike_id":"3c72ea20-deef-4927-9817-61c000bd2c29","system_id":"levelo_inurba_marseille","lat":43.289468,"lon":5.363719,"is_reserved":false,"is_disabled":false,"rental_uris":{"android":"levelo://app?vid=3c72ea20-deef-4927-9817-61c000bd2c29","ios":"levelo://app?vid=3c72ea20-deef-4927-9817-61c000bd2c29"},"vehicle_type_id":"4","last_reported":1722265737,"current_range_meters":23200,"station_id":"ce4bhc92rcd13ifvqetg","pricing_plan_id":"cebpf4jnsgd1na2vs0mg"},{"bike_id":"bf8c9831-9c12-4617-9849-2139ed29b727","system_id":"levelo_inurba_marseille","lat":43.292644,"lon":5.384257,"is_reserved":false,"is_disabled":false,"rental_uris":{"android":"levelo://app?vid=bf8c9831-9c12-4617-9849-2139ed29b727","ios":"levelo://app?vid=bf8c9831-9c12-4617-9849-2139ed29b727"},"vehicle_type_id":"4","last_reported":1722265737,"current_range_meters":6400,"station_id":"ce4bh692rcd13ifvqea0","pricing_plan_id":"cebpf4jnsgd1na2vs0mg"},{"bike_id":"744b9a06-0d35-499c-bcfd-6df110963efe","system_id":"levelo_inurba_marseille","lat":43.304274,"lon":5.397513,"is_reserved":false,"is_disabled":false,"rental_uris":{"android":"levelo://app?vid=744b9a06-0d35-499c-bcfd-6df110963efe","ios":"levelo://app?vid=744b9a06-0d35-499c-bcfd-6df110963efe"},"vehicle_type_id":"4","last_reported":1722265737,"current_range_meters":0,"station_id":"ce4bh092rcd13ifvqd20","pricing_plan_id":"cebpf4jnsgd1na2vs0mg"},{"bike_id":"cea082b2-282f-413a-a020-98b5000b6a2a","system_id":"levelo_inurba_marseille","lat":43.29793,"lon":5.39342,"is_reserved":false,"is_disabled":false,"rental_uris":{"android":"levelo://app?vid=cea082b2-282f-413a-a020-98b5000b6a2a","ios":"levelo://app?vid=cea082b2-282f-413a-a020-98b5000b6a2a"},"vehicle_type_id":"4","last_reported":1722265737,"current_range_meters":0,"station_id":"chh1huq6cuj3fo74tm60","pricing_plan_id":"cebpf4jnsgd1na2vs0mg"},{"bike_id":"b200f506-8236-4c5f-a737-b7077d4b0992","system_id":"levelo_inurba_marseille","lat":43.295169,"lon":5.390426,"is_reserved":false,"is_disabled":false,"rental_uris":{"android":"levelo://app?vid=b200f506-8236-4c5f-a737-b7077d4b0992","ios":"levelo://app?vid=b200f506-8236-4c5f-a737-b7077d4b0992"},"vehicle_type_id":"4","last_reported":1722265737,"current_range_meters":3600,"station_id":"ce4bh3p2rcd13ifvqdp0","pricing_plan_id":"cebpf4jnsgd1na2vs0mg"},{"bike_id":"b1256257-5520-4737-b859-7e7b0fe66d2b","system_id":"levelo_inurba_marseille","lat":43.295169,"lon":5.390426,"is_reserved":false,"is_disabled":false,"rental_uris":{"android":"levelo://app?vid=b1256257-5520-4737-b859-7e7b0fe66d2b","ios":"levelo://app?vid=b1256257-5520-4737-b859-7e7b0fe66d2b"},"vehicle_type_id":"4","last_reported":1722265737,"current_range_meters":3600,"station_id":"ce4bh3p2rcd13ifvqdp0","pricing_plan_id":"cebpf4jnsgd1na2vs0mg"},{"bike_id":"300d39f7-4f35-44d2-978f-cec24c665328","system_id":"levelo_inurba_marseille","lat":43.330442,"lon":5.389148,"is_reserved":false,"is_disabled":false,"rental_uris":{"android":"levelo://app?vid=300d39f7-4f35-44d2-978f-cec24c665328","ios":"levelo://app?vid=300d39f7-4f35-44d2-978f-cec24c665328"},"vehicle_type_id":"4","last_reported":1722265737,"current_range_meters":26800,"station_id":"ce4bhr92rcd13ifvqhrg","pricing_plan_id":"cebpf4jnsgd1na2vs0mg"},{"bike_id":"3a7c27e6-343a-44e4-97f5-f50cc03e0de8","system_id":"levelo_inurba_marseille","lat":43.330442,"lon":5.389148,"is_reserved":false,"is_disabled":false,"rental_uris":{"android":"levelo://app?vid=3a7c27e6-343a-44e4-97f5-f50cc03e0de8","ios":"levelo://app?vid=3a7c27e6-343a-44e4-97f5-f50cc03e0de8"},"vehicle_type_id":"4","last_reported":1722265737,"current_range_meters":12000,"station_id":"ce4bhr92rcd13ifvqhrg","pricing_plan_id":"cebpf4jnsgd1na2vs0mg"},{"bike_id":"01eaa8e0-3fcf-45ee-bb1d-efe63267a715","system_id":"levelo_inurba_marseille","lat":43.310723,"lon":5.400863,"is_reserved":false,"is_disabled":false,"rental_uris":{"android":"levelo://app?vid=01eaa8e0-3fcf-45ee-bb1d-efe63267a715","ios":"levelo://app?vid=01eaa8e0-3fcf-45ee-bb1d-efe63267a715"},"vehicle_type_id":"4","last_reported":1722265737,"current_range_meters":16800,"station_id":"","pricing_plan_id":"cebpf4jnsgd1na2vs0mg"},{"bike_id":"f4cdf6f8-59cc-4926-bbd3-bf830cd7e7b6","system_id":"levelo_inurba_marseille","lat":43.2901,"lon":5.381269,"is_reserved":false,"is_disabled":false,"rental_uris":{"android":"levelo://app?vid=f4cdf6f8-59cc-4926-bbd3-bf830cd7e7b6","ios":"levelo://app?vid=f4cdf6f8-59cc-4926-bbd3-bf830cd7e7b6"},"vehicle_type_id":"4","last_reported":1722265737,"current_range_meters":24400,"station_id":"ce4bh4p2rcd13ifvqe1g","pricing_plan_id":"cebpf4jnsgd1na2vs0mg"},{"bike_id":"9feeffe6-f33e-48fc-80d8-5eba59341889","system_id":"levelo_inurba_marseille","lat":43.2901,"lon":5.381269,"is_reserved":false,"is_disabled":false,"rental_uris":{"android":"levelo://app?vid=9feeffe6-f33e-48fc-80d8-5eba59341889","ios":"levelo://app?vid=9feeffe6-f33e-48fc-80d8-5eba59341889"},"vehicle_type_id":"4","last_reported":1722265737,"current_range_meters":30400,"station_id":"ce4bh4p2rcd13ifvqe1g","pricing_plan_id":"cebpf4jnsgd1na2vs0mg"},{"bike_id":"e26365f4-82f9-43ab-b8cb-14f0c449f93c","system_id":"levelo_inurba_marseille","lat":43.312609,"lon":5.401662,"is_reserved":false,"is_disabled":false,"rental_uris":{"android":"levelo://app?vid=e26365f4-82f9-43ab-b8cb-14f0c449f93c","ios":"levelo://app?vid=e26365f4-82f9-43ab-b8cb-14f0c449f93c"},"vehicle_type_id":"4","last_reported":1722265737,"current_range_meters":12400,"station_id":"ce4bh092rcd13ifvqd30","pricing_plan_id":"cebpf4jnsgd1na2vs0mg"},{"bike_id":"4f71b30f-7148-4956-b46d-df9469686abd","system_id":"levelo_inurba_marseille","lat":43.309371,"lon":5.401449,"is_reserved":false,"is_disabled":false,"rental_uris":{"android":"levelo://app?vid=4f71b30f-7148-4956-b46d-df9469686abd","ios":"levelo://app?vid=4f71b30f-7148-4956-b46d-df9469686abd"},"vehicle_type_id":"4","last_reported":1722265737,"current_range_meters":19200,"station_id":"ce4bgvp2rcd13ifvqct0","pricing_plan_id":"cebpf4jnsgd1na2vs0mg"},{"bike_id":"bc139bf4-54fa-4e19-864f-a60b05fdd383","system_id":"levelo_inurba_marseille","lat":43.309371,"lon":5.401449,"is_reserved":false,"is_disabled":false,"rental_uris":{"android":"levelo://app?vid=bc139bf4-54fa-4e19-864f-a60b05fdd383","ios":"levelo://app?vid=bc139bf4-54fa-4e19-864f-a60b05fdd383"},"vehicle_type_id":"4","last_reported":1722265737,"current_range_meters":0,"station_id":"ce4bgvp2rcd13ifvqct0","pricing_plan_id":"cebpf4jnsgd1na2vs0mg"},{"bike_id":"0947d520-5902-43d2-9e61-47bf12ff75f9","system_id":"levelo_inurba_marseille","lat":43.337553,"lon":5.374554,"is_reserved":false,"is_disabled":false,"rental_uris":{"android":"levelo://app?vid=0947d520-5902-43d2-9e61-47bf12ff75f9","ios":"levelo://app?vid=0947d520-5902-43d2-9e61-47bf12ff75f9"},"vehicle_type_id":"4","last_reported":1722265737,"current_range_meters":22000,"station_id":"","pricing_plan_id":"cebpf4jnsgd1na2vs0mg"},{"bike_id":"8439d521-1ad4-4a6c-99b8-0323d38eba76","system_id":"levelo_inurba_marseille","lat":43.30657,"lon":5.40104,"is_reserved":false,"is_disabled":false,"rental_uris":{"android":"levelo://app?vid=8439d521-1ad4-4a6c-99b8-0323d38eba76","ios":"levelo://app?vid=8439d521-1ad4-4a6c-99b8-0323d38eba76"},"vehicle_type_id":"4","last_reported":1722265737,"current_range_meters":2800,"station_id":"","pricing_plan_id":"cebpf4jnsgd1na2vs0mg"},{"bike_id":"5a1ccdae-0333-4a95-95c6-4929c8c7f2a7","system_id":"levelo_inurba_marseille","lat":43.306412,"lon":5.401035,"is_reserved":false,"is_disabled":false,"rental_uris":{"android":"levelo://app?vid=5a1ccdae-0333-4a95-95c6-4929c8c7f2a7","ios":"levelo://app?vid=5a1ccdae-0333-4a95-95c6-4929c8c7f2a7"},"vehicle_type_id":"4","last_reported":1722265737,"current_range_meters":5200,"station_id":"ce4bh112rcd13ifvqda0","pricing_plan_id":"cebpf4jnsgd1na2vs0mg"},{"bike_id":"a577fa0a-1d16-489f-a3de-e0f221641ce4","system_id":"levelo_inurba_marseille","lat":43.301117,"lon":5.398795,"is_reserved":false,"is_disabled":false,"rental_uris":{"android":"levelo://app?vid=a577fa0a-1d16-489f-a3de-e0f221641ce4","ios":"levelo://app?vid=a577fa0a-1d16-489f-a3de-e0f221641ce4"},"vehicle_type_id":"4","last_reported":1722265737,"current_range_meters":17600,"station_id":"ce4bh0h2rcd13ifvqd40","pricing_plan_id":"cebpf4jnsgd1na2vs0mg"},{"bike_id":"314572ca-3edb-4912-b2ac-8ad0113b3fe7","system_id":"levelo_inurba_marseille","lat":43.286593,"lon":5.363346,"is_reserved":false,"is_disabled":false,"rental_uris":{"android":"levelo://app?vid=314572ca-3edb-4912-b2ac-8ad0113b3fe7","ios":"levelo://app?vid=314572ca-3edb-4912-b2ac-8ad0113b3fe7"},"vehicle_type_id":"4","last_reported":1722265737,"current_range_meters":28400,"station_id":"ce4bhah2rcd13ifvqej0","pricing_plan_id":"cebpf4jnsgd1na2vs0mg"},{"bike_id":"ba8f419c-8311-4ddf-bd56-b10a4fb294a6","system_id":"levelo_inurba_marseille","lat":43.286591,"lon":5.363346,"is_reserved":false,"is_disabled":false,"rental_uris":{"android":"levelo://app?vid=ba8f419c-8311-4ddf-bd56-b10a4fb294a6","ios":"levelo://app?vid=ba8f419c-8311-4ddf-bd56-b10a4fb294a6"},"vehicle_type_id":"4","last_reported":1722265737,"current_range_meters":12800,"station_id":"ce4bhah2rcd13ifvqej0","pricing_plan_id":"cebpf4jnsgd1na2vs0mg"},{"bike_id":"f611f3c0-8960-4fea-811f-91021167472a","system_id":"levelo_inurba_marseille","lat":43.286591,"lon":5.363346,"is_reserved":false,"is_disabled":false,"rental_uris":{"android":"levelo://app?vid=f611f3c0-8960-4fea-811f-91021167472a","ios":"levelo://app?vid=f611f3c0-8960-4fea-811f-91021167472a"},"vehicle_type_id":"4","last_reported":1722265737,"current_range_meters":22800,"station_id":"ce4bhah2rcd13ifvqej0","pricing_plan_id":"cebpf4jnsgd1na2vs0mg"},{"bike_id":"fd11e73b-1ddc-480c-b434-0f624a583353","system_id":"levelo_inurba_marseille","lat":43.306412,"lon":5.401035,"is_reserved":false,"is_disabled":false,"rental_uris":{"android":"levelo://app?vid=fd11e73b-1ddc-480c-b434-0f624a583353","ios":"levelo://app?vid=fd11e73b-1ddc-480c-b434-0f624a583353"},"vehicle_type_id":"4","last_reported":1722265737,"current_range_meters":30400,"station_id":"ce4bh112rcd13ifvqda0","pricing_plan_id":"cebpf4jnsgd1na2vs0mg"},{"bike_id":"e238a3fe-cd1b-44c9-be0e-3329b287f4ee","system_id":"levelo_inurba_marseille","lat":43.286039,"lon":5.370679,"is_reserved":false,"is_disabled":false,"rental_uris":{"android":"levelo://app?vid=e238a3fe-cd1b-44c9-be0e-3329b287f4ee","ios":"levelo://app?vid=e238a3fe-cd1b-44c9-be0e-3329b287f4ee"},"vehicle_type_id":"4","last_reported":1722265737,"current_range_meters":26400,"station_id":"ce4bht12rcd13ifvqi60","pricing_plan_id":"cebpf4jnsgd1na2vs0mg"},{"bike_id":"3e7da2fb-5d92-465b-b922-b16884aa584f","system_id":"levelo_inurba_marseille","lat":43.302759,"lon":5.400793,"is_reserved":false,"is_disabled":false,"rental_uris":{"android":"levelo://app?vid=3e7da2fb-5d92-465b-b922-b16884aa584f","ios":"levelo://app?vid=3e7da2fb-5d92-465b-b922-b16884aa584f"},"vehicle_type_id":"4","last_reported":1722265737,"current_range_meters":21200,"station_id":"ce4bgvh2rcd13ifvqcs0","pricing_plan_id":"cebpf4jnsgd1na2vs0mg"},{"bike_id":"f488eea7-0daa-4b29-833c-c0204e3b2060","system_id":"levelo_inurba_marseille","lat":43.286039,"lon":5.370679,"is_reserved":false,"is_disabled":false,"rental_uris":{"android":"levelo://app?vid=f488eea7-0daa-4b29-833c-c0204e3b2060","ios":"levelo://app?vid=f488eea7-0daa-4b29-833c-c0204e3b2060"},"vehicle_type_id":"4","last_reported":1722265737,"current_range_meters":19600,"station_id":"ce4bht12rcd13ifvqi60","pricing_plan_id":"cebpf4jnsgd1na2vs0mg"},{"bike_id":"0c7cf0a3-c5a5-4693-97ed-e360f99decd9","system_id":"levelo_inurba_marseille","lat":43.286039,"lon":5.370679,"is_reserved":false,"is_disabled":false,"rental_uris":{"android":"levelo://app?vid=0c7cf0a3-c5a5-4693-97ed-e360f99decd9","ios":"levelo://app?vid=0c7cf0a3-c5a5-4693-97ed-e360f99decd9"},"vehicle_type_id":"4","last_reported":1722265737,"current_range_meters":11200,"station_id":"ce4bht12rcd13ifvqi60","pricing_plan_id":"cebpf4jnsgd1na2vs0mg"},{"bike_id":"ce84788f-44ed-4a1e-9b32-31c547d2638f","system_id":"levelo_inurba_marseille","lat":43.28726,"lon":5.37941,"is_reserved":false,"is_disabled":false,"rental_uris":{"android":"levelo://app?vid=ce84788f-44ed-4a1e-9b32-31c547d2638f","ios":"levelo://app?vid=ce84788f-44ed-4a1e-9b32-31c547d2638f"},"vehicle_type_id":"4","last_reported":1722265737,"current_range_meters":6000,"station_id":"ce4bh9p2rcd13ifvqec0","pricing_plan_id":"cebpf4jnsgd1na2vs0mg"},{"bike_id":"190402e3-b43b-4dc5-ab49-9d4f475def54","system_id":"levelo_inurba_marseille","lat":43.2872,"lon":5.37933,"is_reserved":false,"is_disabled":false,"rental_uris":{"android":"levelo://app?vid=190402e3-b43b-4dc5-ab49-9d4f475def54","ios":"levelo://app?vid=190402e3-b43b-4dc5-ab49-9d4f475def54"},"vehicle_type_id":"4","last_reported":1722265737,"current_range_meters":13200,"station_id":"ce4bh9p2rcd13ifvqec0","pricing_plan_id":"cebpf4jnsgd1na2vs0mg"},{"bike_id":"15ad425a-ae4b-4bb4-b706-a166d0e5a38b","system_id":"levelo_inurba_marseille","lat":43.287184,"lon":5.37937,"is_reserved":false,"is_disabled":false,"rental_uris":{"android":"levelo://app?vid=15ad425a-ae4b-4bb4-b706-a166d0e5a38b","ios":"levelo://app?vid=15ad425a-ae4b-4bb4-b706-a166d0e5a38b"},"vehicle_type_id":"4","last_reported":1722265737,"current_range_meters":0,"station_id":"ce4bh9p2rcd13ifvqec0","pricing_plan_id":"cebpf4jnsgd1na2vs0mg"},{"bike_id":"0c4f95e1-05b9-465d-a0ac-03fda772073b","system_id":"levelo_inurba_marseille","lat":43.284538,"lon":5.358657,"is_reserved":false,"is_disabled":false,"rental_uris":{"android":"levelo://app?vid=0c4f95e1-05b9-465d-a0ac-03fda772073b","ios":"levelo://app?vid=0c4f95e1-05b9-465d-a0ac-03fda772073b"},"vehicle_type_id":"4","last_reported":1722265737,"current_range_meters":2000,"station_id":"ce4bhah2rcd13ifvqei0","pricing_plan_id":"cebpf4jnsgd1na2vs0mg"},{"bike_id":"522edf8f-ffaa-4ee8-8ccc-4967e45d9c74","system_id":"levelo_inurba_marseille","lat":43.294314,"lon":5.397498,"is_reserved":false,"is_disabled":false,"rental_uris":{"android":"levelo://app?vid=522edf8f-ffaa-4ee8-8ccc-4967e45d9c74","ios":"levelo://app?vid=522edf8f-ffaa-4ee8-8ccc-4967e45d9c74"},"vehicle_type_id":"4","last_reported":1722265737,"current_range_meters":6000,"station_id":"ce4bh3h2rcd13ifvqdo0","pricing_plan_id":"cebpf4jnsgd1na2vs0mg"},{"bike_id":"2b572ee7-fbc4-4ba8-b819-b3288c331aa8","system_id":"levelo_inurba_marseille","lat":43.294314,"lon":5.397498,"is_reserved":false,"is_disabled":false,"rental_uris":{"android":"levelo://app?vid=2b572ee7-fbc4-4ba8-b819-b3288c331aa8","ios":"levelo://app?vid=2b572ee7-fbc4-4ba8-b819-b3288c331aa8"},"vehicle_type_id":"4","last_reported":1722265737,"current_range_meters":0,"station_id":"ce4bh3h2rcd13ifvqdo0","pricing_plan_id":"cebpf4jnsgd1na2vs0mg"},{"bike_id":"d0e9d361-f845-4fcc-867e-7473a8a9640f","system_id":"levelo_inurba_marseille","lat":43.28622,"lon":5.35105,"is_reserved":false,"is_disabled":false,"rental_uris":{"android":"levelo://app?vid=d0e9d361-f845-4fcc-867e-7473a8a9640f","ios":"levelo://app?vid=d0e9d361-f845-4fcc-867e-7473a8a9640f"},"vehicle_type_id":"4","last_reported":1722265737,"current_range_meters":17200,"station_id":"ce4bhch2rcd13ifvqeug","pricing_plan_id":"cebpf4jnsgd1na2vs0mg"},{"bike_id":"e5677fc2-f1fe-4e9d-9b62-8c1dff5de1ca","system_id":"levelo_inurba_marseille","lat":43.2862,"lon":5.3511,"is_reserved":false,"is_disabled":false,"rental_uris":{"android":"levelo://app?vid=e5677fc2-f1fe-4e9d-9b62-8c1dff5de1ca","ios":"levelo://app?vid=e5677fc2-f1fe-4e9d-9b62-8c1dff5de1ca"},"vehicle_type_id":"4","last_reported":1722265737,"current_range_meters":12400,"station_id":"ce4bhch2rcd13ifvqeug","pricing_plan_id":"cebpf4jnsgd1na2vs0mg"},{"bike_id":"8e3e4d98-a88d-4bba-836d-e4f45885986a","system_id":"levelo_inurba_marseille","lat":43.2862,"lon":5.35108,"is_reserved":false,"is_disabled":false,"rental_uris":{"android":"levelo://app?vid=8e3e4d98-a88d-4bba-836d-e4f45885986a","ios":"levelo://app?vid=8e3e4d98-a88d-4bba-836d-e4f45885986a"},"vehicle_type_id":"4","last_reported":1722265737,"current_range_meters":28400,"station_id":"ce4bhch2rcd13ifvqeug","pricing_plan_id":"cebpf4jnsgd1na2vs0mg"},{"bike_id":"cfeeffd7-378e-42ec-b222-fe93dca939bb","system_id":"levelo_inurba_marseille","lat":43.284538,"lon":5.358657,"is_reserved":false,"is_disabled":false,"rental_uris":{"android":"levelo://app?vid=cfeeffd7-378e-42ec-b222-fe93dca939bb","ios":"levelo://app?vid=cfeeffd7-378e-42ec-b222-fe93dca939bb"},"vehicle_type_id":"4","last_reported":1722265737,"current_range_meters":21200,"station_id":"ce4bhah2rcd13ifvqei0","pricing_plan_id":"cebpf4jnsgd1na2vs0mg"},{"bike_id":"7d2198a0-f726-4226-9e04-3fe39ae8ac17","system_id":"levelo_inurba_marseille","lat":43.2862,"lon":5.35101,"is_reserved":false,"is_disabled":false,"rental_uris":{"android":"levelo://app?vid=7d2198a0-f726-4226-9e04-3fe39ae8ac17","ios":"levelo://app?vid=7d2198a0-f726-4226-9e04-3fe39ae8ac17"},"vehicle_type_id":"4","last_reported":1722265737,"current_range_meters":13200,"station_id":"ce4bhch2rcd13ifvqeug","pricing_plan_id":"cebpf4jnsgd1na2vs0mg"},{"bike_id":"e788bea9-78fa-4bff-a03c-25f95b02bded","system_id":"levelo_inurba_marseille","lat":43.28619,"lon":5.35103,"is_reserved":false,"is_disabled":false,"rental_uris":{"android":"levelo://app?vid=e788bea9-78fa-4bff-a03c-25f95b02bded","ios":"levelo://app?vid=e788bea9-78fa-4bff-a03c-25f95b02bded"},"vehicle_type_id":"4","last_reported":1722265737,"current_range_meters":3200,"station_id":"ce4bhch2rcd13ifvqeug","pricing_plan_id":"cebpf4jnsgd1na2vs0mg"},{"bike_id":"23b9ce9c-59f7-46bd-becb-51f57df9f642","system_id":"levelo_inurba_marseille","lat":43.28616,"lon":5.3511,"is_reserved":false,"is_disabled":false,"rental_uris":{"android":"levelo://app?vid=23b9ce9c-59f7-46bd-becb-51f57df9f642","ios":"levelo://app?vid=23b9ce9c-59f7-46bd-becb-51f57df9f642"},"vehicle_type_id":"4","last_reported":1722265737,"current_range_meters":19200,"station_id":"ce4bhch2rcd13ifvqeug","pricing_plan_id":"cebpf4jnsgd1na2vs0mg"},{"bike_id":"2b0d79d4-6eb5-47c7-a663-09e87be290e0","system_id":"levelo_inurba_marseille","lat":43.28617,"lon":5.35105,"is_reserved":false,"is_disabled":false,"rental_uris":{"android":"levelo://app?vid=2b0d79d4-6eb5-47c7-a663-09e87be290e0","ios":"levelo://app?vid=2b0d79d4-6eb5-47c7-a663-09e87be290e0"},"vehicle_type_id":"4","last_reported":1722265737,"current_range_meters":18800,"station_id":"ce4bhch2rcd13ifvqeug","pricing_plan_id":"cebpf4jnsgd1na2vs0mg"},{"bike_id":"ebdb3013-edf3-443a-9f6f-70d087895fe6","system_id":"levelo_inurba_marseille","lat":43.28616,"lon":5.35108,"is_reserved":false,"is_disabled":false,"rental_uris":{"android":"levelo://app?vid=ebdb3013-edf3-443a-9f6f-70d087895fe6","ios":"levelo://app?vid=ebdb3013-edf3-443a-9f6f-70d087895fe6"},"vehicle_type_id":"4","last_reported":1722265737,"current_range_meters":0,"station_id":"ce4bhch2rcd13ifvqeug","pricing_plan_id":"cebpf4jnsgd1na2vs0mg"},{"bike_id":"bbd1902e-1813-4e0b-8df0-3d5d077fd773","system_id":"levelo_inurba_marseille","lat":43.28614,"lon":5.35114,"is_reserved":false,"is_disabled":false,"rental_uris":{"android":"levelo://app?vid=bbd1902e-1813-4e0b-8df0-3d5d077fd773","ios":"levelo://app?vid=bbd1902e-1813-4e0b-8df0-3d5d077fd773"},"vehicle_type_id":"4","last_reported":1722265737,"current_range_meters":29200,"station_id":"ce4bhch2rcd13ifvqeug","pricing_plan_id":"cebpf4jnsgd1na2vs0mg"},{"bike_id":"957e7bd7-c168-4b5c-b1df-db2dbc4d879e","system_id":"levelo_inurba_marseille","lat":43.28618,"lon":5.35098,"is_reserved":false,"is_disabled":false,"rental_uris":{"android":"levelo://app?vid=957e7bd7-c168-4b5c-b1df-db2dbc4d879e","ios":"levelo://app?vid=957e7bd7-c168-4b5c-b1df-db2dbc4d879e"},"vehicle_type_id":"4","last_reported":1722265737,"current_range_meters":0,"station_id":"ce4bhch2rcd13ifvqeug","pricing_plan_id":"cebpf4jnsgd1na2vs0mg"},{"bike_id":"916f6a56-3202-4a71-85da-5fe178393424","system_id":"levelo_inurba_marseille","lat":43.28615,"lon":5.35106,"is_reserved":false,"is_disabled":false,"rental_uris":{"android":"levelo://app?vid=916f6a56-3202-4a71-85da-5fe178393424","ios":"levelo://app?vid=916f6a56-3202-4a71-85da-5fe178393424"},"vehicle_type_id":"4","last_reported":1722265737,"current_range_meters":800,"station_id":"ce4bhch2rcd13ifvqeug","pricing_plan_id":"cebpf4jnsgd1na2vs0mg"},{"bike_id":"2128bdd9-95ae-47ec-ac2e-6cea44e682f5","system_id":"levelo_inurba_marseille","lat":43.28617,"lon":5.35099,"is_reserved":false,"is_disabled":false,"rental_uris":{"android":"levelo://app?vid=2128bdd9-95ae-47ec-ac2e-6cea44e682f5","ios":"levelo://app?vid=2128bdd9-95ae-47ec-ac2e-6cea44e682f5"},"vehicle_type_id":"4","last_reported":1722265737,"current_range_meters":17600,"station_id":"ce4bhch2rcd13ifvqeug","pricing_plan_id":"cebpf4jnsgd1na2vs0mg"},{"bike_id":"548c2f3b-9a71-491c-859d-e578d604d6b0","system_id":"levelo_inurba_marseille","lat":43.285856,"lon":5.350771,"is_reserved":false,"is_disabled":false,"rental_uris":{"android":"levelo://app?vid=548c2f3b-9a71-491c-859d-e578d604d6b0","ios":"levelo://app?vid=548c2f3b-9a71-491c-859d-e578d604d6b0"},"vehicle_type_id":"4","last_reported":1722265737,"current_range_meters":29600,"station_id":"ce4bhch2rcd13ifvqeug","pricing_plan_id":"cebpf4jnsgd1na2vs0mg"},{"bike_id":"58f16794-69b8-4ff6-b4cb-2b5ad22858f7","system_id":"levelo_inurba_marseille","lat":43.28613,"lon":5.35109,"is_reserved":false,"is_disabled":false,"rental_uris":{"android":"levelo://app?vid=58f16794-69b8-4ff6-b4cb-2b5ad22858f7","ios":"levelo://app?vid=58f16794-69b8-4ff6-b4cb-2b5ad22858f7"},"vehicle_type_id":"4","last_reported":1722265737,"current_range_meters":28000,"station_id":"ce4bhch2rcd13ifvqeug","pricing_plan_id":"cebpf4jnsgd1na2vs0mg"},{"bike_id":"9cf69037-935d-4c4e-8c2c-bc8fe895a3f4","system_id":"levelo_inurba_marseille","lat":43.28612,"lon":5.35112,"is_reserved":false,"is_disabled":false,"rental_uris":{"android":"levelo://app?vid=9cf69037-935d-4c4e-8c2c-bc8fe895a3f4","ios":"levelo://app?vid=9cf69037-935d-4c4e-8c2c-bc8fe895a3f4"},"vehicle_type_id":"4","last_reported":1722265737,"current_range_meters":22000,"station_id":"ce4bhch2rcd13ifvqeug","pricing_plan_id":"cebpf4jnsgd1na2vs0mg"},{"bike_id":"56ac50bb-a600-4366-b659-e9fa91ae410d","system_id":"levelo_inurba_marseille","lat":43.28615,"lon":5.35102,"is_reserved":false,"is_disabled":false,"rental_uris":{"android":"levelo://app?vid=56ac50bb-a600-4366-b659-e9fa91ae410d","ios":"levelo://app?vid=56ac50bb-a600-4366-b659-e9fa91ae410d"},"vehicle_type_id":"4","last_reported":1722265737,"current_range_meters":9200,"station_id":"ce4bhch2rcd13ifvqeug","pricing_plan_id":"cebpf4jnsgd1na2vs0mg"},{"bike_id":"b3d3ea15-c422-4a16-949c-c29058b6a005","system_id":"levelo_inurba_marseille","lat":43.28617,"lon":5.35094,"is_reserved":false,"is_disabled":false,"rental_uris":{"android":"levelo://app?vid=b3d3ea15-c422-4a16-949c-c29058b6a005","ios":"levelo://app?vid=b3d3ea15-c422-4a16-949c-c29058b6a005"},"vehicle_type_id":"4","last_reported":1722265737,"current_range_meters":1600,"station_id":"ce4bhch2rcd13ifvqeug","pricing_plan_id":"cebpf4jnsgd1na2vs0mg"},{"bike_id":"5572c660-4b6a-4cb1-ab3a-b0e3ae1cc9bb","system_id":"levelo_inurba_marseille","lat":43.28615,"lon":5.351,"is_reserved":false,"is_disabled":false,"rental_uris":{"android":"levelo://app?vid=5572c660-4b6a-4cb1-ab3a-b0e3ae1cc9bb","ios":"levelo://app?vid=5572c660-4b6a-4cb1-ab3a-b0e3ae1cc9bb"},"vehicle_type_id":"4","last_reported":1722265737,"current_range_meters":22400,"station_id":"ce4bhch2rcd13ifvqeug","pricing_plan_id":"cebpf4jnsgd1na2vs0mg"},{"bike_id":"4ac1da54-5a90-43f4-994f-2e307d39c87d","system_id":"levelo_inurba_marseille","lat":43.2861,"lon":5.35112,"is_reserved":false,"is_disabled":false,"rental_uris":{"android":"levelo://app?vid=4ac1da54-5a90-43f4-994f-2e307d39c87d","ios":"levelo://app?vid=4ac1da54-5a90-43f4-994f-2e307d39c87d"},"vehicle_type_id":"4","last_reported":1722265737,"current_range_meters":28400,"station_id":"ce4bhch2rcd13ifvqeug","pricing_plan_id":"cebpf4jnsgd1na2vs0mg"},{"bike_id":"f024b7d7-18f5-48ce-b1b3-00f8fb0e6b0d","system_id":"levelo_inurba_marseille","lat":43.28611,"lon":5.35106,"is_reserved":false,"is_disabled":false,"rental_uris":{"android":"levelo://app?vid=f024b7d7-18f5-48ce-b1b3-00f8fb0e6b0d","ios":"levelo://app?vid=f024b7d7-18f5-48ce-b1b3-00f8fb0e6b0d"},"vehicle_type_id":"4","last_reported":1722265737,"current_range_meters":14000,"station_id":"ce4bhch2rcd13ifvqeug","pricing_plan_id":"cebpf4jnsgd1na2vs0mg"},{"bike_id":"cd7c5792-af43-487b-bccb-bce112664a82","system_id":"levelo_inurba_marseille","lat":43.285856,"lon":5.350771,"is_reserved":false,"is_disabled":false,"rental_uris":{"android":"levelo://app?vid=cd7c5792-af43-487b-bccb-bce112664a82","ios":"levelo://app?vid=cd7c5792-af43-487b-bccb-bce112664a82"},"vehicle_type_id":"4","last_reported":1722265737,"current_range_meters":8400,"station_id":"ce4bhch2rcd13ifvqeug","pricing_plan_id":"cebpf4jnsgd1na2vs0mg"},{"bike_id":"9137cc5b-8bbd-461c-a046-222893d82d49","system_id":"levelo_inurba_marseille","lat":43.28609,"lon":5.35106,"is_reserved":false,"is_disabled":false,"rental_uris":{"android":"levelo://app?vid=9137cc5b-8bbd-461c-a046-222893d82d49","ios":"levelo://app?vid=9137cc5b-8bbd-461c-a046-222893d82d49"},"vehicle_type_id":"4","last_reported":1722265737,"current_range_meters":20000,"station_id":"ce4bhch2rcd13ifvqeug","pricing_plan_id":"cebpf4jnsgd1na2vs0mg"},{"bike_id":"7dc20b5c-3717-4a4c-b886-98e15b4d9d91","system_id":"levelo_inurba_marseille","lat":43.283998,"lon":5.375062,"is_reserved":false,"is_disabled":false,"rental_uris":{"android":"levelo://app?vid=7dc20b5c-3717-4a4c-b886-98e15b4d9d91","ios":"levelo://app?vid=7dc20b5c-3717-4a4c-b886-98e15b4d9d91"},"vehicle_type_id":"4","last_reported":1722265737,"current_range_meters":0,"station_id":"ce4bh412rcd13ifvqds0","pricing_plan_id":"cebpf4jnsgd1na2vs0mg"},{"bike_id":"42118b15-937e-41ff-90b8-87036071d9b6","system_id":"levelo_inurba_marseille","lat":43.283998,"lon":5.375062,"is_reserved":false,"is_disabled":false,"rental_uris":{"android":"levelo://app?vid=42118b15-937e-41ff-90b8-87036071d9b6","ios":"levelo://app?vid=42118b15-937e-41ff-90b8-87036071d9b6"},"vehicle_type_id":"4","last_reported":1722265737,"current_range_meters":12800,"station_id":"ce4bh412rcd13ifvqds0","pricing_plan_id":"cebpf4jnsgd1na2vs0mg"},{"bike_id":"d3b1f28f-ea9a-4dce-87eb-4b3ba8b25917","system_id":"levelo_inurba_marseille","lat":43.299371,"lon":5.402763,"is_reserved":false,"is_disabled":false,"rental_uris":{"android":"levelo://app?vid=d3b1f28f-ea9a-4dce-87eb-4b3ba8b25917","ios":"levelo://app?vid=d3b1f28f-ea9a-4dce-87eb-4b3ba8b25917"},"vehicle_type_id":"4","last_reported":1722265737,"current_range_meters":31200,"station_id":"","pricing_plan_id":"cebpf4jnsgd1na2vs0mg"},{"bike_id":"8a7f54a0-cd86-416e-81e8-500359c1d769","system_id":"levelo_inurba_marseille","lat":43.2995,"lon":5.40287,"is_reserved":false,"is_disabled":false,"rental_uris":{"android":"levelo://app?vid=8a7f54a0-cd86-416e-81e8-500359c1d769","ios":"levelo://app?vid=8a7f54a0-cd86-416e-81e8-500359c1d769"},"vehicle_type_id":"4","last_reported":1722265737,"current_range_meters":31200,"station_id":"","pricing_plan_id":"cebpf4jnsgd1na2vs0mg"},{"bike_id":"65ced017-f17e-454c-bb87-38a1948265cc","system_id":"levelo_inurba_marseille","lat":43.28402,"lon":5.37516,"is_reserved":false,"is_disabled":false,"rental_uris":{"android":"levelo://app?vid=65ced017-f17e-454c-bb87-38a1948265cc","ios":"levelo://app?vid=65ced017-f17e-454c-bb87-38a1948265cc"},"vehicle_type_id":"4","last_reported":1722265737,"current_range_meters":0,"station_id":"ce4bh412rcd13ifvqds0","pricing_plan_id":"cebpf4jnsgd1na2vs0mg"},{"bike_id":"345a88e7-5c27-4d27-9277-0614c056dbc7","system_id":"levelo_inurba_marseille","lat":43.29964,"lon":5.40307,"is_reserved":false,"is_disabled":false,"rental_uris":{"android":"levelo://app?vid=345a88e7-5c27-4d27-9277-0614c056dbc7","ios":"levelo://app?vid=345a88e7-5c27-4d27-9277-0614c056dbc7"},"vehicle_type_id":"4","last_reported":1722265737,"current_range_meters":26000,"station_id":"","pricing_plan_id":"cebpf4jnsgd1na2vs0mg"},{"bike_id":"79bd9f65-708e-4365-8bde-1db3feb7b70c","system_id":"levelo_inurba_marseille","lat":43.286595,"lon":5.386795,"is_reserved":false,"is_disabled":false,"rental_uris":{"android":"levelo://app?vid=79bd9f65-708e-4365-8bde-1db3feb7b70c","ios":"levelo://app?vid=79bd9f65-708e-4365-8bde-1db3feb7b70c"},"vehicle_type_id":"4","last_reported":1722265737,"current_range_meters":12000,"station_id":"ce4bh492rcd13ifvqdug","pricing_plan_id":"cebpf4jnsgd1na2vs0mg"},{"bike_id":"6dd05469-23a8-416e-9bee-4ddf8325844d","system_id":"levelo_inurba_marseille","lat":43.286595,"lon":5.386795,"is_reserved":false,"is_disabled":false,"rental_uris":{"android":"levelo://app?vid=6dd05469-23a8-416e-9bee-4ddf8325844d","ios":"levelo://app?vid=6dd05469-23a8-416e-9bee-4ddf8325844d"},"vehicle_type_id":"4","last_reported":1722265737,"current_range_meters":17600,"station_id":"ce4bh492rcd13ifvqdug","pricing_plan_id":"cebpf4jnsgd1na2vs0mg"},{"bike_id":"a2eb8262-c107-456f-afb3-c21653854f45","system_id":"levelo_inurba_marseille","lat":43.286595,"lon":5.386795,"is_reserved":false,"is_disabled":false,"rental_uris":{"android":"levelo://app?vid=a2eb8262-c107-456f-afb3-c21653854f45","ios":"levelo://app?vid=a2eb8262-c107-456f-afb3-c21653854f45"},"vehicle_type_id":"4","last_reported":1722265737,"current_range_meters":19600,"station_id":"ce4bh492rcd13ifvqdug","pricing_plan_id":"cebpf4jnsgd1na2vs0mg"},{"bike_id":"0144c0af-17e8-472e-a5f0-ac07c99afbfa","system_id":"levelo_inurba_marseille","lat":43.286595,"lon":5.386795,"is_reserved":false,"is_disabled":false,"rental_uris":{"android":"levelo://app?vid=0144c0af-17e8-472e-a5f0-ac07c99afbfa","ios":"levelo://app?vid=0144c0af-17e8-472e-a5f0-ac07c99afbfa"},"vehicle_type_id":"4","last_reported":1722265737,"current_range_meters":10800,"station_id":"ce4bh492rcd13ifvqdug","pricing_plan_id":"cebpf4jnsgd1na2vs0mg"},{"bike_id":"3d58ae68-1bcd-4798-94f8-85685f4f7592","system_id":"levelo_inurba_marseille","lat":43.285235,"lon":5.350616,"is_reserved":false,"is_disabled":false,"rental_uris":{"android":"levelo://app?vid=3d58ae68-1bcd-4798-94f8-85685f4f7592","ios":"levelo://app?vid=3d58ae68-1bcd-4798-94f8-85685f4f7592"},"vehicle_type_id":"4","last_reported":1722265737,"current_range_meters":22800,"station_id":"ce4bhbh2rcd13ifvqepg","pricing_plan_id":"cebpf4jnsgd1na2vs0mg"},{"bike_id":"8babb68f-7625-411f-83ac-a10f29f60f1e","system_id":"levelo_inurba_marseille","lat":43.28824,"lon":5.39169,"is_reserved":false,"is_disabled":false,"rental_uris":{"android":"levelo://app?vid=8babb68f-7625-411f-83ac-a10f29f60f1e","ios":"levelo://app?vid=8babb68f-7625-411f-83ac-a10f29f60f1e"},"vehicle_type_id":"4","last_reported":1722265737,"current_range_meters":20400,"station_id":"","pricing_plan_id":"cebpf4jnsgd1na2vs0mg"},{"bike_id":"da434a8a-7123-4617-a8d7-498afb6da25a","system_id":"levelo_inurba_marseille","lat":43.33717,"lon":5.391857,"is_reserved":false,"is_disabled":false,"rental_uris":{"android":"levelo://app?vid=da434a8a-7123-4617-a8d7-498afb6da25a","ios":"levelo://app?vid=da434a8a-7123-4617-a8d7-498afb6da25a"},"vehicle_type_id":"4","last_reported":1722265737,"current_range_meters":31200,"station_id":"ce4bhr92rcd13ifvqhsg","pricing_plan_id":"cebpf4jnsgd1na2vs0mg"},{"bike_id":"a1cdeb0f-cc05-4ae7-877a-81a32b2685a0","system_id":"levelo_inurba_marseille","lat":43.33717,"lon":5.391857,"is_reserved":false,"is_disabled":false,"rental_uris":{"android":"levelo://app?vid=a1cdeb0f-cc05-4ae7-877a-81a32b2685a0","ios":"levelo://app?vid=a1cdeb0f-cc05-4ae7-877a-81a32b2685a0"},"vehicle_type_id":"4","last_reported":1722265737,"current_range_meters":31200,"station_id":"ce4bhr92rcd13ifvqhsg","pricing_plan_id":"cebpf4jnsgd1na2vs0mg"},{"bike_id":"337bc02a-3d34-4593-b8da-71955f4e90bb","system_id":"levelo_inurba_marseille","lat":43.33717,"lon":5.391857,"is_reserved":false,"is_disabled":false,"rental_uris":{"android":"levelo://app?vid=337bc02a-3d34-4593-b8da-71955f4e90bb","ios":"levelo://app?vid=337bc02a-3d34-4593-b8da-71955f4e90bb"},"vehicle_type_id":"4","last_reported":1722265737,"current_range_meters":15600,"station_id":"ce4bhr92rcd13ifvqhsg","pricing_plan_id":"cebpf4jnsgd1na2vs0mg"},{"bike_id":"087e6a04-2e82-4f7e-a0ee-4edcf89fec53","system_id":"levelo_inurba_marseille","lat":43.284793,"lon":5.384113,"is_reserved":false,"is_disabled":false,"rental_uris":{"android":"levelo://app?vid=087e6a04-2e82-4f7e-a0ee-4edcf89fec53","ios":"levelo://app?vid=087e6a04-2e82-4f7e-a0ee-4edcf89fec53"},"vehicle_type_id":"4","last_reported":1722265737,"current_range_meters":26400,"station_id":"ce4bh512rcd13ifvqe3g","pricing_plan_id":"cebpf4jnsgd1na2vs0mg"},{"bike_id":"8dc39292-9840-4063-927b-2676295e2254","system_id":"levelo_inurba_marseille","lat":43.337168,"lon":5.391825,"is_reserved":false,"is_disabled":false,"rental_uris":{"android":"levelo://app?vid=8dc39292-9840-4063-927b-2676295e2254","ios":"levelo://app?vid=8dc39292-9840-4063-927b-2676295e2254"},"vehicle_type_id":"4","last_reported":1722265737,"current_range_meters":7200,"station_id":"ce4bhr92rcd13ifvqhsg","pricing_plan_id":"cebpf4jnsgd1na2vs0mg"},{"bike_id":"a1fbb96f-9729-42f2-a926-40fa3d99bfa6","system_id":"levelo_inurba_marseille","lat":43.282744,"lon":5.350533,"is_reserved":false,"is_disabled":false,"rental_uris":{"android":"levelo://app?vid=a1fbb96f-9729-42f2-a926-40fa3d99bfa6","ios":"levelo://app?vid=a1fbb96f-9729-42f2-a926-40fa3d99bfa6"},"vehicle_type_id":"4","last_reported":1722265737,"current_range_meters":0,"station_id":"ce4bhbp2rcd13ifvqerg","pricing_plan_id":"cebpf4jnsgd1na2vs0mg"},{"bike_id":"f9d4e2b6-379a-4430-a906-3c092594b764","system_id":"levelo_inurba_marseille","lat":43.284787,"lon":5.384116,"is_reserved":false,"is_disabled":false,"rental_uris":{"android":"levelo://app?vid=f9d4e2b6-379a-4430-a906-3c092594b764","ios":"levelo://app?vid=f9d4e2b6-379a-4430-a906-3c092594b764"},"vehicle_type_id":"4","last_reported":1722265737,"current_range_meters":0,"station_id":"ce4bh512rcd13ifvqe3g","pricing_plan_id":"cebpf4jnsgd1na2vs0mg"},{"bike_id":"5f6273ff-5d6d-41f5-8287-7eb4bc20d62a","system_id":"levelo_inurba_marseille","lat":43.284776,"lon":5.385603,"is_reserved":false,"is_disabled":false,"rental_uris":{"android":"levelo://app?vid=5f6273ff-5d6d-41f5-8287-7eb4bc20d62a","ios":"levelo://app?vid=5f6273ff-5d6d-41f5-8287-7eb4bc20d62a"},"vehicle_type_id":"4","last_reported":1722265737,"current_range_meters":0,"station_id":"ce4bh8p2rcd13ifvqeb0","pricing_plan_id":"cebpf4jnsgd1na2vs0mg"},{"bike_id":"a219b309-372c-48aa-885f-7b707bd01edb","system_id":"levelo_inurba_marseille","lat":43.297946,"lon":5.404063,"is_reserved":false,"is_disabled":false,"rental_uris":{"android":"levelo://app?vid=a219b309-372c-48aa-885f-7b707bd01edb","ios":"levelo://app?vid=a219b309-372c-48aa-885f-7b707bd01edb"},"vehicle_type_id":"4","last_reported":1722265737,"current_range_meters":15200,"station_id":"ce4bh112rcd13ifvqd90","pricing_plan_id":"cebpf4jnsgd1na2vs0mg"},{"bike_id":"71b7da71-4d63-4c18-a73f-9a42940d4562","system_id":"levelo_inurba_marseille","lat":43.284219,"lon":5.3497,"is_reserved":false,"is_disabled":false,"rental_uris":{"android":"levelo://app?vid=71b7da71-4d63-4c18-a73f-9a42940d4562","ios":"levelo://app?vid=71b7da71-4d63-4c18-a73f-9a42940d4562"},"vehicle_type_id":"4","last_reported":1722265737,"current_range_meters":28000,"station_id":"ce4bhbh2rcd13ifvqepg","pricing_plan_id":"cebpf4jnsgd1na2vs0mg"},{"bike_id":"657c2aa6-b3db-4aac-a8f6-4a2885e220e6","system_id":"levelo_inurba_marseille","lat":43.284219,"lon":5.3497,"is_reserved":false,"is_disabled":false,"rental_uris":{"android":"levelo://app?vid=657c2aa6-b3db-4aac-a8f6-4a2885e220e6","ios":"levelo://app?vid=657c2aa6-b3db-4aac-a8f6-4a2885e220e6"},"vehicle_type_id":"4","last_reported":1722265737,"current_range_meters":26400,"station_id":"ce4bhbh2rcd13ifvqepg","pricing_plan_id":"cebpf4jnsgd1na2vs0mg"},{"bike_id":"da796497-2529-4297-9ba6-4cea47bb6cb2","system_id":"levelo_inurba_marseille","lat":43.28427,"lon":5.34984,"is_reserved":false,"is_disabled":false,"rental_uris":{"android":"levelo://app?vid=da796497-2529-4297-9ba6-4cea47bb6cb2","ios":"levelo://app?vid=da796497-2529-4297-9ba6-4cea47bb6cb2"},"vehicle_type_id":"4","last_reported":1722265737,"current_range_meters":18400,"station_id":"ce4bhbh2rcd13ifvqepg","pricing_plan_id":"cebpf4jnsgd1na2vs0mg"},{"bike_id":"e886d12b-543b-42ac-9b7b-302fde4ce781","system_id":"levelo_inurba_marseille","lat":43.284219,"lon":5.3497,"is_reserved":false,"is_disabled":false,"rental_uris":{"android":"levelo://app?vid=e886d12b-543b-42ac-9b7b-302fde4ce781","ios":"levelo://app?vid=e886d12b-543b-42ac-9b7b-302fde4ce781"},"vehicle_type_id":"4","last_reported":1722265737,"current_range_meters":13200,"station_id":"ce4bhbh2rcd13ifvqepg","pricing_plan_id":"cebpf4jnsgd1na2vs0mg"},{"bike_id":"6aa01dde-8457-4051-939e-029e415d098c","system_id":"levelo_inurba_marseille","lat":43.284219,"lon":5.3497,"is_reserved":false,"is_disabled":false,"rental_uris":{"android":"levelo://app?vid=6aa01dde-8457-4051-939e-029e415d098c","ios":"levelo://app?vid=6aa01dde-8457-4051-939e-029e415d098c"},"vehicle_type_id":"4","last_reported":1722265737,"current_range_meters":30400,"station_id":"ce4bhbh2rcd13ifvqepg","pricing_plan_id":"cebpf4jnsgd1na2vs0mg"},{"bike_id":"6c6cc2ec-9f7b-4c04-ab93-95333e938f6a","system_id":"levelo_inurba_marseille","lat":43.284219,"lon":5.3497,"is_reserved":false,"is_disabled":false,"rental_uris":{"android":"levelo://app?vid=6c6cc2ec-9f7b-4c04-ab93-95333e938f6a","ios":"levelo://app?vid=6c6cc2ec-9f7b-4c04-ab93-95333e938f6a"},"vehicle_type_id":"4","last_reported":1722265737,"current_range_meters":24000,"station_id":"ce4bhbh2rcd13ifvqepg","pricing_plan_id":"cebpf4jnsgd1na2vs0mg"},{"bike_id":"2dc8b9c1-e937-4138-81e3-1254b5fa3ea1","system_id":"levelo_inurba_marseille","lat":43.28422,"lon":5.34994,"is_reserved":false,"is_disabled":false,"rental_uris":{"android":"levelo://app?vid=2dc8b9c1-e937-4138-81e3-1254b5fa3ea1","ios":"levelo://app?vid=2dc8b9c1-e937-4138-81e3-1254b5fa3ea1"},"vehicle_type_id":"4","last_reported":1722265737,"current_range_meters":31200,"station_id":"ce4bhbh2rcd13ifvqepg","pricing_plan_id":"cebpf4jnsgd1na2vs0mg"},{"bike_id":"0ae97931-d0af-4c5c-a354-b383e3bd70b3","system_id":"levelo_inurba_marseille","lat":43.284214,"lon":5.349706,"is_reserved":false,"is_disabled":false,"rental_uris":{"android":"levelo://app?vid=0ae97931-d0af-4c5c-a354-b383e3bd70b3","ios":"levelo://app?vid=0ae97931-d0af-4c5c-a354-b383e3bd70b3"},"vehicle_type_id":"4","last_reported":1722265737,"current_range_meters":27200,"station_id":"ce4bhbh2rcd13ifvqepg","pricing_plan_id":"cebpf4jnsgd1na2vs0mg"},{"bike_id":"4186ebe8-94d2-4f8f-bd3b-4178a291e493","system_id":"levelo_inurba_marseille","lat":43.284219,"lon":5.3497,"is_reserved":false,"is_disabled":false,"rental_uris":{"android":"levelo://app?vid=4186ebe8-94d2-4f8f-bd3b-4178a291e493","ios":"levelo://app?vid=4186ebe8-94d2-4f8f-bd3b-4178a291e493"},"vehicle_type_id":"4","last_reported":1722265737,"current_range_meters":31200,"station_id":"ce4bhbh2rcd13ifvqepg","pricing_plan_id":"cebpf4jnsgd1na2vs0mg"},{"bike_id":"39a1a0bf-d8fb-4467-86bb-a30e5f469ab9","system_id":"levelo_inurba_marseille","lat":43.284219,"lon":5.3497,"is_reserved":false,"is_disabled":false,"rental_uris":{"android":"levelo://app?vid=39a1a0bf-d8fb-4467-86bb-a30e5f469ab9","ios":"levelo://app?vid=39a1a0bf-d8fb-4467-86bb-a30e5f469ab9"},"vehicle_type_id":"4","last_reported":1722265737,"current_range_meters":30400,"station_id":"ce4bhbh2rcd13ifvqepg","pricing_plan_id":"cebpf4jnsgd1na2vs0mg"},{"bike_id":"80fd520d-2c23-43c9-b89e-12a1910f7972","system_id":"levelo_inurba_marseille","lat":43.284217,"lon":5.349697,"is_reserved":false,"is_disabled":false,"rental_uris":{"android":"levelo://app?vid=80fd520d-2c23-43c9-b89e-12a1910f7972","ios":"levelo://app?vid=80fd520d-2c23-43c9-b89e-12a1910f7972"},"vehicle_type_id":"4","last_reported":1722265737,"current_range_meters":26800,"station_id":"ce4bhbh2rcd13ifvqepg","pricing_plan_id":"cebpf4jnsgd1na2vs0mg"},{"bike_id":"8413fbcd-409f-4252-b183-0f798f90bc1f","system_id":"levelo_inurba_marseille","lat":43.284214,"lon":5.349706,"is_reserved":false,"is_disabled":false,"rental_uris":{"android":"levelo://app?vid=8413fbcd-409f-4252-b183-0f798f90bc1f","ios":"levelo://app?vid=8413fbcd-409f-4252-b183-0f798f90bc1f"},"vehicle_type_id":"4","last_reported":1722265737,"current_range_meters":31200,"station_id":"ce4bhbh2rcd13ifvqepg","pricing_plan_id":"cebpf4jnsgd1na2vs0mg"},{"bike_id":"d88fc770-789f-445e-ba22-27226a137b41","system_id":"levelo_inurba_marseille","lat":43.284214,"lon":5.349706,"is_reserved":false,"is_disabled":false,"rental_uris":{"android":"levelo://app?vid=d88fc770-789f-445e-ba22-27226a137b41","ios":"levelo://app?vid=d88fc770-789f-445e-ba22-27226a137b41"},"vehicle_type_id":"4","last_reported":1722265737,"current_range_meters":20000,"station_id":"ce4bhbh2rcd13ifvqepg","pricing_plan_id":"cebpf4jnsgd1na2vs0mg"},{"bike_id":"0d67de3f-a69a-4647-983a-e22a30d24006","system_id":"levelo_inurba_marseille","lat":43.284214,"lon":5.349706,"is_reserved":false,"is_disabled":false,"rental_uris":{"android":"levelo://app?vid=0d67de3f-a69a-4647-983a-e22a30d24006","ios":"levelo://app?vid=0d67de3f-a69a-4647-983a-e22a30d24006"},"vehicle_type_id":"4","last_reported":1722265737,"current_range_meters":23600,"station_id":"ce4bhbh2rcd13ifvqepg","pricing_plan_id":"cebpf4jnsgd1na2vs0mg"},{"bike_id":"cc87d072-7779-40cb-81f8-5a9fb3ebaeb1","system_id":"levelo_inurba_marseille","lat":43.284217,"lon":5.349697,"is_reserved":false,"is_disabled":false,"rental_uris":{"android":"levelo://app?vid=cc87d072-7779-40cb-81f8-5a9fb3ebaeb1","ios":"levelo://app?vid=cc87d072-7779-40cb-81f8-5a9fb3ebaeb1"},"vehicle_type_id":"4","last_reported":1722265737,"current_range_meters":4800,"station_id":"ce4bhbh2rcd13ifvqepg","pricing_plan_id":"cebpf4jnsgd1na2vs0mg"},{"bike_id":"feeea4ac-8081-4d0d-a4af-bfa49f6ff79b","system_id":"levelo_inurba_marseille","lat":43.284219,"lon":5.3497,"is_reserved":false,"is_disabled":false,"rental_uris":{"android":"levelo://app?vid=feeea4ac-8081-4d0d-a4af-bfa49f6ff79b","ios":"levelo://app?vid=feeea4ac-8081-4d0d-a4af-bfa49f6ff79b"},"vehicle_type_id":"4","last_reported":1722265737,"current_range_meters":31200,"station_id":"ce4bhbh2rcd13ifvqepg","pricing_plan_id":"cebpf4jnsgd1na2vs0mg"},{"bike_id":"e8c6b70a-b634-4a8d-b990-4301c8c65680","system_id":"levelo_inurba_marseille","lat":43.284219,"lon":5.3497,"is_reserved":false,"is_disabled":false,"rental_uris":{"android":"levelo://app?vid=e8c6b70a-b634-4a8d-b990-4301c8c65680","ios":"levelo://app?vid=e8c6b70a-b634-4a8d-b990-4301c8c65680"},"vehicle_type_id":"4","last_reported":1722265737,"current_range_meters":30800,"station_id":"ce4bhbh2rcd13ifvqepg","pricing_plan_id":"cebpf4jnsgd1na2vs0mg"},{"bike_id":"8e9fad42-6f01-4f6c-a0d5-6493c362e0d9","system_id":"levelo_inurba_marseille","lat":43.284217,"lon":5.349697,"is_reserved":false,"is_disabled":false,"rental_uris":{"android":"levelo://app?vid=8e9fad42-6f01-4f6c-a0d5-6493c362e0d9","ios":"levelo://app?vid=8e9fad42-6f01-4f6c-a0d5-6493c362e0d9"},"vehicle_type_id":"4","last_reported":1722265737,"current_range_meters":21600,"station_id":"ce4bhbh2rcd13ifvqepg","pricing_plan_id":"cebpf4jnsgd1na2vs0mg"},{"bike_id":"63fb993d-33a5-4314-bb3d-fc0d2e0a9272","system_id":"levelo_inurba_marseille","lat":43.284214,"lon":5.349706,"is_reserved":false,"is_disabled":false,"rental_uris":{"android":"levelo://app?vid=63fb993d-33a5-4314-bb3d-fc0d2e0a9272","ios":"levelo://app?vid=63fb993d-33a5-4314-bb3d-fc0d2e0a9272"},"vehicle_type_id":"4","last_reported":1722265737,"current_range_meters":31200,"station_id":"ce4bhbh2rcd13ifvqepg","pricing_plan_id":"cebpf4jnsgd1na2vs0mg"},{"bike_id":"0f7c3bb4-f003-45e8-8ce9-41e6d73d63c2","system_id":"levelo_inurba_marseille","lat":43.284219,"lon":5.3497,"is_reserved":false,"is_disabled":false,"rental_uris":{"android":"levelo://app?vid=0f7c3bb4-f003-45e8-8ce9-41e6d73d63c2","ios":"levelo://app?vid=0f7c3bb4-f003-45e8-8ce9-41e6d73d63c2"},"vehicle_type_id":"4","last_reported":1722265737,"current_range_meters":8000,"station_id":"ce4bhbh2rcd13ifvqepg","pricing_plan_id":"cebpf4jnsgd1na2vs0mg"},{"bike_id":"6af722e1-a2ea-45d0-a706-43ebc110982a","system_id":"levelo_inurba_marseille","lat":43.284219,"lon":5.3497,"is_reserved":false,"is_disabled":false,"rental_uris":{"android":"levelo://app?vid=6af722e1-a2ea-45d0-a706-43ebc110982a","ios":"levelo://app?vid=6af722e1-a2ea-45d0-a706-43ebc110982a"},"vehicle_type_id":"4","last_reported":1722265737,"current_range_meters":16800,"station_id":"ce4bhbh2rcd13ifvqepg","pricing_plan_id":"cebpf4jnsgd1na2vs0mg"},{"bike_id":"7653d3a8-ee0c-4b5a-ab4c-25071e10ac10","system_id":"levelo_inurba_marseille","lat":43.284214,"lon":5.349706,"is_reserved":false,"is_disabled":false,"rental_uris":{"android":"levelo://app?vid=7653d3a8-ee0c-4b5a-ab4c-25071e10ac10","ios":"levelo://app?vid=7653d3a8-ee0c-4b5a-ab4c-25071e10ac10"},"vehicle_type_id":"4","last_reported":1722265737,"current_range_meters":30000,"station_id":"ce4bhbh2rcd13ifvqepg","pricing_plan_id":"cebpf4jnsgd1na2vs0mg"},{"bike_id":"9c928de9-5fa2-4e16-ba4f-270d34f819a0","system_id":"levelo_inurba_marseille","lat":43.284217,"lon":5.349697,"is_reserved":false,"is_disabled":false,"rental_uris":{"android":"levelo://app?vid=9c928de9-5fa2-4e16-ba4f-270d34f819a0","ios":"levelo://app?vid=9c928de9-5fa2-4e16-ba4f-270d34f819a0"},"vehicle_type_id":"4","last_reported":1722265737,"current_range_meters":20800,"station_id":"ce4bhbh2rcd13ifvqepg","pricing_plan_id":"cebpf4jnsgd1na2vs0mg"},{"bike_id":"56e72d26-af53-4058-91a5-a1c0766cb110","system_id":"levelo_inurba_marseille","lat":43.28421,"lon":5.3498,"is_reserved":false,"is_disabled":false,"rental_uris":{"android":"levelo://app?vid=56e72d26-af53-4058-91a5-a1c0766cb110","ios":"levelo://app?vid=56e72d26-af53-4058-91a5-a1c0766cb110"},"vehicle_type_id":"4","last_reported":1722265737,"current_range_meters":8400,"station_id":"ce4bhbh2rcd13ifvqepg","pricing_plan_id":"cebpf4jnsgd1na2vs0mg"},{"bike_id":"d146cca2-7f7c-418e-b96d-d81286d46067","system_id":"levelo_inurba_marseille","lat":43.28419,"lon":5.34986,"is_reserved":false,"is_disabled":false,"rental_uris":{"android":"levelo://app?vid=d146cca2-7f7c-418e-b96d-d81286d46067","ios":"levelo://app?vid=d146cca2-7f7c-418e-b96d-d81286d46067"},"vehicle_type_id":"4","last_reported":1722265737,"current_range_meters":31200,"station_id":"ce4bhbh2rcd13ifvqepg","pricing_plan_id":"cebpf4jnsgd1na2vs0mg"},{"bike_id":"2714db11-97b1-4277-ba5f-b4e08784ba8d","system_id":"levelo_inurba_marseille","lat":43.284177,"lon":5.349893,"is_reserved":false,"is_disabled":false,"rental_uris":{"android":"levelo://app?vid=2714db11-97b1-4277-ba5f-b4e08784ba8d","ios":"levelo://app?vid=2714db11-97b1-4277-ba5f-b4e08784ba8d"},"vehicle_type_id":"4","last_reported":1722265737,"current_range_meters":20000,"station_id":"ce4bhbh2rcd13ifvqepg","pricing_plan_id":"cebpf4jnsgd1na2vs0mg"},{"bike_id":"562a55a7-1073-4f3a-ac10-e17263c030a1","system_id":"levelo_inurba_marseille","lat":43.284217,"lon":5.349697,"is_reserved":false,"is_disabled":false,"rental_uris":{"android":"levelo://app?vid=562a55a7-1073-4f3a-ac10-e17263c030a1","ios":"levelo://app?vid=562a55a7-1073-4f3a-ac10-e17263c030a1"},"vehicle_type_id":"4","last_reported":1722265737,"current_range_meters":30000,"station_id":"ce4bhbh2rcd13ifvqepg","pricing_plan_id":"cebpf4jnsgd1na2vs0mg"},{"bike_id":"241dbcc3-672a-4420-8083-cd6c0365aaf7","system_id":"levelo_inurba_marseille","lat":43.2842,"lon":5.3498,"is_reserved":false,"is_disabled":false,"rental_uris":{"android":"levelo://app?vid=241dbcc3-672a-4420-8083-cd6c0365aaf7","ios":"levelo://app?vid=241dbcc3-672a-4420-8083-cd6c0365aaf7"},"vehicle_type_id":"4","last_reported":1722265737,"current_range_meters":25200,"station_id":"ce4bhbh2rcd13ifvqepg","pricing_plan_id":"cebpf4jnsgd1na2vs0mg"},{"bike_id":"7d74d4e5-9527-4ff0-99e2-67f63578e1ed","system_id":"levelo_inurba_marseille","lat":43.284217,"lon":5.349697,"is_reserved":false,"is_disabled":false,"rental_uris":{"android":"levelo://app?vid=7d74d4e5-9527-4ff0-99e2-67f63578e1ed","ios":"levelo://app?vid=7d74d4e5-9527-4ff0-99e2-67f63578e1ed"},"vehicle_type_id":"4","last_reported":1722265737,"current_range_meters":22000,"station_id":"ce4bhbh2rcd13ifvqepg","pricing_plan_id":"cebpf4jnsgd1na2vs0mg"},{"bike_id":"8d3878b9-46db-4949-a6ce-003bd1d70288","system_id":"levelo_inurba_marseille","lat":43.28414,"lon":5.34994,"is_reserved":false,"is_disabled":false,"rental_uris":{"android":"levelo://app?vid=8d3878b9-46db-4949-a6ce-003bd1d70288","ios":"levelo://app?vid=8d3878b9-46db-4949-a6ce-003bd1d70288"},"vehicle_type_id":"4","last_reported":1722265737,"current_range_meters":13200,"station_id":"ce4bhbh2rcd13ifvqepg","pricing_plan_id":"cebpf4jnsgd1na2vs0mg"},{"bike_id":"a7bdeaa8-f716-45a8-bebd-846c92063835","system_id":"levelo_inurba_marseille","lat":43.284214,"lon":5.349706,"is_reserved":false,"is_disabled":false,"rental_uris":{"android":"levelo://app?vid=a7bdeaa8-f716-45a8-bebd-846c92063835","ios":"levelo://app?vid=a7bdeaa8-f716-45a8-bebd-846c92063835"},"vehicle_type_id":"4","last_reported":1722265737,"current_range_meters":20000,"station_id":"ce4bhbh2rcd13ifvqepg","pricing_plan_id":"cebpf4jnsgd1na2vs0mg"},{"bike_id":"3a7776dd-9403-4c2c-a72d-c0a2129beca3","system_id":"levelo_inurba_marseille","lat":43.28419,"lon":5.34976,"is_reserved":false,"is_disabled":false,"rental_uris":{"android":"levelo://app?vid=3a7776dd-9403-4c2c-a72d-c0a2129beca3","ios":"levelo://app?vid=3a7776dd-9403-4c2c-a72d-c0a2129beca3"},"vehicle_type_id":"4","last_reported":1722265737,"current_range_meters":11200,"station_id":"ce4bhbh2rcd13ifvqepg","pricing_plan_id":"cebpf4jnsgd1na2vs0mg"},{"bike_id":"5d44b68d-e120-4757-87b5-a3e139182a89","system_id":"levelo_inurba_marseille","lat":43.284217,"lon":5.349697,"is_reserved":false,"is_disabled":false,"rental_uris":{"android":"levelo://app?vid=5d44b68d-e120-4757-87b5-a3e139182a89","ios":"levelo://app?vid=5d44b68d-e120-4757-87b5-a3e139182a89"},"vehicle_type_id":"4","last_reported":1722265737,"current_range_meters":31200,"station_id":"ce4bhbh2rcd13ifvqepg","pricing_plan_id":"cebpf4jnsgd1na2vs0mg"},{"bike_id":"b5d376f4-f29e-41a0-9fb6-ed66c36938d2","system_id":"levelo_inurba_marseille","lat":43.28411,"lon":5.35,"is_reserved":false,"is_disabled":false,"rental_uris":{"android":"levelo://app?vid=b5d376f4-f29e-41a0-9fb6-ed66c36938d2","ios":"levelo://app?vid=b5d376f4-f29e-41a0-9fb6-ed66c36938d2"},"vehicle_type_id":"4","last_reported":1722265737,"current_range_meters":4000,"station_id":"ce4bhbh2rcd13ifvqepg","pricing_plan_id":"cebpf4jnsgd1na2vs0mg"},{"bike_id":"94dfd97f-8304-45e3-92e2-6b38e8f62432","system_id":"levelo_inurba_marseille","lat":43.284214,"lon":5.349706,"is_reserved":false,"is_disabled":false,"rental_uris":{"android":"levelo://app?vid=94dfd97f-8304-45e3-92e2-6b38e8f62432","ios":"levelo://app?vid=94dfd97f-8304-45e3-92e2-6b38e8f62432"},"vehicle_type_id":"4","last_reported":1722265737,"current_range_meters":31200,"station_id":"ce4bhbh2rcd13ifvqepg","pricing_plan_id":"cebpf4jnsgd1na2vs0mg"},{"bike_id":"4ed37d39-316e-42fc-b553-40e1fb60f26d","system_id":"levelo_inurba_marseille","lat":43.2841,"lon":5.34999,"is_reserved":false,"is_disabled":false,"rental_uris":{"android":"levelo://app?vid=4ed37d39-316e-42fc-b553-40e1fb60f26d","ios":"levelo://app?vid=4ed37d39-316e-42fc-b553-40e1fb60f26d"},"vehicle_type_id":"4","last_reported":1722265737,"current_range_meters":14400,"station_id":"ce4bhbh2rcd13ifvqepg","pricing_plan_id":"cebpf4jnsgd1na2vs0mg"},{"bike_id":"f8a936c7-06cf-49a5-8d16-1da1a442cac2","system_id":"levelo_inurba_marseille","lat":43.28415,"lon":5.34983,"is_reserved":false,"is_disabled":false,"rental_uris":{"android":"levelo://app?vid=f8a936c7-06cf-49a5-8d16-1da1a442cac2","ios":"levelo://app?vid=f8a936c7-06cf-49a5-8d16-1da1a442cac2"},"vehicle_type_id":"4","last_reported":1722265737,"current_range_meters":20000,"station_id":"ce4bhbh2rcd13ifvqepg","pricing_plan_id":"cebpf4jnsgd1na2vs0mg"},{"bike_id":"3b6af82b-01eb-4948-b863-b711a77ee06a","system_id":"levelo_inurba_marseille","lat":43.284214,"lon":5.349706,"is_reserved":false,"is_disabled":false,"rental_uris":{"android":"levelo://app?vid=3b6af82b-01eb-4948-b863-b711a77ee06a","ios":"levelo://app?vid=3b6af82b-01eb-4948-b863-b711a77ee06a"},"vehicle_type_id":"4","last_reported":1722265737,"current_range_meters":16800,"station_id":"ce4bhbh2rcd13ifvqepg","pricing_plan_id":"cebpf4jnsgd1na2vs0mg"},{"bike_id":"3f92f338-f22c-4c6a-8aa0-165027e7393f","system_id":"levelo_inurba_marseille","lat":43.28414,"lon":5.34986,"is_reserved":false,"is_disabled":false,"rental_uris":{"android":"levelo://app?vid=3f92f338-f22c-4c6a-8aa0-165027e7393f","ios":"levelo://app?vid=3f92f338-f22c-4c6a-8aa0-165027e7393f"},"vehicle_type_id":"4","last_reported":1722265737,"current_range_meters":12800,"station_id":"ce4bhbh2rcd13ifvqepg","pricing_plan_id":"cebpf4jnsgd1na2vs0mg"},{"bike_id":"7287805f-dc8b-4b5b-821c-1c2442565b36","system_id":"levelo_inurba_marseille","lat":43.284217,"lon":5.349697,"is_reserved":false,"is_disabled":false,"rental_uris":{"android":"levelo://app?vid=7287805f-dc8b-4b5b-821c-1c2442565b36","ios":"levelo://app?vid=7287805f-dc8b-4b5b-821c-1c2442565b36"},"vehicle_type_id":"4","last_reported":1722265737,"current_range_meters":31200,"station_id":"ce4bhbh2rcd13ifvqepg","pricing_plan_id":"cebpf4jnsgd1na2vs0mg"},{"bike_id":"d39145d6-18c0-4ae1-a0aa-c5cc94c4c3c3","system_id":"levelo_inurba_marseille","lat":43.284153,"lon":5.34981,"is_reserved":false,"is_disabled":false,"rental_uris":{"android":"levelo://app?vid=d39145d6-18c0-4ae1-a0aa-c5cc94c4c3c3","ios":"levelo://app?vid=d39145d6-18c0-4ae1-a0aa-c5cc94c4c3c3"},"vehicle_type_id":"4","last_reported":1722265737,"current_range_meters":16000,"station_id":"ce4bhbh2rcd13ifvqepg","pricing_plan_id":"cebpf4jnsgd1na2vs0mg"},{"bike_id":"a9180c1f-96ac-4798-9b97-dc527502207c","system_id":"levelo_inurba_marseille","lat":43.284217,"lon":5.349697,"is_reserved":false,"is_disabled":false,"rental_uris":{"android":"levelo://app?vid=a9180c1f-96ac-4798-9b97-dc527502207c","ios":"levelo://app?vid=a9180c1f-96ac-4798-9b97-dc527502207c"},"vehicle_type_id":"4","last_reported":1722265737,"current_range_meters":31200,"station_id":"ce4bhbh2rcd13ifvqepg","pricing_plan_id":"cebpf4jnsgd1na2vs0mg"},{"bike_id":"dc7c147a-cccc-4848-bf76-b0d1371e1cf8","system_id":"levelo_inurba_marseille","lat":43.284105,"lon":5.34995,"is_reserved":false,"is_disabled":false,"rental_uris":{"android":"levelo://app?vid=dc7c147a-cccc-4848-bf76-b0d1371e1cf8","ios":"levelo://app?vid=dc7c147a-cccc-4848-bf76-b0d1371e1cf8"},"vehicle_type_id":"4","last_reported":1722265737,"current_range_meters":0,"station_id":"ce4bhbh2rcd13ifvqepg","pricing_plan_id":"cebpf4jnsgd1na2vs0mg"},{"bike_id":"899a0ef9-123a-4051-84b6-99b5d0fd2e3b","system_id":"levelo_inurba_marseille","lat":43.284219,"lon":5.3497,"is_reserved":false,"is_disabled":false,"rental_uris":{"android":"levelo://app?vid=899a0ef9-123a-4051-84b6-99b5d0fd2e3b","ios":"levelo://app?vid=899a0ef9-123a-4051-84b6-99b5d0fd2e3b"},"vehicle_type_id":"4","last_reported":1722265737,"current_range_meters":31200,"station_id":"ce4bhbh2rcd13ifvqepg","pricing_plan_id":"cebpf4jnsgd1na2vs0mg"},{"bike_id":"33cf43be-6e98-4c55-9581-c71b0ee2c13b","system_id":"levelo_inurba_marseille","lat":43.284214,"lon":5.349706,"is_reserved":false,"is_disabled":false,"rental_uris":{"android":"levelo://app?vid=33cf43be-6e98-4c55-9581-c71b0ee2c13b","ios":"levelo://app?vid=33cf43be-6e98-4c55-9581-c71b0ee2c13b"},"vehicle_type_id":"4","last_reported":1722265737,"current_range_meters":28400,"station_id":"ce4bhbh2rcd13ifvqepg","pricing_plan_id":"cebpf4jnsgd1na2vs0mg"},{"bike_id":"d707d847-bcf1-4900-8134-82a0445f5bfe","system_id":"levelo_inurba_marseille","lat":43.28412,"lon":5.34988,"is_reserved":false,"is_disabled":false,"rental_uris":{"android":"levelo://app?vid=d707d847-bcf1-4900-8134-82a0445f5bfe","ios":"levelo://app?vid=d707d847-bcf1-4900-8134-82a0445f5bfe"},"vehicle_type_id":"4","last_reported":1722265737,"current_range_meters":22400,"station_id":"ce4bhbh2rcd13ifvqepg","pricing_plan_id":"cebpf4jnsgd1na2vs0mg"},