{"last_updated":1737238071,"ttl":60,"version":"2.2","data":{"bikes":[{"bike_id":"fe9584c6-d7c2-4da9-a68c-49720b62392c","system_id":"levelo_inurba_marseille","lat":43.28567,"lon":5.39487,"is_reserved":false,"is_disabled":false,"rental_uris":{"android":"levelo://app?vid=fe9584c6-d7c2-4da9-a68c-49720b62392c","ios":"levelo://app?vid=fe9584c6-d7c2-4da9-a68c-49720b62392c"},"vehicle_type_id":"4","last_reported":1737238071,"current_range_meters":35600,"station_id":"ce4bh292rcd13ifvqdg0","pricing_plan_id":"cebpf4jnsgd1na2vs0mg"},{"bike_id":"311fb0b2-04d9-4113-b92b-92a223c03d3c","system_id":"levelo_inurba_marseille","lat":43.29247,"lon":5.38457,"is_reserved":false,"is_disabled":false,"rental_uris":{"android":"levelo://app?vid=311fb0b2-04d9-4113-b92b-92a223c03d3c","ios":"levelo://app?vid=311fb0b2-04d9-4113-b92b-92a223c03d3c"},"vehicle_type_id":"4","last_reported":1737238071,"current_range_meters":19200,"station_id":"ce4bh692rcd13ifvqea0","pricing_plan_id":"cebpf4jnsgd1na2vs0mg"},{"bike_id":"2e499e90-5e62-44ce-85f4-3a9a36ff3c3c","system_id":"levelo_inurba_marseille","lat":43.289277,"lon":5.384065,"is_reserved":false,"is_disabled":false,"rental_uris":{"android":"levelo://app?vid=2e499e90-5e62-44ce-85f4-3a9a36ff3c3c","ios":"levelo://app?vid=2e499e90-5e62-44ce-85f4-3a9a36ff3c3c"},"vehicle_type_id":"4","last_reported":1737238071,"current_range_meters":19600,"station_id":"ce4bh612rcd13ifvqe6g","pricing_plan_id":"cebpf4jnsgd1na2vs0mg"},{"bike_id":"a2acfcf5-a2f4-4227-800b-90a2385f3572","system_id":"levelo_inurba_marseille","lat":43.29069,"lon":5.37181,"is_reserved":false,"is_disabled":false,"rental_uris":{"android":"levelo://app?vid=a2acfcf5-a2f4-4227-800b-90a2385f3572","ios":"levelo://app?vid=a2acfcf5-a2f4-4227-800b-90a2385f3572"},"vehicle_type_id":"4","last_reported":1737238071,"current_range_meters":38800,"station_id":"ce4bh5p2rcd13ifvqe4g","pricing_plan_id":"cebpf4jnsgd1na2vs0mg"},{"bike_id":"ca44593c-de63-46cd-83e6-04f934053468","system_id":"levelo_inurba_marseille","lat":43.26568,"lon":5.39014,"is_reserved":false,"is_disabled":false,"rental_uris":{"android":"levelo://app?vid=ca44593c-de63-46cd-83e6-04f934053468","ios":"levelo://app?vid=ca44593c-de63-46cd-83e6-04f934053468"},"vehicle_type_id":"4","last_reported":1737238071,"current_range_meters":28000,"station_id":"ce4bhe12rcd13ifvqf30","pricing_plan_id":"cebpf4jnsgd1na2vs0mg"},{"bike_id":"300384a6-1db5-497f-9fae-73137d0e7e83","system_id":"levelo_inurba_marseille","lat":43.29528,"lon":5.37508,"is_reserved":false,"is_disabled":false,"rental_uris":{"android":"levelo://app?vid=300384a6-1db5-497f-9fae-73137d0e7e83","ios":"levelo://app?vid=300384a6-1db5-497f-9fae-73137d0e7e83"},"vehicle_type_id":"4","last_reported":1737238071,"current_range_meters":36800,"station_id":"ce4bgkp2rcd13ifvqbmg","pricing_plan_id":"cebpf4jnsgd1na2vs0mg"},{"bike_id":"94c5fa97-f13c-47b2-861a-88ee44d206e5","system_id":"levelo_inurba_marseille","lat":43.29806,"lon":5.381,"is_reserved":false,"is_disabled":false,"rental_uris":{"android":"levelo://app?vid=94c5fa97-f13c-47b2-861a-88ee44d206e5","ios":"levelo://app?vid=94c5fa97-f13c-47b2-861a-88ee44d206e5"},"vehicle_type_id":"4","last_reported":1737238071,"current_range_meters":14000,"station_id":"ce4bgip2rcd13ifvqbb0","pricing_plan_id":"cebpf4jnsgd1na2vs0mg"},{"bike_id":"2050e3de-bb81-421b-9e6b-8e8f054610b5","system_id":"levelo_inurba_marseille","lat":43.24804,"lon":5.37457,"is_reserved":false,"is_disabled":false,"rental_uris":{"android":"levelo://app?vid=2050e3de-bb81-421b-9e6b-8e8f054610b5","ios":"levelo://app?vid=2050e3de-bb81-421b-9e6b-8e8f054610b5"},"vehicle_type_id":"4","last_reported":1737238071,"current_range_meters":21600,"station_id":"ce4bhgh2rcd13ifvqfb0","pricing_plan_id":"cebpf4jnsgd1na2vs0mg"},{"bike_id":"a5cfd84d-4cae-4412-b199-dcb982d64799","system_id":"levelo_inurba_marseille","lat":43.28449,"lon":5.39188,"is_reserved":false,"is_disabled":true,"rental_uris":{"android":"levelo://app?vid=a5cfd84d-4cae-4412-b199-dcb982d64799","ios":"levelo://app?vid=a5cfd84d-4cae-4412-b199-dcb982d64799"},"vehicle_type_id":"4","last_reported":1737238071,"current_range_meters":800,"station_id":"ce4bhoh2rcd13ifvqh5g","pricing_plan_id":"cebpf4jnsgd1na2vs0mg"},{"bike_id":"879d9164-5548-418d-b0b7-7a5eb36355ab","system_id":"levelo_inurba_marseille","lat":43.29263,"lon":5.38421,"is_reserved":false,"is_disabled":false,"rental_uris":{"android":"levelo://app?vid=879d9164-5548-418d-b0b7-7a5eb36355ab","ios":"levelo://app?vid=879d9164-5548-418d-b0b7-7a5eb36355ab"},"vehicle_type_id":"4","last_reported":1737238071,"current_range_meters":25600,"station_id":"ce4bh692rcd13ifvqea0","pricing_plan_id":"cebpf4jnsgd1na2vs0mg"},{"bike_id":"047285ab-b4ee-4474-8e6e-f98e1ab33731","system_id":"levelo_inurba_marseille","lat":43.29976,"lon":5.38488,"is_reserved":false,"is_disabled":false,"rental_uris":{"android":"levelo://app?vid=047285ab-b4ee-4474-8e6e-f98e1ab33731","ios":"levelo://app?vid=047285ab-b4ee-4474-8e6e-f98e1ab33731"},"vehicle_type_id":"4","last_reported":1737238071,"current_range_meters":23200,"station_id":"ce4bgj92rcd13ifvqbd0","pricing_plan_id":"cebpf4jnsgd1na2vs0mg"},{"bike_id":"02ce3e8e-6ef8-48e8-8e39-50ed964e3fb8","system_id":"levelo_inurba_marseille","lat":43.29411,"lon":5.39407,"is_reserved":false,"is_disabled":true,"rental_uris":{"android":"levelo://app?vid=02ce3e8e-6ef8-48e8-8e39-50ed964e3fb8","ios":"levelo://app?vid=02ce3e8e-6ef8-48e8-8e39-50ed964e3fb8"},"vehicle_type_id":"4","last_reported":1737238071,"current_range_meters":0,"station_id":"","pricing_plan_id":"cebpf4jnsgd1na2vs0mg"},{"bike_id":"4fb6a51d-9d4a-4bf2-b0b9-93d4d4401950","system_id":"levelo_inurba_marseille","lat":43.324786,"lon":5.365686,"is_reserved":false,"is_disabled":false,"rental_uris":{"android":"levelo://app?vid=4fb6a51d-9d4a-4bf2-b0b9-93d4d4401950","ios":"levelo://app?vid=4fb6a51d-9d4a-4bf2-b0b9-93d4d4401950"},"vehicle_type_id":"4","last_reported":1737238071,"current_range_meters":30800,"station_id":"ce4bhs12rcd13ifvqhvg","pricing_plan_id":"cebpf4jnsgd1na2vs0mg"},{"bike_id":"90c165c3-eff9-4a4a-8f28-cfa68619e419","system_id":"levelo_inurba_marseille","lat":43.28717,"lon":5.39996,"is_reserved":false,"is_disabled":true,"rental_uris":{"android":"levelo://app?vid=90c165c3-eff9-4a4a-8f28-cfa68619e419","ios":"levelo://app?vid=90c165c3-eff9-4a4a-8f28-cfa68619e419"},"vehicle_type_id":"4","last_reported":1737238071,"current_range_meters":30800,"station_id":"ce4bho92rcd13ifvqh3g","pricing_plan_id":"cebpf4jnsgd1na2vs0mg"},{"bike_id":"4975d3c5-1381-4300-914e-0a110da6ae0f","system_id":"levelo_inurba_marseille","lat":43.24071,"lon":5.3776,"is_reserved":false,"is_disabled":false,"rental_uris":{"android":"levelo://app?vid=4975d3c5-1381-4300-914e-0a110da6ae0f","ios":"levelo://app?vid=4975d3c5-1381-4300-914e-0a110da6ae0f"},"vehicle_type_id":"4","last_reported":1737238071,"current_range_meters":17200,"station_id":"ce4bhnp2rcd13ifvqgvg","pricing_plan_id":"cebpf4jnsgd1na2vs0mg"},{"bike_id":"a415cf4f-ff4c-4204-8f2b-7f27d59692e5","system_id":"levelo_inurba_marseille","lat":43.30885,"lon":5.39634,"is_reserved":false,"is_disabled":false,"rental_uris":{"android":"levelo://app?vid=a415cf4f-ff4c-4204-8f2b-7f27d59692e5","ios":"levelo://app?vid=a415cf4f-ff4c-4204-8f2b-7f27d59692e5"},"vehicle_type_id":"4","last_reported":1737238071,"current_range_meters":34800,"station_id":"ce4bh012rcd13ifvqcv0","pricing_plan_id":"cebpf4jnsgd1na2vs0mg"},{"bike_id":"ca9db58d-947c-4860-8654-70c594dc1043","system_id":"levelo_inurba_marseille","lat":43.2847,"lon":5.35875,"is_reserved":false,"is_disabled":false,"rental_uris":{"android":"levelo://app?vid=ca9db58d-947c-4860-8654-70c594dc1043","ios":"levelo://app?vid=ca9db58d-947c-4860-8654-70c594dc1043"},"vehicle_type_id":"4","last_reported":1737238071,"current_range_meters":20000,"station_id":"ce4bhah2rcd13ifvqei0","pricing_plan_id":"cebpf4jnsgd1na2vs0mg"},{"bike_id":"2fe88d16-af55-4de4-84b3-2988d3ee891a","system_id":"levelo_inurba_marseille","lat":43.30356,"lon":5.41885,"is_reserved":false,"is_disabled":false,"rental_uris":{"android":"levelo://app?vid=2fe88d16-af55-4de4-84b3-2988d3ee891a","ios":"levelo://app?vid=2fe88d16-af55-4de4-84b3-2988d3ee891a"},"vehicle_type_id":"4","last_reported":1737238071,"current_range_meters":38800,"station_id":"ce4bhop2rcd13ifvqh7g","pricing_plan_id":"cebpf4jnsgd1na2vs0mg"},{"bike_id":"46efa326-c02d-4314-a6fe-f05976f22b94","system_id":"levelo_inurba_marseille","lat":43.28034,"lon":5.36944,"is_reserved":false,"is_disabled":false,"rental_uris":{"android":"levelo://app?vid=46efa326-c02d-4314-a6fe-f05976f22b94","ios":"levelo://app?vid=46efa326-c02d-4314-a6fe-f05976f22b94"},"vehicle_type_id":"4","last_reported":1737238071,"current_range_meters":18000,"station_id":"ce4bha12rcd13ifvqef0","pricing_plan_id":"cebpf4jnsgd1na2vs0mg"},{"bike_id":"b9be44ef-7bb0-4ba3-a4f5-2e356db06bba","system_id":"levelo_inurba_marseille","lat":43.29574,"lon":5.39969,"is_reserved":false,"is_disabled":false,"rental_uris":{"android":"levelo://app?vid=b9be44ef-7bb0-4ba3-a4f5-2e356db06bba","ios":"levelo://app?vid=b9be44ef-7bb0-4ba3-a4f5-2e356db06bba"},"vehicle_type_id":"4","last_reported":1737238071,"current_range_meters":33600,"station_id":"ce4bh312rcd13ifvqdj0","pricing_plan_id":"cebpf4jnsgd1na2vs0mg"},{"bike_id":"763ed4fc-16fd-47a0-aedf-62c028daa66f","system_id":"levelo_inurba_marseille","lat":43.36394,"lon":5.35571,"is_reserved":false,"is_disabled":false,"rental_uris":{"android":"levelo://app?vid=763ed4fc-16fd-47a0-aedf-62c028daa66f","ios":"levelo://app?vid=763ed4fc-16fd-47a0-aedf-62c028daa66f"},"vehicle_type_id":"4","last_reported":1737238071,"current_range_meters":16800,"station_id":"","pricing_plan_id":"cebpf4jnsgd1na2vs0mg"},{"bike_id":"6f41e7a9-3811-49f4-82fc-524ea1eb6bce","system_id":"levelo_inurba_marseille","lat":43.30897,"lon":5.3688,"is_reserved":false,"is_disabled":false,"rental_uris":{"android":"levelo://app?vid=6f41e7a9-3811-49f4-82fc-524ea1eb6bce","ios":"levelo://app?vid=6f41e7a9-3811-49f4-82fc-524ea1eb6bce"},"vehicle_type_id":"4","last_reported":1737238071,"current_range_meters":39200,"station_id":"ce4bgn92rcd13ifvqbvg","pricing_plan_id":"cebpf4jnsgd1na2vs0mg"},{"bike_id":"1022f24d-239e-49a1-a4b8-988e34719576","system_id":"levelo_inurba_marseille","lat":43.2455,"lon":5.39526,"is_reserved":false,"is_disabled":false,"rental_uris":{"android":"levelo://app?vid=1022f24d-239e-49a1-a4b8-988e34719576","ios":"levelo://app?vid=1022f24d-239e-49a1-a4b8-988e34719576"},"vehicle_type_id":"4","last_reported":1737238071,"current_range_meters":16800,"station_id":"ce4bhlp2rcd13ifvqgjg","pricing_plan_id":"cebpf4jnsgd1na2vs0mg"},{"bike_id":"115ac15a-d3a3-4b40-a595-350d10d48153","system_id":"levelo_inurba_marseille","lat":43.29272,"lon":5.38433,"is_reserved":false,"is_disabled":false,"rental_uris":{"android":"levelo://app?vid=115ac15a-d3a3-4b40-a595-350d10d48153","ios":"levelo://app?vid=115ac15a-d3a3-4b40-a595-350d10d48153"},"vehicle_type_id":"4","last_reported":1737238071,"current_range_meters":30400,"station_id":"ce4bh692rcd13ifvqea0","pricing_plan_id":"cebpf4jnsgd1na2vs0mg"},{"bike_id":"415d90fa-e6d8-4b54-8c36-5e9472ab1fc5","system_id":"levelo_inurba_marseille","lat":43.29247,"lon":5.38465,"is_reserved":false,"is_disabled":false,"rental_uris":{"android":"levelo://app?vid=415d90fa-e6d8-4b54-8c36-5e9472ab1fc5","ios":"levelo://app?vid=415d90fa-e6d8-4b54-8c36-5e9472ab1fc5"},"vehicle_type_id":"4","last_reported":1737238071,"current_range_meters":38800,"station_id":"ce4bh692rcd13ifvqea0","pricing_plan_id":"cebpf4jnsgd1na2vs0mg"},{"bike_id":"f64f4764-61e4-4bdb-aea6-d8e590bda1eb","system_id":"levelo_inurba_marseille","lat":43.25008,"lon":5.38912,"is_reserved":false,"is_disabled":false,"rental_uris":{"android":"levelo://app?vid=f64f4764-61e4-4bdb-aea6-d8e590bda1eb","ios":"levelo://app?vid=f64f4764-61e4-4bdb-aea6-d8e590bda1eb"},"vehicle_type_id":"4","last_reported":1737238071,"current_range_meters":7200,"station_id":"ce4bhgp2rcd13ifvqfd0","pricing_plan_id":"cebpf4jnsgd1na2vs0mg"},{"bike_id":"f3c94274-f861-4c89-8bb1-1ebe1a531935","system_id":"levelo_inurba_marseille","lat":43.24999,"lon":5.38921,"is_reserved":false,"is_disabled":false,"rental_uris":{"android":"levelo://app?vid=f3c94274-f861-4c89-8bb1-1ebe1a531935","ios":"levelo://app?vid=f3c94274-f861-4c89-8bb1-1ebe1a531935"},"vehicle_type_id":"4","last_reported":1737238071,"current_range_meters":38800,"station_id":"ce4bhgp2rcd13ifvqfd0","pricing_plan_id":"cebpf4jnsgd1na2vs0mg"},{"bike_id":"e3d95e52-5c27-49c4-b832-b51212d70559","system_id":"levelo_inurba_marseille","lat":43.29264,"lon":5.38427,"is_reserved":false,"is_disabled":false,"rental_uris":{"android":"levelo://app?vid=e3d95e52-5c27-49c4-b832-b51212d70559","ios":"levelo://app?vid=e3d95e52-5c27-49c4-b832-b51212d70559"},"vehicle_type_id":"4","last_reported":1737238071,"current_range_meters":36400,"station_id":"ce4bh692rcd13ifvqea0","pricing_plan_id":"cebpf4jnsgd1na2vs0mg"},{"bike_id":"ea820ade-d81d-428e-82b9-7f165f7e8e75","system_id":"levelo_inurba_marseille","lat":43.32366,"lon":5.36757,"is_reserved":false,"is_disabled":false,"rental_uris":{"android":"levelo://app?vid=ea820ade-d81d-428e-82b9-7f165f7e8e75","ios":"levelo://app?vid=ea820ade-d81d-428e-82b9-7f165f7e8e75"},"vehicle_type_id":"4","last_reported":1737238071,"current_range_meters":20000,"station_id":"ce4bhsh2rcd13ifvqi2g","pricing_plan_id":"cebpf4jnsgd1na2vs0mg"},{"bike_id":"c29020e0-83ef-4b06-ac4f-c4422257f84a","system_id":"levelo_inurba_marseille","lat":43.36396,"lon":5.35599,"is_reserved":false,"is_disabled":false,"rental_uris":{"android":"levelo://app?vid=c29020e0-83ef-4b06-ac4f-c4422257f84a","ios":"levelo://app?vid=c29020e0-83ef-4b06-ac4f-c4422257f84a"},"vehicle_type_id":"4","last_reported":1737238071,"current_range_meters":22400,"station_id":"","pricing_plan_id":"cebpf4jnsgd1na2vs0mg"},{"bike_id":"2a8e6794-3001-4785-a1fa-2c1da9117a55","system_id":"levelo_inurba_marseille","lat":43.27573,"lon":5.38412,"is_reserved":false,"is_disabled":false,"rental_uris":{"android":"levelo://app?vid=2a8e6794-3001-4785-a1fa-2c1da9117a55","ios":"levelo://app?vid=2a8e6794-3001-4785-a1fa-2c1da9117a55"},"vehicle_type_id":"4","last_reported":1737238071,"current_range_meters":35200,"station_id":"ce4bhh92rcd13ifvqfi0","pricing_plan_id":"cebpf4jnsgd1na2vs0mg"},{"bike_id":"ac91f09f-fc82-4d21-b08e-2c2e894bfc32","system_id":"levelo_inurba_marseille","lat":43.30911,"lon":5.36855,"is_reserved":false,"is_disabled":false,"rental_uris":{"android":"levelo://app?vid=ac91f09f-fc82-4d21-b08e-2c2e894bfc32","ios":"levelo://app?vid=ac91f09f-fc82-4d21-b08e-2c2e894bfc32"},"vehicle_type_id":"4","last_reported":1737238071,"current_range_meters":39200,"station_id":"ce4bgn92rcd13ifvqbvg","pricing_plan_id":"cebpf4jnsgd1na2vs0mg"},{"bike_id":"37ba85cd-4ae9-4e6a-94ae-19965ee43afa","system_id":"levelo_inurba_marseille","lat":43.29232,"lon":5.38198,"is_reserved":false,"is_disabled":false,"rental_uris":{"android":"levelo://app?vid=37ba85cd-4ae9-4e6a-94ae-19965ee43afa","ios":"levelo://app?vid=37ba85cd-4ae9-4e6a-94ae-19965ee43afa"},"vehicle_type_id":"4","last_reported":1737238071,"current_range_meters":27600,"station_id":"","pricing_plan_id":"cebpf4jnsgd1na2vs0mg"},{"bike_id":"a554bc87-8a4b-49aa-a145-da59c8ab9d1b","system_id":"levelo_inurba_marseille","lat":43.29988,"lon":5.38506,"is_reserved":false,"is_disabled":false,"rental_uris":{"android":"levelo://app?vid=a554bc87-8a4b-49aa-a145-da59c8ab9d1b","ios":"levelo://app?vid=a554bc87-8a4b-49aa-a145-da59c8ab9d1b"},"vehicle_type_id":"4","last_reported":1737238071,"current_range_meters":24400,"station_id":"ce4bgj92rcd13ifvqbd0","pricing_plan_id":"cebpf4jnsgd1na2vs0mg"},{"bike_id":"4d4ec566-516b-4793-a5be-68a8e0188dc4","system_id":"levelo_inurba_marseille","lat":43.33016,"lon":5.39026,"is_reserved":false,"is_disabled":false,"rental_uris":{"android":"levelo://app?vid=4d4ec566-516b-4793-a5be-68a8e0188dc4","ios":"levelo://app?vid=4d4ec566-516b-4793-a5be-68a8e0188dc4"},"vehicle_type_id":"4","last_reported":1737238071,"current_range_meters":38800,"station_id":"ce4bhr92rcd13ifvqhrg","pricing_plan_id":"cebpf4jnsgd1na2vs0mg"},{"bike_id":"b672b566-ae6e-4181-a2cb-0155be334a04","system_id":"levelo_inurba_marseille","lat":43.2894,"lon":5.36634,"is_reserved":false,"is_disabled":true,"rental_uris":{"android":"levelo://app?vid=b672b566-ae6e-4181-a2cb-0155be334a04","ios":"levelo://app?vid=b672b566-ae6e-4181-a2cb-0155be334a04"},"vehicle_type_id":"4","last_reported":1737238071,"current_range_meters":36400,"station_id":"ce4bhap2rcd13ifvqek0","pricing_plan_id":"cebpf4jnsgd1na2vs0mg"},{"bike_id":"b76718c7-cd1b-4fa4-b075-c637c477644b","system_id":"levelo_inurba_marseille","lat":43.296,"lon":5.38096,"is_reserved":false,"is_disabled":false,"rental_uris":{"android":"levelo://app?vid=b76718c7-cd1b-4fa4-b075-c637c477644b","ios":"levelo://app?vid=b76718c7-cd1b-4fa4-b075-c637c477644b"},"vehicle_type_id":"4","last_reported":1737238071,"current_range_meters":25200,"station_id":"ce4bgl12rcd13ifvqbo0","pricing_plan_id":"cebpf4jnsgd1na2vs0mg"},{"bike_id":"231f841f-a1ec-4be6-b98d-50e1fa0785de","system_id":"levelo_inurba_marseille","lat":43.29265,"lon":5.38453,"is_reserved":false,"is_disabled":false,"rental_uris":{"android":"levelo://app?vid=231f841f-a1ec-4be6-b98d-50e1fa0785de","ios":"levelo://app?vid=231f841f-a1ec-4be6-b98d-50e1fa0785de"},"vehicle_type_id":"4","last_reported":1737238071,"current_range_meters":38800,"station_id":"ce4bh692rcd13ifvqea0","pricing_plan_id":"cebpf4jnsgd1na2vs0mg"},{"bike_id":"04e7f6b2-1170-476d-8eb7-54bc6ab7d23c","system_id":"levelo_inurba_marseille","lat":43.2438,"lon":5.3705,"is_reserved":false,"is_disabled":false,"rental_uris":{"android":"levelo://app?vid=04e7f6b2-1170-476d-8eb7-54bc6ab7d23c","ios":"levelo://app?vid=04e7f6b2-1170-476d-8eb7-54bc6ab7d23c"},"vehicle_type_id":"4","last_reported":1737238071,"current_range_meters":38800,"station_id":"ce4bhhh2rcd13ifvqfk0","pricing_plan_id":"cebpf4jnsgd1na2vs0mg"},{"bike_id":"4395dfba-4e3d-4b8b-aa73-f3e693689e94","system_id":"levelo_inurba_marseille","lat":43.24703,"lon":5.3818,"is_reserved":false,"is_disabled":false,"rental_uris":{"android":"levelo://app?vid=4395dfba-4e3d-4b8b-aa73-f3e693689e94","ios":"levelo://app?vid=4395dfba-4e3d-4b8b-aa73-f3e693689e94"},"vehicle_type_id":"4","last_reported":1737238071,"current_range_meters":26000,"station_id":"ce4bhih2rcd13ifvqfr0","pricing_plan_id":"cebpf4jnsgd1na2vs0mg"},{"bike_id":"1943cd9d-bda0-410e-96be-c8966617dd42","system_id":"levelo_inurba_marseille","lat":43.31074,"lon":5.38346,"is_reserved":false,"is_disabled":false,"rental_uris":{"android":"levelo://app?vid=1943cd9d-bda0-410e-96be-c8966617dd42","ios":"levelo://app?vid=1943cd9d-bda0-410e-96be-c8966617dd42"},"vehicle_type_id":"4","last_reported":1737238071,"current_range_meters":38400,"station_id":"ce4bgv92rcd13ifvqcr0","pricing_plan_id":"cebpf4jnsgd1na2vs0mg"},{"bike_id":"df581145-fd95-4a77-a27c-2465bbb559bf","system_id":"levelo_inurba_marseille","lat":43.24663,"lon":5.3818,"is_reserved":false,"is_disabled":false,"rental_uris":{"android":"levelo://app?vid=df581145-fd95-4a77-a27c-2465bbb559bf","ios":"levelo://app?vid=df581145-fd95-4a77-a27c-2465bbb559bf"},"vehicle_type_id":"4","last_reported":1737238071,"current_range_meters":30000,"station_id":"ce4bhih2rcd13ifvqfr0","pricing_plan_id":"cebpf4jnsgd1na2vs0mg"},{"bike_id":"501ab4fd-c09d-4978-b056-79da026409be","system_id":"levelo_inurba_marseille","lat":43.26225,"lon":5.40463,"is_reserved":false,"is_disabled":false,"rental_uris":{"android":"levelo://app?vid=501ab4fd-c09d-4978-b056-79da026409be","ios":"levelo://app?vid=501ab4fd-c09d-4978-b056-79da026409be"},"vehicle_type_id":"4","last_reported":1737238071,"current_range_meters":38000,"station_id":"","pricing_plan_id":"cebpf4jnsgd1na2vs0mg"},{"bike_id":"3f69ff82-3946-4923-bce5-b3ef807bfbf3","system_id":"levelo_inurba_marseille","lat":43.26506,"lon":5.39536,"is_reserved":false,"is_disabled":false,"rental_uris":{"android":"levelo://app?vid=3f69ff82-3946-4923-bce5-b3ef807bfbf3","ios":"levelo://app?vid=3f69ff82-3946-4923-bce5-b3ef807bfbf3"},"vehicle_type_id":"4","last_reported":1737238071,"current_range_meters":36400,"station_id":"ce4bhi12rcd13ifvqfq0","pricing_plan_id":"cebpf4jnsgd1na2vs0mg"},{"bike_id":"6ccc63df-fd67-4c4e-a20d-e9a29686e5f7","system_id":"levelo_inurba_marseille","lat":43.30798,"lon":5.38162,"is_reserved":false,"is_disabled":false,"rental_uris":{"android":"levelo://app?vid=6ccc63df-fd67-4c4e-a20d-e9a29686e5f7","ios":"levelo://app?vid=6ccc63df-fd67-4c4e-a20d-e9a29686e5f7"},"vehicle_type_id":"4","last_reported":1737238071,"current_range_meters":11600,"station_id":"ce4bgt12rcd13ifvqce0","pricing_plan_id":"cebpf4jnsgd1na2vs0mg"},{"bike_id":"9094a0f5-f794-4f17-b997-f4f57620084f","system_id":"levelo_inurba_marseille","lat":43.297978,"lon":5.380983,"is_reserved":false,"is_disabled":false,"rental_uris":{"android":"levelo://app?vid=9094a0f5-f794-4f17-b997-f4f57620084f","ios":"levelo://app?vid=9094a0f5-f794-4f17-b997-f4f57620084f"},"vehicle_type_id":"4","last_reported":1737238071,"current_range_meters":38800,"station_id":"ce4bgip2rcd13ifvqbb0","pricing_plan_id":"cebpf4jnsgd1na2vs0mg"},{"bike_id":"2db212ce-aad5-435f-9548-4470f5f37e90","system_id":"levelo_inurba_marseille","lat":43.33019,"lon":5.39054,"is_reserved":false,"is_disabled":false,"rental_uris":{"android":"levelo://app?vid=2db212ce-aad5-435f-9548-4470f5f37e90","ios":"levelo://app?vid=2db212ce-aad5-435f-9548-4470f5f37e90"},"vehicle_type_id":"4","last_reported":1737238071,"current_range_meters":31200,"station_id":"ce4bhr92rcd13ifvqhrg","pricing_plan_id":"cebpf4jnsgd1na2vs0mg"},{"bike_id":"65947d9a-da43-4b5f-bacb-b9ae140b5b71","system_id":"levelo_inurba_marseille","lat":43.29258,"lon":5.38452,"is_reserved":false,"is_disabled":false,"rental_uris":{"android":"levelo://app?vid=65947d9a-da43-4b5f-bacb-b9ae140b5b71","ios":"levelo://app?vid=65947d9a-da43-4b5f-bacb-b9ae140b5b71"},"vehicle_type_id":"4","last_reported":1737238071,"current_range_meters":30400,"station_id":"ce4bh692rcd13ifvqea0","pricing_plan_id":"cebpf4jnsgd1na2vs0mg"},{"bike_id":"8fb8c0d0-bdd7-480b-9c30-76a39d09797d","system_id":"levelo_inurba_marseille","lat":43.29265,"lon":5.38454,"is_reserved":false,"is_disabled":false,"rental_uris":{"android":"levelo://app?vid=8fb8c0d0-bdd7-480b-9c30-76a39d09797d","ios":"levelo://app?vid=8fb8c0d0-bdd7-480b-9c30-76a39d09797d"},"vehicle_type_id":"4","last_reported":1737238071,"current_range_meters":38800,"station_id":"ce4bh692rcd13ifvqea0","pricing_plan_id":"cebpf4jnsgd1na2vs0mg"},{"bike_id":"7b5cc4cc-e608-454c-95d4-00c7b5c48c31","system_id":"levelo_inurba_marseille","lat":43.2594,"lon":5.40905,"is_reserved":false,"is_disabled":false,"rental_uris":{"android":"levelo://app?vid=7b5cc4cc-e608-454c-95d4-00c7b5c48c31","ios":"levelo://app?vid=7b5cc4cc-e608-454c-95d4-00c7b5c48c31"},"vehicle_type_id":"4","last_reported":1737238071,"current_range_meters":8400,"station_id":"ce4bhm92rcd13ifvqglg","pricing_plan_id":"cebpf4jnsgd1na2vs0mg"},{"bike_id":"ce97367f-c187-4509-be08-5943f2e277b6","system_id":"levelo_inurba_marseille","lat":43.28343,"lon":5.38122,"is_reserved":false,"is_disabled":false,"rental_uris":{"android":"levelo://app?vid=ce97367f-c187-4509-be08-5943f2e277b6","ios":"levelo://app?vid=ce97367f-c187-4509-be08-5943f2e277b6"},"vehicle_type_id":"4","last_reported":1737238071,"current_range_meters":38000,"station_id":"ce4bh412rcd13ifvqdr0","pricing_plan_id":"cebpf4jnsgd1na2vs0mg"},{"bike_id":"039ef0ad-54bf-4a8d-9721-bb981cbdea62","system_id":"levelo_inurba_marseille","lat":43.30254,"lon":5.40046,"is_reserved":false,"is_disabled":false,"rental_uris":{"android":"levelo://app?vid=039ef0ad-54bf-4a8d-9721-bb981cbdea62","ios":"levelo://app?vid=039ef0ad-54bf-4a8d-9721-bb981cbdea62"},"vehicle_type_id":"4","last_reported":1737238071,"current_range_meters":8800,"station_id":"ce4bgvh2rcd13ifvqcs0","pricing_plan_id":"cebpf4jnsgd1na2vs0mg"},{"bike_id":"c8f7cc55-fbaf-43c6-ab25-9f6c9663110a","system_id":"levelo_inurba_marseille","lat":43.31764,"lon":5.39018,"is_reserved":false,"is_disabled":false,"rental_uris":{"android":"levelo://app?vid=c8f7cc55-fbaf-43c6-ab25-9f6c9663110a","ios":"levelo://app?vid=c8f7cc55-fbaf-43c6-ab25-9f6c9663110a"},"vehicle_type_id":"4","last_reported":1737238071,"current_range_meters":36400,"station_id":"ce4bhqp2rcd13ifvqhng","pricing_plan_id":"cebpf4jnsgd1na2vs0mg"},{"bike_id":"3e2d6a26-c7dd-49fe-b3fe-d220ebebabb1","system_id":"levelo_inurba_marseille","lat":43.28677,"lon":5.36357,"is_reserved":false,"is_disabled":false,"rental_uris":{"android":"levelo://app?vid=3e2d6a26-c7dd-49fe-b3fe-d220ebebabb1","ios":"levelo://app?vid=3e2d6a26-c7dd-49fe-b3fe-d220ebebabb1"},"vehicle_type_id":"4","last_reported":1737238071,"current_range_meters":22800,"station_id":"ce4bhah2rcd13ifvqej0","pricing_plan_id":"cebpf4jnsgd1na2vs0mg"},{"bike_id":"cc58c983-a9b7-4101-8f9c-21e5c3efe2bb","system_id":"levelo_inurba_marseille","lat":43.28574,"lon":5.39496,"is_reserved":false,"is_disabled":false,"rental_uris":{"android":"levelo://app?vid=cc58c983-a9b7-4101-8f9c-21e5c3efe2bb","ios":"levelo://app?vid=cc58c983-a9b7-4101-8f9c-21e5c3efe2bb"},"vehicle_type_id":"4","last_reported":1737238071,"current_range_meters":29600,"station_id":"ce4bh292rcd13ifvqdg0","pricing_plan_id":"cebpf4jnsgd1na2vs0mg"},{"bike_id":"f4050ce3-69c2-47a5-9d09-5c964928f0c7","system_id":"levelo_inurba_marseille","lat":43.34143,"lon":5.4091,"is_reserved":false,"is_disabled":false,"rental_uris":{"android":"levelo://app?vid=f4050ce3-69c2-47a5-9d09-5c964928f0c7","ios":"levelo://app?vid=f4050ce3-69c2-47a5-9d09-5c964928f0c7"},"vehicle_type_id":"4","last_reported":1737238071,"current_range_meters":8400,"station_id":"ce4bhqh2rcd13ifvqhlg","pricing_plan_id":"cebpf4jnsgd1na2vs0mg"},{"bike_id":"1610df4d-6165-48a4-bf62-535f1316c2a0","system_id":"levelo_inurba_marseille","lat":43.29552,"lon":5.42289,"is_reserved":false,"is_disabled":false,"rental_uris":{"android":"levelo://app?vid=1610df4d-6165-48a4-bf62-535f1316c2a0","ios":"levelo://app?vid=1610df4d-6165-48a4-bf62-535f1316c2a0"},"vehicle_type_id":"4","last_reported":1737238071,"current_range_meters":39200,"station_id":"ce4bhph2rcd13ifvqhdg","pricing_plan_id":"cebpf4jnsgd1na2vs0mg"},{"bike_id":"249539c6-83be-4040-a185-92bdddb7c341","system_id":"levelo_inurba_marseille","lat":43.29693,"lon":5.37285,"is_reserved":false,"is_disabled":false,"rental_uris":{"android":"levelo://app?vid=249539c6-83be-4040-a185-92bdddb7c341","ios":"levelo://app?vid=249539c6-83be-4040-a185-92bdddb7c341"},"vehicle_type_id":"4","last_reported":1737238071,"current_range_meters":38800,"station_id":"ce4bgk12rcd13ifvqbj0","pricing_plan_id":"cebpf4jnsgd1na2vs0mg"},{"bike_id":"f4b19fde-6d3b-4baf-bef7-924062993aaf","system_id":"levelo_inurba_marseille","lat":43.30142,"lon":5.39853,"is_reserved":false,"is_disabled":false,"rental_uris":{"android":"levelo://app?vid=f4b19fde-6d3b-4baf-bef7-924062993aaf","ios":"levelo://app?vid=f4b19fde-6d3b-4baf-bef7-924062993aaf"},"vehicle_type_id":"4","last_reported":1737238071,"current_range_meters":29600,"station_id":"ce4bh0h2rcd13ifvqd40","pricing_plan_id":"cebpf4jnsgd1na2vs0mg"},{"bike_id":"d1a77a42-019d-427b-8631-0001e41c6be5","system_id":"levelo_inurba_marseille","lat":43.3088,"lon":5.37194,"is_reserved":false,"is_disabled":false,"rental_uris":{"android":"levelo://app?vid=d1a77a42-019d-427b-8631-0001e41c6be5","ios":"levelo://app?vid=d1a77a42-019d-427b-8631-0001e41c6be5"},"vehicle_type_id":"4","last_reported":1737238071,"current_range_meters":28400,"station_id":"ce4bguh2rcd13ifvqckg","pricing_plan_id":"cebpf4jnsgd1na2vs0mg"},{"bike_id":"ca8aa51d-4833-4c77-8009-59b7c07323a3","system_id":"levelo_inurba_marseille","lat":43.32369,"lon":5.3675,"is_reserved":false,"is_disabled":false,"rental_uris":{"android":"levelo://app?vid=ca8aa51d-4833-4c77-8009-59b7c07323a3","ios":"levelo://app?vid=ca8aa51d-4833-4c77-8009-59b7c07323a3"},"vehicle_type_id":"4","last_reported":1737238071,"current_range_meters":38400,"station_id":"ce4bhsh2rcd13ifvqi2g","pricing_plan_id":"cebpf4jnsgd1na2vs0mg"},{"bike_id":"cd21465a-99d4-4df2-80bc-53a53cf0eafe","system_id":"levelo_inurba_marseille","lat":43.28618,"lon":5.35102,"is_reserved":false,"is_disabled":false,"rental_uris":{"android":"levelo://app?vid=cd21465a-99d4-4df2-80bc-53a53cf0eafe","ios":"levelo://app?vid=cd21465a-99d4-4df2-80bc-53a53cf0eafe"},"vehicle_type_id":"4","last_reported":1737238071,"current_range_meters":9200,"station_id":"ce4bhch2rcd13ifvqeug","pricing_plan_id":"cebpf4jnsgd1na2vs0mg"},{"bike_id":"23c50c32-96fb-423e-8e5c-22372d2300ba","system_id":"levelo_inurba_marseille","lat":43.31709,"lon":5.40449,"is_reserved":false,"is_disabled":false,"rental_uris":{"android":"levelo://app?vid=23c50c32-96fb-423e-8e5c-22372d2300ba","ios":"levelo://app?vid=23c50c32-96fb-423e-8e5c-22372d2300ba"},"vehicle_type_id":"4","last_reported":1737238071,"current_range_meters":38800,"station_id":"ce4bh012rcd13ifvqd00","pricing_plan_id":"cebpf4jnsgd1na2vs0mg"},{"bike_id":"9dc49063-283d-43eb-bbfe-31fee7e70777","system_id":"levelo_inurba_marseille","lat":43.3121,"lon":5.36931,"is_reserved":false,"is_disabled":false,"rental_uris":{"android":"levelo://app?vid=9dc49063-283d-43eb-bbfe-31fee7e70777","ios":"levelo://app?vid=9dc49063-283d-43eb-bbfe-31fee7e70777"},"vehicle_type_id":"4","last_reported":1737238071,"current_range_meters":10800,"station_id":"","pricing_plan_id":"cebpf4jnsgd1na2vs0mg"},{"bike_id":"4b73b77a-9a3b-4f18-a046-cb900f7887f8","system_id":"levelo_inurba_marseille","lat":43.31719,"lon":5.42403,"is_reserved":false,"is_disabled":false,"rental_uris":{"android":"levelo://app?vid=4b73b77a-9a3b-4f18-a046-cb900f7887f8","ios":"levelo://app?vid=4b73b77a-9a3b-4f18-a046-cb900f7887f8"},"vehicle_type_id":"4","last_reported":1737238071,"current_range_meters":39200,"station_id":"ce4bhp92rcd13ifvqhbg","pricing_plan_id":"cebpf4jnsgd1na2vs0mg"},{"bike_id":"5c610ad5-e655-41ba-ae59-abc81e8e5a31","system_id":"levelo_inurba_marseille","lat":43.29422,"lon":5.38628,"is_reserved":false,"is_disabled":false,"rental_uris":{"android":"levelo://app?vid=5c610ad5-e655-41ba-ae59-abc81e8e5a31","ios":"levelo://app?vid=5c610ad5-e655-41ba-ae59-abc81e8e5a31"},"vehicle_type_id":"4","last_reported":1737238071,"current_range_meters":22800,"station_id":"ce4bh2h2rcd13ifvqdh0","pricing_plan_id":"cebpf4jnsgd1na2vs0mg"},{"bike_id":"21893c0c-ea3c-43b7-9203-59b4c254bb5a","system_id":"levelo_inurba_marseille","lat":43.29409,"lon":5.38664,"is_reserved":false,"is_disabled":false,"rental_uris":{"android":"levelo://app?vid=21893c0c-ea3c-43b7-9203-59b4c254bb5a","ios":"levelo://app?vid=21893c0c-ea3c-43b7-9203-59b4c254bb5a"},"vehicle_type_id":"4","last_reported":1737238071,"current_range_meters":33200,"station_id":"ce4bh2h2rcd13ifvqdh0","pricing_plan_id":"cebpf4jnsgd1na2vs0mg"},{"bike_id":"57d9fa47-e597-4ea4-913f-9b45079bd718","system_id":"levelo_inurba_marseille","lat":43.33033,"lon":5.39045,"is_reserved":false,"is_disabled":false,"rental_uris":{"android":"levelo://app?vid=57d9fa47-e597-4ea4-913f-9b45079bd718","ios":"levelo://app?vid=57d9fa47-e597-4ea4-913f-9b45079bd718"},"vehicle_type_id":"4","last_reported":1737238071,"current_range_meters":9600,"station_id":"ce4bhr92rcd13ifvqhrg","pricing_plan_id":"cebpf4jnsgd1na2vs0mg"},{"bike_id":"50c70262-dbb4-4b61-88f4-99876f32b530","system_id":"levelo_inurba_marseille","lat":43.29429,"lon":5.38629,"is_reserved":false,"is_disabled":false,"rental_uris":{"android":"levelo://app?vid=50c70262-dbb4-4b61-88f4-99876f32b530","ios":"levelo://app?vid=50c70262-dbb4-4b61-88f4-99876f32b530"},"vehicle_type_id":"4","last_reported":1737238071,"current_range_meters":32000,"station_id":"ce4bh2h2rcd13ifvqdh0","pricing_plan_id":"cebpf4jnsgd1na2vs0mg"},{"bike_id":"4ec76aa8-1e80-4051-b2ea-1baaf50a61e8","system_id":"levelo_inurba_marseille","lat":43.24132,"lon":5.381,"is_reserved":false,"is_disabled":false,"rental_uris":{"android":"levelo://app?vid=4ec76aa8-1e80-4051-b2ea-1baaf50a61e8","ios":"levelo://app?vid=4ec76aa8-1e80-4051-b2ea-1baaf50a61e8"},"vehicle_type_id":"4","last_reported":1737238071,"current_range_meters":20400,"station_id":"","pricing_plan_id":"cebpf4jnsgd1na2vs0mg"},{"bike_id":"932e9ea4-2d70-455c-8d40-c4f2b2275e61","system_id":"levelo_inurba_marseille","lat":43.293,"lon":5.37456,"is_reserved":false,"is_disabled":false,"rental_uris":{"android":"levelo://app?vid=932e9ea4-2d70-455c-8d40-c4f2b2275e61","ios":"levelo://app?vid=932e9ea4-2d70-455c-8d40-c4f2b2275e61"},"vehicle_type_id":"4","last_reported":1737238071,"current_range_meters":17600,"station_id":"ce4bgi12rcd13ifvqb70","pricing_plan_id":"cebpf4jnsgd1na2vs0mg"},{"bike_id":"bd00f222-ce0c-4f81-a68c-0edabc3e5f6b","system_id":"levelo_inurba_marseille","lat":43.2509,"lon":5.39522,"is_reserved":false,"is_disabled":false,"rental_uris":{"android":"levelo://app?vid=bd00f222-ce0c-4f81-a68c-0edabc3e5f6b","ios":"levelo://app?vid=bd00f222-ce0c-4f81-a68c-0edabc3e5f6b"},"vehicle_type_id":"4","last_reported":1737238071,"current_range_meters":38800,"station_id":"ce4bhm12rcd13ifvqgkg","pricing_plan_id":"cebpf4jnsgd1na2vs0mg"},{"bike_id":"cb51ce38-e716-49c9-a38b-071a552bc794","system_id":"levelo_inurba_marseille","lat":43.31077,"lon":5.38386,"is_reserved":false,"is_disabled":false,"rental_uris":{"android":"levelo://app?vid=cb51ce38-e716-49c9-a38b-071a552bc794","ios":"levelo://app?vid=cb51ce38-e716-49c9-a38b-071a552bc794"},"vehicle_type_id":"4","last_reported":1737238071,"current_range_meters":16800,"station_id":"ce4bgv92rcd13ifvqcr0","pricing_plan_id":"cebpf4jnsgd1na2vs0mg"},{"bike_id":"81588def-b3d1-4412-8fb0-bc5c9e8c72ab","system_id":"levelo_inurba_marseille","lat":43.29267,"lon":5.38453,"is_reserved":false,"is_disabled":false,"rental_uris":{"android":"levelo://app?vid=81588def-b3d1-4412-8fb0-bc5c9e8c72ab","ios":"levelo://app?vid=81588def-b3d1-4412-8fb0-bc5c9e8c72ab"},"vehicle_type_id":"4","last_reported":1737238071,"current_range_meters":34800,"station_id":"ce4bh692rcd13ifvqea0","pricing_plan_id":"cebpf4jnsgd1na2vs0mg"},{"bike_id":"cd3ef910-0be6-4e1a-a045-534aa6f308c9","system_id":"levelo_inurba_marseille","lat":43.28234,"lon":5.40288,"is_reserved":false,"is_disabled":false,"rental_uris":{"android":"levelo://app?vid=cd3ef910-0be6-4e1a-a045-534aa6f308c9","ios":"levelo://app?vid=cd3ef910-0be6-4e1a-a045-534aa6f308c9"},"vehicle_type_id":"4","last_reported":1737238071,"current_range_meters":34800,"station_id":"","pricing_plan_id":"cebpf4jnsgd1na2vs0mg"},{"bike_id":"4104cbba-088f-4383-b2a0-261d17699731","system_id":"levelo_inurba_marseille","lat":43.23963,"lon":5.36649,"is_reserved":false,"is_disabled":false,"rental_uris":{"android":"levelo://app?vid=4104cbba-088f-4383-b2a0-261d17699731","ios":"levelo://app?vid=4104cbba-088f-4383-b2a0-261d17699731"},"vehicle_type_id":"4","last_reported":1737238071,"current_range_meters":38400,"station_id":"ce4bhi12rcd13ifvqfp0","pricing_plan_id":"cebpf4jnsgd1na2vs0mg"},{"bike_id":"4a4b8a38-93fe-4562-bcce-826a532c71f1","system_id":"levelo_inurba_marseille","lat":43.23204,"lon":5.39999,"is_reserved":false,"is_disabled":true,"rental_uris":{"android":"levelo://app?vid=4a4b8a38-93fe-4562-bcce-826a532c71f1","ios":"levelo://app?vid=4a4b8a38-93fe-4562-bcce-826a532c71f1"},"vehicle_type_id":"4","last_reported":1737238071,"current_range_meters":0,"station_id":"ce4bhn12rcd13ifvqgqg","pricing_plan_id":"cebpf4jnsgd1na2vs0mg"},{"bike_id":"3677fd36-cc3f-4252-97c3-e7e1e1a066de","system_id":"levelo_inurba_marseille","lat":43.26569,"lon":5.39011,"is_reserved":false,"is_disabled":false,"rental_uris":{"android":"levelo://app?vid=3677fd36-cc3f-4252-97c3-e7e1e1a066de","ios":"levelo://app?vid=3677fd36-cc3f-4252-97c3-e7e1e1a066de"},"vehicle_type_id":"4","last_reported":1737238071,"current_range_meters":20800,"station_id":"ce4bhe12rcd13ifvqf30","pricing_plan_id":"cebpf4jnsgd1na2vs0mg"},{"bike_id":"c81a0006-cba6-463f-82bd-ebb0355c25a3","system_id":"levelo_inurba_marseille","lat":43.29787,"lon":5.38108,"is_reserved":false,"is_disabled":false,"rental_uris":{"android":"levelo://app?vid=c81a0006-cba6-463f-82bd-ebb0355c25a3","ios":"levelo://app?vid=c81a0006-cba6-463f-82bd-ebb0355c25a3"},"vehicle_type_id":"4","last_reported":1737238071,"current_range_meters":30400,"station_id":"ce4bgip2rcd13ifvqbb0","pricing_plan_id":"cebpf4jnsgd1na2vs0mg"},{"bike_id":"881f5a56-0072-422c-a05d-eee833d8c733","system_id":"levelo_inurba_marseille","lat":43.33132,"lon":5.37818,"is_reserved":false,"is_disabled":false,"rental_uris":{"android":"levelo://app?vid=881f5a56-0072-422c-a05d-eee833d8c733","ios":"levelo://app?vid=881f5a56-0072-422c-a05d-eee833d8c733"},"vehicle_type_id":"4","last_reported":1737238071,"current_range_meters":38400,"station_id":"","pricing_plan_id":"cebpf4jnsgd1na2vs0mg"},{"bike_id":"28ef1c1e-dd89-43e8-817b-9b489831397b","system_id":"levelo_inurba_marseille","lat":43.27112,"lon":5.39615,"is_reserved":false,"is_disabled":true,"rental_uris":{"android":"levelo://app?vid=28ef1c1e-dd89-43e8-817b-9b489831397b","ios":"levelo://app?vid=28ef1c1e-dd89-43e8-817b-9b489831397b"},"vehicle_type_id":"4","last_reported":1737238071,"current_range_meters":0,"station_id":"","pricing_plan_id":"cebpf4jnsgd1na2vs0mg"},{"bike_id":"63f5da95-45c1-4439-88f3-ff94f7d248dd","system_id":"levelo_inurba_marseille","lat":43.23202,"lon":5.39995,"is_reserved":false,"is_disabled":false,"rental_uris":{"android":"levelo://app?vid=63f5da95-45c1-4439-88f3-ff94f7d248dd","ios":"levelo://app?vid=63f5da95-45c1-4439-88f3-ff94f7d248dd"},"vehicle_type_id":"4","last_reported":1737238071,"current_range_meters":36000,"station_id":"ce4bhn12rcd13ifvqgqg","pricing_plan_id":"cebpf4jnsgd1na2vs0mg"},{"bike_id":"748bb4c8-d760-4703-845e-4ee62efabb1b","system_id":"levelo_inurba_marseille","lat":43.304332,"lon":5.388853,"is_reserved":false,"is_disabled":false,"rental_uris":{"android":"levelo://app?vid=748bb4c8-d760-4703-845e-4ee62efabb1b","ios":"levelo://app?vid=748bb4c8-d760-4703-845e-4ee62efabb1b"},"vehicle_type_id":"4","last_reported":1737238071,"current_range_meters":37600,"station_id":"ce4bgk12rcd13ifvqbi0","pricing_plan_id":"cebpf4jnsgd1na2vs0mg"},{"bike_id":"2ad52ef0-8080-4104-a5d3-4ad6b83e9c6d","system_id":"levelo_inurba_marseille","lat":43.29526,"lon":5.39033,"is_reserved":false,"is_disabled":false,"rental_uris":{"android":"levelo://app?vid=2ad52ef0-8080-4104-a5d3-4ad6b83e9c6d","ios":"levelo://app?vid=2ad52ef0-8080-4104-a5d3-4ad6b83e9c6d"},"vehicle_type_id":"4","last_reported":1737238071,"current_range_meters":25600,"station_id":"ce4bh3p2rcd13ifvqdp0","pricing_plan_id":"cebpf4jnsgd1na2vs0mg"},{"bike_id":"c77de84a-305d-47e5-b81a-44313d3b8aa9","system_id":"levelo_inurba_marseille","lat":43.25865,"lon":5.39894,"is_reserved":false,"is_disabled":false,"rental_uris":{"android":"levelo://app?vid=c77de84a-305d-47e5-b81a-44313d3b8aa9","ios":"levelo://app?vid=c77de84a-305d-47e5-b81a-44313d3b8aa9"},"vehicle_type_id":"4","last_reported":1737238071,"current_range_meters":30400,"station_id":"ce4bhl92rcd13ifvqghg","pricing_plan_id":"cebpf4jnsgd1na2vs0mg"},{"bike_id":"357eaeda-fef2-41f2-9ad0-621ae2cc5c09","system_id":"levelo_inurba_marseille","lat":43.33753,"lon":5.37518,"is_reserved":false,"is_disabled":false,"rental_uris":{"android":"levelo://app?vid=357eaeda-fef2-41f2-9ad0-621ae2cc5c09","ios":"levelo://app?vid=357eaeda-fef2-41f2-9ad0-621ae2cc5c09"},"vehicle_type_id":"4","last_reported":1737238071,"current_range_meters":35600,"station_id":"","pricing_plan_id":"cebpf4jnsgd1na2vs0mg"},{"bike_id":"24747ef3-c3b1-4bc4-b21e-7db78697d06a","system_id":"levelo_inurba_marseille","lat":43.30087,"lon":5.3911,"is_reserved":false,"is_disabled":false,"rental_uris":{"android":"levelo://app?vid=24747ef3-c3b1-4bc4-b21e-7db78697d06a","ios":"levelo://app?vid=24747ef3-c3b1-4bc4-b21e-7db78697d06a"},"vehicle_type_id":"4","last_reported":1737238071,"current_range_meters":38400,"station_id":"ce4bh192rcd13ifvqdb0","pricing_plan_id":"cebpf4jnsgd1na2vs0mg"},{"bike_id":"d274786c-8899-43d5-94f3-d281c5dc0870","system_id":"levelo_inurba_marseille","lat":43.28261,"lon":5.35072,"is_reserved":false,"is_disabled":false,"rental_uris":{"android":"levelo://app?vid=d274786c-8899-43d5-94f3-d281c5dc0870","ios":"levelo://app?vid=d274786c-8899-43d5-94f3-d281c5dc0870"},"vehicle_type_id":"4","last_reported":1737238071,"current_range_meters":9600,"station_id":"ce4bhbp2rcd13ifvqerg","pricing_plan_id":"cebpf4jnsgd1na2vs0mg"},{"bike_id":"ad37be90-cd16-435d-9ccb-35b175ce6ca4","system_id":"levelo_inurba_marseille","lat":43.2846,"lon":5.35889,"is_reserved":false,"is_disabled":false,"rental_uris":{"android":"levelo://app?vid=ad37be90-cd16-435d-9ccb-35b175ce6ca4","ios":"levelo://app?vid=ad37be90-cd16-435d-9ccb-35b175ce6ca4"},"vehicle_type_id":"4","last_reported":1737238071,"current_range_meters":20800,"station_id":"ce4bhah2rcd13ifvqei0","pricing_plan_id":"cebpf4jnsgd1na2vs0mg"},{"bike_id":"d5eacbf8-450a-4efd-bc63-6f6ecae3a300","system_id":"levelo_inurba_marseille","lat":43.28467,"lon":5.38425,"is_reserved":false,"is_disabled":false,"rental_uris":{"android":"levelo://app?vid=d5eacbf8-450a-4efd-bc63-6f6ecae3a300","ios":"levelo://app?vid=d5eacbf8-450a-4efd-bc63-6f6ecae3a300"},"vehicle_type_id":"4","last_reported":1737238071,"current_range_meters":38000,"station_id":"ce4bh512rcd13ifvqe3g","pricing_plan_id":"cebpf4jnsgd1na2vs0mg"},{"bike_id":"ab6a36f3-0478-4542-b2c1-73a09c381be9","system_id":"levelo_inurba_marseille","lat":43.29417,"lon":5.38645,"is_reserved":false,"is_disabled":false,"rental_uris":{"android":"levelo://app?vid=ab6a36f3-0478-4542-b2c1-73a09c381be9","ios":"levelo://app?vid=ab6a36f3-0478-4542-b2c1-73a09c381be9"},"vehicle_type_id":"4","last_reported":1737238071,"current_range_meters":28000,"station_id":"ce4bh2h2rcd13ifvqdh0","pricing_plan_id":"cebpf4jnsgd1na2vs0mg"},{"bike_id":"3c650c6f-d0a2-4e6d-9028-93aef3db0e14","system_id":"levelo_inurba_marseille","lat":43.2841,"lon":5.37502,"is_reserved":false,"is_disabled":false,"rental_uris":{"android":"levelo://app?vid=3c650c6f-d0a2-4e6d-9028-93aef3db0e14","ios":"levelo://app?vid=3c650c6f-d0a2-4e6d-9028-93aef3db0e14"},"vehicle_type_id":"4","last_reported":1737238071,"current_range_meters":6000,"station_id":"ce4bh412rcd13ifvqds0","pricing_plan_id":"cebpf4jnsgd1na2vs0mg"},{"bike_id":"a49f475d-e3dc-4453-8175-c5e760261925","system_id":"levelo_inurba_marseille","lat":43.29539,"lon":5.38537,"is_reserved":false,"is_disabled":false,"rental_uris":{"android":"levelo://app?vid=a49f475d-e3dc-4453-8175-c5e760261925","ios":"levelo://app?vid=a49f475d-e3dc-4453-8175-c5e760261925"},"vehicle_type_id":"4","last_reported":1737238071,"current_range_meters":38000,"station_id":"ce4bgih2rcd13ifvqba0","pricing_plan_id":"cebpf4jnsgd1na2vs0mg"},{"bike_id":"01a07bd9-36a1-4c19-a88b-7c9e3a6ee490","system_id":"levelo_inurba_marseille","lat":43.25085,"lon":5.39489,"is_reserved":false,"is_disabled":false,"rental_uris":{"android":"levelo://app?vid=01a07bd9-36a1-4c19-a88b-7c9e3a6ee490","ios":"levelo://app?vid=01a07bd9-36a1-4c19-a88b-7c9e3a6ee490"},"vehicle_type_id":"4","last_reported":1737238071,"current_range_meters":36000,"station_id":"ce4bhm12rcd13ifvqgkg","pricing_plan_id":"cebpf4jnsgd1na2vs0mg"},{"bike_id":"b0b5b450-5055-4cf9-9abc-490d41233b4e","system_id":"levelo_inurba_marseille","lat":43.28714,"lon":5.37918,"is_reserved":false,"is_disabled":false,"rental_uris":{"android":"levelo://app?vid=b0b5b450-5055-4cf9-9abc-490d41233b4e","ios":"levelo://app?vid=b0b5b450-5055-4cf9-9abc-490d41233b4e"},"vehicle_type_id":"4","last_reported":1737238071,"current_range_meters":22400,"station_id":"ce4bh9p2rcd13ifvqec0","pricing_plan_id":"cebpf4jnsgd1na2vs0mg"},{"bike_id":"15ae32a2-2c27-4797-b7e3-aa42fe88d8b2","system_id":"levelo_inurba_marseille","lat":43.29577,"lon":5.37499,"is_reserved":false,"is_disabled":false,"rental_uris":{"android":"levelo://app?vid=15ae32a2-2c27-4797-b7e3-aa42fe88d8b2","ios":"levelo://app?vid=15ae32a2-2c27-4797-b7e3-aa42fe88d8b2"},"vehicle_type_id":"4","last_reported":1737238071,"current_range_meters":38800,"station_id":"ce4bgh92rcd13ifvqb50","pricing_plan_id":"cebpf4jnsgd1na2vs0mg"},{"bike_id":"24d3b331-52fa-4564-a98e-732c1dea4a32","system_id":"levelo_inurba_marseille","lat":43.27503,"lon":5.42452,"is_reserved":false,"is_disabled":true,"rental_uris":{"android":"levelo://app?vid=24d3b331-52fa-4564-a98e-732c1dea4a32","ios":"levelo://app?vid=24d3b331-52fa-4564-a98e-732c1dea4a32"},"vehicle_type_id":"4","last_reported":1737238071,"current_range_meters":0,"station_id":"ce4bhn92rcd13ifvqgrg","pricing_plan_id":"cebpf4jnsgd1na2vs0mg"},{"bike_id":"9be957d2-26d1-49a4-9f85-b06ee3432064","system_id":"levelo_inurba_marseille","lat":43.33736,"lon":5.39187,"is_reserved":false,"is_disabled":false,"rental_uris":{"android":"levelo://app?vid=9be957d2-26d1-49a4-9f85-b06ee3432064","ios":"levelo://app?vid=9be957d2-26d1-49a4-9f85-b06ee3432064"},"vehicle_type_id":"4","last_reported":1737238071,"current_range_meters":25200,"station_id":"ce4bhr92rcd13ifvqhsg","pricing_plan_id":"cebpf4jnsgd1na2vs0mg"},{"bike_id":"524072f1-ace1-43cc-8007-f91dc732b1f7","system_id":"levelo_inurba_marseille","lat":43.25084,"lon":5.39513,"is_reserved":false,"is_disabled":false,"rental_uris":{"android":"levelo://app?vid=524072f1-ace1-43cc-8007-f91dc732b1f7","ios":"levelo://app?vid=524072f1-ace1-43cc-8007-f91dc732b1f7"},"vehicle_type_id":"4","last_reported":1737238071,"current_range_meters":34000,"station_id":"ce4bhm12rcd13ifvqgkg","pricing_plan_id":"cebpf4jnsgd1na2vs0mg"},{"bike_id":"fb45f85d-8548-49c2-b2a4-38487d3213d7","system_id":"levelo_inurba_marseille","lat":43.2956,"lon":5.37487,"is_reserved":false,"is_disabled":false,"rental_uris":{"android":"levelo://app?vid=fb45f85d-8548-49c2-b2a4-38487d3213d7","ios":"levelo://app?vid=fb45f85d-8548-49c2-b2a4-38487d3213d7"},"vehicle_type_id":"4","last_reported":1737238071,"current_range_meters":14000,"station_id":"ce4bgh92rcd13ifvqb50","pricing_plan_id":"cebpf4jnsgd1na2vs0mg"},{"bike_id":"4176cd66-1893-4442-bd75-0360ec9d6e01","system_id":"levelo_inurba_marseille","lat":43.28942,"lon":5.36421,"is_reserved":false,"is_disabled":false,"rental_uris":{"android":"levelo://app?vid=4176cd66-1893-4442-bd75-0360ec9d6e01","ios":"levelo://app?vid=4176cd66-1893-4442-bd75-0360ec9d6e01"},"vehicle_type_id":"4","last_reported":1737238071,"current_range_meters":34800,"station_id":"ce4bhc92rcd13ifvqetg","pricing_plan_id":"cebpf4jnsgd1na2vs0mg"},{"bike_id":"5502fbba-199a-4d29-a696-2c1f2ed23540","system_id":"levelo_inurba_marseille","lat":43.29412,"lon":5.38636,"is_reserved":false,"is_disabled":false,"rental_uris":{"android":"levelo://app?vid=5502fbba-199a-4d29-a696-2c1f2ed23540","ios":"levelo://app?vid=5502fbba-199a-4d29-a696-2c1f2ed23540"},"vehicle_type_id":"4","last_reported":1737238071,"current_range_meters":30800,"station_id":"ce4bh2h2rcd13ifvqdh0","pricing_plan_id":"cebpf4jnsgd1na2vs0mg"},{"bike_id":"59829282-52a1-4f2c-9ab6-c535355001fb","system_id":"levelo_inurba_marseille","lat":43.3047,"lon":5.38899,"is_reserved":false,"is_disabled":false,"rental_uris":{"android":"levelo://app?vid=59829282-52a1-4f2c-9ab6-c535355001fb","ios":"levelo://app?vid=59829282-52a1-4f2c-9ab6-c535355001fb"},"vehicle_type_id":"4","last_reported":1737238071,"current_range_meters":36800,"station_id":"ce4bgk12rcd13ifvqbi0","pricing_plan_id":"cebpf4jnsgd1na2vs0mg"},{"bike_id":"52944324-56c0-4eb2-bed2-f2a48346d11b","system_id":"levelo_inurba_marseille","lat":43.28362,"lon":5.38115,"is_reserved":false,"is_disabled":false,"rental_uris":{"android":"levelo://app?vid=52944324-56c0-4eb2-bed2-f2a48346d11b","ios":"levelo://app?vid=52944324-56c0-4eb2-bed2-f2a48346d11b"},"vehicle_type_id":"4","last_reported":1737238071,"current_range_meters":38000,"station_id":"ce4bh412rcd13ifvqdr0","pricing_plan_id":"cebpf4jnsgd1na2vs0mg"},{"bike_id":"c1e7c4c6-a00f-44bf-a184-0a1c62298609","system_id":"levelo_inurba_marseille","lat":43.31072,"lon":5.38356,"is_reserved":false,"is_disabled":false,"rental_uris":{"android":"levelo://app?vid=c1e7c4c6-a00f-44bf-a184-0a1c62298609","ios":"levelo://app?vid=c1e7c4c6-a00f-44bf-a184-0a1c62298609"},"vehicle_type_id":"4","last_reported":1737238071,"current_range_meters":21600,"station_id":"ce4bgv92rcd13ifvqcr0","pricing_plan_id":"cebpf4jnsgd1na2vs0mg"},{"bike_id":"4291632b-b89c-4c47-8e03-1ac2c74e4815","system_id":"levelo_inurba_marseille","lat":43.24168,"lon":5.39725,"is_reserved":false,"is_disabled":false,"rental_uris":{"android":"levelo://app?vid=4291632b-b89c-4c47-8e03-1ac2c74e4815","ios":"levelo://app?vid=4291632b-b89c-4c47-8e03-1ac2c74e4815"},"vehicle_type_id":"4","last_reported":1737238071,"current_range_meters":11200,"station_id":"ce4bhn12rcd13ifvqgpg","pricing_plan_id":"cebpf4jnsgd1na2vs0mg"},{"bike_id":"804b3b4e-2b7b-432d-bee9-ad793eff9ddf","system_id":"levelo_inurba_marseille","lat":43.25721,"lon":5.41105,"is_reserved":false,"is_disabled":false,"rental_uris":{"android":"levelo://app?vid=804b3b4e-2b7b-432d-bee9-ad793eff9ddf","ios":"levelo://app?vid=804b3b4e-2b7b-432d-bee9-ad793eff9ddf"},"vehicle_type_id":"4","last_reported":1737238071,"current_range_meters":9600,"station_id":"ce4bhkp2rcd13ifvqgd0","pricing_plan_id":"cebpf4jnsgd1na2vs0mg"},{"bike_id":"0d1eb853-87b3-4546-8a0d-6dd2b8dc4370","system_id":"levelo_inurba_marseille","lat":43.2871,"lon":5.39987,"is_reserved":false,"is_disabled":false,"rental_uris":{"android":"levelo://app?vid=0d1eb853-87b3-4546-8a0d-6dd2b8dc4370","ios":"levelo://app?vid=0d1eb853-87b3-4546-8a0d-6dd2b8dc4370"},"vehicle_type_id":"4","last_reported":1737238071,"current_range_meters":36400,"station_id":"ce4bho92rcd13ifvqh3g","pricing_plan_id":"cebpf4jnsgd1na2vs0mg"},{"bike_id":"6483833e-155c-4ba5-b476-c73f7360ac6b","system_id":"levelo_inurba_marseille","lat":43.29876,"lon":5.39728,"is_reserved":false,"is_disabled":false,"rental_uris":{"android":"levelo://app?vid=6483833e-155c-4ba5-b476-c73f7360ac6b","ios":"levelo://app?vid=6483833e-155c-4ba5-b476-c73f7360ac6b"},"vehicle_type_id":"4","last_reported":1737238071,"current_range_meters":32800,"station_id":"ce4bh0h2rcd13ifvqd50","pricing_plan_id":"cebpf4jnsgd1na2vs0mg"},{"bike_id":"dfd96ebd-2cae-4ab5-8d13-f6e62258957e","system_id":"levelo_inurba_marseille","lat":43.31728,"lon":5.42398,"is_reserved":false,"is_disabled":false,"rental_uris":{"android":"levelo://app?vid=dfd96ebd-2cae-4ab5-8d13-f6e62258957e","ios":"levelo://app?vid=dfd96ebd-2cae-4ab5-8d13-f6e62258957e"},"vehicle_type_id":"4","last_reported":1737238071,"current_range_meters":38800,"station_id":"ce4bhp92rcd13ifvqhbg","pricing_plan_id":"cebpf4jnsgd1na2vs0mg"},{"bike_id":"705fda08-81e6-4eb6-a216-a2b7deca13b7","system_id":"levelo_inurba_marseille","lat":43.29268,"lon":5.38451,"is_reserved":false,"is_disabled":false,"rental_uris":{"android":"levelo://app?vid=705fda08-81e6-4eb6-a216-a2b7deca13b7","ios":"levelo://app?vid=705fda08-81e6-4eb6-a216-a2b7deca13b7"},"vehicle_type_id":"4","last_reported":1737238071,"current_range_meters":38800,"station_id":"ce4bh692rcd13ifvqea0","pricing_plan_id":"cebpf4jnsgd1na2vs0mg"},{"bike_id":"13d3fd97-e21c-4164-8b58-6e6c0cfe1ec1","system_id":"levelo_inurba_marseille","lat":43.28031,"lon":5.36948,"is_reserved":false,"is_disabled":false,"rental_uris":{"android":"levelo://app?vid=13d3fd97-e21c-4164-8b58-6e6c0cfe1ec1","ios":"levelo://app?vid=13d3fd97-e21c-4164-8b58-6e6c0cfe1ec1"},"vehicle_type_id":"4","last_reported":1737238071,"current_range_meters":38800,"station_id":"ce4bha12rcd13ifvqef0","pricing_plan_id":"cebpf4jnsgd1na2vs0mg"},{"bike_id":"fae143cc-e0b7-42e0-ac41-6327643321d0","system_id":"levelo_inurba_marseille","lat":43.25835,"lon":5.39452,"is_reserved":false,"is_disabled":false,"rental_uris":{"android":"levelo://app?vid=fae143cc-e0b7-42e0-ac41-6327643321d0","ios":"levelo://app?vid=fae143cc-e0b7-42e0-ac41-6327643321d0"},"vehicle_type_id":"4","last_reported":1737238071,"current_range_meters":30400,"station_id":"ce4bhip2rcd13ifvqft0","pricing_plan_id":"cebpf4jnsgd1na2vs0mg"},{"bike_id":"bcd96ff4-f53b-4513-aba6-d7a0a8f8f0c1","system_id":"levelo_inurba_marseille","lat":43.25832,"lon":5.39436,"is_reserved":false,"is_disabled":false,"rental_uris":{"android":"levelo://app?vid=bcd96ff4-f53b-4513-aba6-d7a0a8f8f0c1","ios":"levelo://app?vid=bcd96ff4-f53b-4513-aba6-d7a0a8f8f0c1"},"vehicle_type_id":"4","last_reported":1737238071,"current_range_meters":35600,"station_id":"ce4bhip2rcd13ifvqft0","pricing_plan_id":"cebpf4jnsgd1na2vs0mg"},{"bike_id":"6934a120-854e-46c6-8426-e359803eb595","system_id":"levelo_inurba_marseille","lat":43.290623,"lon":5.371597,"is_reserved":false,"is_disabled":false,"rental_uris":{"android":"levelo://app?vid=6934a120-854e-46c6-8426-e359803eb595","ios":"levelo://app?vid=6934a120-854e-46c6-8426-e359803eb595"},"vehicle_type_id":"4","last_reported":1737238071,"current_range_meters":36000,"station_id":"ce4bh5p2rcd13ifvqe4g","pricing_plan_id":"cebpf4jnsgd1na2vs0mg"},{"bike_id":"1e439018-c0d6-4a96-9cf0-6ec46d1fa22b","system_id":"levelo_inurba_marseille","lat":43.33014,"lon":5.39057,"is_reserved":false,"is_disabled":false,"rental_uris":{"android":"levelo://app?vid=1e439018-c0d6-4a96-9cf0-6ec46d1fa22b","ios":"levelo://app?vid=1e439018-c0d6-4a96-9cf0-6ec46d1fa22b"},"vehicle_type_id":"4","last_reported":1737238071,"current_range_meters":37600,"station_id":"ce4bhr92rcd13ifvqhrg","pricing_plan_id":"cebpf4jnsgd1na2vs0mg"},{"bike_id":"f4a4a406-b0a5-42fc-9236-32e93ac6f6b2","system_id":"levelo_inurba_marseille","lat":43.23166,"lon":5.43679,"is_reserved":false,"is_disabled":true,"rental_uris":{"android":"levelo://app?vid=f4a4a406-b0a5-42fc-9236-32e93ac6f6b2","ios":"levelo://app?vid=f4a4a406-b0a5-42fc-9236-32e93ac6f6b2"},"vehicle_type_id":"4","last_reported":1737238071,"current_range_meters":28000,"station_id":"ce4bhmp2rcd13ifvqgog","pricing_plan_id":"cebpf4jnsgd1na2vs0mg"},{"bike_id":"210ffe2d-27bf-471a-a897-ba0eb55d9e2b","system_id":"levelo_inurba_marseille","lat":43.27095,"lon":5.42288,"is_reserved":false,"is_disabled":false,"rental_uris":{"android":"levelo://app?vid=210ffe2d-27bf-471a-a897-ba0eb55d9e2b","ios":"levelo://app?vid=210ffe2d-27bf-471a-a897-ba0eb55d9e2b"},"vehicle_type_id":"4","last_reported":1737238071,"current_range_meters":38400,"station_id":"ce4bhk92rcd13ifvqgb0","pricing_plan_id":"cebpf4jnsgd1na2vs0mg"},{"bike_id":"801ee5c2-94c0-4d04-a046-f787ca2a34cf","system_id":"levelo_inurba_marseille","lat":43.29981,"lon":5.38483,"is_reserved":false,"is_disabled":false,"rental_uris":{"android":"levelo://app?vid=801ee5c2-94c0-4d04-a046-f787ca2a34cf","ios":"levelo://app?vid=801ee5c2-94c0-4d04-a046-f787ca2a34cf"},"vehicle_type_id":"4","last_reported":1737238071,"current_range_meters":24400,"station_id":"ce4bgj92rcd13ifvqbd0","pricing_plan_id":"cebpf4jnsgd1na2vs0mg"},{"bike_id":"cc0dd3d3-b8e8-4fc7-b56a-d6e907bddf18","system_id":"levelo_inurba_marseille","lat":43.29555,"lon":5.42304,"is_reserved":false,"is_disabled":false,"rental_uris":{"android":"levelo://app?vid=cc0dd3d3-b8e8-4fc7-b56a-d6e907bddf18","ios":"levelo://app?vid=cc0dd3d3-b8e8-4fc7-b56a-d6e907bddf18"},"vehicle_type_id":"4","last_reported":1737238071,"current_range_meters":6000,"station_id":"ce4bhph2rcd13ifvqhdg","pricing_plan_id":"cebpf4jnsgd1na2vs0mg"},{"bike_id":"5e49b4a3-75bf-4de6-a0e8-fdd2fc7a9cde","system_id":"levelo_inurba_marseille","lat":43.27057,"lon":5.40261,"is_reserved":false,"is_disabled":false,"rental_uris":{"android":"levelo://app?vid=5e49b4a3-75bf-4de6-a0e8-fdd2fc7a9cde","ios":"levelo://app?vid=5e49b4a3-75bf-4de6-a0e8-fdd2fc7a9cde"},"vehicle_type_id":"4","last_reported":1737238071,"current_range_meters":24000,"station_id":"ce4bhk92rcd13ifvqgc0","pricing_plan_id":"cebpf4jnsgd1na2vs0mg"},{"bike_id":"e58842d1-b457-4207-9932-2223f4bcc961","system_id":"levelo_inurba_marseille","lat":43.29267,"lon":5.38443,"is_reserved":false,"is_disabled":false,"rental_uris":{"android":"levelo://app?vid=e58842d1-b457-4207-9932-2223f4bcc961","ios":"levelo://app?vid=e58842d1-b457-4207-9932-2223f4bcc961"},"vehicle_type_id":"4","last_reported":1737238071,"current_range_meters":26800,"station_id":"ce4bh692rcd13ifvqea0","pricing_plan_id":"cebpf4jnsgd1na2vs0mg"},{"bike_id":"a92a0366-26fc-41fa-b9ff-1e2e574c79bc","system_id":"levelo_inurba_marseille","lat":43.30312,"lon":5.36897,"is_reserved":false,"is_disabled":false,"rental_uris":{"android":"levelo://app?vid=a92a0366-26fc-41fa-b9ff-1e2e574c79bc","ios":"levelo://app?vid=a92a0366-26fc-41fa-b9ff-1e2e574c79bc"},"vehicle_type_id":"4","last_reported":1737238071,"current_range_meters":38800,"station_id":"ce4bgqh2rcd13ifvqc5g","pricing_plan_id":"cebpf4jnsgd1na2vs0mg"},{"bike_id":"b9125043-244d-449f-81b6-0c8a1e3a771f","system_id":"levelo_inurba_marseille","lat":43.29715,"lon":5.36608,"is_reserved":false,"is_disabled":false,"rental_uris":{"android":"levelo://app?vid=b9125043-244d-449f-81b6-0c8a1e3a771f","ios":"levelo://app?vid=b9125043-244d-449f-81b6-0c8a1e3a771f"},"vehicle_type_id":"4","last_reported":1737238071,"current_range_meters":38000,"station_id":"ce4bgn12rcd13ifvqbt0","pricing_plan_id":"cebpf4jnsgd1na2vs0mg"},{"bike_id":"73b2f321-6711-405f-bf12-48fafa008932","system_id":"levelo_inurba_marseille","lat":43.29599,"lon":5.37717,"is_reserved":false,"is_disabled":false,"rental_uris":{"android":"levelo://app?vid=73b2f321-6711-405f-bf12-48fafa008932","ios":"levelo://app?vid=73b2f321-6711-405f-bf12-48fafa008932"},"vehicle_type_id":"4","last_reported":1737238071,"current_range_meters":38800,"station_id":"ce4bgi92rcd13ifvqb90","pricing_plan_id":"cebpf4jnsgd1na2vs0mg"},{"bike_id":"b58dcef5-cab9-4732-933d-c18fb8a74b04","system_id":"levelo_inurba_marseille","lat":43.23131,"lon":5.43746,"is_reserved":false,"is_disabled":true,"rental_uris":{"android":"levelo://app?vid=b58dcef5-cab9-4732-933d-c18fb8a74b04","ios":"levelo://app?vid=b58dcef5-cab9-4732-933d-c18fb8a74b04"},"vehicle_type_id":"4","last_reported":1737238071,"current_range_meters":0,"station_id":"","pricing_plan_id":"cebpf4jnsgd1na2vs0mg"},{"bike_id":"2f6e296a-103c-4546-bc33-575748b129aa","system_id":"levelo_inurba_marseille","lat":43.301468,"lon":5.374249,"is_reserved":false,"is_disabled":false,"rental_uris":{"android":"levelo://app?vid=2f6e296a-103c-4546-bc33-575748b129aa","ios":"levelo://app?vid=2f6e296a-103c-4546-bc33-575748b129aa"},"vehicle_type_id":"4","last_reported":1737238071,"current_range_meters":16800,"station_id":"ce4bgs92rcd13ifvqcc0","pricing_plan_id":"cebpf4jnsgd1na2vs0mg"},{"bike_id":"56bc8aaf-0f94-4e50-98d4-bba0e99201f1","system_id":"levelo_inurba_marseille","lat":43.25726,"lon":5.41114,"is_reserved":false,"is_disabled":false,"rental_uris":{"android":"levelo://app?vid=56bc8aaf-0f94-4e50-98d4-bba0e99201f1","ios":"levelo://app?vid=56bc8aaf-0f94-4e50-98d4-bba0e99201f1"},"vehicle_type_id":"4","last_reported":1737238071,"current_range_meters":26000,"station_id":"ce4bhkp2rcd13ifvqgd0","pricing_plan_id":"cebpf4jnsgd1na2vs0mg"},{"bike_id":"a2db4274-ccf5-421f-87c6-f7cc5d30f362","system_id":"levelo_inurba_marseille","lat":43.31073,"lon":5.38356,"is_reserved":false,"is_disabled":false,"rental_uris":{"android":"levelo://app?vid=a2db4274-ccf5-421f-87c6-f7cc5d30f362","ios":"levelo://app?vid=a2db4274-ccf5-421f-87c6-f7cc5d30f362"},"vehicle_type_id":"4","last_reported":1737238071,"current_range_meters":30400,"station_id":"ce4bgv92rcd13ifvqcr0","pricing_plan_id":"cebpf4jnsgd1na2vs0mg"},{"bike_id":"234d1550-b7dd-465b-9578-32049a642f2b","system_id":"levelo_inurba_marseille","lat":43.29963,"lon":5.41319,"is_reserved":false,"is_disabled":false,"rental_uris":{"android":"levelo://app?vid=234d1550-b7dd-465b-9578-32049a642f2b","ios":"levelo://app?vid=234d1550-b7dd-465b-9578-32049a642f2b"},"vehicle_type_id":"4","last_reported":1737238071,"current_range_meters":37600,"station_id":"ce4bhp12rcd13ifvqh9g","pricing_plan_id":"cebpf4jnsgd1na2vs0mg"},{"bike_id":"adf74050-b3cd-46a0-8d63-eff21c39db05","system_id":"levelo_inurba_marseille","lat":43.2943,"lon":5.38657,"is_reserved":false,"is_disabled":false,"rental_uris":{"android":"levelo://app?vid=adf74050-b3cd-46a0-8d63-eff21c39db05","ios":"levelo://app?vid=adf74050-b3cd-46a0-8d63-eff21c39db05"},"vehicle_type_id":"4","last_reported":1737238071,"current_range_meters":35600,"station_id":"ce4bh2h2rcd13ifvqdh0","pricing_plan_id":"cebpf4jnsgd1na2vs0mg"},{"bike_id":"81311a23-5b42-470e-9db7-c473c886755e","system_id":"levelo_inurba_marseille","lat":43.29536,"lon":5.38537,"is_reserved":false,"is_disabled":false,"rental_uris":{"android":"levelo://app?vid=81311a23-5b42-470e-9db7-c473c886755e","ios":"levelo://app?vid=81311a23-5b42-470e-9db7-c473c886755e"},"vehicle_type_id":"4","last_reported":1737238071,"current_range_meters":37600,"station_id":"ce4bgih2rcd13ifvqba0","pricing_plan_id":"cebpf4jnsgd1na2vs0mg"},{"bike_id":"4253c13e-20e9-4dd5-935b-592c9eb13235","system_id":"levelo_inurba_marseille","lat":43.29245,"lon":5.38449,"is_reserved":false,"is_disabled":false,"rental_uris":{"android":"levelo://app?vid=4253c13e-20e9-4dd5-935b-592c9eb13235","ios":"levelo://app?vid=4253c13e-20e9-4dd5-935b-592c9eb13235"},"vehicle_type_id":"4","last_reported":1737238071,"current_range_meters":18000,"station_id":"ce4bh692rcd13ifvqea0","pricing_plan_id":"cebpf4jnsgd1na2vs0mg"},{"bike_id":"7bf0bafb-3341-4dbd-9142-169786e15f4c","system_id":"levelo_inurba_marseille","lat":43.24816,"lon":5.37451,"is_reserved":false,"is_disabled":false,"rental_uris":{"android":"levelo://app?vid=7bf0bafb-3341-4dbd-9142-169786e15f4c","ios":"levelo://app?vid=7bf0bafb-3341-4dbd-9142-169786e15f4c"},"vehicle_type_id":"4","last_reported":1737238071,"current_range_meters":10000,"station_id":"ce4bhgh2rcd13ifvqfb0","pricing_plan_id":"cebpf4jnsgd1na2vs0mg"},{"bike_id":"13bddca6-026b-48b8-acc6-8b1595c1cda5","system_id":"levelo_inurba_marseille","lat":43.29371,"lon":5.37838,"is_reserved":false,"is_disabled":false,"rental_uris":{"android":"levelo://app?vid=13bddca6-026b-48b8-acc6-8b1595c1cda5","ios":"levelo://app?vid=13bddca6-026b-48b8-acc6-8b1595c1cda5"},"vehicle_type_id":"4","last_reported":1737238071,"current_range_meters":33600,"station_id":"ce4bgjh2rcd13ifvqbf0","pricing_plan_id":"cebpf4jnsgd1na2vs0mg"},{"bike_id":"7dd58236-9017-4bda-9db1-3a5edc7d30e2","system_id":"levelo_inurba_marseille","lat":43.29419,"lon":5.3862,"is_reserved":false,"is_disabled":false,"rental_uris":{"android":"levelo://app?vid=7dd58236-9017-4bda-9db1-3a5edc7d30e2","ios":"levelo://app?vid=7dd58236-9017-4bda-9db1-3a5edc7d30e2"},"vehicle_type_id":"4","last_reported":1737238071,"current_range_meters":35200,"station_id":"ce4bh2h2rcd13ifvqdh0","pricing_plan_id":"cebpf4jnsgd1na2vs0mg"},{"bike_id":"bb3bbf4d-a6a0-40de-9251-f95972a204b7","system_id":"levelo_inurba_marseille","lat":43.29984,"lon":5.38486,"is_reserved":false,"is_disabled":false,"rental_uris":{"android":"levelo://app?vid=bb3bbf4d-a6a0-40de-9251-f95972a204b7","ios":"levelo://app?vid=bb3bbf4d-a6a0-40de-9251-f95972a204b7"},"vehicle_type_id":"4","last_reported":1737238071,"current_range_meters":33600,"station_id":"ce4bgj92rcd13ifvqbd0","pricing_plan_id":"cebpf4jnsgd1na2vs0mg"},{"bike_id":"56b8e9bc-f750-4815-bc98-9098414d16db","system_id":"levelo_inurba_marseille","lat":43.23199,"lon":5.35546,"is_reserved":false,"is_disabled":true,"rental_uris":{"android":"levelo://app?vid=56b8e9bc-f750-4815-bc98-9098414d16db","ios":"levelo://app?vid=56b8e9bc-f750-4815-bc98-9098414d16db"},"vehicle_type_id":"4","last_reported":1737238071,"current_range_meters":0,"station_id":"ce4bhu92rcd13ifvqi70","pricing_plan_id":"cebpf4jnsgd1na2vs0mg"},{"bike_id":"0e91b70c-1e42-4d65-a90a-72cbd40954b0","system_id":"levelo_inurba_marseille","lat":43.32363,"lon":5.36756,"is_reserved":false,"is_disabled":false,"rental_uris":{"android":"levelo://app?vid=0e91b70c-1e42-4d65-a90a-72cbd40954b0","ios":"levelo://app?vid=0e91b70c-1e42-4d65-a90a-72cbd40954b0"},"vehicle_type_id":"4","last_reported":1737238071,"current_range_meters":9600,"station_id":"ce4bhsh2rcd13ifvqi2g","pricing_plan_id":"cebpf4jnsgd1na2vs0mg"},{"bike_id":"f1554a39-4828-457f-95d7-a7f66156c156","system_id":"levelo_inurba_marseille","lat":43.27672,"lon":5.38888,"is_reserved":false,"is_disabled":false,"rental_uris":{"android":"levelo://app?vid=f1554a39-4828-457f-95d7-a7f66156c156","ios":"levelo://app?vid=f1554a39-4828-457f-95d7-a7f66156c156"},"vehicle_type_id":"4","last_reported":1737238071,"current_range_meters":6800,"station_id":"ce4bhi12rcd13ifvqfo0","pricing_plan_id":"cebpf4jnsgd1na2vs0mg"},{"bike_id":"fcff8b6e-6484-4e4c-8d98-9ab325ed2e27","system_id":"levelo_inurba_marseille","lat":43.32489,"lon":5.36549,"is_reserved":false,"is_disabled":false,"rental_uris":{"android":"levelo://app?vid=fcff8b6e-6484-4e4c-8d98-9ab325ed2e27","ios":"levelo://app?vid=fcff8b6e-6484-4e4c-8d98-9ab325ed2e27"},"vehicle_type_id":"4","last_reported":1737238071,"current_range_meters":38800,"station_id":"ce4bhs12rcd13ifvqhvg","pricing_plan_id":"cebpf4jnsgd1na2vs0mg"},{"bike_id":"f82a92f3-88f0-4adc-92de-4c6bd3425679","system_id":"levelo_inurba_marseille","lat":43.2943,"lon":5.3866,"is_reserved":false,"is_disabled":false,"rental_uris":{"android":"levelo://app?vid=f82a92f3-88f0-4adc-92de-4c6bd3425679","ios":"levelo://app?vid=f82a92f3-88f0-4adc-92de-4c6bd3425679"},"vehicle_type_id":"4","last_reported":1737238071,"current_range_meters":14400,"station_id":"ce4bh2h2rcd13ifvqdh0","pricing_plan_id":"cebpf4jnsgd1na2vs0mg"},{"bike_id":"584394ee-c62c-4e87-8cc4-2456f83ea813","system_id":"levelo_inurba_marseille","lat":43.2942,"lon":5.38631,"is_reserved":false,"is_disabled":false,"rental_uris":{"android":"levelo://app?vid=584394ee-c62c-4e87-8cc4-2456f83ea813","ios":"levelo://app?vid=584394ee-c62c-4e87-8cc4-2456f83ea813"},"vehicle_type_id":"4","last_reported":1737238071,"current_range_meters":21600,"station_id":"ce4bh2h2rcd13ifvqdh0","pricing_plan_id":"cebpf4jnsgd1na2vs0mg"},{"bike_id":"109157e6-212e-4848-a8d7-cec99b3c5237","system_id":"levelo_inurba_marseille","lat":43.2907,"lon":5.37153,"is_reserved":false,"is_disabled":false,"rental_uris":{"android":"levelo://app?vid=109157e6-212e-4848-a8d7-cec99b3c5237","ios":"levelo://app?vid=109157e6-212e-4848-a8d7-cec99b3c5237"},"vehicle_type_id":"4","last_reported":1737238071,"current_range_meters":9600,"station_id":"ce4bh5p2rcd13ifvqe4g","pricing_plan_id":"cebpf4jnsgd1na2vs0mg"},{"bike_id":"3fc83956-a2cd-441f-93bc-4508418b1783","system_id":"levelo_inurba_marseille","lat":43.29908,"lon":5.37469,"is_reserved":false,"is_disabled":false,"rental_uris":{"android":"levelo://app?vid=3fc83956-a2cd-441f-93bc-4508418b1783","ios":"levelo://app?vid=3fc83956-a2cd-441f-93bc-4508418b1783"},"vehicle_type_id":"4","last_reported":1737238071,"current_range_meters":10800,"station_id":"ce4bgjh2rcd13ifvqbg0","pricing_plan_id":"cebpf4jnsgd1na2vs0mg"},{"bike_id":"9af96813-0b3a-4a90-b4b0-7844d32424b8","system_id":"levelo_inurba_marseille","lat":43.29629,"lon":5.40582,"is_reserved":false,"is_disabled":false,"rental_uris":{"android":"levelo://app?vid=9af96813-0b3a-4a90-b4b0-7844d32424b8","ios":"levelo://app?vid=9af96813-0b3a-4a90-b4b0-7844d32424b8"},"vehicle_type_id":"4","last_reported":1737238071,"current_range_meters":38000,"station_id":"ce4bh0h2rcd13ifvqd60","pricing_plan_id":"cebpf4jnsgd1na2vs0mg"},{"bike_id":"0966a8a8-2d5b-449d-8d62-52bfeeb2bcde","system_id":"levelo_inurba_marseille","lat":43.29731,"lon":5.37709,"is_reserved":false,"is_disabled":true,"rental_uris":{"android":"levelo://app?vid=0966a8a8-2d5b-449d-8d62-52bfeeb2bcde","ios":"levelo://app?vid=0966a8a8-2d5b-449d-8d62-52bfeeb2bcde"},"vehicle_type_id":"4","last_reported":1737238071,"current_range_meters":38800,"station_id":"ce4bgkh2rcd13ifvqbl0","pricing_plan_id":"cebpf4jnsgd1na2vs0mg"},{"bike_id":"22465212-93af-4e0b-b803-6ee82bba56d5","system_id":"levelo_inurba_marseille","lat":43.33759,"lon":5.3748,"is_reserved":false,"is_disabled":false,"rental_uris":{"android":"levelo://app?vid=22465212-93af-4e0b-b803-6ee82bba56d5","ios":"levelo://app?vid=22465212-93af-4e0b-b803-6ee82bba56d5"},"vehicle_type_id":"4","last_reported":1737238071,"current_range_meters":31200,"station_id":"","pricing_plan_id":"cebpf4jnsgd1na2vs0mg"},{"bike_id":"5ff17846-36a7-43b8-be24-eaedb0e6b6f8","system_id":"levelo_inurba_marseille","lat":43.29538,"lon":5.38526,"is_reserved":false,"is_disabled":false,"rental_uris":{"android":"levelo://app?vid=5ff17846-36a7-43b8-be24-eaedb0e6b6f8","ios":"levelo://app?vid=5ff17846-36a7-43b8-be24-eaedb0e6b6f8"},"vehicle_type_id":"4","last_reported":1737238071,"current_range_meters":24000,"station_id":"ce4bgih2rcd13ifvqba0","pricing_plan_id":"cebpf4jnsgd1na2vs0mg"},{"bike_id":"84b25257-3930-42f2-bd49-35cbefa45491","system_id":"levelo_inurba_marseille","lat":43.29265,"lon":5.3845,"is_reserved":false,"is_disabled":false,"rental_uris":{"android":"levelo://app?vid=84b25257-3930-42f2-bd49-35cbefa45491","ios":"levelo://app?vid=84b25257-3930-42f2-bd49-35cbefa45491"},"vehicle_type_id":"4","last_reported":1737238071,"current_range_meters":17200,"station_id":"ce4bh692rcd13ifvqea0","pricing_plan_id":"cebpf4jnsgd1na2vs0mg"},{"bike_id":"19fb1931-f075-402c-a076-088e72accb76","system_id":"levelo_inurba_marseille","lat":43.24813,"lon":5.37464,"is_reserved":false,"is_disabled":false,"rental_uris":{"android":"levelo://app?vid=19fb1931-f075-402c-a076-088e72accb76","ios":"levelo://app?vid=19fb1931-f075-402c-a076-088e72accb76"},"vehicle_type_id":"4","last_reported":1737238071,"current_range_meters":14000,"station_id":"ce4bhgh2rcd13ifvqfb0","pricing_plan_id":"cebpf4jnsgd1na2vs0mg"},{"bike_id":"081f780a-421e-4d29-9981-68dbb84da5f6","system_id":"levelo_inurba_marseille","lat":43.31767,"lon":5.39009,"is_reserved":false,"is_disabled":false,"rental_uris":{"android":"levelo://app?vid=081f780a-421e-4d29-9981-68dbb84da5f6","ios":"levelo://app?vid=081f780a-421e-4d29-9981-68dbb84da5f6"},"vehicle_type_id":"4","last_reported":1737238071,"current_range_meters":38400,"station_id":"ce4bhqp2rcd13ifvqhng","pricing_plan_id":"cebpf4jnsgd1na2vs0mg"},{"bike_id":"86b1129b-34c7-4cb1-acb7-46aa8942c62c","system_id":"levelo_inurba_marseille","lat":43.23151,"lon":5.437137,"is_reserved":false,"is_disabled":true,"rental_uris":{"android":"levelo://app?vid=86b1129b-34c7-4cb1-acb7-46aa8942c62c","ios":"levelo://app?vid=86b1129b-34c7-4cb1-acb7-46aa8942c62c"},"vehicle_type_id":"4","last_reported":1737238071,"current_range_meters":0,"station_id":"ce4bhmp2rcd13ifvqgog","pricing_plan_id":"cebpf4jnsgd1na2vs0mg"},{"bike_id":"df254196-93c2-4f0b-8883-ca6ee129655b","system_id":"levelo_inurba_marseille","lat":43.29874,"lon":5.39735,"is_reserved":false,"is_disabled":false,"rental_uris":{"android":"levelo://app?vid=df254196-93c2-4f0b-8883-ca6ee129655b","ios":"levelo://app?vid=df254196-93c2-4f0b-8883-ca6ee129655b"},"vehicle_type_id":"4","last_reported":1737238071,"current_range_meters":16400,"station_id":"ce4bh0h2rcd13ifvqd50","pricing_plan_id":"cebpf4jnsgd1na2vs0mg"},{"bike_id":"f9b109f5-9ce1-42f0-95da-dba427233f44","system_id":"levelo_inurba_marseille","lat":43.28367,"lon":5.3863,"is_reserved":false,"is_disabled":false,"rental_uris":{"android":"levelo://app?vid=f9b109f5-9ce1-42f0-95da-dba427233f44","ios":"levelo://app?vid=f9b109f5-9ce1-42f0-95da-dba427233f44"},"vehicle_type_id":"4","last_reported":1737238071,"current_range_meters":22400,"station_id":"ce4bh492rcd13ifvqdvg","pricing_plan_id":"cebpf4jnsgd1na2vs0mg"},{"bike_id":"688cc673-ef22-4388-a152-d61951072005","system_id":"levelo_inurba_marseille","lat":43.30151,"lon":5.38092,"is_reserved":false,"is_disabled":false,"rental_uris":{"android":"levelo://app?vid=688cc673-ef22-4388-a152-d61951072005","ios":"levelo://app?vid=688cc673-ef22-4388-a152-d61951072005"},"vehicle_type_id":"4","last_reported":1737238071,"current_range_meters":20800,"station_id":"ce4bgjp2rcd13ifvqbh0","pricing_plan_id":"cebpf4jnsgd1na2vs0mg"},{"bike_id":"d9c5424c-2ffb-407d-aa3f-ecdabb59fa0b","system_id":"levelo_inurba_marseille","lat":43.29072,"lon":5.37172,"is_reserved":false,"is_disabled":false,"rental_uris":{"android":"levelo://app?vid=d9c5424c-2ffb-407d-aa3f-ecdabb59fa0b","ios":"levelo://app?vid=d9c5424c-2ffb-407d-aa3f-ecdabb59fa0b"},"vehicle_type_id":"4","last_reported":1737238071,"current_range_meters":20000,"station_id":"ce4bh5p2rcd13ifvqe4g","pricing_plan_id":"cebpf4jnsgd1na2vs0mg"},{"bike_id":"42204394-d4a6-4814-b25b-626fdb434ebb","system_id":"levelo_inurba_marseille","lat":43.29429,"lon":5.38645,"is_reserved":false,"is_disabled":false,"rental_uris":{"android":"levelo://app?vid=42204394-d4a6-4814-b25b-626fdb434ebb","ios":"levelo://app?vid=42204394-d4a6-4814-b25b-626fdb434ebb"},"vehicle_type_id":"4","last_reported":1737238071,"current_range_meters":33600,"station_id":"ce4bh2h2rcd13ifvqdh0","pricing_plan_id":"cebpf4jnsgd1na2vs0mg"},{"bike_id":"c6f874ed-7baa-4ffa-b8dc-93b47368c64c","system_id":"levelo_inurba_marseille","lat":43.2738,"lon":5.36245,"is_reserved":false,"is_disabled":false,"rental_uris":{"android":"levelo://app?vid=c6f874ed-7baa-4ffa-b8dc-93b47368c64c","ios":"levelo://app?vid=c6f874ed-7baa-4ffa-b8dc-93b47368c64c"},"vehicle_type_id":"4","last_reported":1737238071,"current_range_meters":34800,"station_id":"ce4bhbh2rcd13ifvqeo0","pricing_plan_id":"cebpf4jnsgd1na2vs0mg"},{"bike_id":"82eafdac-bd81-479d-a7b0-05db8ca76c26","system_id":"levelo_inurba_marseille","lat":43.25835,"lon":5.39425,"is_reserved":false,"is_disabled":true,"rental_uris":{"android":"levelo://app?vid=82eafdac-bd81-479d-a7b0-05db8ca76c26","ios":"levelo://app?vid=82eafdac-bd81-479d-a7b0-05db8ca76c26"},"vehicle_type_id":"4","last_reported":1737238071,"current_range_meters":0,"station_id":"ce4bhip2rcd13ifvqft0","pricing_plan_id":"cebpf4jnsgd1na2vs0mg"},{"bike_id":"69f71ef4-35ff-491f-b999-c5850f4e11bb","system_id":"levelo_inurba_marseille","lat":43.29424,"lon":5.38629,"is_reserved":false,"is_disabled":false,"rental_uris":{"android":"levelo://app?vid=69f71ef4-35ff-491f-b999-c5850f4e11bb","ios":"levelo://app?vid=69f71ef4-35ff-491f-b999-c5850f4e11bb"},"vehicle_type_id":"4","last_reported":1737238071,"current_range_meters":24400,"station_id":"ce4bh2h2rcd13ifvqdh0","pricing_plan_id":"cebpf4jnsgd1na2vs0mg"},{"bike_id":"6db7ac2a-936b-4934-bdad-0738a951388e","system_id":"levelo_inurba_marseille","lat":43.26573,"lon":5.39027,"is_reserved":false,"is_disabled":false,"rental_uris":{"android":"levelo://app?vid=6db7ac2a-936b-4934-bdad-0738a951388e","ios":"levelo://app?vid=6db7ac2a-936b-4934-bdad-0738a951388e"},"vehicle_type_id":"4","last_reported":1737238071,"current_range_meters":5600,"station_id":"ce4bhe12rcd13ifvqf30","pricing_plan_id":"cebpf4jnsgd1na2vs0mg"},{"bike_id":"972c71e5-5cf6-4ecf-a311-8fa3e424184d","system_id":"levelo_inurba_marseille","lat":43.292768,"lon":5.368418,"is_reserved":false,"is_disabled":false,"rental_uris":{"android":"levelo://app?vid=972c71e5-5cf6-4ecf-a311-8fa3e424184d","ios":"levelo://app?vid=972c71e5-5cf6-4ecf-a311-8fa3e424184d"},"vehicle_type_id":"4","last_reported":1737238071,"current_range_meters":7200,"station_id":"ce4bgj12rcd13ifvqbc0","pricing_plan_id":"cebpf4jnsgd1na2vs0mg"},{"bike_id":"387cb17c-ea72-44c0-b614-989199419728","system_id":"levelo_inurba_marseille","lat":43.292,"lon":5.35799,"is_reserved":false,"is_disabled":false,"rental_uris":{"android":"levelo://app?vid=387cb17c-ea72-44c0-b614-989199419728","ios":"levelo://app?vid=387cb17c-ea72-44c0-b614-989199419728"},"vehicle_type_id":"4","last_reported":1737238071,"current_range_meters":9600,"station_id":"ce4bhb12rcd13ifvqel0","pricing_plan_id":"cebpf4jnsgd1na2vs0mg"},{"bike_id":"2103abe2-9fd0-488f-8733-0bd839f69edc","system_id":"levelo_inurba_marseille","lat":43.302,"lon":5.38091,"is_reserved":false,"is_disabled":false,"rental_uris":{"android":"levelo://app?vid=2103abe2-9fd0-488f-8733-0bd839f69edc","ios":"levelo://app?vid=2103abe2-9fd0-488f-8733-0bd839f69edc"},"vehicle_type_id":"4","last_reported":1737238071,"current_range_meters":36000,"station_id":"ce4bgjp2rcd13ifvqbh0","pricing_plan_id":"cebpf4jnsgd1na2vs0mg"},{"bike_id":"e57099b8-cfdc-494d-9409-8e8b71418803","system_id":"levelo_inurba_marseille","lat":43.27564,"lon":5.38413,"is_reserved":false,"is_disabled":false,"rental_uris":{"android":"levelo://app?vid=e57099b8-cfdc-494d-9409-8e8b71418803","ios":"levelo://app?vid=e57099b8-cfdc-494d-9409-8e8b71418803"},"vehicle_type_id":"4","last_reported":1737238071,"current_range_meters":35200,"station_id":"ce4bhh92rcd13ifvqfi0","pricing_plan_id":"cebpf4jnsgd1na2vs0mg"},{"bike_id":"201ef190-bc65-44d8-87dd-4fad93cd1337","system_id":"levelo_inurba_marseille","lat":43.29601,"lon":5.38082,"is_reserved":false,"is_disabled":true,"rental_uris":{"android":"levelo://app?vid=201ef190-bc65-44d8-87dd-4fad93cd1337","ios":"levelo://app?vid=201ef190-bc65-44d8-87dd-4fad93cd1337"},"vehicle_type_id":"4","last_reported":1737238071,"current_range_meters":0,"station_id":"ce4bgl12rcd13ifvqbo0","pricing_plan_id":"cebpf4jnsgd1na2vs0mg"},{"bike_id":"f2390374-e060-4fe1-bcfa-cb2711193e58","system_id":"levelo_inurba_marseille","lat":43.25094,"lon":5.39507,"is_reserved":false,"is_disabled":false,"rental_uris":{"android":"levelo://app?vid=f2390374-e060-4fe1-bcfa-cb2711193e58","ios":"levelo://app?vid=f2390374-e060-4fe1-bcfa-cb2711193e58"},"vehicle_type_id":"4","last_reported":1737238071,"current_range_meters":8800,"station_id":"ce4bhm12rcd13ifvqgkg","pricing_plan_id":"cebpf4jnsgd1na2vs0mg"},{"bike_id":"384b1da9-99c3-4d3f-83bc-e4a6e5f7ea9c","system_id":"levelo_inurba_marseille","lat":43.29905,"lon":5.3815,"is_reserved":false,"is_disabled":false,"rental_uris":{"android":"levelo://app?vid=384b1da9-99c3-4d3f-83bc-e4a6e5f7ea9c","ios":"levelo://app?vid=384b1da9-99c3-4d3f-83bc-e4a6e5f7ea9c"},"vehicle_type_id":"4","last_reported":1737238071,"current_range_meters":38400,"station_id":"ce4bgj12rcd13ifvqbc0","pricing_plan_id":"cebpf4jnsgd1na2vs0mg"},{"bike_id":"d922a541-8d59-49fe-8950-daca6d5f04c0","system_id":"levelo_inurba_marseille","lat":43.29249,"lon":5.40919,"is_reserved":false,"is_disabled":false,"rental_uris":{"android":"levelo://app?vid=d922a541-8d59-49fe-8950-daca6d5f04c0","ios":"levelo://app?vid=d922a541-8d59-49fe-8950-daca6d5f04c0"},"vehicle_type_id":"4","last_reported":1737238071,"current_range_meters":37600,"station_id":"ce4bh192rcd13ifvqdc0","pricing_plan_id":"cebpf4jnsgd1na2vs0mg"},{"bike_id":"500603b8-9c9f-45d0-9559-dd810ee253ec","system_id":"levelo_inurba_marseille","lat":43.29275,"lon":5.38441,"is_reserved":false,"is_disabled":false,"rental_uris":{"android":"levelo://app?vid=500603b8-9c9f-45d0-9559-dd810ee253ec","ios":"levelo://app?vid=500603b8-9c9f-45d0-9559-dd810ee253ec"},"vehicle_type_id":"4","last_reported":1737238071,"current_range_meters":27600,"station_id":"ce4bh692rcd13ifvqea0","pricing_plan_id":"cebpf4jnsgd1na2vs0mg"},{"bike_id":"d6161db6-0288-4eaf-b39b-605e25ca46ff","system_id":"levelo_inurba_marseille","lat":43.27429,"lon":5.394,"is_reserved":false,"is_disabled":false,"rental_uris":{"android":"levelo://app?vid=d6161db6-0288-4eaf-b39b-605e25ca46ff","ios":"levelo://app?vid=d6161db6-0288-4eaf-b39b-605e25ca46ff"},"vehicle_type_id":"4","last_reported":1737238071,"current_range_meters":38800,"station_id":"ce4bhdp2rcd13ifvqf20","pricing_plan_id":"cebpf4jnsgd1na2vs0mg"},{"bike_id":"c9c8a602-9d54-4398-b63e-7af6f4a610a5","system_id":"levelo_inurba_marseille","lat":43.30531,"lon":5.38419,"is_reserved":false,"is_disabled":false,"rental_uris":{"android":"levelo://app?vid=c9c8a602-9d54-4398-b63e-7af6f4a610a5","ios":"levelo://app?vid=c9c8a602-9d54-4398-b63e-7af6f4a610a5"},"vehicle_type_id":"4","last_reported":1737238071,"current_range_meters":19600,"station_id":"ce4bgg92rcd13ifvqb30","pricing_plan_id":"cebpf4jnsgd1na2vs0mg"},{"bike_id":"d4ef21e3-2fff-4209-a87c-6f5d806d4929","system_id":"levelo_inurba_marseille","lat":43.28692,"lon":5.38647,"is_reserved":false,"is_disabled":false,"rental_uris":{"android":"levelo://app?vid=d4ef21e3-2fff-4209-a87c-6f5d806d4929","ios":"levelo://app?vid=d4ef21e3-2fff-4209-a87c-6f5d806d4929"},"vehicle_type_id":"4","last_reported":1737238071,"current_range_meters":35600,"station_id":"ce4bh492rcd13ifvqdug","pricing_plan_id":"cebpf4jnsgd1na2vs0mg"},{"bike_id":"286a3f5f-47c7-4d49-b3d9-bdbca78ddca8","system_id":"levelo_inurba_marseille","lat":43.29534,"lon":5.39039,"is_reserved":false,"is_disabled":false,"rental_uris":{"android":"levelo://app?vid=286a3f5f-47c7-4d49-b3d9-bdbca78ddca8","ios":"levelo://app?vid=286a3f5f-47c7-4d49-b3d9-bdbca78ddca8"},"vehicle_type_id":"4","last_reported":1737238071,"current_range_meters":32000,"station_id":"ce4bh3p2rcd13ifvqdp0","pricing_plan_id":"cebpf4jnsgd1na2vs0mg"},{"bike_id":"2a6c8aef-7633-4410-aa65-ead7161fa29b","system_id":"levelo_inurba_marseille","lat":43.3122,"lon":5.36854,"is_reserved":false,"is_disabled":false,"rental_uris":{"android":"levelo://app?vid=2a6c8aef-7633-4410-aa65-ead7161fa29b","ios":"levelo://app?vid=2a6c8aef-7633-4410-aa65-ead7161fa29b"},"vehicle_type_id":"4","last_reported":1737238071,"current_range_meters":36800,"station_id":"ce4bgl92rcd13ifvqbq0","pricing_plan_id":"cebpf4jnsgd1na2vs0mg"},{"bike_id":"0ad2d914-2f22-4b49-b9f5-5caac399b30b","system_id":"levelo_inurba_marseille","lat":43.30888,"lon":5.37197,"is_reserved":false,"is_disabled":false,"rental_uris":{"android":"levelo://app?vid=0ad2d914-2f22-4b49-b9f5-5caac399b30b","ios":"levelo://app?vid=0ad2d914-2f22-4b49-b9f5-5caac399b30b"},"vehicle_type_id":"4","last_reported":1737238071,"current_range_meters":38000,"station_id":"ce4bguh2rcd13ifvqckg","pricing_plan_id":"cebpf4jnsgd1na2vs0mg"},{"bike_id":"1d3dc000-19d5-4e10-a120-c47c29384960","system_id":"levelo_inurba_marseille","lat":43.29976,"lon":5.38496,"is_reserved":false,"is_disabled":false,"rental_uris":{"android":"levelo://app?vid=1d3dc000-19d5-4e10-a120-c47c29384960","ios":"levelo://app?vid=1d3dc000-19d5-4e10-a120-c47c29384960"},"vehicle_type_id":"4","last_reported":1737238071,"current_range_meters":28400,"station_id":"ce4bgj92rcd13ifvqbd0","pricing_plan_id":"cebpf4jnsgd1na2vs0mg"},{"bike_id":"a95248e8-7ba2-479e-9b5c-9fb4d8e98c2b","system_id":"levelo_inurba_marseille","lat":43.280964,"lon":5.421825,"is_reserved":false,"is_disabled":true,"rental_uris":{"android":"levelo://app?vid=a95248e8-7ba2-479e-9b5c-9fb4d8e98c2b","ios":"levelo://app?vid=a95248e8-7ba2-479e-9b5c-9fb4d8e98c2b"},"vehicle_type_id":"4","last_reported":1737238071,"current_range_meters":0,"station_id":"","pricing_plan_id":"cebpf4jnsgd1na2vs0mg"},{"bike_id":"246f2aa1-d855-40ee-b8e2-0e541013d632","system_id":"levelo_inurba_marseille","lat":43.27827,"lon":5.40713,"is_reserved":false,"is_disabled":true,"rental_uris":{"android":"levelo://app?vid=246f2aa1-d855-40ee-b8e2-0e541013d632","ios":"levelo://app?vid=246f2aa1-d855-40ee-b8e2-0e541013d632"},"vehicle_type_id":"4","last_reported":1737238071,"current_range_meters":0,"station_id":"ce4bhnh2rcd13ifvqgtg","pricing_plan_id":"cebpf4jnsgd1na2vs0mg"},{"bike_id":"87cefc3a-e36a-4030-9c3f-9fc87455f3e3","system_id":"levelo_inurba_marseille","lat":43.2738,"lon":5.36244,"is_reserved":false,"is_disabled":false,"rental_uris":{"android":"levelo://app?vid=87cefc3a-e36a-4030-9c3f-9fc87455f3e3","ios":"levelo://app?vid=87cefc3a-e36a-4030-9c3f-9fc87455f3e3"},"vehicle_type_id":"4","last_reported":1737238071,"current_range_meters":38800,"station_id":"ce4bhbh2rcd13ifvqeo0","pricing_plan_id":"cebpf4jnsgd1na2vs0mg"},{"bike_id":"1cd83d06-5980-4320-b952-5d72bcbe2a3f","system_id":"levelo_inurba_marseille","lat":43.31704,"lon":5.37755,"is_reserved":false,"is_disabled":false,"rental_uris":{"android":"levelo://app?vid=1cd83d06-5980-4320-b952-5d72bcbe2a3f","ios":"levelo://app?vid=1cd83d06-5980-4320-b952-5d72bcbe2a3f"},"vehicle_type_id":"4","last_reported":1737238071,"current_range_meters":36000,"station_id":"ce4bgth2rcd13ifvqch0","pricing_plan_id":"cebpf4jnsgd1na2vs0mg"},{"bike_id":"c5fd4115-ef9b-417b-9a07-50ba619cdb53","system_id":"levelo_inurba_marseille","lat":43.3021,"lon":5.39473,"is_reserved":false,"is_disabled":false,"rental_uris":{"android":"levelo://app?vid=c5fd4115-ef9b-417b-9a07-50ba619cdb53","ios":"levelo://app?vid=c5fd4115-ef9b-417b-9a07-50ba619cdb53"},"vehicle_type_id":"4","last_reported":1737238071,"current_range_meters":35600,"station_id":"ce4bh0p2rcd13ifvqd70","pricing_plan_id":"cebpf4jnsgd1na2vs0mg"},{"bike_id":"31299844-262c-4682-99b0-615cb1ab11a2","system_id":"levelo_inurba_marseille","lat":43.27494,"lon":5.42468,"is_reserved":false,"is_disabled":false,"rental_uris":{"android":"levelo://app?vid=31299844-262c-4682-99b0-615cb1ab11a2","ios":"levelo://app?vid=31299844-262c-4682-99b0-615cb1ab11a2"},"vehicle_type_id":"4","last_reported":1737238071,"current_range_meters":38800,"station_id":"ce4bhn92rcd13ifvqgrg","pricing_plan_id":"cebpf4jnsgd1na2vs0mg"},{"bike_id":"e7dfc62b-b2ec-4628-bfba-59c142a224b5","system_id":"levelo_inurba_marseille","lat":43.26503,"lon":5.3954,"is_reserved":false,"is_disabled":false,"rental_uris":{"android":"levelo://app?vid=e7dfc62b-b2ec-4628-bfba-59c142a224b5","ios":"levelo://app?vid=e7dfc62b-b2ec-4628-bfba-59c142a224b5"},"vehicle_type_id":"4","last_reported":1737238071,"current_range_meters":23200,"station_id":"ce4bhi12rcd13ifvqfq0","pricing_plan_id":"cebpf4jnsgd1na2vs0mg"},{"bike_id":"4abb63f6-cf8d-4c9e-a79f-9848d6633504","system_id":"levelo_inurba_marseille","lat":43.26559,"lon":5.37297,"is_reserved":false,"is_disabled":false,"rental_uris":{"android":"levelo://app?vid=4abb63f6-cf8d-4c9e-a79f-9848d6633504","ios":"levelo://app?vid=4abb63f6-cf8d-4c9e-a79f-9848d6633504"},"vehicle_type_id":"4","last_reported":1737238071,"current_range_meters":26800,"station_id":"ce4bhg12rcd13ifvqf70","pricing_plan_id":"cebpf4jnsgd1na2vs0mg"},{"bike_id":"125233ef-9488-442d-826b-6e0d018c02e2","system_id":"levelo_inurba_marseille","lat":43.29561,"lon":5.37513,"is_reserved":false,"is_disabled":false,"rental_uris":{"android":"levelo://app?vid=125233ef-9488-442d-826b-6e0d018c02e2","ios":"levelo://app?vid=125233ef-9488-442d-826b-6e0d018c02e2"},"vehicle_type_id":"4","last_reported":1737238071,"current_range_meters":33600,"station_id":"ce4bgh92rcd13ifvqb50","pricing_plan_id":"cebpf4jnsgd1na2vs0mg"},{"bike_id":"2189f33e-4cfd-4f76-9d91-913095d551c4","system_id":"levelo_inurba_marseille","lat":43.30364,"lon":5.39084,"is_reserved":false,"is_disabled":true,"rental_uris":{"android":"levelo://app?vid=2189f33e-4cfd-4f76-9d91-913095d551c4","ios":"levelo://app?vid=2189f33e-4cfd-4f76-9d91-913095d551c4"},"vehicle_type_id":"4","last_reported":1737238071,"current_range_meters":0,"station_id":"","pricing_plan_id":"cebpf4jnsgd1na2vs0mg"},{"bike_id":"05e1b56c-9e94-4c1a-89aa-a1e7162cbe07","system_id":"levelo_inurba_marseille","lat":43.27673,"lon":5.38895,"is_reserved":false,"is_disabled":false,"rental_uris":{"android":"levelo://app?vid=05e1b56c-9e94-4c1a-89aa-a1e7162cbe07","ios":"levelo://app?vid=05e1b56c-9e94-4c1a-89aa-a1e7162cbe07"},"vehicle_type_id":"4","last_reported":1737238071,"current_range_meters":21600,"station_id":"ce4bhi12rcd13ifvqfo0","pricing_plan_id":"cebpf4jnsgd1na2vs0mg"},{"bike_id":"32cafa81-b66f-4e05-ad24-5f68ea8a96a3","system_id":"levelo_inurba_marseille","lat":43.26209,"lon":5.37455,"is_reserved":false,"is_disabled":true,"rental_uris":{"android":"levelo://app?vid=32cafa81-b66f-4e05-ad24-5f68ea8a96a3","ios":"levelo://app?vid=32cafa81-b66f-4e05-ad24-5f68ea8a96a3"},"vehicle_type_id":"4","last_reported":1737238071,"current_range_meters":0,"station_id":"ce4bhgp2rcd13ifvqfc0","pricing_plan_id":"cebpf4jnsgd1na2vs0mg"},{"bike_id":"cb048100-ca4b-4bf8-8646-64de4d3c140a","system_id":"levelo_inurba_marseille","lat":43.30155,"lon":5.38079,"is_reserved":false,"is_disabled":false,"rental_uris":{"android":"levelo://app?vid=cb048100-ca4b-4bf8-8646-64de4d3c140a","ios":"levelo://app?vid=cb048100-ca4b-4bf8-8646-64de4d3c140a"},"vehicle_type_id":"4","last_reported":1737238071,"current_range_meters":34000,"station_id":"ce4bgjp2rcd13ifvqbh0","pricing_plan_id":"cebpf4jnsgd1na2vs0mg"},{"bike_id":"541b7769-8083-411e-ad4d-d20a4dfa7b91","system_id":"levelo_inurba_marseille","lat":43.31277,"lon":5.40166,"is_reserved":false,"is_disabled":false,"rental_uris":{"android":"levelo://app?vid=541b7769-8083-411e-ad4d-d20a4dfa7b91","ios":"levelo://app?vid=541b7769-8083-411e-ad4d-d20a4dfa7b91"},"vehicle_type_id":"4","last_reported":1737238071,"current_range_meters":38400,"station_id":"ce4bh092rcd13ifvqd30","pricing_plan_id":"cebpf4jnsgd1na2vs0mg"},{"bike_id":"298d2613-8659-4565-ade6-d6e216e8e84d","system_id":"levelo_inurba_marseille","lat":43.25819,"lon":5.39439,"is_reserved":false,"is_disabled":false,"rental_uris":{"android":"levelo://app?vid=298d2613-8659-4565-ade6-d6e216e8e84d","ios":"levelo://app?vid=298d2613-8659-4565-ade6-d6e216e8e84d"},"vehicle_type_id":"4","last_reported":1737238071,"current_range_meters":36800,"station_id":"ce4bhip2rcd13ifvqft0","pricing_plan_id":"cebpf4jnsgd1na2vs0mg"},{"bike_id":"657f2bf7-8ff3-40a4-a52e-be51e993c2cc","system_id":"levelo_inurba_marseille","lat":43.29875,"lon":5.3974,"is_reserved":false,"is_disabled":false,"rental_uris":{"android":"levelo://app?vid=657f2bf7-8ff3-40a4-a52e-be51e993c2cc","ios":"levelo://app?vid=657f2bf7-8ff3-40a4-a52e-be51e993c2cc"},"vehicle_type_id":"4","last_reported":1737238071,"current_range_meters":27600,"station_id":"ce4bh0h2rcd13ifvqd50","pricing_plan_id":"cebpf4jnsgd1na2vs0mg"},{"bike_id":"4307ba4a-6a01-4216-84e6-b8579304ca0c","system_id":"levelo_inurba_marseille","lat":43.28858,"lon":5.35842,"is_reserved":false,"is_disabled":false,"rental_uris":{"android":"levelo://app?vid=4307ba4a-6a01-4216-84e6-b8579304ca0c","ios":"levelo://app?vid=4307ba4a-6a01-4216-84e6-b8579304ca0c"},"vehicle_type_id":"4","last_reported":1737238071,"current_range_meters":30800,"station_id":"ce4bhb12rcd13ifvqem0","pricing_plan_id":"cebpf4jnsgd1na2vs0mg"},{"bike_id":"0d5bf58b-8962-4322-87c4-754920ec04ac","system_id":"levelo_inurba_marseille","lat":43.31184,"lon":5.38722,"is_reserved":false,"is_disabled":true,"rental_uris":{"android":"levelo://app?vid=0d5bf58b-8962-4322-87c4-754920ec04ac","ios":"levelo://app?vid=0d5bf58b-8962-4322-87c4-754920ec04ac"},"vehicle_type_id":"4","last_reported":1737238071,"current_range_meters":35200,"station_id":"ce4bgv12rcd13ifvqcp0","pricing_plan_id":"cebpf4jnsgd1na2vs0mg"},{"bike_id":"c92cbb9f-5a8c-4f30-b00a-221ba31b944d","system_id":"levelo_inurba_marseille","lat":43.28427,"lon":5.34988,"is_reserved":false,"is_disabled":true,"rental_uris":{"android":"levelo://app?vid=c92cbb9f-5a8c-4f30-b00a-221ba31b944d","ios":"levelo://app?vid=c92cbb9f-5a8c-4f30-b00a-221ba31b944d"},"vehicle_type_id":"4","last_reported":1737238071,"current_range_meters":34000,"station_id":"ce4bhbh2rcd13ifvqepg","pricing_plan_id":"cebpf4jnsgd1na2vs0mg"},{"bike_id":"b07a2c61-6d2d-4f19-a81d-a0af761342e3","system_id":"levelo_inurba_marseille","lat":43.29552,"lon":5.42271,"is_reserved":false,"is_disabled":false,"rental_uris":{"android":"levelo://app?vid=b07a2c61-6d2d-4f19-a81d-a0af761342e3","ios":"levelo://app?vid=b07a2c61-6d2d-4f19-a81d-a0af761342e3"},"vehicle_type_id":"4","last_reported":1737238071,"current_range_meters":11600,"station_id":"ce4bhph2rcd13ifvqhdg","pricing_plan_id":"cebpf4jnsgd1na2vs0mg"},{"bike_id":"3eb716c7-166a-40d7-a462-572386902604","system_id":"levelo_inurba_marseille","lat":43.30802,"lon":5.38165,"is_reserved":false,"is_disabled":false,"rental_uris":{"android":"levelo://app?vid=3eb716c7-166a-40d7-a462-572386902604","ios":"levelo://app?vid=3eb716c7-166a-40d7-a462-572386902604"},"vehicle_type_id":"4","last_reported":1737238071,"current_range_meters":38800,"station_id":"ce4bgt12rcd13ifvqce0","pricing_plan_id":"cebpf4jnsgd1na2vs0mg"},{"bike_id":"2aa7af5c-8cdd-4fa3-b9ba-896e4268a6da","system_id":"levelo_inurba_marseille","lat":43.29535,"lon":5.38534,"is_reserved":false,"is_disabled":false,"rental_uris":{"android":"levelo://app?vid=2aa7af5c-8cdd-4fa3-b9ba-896e4268a6da","ios":"levelo://app?vid=2aa7af5c-8cdd-4fa3-b9ba-896e4268a6da"},"vehicle_type_id":"4","last_reported":1737238071,"current_range_meters":20000,"station_id":"ce4bgih2rcd13ifvqba0","pricing_plan_id":"cebpf4jnsgd1na2vs0mg"},{"bike_id":"fe90f7a6-3920-456a-9451-50d213b7000f","system_id":"levelo_inurba_marseille","lat":43.28464,"lon":5.38448,"is_reserved":false,"is_disabled":true,"rental_uris":{"android":"levelo://app?vid=fe90f7a6-3920-456a-9451-50d213b7000f","ios":"levelo://app?vid=fe90f7a6-3920-456a-9451-50d213b7000f"},"vehicle_type_id":"4","last_reported":1737238071,"current_range_meters":35600,"station_id":"ce4bh512rcd13ifvqe3g","pricing_plan_id":"cebpf4jnsgd1na2vs0mg"},{"bike_id":"7c4642a0-e500-418f-b036-6d89abb66298","system_id":"levelo_inurba_marseille","lat":43.30156,"lon":5.38075,"is_reserved":false,"is_disabled":false,"rental_uris":{"android":"levelo://app?vid=7c4642a0-e500-418f-b036-6d89abb66298","ios":"levelo://app?vid=7c4642a0-e500-418f-b036-6d89abb66298"},"vehicle_type_id":"4","last_reported":1737238071,"current_range_meters":38000,"station_id":"ce4bgjp2rcd13ifvqbh0","pricing_plan_id":"cebpf4jnsgd1na2vs0mg"},{"bike_id":"4eadf36c-a133-47d0-834f-7163aa503c9b","system_id":"levelo_inurba_marseille","lat":43.28471,"lon":5.3844,"is_reserved":false,"is_disabled":false,"rental_uris":{"android":"levelo://app?vid=4eadf36c-a133-47d0-834f-7163aa503c9b","ios":"levelo://app?vid=4eadf36c-a133-47d0-834f-7163aa503c9b"},"vehicle_type_id":"4","last_reported":1737238071,"current_range_meters":38800,"station_id":"ce4bh512rcd13ifvqe3g","pricing_plan_id":"cebpf4jnsgd1na2vs0mg"},{"bike_id":"a1993e4b-dda2-4a49-8512-d9258ad20858","system_id":"levelo_inurba_marseille","lat":43.292676,"lon":5.384328,"is_reserved":false,"is_disabled":false,"rental_uris":{"android":"levelo://app?vid=a1993e4b-dda2-4a49-8512-d9258ad20858","ios":"levelo://app?vid=a1993e4b-dda2-4a49-8512-d9258ad20858"},"vehicle_type_id":"4","last_reported":1737238071,"current_range_meters":30000,"station_id":"ce4bh692rcd13ifvqea0","pricing_plan_id":"cebpf4jnsgd1na2vs0mg"},{"bike_id":"aeeb7245-8a7c-4b79-b9ac-efca69f7818a","system_id":"levelo_inurba_marseille","lat":43.32087,"lon":5.36791,"is_reserved":false,"is_disabled":false,"rental_uris":{"android":"levelo://app?vid=aeeb7245-8a7c-4b79-b9ac-efca69f7818a","ios":"levelo://app?vid=aeeb7245-8a7c-4b79-b9ac-efca69f7818a"},"vehicle_type_id":"4","last_reported":1737238071,"current_range_meters":24000,"station_id":"ce4bhrh2rcd13ifvqhug","pricing_plan_id":"cebpf4jnsgd1na2vs0mg"},{"bike_id":"e59132bf-d5af-4c44-a851-13136e4ee027","system_id":"levelo_inurba_marseille","lat":43.29808,"lon":5.38095,"is_reserved":false,"is_disabled":false,"rental_uris":{"android":"levelo://app?vid=e59132bf-d5af-4c44-a851-13136e4ee027","ios":"levelo://app?vid=e59132bf-d5af-4c44-a851-13136e4ee027"},"vehicle_type_id":"4","last_reported":1737238071,"current_range_meters":38000,"station_id":"ce4bgip2rcd13ifvqbb0","pricing_plan_id":"cebpf4jnsgd1na2vs0mg"},{"bike_id":"72228094-49b3-460e-b831-c519bdace46a","system_id":"levelo_inurba_marseille","lat":43.29167,"lon":5.37153,"is_reserved":false,"is_disabled":false,"rental_uris":{"android":"levelo://app?vid=72228094-49b3-460e-b831-c519bdace46a","ios":"levelo://app?vid=72228094-49b3-460e-b831-c519bdace46a"},"vehicle_type_id":"4","last_reported":1737238071,"current_range_meters":39200,"station_id":"ce4bha92rcd13ifvqeh0","pricing_plan_id":"cebpf4jnsgd1na2vs0mg"},{"bike_id":"c061ede7-b3fd-444f-a23f-99070886db7b","system_id":"levelo_inurba_marseille","lat":43.29421,"lon":5.38647,"is_reserved":false,"is_disabled":false,"rental_uris":{"android":"levelo://app?vid=c061ede7-b3fd-444f-a23f-99070886db7b","ios":"levelo://app?vid=c061ede7-b3fd-444f-a23f-99070886db7b"},"vehicle_type_id":"4","last_reported":1737238071,"current_range_meters":24000,"station_id":"ce4bh2h2rcd13ifvqdh0","pricing_plan_id":"cebpf4jnsgd1na2vs0mg"},{"bike_id":"a9a0e60f-8e94-490a-988c-5a9cfc45d626","system_id":"levelo_inurba_marseille","lat":43.24161,"lon":5.36416,"is_reserved":false,"is_disabled":false,"rental_uris":{"android":"levelo://app?vid=a9a0e60f-8e94-490a-988c-5a9cfc45d626","ios":"levelo://app?vid=a9a0e60f-8e94-490a-988c-5a9cfc45d626"},"vehicle_type_id":"4","last_reported":1737238071,"current_range_meters":9600,"station_id":"cpo36qri1sfpv3e86is0","pricing_plan_id":"cebpf4jnsgd1na2vs0mg"},{"bike_id":"cb6ebb97-4c0f-402f-8b52-501a56fedcec","system_id":"levelo_inurba_marseille","lat":43.29535,"lon":5.38556,"is_reserved":false,"is_disabled":false,"rental_uris":{"android":"levelo://app?vid=cb6ebb97-4c0f-402f-8b52-501a56fedcec","ios":"levelo://app?vid=cb6ebb97-4c0f-402f-8b52-501a56fedcec"},"vehicle_type_id":"4","last_reported":1737238071,"current_range_meters":11200,"station_id":"ce4bgih2rcd13ifvqba0","pricing_plan_id":"cebpf4jnsgd1na2vs0mg"},{"bike_id":"e897cb09-9f73-4379-a826-e76b8cb794ba","system_id":"levelo_inurba_marseille","lat":43.29793,"lon":5.39346,"is_reserved":false,"is_disabled":false,"rental_uris":{"android":"levelo://app?vid=e897cb09-9f73-4379-a826-e76b8cb794ba","ios":"levelo://app?vid=e897cb09-9f73-4379-a826-e76b8cb794ba"},"vehicle_type_id":"4","last_reported":1737238071,"current_range_meters":22400,"station_id":"chh1huq6cuj3fo74tm60","pricing_plan_id":"cebpf4jnsgd1na2vs0mg"},{"bike_id":"5136cca2-dc79-42d5-a096-5120a2626c68","system_id":"levelo_inurba_marseille","lat":43.30952,"lon":5.40155,"is_reserved":false,"is_disabled":false,"rental_uris":{"android":"levelo://app?vid=5136cca2-dc79-42d5-a096-5120a2626c68","ios":"levelo://app?vid=5136cca2-dc79-42d5-a096-5120a2626c68"},"vehicle_type_id":"4","last_reported":1737238071,"current_range_meters":38800,"station_id":"ce4bgvp2rcd13ifvqct0","pricing_plan_id":"cebpf4jnsgd1na2vs0mg"},{"bike_id":"76dbf6ef-b4a8-4cef-8918-462b67116819","system_id":"levelo_inurba_marseille","lat":43.32293,"lon":5.38257,"is_reserved":false,"is_disabled":false,"rental_uris":{"android":"levelo://app?vid=76dbf6ef-b4a8-4cef-8918-462b67116819","ios":"levelo://app?vid=76dbf6ef-b4a8-4cef-8918-462b67116819"},"vehicle_type_id":"4","last_reported":1737238071,"current_range_meters":38800,"station_id":"ce4bhr12rcd13ifvqhqg","pricing_plan_id":"cebpf4jnsgd1na2vs0mg"},{"bike_id":"57198719-926f-40a5-bdfa-a0e2303ea3cd","system_id":"levelo_inurba_marseille","lat":43.2587,"lon":5.39914,"is_reserved":false,"is_disabled":false,"rental_uris":{"android":"levelo://app?vid=57198719-926f-40a5-bdfa-a0e2303ea3cd","ios":"levelo://app?vid=57198719-926f-40a5-bdfa-a0e2303ea3cd"},"vehicle_type_id":"4","last_reported":1737238071,"current_range_meters":38800,"station_id":"ce4bhl92rcd13ifvqghg","pricing_plan_id":"cebpf4jnsgd1na2vs0mg"},{"bike_id":"44dc9988-8dc0-4184-aa28-307c0682adeb","system_id":"levelo_inurba_marseille","lat":43.29434,"lon":5.38636,"is_reserved":false,"is_disabled":false,"rental_uris":{"android":"levelo://app?vid=44dc9988-8dc0-4184-aa28-307c0682adeb","ios":"levelo://app?vid=44dc9988-8dc0-4184-aa28-307c0682adeb"},"vehicle_type_id":"4","last_reported":1737238071,"current_range_meters":32000,"station_id":"ce4bh2h2rcd13ifvqdh0","pricing_plan_id":"cebpf4jnsgd1na2vs0mg"},{"bike_id":"8c79a501-1f9a-49ec-b787-7aa7d6b56a53","system_id":"levelo_inurba_marseille","lat":43.3042,"lon":5.41277,"is_reserved":false,"is_disabled":false,"rental_uris":{"android":"levelo://app?vid=8c79a501-1f9a-49ec-b787-7aa7d6b56a53","ios":"levelo://app?vid=8c79a501-1f9a-49ec-b787-7aa7d6b56a53"},"vehicle_type_id":"4","last_reported":1737238071,"current_range_meters":36800,"station_id":"ce4bhop2rcd13ifvqh8g","pricing_plan_id":"cebpf4jnsgd1na2vs0mg"},{"bike_id":"5539b369-041f-4e38-b0f8-84b8e3d28513","system_id":"levelo_inurba_marseille","lat":43.29243,"lon":5.38448,"is_reserved":false,"is_disabled":false,"rental_uris":{"android":"levelo://app?vid=5539b369-041f-4e38-b0f8-84b8e3d28513","ios":"levelo://app?vid=5539b369-041f-4e38-b0f8-84b8e3d28513"},"vehicle_type_id":"4","last_reported":1737238071,"current_range_meters":16800,"station_id":"ce4bh692rcd13ifvqea0","pricing_plan_id":"cebpf4jnsgd1na2vs0mg"},{"bike_id":"a6614ad9-36c5-4782-88c4-6856e10e703c","system_id":"levelo_inurba_marseille","lat":43.3149,"lon":5.37304,"is_reserved":false,"is_disabled":false,"rental_uris":{"android":"levelo://app?vid=a6614ad9-36c5-4782-88c4-6856e10e703c","ios":"levelo://app?vid=a6614ad9-36c5-4782-88c4-6856e10e703c"},"vehicle_type_id":"4","last_reported":1737238071,"current_range_meters":37600,"station_id":"ce4bgt12rcd13ifvqcd0","pricing_plan_id":"cebpf4jnsgd1na2vs0mg"},{"bike_id":"50267a36-8428-4ee1-ac27-ac6a771a71af","system_id":"levelo_inurba_marseille","lat":43.33718,"lon":5.35595,"is_reserved":false,"is_disabled":false,"rental_uris":{"android":"levelo://app?vid=50267a36-8428-4ee1-ac27-ac6a771a71af","ios":"levelo://app?vid=50267a36-8428-4ee1-ac27-ac6a771a71af"},"vehicle_type_id":"4","last_reported":1737238071,"current_range_meters":8400,"station_id":"","pricing_plan_id":"cebpf4jnsgd1na2vs0mg"},