{"last_updated":1747325606,"ttl":60,"version":"2.2","data":{"bikes":[{"bike_id":"c0b9fd4f-e181-46ce-b0bf-f5119973334f","system_id":"levelo_inurba_marseille","lat":43.33771,"lon":5.37424,"is_reserved":false,"is_disabled":false,"rental_uris":{"android":"levelo://app?vid=c0b9fd4f-e181-46ce-b0bf-f5119973334f","ios":"levelo://app?vid=c0b9fd4f-e181-46ce-b0bf-f5119973334f"},"vehicle_type_id":"4","last_reported":1747325606,"current_range_meters":14000,"station_id":"","pricing_plan_id":"cebpf4jnsgd1na2vs0mg"},{"bike_id":"fc2577e7-1497-425b-9d4f-ab8d7dc843c6","system_id":"levelo_inurba_marseille","lat":43.33771,"lon":5.37485,"is_reserved":false,"is_disabled":true,"rental_uris":{"android":"levelo://app?vid=fc2577e7-1497-425b-9d4f-ab8d7dc843c6","ios":"levelo://app?vid=fc2577e7-1497-425b-9d4f-ab8d7dc843c6"},"vehicle_type_id":"4","last_reported":1747325606,"current_range_meters":0,"station_id":"","pricing_plan_id":"cebpf4jnsgd1na2vs0mg"},{"bike_id":"893cee9f-22ed-4823-82b3-4da288b81784","system_id":"levelo_inurba_marseille","lat":43.31807,"lon":5.36943,"is_reserved":false,"is_disabled":true,"rental_uris":{"android":"levelo://app?vid=893cee9f-22ed-4823-82b3-4da288b81784","ios":"levelo://app?vid=893cee9f-22ed-4823-82b3-4da288b81784"},"vehicle_type_id":"4","last_reported":1747325606,"current_range_meters":0,"station_id":"","pricing_plan_id":"cebpf4jnsgd1na2vs0mg"},{"bike_id":"2b8fbf5f-4106-421b-bd48-29543ccb14db","system_id":"levelo_inurba_marseille","lat":43.23707,"lon":5.36297,"is_reserved":false,"is_disabled":true,"rental_uris":{"android":"levelo://app?vid=2b8fbf5f-4106-421b-bd48-29543ccb14db","ios":"levelo://app?vid=2b8fbf5f-4106-421b-bd48-29543ccb14db"},"vehicle_type_id":"4","last_reported":1747325606,"current_range_meters":0,"station_id":"","pricing_plan_id":"cebpf4jnsgd1na2vs0mg"},{"bike_id":"772b6fff-1447-445e-950b-c2e27d6bb6b1","system_id":"levelo_inurba_marseille","lat":43.31162,"lon":5.3758,"is_reserved":false,"is_disabled":true,"rental_uris":{"android":"levelo://app?vid=772b6fff-1447-445e-950b-c2e27d6bb6b1","ios":"levelo://app?vid=772b6fff-1447-445e-950b-c2e27d6bb6b1"},"vehicle_type_id":"4","last_reported":1747325606,"current_range_meters":0,"station_id":"","pricing_plan_id":"cebpf4jnsgd1na2vs0mg"},{"bike_id":"792567c6-0442-4011-aff0-9c05e25deb48","system_id":"levelo_inurba_marseille","lat":43.337444,"lon":5.374475,"is_reserved":false,"is_disabled":true,"rental_uris":{"android":"levelo://app?vid=792567c6-0442-4011-aff0-9c05e25deb48","ios":"levelo://app?vid=792567c6-0442-4011-aff0-9c05e25deb48"},"vehicle_type_id":"4","last_reported":1747325606,"current_range_meters":0,"station_id":"","pricing_plan_id":"cebpf4jnsgd1na2vs0mg"},{"bike_id":"d04e4038-14b2-48cd-ae33-a2234171bb1e","system_id":"levelo_inurba_marseille","lat":43.30165,"lon":5.37541,"is_reserved":false,"is_disabled":true,"rental_uris":{"android":"levelo://app?vid=d04e4038-14b2-48cd-ae33-a2234171bb1e","ios":"levelo://app?vid=d04e4038-14b2-48cd-ae33-a2234171bb1e"},"vehicle_type_id":"4","last_reported":1747325606,"current_range_meters":0,"station_id":"","pricing_plan_id":"cebpf4jnsgd1na2vs0mg"},{"bike_id":"81600214-b984-4604-993b-67bf5b44d8a2","system_id":"levelo_inurba_marseille","lat":43.29935,"lon":5.37479,"is_reserved":false,"is_disabled":true,"rental_uris":{"android":"levelo://app?vid=81600214-b984-4604-993b-67bf5b44d8a2","ios":"levelo://app?vid=81600214-b984-4604-993b-67bf5b44d8a2"},"vehicle_type_id":"4","last_reported":1747325606,"current_range_meters":0,"station_id":"ce4bgjh2rcd13ifvqbg0","pricing_plan_id":"cebpf4jnsgd1na2vs0mg"},{"bike_id":"0b9aeeb7-6371-4d0d-8ffa-abe03cb9d032","system_id":"levelo_inurba_marseille","lat":43.30661,"lon":5.40078,"is_reserved":false,"is_disabled":true,"rental_uris":{"android":"levelo://app?vid=0b9aeeb7-6371-4d0d-8ffa-abe03cb9d032","ios":"levelo://app?vid=0b9aeeb7-6371-4d0d-8ffa-abe03cb9d032"},"vehicle_type_id":"4","last_reported":1747325606,"current_range_meters":0,"station_id":"ce4bh112rcd13ifvqda0","pricing_plan_id":"cebpf4jnsgd1na2vs0mg"},{"bike_id":"e4c31c97-b11f-42d4-aaed-d58b40cc87d9","system_id":"levelo_inurba_marseille","lat":43.2927,"lon":5.40115,"is_reserved":false,"is_disabled":true,"rental_uris":{"android":"levelo://app?vid=e4c31c97-b11f-42d4-aaed-d58b40cc87d9","ios":"levelo://app?vid=e4c31c97-b11f-42d4-aaed-d58b40cc87d9"},"vehicle_type_id":"4","last_reported":1747325606,"current_range_meters":0,"station_id":"ce4bh312rcd13ifvqdk0","pricing_plan_id":"cebpf4jnsgd1na2vs0mg"},{"bike_id":"25d0b68f-086c-424f-b90e-7187cf8ebc20","system_id":"levelo_inurba_marseille","lat":43.29275,"lon":5.40113,"is_reserved":false,"is_disabled":true,"rental_uris":{"android":"levelo://app?vid=25d0b68f-086c-424f-b90e-7187cf8ebc20","ios":"levelo://app?vid=25d0b68f-086c-424f-b90e-7187cf8ebc20"},"vehicle_type_id":"4","last_reported":1747325606,"current_range_meters":0,"station_id":"ce4bh312rcd13ifvqdk0","pricing_plan_id":"cebpf4jnsgd1na2vs0mg"},{"bike_id":"c8d64370-b2e0-4ff3-b1f0-e9ac53835d5a","system_id":"levelo_inurba_marseille","lat":43.29274,"lon":5.40113,"is_reserved":false,"is_disabled":true,"rental_uris":{"android":"levelo://app?vid=c8d64370-b2e0-4ff3-b1f0-e9ac53835d5a","ios":"levelo://app?vid=c8d64370-b2e0-4ff3-b1f0-e9ac53835d5a"},"vehicle_type_id":"4","last_reported":1747325606,"current_range_meters":0,"station_id":"ce4bh312rcd13ifvqdk0","pricing_plan_id":"cebpf4jnsgd1na2vs0mg"},{"bike_id":"dc6e8d5c-f080-4156-b5a2-6b6aec99e20f","system_id":"levelo_inurba_marseille","lat":43.29526,"lon":5.39031,"is_reserved":false,"is_disabled":true,"rental_uris":{"android":"levelo://app?vid=dc6e8d5c-f080-4156-b5a2-6b6aec99e20f","ios":"levelo://app?vid=dc6e8d5c-f080-4156-b5a2-6b6aec99e20f"},"vehicle_type_id":"4","last_reported":1747325606,"current_range_meters":0,"station_id":"ce4bh3p2rcd13ifvqdp0","pricing_plan_id":"cebpf4jnsgd1na2vs0mg"},{"bike_id":"0674e120-9768-449d-9444-2ceeb79ebf96","system_id":"levelo_inurba_marseille","lat":43.28698,"lon":5.37393,"is_reserved":false,"is_disabled":true,"rental_uris":{"android":"levelo://app?vid=0674e120-9768-449d-9444-2ceeb79ebf96","ios":"levelo://app?vid=0674e120-9768-449d-9444-2ceeb79ebf96"},"vehicle_type_id":"4","last_reported":1747325606,"current_range_meters":0,"station_id":"ce4bh3p2rcd13ifvqdq0","pricing_plan_id":"cebpf4jnsgd1na2vs0mg"},{"bike_id":"4f60b7d9-3cf7-44a2-a50d-1da6971e7db2","system_id":"levelo_inurba_marseille","lat":43.28352,"lon":5.38089,"is_reserved":false,"is_disabled":true,"rental_uris":{"android":"levelo://app?vid=4f60b7d9-3cf7-44a2-a50d-1da6971e7db2","ios":"levelo://app?vid=4f60b7d9-3cf7-44a2-a50d-1da6971e7db2"},"vehicle_type_id":"4","last_reported":1747325606,"current_range_meters":0,"station_id":"ce4bh412rcd13ifvqdr0","pricing_plan_id":"cebpf4jnsgd1na2vs0mg"},{"bike_id":"d89aa3f7-2db5-405b-b26b-412e9bff2e27","system_id":"levelo_inurba_marseille","lat":43.28424,"lon":5.37513,"is_reserved":false,"is_disabled":true,"rental_uris":{"android":"levelo://app?vid=d89aa3f7-2db5-405b-b26b-412e9bff2e27","ios":"levelo://app?vid=d89aa3f7-2db5-405b-b26b-412e9bff2e27"},"vehicle_type_id":"4","last_reported":1747325606,"current_range_meters":0,"station_id":"ce4bh412rcd13ifvqds0","pricing_plan_id":"cebpf4jnsgd1na2vs0mg"},{"bike_id":"81418c29-5f37-4133-9420-47f32ec8caaf","system_id":"levelo_inurba_marseille","lat":43.28483,"lon":5.38417,"is_reserved":false,"is_disabled":true,"rental_uris":{"android":"levelo://app?vid=81418c29-5f37-4133-9420-47f32ec8caaf","ios":"levelo://app?vid=81418c29-5f37-4133-9420-47f32ec8caaf"},"vehicle_type_id":"4","last_reported":1747325606,"current_range_meters":0,"station_id":"ce4bh512rcd13ifvqe3g","pricing_plan_id":"cebpf4jnsgd1na2vs0mg"},{"bike_id":"d3bd01e4-d3cc-483e-a896-1be24c193110","system_id":"levelo_inurba_marseille","lat":43.28041,"lon":5.36941,"is_reserved":false,"is_disabled":true,"rental_uris":{"android":"levelo://app?vid=d3bd01e4-d3cc-483e-a896-1be24c193110","ios":"levelo://app?vid=d3bd01e4-d3cc-483e-a896-1be24c193110"},"vehicle_type_id":"4","last_reported":1747325606,"current_range_meters":0,"station_id":"ce4bha12rcd13ifvqef0","pricing_plan_id":"cebpf4jnsgd1na2vs0mg"},{"bike_id":"c4f2205a-d5e8-4094-a2e5-136442675874","system_id":"levelo_inurba_marseille","lat":43.29,"lon":5.35613,"is_reserved":false,"is_disabled":true,"rental_uris":{"android":"levelo://app?vid=c4f2205a-d5e8-4094-a2e5-136442675874","ios":"levelo://app?vid=c4f2205a-d5e8-4094-a2e5-136442675874"},"vehicle_type_id":"4","last_reported":1747325606,"current_range_meters":0,"station_id":"ce4bhb92rcd13ifvqen0","pricing_plan_id":"cebpf4jnsgd1na2vs0mg"},{"bike_id":"83a2d028-3ac2-4cd8-a33e-cf30a4c82ba8","system_id":"levelo_inurba_marseille","lat":43.29273,"lon":5.36842,"is_reserved":false,"is_disabled":true,"rental_uris":{"android":"levelo://app?vid=83a2d028-3ac2-4cd8-a33e-cf30a4c82ba8","ios":"levelo://app?vid=83a2d028-3ac2-4cd8-a33e-cf30a4c82ba8"},"vehicle_type_id":"4","last_reported":1747325606,"current_range_meters":0,"station_id":"ce4bhbp2rcd13ifvqesg","pricing_plan_id":"cebpf4jnsgd1na2vs0mg"},{"bike_id":"77cad93a-b9b2-4f76-8202-a4ebef3edef0","system_id":"levelo_inurba_marseille","lat":43.286133,"lon":5.351143,"is_reserved":false,"is_disabled":false,"rental_uris":{"android":"levelo://app?vid=77cad93a-b9b2-4f76-8202-a4ebef3edef0","ios":"levelo://app?vid=77cad93a-b9b2-4f76-8202-a4ebef3edef0"},"vehicle_type_id":"4","last_reported":1747325606,"current_range_meters":0,"station_id":"ce4bhch2rcd13ifvqeug","pricing_plan_id":"cebpf4jnsgd1na2vs0mg"},{"bike_id":"57a1d57d-b51c-470b-89c5-8d50ea9c3838","system_id":"levelo_inurba_marseille","lat":43.27917,"lon":5.39577,"is_reserved":false,"is_disabled":true,"rental_uris":{"android":"levelo://app?vid=57a1d57d-b51c-470b-89c5-8d50ea9c3838","ios":"levelo://app?vid=57a1d57d-b51c-470b-89c5-8d50ea9c3838"},"vehicle_type_id":"4","last_reported":1747325606,"current_range_meters":0,"station_id":"ce4bhf92rcd13ifvqf40","pricing_plan_id":"cebpf4jnsgd1na2vs0mg"},{"bike_id":"b1c0f600-bb88-4379-823f-bf67a4def25a","system_id":"levelo_inurba_marseille","lat":43.24389,"lon":5.37065,"is_reserved":false,"is_disabled":true,"rental_uris":{"android":"levelo://app?vid=b1c0f600-bb88-4379-823f-bf67a4def25a","ios":"levelo://app?vid=b1c0f600-bb88-4379-823f-bf67a4def25a"},"vehicle_type_id":"4","last_reported":1747325606,"current_range_meters":0,"station_id":"ce4bhhh2rcd13ifvqfk0","pricing_plan_id":"cebpf4jnsgd1na2vs0mg"},{"bike_id":"528fd3b1-6e86-4434-94d0-87cf41adb672","system_id":"levelo_inurba_marseille","lat":43.24388,"lon":5.37056,"is_reserved":false,"is_disabled":true,"rental_uris":{"android":"levelo://app?vid=528fd3b1-6e86-4434-94d0-87cf41adb672","ios":"levelo://app?vid=528fd3b1-6e86-4434-94d0-87cf41adb672"},"vehicle_type_id":"4","last_reported":1747325606,"current_range_meters":0,"station_id":"ce4bhhh2rcd13ifvqfk0","pricing_plan_id":"cebpf4jnsgd1na2vs0mg"},{"bike_id":"d1addeb5-eca9-4511-a4cd-21313ea9075a","system_id":"levelo_inurba_marseille","lat":43.2721,"lon":5.39174,"is_reserved":false,"is_disabled":true,"rental_uris":{"android":"levelo://app?vid=d1addeb5-eca9-4511-a4cd-21313ea9075a","ios":"levelo://app?vid=d1addeb5-eca9-4511-a4cd-21313ea9075a"},"vehicle_type_id":"4","last_reported":1747325606,"current_range_meters":0,"station_id":"ce4bhhp2rcd13ifvqfm0","pricing_plan_id":"cebpf4jnsgd1na2vs0mg"},{"bike_id":"4c3d73f8-b3b2-42fc-98be-23c90b6e4800","system_id":"levelo_inurba_marseille","lat":43.24192,"lon":5.39732,"is_reserved":false,"is_disabled":true,"rental_uris":{"android":"levelo://app?vid=4c3d73f8-b3b2-42fc-98be-23c90b6e4800","ios":"levelo://app?vid=4c3d73f8-b3b2-42fc-98be-23c90b6e4800"},"vehicle_type_id":"4","last_reported":1747325606,"current_range_meters":0,"station_id":"ce4bhn12rcd13ifvqgpg","pricing_plan_id":"cebpf4jnsgd1na2vs0mg"},{"bike_id":"bdd3be04-dab8-48c0-8226-7e29c40f041a","system_id":"levelo_inurba_marseille","lat":43.27812,"lon":5.40719,"is_reserved":false,"is_disabled":true,"rental_uris":{"android":"levelo://app?vid=bdd3be04-dab8-48c0-8226-7e29c40f041a","ios":"levelo://app?vid=bdd3be04-dab8-48c0-8226-7e29c40f041a"},"vehicle_type_id":"4","last_reported":1747325606,"current_range_meters":0,"station_id":"ce4bhnh2rcd13ifvqgtg","pricing_plan_id":"cebpf4jnsgd1na2vs0mg"},{"bike_id":"4dbc68b6-8c01-4eef-9a51-8af9545b378c","system_id":"levelo_inurba_marseille","lat":43.27994,"lon":5.40024,"is_reserved":false,"is_disabled":true,"rental_uris":{"android":"levelo://app?vid=4dbc68b6-8c01-4eef-9a51-8af9545b378c","ios":"levelo://app?vid=4dbc68b6-8c01-4eef-9a51-8af9545b378c"},"vehicle_type_id":"4","last_reported":1747325606,"current_range_meters":0,"station_id":"ce4bho92rcd13ifvqh4g","pricing_plan_id":"cebpf4jnsgd1na2vs0mg"},{"bike_id":"9314dddf-072c-4cc0-8876-ed2b90349374","system_id":"levelo_inurba_marseille","lat":43.32542,"lon":5.41426,"is_reserved":false,"is_disabled":true,"rental_uris":{"android":"levelo://app?vid=9314dddf-072c-4cc0-8876-ed2b90349374","ios":"levelo://app?vid=9314dddf-072c-4cc0-8876-ed2b90349374"},"vehicle_type_id":"4","last_reported":1747325606,"current_range_meters":0,"station_id":"ce4bhq12rcd13ifvqhhg","pricing_plan_id":"cebpf4jnsgd1na2vs0mg"},{"bike_id":"d9ea497c-bc40-4c05-9b6a-bc0f46958bd5","system_id":"levelo_inurba_marseille","lat":43.32473,"lon":5.36569,"is_reserved":false,"is_disabled":true,"rental_uris":{"android":"levelo://app?vid=d9ea497c-bc40-4c05-9b6a-bc0f46958bd5","ios":"levelo://app?vid=d9ea497c-bc40-4c05-9b6a-bc0f46958bd5"},"vehicle_type_id":"4","last_reported":1747325606,"current_range_meters":0,"station_id":"ce4bhs12rcd13ifvqhvg","pricing_plan_id":"cebpf4jnsgd1na2vs0mg"},{"bike_id":"0ab059e7-b8c2-4f48-86f6-9565a30a3133","system_id":"levelo_inurba_marseille","lat":43.30732,"lon":5.4245,"is_reserved":false,"is_disabled":true,"rental_uris":{"android":"levelo://app?vid=0ab059e7-b8c2-4f48-86f6-9565a30a3133","ios":"levelo://app?vid=0ab059e7-b8c2-4f48-86f6-9565a30a3133"},"vehicle_type_id":"4","last_reported":1747325606,"current_range_meters":0,"station_id":"st_cvj6ca6bvosntc0bfgr0","pricing_plan_id":"cebpf4jnsgd1na2vs0mg"},{"bike_id":"4dec765a-d244-4409-9a41-682d532cb903","system_id":"levelo_inurba_marseille","lat":43.293023,"lon":5.374588,"is_reserved":false,"is_disabled":true,"rental_uris":{"android":"levelo://app?vid=4dec765a-d244-4409-9a41-682d532cb903","ios":"levelo://app?vid=4dec765a-d244-4409-9a41-682d532cb903"},"vehicle_type_id":"4","last_reported":1747325606,"current_range_meters":400,"station_id":"ce4bgi12rcd13ifvqb70","pricing_plan_id":"cebpf4jnsgd1na2vs0mg"},{"bike_id":"125961b9-2a84-4905-8799-706012ff2dc1","system_id":"levelo_inurba_marseille","lat":43.2781,"lon":5.40716,"is_reserved":false,"is_disabled":true,"rental_uris":{"android":"levelo://app?vid=125961b9-2a84-4905-8799-706012ff2dc1","ios":"levelo://app?vid=125961b9-2a84-4905-8799-706012ff2dc1"},"vehicle_type_id":"4","last_reported":1747325606,"current_range_meters":400,"station_id":"ce4bhnh2rcd13ifvqgtg","pricing_plan_id":"cebpf4jnsgd1na2vs0mg"},{"bike_id":"825f38ab-1fe0-47ee-8b7e-8322cdd70401","system_id":"levelo_inurba_marseille","lat":43.27945,"lon":5.4105,"is_reserved":false,"is_disabled":true,"rental_uris":{"android":"levelo://app?vid=825f38ab-1fe0-47ee-8b7e-8322cdd70401","ios":"levelo://app?vid=825f38ab-1fe0-47ee-8b7e-8322cdd70401"},"vehicle_type_id":"4","last_reported":1747325606,"current_range_meters":400,"station_id":"ce4bhnp2rcd13ifvqh0g","pricing_plan_id":"cebpf4jnsgd1na2vs0mg"},{"bike_id":"d997088f-a701-4f74-a90f-cb941ddd3928","system_id":"levelo_inurba_marseille","lat":43.28731,"lon":5.36072,"is_reserved":false,"is_disabled":true,"rental_uris":{"android":"levelo://app?vid=d997088f-a701-4f74-a90f-cb941ddd3928","ios":"levelo://app?vid=d997088f-a701-4f74-a90f-cb941ddd3928"},"vehicle_type_id":"4","last_reported":1747325606,"current_range_meters":400,"station_id":"cki0cbj6b192h4jlfktg","pricing_plan_id":"cebpf4jnsgd1na2vs0mg"},{"bike_id":"0dd2f0ba-51df-4404-9a99-23d038409cd5","system_id":"levelo_inurba_marseille","lat":43.29522,"lon":5.39054,"is_reserved":false,"is_disabled":true,"rental_uris":{"android":"levelo://app?vid=0dd2f0ba-51df-4404-9a99-23d038409cd5","ios":"levelo://app?vid=0dd2f0ba-51df-4404-9a99-23d038409cd5"},"vehicle_type_id":"4","last_reported":1747325606,"current_range_meters":800,"station_id":"ce4bh3p2rcd13ifvqdp0","pricing_plan_id":"cebpf4jnsgd1na2vs0mg"},{"bike_id":"28fc39d2-e97f-4bbc-89a6-0fe82a19d8aa","system_id":"levelo_inurba_marseille","lat":43.27435,"lon":5.39443,"is_reserved":false,"is_disabled":true,"rental_uris":{"android":"levelo://app?vid=28fc39d2-e97f-4bbc-89a6-0fe82a19d8aa","ios":"levelo://app?vid=28fc39d2-e97f-4bbc-89a6-0fe82a19d8aa"},"vehicle_type_id":"4","last_reported":1747325606,"current_range_meters":800,"station_id":"ce4bhdp2rcd13ifvqf20","pricing_plan_id":"cebpf4jnsgd1na2vs0mg"},{"bike_id":"ab9e11b4-243f-46c4-ab2b-123f4522436f","system_id":"levelo_inurba_marseille","lat":43.26563,"lon":5.37294,"is_reserved":false,"is_disabled":true,"rental_uris":{"android":"levelo://app?vid=ab9e11b4-243f-46c4-ab2b-123f4522436f","ios":"levelo://app?vid=ab9e11b4-243f-46c4-ab2b-123f4522436f"},"vehicle_type_id":"4","last_reported":1747325606,"current_range_meters":800,"station_id":"ce4bhg12rcd13ifvqf70","pricing_plan_id":"cebpf4jnsgd1na2vs0mg"},{"bike_id":"84f518dc-50a3-4a16-9d63-3d1898cec109","system_id":"levelo_inurba_marseille","lat":43.32664,"lon":5.40999,"is_reserved":false,"is_disabled":true,"rental_uris":{"android":"levelo://app?vid=84f518dc-50a3-4a16-9d63-3d1898cec109","ios":"levelo://app?vid=84f518dc-50a3-4a16-9d63-3d1898cec109"},"vehicle_type_id":"4","last_reported":1747325606,"current_range_meters":800,"station_id":"ce4bhpp2rcd13ifvqhgg","pricing_plan_id":"cebpf4jnsgd1na2vs0mg"},{"bike_id":"50f0eb23-5b0e-487e-8419-b1da69e5d44e","system_id":"levelo_inurba_marseille","lat":43.28642,"lon":5.3817,"is_reserved":false,"is_disabled":true,"rental_uris":{"android":"levelo://app?vid=50f0eb23-5b0e-487e-8419-b1da69e5d44e","ios":"levelo://app?vid=50f0eb23-5b0e-487e-8419-b1da69e5d44e"},"vehicle_type_id":"4","last_reported":1747325606,"current_range_meters":1200,"station_id":"","pricing_plan_id":"cebpf4jnsgd1na2vs0mg"},{"bike_id":"ce4325af-2448-4172-bdec-81d552ee0b62","system_id":"levelo_inurba_marseille","lat":43.26217,"lon":5.42021,"is_reserved":false,"is_disabled":true,"rental_uris":{"android":"levelo://app?vid=ce4325af-2448-4172-bdec-81d552ee0b62","ios":"levelo://app?vid=ce4325af-2448-4172-bdec-81d552ee0b62"},"vehicle_type_id":"4","last_reported":1747325606,"current_range_meters":1200,"station_id":"","pricing_plan_id":"cebpf4jnsgd1na2vs0mg"},{"bike_id":"a775bd26-aebf-48f5-843b-53b4e0130aa6","system_id":"levelo_inurba_marseille","lat":43.29198,"lon":5.35799,"is_reserved":false,"is_disabled":true,"rental_uris":{"android":"levelo://app?vid=a775bd26-aebf-48f5-843b-53b4e0130aa6","ios":"levelo://app?vid=a775bd26-aebf-48f5-843b-53b4e0130aa6"},"vehicle_type_id":"4","last_reported":1747325606,"current_range_meters":1200,"station_id":"ce4bhb12rcd13ifvqel0","pricing_plan_id":"cebpf4jnsgd1na2vs0mg"},{"bike_id":"4baab9ae-bb5a-4868-b47d-d200beafcd70","system_id":"levelo_inurba_marseille","lat":43.27068,"lon":5.40273,"is_reserved":false,"is_disabled":true,"rental_uris":{"android":"levelo://app?vid=4baab9ae-bb5a-4868-b47d-d200beafcd70","ios":"levelo://app?vid=4baab9ae-bb5a-4868-b47d-d200beafcd70"},"vehicle_type_id":"4","last_reported":1747325606,"current_range_meters":1200,"station_id":"ce4bhk92rcd13ifvqgc0","pricing_plan_id":"cebpf4jnsgd1na2vs0mg"},{"bike_id":"13ccaadc-b269-47eb-bafa-2d5f1181c90c","system_id":"levelo_inurba_marseille","lat":43.29899,"lon":5.43676,"is_reserved":false,"is_disabled":true,"rental_uris":{"android":"levelo://app?vid=13ccaadc-b269-47eb-bafa-2d5f1181c90c","ios":"levelo://app?vid=13ccaadc-b269-47eb-bafa-2d5f1181c90c"},"vehicle_type_id":"4","last_reported":1747325606,"current_range_meters":1200,"station_id":"ce4bhpp2rcd13ifvqhfg","pricing_plan_id":"cebpf4jnsgd1na2vs0mg"},{"bike_id":"3eb03f26-c65c-4967-9710-5aabdbdcd3aa","system_id":"levelo_inurba_marseille","lat":43.23191,"lon":5.35552,"is_reserved":false,"is_disabled":true,"rental_uris":{"android":"levelo://app?vid=3eb03f26-c65c-4967-9710-5aabdbdcd3aa","ios":"levelo://app?vid=3eb03f26-c65c-4967-9710-5aabdbdcd3aa"},"vehicle_type_id":"4","last_reported":1747325606,"current_range_meters":1200,"station_id":"ce4bhu92rcd13ifvqi70","pricing_plan_id":"cebpf4jnsgd1na2vs0mg"},{"bike_id":"6abb0c98-3f1b-4855-9e38-231ce921e461","system_id":"levelo_inurba_marseille","lat":43.29964,"lon":5.38494,"is_reserved":false,"is_disabled":true,"rental_uris":{"android":"levelo://app?vid=6abb0c98-3f1b-4855-9e38-231ce921e461","ios":"levelo://app?vid=6abb0c98-3f1b-4855-9e38-231ce921e461"},"vehicle_type_id":"4","last_reported":1747325606,"current_range_meters":1600,"station_id":"ce4bgj92rcd13ifvqbd0","pricing_plan_id":"cebpf4jnsgd1na2vs0mg"},{"bike_id":"42e6ed9a-2e5e-4277-aa10-b59a6c8a7d41","system_id":"levelo_inurba_marseille","lat":43.29596,"lon":5.38103,"is_reserved":false,"is_disabled":true,"rental_uris":{"android":"levelo://app?vid=42e6ed9a-2e5e-4277-aa10-b59a6c8a7d41","ios":"levelo://app?vid=42e6ed9a-2e5e-4277-aa10-b59a6c8a7d41"},"vehicle_type_id":"4","last_reported":1747325606,"current_range_meters":1600,"station_id":"ce4bgl12rcd13ifvqbo0","pricing_plan_id":"cebpf4jnsgd1na2vs0mg"},{"bike_id":"d805c266-e964-4fbd-aa05-19511acd6f8b","system_id":"levelo_inurba_marseille","lat":43.31213,"lon":5.36866,"is_reserved":false,"is_disabled":true,"rental_uris":{"android":"levelo://app?vid=d805c266-e964-4fbd-aa05-19511acd6f8b","ios":"levelo://app?vid=d805c266-e964-4fbd-aa05-19511acd6f8b"},"vehicle_type_id":"4","last_reported":1747325606,"current_range_meters":1600,"station_id":"ce4bgl92rcd13ifvqbq0","pricing_plan_id":"cebpf4jnsgd1na2vs0mg"},{"bike_id":"37f6a9ae-183f-4e5c-a0e2-b63e1b5f5aa5","system_id":"levelo_inurba_marseille","lat":43.29518,"lon":5.39402,"is_reserved":false,"is_disabled":true,"rental_uris":{"android":"levelo://app?vid=37f6a9ae-183f-4e5c-a0e2-b63e1b5f5aa5","ios":"levelo://app?vid=37f6a9ae-183f-4e5c-a0e2-b63e1b5f5aa5"},"vehicle_type_id":"4","last_reported":1747325606,"current_range_meters":1600,"station_id":"ce4bh292rcd13ifvqdf0","pricing_plan_id":"cebpf4jnsgd1na2vs0mg"},{"bike_id":"f6882265-9517-4f82-8513-0858956a2b91","system_id":"levelo_inurba_marseille","lat":43.28402,"lon":5.37509,"is_reserved":false,"is_disabled":true,"rental_uris":{"android":"levelo://app?vid=f6882265-9517-4f82-8513-0858956a2b91","ios":"levelo://app?vid=f6882265-9517-4f82-8513-0858956a2b91"},"vehicle_type_id":"4","last_reported":1747325606,"current_range_meters":1600,"station_id":"ce4bh412rcd13ifvqds0","pricing_plan_id":"cebpf4jnsgd1na2vs0mg"},{"bike_id":"02ddf88b-1d64-46ba-a320-c3e6286383bc","system_id":"levelo_inurba_marseille","lat":43.28266,"lon":5.35057,"is_reserved":false,"is_disabled":true,"rental_uris":{"android":"levelo://app?vid=02ddf88b-1d64-46ba-a320-c3e6286383bc","ios":"levelo://app?vid=02ddf88b-1d64-46ba-a320-c3e6286383bc"},"vehicle_type_id":"4","last_reported":1747325606,"current_range_meters":1600,"station_id":"ce4bhbp2rcd13ifvqerg","pricing_plan_id":"cebpf4jnsgd1na2vs0mg"},{"bike_id":"35e819f4-82e2-4d9f-8442-73b2421e2e20","system_id":"levelo_inurba_marseille","lat":43.23183,"lon":5.39979,"is_reserved":false,"is_disabled":true,"rental_uris":{"android":"levelo://app?vid=35e819f4-82e2-4d9f-8442-73b2421e2e20","ios":"levelo://app?vid=35e819f4-82e2-4d9f-8442-73b2421e2e20"},"vehicle_type_id":"4","last_reported":1747325606,"current_range_meters":1600,"station_id":"ce4bhn12rcd13ifvqgqg","pricing_plan_id":"cebpf4jnsgd1na2vs0mg"},{"bike_id":"a1dc1686-bcd8-4ed0-b326-bc4877c1e14c","system_id":"levelo_inurba_marseille","lat":43.28072,"lon":5.39653,"is_reserved":false,"is_disabled":true,"rental_uris":{"android":"levelo://app?vid=a1dc1686-bcd8-4ed0-b326-bc4877c1e14c","ios":"levelo://app?vid=a1dc1686-bcd8-4ed0-b326-bc4877c1e14c"},"vehicle_type_id":"4","last_reported":1747325606,"current_range_meters":1600,"station_id":"ce4bho12rcd13ifvqh2g","pricing_plan_id":"cebpf4jnsgd1na2vs0mg"},{"bike_id":"f25419af-79fa-43b0-af4a-a0738706a661","system_id":"levelo_inurba_marseille","lat":43.28072,"lon":5.39656,"is_reserved":false,"is_disabled":true,"rental_uris":{"android":"levelo://app?vid=f25419af-79fa-43b0-af4a-a0738706a661","ios":"levelo://app?vid=f25419af-79fa-43b0-af4a-a0738706a661"},"vehicle_type_id":"4","last_reported":1747325606,"current_range_meters":1600,"station_id":"ce4bho12rcd13ifvqh2g","pricing_plan_id":"cebpf4jnsgd1na2vs0mg"},{"bike_id":"28e8a854-8802-4865-9599-afe6e03ac4ce","system_id":"levelo_inurba_marseille","lat":43.28935,"lon":5.36638,"is_reserved":false,"is_disabled":true,"rental_uris":{"android":"levelo://app?vid=28e8a854-8802-4865-9599-afe6e03ac4ce","ios":"levelo://app?vid=28e8a854-8802-4865-9599-afe6e03ac4ce"},"vehicle_type_id":"4","last_reported":1747325606,"current_range_meters":2000,"station_id":"ce4bhap2rcd13ifvqek0","pricing_plan_id":"cebpf4jnsgd1na2vs0mg"},{"bike_id":"a70cb477-0013-4acb-bd65-10746cb79333","system_id":"levelo_inurba_marseille","lat":43.26194,"lon":5.37443,"is_reserved":false,"is_disabled":true,"rental_uris":{"android":"levelo://app?vid=a70cb477-0013-4acb-bd65-10746cb79333","ios":"levelo://app?vid=a70cb477-0013-4acb-bd65-10746cb79333"},"vehicle_type_id":"4","last_reported":1747325606,"current_range_meters":2000,"station_id":"ce4bhgp2rcd13ifvqfc0","pricing_plan_id":"cebpf4jnsgd1na2vs0mg"},{"bike_id":"da8c75e7-7e13-42f0-a5a5-3b82842cf8b6","system_id":"levelo_inurba_marseille","lat":43.27559,"lon":5.38429,"is_reserved":false,"is_disabled":true,"rental_uris":{"android":"levelo://app?vid=da8c75e7-7e13-42f0-a5a5-3b82842cf8b6","ios":"levelo://app?vid=da8c75e7-7e13-42f0-a5a5-3b82842cf8b6"},"vehicle_type_id":"4","last_reported":1747325606,"current_range_meters":2000,"station_id":"ce4bhh92rcd13ifvqfi0","pricing_plan_id":"cebpf4jnsgd1na2vs0mg"},{"bike_id":"2442b47c-bb8a-4e4d-a925-7b4e6b97e4c0","system_id":"levelo_inurba_marseille","lat":43.258273,"lon":5.394386,"is_reserved":false,"is_disabled":true,"rental_uris":{"android":"levelo://app?vid=2442b47c-bb8a-4e4d-a925-7b4e6b97e4c0","ios":"levelo://app?vid=2442b47c-bb8a-4e4d-a925-7b4e6b97e4c0"},"vehicle_type_id":"4","last_reported":1747325606,"current_range_meters":2000,"station_id":"ce4bhip2rcd13ifvqft0","pricing_plan_id":"cebpf4jnsgd1na2vs0mg"},{"bike_id":"c3996d8b-753f-470f-b89f-501346ab327a","system_id":"levelo_inurba_marseille","lat":43.24396,"lon":5.37069,"is_reserved":false,"is_disabled":false,"rental_uris":{"android":"levelo://app?vid=c3996d8b-753f-470f-b89f-501346ab327a","ios":"levelo://app?vid=c3996d8b-753f-470f-b89f-501346ab327a"},"vehicle_type_id":"4","last_reported":1747325606,"current_range_meters":2800,"station_id":"ce4bhhh2rcd13ifvqfk0","pricing_plan_id":"cebpf4jnsgd1na2vs0mg"},{"bike_id":"5e9fa20e-1340-4d0d-b683-901a4275ba5d","system_id":"levelo_inurba_marseille","lat":43.28181,"lon":5.425331,"is_reserved":false,"is_disabled":false,"rental_uris":{"android":"levelo://app?vid=5e9fa20e-1340-4d0d-b683-901a4275ba5d","ios":"levelo://app?vid=5e9fa20e-1340-4d0d-b683-901a4275ba5d"},"vehicle_type_id":"4","last_reported":1747325606,"current_range_meters":3200,"station_id":"","pricing_plan_id":"cebpf4jnsgd1na2vs0mg"},{"bike_id":"9ac810fb-3a61-4703-af1a-b5089114aa65","system_id":"levelo_inurba_marseille","lat":43.29525,"lon":5.38542,"is_reserved":false,"is_disabled":false,"rental_uris":{"android":"levelo://app?vid=9ac810fb-3a61-4703-af1a-b5089114aa65","ios":"levelo://app?vid=9ac810fb-3a61-4703-af1a-b5089114aa65"},"vehicle_type_id":"4","last_reported":1747325606,"current_range_meters":3200,"station_id":"ce4bgih2rcd13ifvqba0","pricing_plan_id":"cebpf4jnsgd1na2vs0mg"},{"bike_id":"a3ed8666-bb91-4163-9214-48ab0a202124","system_id":"levelo_inurba_marseille","lat":43.28462,"lon":5.35883,"is_reserved":false,"is_disabled":false,"rental_uris":{"android":"levelo://app?vid=a3ed8666-bb91-4163-9214-48ab0a202124","ios":"levelo://app?vid=a3ed8666-bb91-4163-9214-48ab0a202124"},"vehicle_type_id":"4","last_reported":1747325606,"current_range_meters":3200,"station_id":"ce4bhah2rcd13ifvqei0","pricing_plan_id":"cebpf4jnsgd1na2vs0mg"},{"bike_id":"f49bace2-9c35-44f4-a706-d0db54f6ebfa","system_id":"levelo_inurba_marseille","lat":43.26551,"lon":5.37287,"is_reserved":false,"is_disabled":false,"rental_uris":{"android":"levelo://app?vid=f49bace2-9c35-44f4-a706-d0db54f6ebfa","ios":"levelo://app?vid=f49bace2-9c35-44f4-a706-d0db54f6ebfa"},"vehicle_type_id":"4","last_reported":1747325606,"current_range_meters":3200,"station_id":"ce4bhg12rcd13ifvqf70","pricing_plan_id":"cebpf4jnsgd1na2vs0mg"},{"bike_id":"e24c9fd4-1ed4-4294-b92a-106badd2b94c","system_id":"levelo_inurba_marseille","lat":43.24546,"lon":5.39527,"is_reserved":false,"is_disabled":false,"rental_uris":{"android":"levelo://app?vid=e24c9fd4-1ed4-4294-b92a-106badd2b94c","ios":"levelo://app?vid=e24c9fd4-1ed4-4294-b92a-106badd2b94c"},"vehicle_type_id":"4","last_reported":1747325606,"current_range_meters":3200,"station_id":"ce4bhlp2rcd13ifvqgjg","pricing_plan_id":"cebpf4jnsgd1na2vs0mg"},{"bike_id":"66107f0b-f8a8-41d2-81ce-4e45b2d00ea9","system_id":"levelo_inurba_marseille","lat":43.309453,"lon":5.390287,"is_reserved":false,"is_disabled":false,"rental_uris":{"android":"levelo://app?vid=66107f0b-f8a8-41d2-81ce-4e45b2d00ea9","ios":"levelo://app?vid=66107f0b-f8a8-41d2-81ce-4e45b2d00ea9"},"vehicle_type_id":"4","last_reported":1747325606,"current_range_meters":3600,"station_id":"ce4bh0p2rcd13ifvqd70","pricing_plan_id":"cebpf4jnsgd1na2vs0mg"},{"bike_id":"c561a410-e8fd-4f20-b2f0-84f1e6b3d5e4","system_id":"levelo_inurba_marseille","lat":43.292768,"lon":5.4011,"is_reserved":false,"is_disabled":false,"rental_uris":{"android":"levelo://app?vid=c561a410-e8fd-4f20-b2f0-84f1e6b3d5e4","ios":"levelo://app?vid=c561a410-e8fd-4f20-b2f0-84f1e6b3d5e4"},"vehicle_type_id":"4","last_reported":1747325606,"current_range_meters":3600,"station_id":"ce4bh312rcd13ifvqdk0","pricing_plan_id":"cebpf4jnsgd1na2vs0mg"},{"bike_id":"51c12890-2e89-4711-8ab4-554f6288e170","system_id":"levelo_inurba_marseille","lat":43.273772,"lon":5.362494,"is_reserved":false,"is_disabled":false,"rental_uris":{"android":"levelo://app?vid=51c12890-2e89-4711-8ab4-554f6288e170","ios":"levelo://app?vid=51c12890-2e89-4711-8ab4-554f6288e170"},"vehicle_type_id":"4","last_reported":1747325606,"current_range_meters":3600,"station_id":"ce4bhbh2rcd13ifvqeo0","pricing_plan_id":"cebpf4jnsgd1na2vs0mg"},{"bike_id":"2960b8b7-f0df-4f55-9d00-11a639418f64","system_id":"levelo_inurba_marseille","lat":43.25499,"lon":5.37679,"is_reserved":false,"is_disabled":false,"rental_uris":{"android":"levelo://app?vid=2960b8b7-f0df-4f55-9d00-11a639418f64","ios":"levelo://app?vid=2960b8b7-f0df-4f55-9d00-11a639418f64"},"vehicle_type_id":"4","last_reported":1747325606,"current_range_meters":3600,"station_id":"ce4bhh12rcd13ifvqff0","pricing_plan_id":"cebpf4jnsgd1na2vs0mg"},{"bike_id":"a3146ce3-445a-4ac7-858c-4ef2eab2d6cf","system_id":"levelo_inurba_marseille","lat":43.2439,"lon":5.37055,"is_reserved":false,"is_disabled":false,"rental_uris":{"android":"levelo://app?vid=a3146ce3-445a-4ac7-858c-4ef2eab2d6cf","ios":"levelo://app?vid=a3146ce3-445a-4ac7-858c-4ef2eab2d6cf"},"vehicle_type_id":"4","last_reported":1747325606,"current_range_meters":3600,"station_id":"ce4bhhh2rcd13ifvqfk0","pricing_plan_id":"cebpf4jnsgd1na2vs0mg"},{"bike_id":"ce2a8815-02e1-4be9-b3db-2b239ea95d47","system_id":"levelo_inurba_marseille","lat":43.25824,"lon":5.39437,"is_reserved":false,"is_disabled":false,"rental_uris":{"android":"levelo://app?vid=ce2a8815-02e1-4be9-b3db-2b239ea95d47","ios":"levelo://app?vid=ce2a8815-02e1-4be9-b3db-2b239ea95d47"},"vehicle_type_id":"4","last_reported":1747325606,"current_range_meters":3600,"station_id":"ce4bhip2rcd13ifvqft0","pricing_plan_id":"cebpf4jnsgd1na2vs0mg"},{"bike_id":"1e110525-6752-45a3-a0e0-ec74a4d122fb","system_id":"levelo_inurba_marseille","lat":43.31356,"lon":5.38492,"is_reserved":false,"is_disabled":false,"rental_uris":{"android":"levelo://app?vid=1e110525-6752-45a3-a0e0-ec74a4d122fb","ios":"levelo://app?vid=1e110525-6752-45a3-a0e0-ec74a4d122fb"},"vehicle_type_id":"4","last_reported":1747325606,"current_range_meters":4000,"station_id":"ce4bgt92rcd13ifvqcf0","pricing_plan_id":"cebpf4jnsgd1na2vs0mg"},{"bike_id":"3187cdb1-3e5c-4bb4-95b5-513a2aac5db8","system_id":"levelo_inurba_marseille","lat":43.316986,"lon":5.404905,"is_reserved":false,"is_disabled":false,"rental_uris":{"android":"levelo://app?vid=3187cdb1-3e5c-4bb4-95b5-513a2aac5db8","ios":"levelo://app?vid=3187cdb1-3e5c-4bb4-95b5-513a2aac5db8"},"vehicle_type_id":"4","last_reported":1747325606,"current_range_meters":4000,"station_id":"ce4bh012rcd13ifvqd00","pricing_plan_id":"cebpf4jnsgd1na2vs0mg"},{"bike_id":"45f67419-db91-4ac6-a1dc-f791347f00c2","system_id":"levelo_inurba_marseille","lat":43.28976,"lon":5.37826,"is_reserved":false,"is_disabled":false,"rental_uris":{"android":"levelo://app?vid=45f67419-db91-4ac6-a1dc-f791347f00c2","ios":"levelo://app?vid=45f67419-db91-4ac6-a1dc-f791347f00c2"},"vehicle_type_id":"4","last_reported":1747325606,"current_range_meters":4400,"station_id":"ce4bh9p2rcd13ifvqed0","pricing_plan_id":"cebpf4jnsgd1na2vs0mg"},{"bike_id":"860a00e1-51c5-42b9-a890-35a20126c1a7","system_id":"levelo_inurba_marseille","lat":43.28104,"lon":5.37846,"is_reserved":false,"is_disabled":false,"rental_uris":{"android":"levelo://app?vid=860a00e1-51c5-42b9-a890-35a20126c1a7","ios":"levelo://app?vid=860a00e1-51c5-42b9-a890-35a20126c1a7"},"vehicle_type_id":"4","last_reported":1747325606,"current_range_meters":4400,"station_id":"ce4bha12rcd13ifvqee0","pricing_plan_id":"cebpf4jnsgd1na2vs0mg"},{"bike_id":"63d975ac-bf1a-4905-87f1-164fed3941fd","system_id":"levelo_inurba_marseille","lat":43.2895,"lon":5.36393,"is_reserved":false,"is_disabled":false,"rental_uris":{"android":"levelo://app?vid=63d975ac-bf1a-4905-87f1-164fed3941fd","ios":"levelo://app?vid=63d975ac-bf1a-4905-87f1-164fed3941fd"},"vehicle_type_id":"4","last_reported":1747325606,"current_range_meters":4400,"station_id":"ce4bhc92rcd13ifvqetg","pricing_plan_id":"cebpf4jnsgd1na2vs0mg"},{"bike_id":"493f57cf-2de0-4468-ac62-99653de8dbaa","system_id":"levelo_inurba_marseille","lat":43.28007,"lon":5.40069,"is_reserved":false,"is_disabled":false,"rental_uris":{"android":"levelo://app?vid=493f57cf-2de0-4468-ac62-99653de8dbaa","ios":"levelo://app?vid=493f57cf-2de0-4468-ac62-99653de8dbaa"},"vehicle_type_id":"4","last_reported":1747325606,"current_range_meters":4800,"station_id":"","pricing_plan_id":"cebpf4jnsgd1na2vs0mg"},{"bike_id":"b921e92b-3f8e-4637-933f-95abb7fb9251","system_id":"levelo_inurba_marseille","lat":43.2953,"lon":5.394,"is_reserved":false,"is_disabled":false,"rental_uris":{"android":"levelo://app?vid=b921e92b-3f8e-4637-933f-95abb7fb9251","ios":"levelo://app?vid=b921e92b-3f8e-4637-933f-95abb7fb9251"},"vehicle_type_id":"4","last_reported":1747325606,"current_range_meters":4800,"station_id":"ce4bh292rcd13ifvqdf0","pricing_plan_id":"cebpf4jnsgd1na2vs0mg"},{"bike_id":"81711c29-c96d-4261-afef-8632f0d506f1","system_id":"levelo_inurba_marseille","lat":43.28933,"lon":5.36636,"is_reserved":false,"is_disabled":false,"rental_uris":{"android":"levelo://app?vid=81711c29-c96d-4261-afef-8632f0d506f1","ios":"levelo://app?vid=81711c29-c96d-4261-afef-8632f0d506f1"},"vehicle_type_id":"4","last_reported":1747325606,"current_range_meters":4800,"station_id":"ce4bhap2rcd13ifvqek0","pricing_plan_id":"cebpf4jnsgd1na2vs0mg"},{"bike_id":"97d1eb7a-cf71-478b-ab91-7eff14a62892","system_id":"levelo_inurba_marseille","lat":43.29193,"lon":5.358,"is_reserved":false,"is_disabled":false,"rental_uris":{"android":"levelo://app?vid=97d1eb7a-cf71-478b-ab91-7eff14a62892","ios":"levelo://app?vid=97d1eb7a-cf71-478b-ab91-7eff14a62892"},"vehicle_type_id":"4","last_reported":1747325606,"current_range_meters":4800,"station_id":"ce4bhb12rcd13ifvqel0","pricing_plan_id":"cebpf4jnsgd1na2vs0mg"},{"bike_id":"8347e6fe-9309-4326-8632-3a7287202236","system_id":"levelo_inurba_marseille","lat":43.26567,"lon":5.39009,"is_reserved":false,"is_disabled":false,"rental_uris":{"android":"levelo://app?vid=8347e6fe-9309-4326-8632-3a7287202236","ios":"levelo://app?vid=8347e6fe-9309-4326-8632-3a7287202236"},"vehicle_type_id":"4","last_reported":1747325606,"current_range_meters":4800,"station_id":"ce4bhe12rcd13ifvqf30","pricing_plan_id":"cebpf4jnsgd1na2vs0mg"},{"bike_id":"3b6da2c3-1eba-4d98-bd6f-7388133e022c","system_id":"levelo_inurba_marseille","lat":43.26501,"lon":5.3955,"is_reserved":false,"is_disabled":false,"rental_uris":{"android":"levelo://app?vid=3b6da2c3-1eba-4d98-bd6f-7388133e022c","ios":"levelo://app?vid=3b6da2c3-1eba-4d98-bd6f-7388133e022c"},"vehicle_type_id":"4","last_reported":1747325606,"current_range_meters":4800,"station_id":"ce4bhi12rcd13ifvqfq0","pricing_plan_id":"cebpf4jnsgd1na2vs0mg"},{"bike_id":"d2f95eba-a47d-4903-9da0-0c385a74a92a","system_id":"levelo_inurba_marseille","lat":43.30214,"lon":5.39467,"is_reserved":false,"is_disabled":false,"rental_uris":{"android":"levelo://app?vid=d2f95eba-a47d-4903-9da0-0c385a74a92a","ios":"levelo://app?vid=d2f95eba-a47d-4903-9da0-0c385a74a92a"},"vehicle_type_id":"4","last_reported":1747325606,"current_range_meters":5600,"station_id":"ce4bh0p2rcd13ifvqd70","pricing_plan_id":"cebpf4jnsgd1na2vs0mg"},{"bike_id":"e8a182f0-5311-4dda-b66d-ddd83ad6da3c","system_id":"levelo_inurba_marseille","lat":43.29277,"lon":5.40115,"is_reserved":false,"is_disabled":false,"rental_uris":{"android":"levelo://app?vid=e8a182f0-5311-4dda-b66d-ddd83ad6da3c","ios":"levelo://app?vid=e8a182f0-5311-4dda-b66d-ddd83ad6da3c"},"vehicle_type_id":"4","last_reported":1747325606,"current_range_meters":5600,"station_id":"ce4bh312rcd13ifvqdk0","pricing_plan_id":"cebpf4jnsgd1na2vs0mg"},{"bike_id":"16b0e1e4-4e2b-4036-9819-eb4c693f4bf6","system_id":"levelo_inurba_marseille","lat":43.31883,"lon":5.37627,"is_reserved":false,"is_disabled":false,"rental_uris":{"android":"levelo://app?vid=16b0e1e4-4e2b-4036-9819-eb4c693f4bf6","ios":"levelo://app?vid=16b0e1e4-4e2b-4036-9819-eb4c693f4bf6"},"vehicle_type_id":"4","last_reported":1747325606,"current_range_meters":6000,"station_id":"","pricing_plan_id":"cebpf4jnsgd1na2vs0mg"},{"bike_id":"39b6ac28-429d-4387-b591-17a6722af7c8","system_id":"levelo_inurba_marseille","lat":43.29401,"lon":5.38618,"is_reserved":false,"is_disabled":false,"rental_uris":{"android":"levelo://app?vid=39b6ac28-429d-4387-b591-17a6722af7c8","ios":"levelo://app?vid=39b6ac28-429d-4387-b591-17a6722af7c8"},"vehicle_type_id":"4","last_reported":1747325606,"current_range_meters":6000,"station_id":"ce4bh2h2rcd13ifvqdh0","pricing_plan_id":"cebpf4jnsgd1na2vs0mg"},{"bike_id":"9b69c988-f900-4c7d-8249-501f7d5eeea9","system_id":"levelo_inurba_marseille","lat":43.2952,"lon":5.39048,"is_reserved":false,"is_disabled":false,"rental_uris":{"android":"levelo://app?vid=9b69c988-f900-4c7d-8249-501f7d5eeea9","ios":"levelo://app?vid=9b69c988-f900-4c7d-8249-501f7d5eeea9"},"vehicle_type_id":"4","last_reported":1747325606,"current_range_meters":6000,"station_id":"ce4bh3p2rcd13ifvqdp0","pricing_plan_id":"cebpf4jnsgd1na2vs0mg"},{"bike_id":"ebe7ddcb-0b32-4418-9d1c-211bd1d34f79","system_id":"levelo_inurba_marseille","lat":43.29073,"lon":5.37167,"is_reserved":false,"is_disabled":false,"rental_uris":{"android":"levelo://app?vid=ebe7ddcb-0b32-4418-9d1c-211bd1d34f79","ios":"levelo://app?vid=ebe7ddcb-0b32-4418-9d1c-211bd1d34f79"},"vehicle_type_id":"4","last_reported":1747325606,"current_range_meters":6000,"station_id":"ce4bh5p2rcd13ifvqe4g","pricing_plan_id":"cebpf4jnsgd1na2vs0mg"},{"bike_id":"4e4cbef5-14b9-41ab-8046-4fff3a283724","system_id":"levelo_inurba_marseille","lat":43.266918,"lon":5.382586,"is_reserved":false,"is_disabled":false,"rental_uris":{"android":"levelo://app?vid=4e4cbef5-14b9-41ab-8046-4fff3a283724","ios":"levelo://app?vid=4e4cbef5-14b9-41ab-8046-4fff3a283724"},"vehicle_type_id":"4","last_reported":1747325606,"current_range_meters":6000,"station_id":"ce4bhg92rcd13ifvqf90","pricing_plan_id":"cebpf4jnsgd1na2vs0mg"},{"bike_id":"8e89d319-3aa4-4daf-a5a7-abe665193adb","system_id":"levelo_inurba_marseille","lat":43.25083,"lon":5.39521,"is_reserved":false,"is_disabled":false,"rental_uris":{"android":"levelo://app?vid=8e89d319-3aa4-4daf-a5a7-abe665193adb","ios":"levelo://app?vid=8e89d319-3aa4-4daf-a5a7-abe665193adb"},"vehicle_type_id":"4","last_reported":1747325606,"current_range_meters":6000,"station_id":"ce4bhm12rcd13ifvqgkg","pricing_plan_id":"cebpf4jnsgd1na2vs0mg"},{"bike_id":"79239c75-6649-441e-a90b-b41389ba1856","system_id":"levelo_inurba_marseille","lat":43.29254,"lon":5.4092,"is_reserved":false,"is_disabled":false,"rental_uris":{"android":"levelo://app?vid=79239c75-6649-441e-a90b-b41389ba1856","ios":"levelo://app?vid=79239c75-6649-441e-a90b-b41389ba1856"},"vehicle_type_id":"4","last_reported":1747325606,"current_range_meters":6400,"station_id":"ce4bh192rcd13ifvqdc0","pricing_plan_id":"cebpf4jnsgd1na2vs0mg"},{"bike_id":"b4135e5a-0c8f-482a-9f04-3db80283ea38","system_id":"levelo_inurba_marseille","lat":43.281127,"lon":5.378793,"is_reserved":false,"is_disabled":false,"rental_uris":{"android":"levelo://app?vid=b4135e5a-0c8f-482a-9f04-3db80283ea38","ios":"levelo://app?vid=b4135e5a-0c8f-482a-9f04-3db80283ea38"},"vehicle_type_id":"4","last_reported":1747325606,"current_range_meters":6400,"station_id":"ce4bha12rcd13ifvqee0","pricing_plan_id":"cebpf4jnsgd1na2vs0mg"},{"bike_id":"e64d0eef-59d1-420e-8ebf-8a9b7465588f","system_id":"levelo_inurba_marseille","lat":43.28464,"lon":5.35892,"is_reserved":false,"is_disabled":false,"rental_uris":{"android":"levelo://app?vid=e64d0eef-59d1-420e-8ebf-8a9b7465588f","ios":"levelo://app?vid=e64d0eef-59d1-420e-8ebf-8a9b7465588f"},"vehicle_type_id":"4","last_reported":1747325606,"current_range_meters":6400,"station_id":"ce4bhah2rcd13ifvqei0","pricing_plan_id":"cebpf4jnsgd1na2vs0mg"},{"bike_id":"588c79e3-e517-4323-9b2b-70e57fea21a6","system_id":"levelo_inurba_marseille","lat":43.27376,"lon":5.36258,"is_reserved":false,"is_disabled":false,"rental_uris":{"android":"levelo://app?vid=588c79e3-e517-4323-9b2b-70e57fea21a6","ios":"levelo://app?vid=588c79e3-e517-4323-9b2b-70e57fea21a6"},"vehicle_type_id":"4","last_reported":1747325606,"current_range_meters":6400,"station_id":"ce4bhbh2rcd13ifvqeo0","pricing_plan_id":"cebpf4jnsgd1na2vs0mg"},{"bike_id":"e5c6e2fe-a072-4a17-88fe-23207f7eb982","system_id":"levelo_inurba_marseille","lat":43.28632,"lon":5.35111,"is_reserved":false,"is_disabled":false,"rental_uris":{"android":"levelo://app?vid=e5c6e2fe-a072-4a17-88fe-23207f7eb982","ios":"levelo://app?vid=e5c6e2fe-a072-4a17-88fe-23207f7eb982"},"vehicle_type_id":"4","last_reported":1747325606,"current_range_meters":6400,"station_id":"ce4bhch2rcd13ifvqeug","pricing_plan_id":"cebpf4jnsgd1na2vs0mg"},{"bike_id":"253bf9bb-2dc6-4881-ad1f-7b8f38c55a66","system_id":"levelo_inurba_marseille","lat":43.26056,"lon":5.39397,"is_reserved":false,"is_disabled":false,"rental_uris":{"android":"levelo://app?vid=253bf9bb-2dc6-4881-ad1f-7b8f38c55a66","ios":"levelo://app?vid=253bf9bb-2dc6-4881-ad1f-7b8f38c55a66"},"vehicle_type_id":"4","last_reported":1747325606,"current_range_meters":6400,"station_id":"ce4bhh92rcd13ifvqfj0","pricing_plan_id":"cebpf4jnsgd1na2vs0mg"},{"bike_id":"85bb37dc-8847-45ab-bb1b-a33f84600219","system_id":"levelo_inurba_marseille","lat":43.23965,"lon":5.36685,"is_reserved":false,"is_disabled":false,"rental_uris":{"android":"levelo://app?vid=85bb37dc-8847-45ab-bb1b-a33f84600219","ios":"levelo://app?vid=85bb37dc-8847-45ab-bb1b-a33f84600219"},"vehicle_type_id":"4","last_reported":1747325606,"current_range_meters":6800,"station_id":"","pricing_plan_id":"cebpf4jnsgd1na2vs0mg"},{"bike_id":"5c173b8d-ccf9-42b2-a1d7-e26d3228c539","system_id":"levelo_inurba_marseille","lat":43.28716,"lon":5.37933,"is_reserved":false,"is_disabled":false,"rental_uris":{"android":"levelo://app?vid=5c173b8d-ccf9-42b2-a1d7-e26d3228c539","ios":"levelo://app?vid=5c173b8d-ccf9-42b2-a1d7-e26d3228c539"},"vehicle_type_id":"4","last_reported":1747325606,"current_range_meters":6800,"station_id":"ce4bh9p2rcd13ifvqec0","pricing_plan_id":"cebpf4jnsgd1na2vs0mg"},{"bike_id":"ab8036d8-786a-4078-a5e3-0decf11e2f6d","system_id":"levelo_inurba_marseille","lat":43.29195,"lon":5.35801,"is_reserved":false,"is_disabled":false,"rental_uris":{"android":"levelo://app?vid=ab8036d8-786a-4078-a5e3-0decf11e2f6d","ios":"levelo://app?vid=ab8036d8-786a-4078-a5e3-0decf11e2f6d"},"vehicle_type_id":"4","last_reported":1747325606,"current_range_meters":6800,"station_id":"ce4bhb12rcd13ifvqel0","pricing_plan_id":"cebpf4jnsgd1na2vs0mg"},{"bike_id":"b8ad0f74-df22-4963-8265-dc232b1fcb91","system_id":"levelo_inurba_marseille","lat":43.28414,"lon":5.34981,"is_reserved":false,"is_disabled":false,"rental_uris":{"android":"levelo://app?vid=b8ad0f74-df22-4963-8265-dc232b1fcb91","ios":"levelo://app?vid=b8ad0f74-df22-4963-8265-dc232b1fcb91"},"vehicle_type_id":"4","last_reported":1747325606,"current_range_meters":6800,"station_id":"ce4bhbh2rcd13ifvqepg","pricing_plan_id":"cebpf4jnsgd1na2vs0mg"},{"bike_id":"dc219803-a80a-4559-a109-9cc24d6562b5","system_id":"levelo_inurba_marseille","lat":43.28611,"lon":5.35104,"is_reserved":false,"is_disabled":false,"rental_uris":{"android":"levelo://app?vid=dc219803-a80a-4559-a109-9cc24d6562b5","ios":"levelo://app?vid=dc219803-a80a-4559-a109-9cc24d6562b5"},"vehicle_type_id":"4","last_reported":1747325606,"current_range_meters":6800,"station_id":"ce4bhch2rcd13ifvqeug","pricing_plan_id":"cebpf4jnsgd1na2vs0mg"},{"bike_id":"8e3f6d5b-3b3e-4666-96e9-19f97408bb0c","system_id":"levelo_inurba_marseille","lat":43.26563,"lon":5.39001,"is_reserved":false,"is_disabled":false,"rental_uris":{"android":"levelo://app?vid=8e3f6d5b-3b3e-4666-96e9-19f97408bb0c","ios":"levelo://app?vid=8e3f6d5b-3b3e-4666-96e9-19f97408bb0c"},"vehicle_type_id":"4","last_reported":1747325606,"current_range_meters":6800,"station_id":"ce4bhe12rcd13ifvqf30","pricing_plan_id":"cebpf4jnsgd1na2vs0mg"},{"bike_id":"817ccb76-9a5b-4bdd-8451-b15584b8e801","system_id":"levelo_inurba_marseille","lat":43.29573,"lon":5.3752,"is_reserved":false,"is_disabled":false,"rental_uris":{"android":"levelo://app?vid=817ccb76-9a5b-4bdd-8451-b15584b8e801","ios":"levelo://app?vid=817ccb76-9a5b-4bdd-8451-b15584b8e801"},"vehicle_type_id":"4","last_reported":1747325606,"current_range_meters":7200,"station_id":"ce4bgh92rcd13ifvqb50","pricing_plan_id":"cebpf4jnsgd1na2vs0mg"},{"bike_id":"0879446b-b8ed-4b78-99ee-34328427e22f","system_id":"levelo_inurba_marseille","lat":43.31707,"lon":5.37775,"is_reserved":false,"is_disabled":false,"rental_uris":{"android":"levelo://app?vid=0879446b-b8ed-4b78-99ee-34328427e22f","ios":"levelo://app?vid=0879446b-b8ed-4b78-99ee-34328427e22f"},"vehicle_type_id":"4","last_reported":1747325606,"current_range_meters":7200,"station_id":"ce4bgth2rcd13ifvqch0","pricing_plan_id":"cebpf4jnsgd1na2vs0mg"},{"bike_id":"f9b73a23-9523-4b4c-a395-6476de3c6ca3","system_id":"levelo_inurba_marseille","lat":43.25085,"lon":5.39525,"is_reserved":false,"is_disabled":false,"rental_uris":{"android":"levelo://app?vid=f9b73a23-9523-4b4c-a395-6476de3c6ca3","ios":"levelo://app?vid=f9b73a23-9523-4b4c-a395-6476de3c6ca3"},"vehicle_type_id":"4","last_reported":1747325606,"current_range_meters":7200,"station_id":"ce4bhm12rcd13ifvqgkg","pricing_plan_id":"cebpf4jnsgd1na2vs0mg"},{"bike_id":"73e45504-acc6-4e40-b247-196b99b8972f","system_id":"levelo_inurba_marseille","lat":43.27813,"lon":5.40706,"is_reserved":false,"is_disabled":false,"rental_uris":{"android":"levelo://app?vid=73e45504-acc6-4e40-b247-196b99b8972f","ios":"levelo://app?vid=73e45504-acc6-4e40-b247-196b99b8972f"},"vehicle_type_id":"4","last_reported":1747325606,"current_range_meters":7200,"station_id":"ce4bhnh2rcd13ifvqgtg","pricing_plan_id":"cebpf4jnsgd1na2vs0mg"},{"bike_id":"3a9cca28-102a-49eb-8d61-5ffeaa3be282","system_id":"levelo_inurba_marseille","lat":43.3172,"lon":5.42394,"is_reserved":false,"is_disabled":false,"rental_uris":{"android":"levelo://app?vid=3a9cca28-102a-49eb-8d61-5ffeaa3be282","ios":"levelo://app?vid=3a9cca28-102a-49eb-8d61-5ffeaa3be282"},"vehicle_type_id":"4","last_reported":1747325606,"current_range_meters":7200,"station_id":"ce4bhp92rcd13ifvqhbg","pricing_plan_id":"cebpf4jnsgd1na2vs0mg"},{"bike_id":"e3faef6f-635a-4b6b-b2b3-c0b918604df6","system_id":"levelo_inurba_marseille","lat":43.299129,"lon":5.436621,"is_reserved":false,"is_disabled":false,"rental_uris":{"android":"levelo://app?vid=e3faef6f-635a-4b6b-b2b3-c0b918604df6","ios":"levelo://app?vid=e3faef6f-635a-4b6b-b2b3-c0b918604df6"},"vehicle_type_id":"4","last_reported":1747325606,"current_range_meters":7200,"station_id":"ce4bhpp2rcd13ifvqhfg","pricing_plan_id":"cebpf4jnsgd1na2vs0mg"},{"bike_id":"28651c50-c312-4e9b-9ea0-52469931260c","system_id":"levelo_inurba_marseille","lat":43.29065,"lon":5.37151,"is_reserved":false,"is_disabled":false,"rental_uris":{"android":"levelo://app?vid=28651c50-c312-4e9b-9ea0-52469931260c","ios":"levelo://app?vid=28651c50-c312-4e9b-9ea0-52469931260c"},"vehicle_type_id":"4","last_reported":1747325606,"current_range_meters":8000,"station_id":"ce4bh5p2rcd13ifvqe4g","pricing_plan_id":"cebpf4jnsgd1na2vs0mg"},{"bike_id":"1d774fd4-d9fe-42e0-b701-37196646cbb9","system_id":"levelo_inurba_marseille","lat":43.28417,"lon":5.34983,"is_reserved":false,"is_disabled":false,"rental_uris":{"android":"levelo://app?vid=1d774fd4-d9fe-42e0-b701-37196646cbb9","ios":"levelo://app?vid=1d774fd4-d9fe-42e0-b701-37196646cbb9"},"vehicle_type_id":"4","last_reported":1747325606,"current_range_meters":8000,"station_id":"ce4bhbh2rcd13ifvqepg","pricing_plan_id":"cebpf4jnsgd1na2vs0mg"},{"bike_id":"a57ede3b-406c-4436-84ed-1a4cfc8f8aa7","system_id":"levelo_inurba_marseille","lat":43.25084,"lon":5.39524,"is_reserved":false,"is_disabled":false,"rental_uris":{"android":"levelo://app?vid=a57ede3b-406c-4436-84ed-1a4cfc8f8aa7","ios":"levelo://app?vid=a57ede3b-406c-4436-84ed-1a4cfc8f8aa7"},"vehicle_type_id":"4","last_reported":1747325606,"current_range_meters":8000,"station_id":"ce4bhm12rcd13ifvqgkg","pricing_plan_id":"cebpf4jnsgd1na2vs0mg"},{"bike_id":"2e682a4e-fdbc-4953-bdc6-67fc7dfd0439","system_id":"levelo_inurba_marseille","lat":43.28029,"lon":5.36946,"is_reserved":false,"is_disabled":false,"rental_uris":{"android":"levelo://app?vid=2e682a4e-fdbc-4953-bdc6-67fc7dfd0439","ios":"levelo://app?vid=2e682a4e-fdbc-4953-bdc6-67fc7dfd0439"},"vehicle_type_id":"4","last_reported":1747325606,"current_range_meters":8400,"station_id":"ce4bha12rcd13ifvqef0","pricing_plan_id":"cebpf4jnsgd1na2vs0mg"},{"bike_id":"0c4d88aa-d524-4ae2-bf44-37a32f7f889d","system_id":"levelo_inurba_marseille","lat":43.28611,"lon":5.351,"is_reserved":false,"is_disabled":false,"rental_uris":{"android":"levelo://app?vid=0c4d88aa-d524-4ae2-bf44-37a32f7f889d","ios":"levelo://app?vid=0c4d88aa-d524-4ae2-bf44-37a32f7f889d"},"vehicle_type_id":"4","last_reported":1747325606,"current_range_meters":8400,"station_id":"ce4bhch2rcd13ifvqeug","pricing_plan_id":"cebpf4jnsgd1na2vs0mg"},{"bike_id":"aad64605-29f8-4bd1-a5ca-7e03dec72c55","system_id":"levelo_inurba_marseille","lat":43.28732,"lon":5.36085,"is_reserved":false,"is_disabled":false,"rental_uris":{"android":"levelo://app?vid=aad64605-29f8-4bd1-a5ca-7e03dec72c55","ios":"levelo://app?vid=aad64605-29f8-4bd1-a5ca-7e03dec72c55"},"vehicle_type_id":"4","last_reported":1747325606,"current_range_meters":8400,"station_id":"cki0cbj6b192h4jlfktg","pricing_plan_id":"cebpf4jnsgd1na2vs0mg"},{"bike_id":"17a8dab2-c26e-4b21-aba1-f468aa9b3f43","system_id":"levelo_inurba_marseille","lat":43.27361,"lon":5.36252,"is_reserved":false,"is_disabled":false,"rental_uris":{"android":"levelo://app?vid=17a8dab2-c26e-4b21-aba1-f468aa9b3f43","ios":"levelo://app?vid=17a8dab2-c26e-4b21-aba1-f468aa9b3f43"},"vehicle_type_id":"4","last_reported":1747325606,"current_range_meters":8800,"station_id":"ce4bhbh2rcd13ifvqeo0","pricing_plan_id":"cebpf4jnsgd1na2vs0mg"},{"bike_id":"0a1a1b3c-3481-4ca3-a842-8cf66bddd457","system_id":"levelo_inurba_marseille","lat":43.27377,"lon":5.36257,"is_reserved":false,"is_disabled":false,"rental_uris":{"android":"levelo://app?vid=0a1a1b3c-3481-4ca3-a842-8cf66bddd457","ios":"levelo://app?vid=0a1a1b3c-3481-4ca3-a842-8cf66bddd457"},"vehicle_type_id":"4","last_reported":1747325606,"current_range_meters":8800,"station_id":"ce4bhbh2rcd13ifvqeo0","pricing_plan_id":"cebpf4jnsgd1na2vs0mg"},{"bike_id":"072e0c3f-7afc-4ffc-b641-5a717c7e8260","system_id":"levelo_inurba_marseille","lat":43.24641,"lon":5.38893,"is_reserved":false,"is_disabled":false,"rental_uris":{"android":"levelo://app?vid=072e0c3f-7afc-4ffc-b641-5a717c7e8260","ios":"levelo://app?vid=072e0c3f-7afc-4ffc-b641-5a717c7e8260"},"vehicle_type_id":"4","last_reported":1747325606,"current_range_meters":8800,"station_id":"ce4bhg12rcd13ifvqf60","pricing_plan_id":"cebpf4jnsgd1na2vs0mg"},{"bike_id":"30195902-790b-4883-87e4-19638a26e229","system_id":"levelo_inurba_marseille","lat":43.23177,"lon":5.39981,"is_reserved":false,"is_disabled":false,"rental_uris":{"android":"levelo://app?vid=30195902-790b-4883-87e4-19638a26e229","ios":"levelo://app?vid=30195902-790b-4883-87e4-19638a26e229"},"vehicle_type_id":"4","last_reported":1747325606,"current_range_meters":8800,"station_id":"ce4bhn12rcd13ifvqgqg","pricing_plan_id":"cebpf4jnsgd1na2vs0mg"},{"bike_id":"7cad8bbf-afe9-4767-8543-3e633fd367b9","system_id":"levelo_inurba_marseille","lat":43.278094,"lon":5.407068,"is_reserved":false,"is_disabled":false,"rental_uris":{"android":"levelo://app?vid=7cad8bbf-afe9-4767-8543-3e633fd367b9","ios":"levelo://app?vid=7cad8bbf-afe9-4767-8543-3e633fd367b9"},"vehicle_type_id":"4","last_reported":1747325606,"current_range_meters":8800,"station_id":"ce4bhnh2rcd13ifvqgtg","pricing_plan_id":"cebpf4jnsgd1na2vs0mg"},{"bike_id":"0cde6bf3-0c24-4b3b-93c2-78b0a0e8f85c","system_id":"levelo_inurba_marseille","lat":43.32651,"lon":5.40972,"is_reserved":false,"is_disabled":false,"rental_uris":{"android":"levelo://app?vid=0cde6bf3-0c24-4b3b-93c2-78b0a0e8f85c","ios":"levelo://app?vid=0cde6bf3-0c24-4b3b-93c2-78b0a0e8f85c"},"vehicle_type_id":"4","last_reported":1747325606,"current_range_meters":8800,"station_id":"ce4bhpp2rcd13ifvqhgg","pricing_plan_id":"cebpf4jnsgd1na2vs0mg"},{"bike_id":"faa43874-42fe-4ff4-ba5e-fdf5f2e64271","system_id":"levelo_inurba_marseille","lat":43.32482,"lon":5.36549,"is_reserved":false,"is_disabled":false,"rental_uris":{"android":"levelo://app?vid=faa43874-42fe-4ff4-ba5e-fdf5f2e64271","ios":"levelo://app?vid=faa43874-42fe-4ff4-ba5e-fdf5f2e64271"},"vehicle_type_id":"4","last_reported":1747325606,"current_range_meters":8800,"station_id":"ce4bhs12rcd13ifvqhvg","pricing_plan_id":"cebpf4jnsgd1na2vs0mg"},{"bike_id":"1081fd72-513a-49bc-8f25-a0b3e6d1db9e","system_id":"levelo_inurba_marseille","lat":43.29437,"lon":5.39753,"is_reserved":false,"is_disabled":false,"rental_uris":{"android":"levelo://app?vid=1081fd72-513a-49bc-8f25-a0b3e6d1db9e","ios":"levelo://app?vid=1081fd72-513a-49bc-8f25-a0b3e6d1db9e"},"vehicle_type_id":"4","last_reported":1747325606,"current_range_meters":9200,"station_id":"ce4bh3h2rcd13ifvqdo0","pricing_plan_id":"cebpf4jnsgd1na2vs0mg"},{"bike_id":"2d37f806-56b2-4d18-8138-8e9deece46bd","system_id":"levelo_inurba_marseille","lat":43.28631,"lon":5.351036,"is_reserved":false,"is_disabled":false,"rental_uris":{"android":"levelo://app?vid=2d37f806-56b2-4d18-8138-8e9deece46bd","ios":"levelo://app?vid=2d37f806-56b2-4d18-8138-8e9deece46bd"},"vehicle_type_id":"4","last_reported":1747325606,"current_range_meters":9200,"station_id":"ce4bhch2rcd13ifvqeug","pricing_plan_id":"cebpf4jnsgd1na2vs0mg"},{"bike_id":"cbd2d1ed-1fc6-4d14-8b04-8f820d167ee0","system_id":"levelo_inurba_marseille","lat":43.2655,"lon":5.372897,"is_reserved":false,"is_disabled":false,"rental_uris":{"android":"levelo://app?vid=cbd2d1ed-1fc6-4d14-8b04-8f820d167ee0","ios":"levelo://app?vid=cbd2d1ed-1fc6-4d14-8b04-8f820d167ee0"},"vehicle_type_id":"4","last_reported":1747325606,"current_range_meters":9200,"station_id":"ce4bhg12rcd13ifvqf70","pricing_plan_id":"cebpf4jnsgd1na2vs0mg"},{"bike_id":"414d56c9-f1a7-4e20-9c42-836e3990fabb","system_id":"levelo_inurba_marseille","lat":43.22932,"lon":5.35374,"is_reserved":false,"is_disabled":false,"rental_uris":{"android":"levelo://app?vid=414d56c9-f1a7-4e20-9c42-836e3990fabb","ios":"levelo://app?vid=414d56c9-f1a7-4e20-9c42-836e3990fabb"},"vehicle_type_id":"4","last_reported":1747325606,"current_range_meters":9200,"station_id":"cpo3532slgdg3j2ikp40","pricing_plan_id":"cebpf4jnsgd1na2vs0mg"},{"bike_id":"827adc3c-2abb-4b17-8a83-427b677e1af2","system_id":"levelo_inurba_marseille","lat":43.27622,"lon":5.36117,"is_reserved":false,"is_disabled":false,"rental_uris":{"android":"levelo://app?vid=827adc3c-2abb-4b17-8a83-427b677e1af2","ios":"levelo://app?vid=827adc3c-2abb-4b17-8a83-427b677e1af2"},"vehicle_type_id":"4","last_reported":1747325606,"current_range_meters":9600,"station_id":"ce4bgj92rcd13ifvqbe0","pricing_plan_id":"cebpf4jnsgd1na2vs0mg"},{"bike_id":"0f3d78b5-d474-45ec-974c-32fc1c93c162","system_id":"levelo_inurba_marseille","lat":43.32429,"lon":5.38885,"is_reserved":false,"is_disabled":false,"rental_uris":{"android":"levelo://app?vid=0f3d78b5-d474-45ec-974c-32fc1c93c162","ios":"levelo://app?vid=0f3d78b5-d474-45ec-974c-32fc1c93c162"},"vehicle_type_id":"4","last_reported":1747325606,"current_range_meters":10000,"station_id":"","pricing_plan_id":"cebpf4jnsgd1na2vs0mg"},{"bike_id":"5fbcd3a8-5fba-4859-a6da-5a3b617f4707","system_id":"levelo_inurba_marseille","lat":43.24153,"lon":5.36474,"is_reserved":false,"is_disabled":false,"rental_uris":{"android":"levelo://app?vid=5fbcd3a8-5fba-4859-a6da-5a3b617f4707","ios":"levelo://app?vid=5fbcd3a8-5fba-4859-a6da-5a3b617f4707"},"vehicle_type_id":"4","last_reported":1747325606,"current_range_meters":10000,"station_id":"","pricing_plan_id":"cebpf4jnsgd1na2vs0mg"},{"bike_id":"0077f398-56b6-43bb-8eeb-9798d08de05c","system_id":"levelo_inurba_marseille","lat":43.30917,"lon":5.37249,"is_reserved":false,"is_disabled":false,"rental_uris":{"android":"levelo://app?vid=0077f398-56b6-43bb-8eeb-9798d08de05c","ios":"levelo://app?vid=0077f398-56b6-43bb-8eeb-9798d08de05c"},"vehicle_type_id":"4","last_reported":1747325606,"current_range_meters":10000,"station_id":"","pricing_plan_id":"cebpf4jnsgd1na2vs0mg"},{"bike_id":"55697a48-9aaa-468a-9813-6afc6f45d640","system_id":"levelo_inurba_marseille","lat":43.27628,"lon":5.36128,"is_reserved":false,"is_disabled":false,"rental_uris":{"android":"levelo://app?vid=55697a48-9aaa-468a-9813-6afc6f45d640","ios":"levelo://app?vid=55697a48-9aaa-468a-9813-6afc6f45d640"},"vehicle_type_id":"4","last_reported":1747325606,"current_range_meters":10000,"station_id":"ce4bgj92rcd13ifvqbe0","pricing_plan_id":"cebpf4jnsgd1na2vs0mg"},{"bike_id":"49d1878f-2987-49e9-a0f9-26eb20969e4e","system_id":"levelo_inurba_marseille","lat":43.31351,"lon":5.385,"is_reserved":false,"is_disabled":false,"rental_uris":{"android":"levelo://app?vid=49d1878f-2987-49e9-a0f9-26eb20969e4e","ios":"levelo://app?vid=49d1878f-2987-49e9-a0f9-26eb20969e4e"},"vehicle_type_id":"4","last_reported":1747325606,"current_range_meters":10000,"station_id":"ce4bgt92rcd13ifvqcf0","pricing_plan_id":"cebpf4jnsgd1na2vs0mg"},{"bike_id":"a508b0d8-686f-4e2c-b56b-be9df287c5ef","system_id":"levelo_inurba_marseille","lat":43.30322,"lon":5.40434,"is_reserved":false,"is_disabled":false,"rental_uris":{"android":"levelo://app?vid=a508b0d8-686f-4e2c-b56b-be9df287c5ef","ios":"levelo://app?vid=a508b0d8-686f-4e2c-b56b-be9df287c5ef"},"vehicle_type_id":"4","last_reported":1747325606,"current_range_meters":10000,"station_id":"ce4bh012rcd13ifvqd10","pricing_plan_id":"cebpf4jnsgd1na2vs0mg"},{"bike_id":"4043314e-7fa3-4b5e-a22a-f71d7ddb2560","system_id":"levelo_inurba_marseille","lat":43.29223,"lon":5.36076,"is_reserved":false,"is_disabled":false,"rental_uris":{"android":"levelo://app?vid=4043314e-7fa3-4b5e-a22a-f71d7ddb2560","ios":"levelo://app?vid=4043314e-7fa3-4b5e-a22a-f71d7ddb2560"},"vehicle_type_id":"4","last_reported":1747325606,"current_range_meters":10000,"station_id":"ce4bhbh2rcd13ifvqeqg","pricing_plan_id":"cebpf4jnsgd1na2vs0mg"},{"bike_id":"8c7308bf-84fd-4edb-9b86-07fbeaf5e51b","system_id":"levelo_inurba_marseille","lat":43.3173,"lon":5.42447,"is_reserved":false,"is_disabled":false,"rental_uris":{"android":"levelo://app?vid=8c7308bf-84fd-4edb-9b86-07fbeaf5e51b","ios":"levelo://app?vid=8c7308bf-84fd-4edb-9b86-07fbeaf5e51b"},"vehicle_type_id":"4","last_reported":1747325606,"current_range_meters":10000,"station_id":"ce4bhp92rcd13ifvqhbg","pricing_plan_id":"cebpf4jnsgd1na2vs0mg"},{"bike_id":"902c3167-105b-4699-b317-e21c74fee998","system_id":"levelo_inurba_marseille","lat":43.29561,"lon":5.42299,"is_reserved":false,"is_disabled":false,"rental_uris":{"android":"levelo://app?vid=902c3167-105b-4699-b317-e21c74fee998","ios":"levelo://app?vid=902c3167-105b-4699-b317-e21c74fee998"},"vehicle_type_id":"4","last_reported":1747325606,"current_range_meters":10000,"station_id":"ce4bhph2rcd13ifvqhdg","pricing_plan_id":"cebpf4jnsgd1na2vs0mg"},{"bike_id":"3961dd37-2a97-41a8-85af-1fd7468a063c","system_id":"levelo_inurba_marseille","lat":43.241668,"lon":5.364012,"is_reserved":false,"is_disabled":false,"rental_uris":{"android":"levelo://app?vid=3961dd37-2a97-41a8-85af-1fd7468a063c","ios":"levelo://app?vid=3961dd37-2a97-41a8-85af-1fd7468a063c"},"vehicle_type_id":"4","last_reported":1747325606,"current_range_meters":10000,"station_id":"cpo36qri1sfpv3e86is0","pricing_plan_id":"cebpf4jnsgd1na2vs0mg"},{"bike_id":"2a75718a-3cec-403c-9108-b93a3eeb1f69","system_id":"levelo_inurba_marseille","lat":43.29437,"lon":5.39753,"is_reserved":false,"is_disabled":false,"rental_uris":{"android":"levelo://app?vid=2a75718a-3cec-403c-9108-b93a3eeb1f69","ios":"levelo://app?vid=2a75718a-3cec-403c-9108-b93a3eeb1f69"},"vehicle_type_id":"4","last_reported":1747325606,"current_range_meters":10800,"station_id":"ce4bh3h2rcd13ifvqdo0","pricing_plan_id":"cebpf4jnsgd1na2vs0mg"},{"bike_id":"e87f7a61-fbc4-4422-9a2a-c2ffa98ae88f","system_id":"levelo_inurba_marseille","lat":43.28028,"lon":5.3692,"is_reserved":false,"is_disabled":false,"rental_uris":{"android":"levelo://app?vid=e87f7a61-fbc4-4422-9a2a-c2ffa98ae88f","ios":"levelo://app?vid=e87f7a61-fbc4-4422-9a2a-c2ffa98ae88f"},"vehicle_type_id":"4","last_reported":1747325606,"current_range_meters":10800,"station_id":"ce4bha12rcd13ifvqef0","pricing_plan_id":"cebpf4jnsgd1na2vs0mg"},{"bike_id":"475a0baf-0176-427b-83bf-7567ee21e493","system_id":"levelo_inurba_marseille","lat":43.28615,"lon":5.35107,"is_reserved":false,"is_disabled":false,"rental_uris":{"android":"levelo://app?vid=475a0baf-0176-427b-83bf-7567ee21e493","ios":"levelo://app?vid=475a0baf-0176-427b-83bf-7567ee21e493"},"vehicle_type_id":"4","last_reported":1747325606,"current_range_meters":10800,"station_id":"ce4bhch2rcd13ifvqeug","pricing_plan_id":"cebpf4jnsgd1na2vs0mg"},{"bike_id":"bee35244-ec95-4b3d-8fae-96abe913294a","system_id":"levelo_inurba_marseille","lat":43.28634,"lon":5.35098,"is_reserved":false,"is_disabled":false,"rental_uris":{"android":"levelo://app?vid=bee35244-ec95-4b3d-8fae-96abe913294a","ios":"levelo://app?vid=bee35244-ec95-4b3d-8fae-96abe913294a"},"vehicle_type_id":"4","last_reported":1747325606,"current_range_meters":10800,"station_id":"ce4bhch2rcd13ifvqeug","pricing_plan_id":"cebpf4jnsgd1na2vs0mg"},{"bike_id":"eb10083c-21bd-4ca9-b047-2bc0b1de772a","system_id":"levelo_inurba_marseille","lat":43.26207,"lon":5.37445,"is_reserved":false,"is_disabled":false,"rental_uris":{"android":"levelo://app?vid=eb10083c-21bd-4ca9-b047-2bc0b1de772a","ios":"levelo://app?vid=eb10083c-21bd-4ca9-b047-2bc0b1de772a"},"vehicle_type_id":"4","last_reported":1747325606,"current_range_meters":10800,"station_id":"ce4bhgp2rcd13ifvqfc0","pricing_plan_id":"cebpf4jnsgd1na2vs0mg"},{"bike_id":"75be893b-7ddb-4c6b-9864-9bdbae13f755","system_id":"levelo_inurba_marseille","lat":43.25496,"lon":5.376494,"is_reserved":false,"is_disabled":false,"rental_uris":{"android":"levelo://app?vid=75be893b-7ddb-4c6b-9864-9bdbae13f755","ios":"levelo://app?vid=75be893b-7ddb-4c6b-9864-9bdbae13f755"},"vehicle_type_id":"4","last_reported":1747325606,"current_range_meters":10800,"station_id":"ce4bhh12rcd13ifvqff0","pricing_plan_id":"cebpf4jnsgd1na2vs0mg"},{"bike_id":"3fb5f920-c4e1-4e5e-9dcc-cde44dc55c85","system_id":"levelo_inurba_marseille","lat":43.23176,"lon":5.39988,"is_reserved":false,"is_disabled":false,"rental_uris":{"android":"levelo://app?vid=3fb5f920-c4e1-4e5e-9dcc-cde44dc55c85","ios":"levelo://app?vid=3fb5f920-c4e1-4e5e-9dcc-cde44dc55c85"},"vehicle_type_id":"4","last_reported":1747325606,"current_range_meters":10800,"station_id":"ce4bhn12rcd13ifvqgqg","pricing_plan_id":"cebpf4jnsgd1na2vs0mg"},{"bike_id":"89241579-3dbf-4607-93cd-4d65346977ad","system_id":"levelo_inurba_marseille","lat":43.29225,"lon":5.36068,"is_reserved":false,"is_disabled":false,"rental_uris":{"android":"levelo://app?vid=89241579-3dbf-4607-93cd-4d65346977ad","ios":"levelo://app?vid=89241579-3dbf-4607-93cd-4d65346977ad"},"vehicle_type_id":"4","last_reported":1747325606,"current_range_meters":11200,"station_id":"ce4bhbh2rcd13ifvqeqg","pricing_plan_id":"cebpf4jnsgd1na2vs0mg"},{"bike_id":"f768f02c-a770-46ed-b9fb-ed1e435a3c0f","system_id":"levelo_inurba_marseille","lat":43.32405,"lon":5.39085,"is_reserved":false,"is_disabled":false,"rental_uris":{"android":"levelo://app?vid=f768f02c-a770-46ed-b9fb-ed1e435a3c0f","ios":"levelo://app?vid=f768f02c-a770-46ed-b9fb-ed1e435a3c0f"},"vehicle_type_id":"4","last_reported":1747325606,"current_range_meters":11600,"station_id":"","pricing_plan_id":"cebpf4jnsgd1na2vs0mg"},{"bike_id":"a90d3265-233f-4139-bf26-a0b96e080fe6","system_id":"levelo_inurba_marseille","lat":43.30132,"lon":5.38786,"is_reserved":false,"is_disabled":false,"rental_uris":{"android":"levelo://app?vid=a90d3265-233f-4139-bf26-a0b96e080fe6","ios":"levelo://app?vid=a90d3265-233f-4139-bf26-a0b96e080fe6"},"vehicle_type_id":"4","last_reported":1747325606,"current_range_meters":11600,"station_id":"ce4bghh2rcd13ifvqb60","pricing_plan_id":"cebpf4jnsgd1na2vs0mg"},{"bike_id":"d4cc74c7-9aae-494a-a194-69b2f1728c73","system_id":"levelo_inurba_marseille","lat":43.24389,"lon":5.37063,"is_reserved":false,"is_disabled":false,"rental_uris":{"android":"levelo://app?vid=d4cc74c7-9aae-494a-a194-69b2f1728c73","ios":"levelo://app?vid=d4cc74c7-9aae-494a-a194-69b2f1728c73"},"vehicle_type_id":"4","last_reported":1747325606,"current_range_meters":11600,"station_id":"ce4bhhh2rcd13ifvqfk0","pricing_plan_id":"cebpf4jnsgd1na2vs0mg"},{"bike_id":"bced6cd2-86d8-40a3-9c33-072037d198a0","system_id":"levelo_inurba_marseille","lat":43.2815,"lon":5.42645,"is_reserved":false,"is_disabled":false,"rental_uris":{"android":"levelo://app?vid=bced6cd2-86d8-40a3-9c33-072037d198a0","ios":"levelo://app?vid=bced6cd2-86d8-40a3-9c33-072037d198a0"},"vehicle_type_id":"4","last_reported":1747325606,"current_range_meters":11600,"station_id":"ce4bhnh2rcd13ifvqgug","pricing_plan_id":"cebpf4jnsgd1na2vs0mg"},{"bike_id":"f19d70aa-4768-4d6c-bad8-48f1edf5252c","system_id":"levelo_inurba_marseille","lat":43.31715,"lon":5.42413,"is_reserved":false,"is_disabled":false,"rental_uris":{"android":"levelo://app?vid=f19d70aa-4768-4d6c-bad8-48f1edf5252c","ios":"levelo://app?vid=f19d70aa-4768-4d6c-bad8-48f1edf5252c"},"vehicle_type_id":"4","last_reported":1747325606,"current_range_meters":11600,"station_id":"ce4bhp92rcd13ifvqhbg","pricing_plan_id":"cebpf4jnsgd1na2vs0mg"},{"bike_id":"94425245-09df-4108-9a30-610dbcaf2585","system_id":"levelo_inurba_marseille","lat":43.317249,"lon":5.424015,"is_reserved":false,"is_disabled":false,"rental_uris":{"android":"levelo://app?vid=94425245-09df-4108-9a30-610dbcaf2585","ios":"levelo://app?vid=94425245-09df-4108-9a30-610dbcaf2585"},"vehicle_type_id":"4","last_reported":1747325606,"current_range_meters":11600,"station_id":"ce4bhp92rcd13ifvqhbg","pricing_plan_id":"cebpf4jnsgd1na2vs0mg"},{"bike_id":"f8708533-c882-424d-919c-8da02599e742","system_id":"levelo_inurba_marseille","lat":43.32385,"lon":5.38911,"is_reserved":false,"is_disabled":false,"rental_uris":{"android":"levelo://app?vid=f8708533-c882-424d-919c-8da02599e742","ios":"levelo://app?vid=f8708533-c882-424d-919c-8da02599e742"},"vehicle_type_id":"4","last_reported":1747325606,"current_range_meters":11600,"station_id":"ce4bhqp2rcd13ifvqhog","pricing_plan_id":"cebpf4jnsgd1na2vs0mg"},{"bike_id":"82c5b69c-ef24-449d-a4f4-d880da516401","system_id":"levelo_inurba_marseille","lat":43.29312,"lon":5.3717,"is_reserved":false,"is_disabled":false,"rental_uris":{"android":"levelo://app?vid=82c5b69c-ef24-449d-a4f4-d880da516401","ios":"levelo://app?vid=82c5b69c-ef24-449d-a4f4-d880da516401"},"vehicle_type_id":"4","last_reported":1747325606,"current_range_meters":12000,"station_id":"ce4bgh92rcd13ifvqb40","pricing_plan_id":"cebpf4jnsgd1na2vs0mg"},{"bike_id":"81b752c0-131f-4f8b-a8da-6b5059fa8071","system_id":"levelo_inurba_marseille","lat":43.30125,"lon":5.3986,"is_reserved":false,"is_disabled":false,"rental_uris":{"android":"levelo://app?vid=81b752c0-131f-4f8b-a8da-6b5059fa8071","ios":"levelo://app?vid=81b752c0-131f-4f8b-a8da-6b5059fa8071"},"vehicle_type_id":"4","last_reported":1747325606,"current_range_meters":12000,"station_id":"ce4bh0h2rcd13ifvqd40","pricing_plan_id":"cebpf4jnsgd1na2vs0mg"},{"bike_id":"8d5b6724-7418-474d-ad32-d0db32553bfa","system_id":"levelo_inurba_marseille","lat":43.28456,"lon":5.35883,"is_reserved":false,"is_disabled":false,"rental_uris":{"android":"levelo://app?vid=8d5b6724-7418-474d-ad32-d0db32553bfa","ios":"levelo://app?vid=8d5b6724-7418-474d-ad32-d0db32553bfa"},"vehicle_type_id":"4","last_reported":1747325606,"current_range_meters":12000,"station_id":"ce4bhah2rcd13ifvqei0","pricing_plan_id":"cebpf4jnsgd1na2vs0mg"},{"bike_id":"a31fecff-329f-4f3e-8188-a235594bfae7","system_id":"levelo_inurba_marseille","lat":43.28934,"lon":5.36635,"is_reserved":false,"is_disabled":false,"rental_uris":{"android":"levelo://app?vid=a31fecff-329f-4f3e-8188-a235594bfae7","ios":"levelo://app?vid=a31fecff-329f-4f3e-8188-a235594bfae7"},"vehicle_type_id":"4","last_reported":1747325606,"current_range_meters":12000,"station_id":"ce4bhap2rcd13ifvqek0","pricing_plan_id":"cebpf4jnsgd1na2vs0mg"},{"bike_id":"b3213bba-701f-4f8c-a546-5cef41e3d064","system_id":"levelo_inurba_marseille","lat":43.28415,"lon":5.34988,"is_reserved":false,"is_disabled":false,"rental_uris":{"android":"levelo://app?vid=b3213bba-701f-4f8c-a546-5cef41e3d064","ios":"levelo://app?vid=b3213bba-701f-4f8c-a546-5cef41e3d064"},"vehicle_type_id":"4","last_reported":1747325606,"current_range_meters":12000,"station_id":"ce4bhbh2rcd13ifvqepg","pricing_plan_id":"cebpf4jnsgd1na2vs0mg"},{"bike_id":"7ca27ade-492a-49ed-8a28-a3c3652d88f2","system_id":"levelo_inurba_marseille","lat":43.29226,"lon":5.36073,"is_reserved":false,"is_disabled":false,"rental_uris":{"android":"levelo://app?vid=7ca27ade-492a-49ed-8a28-a3c3652d88f2","ios":"levelo://app?vid=7ca27ade-492a-49ed-8a28-a3c3652d88f2"},"vehicle_type_id":"4","last_reported":1747325606,"current_range_meters":12000,"station_id":"ce4bhbh2rcd13ifvqeqg","pricing_plan_id":"cebpf4jnsgd1na2vs0mg"},{"bike_id":"57c6ce9e-d0ad-492f-b5f1-c92a1391417c","system_id":"levelo_inurba_marseille","lat":43.28616,"lon":5.35108,"is_reserved":false,"is_disabled":false,"rental_uris":{"android":"levelo://app?vid=57c6ce9e-d0ad-492f-b5f1-c92a1391417c","ios":"levelo://app?vid=57c6ce9e-d0ad-492f-b5f1-c92a1391417c"},"vehicle_type_id":"4","last_reported":1747325606,"current_range_meters":12000,"station_id":"ce4bhch2rcd13ifvqeug","pricing_plan_id":"cebpf4jnsgd1na2vs0mg"},{"bike_id":"5c9ae9ad-c61a-4a97-800c-bf7e38672a29","system_id":"levelo_inurba_marseille","lat":43.29532,"lon":5.38546,"is_reserved":false,"is_disabled":false,"rental_uris":{"android":"levelo://app?vid=5c9ae9ad-c61a-4a97-800c-bf7e38672a29","ios":"levelo://app?vid=5c9ae9ad-c61a-4a97-800c-bf7e38672a29"},"vehicle_type_id":"4","last_reported":1747325606,"current_range_meters":12400,"station_id":"ce4bgih2rcd13ifvqba0","pricing_plan_id":"cebpf4jnsgd1na2vs0mg"},{"bike_id":"9c4d9851-6543-4173-b61c-5b7e865f4a57","system_id":"levelo_inurba_marseille","lat":43.29566,"lon":5.39978,"is_reserved":false,"is_disabled":false,"rental_uris":{"android":"levelo://app?vid=9c4d9851-6543-4173-b61c-5b7e865f4a57","ios":"levelo://app?vid=9c4d9851-6543-4173-b61c-5b7e865f4a57"},"vehicle_type_id":"4","last_reported":1747325606,"current_range_meters":12400,"station_id":"ce4bh312rcd13ifvqdj0","pricing_plan_id":"cebpf4jnsgd1na2vs0mg"},{"bike_id":"e52494ed-992f-4886-99d5-0a13de980004","system_id":"levelo_inurba_marseille","lat":43.28418,"lon":5.35003,"is_reserved":false,"is_disabled":false,"rental_uris":{"android":"levelo://app?vid=e52494ed-992f-4886-99d5-0a13de980004","ios":"levelo://app?vid=e52494ed-992f-4886-99d5-0a13de980004"},"vehicle_type_id":"4","last_reported":1747325606,"current_range_meters":12400,"station_id":"ce4bhbh2rcd13ifvqepg","pricing_plan_id":"cebpf4jnsgd1na2vs0mg"},{"bike_id":"1ca372b2-144c-48a2-ac1f-4e82f694691e","system_id":"levelo_inurba_marseille","lat":43.28642,"lon":5.35106,"is_reserved":false,"is_disabled":false,"rental_uris":{"android":"levelo://app?vid=1ca372b2-144c-48a2-ac1f-4e82f694691e","ios":"levelo://app?vid=1ca372b2-144c-48a2-ac1f-4e82f694691e"},"vehicle_type_id":"4","last_reported":1747325606,"current_range_meters":12400,"station_id":"ce4bhch2rcd13ifvqeug","pricing_plan_id":"cebpf4jnsgd1na2vs0mg"},{"bike_id":"33d17d2d-2486-4980-aa2c-7493584bb31d","system_id":"levelo_inurba_marseille","lat":43.30654,"lon":5.40082,"is_reserved":false,"is_disabled":false,"rental_uris":{"android":"levelo://app?vid=33d17d2d-2486-4980-aa2c-7493584bb31d","ios":"levelo://app?vid=33d17d2d-2486-4980-aa2c-7493584bb31d"},"vehicle_type_id":"4","last_reported":1747325606,"current_range_meters":12800,"station_id":"ce4bh112rcd13ifvqda0","pricing_plan_id":"cebpf4jnsgd1na2vs0mg"},{"bike_id":"dc643886-ab96-41da-96d1-bd674f19bfdb","system_id":"levelo_inurba_marseille","lat":43.28625,"lon":5.35109,"is_reserved":false,"is_disabled":false,"rental_uris":{"android":"levelo://app?vid=dc643886-ab96-41da-96d1-bd674f19bfdb","ios":"levelo://app?vid=dc643886-ab96-41da-96d1-bd674f19bfdb"},"vehicle_type_id":"4","last_reported":1747325606,"current_range_meters":12800,"station_id":"ce4bhch2rcd13ifvqeug","pricing_plan_id":"cebpf4jnsgd1na2vs0mg"},{"bike_id":"a1ecb646-7500-4b70-85a4-02801de72f1c","system_id":"levelo_inurba_marseille","lat":43.30353,"lon":5.41877,"is_reserved":false,"is_disabled":false,"rental_uris":{"android":"levelo://app?vid=a1ecb646-7500-4b70-85a4-02801de72f1c","ios":"levelo://app?vid=a1ecb646-7500-4b70-85a4-02801de72f1c"},"vehicle_type_id":"4","last_reported":1747325606,"current_range_meters":12800,"station_id":"ce4bhop2rcd13ifvqh7g","pricing_plan_id":"cebpf4jnsgd1na2vs0mg"},{"bike_id":"6bcb23fc-8940-4163-930c-3054ec3eff23","system_id":"levelo_inurba_marseille","lat":43.30352,"lon":5.418743,"is_reserved":false,"is_disabled":false,"rental_uris":{"android":"levelo://app?vid=6bcb23fc-8940-4163-930c-3054ec3eff23","ios":"levelo://app?vid=6bcb23fc-8940-4163-930c-3054ec3eff23"},"vehicle_type_id":"4","last_reported":1747325606,"current_range_meters":12800,"station_id":"ce4bhop2rcd13ifvqh7g","pricing_plan_id":"cebpf4jnsgd1na2vs0mg"},{"bike_id":"dd5422d6-53cb-49fb-8efb-b898f8501e90","system_id":"levelo_inurba_marseille","lat":43.27609,"lon":5.36126,"is_reserved":false,"is_disabled":false,"rental_uris":{"android":"levelo://app?vid=dd5422d6-53cb-49fb-8efb-b898f8501e90","ios":"levelo://app?vid=dd5422d6-53cb-49fb-8efb-b898f8501e90"},"vehicle_type_id":"4","last_reported":1747325606,"current_range_meters":13600,"station_id":"ce4bgj92rcd13ifvqbe0","pricing_plan_id":"cebpf4jnsgd1na2vs0mg"},{"bike_id":"192e3fb0-ffd0-4ec9-ac55-106572f78d4f","system_id":"levelo_inurba_marseille","lat":43.284259,"lon":5.349786,"is_reserved":false,"is_disabled":false,"rental_uris":{"android":"levelo://app?vid=192e3fb0-ffd0-4ec9-ac55-106572f78d4f","ios":"levelo://app?vid=192e3fb0-ffd0-4ec9-ac55-106572f78d4f"},"vehicle_type_id":"4","last_reported":1747325606,"current_range_meters":13600,"station_id":"ce4bhbh2rcd13ifvqepg","pricing_plan_id":"cebpf4jnsgd1na2vs0mg"},{"bike_id":"2144daad-f343-41d9-999f-cf83786fc2e0","system_id":"levelo_inurba_marseille","lat":43.28268,"lon":5.35058,"is_reserved":false,"is_disabled":false,"rental_uris":{"android":"levelo://app?vid=2144daad-f343-41d9-999f-cf83786fc2e0","ios":"levelo://app?vid=2144daad-f343-41d9-999f-cf83786fc2e0"},"vehicle_type_id":"4","last_reported":1747325606,"current_range_meters":13600,"station_id":"ce4bhbp2rcd13ifvqerg","pricing_plan_id":"cebpf4jnsgd1na2vs0mg"},{"bike_id":"59576e81-0f19-4514-a47d-f8c875761719","system_id":"levelo_inurba_marseille","lat":43.28609,"lon":5.35089,"is_reserved":false,"is_disabled":false,"rental_uris":{"android":"levelo://app?vid=59576e81-0f19-4514-a47d-f8c875761719","ios":"levelo://app?vid=59576e81-0f19-4514-a47d-f8c875761719"},"vehicle_type_id":"4","last_reported":1747325606,"current_range_meters":13600,"station_id":"ce4bhch2rcd13ifvqeug","pricing_plan_id":"cebpf4jnsgd1na2vs0mg"},{"bike_id":"ba1c8dd7-3fc8-4330-850f-b5275d8a07e8","system_id":"levelo_inurba_marseille","lat":43.27995,"lon":5.40027,"is_reserved":false,"is_disabled":false,"rental_uris":{"android":"levelo://app?vid=ba1c8dd7-3fc8-4330-850f-b5275d8a07e8","ios":"levelo://app?vid=ba1c8dd7-3fc8-4330-850f-b5275d8a07e8"},"vehicle_type_id":"4","last_reported":1747325606,"current_range_meters":13600,"station_id":"ce4bho92rcd13ifvqh4g","pricing_plan_id":"cebpf4jnsgd1na2vs0mg"},{"bike_id":"027f72d8-88c3-409a-9f83-3afde0954f18","system_id":"levelo_inurba_marseille","lat":43.30278,"lon":5.39701,"is_reserved":false,"is_disabled":false,"rental_uris":{"android":"levelo://app?vid=027f72d8-88c3-409a-9f83-3afde0954f18","ios":"levelo://app?vid=027f72d8-88c3-409a-9f83-3afde0954f18"},"vehicle_type_id":"4","last_reported":1747325606,"current_range_meters":14000,"station_id":"","pricing_plan_id":"cebpf4jnsgd1na2vs0mg"},{"bike_id":"f8e4732a-2ecf-431c-8f66-abc7aabb8aa1","system_id":"levelo_inurba_marseille","lat":43.32397,"lon":5.39068,"is_reserved":false,"is_disabled":false,"rental_uris":{"android":"levelo://app?vid=f8e4732a-2ecf-431c-8f66-abc7aabb8aa1","ios":"levelo://app?vid=f8e4732a-2ecf-431c-8f66-abc7aabb8aa1"},"vehicle_type_id":"4","last_reported":1747325606,"current_range_meters":14000,"station_id":"","pricing_plan_id":"cebpf4jnsgd1na2vs0mg"},{"bike_id":"7ce5e1ac-9be3-43eb-acb8-09b301484188","system_id":"levelo_inurba_marseille","lat":43.29257,"lon":5.409,"is_reserved":false,"is_disabled":false,"rental_uris":{"android":"levelo://app?vid=7ce5e1ac-9be3-43eb-acb8-09b301484188","ios":"levelo://app?vid=7ce5e1ac-9be3-43eb-acb8-09b301484188"},"vehicle_type_id":"4","last_reported":1747325606,"current_range_meters":14000,"station_id":"ce4bh192rcd13ifvqdc0","pricing_plan_id":"cebpf4jnsgd1na2vs0mg"},{"bike_id":"be62bdd9-f61b-4f63-85c8-15f5bcd63129","system_id":"levelo_inurba_marseille","lat":43.29571,"lon":5.39966,"is_reserved":false,"is_disabled":false,"rental_uris":{"android":"levelo://app?vid=be62bdd9-f61b-4f63-85c8-15f5bcd63129","ios":"levelo://app?vid=be62bdd9-f61b-4f63-85c8-15f5bcd63129"},"vehicle_type_id":"4","last_reported":1747325606,"current_range_meters":14000,"station_id":"ce4bh312rcd13ifvqdj0","pricing_plan_id":"cebpf4jnsgd1na2vs0mg"},{"bike_id":"ff84bfb0-a981-48f2-80e8-dffb08a45dfd","system_id":"levelo_inurba_marseille","lat":43.28725,"lon":5.37928,"is_reserved":false,"is_disabled":false,"rental_uris":{"android":"levelo://app?vid=ff84bfb0-a981-48f2-80e8-dffb08a45dfd","ios":"levelo://app?vid=ff84bfb0-a981-48f2-80e8-dffb08a45dfd"},"vehicle_type_id":"4","last_reported":1747325606,"current_range_meters":14000,"station_id":"ce4bh9p2rcd13ifvqec0","pricing_plan_id":"cebpf4jnsgd1na2vs0mg"},{"bike_id":"f694350c-96bf-47bd-b5b3-00a58bfdb7a5","system_id":"levelo_inurba_marseille","lat":43.26493,"lon":5.39537,"is_reserved":false,"is_disabled":false,"rental_uris":{"android":"levelo://app?vid=f694350c-96bf-47bd-b5b3-00a58bfdb7a5","ios":"levelo://app?vid=f694350c-96bf-47bd-b5b3-00a58bfdb7a5"},"vehicle_type_id":"4","last_reported":1747325606,"current_range_meters":14000,"station_id":"ce4bhi12rcd13ifvqfq0","pricing_plan_id":"cebpf4jnsgd1na2vs0mg"},{"bike_id":"907de58b-86bb-498a-81ac-d9ce1273f143","system_id":"levelo_inurba_marseille","lat":43.28109,"lon":5.37897,"is_reserved":false,"is_disabled":false,"rental_uris":{"android":"levelo://app?vid=907de58b-86bb-498a-81ac-d9ce1273f143","ios":"levelo://app?vid=907de58b-86bb-498a-81ac-d9ce1273f143"},"vehicle_type_id":"4","last_reported":1747325606,"current_range_meters":14400,"station_id":"ce4bha12rcd13ifvqee0","pricing_plan_id":"cebpf4jnsgd1na2vs0mg"},{"bike_id":"6c620fda-6c06-49e6-b737-205be2ca2320","system_id":"levelo_inurba_marseille","lat":43.28878,"lon":5.35856,"is_reserved":false,"is_disabled":false,"rental_uris":{"android":"levelo://app?vid=6c620fda-6c06-49e6-b737-205be2ca2320","ios":"levelo://app?vid=6c620fda-6c06-49e6-b737-205be2ca2320"},"vehicle_type_id":"4","last_reported":1747325606,"current_range_meters":14800,"station_id":"","pricing_plan_id":"cebpf4jnsgd1na2vs0mg"},{"bike_id":"f86bff49-f428-42a7-96af-ace44757dd4a","system_id":"levelo_inurba_marseille","lat":43.28423,"lon":5.34978,"is_reserved":false,"is_disabled":false,"rental_uris":{"android":"levelo://app?vid=f86bff49-f428-42a7-96af-ace44757dd4a","ios":"levelo://app?vid=f86bff49-f428-42a7-96af-ace44757dd4a"},"vehicle_type_id":"4","last_reported":1747325606,"current_range_meters":14800,"station_id":"","pricing_plan_id":"cebpf4jnsgd1na2vs0mg"},{"bike_id":"816828a1-5e8c-4a40-92e0-d72560f61a8a","system_id":"levelo_inurba_marseille","lat":43.28469,"lon":5.35902,"is_reserved":false,"is_disabled":false,"rental_uris":{"android":"levelo://app?vid=816828a1-5e8c-4a40-92e0-d72560f61a8a","ios":"levelo://app?vid=816828a1-5e8c-4a40-92e0-d72560f61a8a"},"vehicle_type_id":"4","last_reported":1747325606,"current_range_meters":14800,"station_id":"ce4bhah2rcd13ifvqei0","pricing_plan_id":"cebpf4jnsgd1na2vs0mg"},{"bike_id":"ac9a9856-1585-47e6-9447-94c11c36ce10","system_id":"levelo_inurba_marseille","lat":43.27385,"lon":5.36265,"is_reserved":false,"is_disabled":false,"rental_uris":{"android":"levelo://app?vid=ac9a9856-1585-47e6-9447-94c11c36ce10","ios":"levelo://app?vid=ac9a9856-1585-47e6-9447-94c11c36ce10"},"vehicle_type_id":"4","last_reported":1747325606,"current_range_meters":14800,"station_id":"ce4bhbh2rcd13ifvqeo0","pricing_plan_id":"cebpf4jnsgd1na2vs0mg"},{"bike_id":"46a3e2c1-f297-4f25-9c99-f961a1accd8c","system_id":"levelo_inurba_marseille","lat":43.33141,"lon":5.39126,"is_reserved":false,"is_disabled":false,"rental_uris":{"android":"levelo://app?vid=46a3e2c1-f297-4f25-9c99-f961a1accd8c","ios":"levelo://app?vid=46a3e2c1-f297-4f25-9c99-f961a1accd8c"},"vehicle_type_id":"4","last_reported":1747325606,"current_range_meters":15200,"station_id":"","pricing_plan_id":"cebpf4jnsgd1na2vs0mg"},{"bike_id":"f52dfec1-0e4f-4d0b-9569-3b2c395fd189","system_id":"levelo_inurba_marseille","lat":43.28417,"lon":5.34997,"is_reserved":false,"is_disabled":false,"rental_uris":{"android":"levelo://app?vid=f52dfec1-0e4f-4d0b-9569-3b2c395fd189","ios":"levelo://app?vid=f52dfec1-0e4f-4d0b-9569-3b2c395fd189"},"vehicle_type_id":"4","last_reported":1747325606,"current_range_meters":15200,"station_id":"ce4bhbh2rcd13ifvqepg","pricing_plan_id":"cebpf4jnsgd1na2vs0mg"},{"bike_id":"3e3f0de6-8b4e-495e-b1fa-c423ba506696","system_id":"levelo_inurba_marseille","lat":43.26786,"lon":5.39419,"is_reserved":false,"is_disabled":false,"rental_uris":{"android":"levelo://app?vid=3e3f0de6-8b4e-495e-b1fa-c423ba506696","ios":"levelo://app?vid=3e3f0de6-8b4e-495e-b1fa-c423ba506696"},"vehicle_type_id":"4","last_reported":1747325606,"current_range_meters":15200,"station_id":"ce4bhh12rcd13ifvqfg0","pricing_plan_id":"cebpf4jnsgd1na2vs0mg"},{"bike_id":"f3e3b57c-8b0f-4db9-a82d-2446bf1102d7","system_id":"levelo_inurba_marseille","lat":43.23224,"lon":5.355845,"is_reserved":false,"is_disabled":false,"rental_uris":{"android":"levelo://app?vid=f3e3b57c-8b0f-4db9-a82d-2446bf1102d7","ios":"levelo://app?vid=f3e3b57c-8b0f-4db9-a82d-2446bf1102d7"},"vehicle_type_id":"4","last_reported":1747325606,"current_range_meters":15200,"station_id":"ce4bhu92rcd13ifvqi70","pricing_plan_id":"cebpf4jnsgd1na2vs0mg"},{"bike_id":"7fb74ba0-6b8f-43e7-853f-8c87140c7a24","system_id":"levelo_inurba_marseille","lat":43.2763,"lon":5.36114,"is_reserved":false,"is_disabled":false,"rental_uris":{"android":"levelo://app?vid=7fb74ba0-6b8f-43e7-853f-8c87140c7a24","ios":"levelo://app?vid=7fb74ba0-6b8f-43e7-853f-8c87140c7a24"},"vehicle_type_id":"4","last_reported":1747325606,"current_range_meters":16000,"station_id":"ce4bgj92rcd13ifvqbe0","pricing_plan_id":"cebpf4jnsgd1na2vs0mg"},{"bike_id":"45f73584-8107-445a-958b-f1819c23aee5","system_id":"levelo_inurba_marseille","lat":43.30327,"lon":5.40433,"is_reserved":false,"is_disabled":false,"rental_uris":{"android":"levelo://app?vid=45f73584-8107-445a-958b-f1819c23aee5","ios":"levelo://app?vid=45f73584-8107-445a-958b-f1819c23aee5"},"vehicle_type_id":"4","last_reported":1747325606,"current_range_meters":16000,"station_id":"ce4bh012rcd13ifvqd10","pricing_plan_id":"cebpf4jnsgd1na2vs0mg"},{"bike_id":"6a5ca72e-51de-4905-96e1-5bd7c7c37213","system_id":"levelo_inurba_marseille","lat":43.27373,"lon":5.36243,"is_reserved":false,"is_disabled":false,"rental_uris":{"android":"levelo://app?vid=6a5ca72e-51de-4905-96e1-5bd7c7c37213","ios":"levelo://app?vid=6a5ca72e-51de-4905-96e1-5bd7c7c37213"},"vehicle_type_id":"4","last_reported":1747325606,"current_range_meters":16000,"station_id":"ce4bhbh2rcd13ifvqeo0","pricing_plan_id":"cebpf4jnsgd1na2vs0mg"},{"bike_id":"a9854816-6045-4630-b24c-417ec7f41419","system_id":"levelo_inurba_marseille","lat":43.26197,"lon":5.3745,"is_reserved":false,"is_disabled":false,"rental_uris":{"android":"levelo://app?vid=a9854816-6045-4630-b24c-417ec7f41419","ios":"levelo://app?vid=a9854816-6045-4630-b24c-417ec7f41419"},"vehicle_type_id":"4","last_reported":1747325606,"current_range_meters":16000,"station_id":"ce4bhgp2rcd13ifvqfc0","pricing_plan_id":"cebpf4jnsgd1na2vs0mg"},{"bike_id":"cdbd2e7d-fad9-4041-953e-6837aa2fd2b5","system_id":"levelo_inurba_marseille","lat":43.32368,"lon":5.38916,"is_reserved":false,"is_disabled":false,"rental_uris":{"android":"levelo://app?vid=cdbd2e7d-fad9-4041-953e-6837aa2fd2b5","ios":"levelo://app?vid=cdbd2e7d-fad9-4041-953e-6837aa2fd2b5"},"vehicle_type_id":"4","last_reported":1747325606,"current_range_meters":16000,"station_id":"ce4bhqp2rcd13ifvqhog","pricing_plan_id":"cebpf4jnsgd1na2vs0mg"},{"bike_id":"93db15df-9410-4350-b145-b75da95a5ad4","system_id":"levelo_inurba_marseille","lat":43.29262,"lon":5.40921,"is_reserved":false,"is_disabled":false,"rental_uris":{"android":"levelo://app?vid=93db15df-9410-4350-b145-b75da95a5ad4","ios":"levelo://app?vid=93db15df-9410-4350-b145-b75da95a5ad4"},"vehicle_type_id":"4","last_reported":1747325606,"current_range_meters":16400,"station_id":"ce4bh192rcd13ifvqdc0","pricing_plan_id":"cebpf4jnsgd1na2vs0mg"},{"bike_id":"2e720c5c-6da8-48f4-95d6-08c7194c7bb4","system_id":"levelo_inurba_marseille","lat":43.28703,"lon":5.37383,"is_reserved":false,"is_disabled":false,"rental_uris":{"android":"levelo://app?vid=2e720c5c-6da8-48f4-95d6-08c7194c7bb4","ios":"levelo://app?vid=2e720c5c-6da8-48f4-95d6-08c7194c7bb4"},"vehicle_type_id":"4","last_reported":1747325606,"current_range_meters":16400,"station_id":"ce4bh3p2rcd13ifvqdq0","pricing_plan_id":"cebpf4jnsgd1na2vs0mg"},{"bike_id":"6414c6d0-c577-4b00-8541-05cb008ccfad","system_id":"levelo_inurba_marseille","lat":43.28424,"lon":5.35005,"is_reserved":false,"is_disabled":false,"rental_uris":{"android":"levelo://app?vid=6414c6d0-c577-4b00-8541-05cb008ccfad","ios":"levelo://app?vid=6414c6d0-c577-4b00-8541-05cb008ccfad"},"vehicle_type_id":"4","last_reported":1747325606,"current_range_meters":16400,"station_id":"ce4bhbh2rcd13ifvqepg","pricing_plan_id":"cebpf4jnsgd1na2vs0mg"},{"bike_id":"4c3a7467-932b-4b1d-b267-9dce6c6618bc","system_id":"levelo_inurba_marseille","lat":43.23963,"lon":5.36635,"is_reserved":false,"is_disabled":false,"rental_uris":{"android":"levelo://app?vid=4c3a7467-932b-4b1d-b267-9dce6c6618bc","ios":"levelo://app?vid=4c3a7467-932b-4b1d-b267-9dce6c6618bc"},"vehicle_type_id":"4","last_reported":1747325606,"current_range_meters":16400,"station_id":"ce4bhi12rcd13ifvqfp0","pricing_plan_id":"cebpf4jnsgd1na2vs0mg"},{"bike_id":"ce4262fc-cc59-4d59-babe-d37e52d62af9","system_id":"levelo_inurba_marseille","lat":43.278112,"lon":5.407129,"is_reserved":false,"is_disabled":false,"rental_uris":{"android":"levelo://app?vid=ce4262fc-cc59-4d59-babe-d37e52d62af9","ios":"levelo://app?vid=ce4262fc-cc59-4d59-babe-d37e52d62af9"},"vehicle_type_id":"4","last_reported":1747325606,"current_range_meters":16400,"station_id":"ce4bhnh2rcd13ifvqgtg","pricing_plan_id":"cebpf4jnsgd1na2vs0mg"},{"bike_id":"b5d2cf5c-ce87-46bc-ac51-3594abb40874","system_id":"levelo_inurba_marseille","lat":43.30798,"lon":5.43549,"is_reserved":false,"is_disabled":false,"rental_uris":{"android":"levelo://app?vid=b5d2cf5c-ce87-46bc-ac51-3594abb40874","ios":"levelo://app?vid=b5d2cf5c-ce87-46bc-ac51-3594abb40874"},"vehicle_type_id":"4","last_reported":1747325606,"current_range_meters":16400,"station_id":"ce4bhph2rcd13ifvqheg","pricing_plan_id":"cebpf4jnsgd1na2vs0mg"},{"bike_id":"6d886103-344e-431a-ac80-7f62879d2f7c","system_id":"levelo_inurba_marseille","lat":43.22986,"lon":5.35392,"is_reserved":false,"is_disabled":false,"rental_uris":{"android":"levelo://app?vid=6d886103-344e-431a-ac80-7f62879d2f7c","ios":"levelo://app?vid=6d886103-344e-431a-ac80-7f62879d2f7c"},"vehicle_type_id":"4","last_reported":1747325606,"current_range_meters":16400,"station_id":"cpo3532slgdg3j2ikp40","pricing_plan_id":"cebpf4jnsgd1na2vs0mg"},{"bike_id":"004deaad-71d8-428c-b44b-9070f09291d4","system_id":"levelo_inurba_marseille","lat":43.31802,"lon":5.37288,"is_reserved":false,"is_disabled":false,"rental_uris":{"android":"levelo://app?vid=004deaad-71d8-428c-b44b-9070f09291d4","ios":"levelo://app?vid=004deaad-71d8-428c-b44b-9070f09291d4"},"vehicle_type_id":"4","last_reported":1747325606,"current_range_meters":17200,"station_id":"","pricing_plan_id":"cebpf4jnsgd1na2vs0mg"},{"bike_id":"1f2ee45f-8a27-43a3-8464-ba8569f8f46d","system_id":"levelo_inurba_marseille","lat":43.3032,"lon":5.40429,"is_reserved":false,"is_disabled":false,"rental_uris":{"android":"levelo://app?vid=1f2ee45f-8a27-43a3-8464-ba8569f8f46d","ios":"levelo://app?vid=1f2ee45f-8a27-43a3-8464-ba8569f8f46d"},"vehicle_type_id":"4","last_reported":1747325606,"current_range_meters":17200,"station_id":"ce4bh012rcd13ifvqd10","pricing_plan_id":"cebpf4jnsgd1na2vs0mg"},{"bike_id":"939fa39f-f570-4b75-b2d6-d85b90e32652","system_id":"levelo_inurba_marseille","lat":43.29253,"lon":5.40922,"is_reserved":false,"is_disabled":false,"rental_uris":{"android":"levelo://app?vid=939fa39f-f570-4b75-b2d6-d85b90e32652","ios":"levelo://app?vid=939fa39f-f570-4b75-b2d6-d85b90e32652"},"vehicle_type_id":"4","last_reported":1747325606,"current_range_meters":17200,"station_id":"ce4bh192rcd13ifvqdc0","pricing_plan_id":"cebpf4jnsgd1na2vs0mg"},{"bike_id":"30483a33-ea83-4974-95a4-ba8b1f83f57d","system_id":"levelo_inurba_marseille","lat":43.24384,"lon":5.37056,"is_reserved":false,"is_disabled":false,"rental_uris":{"android":"levelo://app?vid=30483a33-ea83-4974-95a4-ba8b1f83f57d","ios":"levelo://app?vid=30483a33-ea83-4974-95a4-ba8b1f83f57d"},"vehicle_type_id":"4","last_reported":1747325606,"current_range_meters":17200,"station_id":"ce4bhhh2rcd13ifvqfk0","pricing_plan_id":"cebpf4jnsgd1na2vs0mg"},{"bike_id":"f0665cf8-d571-4da1-a97c-fe638d687815","system_id":"levelo_inurba_marseille","lat":43.23178,"lon":5.39989,"is_reserved":false,"is_disabled":false,"rental_uris":{"android":"levelo://app?vid=f0665cf8-d571-4da1-a97c-fe638d687815","ios":"levelo://app?vid=f0665cf8-d571-4da1-a97c-fe638d687815"},"vehicle_type_id":"4","last_reported":1747325606,"current_range_meters":17200,"station_id":"ce4bhn12rcd13ifvqgqg","pricing_plan_id":"cebpf4jnsgd1na2vs0mg"},{"bike_id":"9c69e55b-3827-4551-aa71-02fc928cda04","system_id":"levelo_inurba_marseille","lat":43.32368,"lon":5.388847,"is_reserved":false,"is_disabled":false,"rental_uris":{"android":"levelo://app?vid=9c69e55b-3827-4551-aa71-02fc928cda04","ios":"levelo://app?vid=9c69e55b-3827-4551-aa71-02fc928cda04"},"vehicle_type_id":"4","last_reported":1747325606,"current_range_meters":17200,"station_id":"ce4bhqp2rcd13ifvqhog","pricing_plan_id":"cebpf4jnsgd1na2vs0mg"},{"bike_id":"8c801b9f-3818-4ceb-9573-4499ff41234b","system_id":"levelo_inurba_marseille","lat":43.28484,"lon":5.35043,"is_reserved":false,"is_disabled":false,"rental_uris":{"android":"levelo://app?vid=8c801b9f-3818-4ceb-9573-4499ff41234b","ios":"levelo://app?vid=8c801b9f-3818-4ceb-9573-4499ff41234b"},"vehicle_type_id":"4","last_reported":1747325606,"current_range_meters":17600,"station_id":"","pricing_plan_id":"cebpf4jnsgd1na2vs0mg"},{"bike_id":"d5b45514-74bf-44f0-9078-3acd49f4114b","system_id":"levelo_inurba_marseille","lat":43.28118,"lon":5.37813,"is_reserved":false,"is_disabled":false,"rental_uris":{"android":"levelo://app?vid=d5b45514-74bf-44f0-9078-3acd49f4114b","ios":"levelo://app?vid=d5b45514-74bf-44f0-9078-3acd49f4114b"},"vehicle_type_id":"4","last_reported":1747325606,"current_range_meters":17600,"station_id":"ce4bha12rcd13ifvqee0","pricing_plan_id":"cebpf4jnsgd1na2vs0mg"},{"bike_id":"8937e58a-82bd-4181-b426-25cf9717cf13","system_id":"levelo_inurba_marseille","lat":43.28416,"lon":5.35,"is_reserved":false,"is_disabled":false,"rental_uris":{"android":"levelo://app?vid=8937e58a-82bd-4181-b426-25cf9717cf13","ios":"levelo://app?vid=8937e58a-82bd-4181-b426-25cf9717cf13"},"vehicle_type_id":"4","last_reported":1747325606,"current_range_meters":17600,"station_id":"ce4bhbh2rcd13ifvqepg","pricing_plan_id":"cebpf4jnsgd1na2vs0mg"},{"bike_id":"f55e3d74-f9d2-4ea2-a833-f383d7c52498","system_id":"levelo_inurba_marseille","lat":43.2655,"lon":5.37285,"is_reserved":false,"is_disabled":false,"rental_uris":{"android":"levelo://app?vid=f55e3d74-f9d2-4ea2-a833-f383d7c52498","ios":"levelo://app?vid=f55e3d74-f9d2-4ea2-a833-f383d7c52498"},"vehicle_type_id":"4","last_reported":1747325606,"current_range_meters":17600,"station_id":"ce4bhg12rcd13ifvqf70","pricing_plan_id":"cebpf4jnsgd1na2vs0mg"},{"bike_id":"228e4d6a-e038-4298-91d7-ef0db8977f42","system_id":"levelo_inurba_marseille","lat":43.27617,"lon":5.3611,"is_reserved":false,"is_disabled":false,"rental_uris":{"android":"levelo://app?vid=228e4d6a-e038-4298-91d7-ef0db8977f42","ios":"levelo://app?vid=228e4d6a-e038-4298-91d7-ef0db8977f42"},"vehicle_type_id":"4","last_reported":1747325606,"current_range_meters":18000,"station_id":"ce4bgj92rcd13ifvqbe0","pricing_plan_id":"cebpf4jnsgd1na2vs0mg"},{"bike_id":"ec7238d2-92a7-4d25-9cfe-fc4d9daad0ae","system_id":"levelo_inurba_marseille","lat":43.24998,"lon":5.38924,"is_reserved":false,"is_disabled":false,"rental_uris":{"android":"levelo://app?vid=ec7238d2-92a7-4d25-9cfe-fc4d9daad0ae","ios":"levelo://app?vid=ec7238d2-92a7-4d25-9cfe-fc4d9daad0ae"},"vehicle_type_id":"4","last_reported":1747325606,"current_range_meters":18000,"station_id":"ce4bhgp2rcd13ifvqfd0","pricing_plan_id":"cebpf4jnsgd1na2vs0mg"},{"bike_id":"ee1a84bb-c076-48a2-88cb-589d6eedb53d","system_id":"levelo_inurba_marseille","lat":43.31083,"lon":5.42435,"is_reserved":false,"is_disabled":false,"rental_uris":{"android":"levelo://app?vid=ee1a84bb-c076-48a2-88cb-589d6eedb53d","ios":"levelo://app?vid=ee1a84bb-c076-48a2-88cb-589d6eedb53d"},"vehicle_type_id":"4","last_reported":1747325606,"current_range_meters":18000,"station_id":"ce4bhp92rcd13ifvqhag","pricing_plan_id":"cebpf4jnsgd1na2vs0mg"},{"bike_id":"180e10a7-ba2a-44a0-95b4-4567b94c2920","system_id":"levelo_inurba_marseille","lat":43.21749,"lon":5.34589,"is_reserved":false,"is_disabled":false,"rental_uris":{"android":"levelo://app?vid=180e10a7-ba2a-44a0-95b4-4567b94c2920","ios":"levelo://app?vid=180e10a7-ba2a-44a0-95b4-4567b94c2920"},"vehicle_type_id":"4","last_reported":1747325606,"current_range_meters":18000,"station_id":"st_cvj6r9ubvosntc0bgbag","pricing_plan_id":"cebpf4jnsgd1na2vs0mg"},{"bike_id":"5a2aeac5-8336-4155-b8ff-794734499844","system_id":"levelo_inurba_marseille","lat":43.25589,"lon":5.38268,"is_reserved":false,"is_disabled":false,"rental_uris":{"android":"levelo://app?vid=5a2aeac5-8336-4155-b8ff-794734499844","ios":"levelo://app?vid=5a2aeac5-8336-4155-b8ff-794734499844"},"vehicle_type_id":"4","last_reported":1747325606,"current_range_meters":18800,"station_id":"ce4bhih2rcd13ifvqfs0","pricing_plan_id":"cebpf4jnsgd1na2vs0mg"},{"bike_id":"54a1a73b-9f7a-414c-a48f-eeace73bd9b0","system_id":"levelo_inurba_marseille","lat":43.22494,"lon":5.34776,"is_reserved":false,"is_disabled":false,"rental_uris":{"android":"levelo://app?vid=54a1a73b-9f7a-414c-a48f-eeace73bd9b0","ios":"levelo://app?vid=54a1a73b-9f7a-414c-a48f-eeace73bd9b0"},"vehicle_type_id":"4","last_reported":1747325606,"current_range_meters":18800,"station_id":"st_cvj5dfep6f1abm77gieg","pricing_plan_id":"cebpf4jnsgd1na2vs0mg"},{"bike_id":"43b62872-7274-4450-b458-3c44e426a857","system_id":"levelo_inurba_marseille","lat":43.30793,"lon":5.37656,"is_reserved":false,"is_disabled":false,"rental_uris":{"android":"levelo://app?vid=43b62872-7274-4450-b458-3c44e426a857","ios":"levelo://app?vid=43b62872-7274-4450-b458-3c44e426a857"},"vehicle_type_id":"4","last_reported":1747325606,"current_range_meters":19200,"station_id":"ce4bgv92rcd13ifvqcq0","pricing_plan_id":"cebpf4jnsgd1na2vs0mg"},{"bike_id":"047fb2d2-91bf-43bf-ac9d-d7b7428eb98a","system_id":"levelo_inurba_marseille","lat":43.28461,"lon":5.35897,"is_reserved":false,"is_disabled":false,"rental_uris":{"android":"levelo://app?vid=047fb2d2-91bf-43bf-ac9d-d7b7428eb98a","ios":"levelo://app?vid=047fb2d2-91bf-43bf-ac9d-d7b7428eb98a"},"vehicle_type_id":"4","last_reported":1747325606,"current_range_meters":19200,"station_id":"ce4bhah2rcd13ifvqei0","pricing_plan_id":"cebpf4jnsgd1na2vs0mg"},{"bike_id":"d71ee0f3-e73b-40ed-bd3c-a08a747287ab","system_id":"levelo_inurba_marseille","lat":43.28614,"lon":5.35105,"is_reserved":false,"is_disabled":false,"rental_uris":{"android":"levelo://app?vid=d71ee0f3-e73b-40ed-bd3c-a08a747287ab","ios":"levelo://app?vid=d71ee0f3-e73b-40ed-bd3c-a08a747287ab"},"vehicle_type_id":"4","last_reported":1747325606,"current_range_meters":19200,"station_id":"ce4bhch2rcd13ifvqeug","pricing_plan_id":"cebpf4jnsgd1na2vs0mg"},{"bike_id":"5500e734-eae3-46eb-a858-38a0fe0deb72","system_id":"levelo_inurba_marseille","lat":43.28621,"lon":5.351005,"is_reserved":false,"is_disabled":false,"rental_uris":{"android":"levelo://app?vid=5500e734-eae3-46eb-a858-38a0fe0deb72","ios":"levelo://app?vid=5500e734-eae3-46eb-a858-38a0fe0deb72"},"vehicle_type_id":"4","last_reported":1747325606,"current_range_meters":19200,"station_id":"ce4bhch2rcd13ifvqeug","pricing_plan_id":"cebpf4jnsgd1na2vs0mg"},{"bike_id":"21d49ce3-471c-49e9-a23e-33064c75e7c5","system_id":"levelo_inurba_marseille","lat":43.24805,"lon":5.37457,"is_reserved":false,"is_disabled":false,"rental_uris":{"android":"levelo://app?vid=21d49ce3-471c-49e9-a23e-33064c75e7c5","ios":"levelo://app?vid=21d49ce3-471c-49e9-a23e-33064c75e7c5"},"vehicle_type_id":"4","last_reported":1747325606,"current_range_meters":19200,"station_id":"ce4bhgh2rcd13ifvqfb0","pricing_plan_id":"cebpf4jnsgd1na2vs0mg"},{"bike_id":"91d54abe-6cd6-45f4-aeb5-b5a177697574","system_id":"levelo_inurba_marseille","lat":43.28077,"lon":5.39662,"is_reserved":false,"is_disabled":false,"rental_uris":{"android":"levelo://app?vid=91d54abe-6cd6-45f4-aeb5-b5a177697574","ios":"levelo://app?vid=91d54abe-6cd6-45f4-aeb5-b5a177697574"},"vehicle_type_id":"4","last_reported":1747325606,"current_range_meters":19200,"station_id":"ce4bho12rcd13ifvqh2g","pricing_plan_id":"cebpf4jnsgd1na2vs0mg"},{"bike_id":"a7042fc1-8ebf-45a8-8526-f92c037ab2e5","system_id":"levelo_inurba_marseille","lat":43.30416,"lon":5.41277,"is_reserved":false,"is_disabled":false,"rental_uris":{"android":"levelo://app?vid=a7042fc1-8ebf-45a8-8526-f92c037ab2e5","ios":"levelo://app?vid=a7042fc1-8ebf-45a8-8526-f92c037ab2e5"},"vehicle_type_id":"4","last_reported":1747325606,"current_range_meters":19200,"station_id":"ce4bhop2rcd13ifvqh8g","pricing_plan_id":"cebpf4jnsgd1na2vs0mg"},