{"last_updated":1751037095,"ttl":60,"version":"2.2","data":{"bikes":[{"bike_id":"3da29fb8-fc97-44c6-b9ac-31dd456b2fd4","system_id":"levelo_inurba_marseille","lat":43.33771,"lon":5.37424,"is_reserved":false,"is_disabled":true,"rental_uris":{"android":"levelo://app?vid=3da29fb8-fc97-44c6-b9ac-31dd456b2fd4","ios":"levelo://app?vid=3da29fb8-fc97-44c6-b9ac-31dd456b2fd4"},"vehicle_type_id":"4","last_reported":1751037096,"current_range_meters":0,"station_id":"","pricing_plan_id":"cebpf4jnsgd1na2vs0mg"},{"bike_id":"01861ad8-a8d7-4be6-816e-651927c87584","system_id":"levelo_inurba_marseille","lat":43.33751,"lon":5.37456,"is_reserved":false,"is_disabled":true,"rental_uris":{"android":"levelo://app?vid=01861ad8-a8d7-4be6-816e-651927c87584","ios":"levelo://app?vid=01861ad8-a8d7-4be6-816e-651927c87584"},"vehicle_type_id":"4","last_reported":1751037096,"current_range_meters":0,"station_id":"","pricing_plan_id":"cebpf4jnsgd1na2vs0mg"},{"bike_id":"c7e8c8b3-acfb-45e2-9643-d4922307add2","system_id":"levelo_inurba_marseille","lat":43.27917,"lon":5.40914,"is_reserved":false,"is_disabled":true,"rental_uris":{"android":"levelo://app?vid=c7e8c8b3-acfb-45e2-9643-d4922307add2","ios":"levelo://app?vid=c7e8c8b3-acfb-45e2-9643-d4922307add2"},"vehicle_type_id":"4","last_reported":1751037096,"current_range_meters":0,"station_id":"","pricing_plan_id":"cebpf4jnsgd1na2vs0mg"},{"bike_id":"a147e67d-e0b1-425e-bbda-ae9524df353e","system_id":"levelo_inurba_marseille","lat":43.337541,"lon":5.374577,"is_reserved":false,"is_disabled":true,"rental_uris":{"android":"levelo://app?vid=a147e67d-e0b1-425e-bbda-ae9524df353e","ios":"levelo://app?vid=a147e67d-e0b1-425e-bbda-ae9524df353e"},"vehicle_type_id":"4","last_reported":1751037096,"current_range_meters":0,"station_id":"","pricing_plan_id":"cebpf4jnsgd1na2vs0mg"},{"bike_id":"d7ab0e84-3bbe-4115-b0ab-ab05a5f13dfd","system_id":"levelo_inurba_marseille","lat":43.33043,"lon":5.41036,"is_reserved":false,"is_disabled":true,"rental_uris":{"android":"levelo://app?vid=d7ab0e84-3bbe-4115-b0ab-ab05a5f13dfd","ios":"levelo://app?vid=d7ab0e84-3bbe-4115-b0ab-ab05a5f13dfd"},"vehicle_type_id":"4","last_reported":1751037096,"current_range_meters":0,"station_id":"","pricing_plan_id":"cebpf4jnsgd1na2vs0mg"},{"bike_id":"2c5ab5ef-6e3c-47bf-9405-4e96ff645858","system_id":"levelo_inurba_marseille","lat":43.34001,"lon":5.42911,"is_reserved":false,"is_disabled":true,"rental_uris":{"android":"levelo://app?vid=2c5ab5ef-6e3c-47bf-9405-4e96ff645858","ios":"levelo://app?vid=2c5ab5ef-6e3c-47bf-9405-4e96ff645858"},"vehicle_type_id":"4","last_reported":1751037096,"current_range_meters":0,"station_id":"","pricing_plan_id":"cebpf4jnsgd1na2vs0mg"},{"bike_id":"67a5051a-b32e-408a-8389-c22b54eb81f6","system_id":"levelo_inurba_marseille","lat":43.33034,"lon":5.45608,"is_reserved":false,"is_disabled":true,"rental_uris":{"android":"levelo://app?vid=67a5051a-b32e-408a-8389-c22b54eb81f6","ios":"levelo://app?vid=67a5051a-b32e-408a-8389-c22b54eb81f6"},"vehicle_type_id":"4","last_reported":1751037096,"current_range_meters":0,"station_id":"","pricing_plan_id":"cebpf4jnsgd1na2vs0mg"},{"bike_id":"4d064f95-6dcb-4234-9e98-7c70fbb74351","system_id":"levelo_inurba_marseille","lat":43.337444,"lon":5.374475,"is_reserved":false,"is_disabled":true,"rental_uris":{"android":"levelo://app?vid=4d064f95-6dcb-4234-9e98-7c70fbb74351","ios":"levelo://app?vid=4d064f95-6dcb-4234-9e98-7c70fbb74351"},"vehicle_type_id":"4","last_reported":1751037096,"current_range_meters":0,"station_id":"","pricing_plan_id":"cebpf4jnsgd1na2vs0mg"},{"bike_id":"446c66be-a677-44c2-9116-79a23398a824","system_id":"levelo_inurba_marseille","lat":43.27647,"lon":5.43187,"is_reserved":false,"is_disabled":true,"rental_uris":{"android":"levelo://app?vid=446c66be-a677-44c2-9116-79a23398a824","ios":"levelo://app?vid=446c66be-a677-44c2-9116-79a23398a824"},"vehicle_type_id":"4","last_reported":1751037096,"current_range_meters":0,"station_id":"","pricing_plan_id":"cebpf4jnsgd1na2vs0mg"},{"bike_id":"2315c627-494e-41a8-a12f-403d40de57ef","system_id":"levelo_inurba_marseille","lat":43.30145,"lon":5.40324,"is_reserved":false,"is_disabled":true,"rental_uris":{"android":"levelo://app?vid=2315c627-494e-41a8-a12f-403d40de57ef","ios":"levelo://app?vid=2315c627-494e-41a8-a12f-403d40de57ef"},"vehicle_type_id":"4","last_reported":1751037096,"current_range_meters":0,"station_id":"","pricing_plan_id":"cebpf4jnsgd1na2vs0mg"},{"bike_id":"a1ae4fee-cbeb-43dc-a969-5827f87e448d","system_id":"levelo_inurba_marseille","lat":43.38416,"lon":5.36535,"is_reserved":false,"is_disabled":true,"rental_uris":{"android":"levelo://app?vid=a1ae4fee-cbeb-43dc-a969-5827f87e448d","ios":"levelo://app?vid=a1ae4fee-cbeb-43dc-a969-5827f87e448d"},"vehicle_type_id":"4","last_reported":1751037096,"current_range_meters":0,"station_id":"","pricing_plan_id":"cebpf4jnsgd1na2vs0mg"},{"bike_id":"d6609b4f-333b-43c1-9ebe-8726f5e76e88","system_id":"levelo_inurba_marseille","lat":43.337444,"lon":5.374475,"is_reserved":false,"is_disabled":true,"rental_uris":{"android":"levelo://app?vid=d6609b4f-333b-43c1-9ebe-8726f5e76e88","ios":"levelo://app?vid=d6609b4f-333b-43c1-9ebe-8726f5e76e88"},"vehicle_type_id":"4","last_reported":1751037096,"current_range_meters":0,"station_id":"","pricing_plan_id":"cebpf4jnsgd1na2vs0mg"},{"bike_id":"14903f35-1eaf-4a5d-86c3-23007b361999","system_id":"levelo_inurba_marseille","lat":43.27064,"lon":5.42274,"is_reserved":false,"is_disabled":true,"rental_uris":{"android":"levelo://app?vid=14903f35-1eaf-4a5d-86c3-23007b361999","ios":"levelo://app?vid=14903f35-1eaf-4a5d-86c3-23007b361999"},"vehicle_type_id":"4","last_reported":1751037096,"current_range_meters":0,"station_id":"","pricing_plan_id":"cebpf4jnsgd1na2vs0mg"},{"bike_id":"10b45913-bca5-4606-bbb7-c67b78fb88df","system_id":"levelo_inurba_marseille","lat":43.28498,"lon":5.385,"is_reserved":false,"is_disabled":true,"rental_uris":{"android":"levelo://app?vid=10b45913-bca5-4606-bbb7-c67b78fb88df","ios":"levelo://app?vid=10b45913-bca5-4606-bbb7-c67b78fb88df"},"vehicle_type_id":"4","last_reported":1751037096,"current_range_meters":0,"station_id":"","pricing_plan_id":"cebpf4jnsgd1na2vs0mg"},{"bike_id":"bf027107-0fe5-47a2-8fef-6473f83bb647","system_id":"levelo_inurba_marseille","lat":43.32948,"lon":5.36415,"is_reserved":false,"is_disabled":true,"rental_uris":{"android":"levelo://app?vid=bf027107-0fe5-47a2-8fef-6473f83bb647","ios":"levelo://app?vid=bf027107-0fe5-47a2-8fef-6473f83bb647"},"vehicle_type_id":"4","last_reported":1751037096,"current_range_meters":0,"station_id":"","pricing_plan_id":"cebpf4jnsgd1na2vs0mg"},{"bike_id":"b17b6606-336a-4606-9b65-af139c49de26","system_id":"levelo_inurba_marseille","lat":43.25718,"lon":5.42689,"is_reserved":false,"is_disabled":true,"rental_uris":{"android":"levelo://app?vid=b17b6606-336a-4606-9b65-af139c49de26","ios":"levelo://app?vid=b17b6606-336a-4606-9b65-af139c49de26"},"vehicle_type_id":"4","last_reported":1751037096,"current_range_meters":0,"station_id":"","pricing_plan_id":"cebpf4jnsgd1na2vs0mg"},{"bike_id":"9d3724b1-0dc8-4689-9d6a-55005a9503cb","system_id":"levelo_inurba_marseille","lat":43.28611,"lon":5.4281,"is_reserved":false,"is_disabled":true,"rental_uris":{"android":"levelo://app?vid=9d3724b1-0dc8-4689-9d6a-55005a9503cb","ios":"levelo://app?vid=9d3724b1-0dc8-4689-9d6a-55005a9503cb"},"vehicle_type_id":"4","last_reported":1751037096,"current_range_meters":0,"station_id":"","pricing_plan_id":"cebpf4jnsgd1na2vs0mg"},{"bike_id":"ce774a04-a4be-4eca-a30f-78eb921955bd","system_id":"levelo_inurba_marseille","lat":43.33879,"lon":5.35578,"is_reserved":false,"is_disabled":true,"rental_uris":{"android":"levelo://app?vid=ce774a04-a4be-4eca-a30f-78eb921955bd","ios":"levelo://app?vid=ce774a04-a4be-4eca-a30f-78eb921955bd"},"vehicle_type_id":"4","last_reported":1751037096,"current_range_meters":0,"station_id":"","pricing_plan_id":"cebpf4jnsgd1na2vs0mg"},{"bike_id":"d3927187-4c24-4136-8212-488c21e07e1d","system_id":"levelo_inurba_marseille","lat":43.29305,"lon":5.37159,"is_reserved":false,"is_disabled":true,"rental_uris":{"android":"levelo://app?vid=d3927187-4c24-4136-8212-488c21e07e1d","ios":"levelo://app?vid=d3927187-4c24-4136-8212-488c21e07e1d"},"vehicle_type_id":"4","last_reported":1751037096,"current_range_meters":0,"station_id":"ce4bgh92rcd13ifvqb40","pricing_plan_id":"cebpf4jnsgd1na2vs0mg"},{"bike_id":"369e9c82-51fa-48b9-ae0a-2a272c4a167f","system_id":"levelo_inurba_marseille","lat":43.30881,"lon":5.39652,"is_reserved":false,"is_disabled":true,"rental_uris":{"android":"levelo://app?vid=369e9c82-51fa-48b9-ae0a-2a272c4a167f","ios":"levelo://app?vid=369e9c82-51fa-48b9-ae0a-2a272c4a167f"},"vehicle_type_id":"4","last_reported":1751037096,"current_range_meters":0,"station_id":"ce4bh012rcd13ifvqcv0","pricing_plan_id":"cebpf4jnsgd1na2vs0mg"},{"bike_id":"b74a68df-1f38-4a3e-bc1d-ab66cf460b2e","system_id":"levelo_inurba_marseille","lat":43.30136,"lon":5.39872,"is_reserved":false,"is_disabled":true,"rental_uris":{"android":"levelo://app?vid=b74a68df-1f38-4a3e-bc1d-ab66cf460b2e","ios":"levelo://app?vid=b74a68df-1f38-4a3e-bc1d-ab66cf460b2e"},"vehicle_type_id":"4","last_reported":1751037096,"current_range_meters":0,"station_id":"ce4bh0h2rcd13ifvqd40","pricing_plan_id":"cebpf4jnsgd1na2vs0mg"},{"bike_id":"15b41882-8d1c-402d-a6da-739f4a206b86","system_id":"levelo_inurba_marseille","lat":43.29164,"lon":5.37157,"is_reserved":false,"is_disabled":true,"rental_uris":{"android":"levelo://app?vid=15b41882-8d1c-402d-a6da-739f4a206b86","ios":"levelo://app?vid=15b41882-8d1c-402d-a6da-739f4a206b86"},"vehicle_type_id":"4","last_reported":1751037096,"current_range_meters":0,"station_id":"ce4bha92rcd13ifvqeh0","pricing_plan_id":"cebpf4jnsgd1na2vs0mg"},{"bike_id":"85542479-f815-43d6-b81b-7e363202cb39","system_id":"levelo_inurba_marseille","lat":43.29177,"lon":5.35811,"is_reserved":false,"is_disabled":true,"rental_uris":{"android":"levelo://app?vid=85542479-f815-43d6-b81b-7e363202cb39","ios":"levelo://app?vid=85542479-f815-43d6-b81b-7e363202cb39"},"vehicle_type_id":"4","last_reported":1751037096,"current_range_meters":0,"station_id":"ce4bhb12rcd13ifvqel0","pricing_plan_id":"cebpf4jnsgd1na2vs0mg"},{"bike_id":"a385c05b-f141-48e1-9e64-c529127d5d6f","system_id":"levelo_inurba_marseille","lat":43.273707,"lon":5.362573,"is_reserved":false,"is_disabled":true,"rental_uris":{"android":"levelo://app?vid=a385c05b-f141-48e1-9e64-c529127d5d6f","ios":"levelo://app?vid=a385c05b-f141-48e1-9e64-c529127d5d6f"},"vehicle_type_id":"4","last_reported":1751037096,"current_range_meters":0,"station_id":"ce4bhbh2rcd13ifvqeo0","pricing_plan_id":"cebpf4jnsgd1na2vs0mg"},{"bike_id":"3e9b6007-5092-4464-8b87-1e4f4f70441f","system_id":"levelo_inurba_marseille","lat":43.284654,"lon":5.349743,"is_reserved":false,"is_disabled":true,"rental_uris":{"android":"levelo://app?vid=3e9b6007-5092-4464-8b87-1e4f4f70441f","ios":"levelo://app?vid=3e9b6007-5092-4464-8b87-1e4f4f70441f"},"vehicle_type_id":"4","last_reported":1751037096,"current_range_meters":0,"station_id":"ce4bhbh2rcd13ifvqeqg","pricing_plan_id":"cebpf4jnsgd1na2vs0mg"},{"bike_id":"9c3c2c55-4be0-46b5-8f9b-8b1fcf443f57","system_id":"levelo_inurba_marseille","lat":43.28257,"lon":5.350665,"is_reserved":false,"is_disabled":true,"rental_uris":{"android":"levelo://app?vid=9c3c2c55-4be0-46b5-8f9b-8b1fcf443f57","ios":"levelo://app?vid=9c3c2c55-4be0-46b5-8f9b-8b1fcf443f57"},"vehicle_type_id":"4","last_reported":1751037096,"current_range_meters":0,"station_id":"ce4bhbp2rcd13ifvqerg","pricing_plan_id":"cebpf4jnsgd1na2vs0mg"},{"bike_id":"2b421e17-bf5a-468d-b0e0-f69781068b9a","system_id":"levelo_inurba_marseille","lat":43.27965,"lon":5.38746,"is_reserved":false,"is_disabled":true,"rental_uris":{"android":"levelo://app?vid=2b421e17-bf5a-468d-b0e0-f69781068b9a","ios":"levelo://app?vid=2b421e17-bf5a-468d-b0e0-f69781068b9a"},"vehicle_type_id":"4","last_reported":1751037096,"current_range_meters":0,"station_id":"ce4bhg12rcd13ifvqf80","pricing_plan_id":"cebpf4jnsgd1na2vs0mg"},{"bike_id":"271a5da5-4035-470a-ba7c-aa58268e9930","system_id":"levelo_inurba_marseille","lat":43.21741,"lon":5.34606,"is_reserved":false,"is_disabled":true,"rental_uris":{"android":"levelo://app?vid=271a5da5-4035-470a-ba7c-aa58268e9930","ios":"levelo://app?vid=271a5da5-4035-470a-ba7c-aa58268e9930"},"vehicle_type_id":"4","last_reported":1751037096,"current_range_meters":0,"station_id":"ce4bhgh2rcd13ifvqfb0","pricing_plan_id":"cebpf4jnsgd1na2vs0mg"},{"bike_id":"16244a3e-22e5-4604-9a54-546dd0724445","system_id":"levelo_inurba_marseille","lat":43.26207,"lon":5.37439,"is_reserved":false,"is_disabled":true,"rental_uris":{"android":"levelo://app?vid=16244a3e-22e5-4604-9a54-546dd0724445","ios":"levelo://app?vid=16244a3e-22e5-4604-9a54-546dd0724445"},"vehicle_type_id":"4","last_reported":1751037096,"current_range_meters":0,"station_id":"ce4bhgp2rcd13ifvqfc0","pricing_plan_id":"cebpf4jnsgd1na2vs0mg"},{"bike_id":"45c1d19c-02e0-4164-b57e-5b42a419dd9b","system_id":"levelo_inurba_marseille","lat":43.2696,"lon":5.38632,"is_reserved":false,"is_disabled":true,"rental_uris":{"android":"levelo://app?vid=45c1d19c-02e0-4164-b57e-5b42a419dd9b","ios":"levelo://app?vid=45c1d19c-02e0-4164-b57e-5b42a419dd9b"},"vehicle_type_id":"4","last_reported":1751037096,"current_range_meters":0,"station_id":"ce4bhh92rcd13ifvqfh0","pricing_plan_id":"cebpf4jnsgd1na2vs0mg"},{"bike_id":"8f8f3594-a00a-45d6-84ef-c36873c7f7ab","system_id":"levelo_inurba_marseille","lat":43.243844,"lon":5.370611,"is_reserved":false,"is_disabled":true,"rental_uris":{"android":"levelo://app?vid=8f8f3594-a00a-45d6-84ef-c36873c7f7ab","ios":"levelo://app?vid=8f8f3594-a00a-45d6-84ef-c36873c7f7ab"},"vehicle_type_id":"4","last_reported":1751037096,"current_range_meters":0,"station_id":"ce4bhhh2rcd13ifvqfk0","pricing_plan_id":"cebpf4jnsgd1na2vs0mg"},{"bike_id":"0821ed47-73a5-459e-940b-167b9a159862","system_id":"levelo_inurba_marseille","lat":43.243878,"lon":5.370595,"is_reserved":false,"is_disabled":true,"rental_uris":{"android":"levelo://app?vid=0821ed47-73a5-459e-940b-167b9a159862","ios":"levelo://app?vid=0821ed47-73a5-459e-940b-167b9a159862"},"vehicle_type_id":"4","last_reported":1751037096,"current_range_meters":0,"station_id":"ce4bhhh2rcd13ifvqfk0","pricing_plan_id":"cebpf4jnsgd1na2vs0mg"},{"bike_id":"f2eaf89e-3924-448b-863b-412ba467785e","system_id":"levelo_inurba_marseille","lat":43.27672,"lon":5.38866,"is_reserved":false,"is_disabled":true,"rental_uris":{"android":"levelo://app?vid=f2eaf89e-3924-448b-863b-412ba467785e","ios":"levelo://app?vid=f2eaf89e-3924-448b-863b-412ba467785e"},"vehicle_type_id":"4","last_reported":1751037096,"current_range_meters":0,"station_id":"ce4bhi12rcd13ifvqfo0","pricing_plan_id":"cebpf4jnsgd1na2vs0mg"},{"bike_id":"386cbbce-333f-4d22-bfe5-063a10a272e0","system_id":"levelo_inurba_marseille","lat":43.2511,"lon":5.40319,"is_reserved":false,"is_disabled":true,"rental_uris":{"android":"levelo://app?vid=386cbbce-333f-4d22-bfe5-063a10a272e0","ios":"levelo://app?vid=386cbbce-333f-4d22-bfe5-063a10a272e0"},"vehicle_type_id":"4","last_reported":1751037096,"current_range_meters":0,"station_id":"ce4bhlh2rcd13ifvqgig","pricing_plan_id":"cebpf4jnsgd1na2vs0mg"},{"bike_id":"61b9faaf-70f4-4463-9888-117ec4b84898","system_id":"levelo_inurba_marseille","lat":43.27974,"lon":5.41647,"is_reserved":false,"is_disabled":true,"rental_uris":{"android":"levelo://app?vid=61b9faaf-70f4-4463-9888-117ec4b84898","ios":"levelo://app?vid=61b9faaf-70f4-4463-9888-117ec4b84898"},"vehicle_type_id":"4","last_reported":1751037096,"current_range_meters":0,"station_id":"ce4bho12rcd13ifvqh1g","pricing_plan_id":"cebpf4jnsgd1na2vs0mg"},{"bike_id":"be0eb6d6-7d0b-434b-bfdf-dc812bd192cb","system_id":"levelo_inurba_marseille","lat":43.32371,"lon":5.3676,"is_reserved":false,"is_disabled":true,"rental_uris":{"android":"levelo://app?vid=be0eb6d6-7d0b-434b-bfdf-dc812bd192cb","ios":"levelo://app?vid=be0eb6d6-7d0b-434b-bfdf-dc812bd192cb"},"vehicle_type_id":"4","last_reported":1751037096,"current_range_meters":0,"station_id":"ce4bhsh2rcd13ifvqi2g","pricing_plan_id":"cebpf4jnsgd1na2vs0mg"},{"bike_id":"29ec4185-f87e-45a2-91e6-759a1d934b1c","system_id":"levelo_inurba_marseille","lat":43.217432,"lon":5.346013,"is_reserved":false,"is_disabled":true,"rental_uris":{"android":"levelo://app?vid=29ec4185-f87e-45a2-91e6-759a1d934b1c","ios":"levelo://app?vid=29ec4185-f87e-45a2-91e6-759a1d934b1c"},"vehicle_type_id":"4","last_reported":1751037096,"current_range_meters":0,"station_id":"st_cvj6r9ubvosntc0bgbag","pricing_plan_id":"cebpf4jnsgd1na2vs0mg"},{"bike_id":"0affcddd-58d0-4262-95bb-3840d92b9c9e","system_id":"levelo_inurba_marseille","lat":43.29602,"lon":5.37723,"is_reserved":false,"is_disabled":true,"rental_uris":{"android":"levelo://app?vid=0affcddd-58d0-4262-95bb-3840d92b9c9e","ios":"levelo://app?vid=0affcddd-58d0-4262-95bb-3840d92b9c9e"},"vehicle_type_id":"4","last_reported":1751037096,"current_range_meters":400,"station_id":"ce4bgi92rcd13ifvqb90","pricing_plan_id":"cebpf4jnsgd1na2vs0mg"},{"bike_id":"bf3fffa2-17dc-4566-a08e-0ac25088b4cc","system_id":"levelo_inurba_marseille","lat":43.30326,"lon":5.369,"is_reserved":false,"is_disabled":true,"rental_uris":{"android":"levelo://app?vid=bf3fffa2-17dc-4566-a08e-0ac25088b4cc","ios":"levelo://app?vid=bf3fffa2-17dc-4566-a08e-0ac25088b4cc"},"vehicle_type_id":"4","last_reported":1751037096,"current_range_meters":400,"station_id":"ce4bgqh2rcd13ifvqc5g","pricing_plan_id":"cebpf4jnsgd1na2vs0mg"},{"bike_id":"7253902b-c944-4da4-b5ab-0bb8b5af7535","system_id":"levelo_inurba_marseille","lat":43.296267,"lon":5.405928,"is_reserved":false,"is_disabled":true,"rental_uris":{"android":"levelo://app?vid=7253902b-c944-4da4-b5ab-0bb8b5af7535","ios":"levelo://app?vid=7253902b-c944-4da4-b5ab-0bb8b5af7535"},"vehicle_type_id":"4","last_reported":1751037096,"current_range_meters":400,"station_id":"ce4bh0h2rcd13ifvqd60","pricing_plan_id":"cebpf4jnsgd1na2vs0mg"},{"bike_id":"e38558ed-3f8a-4e64-989e-db9a6d3c5882","system_id":"levelo_inurba_marseille","lat":43.291741,"lon":5.355843,"is_reserved":false,"is_disabled":true,"rental_uris":{"android":"levelo://app?vid=e38558ed-3f8a-4e64-989e-db9a6d3c5882","ios":"levelo://app?vid=e38558ed-3f8a-4e64-989e-db9a6d3c5882"},"vehicle_type_id":"4","last_reported":1751037096,"current_range_meters":400,"station_id":"ce4bhb92rcd13ifvqen0","pricing_plan_id":"cebpf4jnsgd1na2vs0mg"},{"bike_id":"7086b0f2-c8e5-4db0-ac42-3328af2cfdc1","system_id":"levelo_inurba_marseille","lat":43.257187,"lon":5.41107,"is_reserved":false,"is_disabled":true,"rental_uris":{"android":"levelo://app?vid=7086b0f2-c8e5-4db0-ac42-3328af2cfdc1","ios":"levelo://app?vid=7086b0f2-c8e5-4db0-ac42-3328af2cfdc1"},"vehicle_type_id":"4","last_reported":1751037096,"current_range_meters":400,"station_id":"ce4bhkp2rcd13ifvqgd0","pricing_plan_id":"cebpf4jnsgd1na2vs0mg"},{"bike_id":"fed1680d-f887-458f-a5fd-e3fdd34ed035","system_id":"levelo_inurba_marseille","lat":43.3267,"lon":5.40985,"is_reserved":false,"is_disabled":true,"rental_uris":{"android":"levelo://app?vid=fed1680d-f887-458f-a5fd-e3fdd34ed035","ios":"levelo://app?vid=fed1680d-f887-458f-a5fd-e3fdd34ed035"},"vehicle_type_id":"4","last_reported":1751037096,"current_range_meters":400,"station_id":"ce4bhpp2rcd13ifvqhgg","pricing_plan_id":"cebpf4jnsgd1na2vs0mg"},{"bike_id":"a75d4f69-38bf-4039-b046-6f30f16325af","system_id":"levelo_inurba_marseille","lat":43.34147,"lon":5.40904,"is_reserved":false,"is_disabled":true,"rental_uris":{"android":"levelo://app?vid=a75d4f69-38bf-4039-b046-6f30f16325af","ios":"levelo://app?vid=a75d4f69-38bf-4039-b046-6f30f16325af"},"vehicle_type_id":"4","last_reported":1751037096,"current_range_meters":400,"station_id":"ce4bhqh2rcd13ifvqhlg","pricing_plan_id":"cebpf4jnsgd1na2vs0mg"},{"bike_id":"63afe789-9367-440d-8695-6dbe7ac0e77b","system_id":"levelo_inurba_marseille","lat":43.3024,"lon":5.4004,"is_reserved":false,"is_disabled":true,"rental_uris":{"android":"levelo://app?vid=63afe789-9367-440d-8695-6dbe7ac0e77b","ios":"levelo://app?vid=63afe789-9367-440d-8695-6dbe7ac0e77b"},"vehicle_type_id":"4","last_reported":1751037096,"current_range_meters":800,"station_id":"","pricing_plan_id":"cebpf4jnsgd1na2vs0mg"},{"bike_id":"75b99ce5-98e2-480a-a889-073abbac7a3e","system_id":"levelo_inurba_marseille","lat":43.29297,"lon":5.37448,"is_reserved":false,"is_disabled":true,"rental_uris":{"android":"levelo://app?vid=75b99ce5-98e2-480a-a889-073abbac7a3e","ios":"levelo://app?vid=75b99ce5-98e2-480a-a889-073abbac7a3e"},"vehicle_type_id":"4","last_reported":1751037096,"current_range_meters":800,"station_id":"ce4bgi12rcd13ifvqb70","pricing_plan_id":"cebpf4jnsgd1na2vs0mg"},{"bike_id":"959dd787-f8ca-4daa-bfa3-a3c8eac0b784","system_id":"levelo_inurba_marseille","lat":43.29179,"lon":5.35808,"is_reserved":false,"is_disabled":true,"rental_uris":{"android":"levelo://app?vid=959dd787-f8ca-4daa-bfa3-a3c8eac0b784","ios":"levelo://app?vid=959dd787-f8ca-4daa-bfa3-a3c8eac0b784"},"vehicle_type_id":"4","last_reported":1751037096,"current_range_meters":800,"station_id":"ce4bhb12rcd13ifvqel0","pricing_plan_id":"cebpf4jnsgd1na2vs0mg"},{"bike_id":"72f00892-a80d-4b1b-9b1c-2f869821bbfb","system_id":"levelo_inurba_marseille","lat":43.28267,"lon":5.3506,"is_reserved":false,"is_disabled":true,"rental_uris":{"android":"levelo://app?vid=72f00892-a80d-4b1b-9b1c-2f869821bbfb","ios":"levelo://app?vid=72f00892-a80d-4b1b-9b1c-2f869821bbfb"},"vehicle_type_id":"4","last_reported":1751037096,"current_range_meters":800,"station_id":"ce4bhbp2rcd13ifvqerg","pricing_plan_id":"cebpf4jnsgd1na2vs0mg"},{"bike_id":"c5fc478f-ede6-423e-a15d-8548bba2c42c","system_id":"levelo_inurba_marseille","lat":43.26054,"lon":5.39397,"is_reserved":false,"is_disabled":true,"rental_uris":{"android":"levelo://app?vid=c5fc478f-ede6-423e-a15d-8548bba2c42c","ios":"levelo://app?vid=c5fc478f-ede6-423e-a15d-8548bba2c42c"},"vehicle_type_id":"4","last_reported":1751037096,"current_range_meters":800,"station_id":"ce4bhh92rcd13ifvqfj0","pricing_plan_id":"cebpf4jnsgd1na2vs0mg"},{"bike_id":"a7783f43-fb62-47f3-8ec6-b33e676e2cea","system_id":"levelo_inurba_marseille","lat":43.27054,"lon":5.40271,"is_reserved":false,"is_disabled":true,"rental_uris":{"android":"levelo://app?vid=a7783f43-fb62-47f3-8ec6-b33e676e2cea","ios":"levelo://app?vid=a7783f43-fb62-47f3-8ec6-b33e676e2cea"},"vehicle_type_id":"4","last_reported":1751037096,"current_range_meters":800,"station_id":"ce4bhk92rcd13ifvqgc0","pricing_plan_id":"cebpf4jnsgd1na2vs0mg"},{"bike_id":"d5ba279e-2016-4f70-adda-d5cd5895cd7b","system_id":"levelo_inurba_marseille","lat":43.28698,"lon":5.39983,"is_reserved":false,"is_disabled":true,"rental_uris":{"android":"levelo://app?vid=d5ba279e-2016-4f70-adda-d5cd5895cd7b","ios":"levelo://app?vid=d5ba279e-2016-4f70-adda-d5cd5895cd7b"},"vehicle_type_id":"4","last_reported":1751037096,"current_range_meters":800,"station_id":"ce4bho92rcd13ifvqh3g","pricing_plan_id":"cebpf4jnsgd1na2vs0mg"},{"bike_id":"af0c4fcb-3933-4529-824b-8026e2b2bc05","system_id":"levelo_inurba_marseille","lat":43.295807,"lon":5.380835,"is_reserved":false,"is_disabled":true,"rental_uris":{"android":"levelo://app?vid=af0c4fcb-3933-4529-824b-8026e2b2bc05","ios":"levelo://app?vid=af0c4fcb-3933-4529-824b-8026e2b2bc05"},"vehicle_type_id":"4","last_reported":1751037096,"current_range_meters":1200,"station_id":"ce4bgl12rcd13ifvqbo0","pricing_plan_id":"cebpf4jnsgd1na2vs0mg"},{"bike_id":"4412d74c-58b0-40dd-bdfe-405fd5c98761","system_id":"levelo_inurba_marseille","lat":43.30141,"lon":5.37418,"is_reserved":false,"is_disabled":true,"rental_uris":{"android":"levelo://app?vid=4412d74c-58b0-40dd-bdfe-405fd5c98761","ios":"levelo://app?vid=4412d74c-58b0-40dd-bdfe-405fd5c98761"},"vehicle_type_id":"4","last_reported":1751037096,"current_range_meters":1200,"station_id":"ce4bgs92rcd13ifvqcc0","pricing_plan_id":"cebpf4jnsgd1na2vs0mg"},{"bike_id":"6cd16220-a3b7-4214-9fad-90cf48ed0e64","system_id":"levelo_inurba_marseille","lat":43.30956,"lon":5.39027,"is_reserved":false,"is_disabled":true,"rental_uris":{"android":"levelo://app?vid=6cd16220-a3b7-4214-9fad-90cf48ed0e64","ios":"levelo://app?vid=6cd16220-a3b7-4214-9fad-90cf48ed0e64"},"vehicle_type_id":"4","last_reported":1751037096,"current_range_meters":1200,"station_id":"ce4bgup2rcd13ifvqco0","pricing_plan_id":"cebpf4jnsgd1na2vs0mg"},{"bike_id":"aa5d209f-ee93-40b5-a894-258174c3fa42","system_id":"levelo_inurba_marseille","lat":43.30644,"lon":5.40098,"is_reserved":false,"is_disabled":true,"rental_uris":{"android":"levelo://app?vid=aa5d209f-ee93-40b5-a894-258174c3fa42","ios":"levelo://app?vid=aa5d209f-ee93-40b5-a894-258174c3fa42"},"vehicle_type_id":"4","last_reported":1751037096,"current_range_meters":1200,"station_id":"ce4bh112rcd13ifvqda0","pricing_plan_id":"cebpf4jnsgd1na2vs0mg"},{"bike_id":"6d149814-1bf6-4cdd-ae05-b3cf8d8763e3","system_id":"levelo_inurba_marseille","lat":43.290412,"lon":5.37556,"is_reserved":false,"is_disabled":true,"rental_uris":{"android":"levelo://app?vid=6d149814-1bf6-4cdd-ae05-b3cf8d8763e3","ios":"levelo://app?vid=6d149814-1bf6-4cdd-ae05-b3cf8d8763e3"},"vehicle_type_id":"4","last_reported":1751037096,"current_range_meters":1200,"station_id":"ce4bh692rcd13ifvqe90","pricing_plan_id":"cebpf4jnsgd1na2vs0mg"},{"bike_id":"3007d213-9868-4603-b5d1-fd45a506ca5a","system_id":"levelo_inurba_marseille","lat":43.29516,"lon":5.37502,"is_reserved":false,"is_disabled":true,"rental_uris":{"android":"levelo://app?vid=3007d213-9868-4603-b5d1-fd45a506ca5a","ios":"levelo://app?vid=3007d213-9868-4603-b5d1-fd45a506ca5a"},"vehicle_type_id":"4","last_reported":1751037096,"current_range_meters":1600,"station_id":"ce4bgkp2rcd13ifvqbmg","pricing_plan_id":"cebpf4jnsgd1na2vs0mg"},{"bike_id":"937bd045-4675-4f30-8d9c-3e2b833790f7","system_id":"levelo_inurba_marseille","lat":43.28484,"lon":5.3855,"is_reserved":false,"is_disabled":true,"rental_uris":{"android":"levelo://app?vid=937bd045-4675-4f30-8d9c-3e2b833790f7","ios":"levelo://app?vid=937bd045-4675-4f30-8d9c-3e2b833790f7"},"vehicle_type_id":"4","last_reported":1751037096,"current_range_meters":1600,"station_id":"ce4bh8p2rcd13ifvqeb0","pricing_plan_id":"cebpf4jnsgd1na2vs0mg"},{"bike_id":"117b450b-f8aa-4b8b-9573-7873c047e283","system_id":"levelo_inurba_marseille","lat":43.28618,"lon":5.35097,"is_reserved":false,"is_disabled":true,"rental_uris":{"android":"levelo://app?vid=117b450b-f8aa-4b8b-9573-7873c047e283","ios":"levelo://app?vid=117b450b-f8aa-4b8b-9573-7873c047e283"},"vehicle_type_id":"4","last_reported":1751037096,"current_range_meters":1600,"station_id":"ce4bhch2rcd13ifvqeug","pricing_plan_id":"cebpf4jnsgd1na2vs0mg"},{"bike_id":"1ea4dde3-811f-451d-aadf-9ea852db2535","system_id":"levelo_inurba_marseille","lat":43.26213,"lon":5.37442,"is_reserved":false,"is_disabled":true,"rental_uris":{"android":"levelo://app?vid=1ea4dde3-811f-451d-aadf-9ea852db2535","ios":"levelo://app?vid=1ea4dde3-811f-451d-aadf-9ea852db2535"},"vehicle_type_id":"4","last_reported":1751037096,"current_range_meters":1600,"station_id":"ce4bhgp2rcd13ifvqfc0","pricing_plan_id":"cebpf4jnsgd1na2vs0mg"},{"bike_id":"58a47ce2-929f-4eac-934f-15ec3c5abe4f","system_id":"levelo_inurba_marseille","lat":43.24389,"lon":5.37061,"is_reserved":false,"is_disabled":true,"rental_uris":{"android":"levelo://app?vid=58a47ce2-929f-4eac-934f-15ec3c5abe4f","ios":"levelo://app?vid=58a47ce2-929f-4eac-934f-15ec3c5abe4f"},"vehicle_type_id":"4","last_reported":1751037096,"current_range_meters":1600,"station_id":"ce4bhhh2rcd13ifvqfk0","pricing_plan_id":"cebpf4jnsgd1na2vs0mg"},{"bike_id":"f5d49feb-615e-4414-aba2-00fea6985c6a","system_id":"levelo_inurba_marseille","lat":43.27205,"lon":5.39176,"is_reserved":false,"is_disabled":true,"rental_uris":{"android":"levelo://app?vid=f5d49feb-615e-4414-aba2-00fea6985c6a","ios":"levelo://app?vid=f5d49feb-615e-4414-aba2-00fea6985c6a"},"vehicle_type_id":"4","last_reported":1751037096,"current_range_meters":1600,"station_id":"ce4bhhp2rcd13ifvqfm0","pricing_plan_id":"cebpf4jnsgd1na2vs0mg"},{"bike_id":"a86d2f9f-83d8-4f17-8422-d08e982c4a2a","system_id":"levelo_inurba_marseille","lat":43.29738,"lon":5.44869,"is_reserved":false,"is_disabled":true,"rental_uris":{"android":"levelo://app?vid=a86d2f9f-83d8-4f17-8422-d08e982c4a2a","ios":"levelo://app?vid=a86d2f9f-83d8-4f17-8422-d08e982c4a2a"},"vehicle_type_id":"4","last_reported":1751037096,"current_range_meters":2000,"station_id":"","pricing_plan_id":"cebpf4jnsgd1na2vs0mg"},{"bike_id":"0da033a7-4a00-4d3b-ac57-bcfe28fb5ad5","system_id":"levelo_inurba_marseille","lat":43.27621,"lon":5.36107,"is_reserved":false,"is_disabled":true,"rental_uris":{"android":"levelo://app?vid=0da033a7-4a00-4d3b-ac57-bcfe28fb5ad5","ios":"levelo://app?vid=0da033a7-4a00-4d3b-ac57-bcfe28fb5ad5"},"vehicle_type_id":"4","last_reported":1751037096,"current_range_meters":2000,"station_id":"ce4bgj92rcd13ifvqbe0","pricing_plan_id":"cebpf4jnsgd1na2vs0mg"},{"bike_id":"a13da4d5-7061-475c-914a-bcd15a2a7786","system_id":"levelo_inurba_marseille","lat":43.29263,"lon":5.3844,"is_reserved":false,"is_disabled":true,"rental_uris":{"android":"levelo://app?vid=a13da4d5-7061-475c-914a-bcd15a2a7786","ios":"levelo://app?vid=a13da4d5-7061-475c-914a-bcd15a2a7786"},"vehicle_type_id":"4","last_reported":1751037096,"current_range_meters":2000,"station_id":"ce4bh692rcd13ifvqea0","pricing_plan_id":"cebpf4jnsgd1na2vs0mg"},{"bike_id":"275d31be-6fee-4f29-b01e-f20768e97fd1","system_id":"levelo_inurba_marseille","lat":43.272,"lon":5.39173,"is_reserved":false,"is_disabled":true,"rental_uris":{"android":"levelo://app?vid=275d31be-6fee-4f29-b01e-f20768e97fd1","ios":"levelo://app?vid=275d31be-6fee-4f29-b01e-f20768e97fd1"},"vehicle_type_id":"4","last_reported":1751037096,"current_range_meters":2000,"station_id":"ce4bhhp2rcd13ifvqfm0","pricing_plan_id":"cebpf4jnsgd1na2vs0mg"},{"bike_id":"26a14eba-87a9-47b8-9607-30bd0042d428","system_id":"levelo_inurba_marseille","lat":43.31465,"lon":5.39449,"is_reserved":false,"is_disabled":false,"rental_uris":{"android":"levelo://app?vid=26a14eba-87a9-47b8-9607-30bd0042d428","ios":"levelo://app?vid=26a14eba-87a9-47b8-9607-30bd0042d428"},"vehicle_type_id":"4","last_reported":1751037096,"current_range_meters":2800,"station_id":"","pricing_plan_id":"cebpf4jnsgd1na2vs0mg"},{"bike_id":"3e5d0ae7-bac3-40ea-95d2-50ef1aae7bc7","system_id":"levelo_inurba_marseille","lat":43.26825,"lon":5.41585,"is_reserved":false,"is_disabled":false,"rental_uris":{"android":"levelo://app?vid=3e5d0ae7-bac3-40ea-95d2-50ef1aae7bc7","ios":"levelo://app?vid=3e5d0ae7-bac3-40ea-95d2-50ef1aae7bc7"},"vehicle_type_id":"4","last_reported":1751037096,"current_range_meters":2800,"station_id":"","pricing_plan_id":"cebpf4jnsgd1na2vs0mg"},{"bike_id":"93041caa-55c9-4381-93de-79cce51a32ee","system_id":"levelo_inurba_marseille","lat":43.30146,"lon":5.37408,"is_reserved":false,"is_disabled":false,"rental_uris":{"android":"levelo://app?vid=93041caa-55c9-4381-93de-79cce51a32ee","ios":"levelo://app?vid=93041caa-55c9-4381-93de-79cce51a32ee"},"vehicle_type_id":"4","last_reported":1751037096,"current_range_meters":2800,"station_id":"ce4bgs92rcd13ifvqcc0","pricing_plan_id":"cebpf4jnsgd1na2vs0mg"},{"bike_id":"753ce363-f034-4655-bec8-70aa5e59bf82","system_id":"levelo_inurba_marseille","lat":43.31323,"lon":5.39691,"is_reserved":false,"is_disabled":false,"rental_uris":{"android":"levelo://app?vid=753ce363-f034-4655-bec8-70aa5e59bf82","ios":"levelo://app?vid=753ce363-f034-4655-bec8-70aa5e59bf82"},"vehicle_type_id":"4","last_reported":1751037096,"current_range_meters":2800,"station_id":"ce4bgvp2rcd13ifvqcu0","pricing_plan_id":"cebpf4jnsgd1na2vs0mg"},{"bike_id":"fd153c22-dd9e-4edb-b070-ca3d04794668","system_id":"levelo_inurba_marseille","lat":43.29005,"lon":5.35603,"is_reserved":false,"is_disabled":false,"rental_uris":{"android":"levelo://app?vid=fd153c22-dd9e-4edb-b070-ca3d04794668","ios":"levelo://app?vid=fd153c22-dd9e-4edb-b070-ca3d04794668"},"vehicle_type_id":"4","last_reported":1751037096,"current_range_meters":2800,"station_id":"ce4bhb92rcd13ifvqen0","pricing_plan_id":"cebpf4jnsgd1na2vs0mg"},{"bike_id":"eaffffe9-733a-45f2-9392-f9c170b931f8","system_id":"levelo_inurba_marseille","lat":43.28421,"lon":5.34988,"is_reserved":false,"is_disabled":false,"rental_uris":{"android":"levelo://app?vid=eaffffe9-733a-45f2-9392-f9c170b931f8","ios":"levelo://app?vid=eaffffe9-733a-45f2-9392-f9c170b931f8"},"vehicle_type_id":"4","last_reported":1751037096,"current_range_meters":2800,"station_id":"ce4bhbh2rcd13ifvqepg","pricing_plan_id":"cebpf4jnsgd1na2vs0mg"},{"bike_id":"28447c54-e407-4d60-aae1-7e0960b60208","system_id":"levelo_inurba_marseille","lat":43.2827,"lon":5.35075,"is_reserved":false,"is_disabled":false,"rental_uris":{"android":"levelo://app?vid=28447c54-e407-4d60-aae1-7e0960b60208","ios":"levelo://app?vid=28447c54-e407-4d60-aae1-7e0960b60208"},"vehicle_type_id":"4","last_reported":1751037096,"current_range_meters":2800,"station_id":"ce4bhbp2rcd13ifvqerg","pricing_plan_id":"cebpf4jnsgd1na2vs0mg"},{"bike_id":"af112b62-19de-41d4-b8d7-e14d0172315d","system_id":"levelo_inurba_marseille","lat":43.32655,"lon":5.39277,"is_reserved":false,"is_disabled":false,"rental_uris":{"android":"levelo://app?vid=af112b62-19de-41d4-b8d7-e14d0172315d","ios":"levelo://app?vid=af112b62-19de-41d4-b8d7-e14d0172315d"},"vehicle_type_id":"4","last_reported":1751037096,"current_range_meters":3200,"station_id":"","pricing_plan_id":"cebpf4jnsgd1na2vs0mg"},{"bike_id":"7d5b7f9b-1501-4f7d-bc70-b588d87f91e0","system_id":"levelo_inurba_marseille","lat":43.30649,"lon":5.40345,"is_reserved":false,"is_disabled":false,"rental_uris":{"android":"levelo://app?vid=7d5b7f9b-1501-4f7d-bc70-b588d87f91e0","ios":"levelo://app?vid=7d5b7f9b-1501-4f7d-bc70-b588d87f91e0"},"vehicle_type_id":"4","last_reported":1751037096,"current_range_meters":3200,"station_id":"","pricing_plan_id":"cebpf4jnsgd1na2vs0mg"},{"bike_id":"aee478dc-2d7e-4272-bef8-899c0a4072a3","system_id":"levelo_inurba_marseille","lat":43.27614,"lon":5.36107,"is_reserved":false,"is_disabled":false,"rental_uris":{"android":"levelo://app?vid=aee478dc-2d7e-4272-bef8-899c0a4072a3","ios":"levelo://app?vid=aee478dc-2d7e-4272-bef8-899c0a4072a3"},"vehicle_type_id":"4","last_reported":1751037096,"current_range_meters":3200,"station_id":"ce4bgj92rcd13ifvqbe0","pricing_plan_id":"cebpf4jnsgd1na2vs0mg"},{"bike_id":"c435faa3-c1f0-418d-8f7e-e1c93b8d8fff","system_id":"levelo_inurba_marseille","lat":43.30591,"lon":5.37209,"is_reserved":false,"is_disabled":false,"rental_uris":{"android":"levelo://app?vid=c435faa3-c1f0-418d-8f7e-e1c93b8d8fff","ios":"levelo://app?vid=c435faa3-c1f0-418d-8f7e-e1c93b8d8fff"},"vehicle_type_id":"4","last_reported":1751037096,"current_range_meters":3200,"station_id":"ce4bgqh2rcd13ifvqc4g","pricing_plan_id":"cebpf4jnsgd1na2vs0mg"},{"bike_id":"7ec6395b-2ab4-4cd3-880a-eef4f4ce66ba","system_id":"levelo_inurba_marseille","lat":43.3117,"lon":5.38709,"is_reserved":false,"is_disabled":false,"rental_uris":{"android":"levelo://app?vid=7ec6395b-2ab4-4cd3-880a-eef4f4ce66ba","ios":"levelo://app?vid=7ec6395b-2ab4-4cd3-880a-eef4f4ce66ba"},"vehicle_type_id":"4","last_reported":1751037096,"current_range_meters":3200,"station_id":"ce4bgv12rcd13ifvqcp0","pricing_plan_id":"cebpf4jnsgd1na2vs0mg"},{"bike_id":"d337000c-c90c-4fcf-bf04-7bd0595a18ce","system_id":"levelo_inurba_marseille","lat":43.29006,"lon":5.35602,"is_reserved":false,"is_disabled":false,"rental_uris":{"android":"levelo://app?vid=d337000c-c90c-4fcf-bf04-7bd0595a18ce","ios":"levelo://app?vid=d337000c-c90c-4fcf-bf04-7bd0595a18ce"},"vehicle_type_id":"4","last_reported":1751037096,"current_range_meters":3200,"station_id":"ce4bhb92rcd13ifvqen0","pricing_plan_id":"cebpf4jnsgd1na2vs0mg"},{"bike_id":"646404cf-52f2-455c-a961-4e8b21ea6c3e","system_id":"levelo_inurba_marseille","lat":43.30425,"lon":5.41278,"is_reserved":false,"is_disabled":false,"rental_uris":{"android":"levelo://app?vid=646404cf-52f2-455c-a961-4e8b21ea6c3e","ios":"levelo://app?vid=646404cf-52f2-455c-a961-4e8b21ea6c3e"},"vehicle_type_id":"4","last_reported":1751037096,"current_range_meters":3200,"station_id":"ce4bhop2rcd13ifvqh8g","pricing_plan_id":"cebpf4jnsgd1na2vs0mg"},{"bike_id":"a3c67db6-37a1-4c64-9765-7e1af635b266","system_id":"levelo_inurba_marseille","lat":43.30593,"lon":5.37225,"is_reserved":false,"is_disabled":false,"rental_uris":{"android":"levelo://app?vid=a3c67db6-37a1-4c64-9765-7e1af635b266","ios":"levelo://app?vid=a3c67db6-37a1-4c64-9765-7e1af635b266"},"vehicle_type_id":"4","last_reported":1751037096,"current_range_meters":4000,"station_id":"ce4bgqh2rcd13ifvqc4g","pricing_plan_id":"cebpf4jnsgd1na2vs0mg"},{"bike_id":"39eed2d3-6e4e-4e0b-8507-9bb9cc7c965b","system_id":"levelo_inurba_marseille","lat":43.31488,"lon":5.37305,"is_reserved":false,"is_disabled":false,"rental_uris":{"android":"levelo://app?vid=39eed2d3-6e4e-4e0b-8507-9bb9cc7c965b","ios":"levelo://app?vid=39eed2d3-6e4e-4e0b-8507-9bb9cc7c965b"},"vehicle_type_id":"4","last_reported":1751037096,"current_range_meters":4000,"station_id":"ce4bgt12rcd13ifvqcd0","pricing_plan_id":"cebpf4jnsgd1na2vs0mg"},{"bike_id":"dfe524a8-873f-41c8-ab10-3972457bc278","system_id":"levelo_inurba_marseille","lat":43.290039,"lon":5.356136,"is_reserved":false,"is_disabled":false,"rental_uris":{"android":"levelo://app?vid=dfe524a8-873f-41c8-ab10-3972457bc278","ios":"levelo://app?vid=dfe524a8-873f-41c8-ab10-3972457bc278"},"vehicle_type_id":"4","last_reported":1751037096,"current_range_meters":4000,"station_id":"ce4bhb92rcd13ifvqen0","pricing_plan_id":"cebpf4jnsgd1na2vs0mg"},{"bike_id":"9ce852fe-9449-4c16-b29b-642a7abdbbbf","system_id":"levelo_inurba_marseille","lat":43.27386,"lon":5.36229,"is_reserved":false,"is_disabled":false,"rental_uris":{"android":"levelo://app?vid=9ce852fe-9449-4c16-b29b-642a7abdbbbf","ios":"levelo://app?vid=9ce852fe-9449-4c16-b29b-642a7abdbbbf"},"vehicle_type_id":"4","last_reported":1751037096,"current_range_meters":4000,"station_id":"ce4bhbh2rcd13ifvqeo0","pricing_plan_id":"cebpf4jnsgd1na2vs0mg"},{"bike_id":"011b0d4e-f32e-4e04-befc-b5e1f4c48fb2","system_id":"levelo_inurba_marseille","lat":43.3037,"lon":5.42489,"is_reserved":false,"is_disabled":false,"rental_uris":{"android":"levelo://app?vid=011b0d4e-f32e-4e04-befc-b5e1f4c48fb2","ios":"levelo://app?vid=011b0d4e-f32e-4e04-befc-b5e1f4c48fb2"},"vehicle_type_id":"4","last_reported":1751037096,"current_range_meters":4000,"station_id":"ce4bhoh2rcd13ifvqh6g","pricing_plan_id":"cebpf4jnsgd1na2vs0mg"},{"bike_id":"489d7181-ff12-47b3-a599-451cc259d0e7","system_id":"levelo_inurba_marseille","lat":43.29965,"lon":5.38477,"is_reserved":false,"is_disabled":false,"rental_uris":{"android":"levelo://app?vid=489d7181-ff12-47b3-a599-451cc259d0e7","ios":"levelo://app?vid=489d7181-ff12-47b3-a599-451cc259d0e7"},"vehicle_type_id":"4","last_reported":1751037096,"current_range_meters":4400,"station_id":"ce4bgj92rcd13ifvqbd0","pricing_plan_id":"cebpf4jnsgd1na2vs0mg"},{"bike_id":"2311ce92-3e99-4db8-8ef5-6d723827fa13","system_id":"levelo_inurba_marseille","lat":43.30546,"lon":5.36541,"is_reserved":false,"is_disabled":false,"rental_uris":{"android":"levelo://app?vid=2311ce92-3e99-4db8-8ef5-6d723827fa13","ios":"levelo://app?vid=2311ce92-3e99-4db8-8ef5-6d723827fa13"},"vehicle_type_id":"4","last_reported":1751037096,"current_range_meters":4400,"station_id":"ce4bgs12rcd13ifvqcag","pricing_plan_id":"cebpf4jnsgd1na2vs0mg"},{"bike_id":"8519d1a7-2e02-480e-97e7-70382771539d","system_id":"levelo_inurba_marseille","lat":43.26502,"lon":5.39534,"is_reserved":false,"is_disabled":false,"rental_uris":{"android":"levelo://app?vid=8519d1a7-2e02-480e-97e7-70382771539d","ios":"levelo://app?vid=8519d1a7-2e02-480e-97e7-70382771539d"},"vehicle_type_id":"4","last_reported":1751037096,"current_range_meters":4400,"station_id":"ce4bhi12rcd13ifvqfq0","pricing_plan_id":"cebpf4jnsgd1na2vs0mg"},{"bike_id":"54953316-a09d-4354-80a0-ee05fcd5e79e","system_id":"levelo_inurba_marseille","lat":43.27992,"lon":5.40017,"is_reserved":false,"is_disabled":false,"rental_uris":{"android":"levelo://app?vid=54953316-a09d-4354-80a0-ee05fcd5e79e","ios":"levelo://app?vid=54953316-a09d-4354-80a0-ee05fcd5e79e"},"vehicle_type_id":"4","last_reported":1751037096,"current_range_meters":4400,"station_id":"ce4bho92rcd13ifvqh4g","pricing_plan_id":"cebpf4jnsgd1na2vs0mg"},{"bike_id":"e4594e54-d1ce-4b3c-99c0-1bec67a21327","system_id":"levelo_inurba_marseille","lat":43.29896,"lon":5.38496,"is_reserved":false,"is_disabled":false,"rental_uris":{"android":"levelo://app?vid=e4594e54-d1ce-4b3c-99c0-1bec67a21327","ios":"levelo://app?vid=e4594e54-d1ce-4b3c-99c0-1bec67a21327"},"vehicle_type_id":"4","last_reported":1751037096,"current_range_meters":4800,"station_id":"","pricing_plan_id":"cebpf4jnsgd1na2vs0mg"},{"bike_id":"11477c87-be38-4367-bd66-80d6168f94f5","system_id":"levelo_inurba_marseille","lat":43.30583,"lon":5.36576,"is_reserved":false,"is_disabled":false,"rental_uris":{"android":"levelo://app?vid=11477c87-be38-4367-bd66-80d6168f94f5","ios":"levelo://app?vid=11477c87-be38-4367-bd66-80d6168f94f5"},"vehicle_type_id":"4","last_reported":1751037096,"current_range_meters":4800,"station_id":"ce4bgs12rcd13ifvqcag","pricing_plan_id":"cebpf4jnsgd1na2vs0mg"},{"bike_id":"03d773fb-2954-4708-823c-56e95b7920b5","system_id":"levelo_inurba_marseille","lat":43.292656,"lon":5.368409,"is_reserved":false,"is_disabled":false,"rental_uris":{"android":"levelo://app?vid=03d773fb-2954-4708-823c-56e95b7920b5","ios":"levelo://app?vid=03d773fb-2954-4708-823c-56e95b7920b5"},"vehicle_type_id":"4","last_reported":1751037096,"current_range_meters":4800,"station_id":"ce4bhbp2rcd13ifvqesg","pricing_plan_id":"cebpf4jnsgd1na2vs0mg"},{"bike_id":"d3aa9c97-81b0-417b-a3eb-1cf5add54f4f","system_id":"levelo_inurba_marseille","lat":43.305404,"lon":5.365325,"is_reserved":false,"is_disabled":false,"rental_uris":{"android":"levelo://app?vid=d3aa9c97-81b0-417b-a3eb-1cf5add54f4f","ios":"levelo://app?vid=d3aa9c97-81b0-417b-a3eb-1cf5add54f4f"},"vehicle_type_id":"4","last_reported":1751037096,"current_range_meters":5600,"station_id":"ce4bgs12rcd13ifvqcag","pricing_plan_id":"cebpf4jnsgd1na2vs0mg"},{"bike_id":"6f8b3b36-7e0c-4ca3-a2e9-1fca04e07e49","system_id":"levelo_inurba_marseille","lat":43.29255,"lon":5.38426,"is_reserved":false,"is_disabled":false,"rental_uris":{"android":"levelo://app?vid=6f8b3b36-7e0c-4ca3-a2e9-1fca04e07e49","ios":"levelo://app?vid=6f8b3b36-7e0c-4ca3-a2e9-1fca04e07e49"},"vehicle_type_id":"4","last_reported":1751037096,"current_range_meters":5600,"station_id":"ce4bh692rcd13ifvqea0","pricing_plan_id":"cebpf4jnsgd1na2vs0mg"},{"bike_id":"e2f5b300-4a63-4778-aada-c29a8a0ea1e8","system_id":"levelo_inurba_marseille","lat":43.32776,"lon":5.39214,"is_reserved":false,"is_disabled":false,"rental_uris":{"android":"levelo://app?vid=e2f5b300-4a63-4778-aada-c29a8a0ea1e8","ios":"levelo://app?vid=e2f5b300-4a63-4778-aada-c29a8a0ea1e8"},"vehicle_type_id":"4","last_reported":1751037096,"current_range_meters":6000,"station_id":"","pricing_plan_id":"cebpf4jnsgd1na2vs0mg"},{"bike_id":"8bd3559e-2f30-4128-8f79-93838d36fd80","system_id":"levelo_inurba_marseille","lat":43.29704,"lon":5.36606,"is_reserved":false,"is_disabled":false,"rental_uris":{"android":"levelo://app?vid=8bd3559e-2f30-4128-8f79-93838d36fd80","ios":"levelo://app?vid=8bd3559e-2f30-4128-8f79-93838d36fd80"},"vehicle_type_id":"4","last_reported":1751037096,"current_range_meters":6000,"station_id":"ce4bgn12rcd13ifvqbt0","pricing_plan_id":"cebpf4jnsgd1na2vs0mg"},{"bike_id":"06f9e6a2-2a4e-4fd9-a751-890a35d76db8","system_id":"levelo_inurba_marseille","lat":43.286366,"lon":5.363237,"is_reserved":false,"is_disabled":false,"rental_uris":{"android":"levelo://app?vid=06f9e6a2-2a4e-4fd9-a751-890a35d76db8","ios":"levelo://app?vid=06f9e6a2-2a4e-4fd9-a751-890a35d76db8"},"vehicle_type_id":"4","last_reported":1751037096,"current_range_meters":6000,"station_id":"ce4bhah2rcd13ifvqei0","pricing_plan_id":"cebpf4jnsgd1na2vs0mg"},{"bike_id":"f9bf9e58-2b25-4369-9b8a-b1e9d35c6306","system_id":"levelo_inurba_marseille","lat":43.28459,"lon":5.35886,"is_reserved":false,"is_disabled":false,"rental_uris":{"android":"levelo://app?vid=f9bf9e58-2b25-4369-9b8a-b1e9d35c6306","ios":"levelo://app?vid=f9bf9e58-2b25-4369-9b8a-b1e9d35c6306"},"vehicle_type_id":"4","last_reported":1751037096,"current_range_meters":6000,"station_id":"ce4bhah2rcd13ifvqei0","pricing_plan_id":"cebpf4jnsgd1na2vs0mg"},{"bike_id":"a98fd970-88ac-431a-90ba-3731e0931174","system_id":"levelo_inurba_marseille","lat":43.31349,"lon":5.38606,"is_reserved":false,"is_disabled":false,"rental_uris":{"android":"levelo://app?vid=a98fd970-88ac-431a-90ba-3731e0931174","ios":"levelo://app?vid=a98fd970-88ac-431a-90ba-3731e0931174"},"vehicle_type_id":"4","last_reported":1751037096,"current_range_meters":6400,"station_id":"","pricing_plan_id":"cebpf4jnsgd1na2vs0mg"},{"bike_id":"8abd569a-944b-49dc-87a3-54720128b2b1","system_id":"levelo_inurba_marseille","lat":43.290134,"lon":5.356285,"is_reserved":false,"is_disabled":false,"rental_uris":{"android":"levelo://app?vid=8abd569a-944b-49dc-87a3-54720128b2b1","ios":"levelo://app?vid=8abd569a-944b-49dc-87a3-54720128b2b1"},"vehicle_type_id":"4","last_reported":1751037096,"current_range_meters":6400,"station_id":"ce4bhb92rcd13ifvqen0","pricing_plan_id":"cebpf4jnsgd1na2vs0mg"},{"bike_id":"1c486654-4a1f-41a7-9476-318774a6fc62","system_id":"levelo_inurba_marseille","lat":43.28266,"lon":5.35069,"is_reserved":false,"is_disabled":false,"rental_uris":{"android":"levelo://app?vid=1c486654-4a1f-41a7-9476-318774a6fc62","ios":"levelo://app?vid=1c486654-4a1f-41a7-9476-318774a6fc62"},"vehicle_type_id":"4","last_reported":1751037096,"current_range_meters":6400,"station_id":"ce4bhbp2rcd13ifvqerg","pricing_plan_id":"cebpf4jnsgd1na2vs0mg"},{"bike_id":"b517cf3c-a4f0-4c8d-9526-ab1dc03ea4fd","system_id":"levelo_inurba_marseille","lat":43.27068,"lon":5.42279,"is_reserved":false,"is_disabled":false,"rental_uris":{"android":"levelo://app?vid=b517cf3c-a4f0-4c8d-9526-ab1dc03ea4fd","ios":"levelo://app?vid=b517cf3c-a4f0-4c8d-9526-ab1dc03ea4fd"},"vehicle_type_id":"4","last_reported":1751037096,"current_range_meters":6400,"station_id":"ce4bhk92rcd13ifvqgb0","pricing_plan_id":"cebpf4jnsgd1na2vs0mg"},{"bike_id":"7ac2d6ad-16d3-463d-9f49-789f3bb8e5d0","system_id":"levelo_inurba_marseille","lat":43.33715,"lon":5.39192,"is_reserved":false,"is_disabled":false,"rental_uris":{"android":"levelo://app?vid=7ac2d6ad-16d3-463d-9f49-789f3bb8e5d0","ios":"levelo://app?vid=7ac2d6ad-16d3-463d-9f49-789f3bb8e5d0"},"vehicle_type_id":"4","last_reported":1751037096,"current_range_meters":6800,"station_id":"ce4bhr92rcd13ifvqhsg","pricing_plan_id":"cebpf4jnsgd1na2vs0mg"},{"bike_id":"a9d25cad-d480-4c75-aec5-3969f1a4e6c7","system_id":"levelo_inurba_marseille","lat":43.32933,"lon":5.39037,"is_reserved":false,"is_disabled":false,"rental_uris":{"android":"levelo://app?vid=a9d25cad-d480-4c75-aec5-3969f1a4e6c7","ios":"levelo://app?vid=a9d25cad-d480-4c75-aec5-3969f1a4e6c7"},"vehicle_type_id":"4","last_reported":1751037096,"current_range_meters":7200,"station_id":"","pricing_plan_id":"cebpf4jnsgd1na2vs0mg"},{"bike_id":"8f057286-fea7-41a1-b9df-52ef99ae4d47","system_id":"levelo_inurba_marseille","lat":43.30603,"lon":5.37229,"is_reserved":false,"is_disabled":false,"rental_uris":{"android":"levelo://app?vid=8f057286-fea7-41a1-b9df-52ef99ae4d47","ios":"levelo://app?vid=8f057286-fea7-41a1-b9df-52ef99ae4d47"},"vehicle_type_id":"4","last_reported":1751037096,"current_range_meters":7200,"station_id":"ce4bgqh2rcd13ifvqc4g","pricing_plan_id":"cebpf4jnsgd1na2vs0mg"},{"bike_id":"cc2b8e09-4009-4b9f-91b5-edca4bad3435","system_id":"levelo_inurba_marseille","lat":43.24387,"lon":5.3706,"is_reserved":false,"is_disabled":false,"rental_uris":{"android":"levelo://app?vid=cc2b8e09-4009-4b9f-91b5-edca4bad3435","ios":"levelo://app?vid=cc2b8e09-4009-4b9f-91b5-edca4bad3435"},"vehicle_type_id":"4","last_reported":1751037096,"current_range_meters":8000,"station_id":"ce4bhhh2rcd13ifvqfk0","pricing_plan_id":"cebpf4jnsgd1na2vs0mg"},{"bike_id":"94e84186-d780-461a-b647-8d1cf3f036ad","system_id":"levelo_inurba_marseille","lat":43.31716,"lon":5.37798,"is_reserved":false,"is_disabled":false,"rental_uris":{"android":"levelo://app?vid=94e84186-d780-461a-b647-8d1cf3f036ad","ios":"levelo://app?vid=94e84186-d780-461a-b647-8d1cf3f036ad"},"vehicle_type_id":"4","last_reported":1751037096,"current_range_meters":8400,"station_id":"","pricing_plan_id":"cebpf4jnsgd1na2vs0mg"},{"bike_id":"82665f13-18a8-4e2b-89d6-c24a3721d920","system_id":"levelo_inurba_marseille","lat":43.29361,"lon":5.385846,"is_reserved":false,"is_disabled":false,"rental_uris":{"android":"levelo://app?vid=82665f13-18a8-4e2b-89d6-c24a3721d920","ios":"levelo://app?vid=82665f13-18a8-4e2b-89d6-c24a3721d920"},"vehicle_type_id":"4","last_reported":1751037096,"current_range_meters":8400,"station_id":"ce4bh692rcd13ifvqea0","pricing_plan_id":"cebpf4jnsgd1na2vs0mg"},{"bike_id":"44b9e0c6-d77d-4cdc-bbe6-db50c0e86a0f","system_id":"levelo_inurba_marseille","lat":43.28406,"lon":5.34993,"is_reserved":false,"is_disabled":false,"rental_uris":{"android":"levelo://app?vid=44b9e0c6-d77d-4cdc-bbe6-db50c0e86a0f","ios":"levelo://app?vid=44b9e0c6-d77d-4cdc-bbe6-db50c0e86a0f"},"vehicle_type_id":"4","last_reported":1751037096,"current_range_meters":8400,"station_id":"ce4bhbh2rcd13ifvqepg","pricing_plan_id":"cebpf4jnsgd1na2vs0mg"},{"bike_id":"c90e62a8-6296-4024-a271-649ec1d6cde4","system_id":"levelo_inurba_marseille","lat":43.255193,"lon":5.376532,"is_reserved":false,"is_disabled":false,"rental_uris":{"android":"levelo://app?vid=c90e62a8-6296-4024-a271-649ec1d6cde4","ios":"levelo://app?vid=c90e62a8-6296-4024-a271-649ec1d6cde4"},"vehicle_type_id":"4","last_reported":1751037096,"current_range_meters":8400,"station_id":"ce4bhh12rcd13ifvqff0","pricing_plan_id":"cebpf4jnsgd1na2vs0mg"},{"bike_id":"761d85a7-9516-4714-8556-9f8392a9a96b","system_id":"levelo_inurba_marseille","lat":43.30391,"lon":5.42475,"is_reserved":false,"is_disabled":false,"rental_uris":{"android":"levelo://app?vid=761d85a7-9516-4714-8556-9f8392a9a96b","ios":"levelo://app?vid=761d85a7-9516-4714-8556-9f8392a9a96b"},"vehicle_type_id":"4","last_reported":1751037096,"current_range_meters":8400,"station_id":"ce4bhoh2rcd13ifvqh6g","pricing_plan_id":"cebpf4jnsgd1na2vs0mg"},{"bike_id":"d60113c8-3387-46de-adde-b2b1abf1350a","system_id":"levelo_inurba_marseille","lat":43.29965,"lon":5.41318,"is_reserved":false,"is_disabled":false,"rental_uris":{"android":"levelo://app?vid=d60113c8-3387-46de-adde-b2b1abf1350a","ios":"levelo://app?vid=d60113c8-3387-46de-adde-b2b1abf1350a"},"vehicle_type_id":"4","last_reported":1751037096,"current_range_meters":8400,"station_id":"ce4bhp12rcd13ifvqh9g","pricing_plan_id":"cebpf4jnsgd1na2vs0mg"},{"bike_id":"6d31f048-d73c-41cc-b3c8-639d13f63e10","system_id":"levelo_inurba_marseille","lat":43.31962,"lon":5.41585,"is_reserved":false,"is_disabled":false,"rental_uris":{"android":"levelo://app?vid=6d31f048-d73c-41cc-b3c8-639d13f63e10","ios":"levelo://app?vid=6d31f048-d73c-41cc-b3c8-639d13f63e10"},"vehicle_type_id":"4","last_reported":1751037096,"current_range_meters":8800,"station_id":"","pricing_plan_id":"cebpf4jnsgd1na2vs0mg"},{"bike_id":"f47876d7-9c85-474e-92c5-7a242e08b67c","system_id":"levelo_inurba_marseille","lat":43.30542,"lon":5.37575,"is_reserved":false,"is_disabled":false,"rental_uris":{"android":"levelo://app?vid=f47876d7-9c85-474e-92c5-7a242e08b67c","ios":"levelo://app?vid=f47876d7-9c85-474e-92c5-7a242e08b67c"},"vehicle_type_id":"4","last_reported":1751037096,"current_range_meters":8800,"station_id":"","pricing_plan_id":"cebpf4jnsgd1na2vs0mg"},{"bike_id":"bbe046fd-c5f5-4c09-bf31-7b916e01c743","system_id":"levelo_inurba_marseille","lat":43.31739,"lon":5.40424,"is_reserved":false,"is_disabled":false,"rental_uris":{"android":"levelo://app?vid=bbe046fd-c5f5-4c09-bf31-7b916e01c743","ios":"levelo://app?vid=bbe046fd-c5f5-4c09-bf31-7b916e01c743"},"vehicle_type_id":"4","last_reported":1751037096,"current_range_meters":8800,"station_id":"ce4bh012rcd13ifvqd00","pricing_plan_id":"cebpf4jnsgd1na2vs0mg"},{"bike_id":"3e8d9687-2a98-45aa-b830-dae14c618816","system_id":"levelo_inurba_marseille","lat":43.29036,"lon":5.37566,"is_reserved":false,"is_disabled":false,"rental_uris":{"android":"levelo://app?vid=3e8d9687-2a98-45aa-b830-dae14c618816","ios":"levelo://app?vid=3e8d9687-2a98-45aa-b830-dae14c618816"},"vehicle_type_id":"4","last_reported":1751037096,"current_range_meters":8800,"station_id":"ce4bh692rcd13ifvqe90","pricing_plan_id":"cebpf4jnsgd1na2vs0mg"},{"bike_id":"e099196e-5b56-4a7f-bbb8-af2237e505e5","system_id":"levelo_inurba_marseille","lat":43.25492,"lon":5.37647,"is_reserved":false,"is_disabled":false,"rental_uris":{"android":"levelo://app?vid=e099196e-5b56-4a7f-bbb8-af2237e505e5","ios":"levelo://app?vid=e099196e-5b56-4a7f-bbb8-af2237e505e5"},"vehicle_type_id":"4","last_reported":1751037096,"current_range_meters":8800,"station_id":"ce4bhh12rcd13ifvqff0","pricing_plan_id":"cebpf4jnsgd1na2vs0mg"},{"bike_id":"385cb043-23bb-4d9c-ab84-cb30b1af7436","system_id":"levelo_inurba_marseille","lat":43.26053,"lon":5.39391,"is_reserved":false,"is_disabled":false,"rental_uris":{"android":"levelo://app?vid=385cb043-23bb-4d9c-ab84-cb30b1af7436","ios":"levelo://app?vid=385cb043-23bb-4d9c-ab84-cb30b1af7436"},"vehicle_type_id":"4","last_reported":1751037096,"current_range_meters":8800,"station_id":"ce4bhh92rcd13ifvqfj0","pricing_plan_id":"cebpf4jnsgd1na2vs0mg"},{"bike_id":"f9f32e69-8e4d-412d-8436-da120bd31fff","system_id":"levelo_inurba_marseille","lat":43.24388,"lon":5.37057,"is_reserved":false,"is_disabled":false,"rental_uris":{"android":"levelo://app?vid=f9f32e69-8e4d-412d-8436-da120bd31fff","ios":"levelo://app?vid=f9f32e69-8e4d-412d-8436-da120bd31fff"},"vehicle_type_id":"4","last_reported":1751037096,"current_range_meters":8800,"station_id":"ce4bhhh2rcd13ifvqfk0","pricing_plan_id":"cebpf4jnsgd1na2vs0mg"},{"bike_id":"63259e90-c09d-49e0-9cbf-8970f95da02b","system_id":"levelo_inurba_marseille","lat":43.30375,"lon":5.42482,"is_reserved":false,"is_disabled":false,"rental_uris":{"android":"levelo://app?vid=63259e90-c09d-49e0-9cbf-8970f95da02b","ios":"levelo://app?vid=63259e90-c09d-49e0-9cbf-8970f95da02b"},"vehicle_type_id":"4","last_reported":1751037096,"current_range_meters":8800,"station_id":"ce4bhoh2rcd13ifvqh6g","pricing_plan_id":"cebpf4jnsgd1na2vs0mg"},{"bike_id":"e5b29f8a-6727-444e-a254-37c6282b67ee","system_id":"levelo_inurba_marseille","lat":43.26937,"lon":5.40244,"is_reserved":false,"is_disabled":false,"rental_uris":{"android":"levelo://app?vid=e5b29f8a-6727-444e-a254-37c6282b67ee","ios":"levelo://app?vid=e5b29f8a-6727-444e-a254-37c6282b67ee"},"vehicle_type_id":"4","last_reported":1751037096,"current_range_meters":8800,"station_id":"cjm6bp8fraef2m0cb0m0","pricing_plan_id":"cebpf4jnsgd1na2vs0mg"},{"bike_id":"ec2d5728-9962-43e7-8b03-1359420b0dd3","system_id":"levelo_inurba_marseille","lat":43.30719,"lon":5.40318,"is_reserved":false,"is_disabled":false,"rental_uris":{"android":"levelo://app?vid=ec2d5728-9962-43e7-8b03-1359420b0dd3","ios":"levelo://app?vid=ec2d5728-9962-43e7-8b03-1359420b0dd3"},"vehicle_type_id":"4","last_reported":1751037096,"current_range_meters":9200,"station_id":"","pricing_plan_id":"cebpf4jnsgd1na2vs0mg"},{"bike_id":"1053adde-6118-4e7b-b9bb-798a7938cd41","system_id":"levelo_inurba_marseille","lat":43.31298,"lon":5.373105,"is_reserved":false,"is_disabled":false,"rental_uris":{"android":"levelo://app?vid=1053adde-6118-4e7b-b9bb-798a7938cd41","ios":"levelo://app?vid=1053adde-6118-4e7b-b9bb-798a7938cd41"},"vehicle_type_id":"4","last_reported":1751037096,"current_range_meters":9200,"station_id":"","pricing_plan_id":"cebpf4jnsgd1na2vs0mg"},{"bike_id":"4c994478-d76f-486b-a085-91e08925bb19","system_id":"levelo_inurba_marseille","lat":43.28264,"lon":5.35068,"is_reserved":false,"is_disabled":false,"rental_uris":{"android":"levelo://app?vid=4c994478-d76f-486b-a085-91e08925bb19","ios":"levelo://app?vid=4c994478-d76f-486b-a085-91e08925bb19"},"vehicle_type_id":"4","last_reported":1751037096,"current_range_meters":9200,"station_id":"ce4bhbp2rcd13ifvqerg","pricing_plan_id":"cebpf4jnsgd1na2vs0mg"},{"bike_id":"d4e177ad-79e4-456e-933f-1e1248bff5f2","system_id":"levelo_inurba_marseille","lat":43.27071,"lon":5.42285,"is_reserved":false,"is_disabled":false,"rental_uris":{"android":"levelo://app?vid=d4e177ad-79e4-456e-933f-1e1248bff5f2","ios":"levelo://app?vid=d4e177ad-79e4-456e-933f-1e1248bff5f2"},"vehicle_type_id":"4","last_reported":1751037096,"current_range_meters":9200,"station_id":"ce4bhk92rcd13ifvqgb0","pricing_plan_id":"cebpf4jnsgd1na2vs0mg"},{"bike_id":"9a98623a-7147-47bb-9293-ef8f16d21bed","system_id":"levelo_inurba_marseille","lat":43.24544,"lon":5.39526,"is_reserved":false,"is_disabled":false,"rental_uris":{"android":"levelo://app?vid=9a98623a-7147-47bb-9293-ef8f16d21bed","ios":"levelo://app?vid=9a98623a-7147-47bb-9293-ef8f16d21bed"},"vehicle_type_id":"4","last_reported":1751037096,"current_range_meters":9200,"station_id":"ce4bhlp2rcd13ifvqgjg","pricing_plan_id":"cebpf4jnsgd1na2vs0mg"},{"bike_id":"4b8da722-ee9e-48a4-a5e5-3a8a10364708","system_id":"levelo_inurba_marseille","lat":43.31217,"lon":5.37821,"is_reserved":false,"is_disabled":false,"rental_uris":{"android":"levelo://app?vid=4b8da722-ee9e-48a4-a5e5-3a8a10364708","ios":"levelo://app?vid=4b8da722-ee9e-48a4-a5e5-3a8a10364708"},"vehicle_type_id":"4","last_reported":1751037096,"current_range_meters":9600,"station_id":"","pricing_plan_id":"cebpf4jnsgd1na2vs0mg"},{"bike_id":"35f6dc7e-c608-4cba-90e3-6d4179800fad","system_id":"levelo_inurba_marseille","lat":43.2827,"lon":5.35043,"is_reserved":false,"is_disabled":false,"rental_uris":{"android":"levelo://app?vid=35f6dc7e-c608-4cba-90e3-6d4179800fad","ios":"levelo://app?vid=35f6dc7e-c608-4cba-90e3-6d4179800fad"},"vehicle_type_id":"4","last_reported":1751037096,"current_range_meters":9600,"station_id":"ce4bhbp2rcd13ifvqerg","pricing_plan_id":"cebpf4jnsgd1na2vs0mg"},{"bike_id":"215840b3-a34c-43e4-a88f-51478b439d85","system_id":"levelo_inurba_marseille","lat":43.28617,"lon":5.35102,"is_reserved":false,"is_disabled":false,"rental_uris":{"android":"levelo://app?vid=215840b3-a34c-43e4-a88f-51478b439d85","ios":"levelo://app?vid=215840b3-a34c-43e4-a88f-51478b439d85"},"vehicle_type_id":"4","last_reported":1751037096,"current_range_meters":9600,"station_id":"ce4bhch2rcd13ifvqeug","pricing_plan_id":"cebpf4jnsgd1na2vs0mg"},{"bike_id":"bdee4145-fdcc-4fee-bf03-ffa3a6a5fef9","system_id":"levelo_inurba_marseille","lat":43.32102,"lon":5.36787,"is_reserved":false,"is_disabled":false,"rental_uris":{"android":"levelo://app?vid=bdee4145-fdcc-4fee-bf03-ffa3a6a5fef9","ios":"levelo://app?vid=bdee4145-fdcc-4fee-bf03-ffa3a6a5fef9"},"vehicle_type_id":"4","last_reported":1751037096,"current_range_meters":9600,"station_id":"ce4bhrh2rcd13ifvqhug","pricing_plan_id":"cebpf4jnsgd1na2vs0mg"},{"bike_id":"768c0104-715f-4ae7-8bb0-ad9c0d98e622","system_id":"levelo_inurba_marseille","lat":43.30652,"lon":5.39964,"is_reserved":false,"is_disabled":false,"rental_uris":{"android":"levelo://app?vid=768c0104-715f-4ae7-8bb0-ad9c0d98e622","ios":"levelo://app?vid=768c0104-715f-4ae7-8bb0-ad9c0d98e622"},"vehicle_type_id":"4","last_reported":1751037096,"current_range_meters":10000,"station_id":"","pricing_plan_id":"cebpf4jnsgd1na2vs0mg"},{"bike_id":"7be6d394-4b02-4487-b016-299631b3dfad","system_id":"levelo_inurba_marseille","lat":43.27173,"lon":5.40988,"is_reserved":false,"is_disabled":false,"rental_uris":{"android":"levelo://app?vid=7be6d394-4b02-4487-b016-299631b3dfad","ios":"levelo://app?vid=7be6d394-4b02-4487-b016-299631b3dfad"},"vehicle_type_id":"4","last_reported":1751037096,"current_range_meters":10000,"station_id":"ce4bhl12rcd13ifvqgf0","pricing_plan_id":"cebpf4jnsgd1na2vs0mg"},{"bike_id":"0bb947d4-d709-4bd5-aebe-f34f630b2808","system_id":"levelo_inurba_marseille","lat":43.27994,"lon":5.40015,"is_reserved":false,"is_disabled":false,"rental_uris":{"android":"levelo://app?vid=0bb947d4-d709-4bd5-aebe-f34f630b2808","ios":"levelo://app?vid=0bb947d4-d709-4bd5-aebe-f34f630b2808"},"vehicle_type_id":"4","last_reported":1751037096,"current_range_meters":10000,"station_id":"ce4bho92rcd13ifvqh4g","pricing_plan_id":"cebpf4jnsgd1na2vs0mg"},{"bike_id":"b7d0d8a1-c5dd-4278-8b3b-f5786872fe32","system_id":"levelo_inurba_marseille","lat":43.32105,"lon":5.36766,"is_reserved":false,"is_disabled":false,"rental_uris":{"android":"levelo://app?vid=b7d0d8a1-c5dd-4278-8b3b-f5786872fe32","ios":"levelo://app?vid=b7d0d8a1-c5dd-4278-8b3b-f5786872fe32"},"vehicle_type_id":"4","last_reported":1751037096,"current_range_meters":10000,"station_id":"ce4bhrh2rcd13ifvqhug","pricing_plan_id":"cebpf4jnsgd1na2vs0mg"},{"bike_id":"a59f1693-4717-4f9a-8362-937b09574bc0","system_id":"levelo_inurba_marseille","lat":43.298488,"lon":5.362888,"is_reserved":false,"is_disabled":false,"rental_uris":{"android":"levelo://app?vid=a59f1693-4717-4f9a-8362-937b09574bc0","ios":"levelo://app?vid=a59f1693-4717-4f9a-8362-937b09574bc0"},"vehicle_type_id":"4","last_reported":1751037096,"current_range_meters":10800,"station_id":"ce4bgpp2rcd13ifvqc3g","pricing_plan_id":"cebpf4jnsgd1na2vs0mg"},{"bike_id":"f1299479-81e3-4dec-aa8e-bee1f5e5ecc7","system_id":"levelo_inurba_marseille","lat":43.28395,"lon":5.34999,"is_reserved":false,"is_disabled":false,"rental_uris":{"android":"levelo://app?vid=f1299479-81e3-4dec-aa8e-bee1f5e5ecc7","ios":"levelo://app?vid=f1299479-81e3-4dec-aa8e-bee1f5e5ecc7"},"vehicle_type_id":"4","last_reported":1751037096,"current_range_meters":10800,"station_id":"ce4bhbh2rcd13ifvqepg","pricing_plan_id":"cebpf4jnsgd1na2vs0mg"},{"bike_id":"81ef019e-a307-48b3-975e-2a8eff26c968","system_id":"levelo_inurba_marseille","lat":43.28282,"lon":5.35084,"is_reserved":false,"is_disabled":false,"rental_uris":{"android":"levelo://app?vid=81ef019e-a307-48b3-975e-2a8eff26c968","ios":"levelo://app?vid=81ef019e-a307-48b3-975e-2a8eff26c968"},"vehicle_type_id":"4","last_reported":1751037096,"current_range_meters":10800,"station_id":"ce4bhbp2rcd13ifvqerg","pricing_plan_id":"cebpf4jnsgd1na2vs0mg"},{"bike_id":"3e6ddd3c-47c9-4057-bede-2b2d10eab3cb","system_id":"levelo_inurba_marseille","lat":43.28623,"lon":5.35096,"is_reserved":false,"is_disabled":false,"rental_uris":{"android":"levelo://app?vid=3e6ddd3c-47c9-4057-bede-2b2d10eab3cb","ios":"levelo://app?vid=3e6ddd3c-47c9-4057-bede-2b2d10eab3cb"},"vehicle_type_id":"4","last_reported":1751037096,"current_range_meters":10800,"station_id":"ce4bhch2rcd13ifvqeug","pricing_plan_id":"cebpf4jnsgd1na2vs0mg"},{"bike_id":"506d9da6-33ba-421b-be10-070c68a3cf99","system_id":"levelo_inurba_marseille","lat":43.28615,"lon":5.35101,"is_reserved":false,"is_disabled":false,"rental_uris":{"android":"levelo://app?vid=506d9da6-33ba-421b-be10-070c68a3cf99","ios":"levelo://app?vid=506d9da6-33ba-421b-be10-070c68a3cf99"},"vehicle_type_id":"4","last_reported":1751037096,"current_range_meters":10800,"station_id":"ce4bhch2rcd13ifvqeug","pricing_plan_id":"cebpf4jnsgd1na2vs0mg"},{"bike_id":"de14fbfd-6fd9-4a0e-8a32-02db29044ea1","system_id":"levelo_inurba_marseille","lat":43.276234,"lon":5.361009,"is_reserved":false,"is_disabled":false,"rental_uris":{"android":"levelo://app?vid=de14fbfd-6fd9-4a0e-8a32-02db29044ea1","ios":"levelo://app?vid=de14fbfd-6fd9-4a0e-8a32-02db29044ea1"},"vehicle_type_id":"4","last_reported":1751037096,"current_range_meters":11200,"station_id":"ce4bgj92rcd13ifvqbe0","pricing_plan_id":"cebpf4jnsgd1na2vs0mg"},{"bike_id":"95795fbb-6952-43ab-88c1-6e5de6e232c2","system_id":"levelo_inurba_marseille","lat":43.28419,"lon":5.37541,"is_reserved":false,"is_disabled":false,"rental_uris":{"android":"levelo://app?vid=95795fbb-6952-43ab-88c1-6e5de6e232c2","ios":"levelo://app?vid=95795fbb-6952-43ab-88c1-6e5de6e232c2"},"vehicle_type_id":"4","last_reported":1751037096,"current_range_meters":11200,"station_id":"ce4bh412rcd13ifvqds0","pricing_plan_id":"cebpf4jnsgd1na2vs0mg"},{"bike_id":"df9d330a-cbd4-4597-b999-ed135ac2cc4e","system_id":"levelo_inurba_marseille","lat":43.28616,"lon":5.351,"is_reserved":false,"is_disabled":false,"rental_uris":{"android":"levelo://app?vid=df9d330a-cbd4-4597-b999-ed135ac2cc4e","ios":"levelo://app?vid=df9d330a-cbd4-4597-b999-ed135ac2cc4e"},"vehicle_type_id":"4","last_reported":1751037096,"current_range_meters":11200,"station_id":"ce4bhch2rcd13ifvqeug","pricing_plan_id":"cebpf4jnsgd1na2vs0mg"},{"bike_id":"d93518a7-acea-49d1-8b1d-66917831e25a","system_id":"levelo_inurba_marseille","lat":43.28421,"lon":5.39565,"is_reserved":false,"is_disabled":false,"rental_uris":{"android":"levelo://app?vid=d93518a7-acea-49d1-8b1d-66917831e25a","ios":"levelo://app?vid=d93518a7-acea-49d1-8b1d-66917831e25a"},"vehicle_type_id":"4","last_reported":1751037096,"current_range_meters":11600,"station_id":"","pricing_plan_id":"cebpf4jnsgd1na2vs0mg"},{"bike_id":"090e2353-2712-433d-9e3b-f469d6de2ebc","system_id":"levelo_inurba_marseille","lat":43.2738,"lon":5.36249,"is_reserved":false,"is_disabled":false,"rental_uris":{"android":"levelo://app?vid=090e2353-2712-433d-9e3b-f469d6de2ebc","ios":"levelo://app?vid=090e2353-2712-433d-9e3b-f469d6de2ebc"},"vehicle_type_id":"4","last_reported":1751037096,"current_range_meters":11600,"station_id":"ce4bhbh2rcd13ifvqeo0","pricing_plan_id":"cebpf4jnsgd1na2vs0mg"},{"bike_id":"9e1df2dc-d71c-4258-9529-49067dd06bd8","system_id":"levelo_inurba_marseille","lat":43.27971,"lon":5.40017,"is_reserved":false,"is_disabled":false,"rental_uris":{"android":"levelo://app?vid=9e1df2dc-d71c-4258-9529-49067dd06bd8","ios":"levelo://app?vid=9e1df2dc-d71c-4258-9529-49067dd06bd8"},"vehicle_type_id":"4","last_reported":1751037096,"current_range_meters":11600,"station_id":"ce4bho92rcd13ifvqh4g","pricing_plan_id":"cebpf4jnsgd1na2vs0mg"},{"bike_id":"1c8ab180-05fd-405f-9922-b2b2c2d5142f","system_id":"levelo_inurba_marseille","lat":43.32103,"lon":5.36769,"is_reserved":false,"is_disabled":false,"rental_uris":{"android":"levelo://app?vid=1c8ab180-05fd-405f-9922-b2b2c2d5142f","ios":"levelo://app?vid=1c8ab180-05fd-405f-9922-b2b2c2d5142f"},"vehicle_type_id":"4","last_reported":1751037096,"current_range_meters":11600,"station_id":"ce4bhrh2rcd13ifvqhug","pricing_plan_id":"cebpf4jnsgd1na2vs0mg"},{"bike_id":"a440f2f6-8cf8-4348-9ba1-e21002a18a07","system_id":"levelo_inurba_marseille","lat":43.32136,"lon":5.36777,"is_reserved":false,"is_disabled":false,"rental_uris":{"android":"levelo://app?vid=a440f2f6-8cf8-4348-9ba1-e21002a18a07","ios":"levelo://app?vid=a440f2f6-8cf8-4348-9ba1-e21002a18a07"},"vehicle_type_id":"4","last_reported":1751037096,"current_range_meters":11600,"station_id":"ce4bhrh2rcd13ifvqhug","pricing_plan_id":"cebpf4jnsgd1na2vs0mg"},{"bike_id":"3e82f598-9d1d-4257-8afa-a4dc7305de09","system_id":"levelo_inurba_marseille","lat":43.2121,"lon":5.35067,"is_reserved":false,"is_disabled":false,"rental_uris":{"android":"levelo://app?vid=3e82f598-9d1d-4257-8afa-a4dc7305de09","ios":"levelo://app?vid=3e82f598-9d1d-4257-8afa-a4dc7305de09"},"vehicle_type_id":"4","last_reported":1751037096,"current_range_meters":11600,"station_id":"st_cvj6sg6p6f1abm77japg","pricing_plan_id":"cebpf4jnsgd1na2vs0mg"},{"bike_id":"c70fcb5a-a706-4c37-8050-fa9428b039a3","system_id":"levelo_inurba_marseille","lat":43.28997,"lon":5.35622,"is_reserved":false,"is_disabled":false,"rental_uris":{"android":"levelo://app?vid=c70fcb5a-a706-4c37-8050-fa9428b039a3","ios":"levelo://app?vid=c70fcb5a-a706-4c37-8050-fa9428b039a3"},"vehicle_type_id":"4","last_reported":1751037096,"current_range_meters":12000,"station_id":"ce4bhb92rcd13ifvqen0","pricing_plan_id":"cebpf4jnsgd1na2vs0mg"},{"bike_id":"21e2f95e-0365-4a55-8b35-4bc5f3b11e0d","system_id":"levelo_inurba_marseille","lat":43.24386,"lon":5.37067,"is_reserved":false,"is_disabled":false,"rental_uris":{"android":"levelo://app?vid=21e2f95e-0365-4a55-8b35-4bc5f3b11e0d","ios":"levelo://app?vid=21e2f95e-0365-4a55-8b35-4bc5f3b11e0d"},"vehicle_type_id":"4","last_reported":1751037096,"current_range_meters":12000,"station_id":"ce4bhhh2rcd13ifvqfk0","pricing_plan_id":"cebpf4jnsgd1na2vs0mg"},{"bike_id":"d621c683-1ccd-488e-b867-0a65988013cd","system_id":"levelo_inurba_marseille","lat":43.28075,"lon":5.39653,"is_reserved":false,"is_disabled":false,"rental_uris":{"android":"levelo://app?vid=d621c683-1ccd-488e-b867-0a65988013cd","ios":"levelo://app?vid=d621c683-1ccd-488e-b867-0a65988013cd"},"vehicle_type_id":"4","last_reported":1751037096,"current_range_meters":12000,"station_id":"ce4bho12rcd13ifvqh2g","pricing_plan_id":"cebpf4jnsgd1na2vs0mg"},{"bike_id":"3f2e5038-cd5f-466d-9578-2783163f088e","system_id":"levelo_inurba_marseille","lat":43.32094,"lon":5.36788,"is_reserved":false,"is_disabled":false,"rental_uris":{"android":"levelo://app?vid=3f2e5038-cd5f-466d-9578-2783163f088e","ios":"levelo://app?vid=3f2e5038-cd5f-466d-9578-2783163f088e"},"vehicle_type_id":"4","last_reported":1751037096,"current_range_meters":12000,"station_id":"ce4bhrh2rcd13ifvqhug","pricing_plan_id":"cebpf4jnsgd1na2vs0mg"},{"bike_id":"6ce1d5f9-8976-4540-9991-5efc749fc227","system_id":"levelo_inurba_marseille","lat":43.22935,"lon":5.35387,"is_reserved":false,"is_disabled":false,"rental_uris":{"android":"levelo://app?vid=6ce1d5f9-8976-4540-9991-5efc749fc227","ios":"levelo://app?vid=6ce1d5f9-8976-4540-9991-5efc749fc227"},"vehicle_type_id":"4","last_reported":1751037096,"current_range_meters":12000,"station_id":"cpo3532slgdg3j2ikp40","pricing_plan_id":"cebpf4jnsgd1na2vs0mg"},{"bike_id":"6db15911-0545-4478-99b7-e4132941de12","system_id":"levelo_inurba_marseille","lat":43.2917,"lon":5.37146,"is_reserved":false,"is_disabled":false,"rental_uris":{"android":"levelo://app?vid=6db15911-0545-4478-99b7-e4132941de12","ios":"levelo://app?vid=6db15911-0545-4478-99b7-e4132941de12"},"vehicle_type_id":"4","last_reported":1751037096,"current_range_meters":12400,"station_id":"ce4bha92rcd13ifvqeh0","pricing_plan_id":"cebpf4jnsgd1na2vs0mg"},{"bike_id":"51107632-199c-44bc-a49d-b7385437ed03","system_id":"levelo_inurba_marseille","lat":43.26189,"lon":5.37448,"is_reserved":false,"is_disabled":false,"rental_uris":{"android":"levelo://app?vid=51107632-199c-44bc-a49d-b7385437ed03","ios":"levelo://app?vid=51107632-199c-44bc-a49d-b7385437ed03"},"vehicle_type_id":"4","last_reported":1751037096,"current_range_meters":12400,"station_id":"ce4bhgp2rcd13ifvqfc0","pricing_plan_id":"cebpf4jnsgd1na2vs0mg"},{"bike_id":"104d9a39-d4fe-4577-bd3e-dfa2a6c208e7","system_id":"levelo_inurba_marseille","lat":43.27198,"lon":5.40974,"is_reserved":false,"is_disabled":false,"rental_uris":{"android":"levelo://app?vid=104d9a39-d4fe-4577-bd3e-dfa2a6c208e7","ios":"levelo://app?vid=104d9a39-d4fe-4577-bd3e-dfa2a6c208e7"},"vehicle_type_id":"4","last_reported":1751037096,"current_range_meters":12400,"station_id":"ce4bhl12rcd13ifvqgf0","pricing_plan_id":"cebpf4jnsgd1na2vs0mg"},{"bike_id":"9491bf9b-007c-4abd-8b71-00a9d9c6697f","system_id":"levelo_inurba_marseille","lat":43.22937,"lon":5.35369,"is_reserved":false,"is_disabled":false,"rental_uris":{"android":"levelo://app?vid=9491bf9b-007c-4abd-8b71-00a9d9c6697f","ios":"levelo://app?vid=9491bf9b-007c-4abd-8b71-00a9d9c6697f"},"vehicle_type_id":"4","last_reported":1751037096,"current_range_meters":12400,"station_id":"cpo3532slgdg3j2ikp40","pricing_plan_id":"cebpf4jnsgd1na2vs0mg"},{"bike_id":"5d5e13a4-10cc-485c-a362-06d02242e666","system_id":"levelo_inurba_marseille","lat":43.21188,"lon":5.35075,"is_reserved":false,"is_disabled":false,"rental_uris":{"android":"levelo://app?vid=5d5e13a4-10cc-485c-a362-06d02242e666","ios":"levelo://app?vid=5d5e13a4-10cc-485c-a362-06d02242e666"},"vehicle_type_id":"4","last_reported":1751037096,"current_range_meters":12400,"station_id":"st_cvj6sg6p6f1abm77japg","pricing_plan_id":"cebpf4jnsgd1na2vs0mg"},{"bike_id":"5a01ae6d-9064-484c-8d77-2d9e141e2313","system_id":"levelo_inurba_marseille","lat":43.24475,"lon":5.39024,"is_reserved":false,"is_disabled":false,"rental_uris":{"android":"levelo://app?vid=5a01ae6d-9064-484c-8d77-2d9e141e2313","ios":"levelo://app?vid=5a01ae6d-9064-484c-8d77-2d9e141e2313"},"vehicle_type_id":"4","last_reported":1751037096,"current_range_meters":12800,"station_id":"","pricing_plan_id":"cebpf4jnsgd1na2vs0mg"},{"bike_id":"8f4bcd99-90da-4b6c-9cb5-578617f3977c","system_id":"levelo_inurba_marseille","lat":43.273774,"lon":5.362552,"is_reserved":false,"is_disabled":false,"rental_uris":{"android":"levelo://app?vid=8f4bcd99-90da-4b6c-9cb5-578617f3977c","ios":"levelo://app?vid=8f4bcd99-90da-4b6c-9cb5-578617f3977c"},"vehicle_type_id":"4","last_reported":1751037096,"current_range_meters":12800,"station_id":"","pricing_plan_id":"cebpf4jnsgd1na2vs0mg"},{"bike_id":"e2e67432-2c3a-43f0-807b-c10b260bb9a2","system_id":"levelo_inurba_marseille","lat":43.28417,"lon":5.34991,"is_reserved":false,"is_disabled":false,"rental_uris":{"android":"levelo://app?vid=e2e67432-2c3a-43f0-807b-c10b260bb9a2","ios":"levelo://app?vid=e2e67432-2c3a-43f0-807b-c10b260bb9a2"},"vehicle_type_id":"4","last_reported":1751037096,"current_range_meters":12800,"station_id":"ce4bhbh2rcd13ifvqepg","pricing_plan_id":"cebpf4jnsgd1na2vs0mg"},{"bike_id":"8937e58e-5703-49d9-b2d6-6f0a04b19c36","system_id":"levelo_inurba_marseille","lat":43.28622,"lon":5.35088,"is_reserved":false,"is_disabled":false,"rental_uris":{"android":"levelo://app?vid=8937e58e-5703-49d9-b2d6-6f0a04b19c36","ios":"levelo://app?vid=8937e58e-5703-49d9-b2d6-6f0a04b19c36"},"vehicle_type_id":"4","last_reported":1751037096,"current_range_meters":12800,"station_id":"ce4bhch2rcd13ifvqeug","pricing_plan_id":"cebpf4jnsgd1na2vs0mg"},{"bike_id":"945dc737-59f4-4a63-a632-15c7e859e24d","system_id":"levelo_inurba_marseille","lat":43.292725,"lon":5.368435,"is_reserved":false,"is_disabled":false,"rental_uris":{"android":"levelo://app?vid=945dc737-59f4-4a63-a632-15c7e859e24d","ios":"levelo://app?vid=945dc737-59f4-4a63-a632-15c7e859e24d"},"vehicle_type_id":"4","last_reported":1751037096,"current_range_meters":12800,"station_id":"ce4bhgp2rcd13ifvqfc0","pricing_plan_id":"cebpf4jnsgd1na2vs0mg"},{"bike_id":"e7c86b76-fec6-4d82-9589-044e8efa048a","system_id":"levelo_inurba_marseille","lat":43.32282,"lon":5.38243,"is_reserved":false,"is_disabled":false,"rental_uris":{"android":"levelo://app?vid=e7c86b76-fec6-4d82-9589-044e8efa048a","ios":"levelo://app?vid=e7c86b76-fec6-4d82-9589-044e8efa048a"},"vehicle_type_id":"4","last_reported":1751037096,"current_range_meters":12800,"station_id":"ce4bhr12rcd13ifvqhqg","pricing_plan_id":"cebpf4jnsgd1na2vs0mg"},{"bike_id":"82c87997-fcef-4006-83f1-29363dcef0d7","system_id":"levelo_inurba_marseille","lat":43.241669,"lon":5.363887,"is_reserved":false,"is_disabled":false,"rental_uris":{"android":"levelo://app?vid=82c87997-fcef-4006-83f1-29363dcef0d7","ios":"levelo://app?vid=82c87997-fcef-4006-83f1-29363dcef0d7"},"vehicle_type_id":"4","last_reported":1751037096,"current_range_meters":12800,"station_id":"cpo36qri1sfpv3e86is0","pricing_plan_id":"cebpf4jnsgd1na2vs0mg"},{"bike_id":"e5ae1fdd-ad1c-4e69-ac70-f715e6402e6b","system_id":"levelo_inurba_marseille","lat":43.27726,"lon":5.39865,"is_reserved":false,"is_disabled":false,"rental_uris":{"android":"levelo://app?vid=e5ae1fdd-ad1c-4e69-ac70-f715e6402e6b","ios":"levelo://app?vid=e5ae1fdd-ad1c-4e69-ac70-f715e6402e6b"},"vehicle_type_id":"4","last_reported":1751037096,"current_range_meters":13600,"station_id":"","pricing_plan_id":"cebpf4jnsgd1na2vs0mg"},{"bike_id":"5d4164c2-df8c-4cfb-a850-2f8f984d4e42","system_id":"levelo_inurba_marseille","lat":43.3151,"lon":5.373,"is_reserved":false,"is_disabled":false,"rental_uris":{"android":"levelo://app?vid=5d4164c2-df8c-4cfb-a850-2f8f984d4e42","ios":"levelo://app?vid=5d4164c2-df8c-4cfb-a850-2f8f984d4e42"},"vehicle_type_id":"4","last_reported":1751037096,"current_range_meters":14000,"station_id":"ce4bgt12rcd13ifvqcd0","pricing_plan_id":"cebpf4jnsgd1na2vs0mg"},{"bike_id":"54430990-e0f1-429f-9752-b9af86d3baa4","system_id":"levelo_inurba_marseille","lat":43.24382,"lon":5.37053,"is_reserved":false,"is_disabled":false,"rental_uris":{"android":"levelo://app?vid=54430990-e0f1-429f-9752-b9af86d3baa4","ios":"levelo://app?vid=54430990-e0f1-429f-9752-b9af86d3baa4"},"vehicle_type_id":"4","last_reported":1751037096,"current_range_meters":14000,"station_id":"ce4bhhh2rcd13ifvqfk0","pricing_plan_id":"cebpf4jnsgd1na2vs0mg"},{"bike_id":"ff6a4ca1-dc78-45e1-8a58-d9a681bbbcf3","system_id":"levelo_inurba_marseille","lat":43.30384,"lon":5.42485,"is_reserved":false,"is_disabled":false,"rental_uris":{"android":"levelo://app?vid=ff6a4ca1-dc78-45e1-8a58-d9a681bbbcf3","ios":"levelo://app?vid=ff6a4ca1-dc78-45e1-8a58-d9a681bbbcf3"},"vehicle_type_id":"4","last_reported":1751037096,"current_range_meters":14000,"station_id":"ce4bhoh2rcd13ifvqh6g","pricing_plan_id":"cebpf4jnsgd1na2vs0mg"},{"bike_id":"f0057ca2-de2d-4464-8902-068dc3677e00","system_id":"levelo_inurba_marseille","lat":43.21203,"lon":5.35062,"is_reserved":false,"is_disabled":false,"rental_uris":{"android":"levelo://app?vid=f0057ca2-de2d-4464-8902-068dc3677e00","ios":"levelo://app?vid=f0057ca2-de2d-4464-8902-068dc3677e00"},"vehicle_type_id":"4","last_reported":1751037096,"current_range_meters":14000,"station_id":"st_cvj6sg6p6f1abm77japg","pricing_plan_id":"cebpf4jnsgd1na2vs0mg"},{"bike_id":"197d0cdf-05a2-45b9-8304-30825f98dd77","system_id":"levelo_inurba_marseille","lat":43.2808,"lon":5.35674,"is_reserved":false,"is_disabled":false,"rental_uris":{"android":"levelo://app?vid=197d0cdf-05a2-45b9-8304-30825f98dd77","ios":"levelo://app?vid=197d0cdf-05a2-45b9-8304-30825f98dd77"},"vehicle_type_id":"4","last_reported":1751037096,"current_range_meters":14400,"station_id":"","pricing_plan_id":"cebpf4jnsgd1na2vs0mg"},{"bike_id":"bb69c1e1-7084-4be7-966a-57a7bcdfcb6c","system_id":"levelo_inurba_marseille","lat":43.24652,"lon":5.41614,"is_reserved":false,"is_disabled":false,"rental_uris":{"android":"levelo://app?vid=bb69c1e1-7084-4be7-966a-57a7bcdfcb6c","ios":"levelo://app?vid=bb69c1e1-7084-4be7-966a-57a7bcdfcb6c"},"vehicle_type_id":"4","last_reported":1751037096,"current_range_meters":14400,"station_id":"","pricing_plan_id":"cebpf4jnsgd1na2vs0mg"},{"bike_id":"db4d10f3-39ce-4ebb-8e7c-1e4008efc96e","system_id":"levelo_inurba_marseille","lat":43.29002,"lon":5.35611,"is_reserved":false,"is_disabled":false,"rental_uris":{"android":"levelo://app?vid=db4d10f3-39ce-4ebb-8e7c-1e4008efc96e","ios":"levelo://app?vid=db4d10f3-39ce-4ebb-8e7c-1e4008efc96e"},"vehicle_type_id":"4","last_reported":1751037096,"current_range_meters":14400,"station_id":"ce4bhb92rcd13ifvqen0","pricing_plan_id":"cebpf4jnsgd1na2vs0mg"},{"bike_id":"46fc1da8-b21e-49ec-9f51-bd3892d403d9","system_id":"levelo_inurba_marseille","lat":43.241669,"lon":5.36401,"is_reserved":false,"is_disabled":false,"rental_uris":{"android":"levelo://app?vid=46fc1da8-b21e-49ec-9f51-bd3892d403d9","ios":"levelo://app?vid=46fc1da8-b21e-49ec-9f51-bd3892d403d9"},"vehicle_type_id":"4","last_reported":1751037096,"current_range_meters":14400,"station_id":"cpo36qri1sfpv3e86is0","pricing_plan_id":"cebpf4jnsgd1na2vs0mg"},{"bike_id":"c13f3255-a417-4d17-a6eb-69529773242c","system_id":"levelo_inurba_marseille","lat":43.28359,"lon":5.38092,"is_reserved":false,"is_disabled":false,"rental_uris":{"android":"levelo://app?vid=c13f3255-a417-4d17-a6eb-69529773242c","ios":"levelo://app?vid=c13f3255-a417-4d17-a6eb-69529773242c"},"vehicle_type_id":"4","last_reported":1751037096,"current_range_meters":14800,"station_id":"ce4bh412rcd13ifvqdr0","pricing_plan_id":"cebpf4jnsgd1na2vs0mg"},{"bike_id":"97e8e409-31d2-4af5-8886-af9fc20d2e1a","system_id":"levelo_inurba_marseille","lat":43.26229,"lon":5.40448,"is_reserved":false,"is_disabled":false,"rental_uris":{"android":"levelo://app?vid=97e8e409-31d2-4af5-8886-af9fc20d2e1a","ios":"levelo://app?vid=97e8e409-31d2-4af5-8886-af9fc20d2e1a"},"vehicle_type_id":"4","last_reported":1751037096,"current_range_meters":14800,"station_id":"ce4bhmh2rcd13ifvqgmg","pricing_plan_id":"cebpf4jnsgd1na2vs0mg"},{"bike_id":"ec47028b-632e-499c-a722-9642110401eb","system_id":"levelo_inurba_marseille","lat":43.308,"lon":5.435274,"is_reserved":false,"is_disabled":false,"rental_uris":{"android":"levelo://app?vid=ec47028b-632e-499c-a722-9642110401eb","ios":"levelo://app?vid=ec47028b-632e-499c-a722-9642110401eb"},"vehicle_type_id":"4","last_reported":1751037096,"current_range_meters":14800,"station_id":"ce4bhph2rcd13ifvqheg","pricing_plan_id":"cebpf4jnsgd1na2vs0mg"},{"bike_id":"2a9a5366-8dad-42f1-bee6-ffb042c54776","system_id":"levelo_inurba_marseille","lat":43.21189,"lon":5.35077,"is_reserved":false,"is_disabled":false,"rental_uris":{"android":"levelo://app?vid=2a9a5366-8dad-42f1-bee6-ffb042c54776","ios":"levelo://app?vid=2a9a5366-8dad-42f1-bee6-ffb042c54776"},"vehicle_type_id":"4","last_reported":1751037096,"current_range_meters":14800,"station_id":"st_cvj6sg6p6f1abm77japg","pricing_plan_id":"cebpf4jnsgd1na2vs0mg"},{"bike_id":"fb2c5b4a-60db-46bb-800e-2abf8bdea4b9","system_id":"levelo_inurba_marseille","lat":43.28275,"lon":5.35062,"is_reserved":false,"is_disabled":false,"rental_uris":{"android":"levelo://app?vid=fb2c5b4a-60db-46bb-800e-2abf8bdea4b9","ios":"levelo://app?vid=fb2c5b4a-60db-46bb-800e-2abf8bdea4b9"},"vehicle_type_id":"4","last_reported":1751037096,"current_range_meters":15200,"station_id":"ce4bhbp2rcd13ifvqerg","pricing_plan_id":"cebpf4jnsgd1na2vs0mg"},{"bike_id":"dff9ce1b-dec5-4666-adec-052eb363faf3","system_id":"levelo_inurba_marseille","lat":43.26211,"lon":5.37445,"is_reserved":false,"is_disabled":false,"rental_uris":{"android":"levelo://app?vid=dff9ce1b-dec5-4666-adec-052eb363faf3","ios":"levelo://app?vid=dff9ce1b-dec5-4666-adec-052eb363faf3"},"vehicle_type_id":"4","last_reported":1751037096,"current_range_meters":15200,"station_id":"ce4bhgp2rcd13ifvqfc0","pricing_plan_id":"cebpf4jnsgd1na2vs0mg"},{"bike_id":"782ba0fe-7d4c-4400-99ec-47e1ed4cbba7","system_id":"levelo_inurba_marseille","lat":43.27833,"lon":5.3921,"is_reserved":false,"is_disabled":false,"rental_uris":{"android":"levelo://app?vid=782ba0fe-7d4c-4400-99ec-47e1ed4cbba7","ios":"levelo://app?vid=782ba0fe-7d4c-4400-99ec-47e1ed4cbba7"},"vehicle_type_id":"4","last_reported":1751037096,"current_range_meters":15200,"station_id":"ce4bhjp2rcd13ifvqga0","pricing_plan_id":"cebpf4jnsgd1na2vs0mg"},{"bike_id":"7dfc5216-abd2-4eb0-aa98-27c7a95c769d","system_id":"levelo_inurba_marseille","lat":43.22933,"lon":5.35388,"is_reserved":false,"is_disabled":false,"rental_uris":{"android":"levelo://app?vid=7dfc5216-abd2-4eb0-aa98-27c7a95c769d","ios":"levelo://app?vid=7dfc5216-abd2-4eb0-aa98-27c7a95c769d"},"vehicle_type_id":"4","last_reported":1751037096,"current_range_meters":15200,"station_id":"cpo3532slgdg3j2ikp40","pricing_plan_id":"cebpf4jnsgd1na2vs0mg"},{"bike_id":"c58aeb30-1159-4c94-9568-de86d269d1b9","system_id":"levelo_inurba_marseille","lat":43.21748,"lon":5.34601,"is_reserved":false,"is_disabled":false,"rental_uris":{"android":"levelo://app?vid=c58aeb30-1159-4c94-9568-de86d269d1b9","ios":"levelo://app?vid=c58aeb30-1159-4c94-9568-de86d269d1b9"},"vehicle_type_id":"4","last_reported":1751037096,"current_range_meters":15200,"station_id":"st_cvj6r9ubvosntc0bgbag","pricing_plan_id":"cebpf4jnsgd1na2vs0mg"},{"bike_id":"e6ce70f7-9138-485c-a4db-2c9174614cff","system_id":"levelo_inurba_marseille","lat":43.3177,"lon":5.36867,"is_reserved":false,"is_disabled":false,"rental_uris":{"android":"levelo://app?vid=e6ce70f7-9138-485c-a4db-2c9174614cff","ios":"levelo://app?vid=e6ce70f7-9138-485c-a4db-2c9174614cff"},"vehicle_type_id":"4","last_reported":1751037096,"current_range_meters":16000,"station_id":"","pricing_plan_id":"cebpf4jnsgd1na2vs0mg"},{"bike_id":"fa0cffbb-6baf-4910-8333-929ec222500d","system_id":"levelo_inurba_marseille","lat":43.298925,"lon":5.401753,"is_reserved":false,"is_disabled":false,"rental_uris":{"android":"levelo://app?vid=fa0cffbb-6baf-4910-8333-929ec222500d","ios":"levelo://app?vid=fa0cffbb-6baf-4910-8333-929ec222500d"},"vehicle_type_id":"4","last_reported":1751037096,"current_range_meters":16000,"station_id":"ce4bh012rcd13ifvqd10","pricing_plan_id":"cebpf4jnsgd1na2vs0mg"},{"bike_id":"2881a91f-8f7d-4740-90a7-0bedbe620185","system_id":"levelo_inurba_marseille","lat":43.27377,"lon":5.36252,"is_reserved":false,"is_disabled":false,"rental_uris":{"android":"levelo://app?vid=2881a91f-8f7d-4740-90a7-0bedbe620185","ios":"levelo://app?vid=2881a91f-8f7d-4740-90a7-0bedbe620185"},"vehicle_type_id":"4","last_reported":1751037096,"current_range_meters":16000,"station_id":"ce4bhbh2rcd13ifvqeo0","pricing_plan_id":"cebpf4jnsgd1na2vs0mg"},{"bike_id":"5256d46c-488b-40db-8b28-fc40c7ee40bd","system_id":"levelo_inurba_marseille","lat":43.28415,"lon":5.34977,"is_reserved":false,"is_disabled":false,"rental_uris":{"android":"levelo://app?vid=5256d46c-488b-40db-8b28-fc40c7ee40bd","ios":"levelo://app?vid=5256d46c-488b-40db-8b28-fc40c7ee40bd"},"vehicle_type_id":"4","last_reported":1751037096,"current_range_meters":16000,"station_id":"ce4bhbh2rcd13ifvqepg","pricing_plan_id":"cebpf4jnsgd1na2vs0mg"},{"bike_id":"4759fde4-cbca-41eb-9283-5ecf53c87e55","system_id":"levelo_inurba_marseille","lat":43.28615,"lon":5.35102,"is_reserved":false,"is_disabled":false,"rental_uris":{"android":"levelo://app?vid=4759fde4-cbca-41eb-9283-5ecf53c87e55","ios":"levelo://app?vid=4759fde4-cbca-41eb-9283-5ecf53c87e55"},"vehicle_type_id":"4","last_reported":1751037096,"current_range_meters":16000,"station_id":"ce4bhch2rcd13ifvqeug","pricing_plan_id":"cebpf4jnsgd1na2vs0mg"},{"bike_id":"b70cc62c-b555-4a33-9340-b44faf47de76","system_id":"levelo_inurba_marseille","lat":43.26206,"lon":5.37439,"is_reserved":false,"is_disabled":false,"rental_uris":{"android":"levelo://app?vid=b70cc62c-b555-4a33-9340-b44faf47de76","ios":"levelo://app?vid=b70cc62c-b555-4a33-9340-b44faf47de76"},"vehicle_type_id":"4","last_reported":1751037096,"current_range_meters":16000,"station_id":"ce4bhgp2rcd13ifvqfc0","pricing_plan_id":"cebpf4jnsgd1na2vs0mg"},{"bike_id":"bbc4a376-bee7-4ad5-a49a-1022d27c1489","system_id":"levelo_inurba_marseille","lat":43.32093,"lon":5.36783,"is_reserved":false,"is_disabled":false,"rental_uris":{"android":"levelo://app?vid=bbc4a376-bee7-4ad5-a49a-1022d27c1489","ios":"levelo://app?vid=bbc4a376-bee7-4ad5-a49a-1022d27c1489"},"vehicle_type_id":"4","last_reported":1751037096,"current_range_meters":16000,"station_id":"ce4bhrh2rcd13ifvqhug","pricing_plan_id":"cebpf4jnsgd1na2vs0mg"},{"bike_id":"211d6813-a10e-4698-a966-728deb9ab792","system_id":"levelo_inurba_marseille","lat":43.31272,"lon":5.40176,"is_reserved":false,"is_disabled":false,"rental_uris":{"android":"levelo://app?vid=211d6813-a10e-4698-a966-728deb9ab792","ios":"levelo://app?vid=211d6813-a10e-4698-a966-728deb9ab792"},"vehicle_type_id":"4","last_reported":1751037096,"current_range_meters":16400,"station_id":"ce4bh092rcd13ifvqd30","pricing_plan_id":"cebpf4jnsgd1na2vs0mg"},{"bike_id":"462dd228-9218-4b75-a228-3e2a7db1ce2f","system_id":"levelo_inurba_marseille","lat":43.30143,"lon":5.39842,"is_reserved":false,"is_disabled":false,"rental_uris":{"android":"levelo://app?vid=462dd228-9218-4b75-a228-3e2a7db1ce2f","ios":"levelo://app?vid=462dd228-9218-4b75-a228-3e2a7db1ce2f"},"vehicle_type_id":"4","last_reported":1751037096,"current_range_meters":16400,"station_id":"ce4bh0h2rcd13ifvqd40","pricing_plan_id":"cebpf4jnsgd1na2vs0mg"},{"bike_id":"48d3b9c5-dda6-4097-85db-62f30a06d3cd","system_id":"levelo_inurba_marseille","lat":43.28613,"lon":5.35106,"is_reserved":false,"is_disabled":false,"rental_uris":{"android":"levelo://app?vid=48d3b9c5-dda6-4097-85db-62f30a06d3cd","ios":"levelo://app?vid=48d3b9c5-dda6-4097-85db-62f30a06d3cd"},"vehicle_type_id":"4","last_reported":1751037096,"current_range_meters":16400,"station_id":"ce4bhch2rcd13ifvqeug","pricing_plan_id":"cebpf4jnsgd1na2vs0mg"},{"bike_id":"935c8062-ae25-46e0-901d-4b81929b99b7","system_id":"levelo_inurba_marseille","lat":43.21755,"lon":5.3461,"is_reserved":false,"is_disabled":false,"rental_uris":{"android":"levelo://app?vid=935c8062-ae25-46e0-901d-4b81929b99b7","ios":"levelo://app?vid=935c8062-ae25-46e0-901d-4b81929b99b7"},"vehicle_type_id":"4","last_reported":1751037096,"current_range_meters":16400,"station_id":"st_cvj6r9ubvosntc0bgbag","pricing_plan_id":"cebpf4jnsgd1na2vs0mg"},{"bike_id":"815201a7-dbbe-4827-ab77-bd49f80ea5ee","system_id":"levelo_inurba_marseille","lat":43.29749,"lon":5.46013,"is_reserved":false,"is_disabled":false,"rental_uris":{"android":"levelo://app?vid=815201a7-dbbe-4827-ab77-bd49f80ea5ee","ios":"levelo://app?vid=815201a7-dbbe-4827-ab77-bd49f80ea5ee"},"vehicle_type_id":"4","last_reported":1751037096,"current_range_meters":16800,"station_id":"","pricing_plan_id":"cebpf4jnsgd1na2vs0mg"},{"bike_id":"1b39abf9-3a3f-4d80-915b-22905554f4a6","system_id":"levelo_inurba_marseille","lat":43.30125,"lon":5.36415,"is_reserved":false,"is_disabled":false,"rental_uris":{"android":"levelo://app?vid=1b39abf9-3a3f-4d80-915b-22905554f4a6","ios":"levelo://app?vid=1b39abf9-3a3f-4d80-915b-22905554f4a6"},"vehicle_type_id":"4","last_reported":1751037096,"current_range_meters":16800,"station_id":"","pricing_plan_id":"cebpf4jnsgd1na2vs0mg"},{"bike_id":"4b4f4ae4-5928-4485-b168-ab1feda684ae","system_id":"levelo_inurba_marseille","lat":43.30178,"lon":5.36629,"is_reserved":false,"is_disabled":false,"rental_uris":{"android":"levelo://app?vid=4b4f4ae4-5928-4485-b168-ab1feda684ae","ios":"levelo://app?vid=4b4f4ae4-5928-4485-b168-ab1feda684ae"},"vehicle_type_id":"4","last_reported":1751037096,"current_range_meters":16800,"station_id":"ce4bgrh2rcd13ifvqc8g","pricing_plan_id":"cebpf4jnsgd1na2vs0mg"},{"bike_id":"ea1b5d21-d1cd-4ba6-8a62-9d2257577067","system_id":"levelo_inurba_marseille","lat":43.28413,"lon":5.37509,"is_reserved":false,"is_disabled":false,"rental_uris":{"android":"levelo://app?vid=ea1b5d21-d1cd-4ba6-8a62-9d2257577067","ios":"levelo://app?vid=ea1b5d21-d1cd-4ba6-8a62-9d2257577067"},"vehicle_type_id":"4","last_reported":1751037096,"current_range_meters":16800,"station_id":"ce4bh412rcd13ifvqds0","pricing_plan_id":"cebpf4jnsgd1na2vs0mg"},{"bike_id":"5132bc78-73df-4613-a7dd-0f8ae2846a9f","system_id":"levelo_inurba_marseille","lat":43.21754,"lon":5.346,"is_reserved":false,"is_disabled":false,"rental_uris":{"android":"levelo://app?vid=5132bc78-73df-4613-a7dd-0f8ae2846a9f","ios":"levelo://app?vid=5132bc78-73df-4613-a7dd-0f8ae2846a9f"},"vehicle_type_id":"4","last_reported":1751037096,"current_range_meters":16800,"station_id":"st_cvj6r9ubvosntc0bgbag","pricing_plan_id":"cebpf4jnsgd1na2vs0mg"},{"bike_id":"a93e1c96-151f-497c-9a43-5f473ff86ad8","system_id":"levelo_inurba_marseille","lat":43.31475,"lon":5.37311,"is_reserved":false,"is_disabled":false,"rental_uris":{"android":"levelo://app?vid=a93e1c96-151f-497c-9a43-5f473ff86ad8","ios":"levelo://app?vid=a93e1c96-151f-497c-9a43-5f473ff86ad8"},"vehicle_type_id":"4","last_reported":1751037096,"current_range_meters":17200,"station_id":"ce4bgt12rcd13ifvqcd0","pricing_plan_id":"cebpf4jnsgd1na2vs0mg"},{"bike_id":"268bb632-dc32-4136-a98d-3994d4888d56","system_id":"levelo_inurba_marseille","lat":43.30809,"lon":5.38141,"is_reserved":false,"is_disabled":false,"rental_uris":{"android":"levelo://app?vid=268bb632-dc32-4136-a98d-3994d4888d56","ios":"levelo://app?vid=268bb632-dc32-4136-a98d-3994d4888d56"},"vehicle_type_id":"4","last_reported":1751037096,"current_range_meters":17200,"station_id":"ce4bgt12rcd13ifvqce0","pricing_plan_id":"cebpf4jnsgd1na2vs0mg"},{"bike_id":"61ab3a36-82bf-4c2d-87b9-d4081997d6ef","system_id":"levelo_inurba_marseille","lat":43.25085,"lon":5.39521,"is_reserved":false,"is_disabled":false,"rental_uris":{"android":"levelo://app?vid=61ab3a36-82bf-4c2d-87b9-d4081997d6ef","ios":"levelo://app?vid=61ab3a36-82bf-4c2d-87b9-d4081997d6ef"},"vehicle_type_id":"4","last_reported":1751037096,"current_range_meters":17200,"station_id":"ce4bhm12rcd13ifvqgkg","pricing_plan_id":"cebpf4jnsgd1na2vs0mg"},{"bike_id":"15d128bd-cfe4-4fde-84e3-861a91e21785","system_id":"levelo_inurba_marseille","lat":43.33732,"lon":5.39192,"is_reserved":false,"is_disabled":false,"rental_uris":{"android":"levelo://app?vid=15d128bd-cfe4-4fde-84e3-861a91e21785","ios":"levelo://app?vid=15d128bd-cfe4-4fde-84e3-861a91e21785"},"vehicle_type_id":"4","last_reported":1751037096,"current_range_meters":17200,"station_id":"ce4bhr92rcd13ifvqhsg","pricing_plan_id":"cebpf4jnsgd1na2vs0mg"},{"bike_id":"721165c1-ef6f-40cc-8d33-af3a7999864b","system_id":"levelo_inurba_marseille","lat":43.327419,"lon":5.379663,"is_reserved":false,"is_disabled":false,"rental_uris":{"android":"levelo://app?vid=721165c1-ef6f-40cc-8d33-af3a7999864b","ios":"levelo://app?vid=721165c1-ef6f-40cc-8d33-af3a7999864b"},"vehicle_type_id":"4","last_reported":1751037096,"current_range_meters":17600,"station_id":"","pricing_plan_id":"cebpf4jnsgd1na2vs0mg"},{"bike_id":"8b6abee1-8c95-4edb-becd-157bf6efd988","system_id":"levelo_inurba_marseille","lat":43.29707,"lon":5.37692,"is_reserved":false,"is_disabled":false,"rental_uris":{"android":"levelo://app?vid=8b6abee1-8c95-4edb-becd-157bf6efd988","ios":"levelo://app?vid=8b6abee1-8c95-4edb-becd-157bf6efd988"},"vehicle_type_id":"4","last_reported":1751037096,"current_range_meters":17600,"station_id":"ce4bgkh2rcd13ifvqbl0","pricing_plan_id":"cebpf4jnsgd1na2vs0mg"},{"bike_id":"7c145f95-5ffc-4327-9b28-f407085bf45f","system_id":"levelo_inurba_marseille","lat":43.29009,"lon":5.35612,"is_reserved":false,"is_disabled":false,"rental_uris":{"android":"levelo://app?vid=7c145f95-5ffc-4327-9b28-f407085bf45f","ios":"levelo://app?vid=7c145f95-5ffc-4327-9b28-f407085bf45f"},"vehicle_type_id":"4","last_reported":1751037096,"current_range_meters":17600,"station_id":"ce4bhb92rcd13ifvqen0","pricing_plan_id":"cebpf4jnsgd1na2vs0mg"},{"bike_id":"a4012db4-5f62-4977-9f2a-c08c77167528","system_id":"levelo_inurba_marseille","lat":43.27209,"lon":5.39177,"is_reserved":false,"is_disabled":false,"rental_uris":{"android":"levelo://app?vid=a4012db4-5f62-4977-9f2a-c08c77167528","ios":"levelo://app?vid=a4012db4-5f62-4977-9f2a-c08c77167528"},"vehicle_type_id":"4","last_reported":1751037096,"current_range_meters":17600,"station_id":"ce4bhhp2rcd13ifvqfm0","pricing_plan_id":"cebpf4jnsgd1na2vs0mg"},{"bike_id":"3c242868-d0cb-4a9f-9352-273cb6ca1118","system_id":"levelo_inurba_marseille","lat":43.27071,"lon":5.42271,"is_reserved":false,"is_disabled":false,"rental_uris":{"android":"levelo://app?vid=3c242868-d0cb-4a9f-9352-273cb6ca1118","ios":"levelo://app?vid=3c242868-d0cb-4a9f-9352-273cb6ca1118"},"vehicle_type_id":"4","last_reported":1751037096,"current_range_meters":17600,"station_id":"ce4bhk92rcd13ifvqgb0","pricing_plan_id":"cebpf4jnsgd1na2vs0mg"},{"bike_id":"e66dec3b-ad20-4951-84dd-82136cf06aa9","system_id":"levelo_inurba_marseille","lat":43.323654,"lon":5.388844,"is_reserved":false,"is_disabled":false,"rental_uris":{"android":"levelo://app?vid=e66dec3b-ad20-4951-84dd-82136cf06aa9","ios":"levelo://app?vid=e66dec3b-ad20-4951-84dd-82136cf06aa9"},"vehicle_type_id":"4","last_reported":1751037096,"current_range_meters":17600,"station_id":"ce4bhqp2rcd13ifvqhog","pricing_plan_id":"cebpf4jnsgd1na2vs0mg"},{"bike_id":"12c7fc9f-7c7b-4185-9b2f-badd0c17e36b","system_id":"levelo_inurba_marseille","lat":43.24737,"lon":5.37448,"is_reserved":false,"is_disabled":false,"rental_uris":{"android":"levelo://app?vid=12c7fc9f-7c7b-4185-9b2f-badd0c17e36b","ios":"levelo://app?vid=12c7fc9f-7c7b-4185-9b2f-badd0c17e36b"},"vehicle_type_id":"4","last_reported":1751037096,"current_range_meters":18000,"station_id":"","pricing_plan_id":"cebpf4jnsgd1na2vs0mg"},{"bike_id":"355486b7-6649-4cf2-8811-2ec09ef32413","system_id":"levelo_inurba_marseille","lat":43.29605,"lon":5.38099,"is_reserved":false,"is_disabled":false,"rental_uris":{"android":"levelo://app?vid=355486b7-6649-4cf2-8811-2ec09ef32413","ios":"levelo://app?vid=355486b7-6649-4cf2-8811-2ec09ef32413"},"vehicle_type_id":"4","last_reported":1751037096,"current_range_meters":18000,"station_id":"ce4bgl12rcd13ifvqbo0","pricing_plan_id":"cebpf4jnsgd1na2vs0mg"},{"bike_id":"bf7bfaa4-1766-4fac-91b2-08775d131c9e","system_id":"levelo_inurba_marseille","lat":43.31475,"lon":5.37255,"is_reserved":false,"is_disabled":false,"rental_uris":{"android":"levelo://app?vid=bf7bfaa4-1766-4fac-91b2-08775d131c9e","ios":"levelo://app?vid=bf7bfaa4-1766-4fac-91b2-08775d131c9e"},"vehicle_type_id":"4","last_reported":1751037096,"current_range_meters":18000,"station_id":"ce4bgt12rcd13ifvqcd0","pricing_plan_id":"cebpf4jnsgd1na2vs0mg"},{"bike_id":"0f8cacae-de93-4327-8d12-f3527018c82d","system_id":"levelo_inurba_marseille","lat":43.28396,"lon":5.34994,"is_reserved":false,"is_disabled":false,"rental_uris":{"android":"levelo://app?vid=0f8cacae-de93-4327-8d12-f3527018c82d","ios":"levelo://app?vid=0f8cacae-de93-4327-8d12-f3527018c82d"},"vehicle_type_id":"4","last_reported":1751037096,"current_range_meters":18000,"station_id":"ce4bhbh2rcd13ifvqepg","pricing_plan_id":"cebpf4jnsgd1na2vs0mg"},{"bike_id":"928057a5-150a-4272-b6ad-f4bdff231852","system_id":"levelo_inurba_marseille","lat":43.282684,"lon":5.350601,"is_reserved":false,"is_disabled":false,"rental_uris":{"android":"levelo://app?vid=928057a5-150a-4272-b6ad-f4bdff231852","ios":"levelo://app?vid=928057a5-150a-4272-b6ad-f4bdff231852"},"vehicle_type_id":"4","last_reported":1751037096,"current_range_meters":18000,"station_id":"ce4bhbp2rcd13ifvqerg","pricing_plan_id":"cebpf4jnsgd1na2vs0mg"},{"bike_id":"81115363-d7ba-42ce-969b-a1d7ad97fa06","system_id":"levelo_inurba_marseille","lat":43.337244,"lon":5.391819,"is_reserved":false,"is_disabled":false,"rental_uris":{"android":"levelo://app?vid=81115363-d7ba-42ce-969b-a1d7ad97fa06","ios":"levelo://app?vid=81115363-d7ba-42ce-969b-a1d7ad97fa06"},"vehicle_type_id":"4","last_reported":1751037096,"current_range_meters":18000,"station_id":"ce4bhr92rcd13ifvqhsg","pricing_plan_id":"cebpf4jnsgd1na2vs0mg"},{"bike_id":"a7883090-0e10-4075-944b-a3cca54bc544","system_id":"levelo_inurba_marseille","lat":43.22519,"lon":5.34773,"is_reserved":false,"is_disabled":false,"rental_uris":{"android":"levelo://app?vid=a7883090-0e10-4075-944b-a3cca54bc544","ios":"levelo://app?vid=a7883090-0e10-4075-944b-a3cca54bc544"},"vehicle_type_id":"4","last_reported":1751037096,"current_range_meters":18000,"station_id":"st_cvj5dfep6f1abm77gieg","pricing_plan_id":"cebpf4jnsgd1na2vs0mg"},{"bike_id":"5a3dab73-c126-4de6-a97f-f9ca71f0b35f","system_id":"levelo_inurba_marseille","lat":43.21747,"lon":5.34613,"is_reserved":false,"is_disabled":false,"rental_uris":{"android":"levelo://app?vid=5a3dab73-c126-4de6-a97f-f9ca71f0b35f","ios":"levelo://app?vid=5a3dab73-c126-4de6-a97f-f9ca71f0b35f"},"vehicle_type_id":"4","last_reported":1751037096,"current_range_meters":18000,"station_id":"st_cvj6r9ubvosntc0bgbag","pricing_plan_id":"cebpf4jnsgd1na2vs0mg"},{"bike_id":"14e8ef37-e834-4d76-9946-e98f7a083a2f","system_id":"levelo_inurba_marseille","lat":43.21188,"lon":5.35077,"is_reserved":false,"is_disabled":false,"rental_uris":{"android":"levelo://app?vid=14e8ef37-e834-4d76-9946-e98f7a083a2f","ios":"levelo://app?vid=14e8ef37-e834-4d76-9946-e98f7a083a2f"},"vehicle_type_id":"4","last_reported":1751037096,"current_range_meters":18000,"station_id":"st_cvj6sg6p6f1abm77japg","pricing_plan_id":"cebpf4jnsgd1na2vs0mg"},{"bike_id":"1c0c0ccb-dd6f-4538-ab85-d8209da4c99d","system_id":"levelo_inurba_marseille","lat":43.2804,"lon":5.36935,"is_reserved":false,"is_disabled":false,"rental_uris":{"android":"levelo://app?vid=1c0c0ccb-dd6f-4538-ab85-d8209da4c99d","ios":"levelo://app?vid=1c0c0ccb-dd6f-4538-ab85-d8209da4c99d"},"vehicle_type_id":"4","last_reported":1751037096,"current_range_meters":18800,"station_id":"ce4bha12rcd13ifvqef0","pricing_plan_id":"cebpf4jnsgd1na2vs0mg"},{"bike_id":"d50a70d6-9034-4801-b4ae-4fbceee94066","system_id":"levelo_inurba_marseille","lat":43.27381,"lon":5.36254,"is_reserved":false,"is_disabled":false,"rental_uris":{"android":"levelo://app?vid=d50a70d6-9034-4801-b4ae-4fbceee94066","ios":"levelo://app?vid=d50a70d6-9034-4801-b4ae-4fbceee94066"},"vehicle_type_id":"4","last_reported":1751037096,"current_range_meters":18800,"station_id":"ce4bhbh2rcd13ifvqeo0","pricing_plan_id":"cebpf4jnsgd1na2vs0mg"},{"bike_id":"9d037ac4-8df0-4fb4-b681-dab3c455b5fa","system_id":"levelo_inurba_marseille","lat":43.28277,"lon":5.35076,"is_reserved":false,"is_disabled":false,"rental_uris":{"android":"levelo://app?vid=9d037ac4-8df0-4fb4-b681-dab3c455b5fa","ios":"levelo://app?vid=9d037ac4-8df0-4fb4-b681-dab3c455b5fa"},"vehicle_type_id":"4","last_reported":1751037096,"current_range_meters":18800,"station_id":"ce4bhbp2rcd13ifvqerg","pricing_plan_id":"cebpf4jnsgd1na2vs0mg"},