{"last_updated":1750253194,"ttl":60,"version":"2.2","data":{"bikes":[{"bike_id":"3da29fb8-fc97-44c6-b9ac-31dd456b2fd4","system_id":"levelo_inurba_marseille","lat":43.33771,"lon":5.37424,"is_reserved":false,"is_disabled":true,"rental_uris":{"android":"levelo://app?vid=3da29fb8-fc97-44c6-b9ac-31dd456b2fd4","ios":"levelo://app?vid=3da29fb8-fc97-44c6-b9ac-31dd456b2fd4"},"vehicle_type_id":"4","last_reported":1750253194,"current_range_meters":0,"station_id":"","pricing_plan_id":"cebpf4jnsgd1na2vs0mg"},{"bike_id":"01861ad8-a8d7-4be6-816e-651927c87584","system_id":"levelo_inurba_marseille","lat":43.33751,"lon":5.37456,"is_reserved":false,"is_disabled":true,"rental_uris":{"android":"levelo://app?vid=01861ad8-a8d7-4be6-816e-651927c87584","ios":"levelo://app?vid=01861ad8-a8d7-4be6-816e-651927c87584"},"vehicle_type_id":"4","last_reported":1750253194,"current_range_meters":0,"station_id":"","pricing_plan_id":"cebpf4jnsgd1na2vs0mg"},{"bike_id":"dbfce7a3-3423-4296-b193-a177dea644ac","system_id":"levelo_inurba_marseille","lat":43.27283,"lon":5.41605,"is_reserved":false,"is_disabled":true,"rental_uris":{"android":"levelo://app?vid=dbfce7a3-3423-4296-b193-a177dea644ac","ios":"levelo://app?vid=dbfce7a3-3423-4296-b193-a177dea644ac"},"vehicle_type_id":"4","last_reported":1750253194,"current_range_meters":0,"station_id":"","pricing_plan_id":"cebpf4jnsgd1na2vs0mg"},{"bike_id":"d2bd57c8-6b64-48db-ad24-5398eb3fd9d6","system_id":"levelo_inurba_marseille","lat":43.337444,"lon":5.374475,"is_reserved":false,"is_disabled":true,"rental_uris":{"android":"levelo://app?vid=d2bd57c8-6b64-48db-ad24-5398eb3fd9d6","ios":"levelo://app?vid=d2bd57c8-6b64-48db-ad24-5398eb3fd9d6"},"vehicle_type_id":"4","last_reported":1750253194,"current_range_meters":0,"station_id":"","pricing_plan_id":"cebpf4jnsgd1na2vs0mg"},{"bike_id":"62a493c7-4534-4419-ad43-0582de34a72a","system_id":"levelo_inurba_marseille","lat":43.21366,"lon":5.355183,"is_reserved":false,"is_disabled":true,"rental_uris":{"android":"levelo://app?vid=62a493c7-4534-4419-ad43-0582de34a72a","ios":"levelo://app?vid=62a493c7-4534-4419-ad43-0582de34a72a"},"vehicle_type_id":"4","last_reported":1750253194,"current_range_meters":0,"station_id":"","pricing_plan_id":"cebpf4jnsgd1na2vs0mg"},{"bike_id":"b9e37238-9abe-4b8b-b932-edaee33a7e59","system_id":"levelo_inurba_marseille","lat":43.27497,"lon":5.39011,"is_reserved":false,"is_disabled":true,"rental_uris":{"android":"levelo://app?vid=b9e37238-9abe-4b8b-b932-edaee33a7e59","ios":"levelo://app?vid=b9e37238-9abe-4b8b-b932-edaee33a7e59"},"vehicle_type_id":"4","last_reported":1750253194,"current_range_meters":0,"station_id":"","pricing_plan_id":"cebpf4jnsgd1na2vs0mg"},{"bike_id":"cba28a02-9f06-41dd-8645-e3bd321e07ba","system_id":"levelo_inurba_marseille","lat":43.28791,"lon":5.38713,"is_reserved":false,"is_disabled":true,"rental_uris":{"android":"levelo://app?vid=cba28a02-9f06-41dd-8645-e3bd321e07ba","ios":"levelo://app?vid=cba28a02-9f06-41dd-8645-e3bd321e07ba"},"vehicle_type_id":"4","last_reported":1750253194,"current_range_meters":0,"station_id":"","pricing_plan_id":"cebpf4jnsgd1na2vs0mg"},{"bike_id":"dba623ec-664c-4621-8832-8f9cf82566ea","system_id":"levelo_inurba_marseille","lat":43.28026,"lon":5.36866,"is_reserved":false,"is_disabled":true,"rental_uris":{"android":"levelo://app?vid=dba623ec-664c-4621-8832-8f9cf82566ea","ios":"levelo://app?vid=dba623ec-664c-4621-8832-8f9cf82566ea"},"vehicle_type_id":"4","last_reported":1750253194,"current_range_meters":0,"station_id":"","pricing_plan_id":"cebpf4jnsgd1na2vs0mg"},{"bike_id":"8ad9234e-001a-4549-8bba-9baf2ef98804","system_id":"levelo_inurba_marseille","lat":43.27416,"lon":5.39785,"is_reserved":false,"is_disabled":true,"rental_uris":{"android":"levelo://app?vid=8ad9234e-001a-4549-8bba-9baf2ef98804","ios":"levelo://app?vid=8ad9234e-001a-4549-8bba-9baf2ef98804"},"vehicle_type_id":"4","last_reported":1750253194,"current_range_meters":0,"station_id":"","pricing_plan_id":"cebpf4jnsgd1na2vs0mg"},{"bike_id":"93af304b-67b5-47b8-a3fd-e0775f7cde8c","system_id":"levelo_inurba_marseille","lat":43.215301,"lon":5.347406,"is_reserved":false,"is_disabled":true,"rental_uris":{"android":"levelo://app?vid=93af304b-67b5-47b8-a3fd-e0775f7cde8c","ios":"levelo://app?vid=93af304b-67b5-47b8-a3fd-e0775f7cde8c"},"vehicle_type_id":"4","last_reported":1750253194,"current_range_meters":0,"station_id":"","pricing_plan_id":"cebpf4jnsgd1na2vs0mg"},{"bike_id":"d6609b4f-333b-43c1-9ebe-8726f5e76e88","system_id":"levelo_inurba_marseille","lat":43.337444,"lon":5.374475,"is_reserved":false,"is_disabled":true,"rental_uris":{"android":"levelo://app?vid=d6609b4f-333b-43c1-9ebe-8726f5e76e88","ios":"levelo://app?vid=d6609b4f-333b-43c1-9ebe-8726f5e76e88"},"vehicle_type_id":"4","last_reported":1750253194,"current_range_meters":0,"station_id":"","pricing_plan_id":"cebpf4jnsgd1na2vs0mg"},{"bike_id":"57c83ce1-960e-466a-b6c5-d93bc130c53a","system_id":"levelo_inurba_marseille","lat":43.24894,"lon":5.38975,"is_reserved":false,"is_disabled":true,"rental_uris":{"android":"levelo://app?vid=57c83ce1-960e-466a-b6c5-d93bc130c53a","ios":"levelo://app?vid=57c83ce1-960e-466a-b6c5-d93bc130c53a"},"vehicle_type_id":"4","last_reported":1750253194,"current_range_meters":0,"station_id":"","pricing_plan_id":"cebpf4jnsgd1na2vs0mg"},{"bike_id":"7c524447-6b49-45c8-bdf0-85ad1c55ea66","system_id":"levelo_inurba_marseille","lat":43.31522,"lon":5.37364,"is_reserved":false,"is_disabled":true,"rental_uris":{"android":"levelo://app?vid=7c524447-6b49-45c8-bdf0-85ad1c55ea66","ios":"levelo://app?vid=7c524447-6b49-45c8-bdf0-85ad1c55ea66"},"vehicle_type_id":"4","last_reported":1750253194,"current_range_meters":0,"station_id":"","pricing_plan_id":"cebpf4jnsgd1na2vs0mg"},{"bike_id":"e729d757-19c3-49cd-aaa1-a4311ee172b8","system_id":"levelo_inurba_marseille","lat":43.30892,"lon":5.39661,"is_reserved":false,"is_disabled":true,"rental_uris":{"android":"levelo://app?vid=e729d757-19c3-49cd-aaa1-a4311ee172b8","ios":"levelo://app?vid=e729d757-19c3-49cd-aaa1-a4311ee172b8"},"vehicle_type_id":"4","last_reported":1750253194,"current_range_meters":0,"station_id":"ce4bh012rcd13ifvqcv0","pricing_plan_id":"cebpf4jnsgd1na2vs0mg"},{"bike_id":"a05c9bd8-437f-4529-9cf0-719b5eb7e3c5","system_id":"levelo_inurba_marseille","lat":43.29561,"lon":5.399945,"is_reserved":false,"is_disabled":true,"rental_uris":{"android":"levelo://app?vid=a05c9bd8-437f-4529-9cf0-719b5eb7e3c5","ios":"levelo://app?vid=a05c9bd8-437f-4529-9cf0-719b5eb7e3c5"},"vehicle_type_id":"4","last_reported":1750253194,"current_range_meters":0,"station_id":"ce4bh0p2rcd13ifvqd80","pricing_plan_id":"cebpf4jnsgd1na2vs0mg"},{"bike_id":"67c95a02-42f6-41e8-9a6c-c392dd6d38d9","system_id":"levelo_inurba_marseille","lat":43.284,"lon":5.37503,"is_reserved":false,"is_disabled":true,"rental_uris":{"android":"levelo://app?vid=67c95a02-42f6-41e8-9a6c-c392dd6d38d9","ios":"levelo://app?vid=67c95a02-42f6-41e8-9a6c-c392dd6d38d9"},"vehicle_type_id":"4","last_reported":1750253194,"current_range_meters":0,"station_id":"ce4bh412rcd13ifvqds0","pricing_plan_id":"cebpf4jnsgd1na2vs0mg"},{"bike_id":"aa22baeb-fe79-40d6-8c06-bb0ad9b929a5","system_id":"levelo_inurba_marseille","lat":43.29256,"lon":5.38438,"is_reserved":false,"is_disabled":true,"rental_uris":{"android":"levelo://app?vid=aa22baeb-fe79-40d6-8c06-bb0ad9b929a5","ios":"levelo://app?vid=aa22baeb-fe79-40d6-8c06-bb0ad9b929a5"},"vehicle_type_id":"4","last_reported":1750253194,"current_range_meters":0,"station_id":"ce4bh692rcd13ifvqea0","pricing_plan_id":"cebpf4jnsgd1na2vs0mg"},{"bike_id":"d86228ca-d2fe-4406-a4b4-9e57ac8fe9c6","system_id":"levelo_inurba_marseille","lat":43.27376,"lon":5.3626,"is_reserved":false,"is_disabled":true,"rental_uris":{"android":"levelo://app?vid=d86228ca-d2fe-4406-a4b4-9e57ac8fe9c6","ios":"levelo://app?vid=d86228ca-d2fe-4406-a4b4-9e57ac8fe9c6"},"vehicle_type_id":"4","last_reported":1750253194,"current_range_meters":0,"station_id":"ce4bhbh2rcd13ifvqeo0","pricing_plan_id":"cebpf4jnsgd1na2vs0mg"},{"bike_id":"4f5dc6f2-ed39-43b4-85a4-7a371228047a","system_id":"levelo_inurba_marseille","lat":43.28434,"lon":5.35001,"is_reserved":false,"is_disabled":true,"rental_uris":{"android":"levelo://app?vid=4f5dc6f2-ed39-43b4-85a4-7a371228047a","ios":"levelo://app?vid=4f5dc6f2-ed39-43b4-85a4-7a371228047a"},"vehicle_type_id":"4","last_reported":1750253194,"current_range_meters":0,"station_id":"ce4bhbh2rcd13ifvqepg","pricing_plan_id":"cebpf4jnsgd1na2vs0mg"},{"bike_id":"efcaa8ce-337e-488d-8e05-557decca329d","system_id":"levelo_inurba_marseille","lat":43.29232,"lon":5.36036,"is_reserved":false,"is_disabled":true,"rental_uris":{"android":"levelo://app?vid=efcaa8ce-337e-488d-8e05-557decca329d","ios":"levelo://app?vid=efcaa8ce-337e-488d-8e05-557decca329d"},"vehicle_type_id":"4","last_reported":1750253194,"current_range_meters":0,"station_id":"ce4bhbh2rcd13ifvqeqg","pricing_plan_id":"cebpf4jnsgd1na2vs0mg"},{"bike_id":"6566db71-4bcc-4ce8-aa74-54f0ab69fb74","system_id":"levelo_inurba_marseille","lat":43.27213,"lon":5.39179,"is_reserved":false,"is_disabled":true,"rental_uris":{"android":"levelo://app?vid=6566db71-4bcc-4ce8-aa74-54f0ab69fb74","ios":"levelo://app?vid=6566db71-4bcc-4ce8-aa74-54f0ab69fb74"},"vehicle_type_id":"4","last_reported":1750253194,"current_range_meters":0,"station_id":"ce4bhhp2rcd13ifvqfm0","pricing_plan_id":"cebpf4jnsgd1na2vs0mg"},{"bike_id":"e37c9a7e-6e3b-4f6e-8d83-1d207cc0630d","system_id":"levelo_inurba_marseille","lat":43.25727,"lon":5.41117,"is_reserved":false,"is_disabled":true,"rental_uris":{"android":"levelo://app?vid=e37c9a7e-6e3b-4f6e-8d83-1d207cc0630d","ios":"levelo://app?vid=e37c9a7e-6e3b-4f6e-8d83-1d207cc0630d"},"vehicle_type_id":"4","last_reported":1750253194,"current_range_meters":0,"station_id":"ce4bhkp2rcd13ifvqgd0","pricing_plan_id":"cebpf4jnsgd1na2vs0mg"},{"bike_id":"54b0d4a4-0950-43d0-b344-6d157e38768b","system_id":"levelo_inurba_marseille","lat":43.24076,"lon":5.3775,"is_reserved":false,"is_disabled":true,"rental_uris":{"android":"levelo://app?vid=54b0d4a4-0950-43d0-b344-6d157e38768b","ios":"levelo://app?vid=54b0d4a4-0950-43d0-b344-6d157e38768b"},"vehicle_type_id":"4","last_reported":1750253194,"current_range_meters":0,"station_id":"ce4bhnp2rcd13ifvqgvg","pricing_plan_id":"cebpf4jnsgd1na2vs0mg"},{"bike_id":"04504821-c989-41fc-93dc-2a00a94feeb9","system_id":"levelo_inurba_marseille","lat":43.28427,"lon":5.34997,"is_reserved":false,"is_disabled":true,"rental_uris":{"android":"levelo://app?vid=04504821-c989-41fc-93dc-2a00a94feeb9","ios":"levelo://app?vid=04504821-c989-41fc-93dc-2a00a94feeb9"},"vehicle_type_id":"4","last_reported":1750253194,"current_range_meters":400,"station_id":"ce4bhbh2rcd13ifvqepg","pricing_plan_id":"cebpf4jnsgd1na2vs0mg"},{"bike_id":"f5c0dfeb-7200-4ff6-8e05-1ab0e419fdc7","system_id":"levelo_inurba_marseille","lat":43.28408,"lon":5.34974,"is_reserved":false,"is_disabled":true,"rental_uris":{"android":"levelo://app?vid=f5c0dfeb-7200-4ff6-8e05-1ab0e419fdc7","ios":"levelo://app?vid=f5c0dfeb-7200-4ff6-8e05-1ab0e419fdc7"},"vehicle_type_id":"4","last_reported":1750253194,"current_range_meters":400,"station_id":"ce4bhbh2rcd13ifvqepg","pricing_plan_id":"cebpf4jnsgd1na2vs0mg"},{"bike_id":"3c7e471a-8702-4006-b4f4-2698169bf701","system_id":"levelo_inurba_marseille","lat":43.292603,"lon":5.384371,"is_reserved":false,"is_disabled":true,"rental_uris":{"android":"levelo://app?vid=3c7e471a-8702-4006-b4f4-2698169bf701","ios":"levelo://app?vid=3c7e471a-8702-4006-b4f4-2698169bf701"},"vehicle_type_id":"4","last_reported":1750253194,"current_range_meters":1200,"station_id":"ce4bh692rcd13ifvqea0","pricing_plan_id":"cebpf4jnsgd1na2vs0mg"},{"bike_id":"0608ec75-8b60-4ad4-9b62-5b6cdabd4c3d","system_id":"levelo_inurba_marseille","lat":43.289368,"lon":5.36635,"is_reserved":false,"is_disabled":true,"rental_uris":{"android":"levelo://app?vid=0608ec75-8b60-4ad4-9b62-5b6cdabd4c3d","ios":"levelo://app?vid=0608ec75-8b60-4ad4-9b62-5b6cdabd4c3d"},"vehicle_type_id":"4","last_reported":1750253194,"current_range_meters":1200,"station_id":"ce4bhap2rcd13ifvqek0","pricing_plan_id":"cebpf4jnsgd1na2vs0mg"},{"bike_id":"068458ef-97ce-4447-b183-55fff6425005","system_id":"levelo_inurba_marseille","lat":43.28274,"lon":5.35059,"is_reserved":false,"is_disabled":true,"rental_uris":{"android":"levelo://app?vid=068458ef-97ce-4447-b183-55fff6425005","ios":"levelo://app?vid=068458ef-97ce-4447-b183-55fff6425005"},"vehicle_type_id":"4","last_reported":1750253194,"current_range_meters":1200,"station_id":"ce4bhbp2rcd13ifvqerg","pricing_plan_id":"cebpf4jnsgd1na2vs0mg"},{"bike_id":"c2b63942-c12a-40ed-98d6-8dc8ceaf0095","system_id":"levelo_inurba_marseille","lat":43.2618,"lon":5.37506,"is_reserved":false,"is_disabled":true,"rental_uris":{"android":"levelo://app?vid=c2b63942-c12a-40ed-98d6-8dc8ceaf0095","ios":"levelo://app?vid=c2b63942-c12a-40ed-98d6-8dc8ceaf0095"},"vehicle_type_id":"4","last_reported":1750253194,"current_range_meters":1200,"station_id":"ce4bhgp2rcd13ifvqfc0","pricing_plan_id":"cebpf4jnsgd1na2vs0mg"},{"bike_id":"408d7dc4-ea62-4603-97ab-b4b3c556c4ea","system_id":"levelo_inurba_marseille","lat":43.33149,"lon":5.38953,"is_reserved":false,"is_disabled":true,"rental_uris":{"android":"levelo://app?vid=408d7dc4-ea62-4603-97ab-b4b3c556c4ea","ios":"levelo://app?vid=408d7dc4-ea62-4603-97ab-b4b3c556c4ea"},"vehicle_type_id":"4","last_reported":1750253194,"current_range_meters":1600,"station_id":"","pricing_plan_id":"cebpf4jnsgd1na2vs0mg"},{"bike_id":"ae23f844-5bbd-490b-8246-bd9d8ed82b00","system_id":"levelo_inurba_marseille","lat":43.30542,"lon":5.36534,"is_reserved":false,"is_disabled":true,"rental_uris":{"android":"levelo://app?vid=ae23f844-5bbd-490b-8246-bd9d8ed82b00","ios":"levelo://app?vid=ae23f844-5bbd-490b-8246-bd9d8ed82b00"},"vehicle_type_id":"4","last_reported":1750253194,"current_range_meters":1600,"station_id":"ce4bgs12rcd13ifvqcag","pricing_plan_id":"cebpf4jnsgd1na2vs0mg"},{"bike_id":"d33af23f-6948-4ebb-aba0-1cbef8e40086","system_id":"levelo_inurba_marseille","lat":43.25584,"lon":5.38236,"is_reserved":false,"is_disabled":true,"rental_uris":{"android":"levelo://app?vid=d33af23f-6948-4ebb-aba0-1cbef8e40086","ios":"levelo://app?vid=d33af23f-6948-4ebb-aba0-1cbef8e40086"},"vehicle_type_id":"4","last_reported":1750253194,"current_range_meters":1600,"station_id":"ce4bhih2rcd13ifvqfs0","pricing_plan_id":"cebpf4jnsgd1na2vs0mg"},{"bike_id":"2395248d-0fef-4e4f-ba8e-f8283c94ae53","system_id":"levelo_inurba_marseille","lat":43.31255,"lon":5.39521,"is_reserved":false,"is_disabled":true,"rental_uris":{"android":"levelo://app?vid=2395248d-0fef-4e4f-ba8e-f8283c94ae53","ios":"levelo://app?vid=2395248d-0fef-4e4f-ba8e-f8283c94ae53"},"vehicle_type_id":"4","last_reported":1750253194,"current_range_meters":2000,"station_id":"","pricing_plan_id":"cebpf4jnsgd1na2vs0mg"},{"bike_id":"8772a721-db50-4875-b361-a1bf1ea5fb3a","system_id":"levelo_inurba_marseille","lat":43.286127,"lon":5.351083,"is_reserved":false,"is_disabled":true,"rental_uris":{"android":"levelo://app?vid=8772a721-db50-4875-b361-a1bf1ea5fb3a","ios":"levelo://app?vid=8772a721-db50-4875-b361-a1bf1ea5fb3a"},"vehicle_type_id":"4","last_reported":1750253194,"current_range_meters":2000,"station_id":"ce4bhbp2rcd13ifvqesg","pricing_plan_id":"cebpf4jnsgd1na2vs0mg"},{"bike_id":"4bab259e-0aaa-4e76-99e6-ed34189252f7","system_id":"levelo_inurba_marseille","lat":43.28153,"lon":5.42652,"is_reserved":false,"is_disabled":false,"rental_uris":{"android":"levelo://app?vid=4bab259e-0aaa-4e76-99e6-ed34189252f7","ios":"levelo://app?vid=4bab259e-0aaa-4e76-99e6-ed34189252f7"},"vehicle_type_id":"4","last_reported":1750253194,"current_range_meters":2000,"station_id":"ce4bhnh2rcd13ifvqgug","pricing_plan_id":"cebpf4jnsgd1na2vs0mg"},{"bike_id":"47196f00-388f-4b3b-a4de-3dba126cd107","system_id":"levelo_inurba_marseille","lat":43.24356,"lon":5.41144,"is_reserved":false,"is_disabled":false,"rental_uris":{"android":"levelo://app?vid=47196f00-388f-4b3b-a4de-3dba126cd107","ios":"levelo://app?vid=47196f00-388f-4b3b-a4de-3dba126cd107"},"vehicle_type_id":"4","last_reported":1750253194,"current_range_meters":2800,"station_id":"","pricing_plan_id":"cebpf4jnsgd1na2vs0mg"},{"bike_id":"99216c03-4056-4425-8cdf-f5a649497eb0","system_id":"levelo_inurba_marseille","lat":43.305359,"lon":5.365519,"is_reserved":false,"is_disabled":false,"rental_uris":{"android":"levelo://app?vid=99216c03-4056-4425-8cdf-f5a649497eb0","ios":"levelo://app?vid=99216c03-4056-4425-8cdf-f5a649497eb0"},"vehicle_type_id":"4","last_reported":1750253194,"current_range_meters":2800,"station_id":"ce4bgs12rcd13ifvqcag","pricing_plan_id":"cebpf4jnsgd1na2vs0mg"},{"bike_id":"0eb847d7-4aae-442a-857e-27d2ae6bcede","system_id":"levelo_inurba_marseille","lat":43.30158,"lon":5.37425,"is_reserved":false,"is_disabled":false,"rental_uris":{"android":"levelo://app?vid=0eb847d7-4aae-442a-857e-27d2ae6bcede","ios":"levelo://app?vid=0eb847d7-4aae-442a-857e-27d2ae6bcede"},"vehicle_type_id":"4","last_reported":1750253194,"current_range_meters":2800,"station_id":"ce4bgs92rcd13ifvqcc0","pricing_plan_id":"cebpf4jnsgd1na2vs0mg"},{"bike_id":"bbba2cb1-5aa9-44d2-a218-2b0560879f92","system_id":"levelo_inurba_marseille","lat":43.29553,"lon":5.42296,"is_reserved":false,"is_disabled":false,"rental_uris":{"android":"levelo://app?vid=bbba2cb1-5aa9-44d2-a218-2b0560879f92","ios":"levelo://app?vid=bbba2cb1-5aa9-44d2-a218-2b0560879f92"},"vehicle_type_id":"4","last_reported":1750253194,"current_range_meters":2800,"station_id":"ce4bhph2rcd13ifvqhdg","pricing_plan_id":"cebpf4jnsgd1na2vs0mg"},{"bike_id":"2559e2d3-fa6e-4460-9133-975cb77d2158","system_id":"levelo_inurba_marseille","lat":43.31747,"lon":5.39015,"is_reserved":false,"is_disabled":false,"rental_uris":{"android":"levelo://app?vid=2559e2d3-fa6e-4460-9133-975cb77d2158","ios":"levelo://app?vid=2559e2d3-fa6e-4460-9133-975cb77d2158"},"vehicle_type_id":"4","last_reported":1750253194,"current_range_meters":2800,"station_id":"ce4bhqp2rcd13ifvqhng","pricing_plan_id":"cebpf4jnsgd1na2vs0mg"},{"bike_id":"c388ba51-fc3b-4acd-8c3f-9c34697c2e64","system_id":"levelo_inurba_marseille","lat":43.25515,"lon":5.40848,"is_reserved":false,"is_disabled":false,"rental_uris":{"android":"levelo://app?vid=c388ba51-fc3b-4acd-8c3f-9c34697c2e64","ios":"levelo://app?vid=c388ba51-fc3b-4acd-8c3f-9c34697c2e64"},"vehicle_type_id":"4","last_reported":1750253194,"current_range_meters":3200,"station_id":"","pricing_plan_id":"cebpf4jnsgd1na2vs0mg"},{"bike_id":"ee6b670b-d081-4b2d-81cb-36b2648ea425","system_id":"levelo_inurba_marseille","lat":43.263694,"lon":5.373919,"is_reserved":false,"is_disabled":false,"rental_uris":{"android":"levelo://app?vid=ee6b670b-d081-4b2d-81cb-36b2648ea425","ios":"levelo://app?vid=ee6b670b-d081-4b2d-81cb-36b2648ea425"},"vehicle_type_id":"4","last_reported":1750253194,"current_range_meters":3200,"station_id":"ce4bhg12rcd13ifvqf70","pricing_plan_id":"cebpf4jnsgd1na2vs0mg"},{"bike_id":"7a9abce7-968d-46b7-8114-9d306489f001","system_id":"levelo_inurba_marseille","lat":43.3169,"lon":5.40467,"is_reserved":false,"is_disabled":false,"rental_uris":{"android":"levelo://app?vid=7a9abce7-968d-46b7-8114-9d306489f001","ios":"levelo://app?vid=7a9abce7-968d-46b7-8114-9d306489f001"},"vehicle_type_id":"4","last_reported":1750253194,"current_range_meters":3600,"station_id":"ce4bh012rcd13ifvqd00","pricing_plan_id":"cebpf4jnsgd1na2vs0mg"},{"bike_id":"ecaee8c8-b941-4f87-8625-6b4044627ecf","system_id":"levelo_inurba_marseille","lat":43.29259,"lon":5.38432,"is_reserved":false,"is_disabled":false,"rental_uris":{"android":"levelo://app?vid=ecaee8c8-b941-4f87-8625-6b4044627ecf","ios":"levelo://app?vid=ecaee8c8-b941-4f87-8625-6b4044627ecf"},"vehicle_type_id":"4","last_reported":1750253194,"current_range_meters":3600,"station_id":"ce4bh692rcd13ifvqea0","pricing_plan_id":"cebpf4jnsgd1na2vs0mg"},{"bike_id":"4a349333-d73b-4d06-9bdf-530e9e3d51ae","system_id":"levelo_inurba_marseille","lat":43.27374,"lon":5.36259,"is_reserved":false,"is_disabled":false,"rental_uris":{"android":"levelo://app?vid=4a349333-d73b-4d06-9bdf-530e9e3d51ae","ios":"levelo://app?vid=4a349333-d73b-4d06-9bdf-530e9e3d51ae"},"vehicle_type_id":"4","last_reported":1750253194,"current_range_meters":4000,"station_id":"ce4bhbh2rcd13ifvqeo0","pricing_plan_id":"cebpf4jnsgd1na2vs0mg"},{"bike_id":"8c803ebe-c16f-4ebb-b13b-0e5b2c3423fe","system_id":"levelo_inurba_marseille","lat":43.28424,"lon":5.35004,"is_reserved":false,"is_disabled":false,"rental_uris":{"android":"levelo://app?vid=8c803ebe-c16f-4ebb-b13b-0e5b2c3423fe","ios":"levelo://app?vid=8c803ebe-c16f-4ebb-b13b-0e5b2c3423fe"},"vehicle_type_id":"4","last_reported":1750253194,"current_range_meters":4000,"station_id":"ce4bhbh2rcd13ifvqepg","pricing_plan_id":"cebpf4jnsgd1na2vs0mg"},{"bike_id":"85192109-a1c6-4837-a01e-b45aac169e1b","system_id":"levelo_inurba_marseille","lat":43.28941,"lon":5.36404,"is_reserved":false,"is_disabled":false,"rental_uris":{"android":"levelo://app?vid=85192109-a1c6-4837-a01e-b45aac169e1b","ios":"levelo://app?vid=85192109-a1c6-4837-a01e-b45aac169e1b"},"vehicle_type_id":"4","last_reported":1750253194,"current_range_meters":4000,"station_id":"ce4bhc92rcd13ifvqetg","pricing_plan_id":"cebpf4jnsgd1na2vs0mg"},{"bike_id":"4cf7f109-cc04-46ba-8420-3bda7cab07ca","system_id":"levelo_inurba_marseille","lat":43.2319,"lon":5.35542,"is_reserved":false,"is_disabled":true,"rental_uris":{"android":"levelo://app?vid=4cf7f109-cc04-46ba-8420-3bda7cab07ca","ios":"levelo://app?vid=4cf7f109-cc04-46ba-8420-3bda7cab07ca"},"vehicle_type_id":"4","last_reported":1750253194,"current_range_meters":4000,"station_id":"ce4bhu92rcd13ifvqi70","pricing_plan_id":"cebpf4jnsgd1na2vs0mg"},{"bike_id":"fe753a6d-0961-441e-b4a4-a4fa5974f5cc","system_id":"levelo_inurba_marseille","lat":43.21193,"lon":5.35067,"is_reserved":false,"is_disabled":false,"rental_uris":{"android":"levelo://app?vid=fe753a6d-0961-441e-b4a4-a4fa5974f5cc","ios":"levelo://app?vid=fe753a6d-0961-441e-b4a4-a4fa5974f5cc"},"vehicle_type_id":"4","last_reported":1750253194,"current_range_meters":4000,"station_id":"st_cvj6sg6p6f1abm77japg","pricing_plan_id":"cebpf4jnsgd1na2vs0mg"},{"bike_id":"5a3faa67-ad3e-44be-91cc-2ad302689b22","system_id":"levelo_inurba_marseille","lat":43.28039,"lon":5.36955,"is_reserved":false,"is_disabled":false,"rental_uris":{"android":"levelo://app?vid=5a3faa67-ad3e-44be-91cc-2ad302689b22","ios":"levelo://app?vid=5a3faa67-ad3e-44be-91cc-2ad302689b22"},"vehicle_type_id":"4","last_reported":1750253194,"current_range_meters":4400,"station_id":"ce4bha12rcd13ifvqef0","pricing_plan_id":"cebpf4jnsgd1na2vs0mg"},{"bike_id":"e376895e-f58d-4b8e-a8cd-b5f768ce6851","system_id":"levelo_inurba_marseille","lat":43.302109,"lon":5.390058,"is_reserved":false,"is_disabled":false,"rental_uris":{"android":"levelo://app?vid=e376895e-f58d-4b8e-a8cd-b5f768ce6851","ios":"levelo://app?vid=e376895e-f58d-4b8e-a8cd-b5f768ce6851"},"vehicle_type_id":"4","last_reported":1750253194,"current_range_meters":4800,"station_id":"ce4bh0p2rcd13ifvqd80","pricing_plan_id":"cebpf4jnsgd1na2vs0mg"},{"bike_id":"b058b2bb-12cc-45d3-97fa-e1d0158fbfcf","system_id":"levelo_inurba_marseille","lat":43.2953,"lon":5.3941,"is_reserved":false,"is_disabled":false,"rental_uris":{"android":"levelo://app?vid=b058b2bb-12cc-45d3-97fa-e1d0158fbfcf","ios":"levelo://app?vid=b058b2bb-12cc-45d3-97fa-e1d0158fbfcf"},"vehicle_type_id":"4","last_reported":1750253194,"current_range_meters":4800,"station_id":"ce4bh292rcd13ifvqdf0","pricing_plan_id":"cebpf4jnsgd1na2vs0mg"},{"bike_id":"0300c390-f321-42f3-9667-0aa59882adfa","system_id":"levelo_inurba_marseille","lat":43.26032,"lon":5.37545,"is_reserved":false,"is_disabled":false,"rental_uris":{"android":"levelo://app?vid=0300c390-f321-42f3-9667-0aa59882adfa","ios":"levelo://app?vid=0300c390-f321-42f3-9667-0aa59882adfa"},"vehicle_type_id":"4","last_reported":1750253194,"current_range_meters":4800,"station_id":"ce4bhgh2rcd13ifvqfa0","pricing_plan_id":"cebpf4jnsgd1na2vs0mg"},{"bike_id":"6ba80795-26da-43fa-ab60-6831760385ff","system_id":"levelo_inurba_marseille","lat":43.32576,"lon":5.41965,"is_reserved":false,"is_disabled":false,"rental_uris":{"android":"levelo://app?vid=6ba80795-26da-43fa-ab60-6831760385ff","ios":"levelo://app?vid=6ba80795-26da-43fa-ab60-6831760385ff"},"vehicle_type_id":"4","last_reported":1750253194,"current_range_meters":5600,"station_id":"","pricing_plan_id":"cebpf4jnsgd1na2vs0mg"},{"bike_id":"656aac0a-6ae8-4748-b1b1-b26b0473b9f2","system_id":"levelo_inurba_marseille","lat":43.29535,"lon":5.38541,"is_reserved":false,"is_disabled":false,"rental_uris":{"android":"levelo://app?vid=656aac0a-6ae8-4748-b1b1-b26b0473b9f2","ios":"levelo://app?vid=656aac0a-6ae8-4748-b1b1-b26b0473b9f2"},"vehicle_type_id":"4","last_reported":1750253194,"current_range_meters":5600,"station_id":"ce4bgih2rcd13ifvqba0","pricing_plan_id":"cebpf4jnsgd1na2vs0mg"},{"bike_id":"7fb8b15e-4b64-481d-bb7c-0cfd6c7982d8","system_id":"levelo_inurba_marseille","lat":43.30557,"lon":5.36554,"is_reserved":false,"is_disabled":false,"rental_uris":{"android":"levelo://app?vid=7fb8b15e-4b64-481d-bb7c-0cfd6c7982d8","ios":"levelo://app?vid=7fb8b15e-4b64-481d-bb7c-0cfd6c7982d8"},"vehicle_type_id":"4","last_reported":1750253194,"current_range_meters":5600,"station_id":"ce4bgs12rcd13ifvqcag","pricing_plan_id":"cebpf4jnsgd1na2vs0mg"},{"bike_id":"c47dff06-6100-49a6-8a1a-5a8486cb3172","system_id":"levelo_inurba_marseille","lat":43.28288,"lon":5.35086,"is_reserved":false,"is_disabled":false,"rental_uris":{"android":"levelo://app?vid=c47dff06-6100-49a6-8a1a-5a8486cb3172","ios":"levelo://app?vid=c47dff06-6100-49a6-8a1a-5a8486cb3172"},"vehicle_type_id":"4","last_reported":1750253194,"current_range_meters":5600,"station_id":"ce4bhbp2rcd13ifvqerg","pricing_plan_id":"cebpf4jnsgd1na2vs0mg"},{"bike_id":"b2a412fd-12fe-473a-87df-f5d760c5451e","system_id":"levelo_inurba_marseille","lat":43.26574,"lon":5.39015,"is_reserved":false,"is_disabled":false,"rental_uris":{"android":"levelo://app?vid=b2a412fd-12fe-473a-87df-f5d760c5451e","ios":"levelo://app?vid=b2a412fd-12fe-473a-87df-f5d760c5451e"},"vehicle_type_id":"4","last_reported":1750253194,"current_range_meters":5600,"station_id":"ce4bhe12rcd13ifvqf30","pricing_plan_id":"cebpf4jnsgd1na2vs0mg"},{"bike_id":"ac1c17be-32dc-4449-8610-ca5bfe2cd501","system_id":"levelo_inurba_marseille","lat":43.30545,"lon":5.36599,"is_reserved":false,"is_disabled":false,"rental_uris":{"android":"levelo://app?vid=ac1c17be-32dc-4449-8610-ca5bfe2cd501","ios":"levelo://app?vid=ac1c17be-32dc-4449-8610-ca5bfe2cd501"},"vehicle_type_id":"4","last_reported":1750253194,"current_range_meters":6000,"station_id":"","pricing_plan_id":"cebpf4jnsgd1na2vs0mg"},{"bike_id":"33e9c9da-1cc0-4262-ad00-281d3e3f35fc","system_id":"levelo_inurba_marseille","lat":43.30539,"lon":5.36497,"is_reserved":false,"is_disabled":false,"rental_uris":{"android":"levelo://app?vid=33e9c9da-1cc0-4262-ad00-281d3e3f35fc","ios":"levelo://app?vid=33e9c9da-1cc0-4262-ad00-281d3e3f35fc"},"vehicle_type_id":"4","last_reported":1750253194,"current_range_meters":6000,"station_id":"","pricing_plan_id":"cebpf4jnsgd1na2vs0mg"},{"bike_id":"41083208-d5f1-411f-88e3-9e646359b5a5","system_id":"levelo_inurba_marseille","lat":43.30155,"lon":5.38076,"is_reserved":false,"is_disabled":false,"rental_uris":{"android":"levelo://app?vid=41083208-d5f1-411f-88e3-9e646359b5a5","ios":"levelo://app?vid=41083208-d5f1-411f-88e3-9e646359b5a5"},"vehicle_type_id":"4","last_reported":1750253194,"current_range_meters":6000,"station_id":"ce4bgjp2rcd13ifvqbh0","pricing_plan_id":"cebpf4jnsgd1na2vs0mg"},{"bike_id":"bc4ea584-4b9e-47bc-9bf9-0acbc1c309ba","system_id":"levelo_inurba_marseille","lat":43.30794,"lon":5.37657,"is_reserved":false,"is_disabled":false,"rental_uris":{"android":"levelo://app?vid=bc4ea584-4b9e-47bc-9bf9-0acbc1c309ba","ios":"levelo://app?vid=bc4ea584-4b9e-47bc-9bf9-0acbc1c309ba"},"vehicle_type_id":"4","last_reported":1750253194,"current_range_meters":6000,"station_id":"ce4bgv92rcd13ifvqcq0","pricing_plan_id":"cebpf4jnsgd1na2vs0mg"},{"bike_id":"663e03a9-2d38-4dc8-82bf-0c694aac6d0d","system_id":"levelo_inurba_marseille","lat":43.28359,"lon":5.38105,"is_reserved":false,"is_disabled":false,"rental_uris":{"android":"levelo://app?vid=663e03a9-2d38-4dc8-82bf-0c694aac6d0d","ios":"levelo://app?vid=663e03a9-2d38-4dc8-82bf-0c694aac6d0d"},"vehicle_type_id":"4","last_reported":1750253194,"current_range_meters":6000,"station_id":"ce4bh412rcd13ifvqdr0","pricing_plan_id":"cebpf4jnsgd1na2vs0mg"},{"bike_id":"5530cebf-f66c-424b-aece-4dd7331b46d2","system_id":"levelo_inurba_marseille","lat":43.25872,"lon":5.39895,"is_reserved":false,"is_disabled":false,"rental_uris":{"android":"levelo://app?vid=5530cebf-f66c-424b-aece-4dd7331b46d2","ios":"levelo://app?vid=5530cebf-f66c-424b-aece-4dd7331b46d2"},"vehicle_type_id":"4","last_reported":1750253194,"current_range_meters":6000,"station_id":"ce4bhl92rcd13ifvqghg","pricing_plan_id":"cebpf4jnsgd1na2vs0mg"},{"bike_id":"857c245f-8ab5-4179-9a16-97db6aa6bebe","system_id":"levelo_inurba_marseille","lat":43.231496,"lon":5.437156,"is_reserved":false,"is_disabled":false,"rental_uris":{"android":"levelo://app?vid=857c245f-8ab5-4179-9a16-97db6aa6bebe","ios":"levelo://app?vid=857c245f-8ab5-4179-9a16-97db6aa6bebe"},"vehicle_type_id":"4","last_reported":1750253194,"current_range_meters":6000,"station_id":"ce4bhmp2rcd13ifvqgog","pricing_plan_id":"cebpf4jnsgd1na2vs0mg"},{"bike_id":"e03a6d42-f362-4878-ab56-4b5afba95b0c","system_id":"levelo_inurba_marseille","lat":43.31507,"lon":5.36917,"is_reserved":false,"is_disabled":false,"rental_uris":{"android":"levelo://app?vid=e03a6d42-f362-4878-ab56-4b5afba95b0c","ios":"levelo://app?vid=e03a6d42-f362-4878-ab56-4b5afba95b0c"},"vehicle_type_id":"4","last_reported":1750253194,"current_range_meters":6400,"station_id":"","pricing_plan_id":"cebpf4jnsgd1na2vs0mg"},{"bike_id":"ae4a7bb6-19ec-4528-ba2f-4c58721d2ee8","system_id":"levelo_inurba_marseille","lat":43.2332,"lon":5.43554,"is_reserved":false,"is_disabled":false,"rental_uris":{"android":"levelo://app?vid=ae4a7bb6-19ec-4528-ba2f-4c58721d2ee8","ios":"levelo://app?vid=ae4a7bb6-19ec-4528-ba2f-4c58721d2ee8"},"vehicle_type_id":"4","last_reported":1750253194,"current_range_meters":6400,"station_id":"","pricing_plan_id":"cebpf4jnsgd1na2vs0mg"},{"bike_id":"ed32f196-d775-4771-aef7-33cceed6a71b","system_id":"levelo_inurba_marseille","lat":43.27377,"lon":5.36253,"is_reserved":false,"is_disabled":false,"rental_uris":{"android":"levelo://app?vid=ed32f196-d775-4771-aef7-33cceed6a71b","ios":"levelo://app?vid=ed32f196-d775-4771-aef7-33cceed6a71b"},"vehicle_type_id":"4","last_reported":1750253194,"current_range_meters":6400,"station_id":"ce4bhbh2rcd13ifvqeo0","pricing_plan_id":"cebpf4jnsgd1na2vs0mg"},{"bike_id":"fc3e24cf-7a3e-4c07-a0fb-95565d28afed","system_id":"levelo_inurba_marseille","lat":43.26558,"lon":5.37286,"is_reserved":false,"is_disabled":false,"rental_uris":{"android":"levelo://app?vid=fc3e24cf-7a3e-4c07-a0fb-95565d28afed","ios":"levelo://app?vid=fc3e24cf-7a3e-4c07-a0fb-95565d28afed"},"vehicle_type_id":"4","last_reported":1750253194,"current_range_meters":6800,"station_id":"ce4bhg12rcd13ifvqf70","pricing_plan_id":"cebpf4jnsgd1na2vs0mg"},{"bike_id":"cee1dfdf-570b-435f-80ca-a7974b576850","system_id":"levelo_inurba_marseille","lat":43.25483,"lon":5.37636,"is_reserved":false,"is_disabled":false,"rental_uris":{"android":"levelo://app?vid=cee1dfdf-570b-435f-80ca-a7974b576850","ios":"levelo://app?vid=cee1dfdf-570b-435f-80ca-a7974b576850"},"vehicle_type_id":"4","last_reported":1750253194,"current_range_meters":6800,"station_id":"ce4bhh12rcd13ifvqff0","pricing_plan_id":"cebpf4jnsgd1na2vs0mg"},{"bike_id":"3b136301-d892-4bf1-aa15-695ec30464ca","system_id":"levelo_inurba_marseille","lat":43.32089,"lon":5.36751,"is_reserved":false,"is_disabled":false,"rental_uris":{"android":"levelo://app?vid=3b136301-d892-4bf1-aa15-695ec30464ca","ios":"levelo://app?vid=3b136301-d892-4bf1-aa15-695ec30464ca"},"vehicle_type_id":"4","last_reported":1750253194,"current_range_meters":6800,"station_id":"ce4bhrh2rcd13ifvqhug","pricing_plan_id":"cebpf4jnsgd1na2vs0mg"},{"bike_id":"7eaae68b-cc21-4604-bf7e-22ae4066ed34","system_id":"levelo_inurba_marseille","lat":43.30646,"lon":5.40104,"is_reserved":false,"is_disabled":false,"rental_uris":{"android":"levelo://app?vid=7eaae68b-cc21-4604-bf7e-22ae4066ed34","ios":"levelo://app?vid=7eaae68b-cc21-4604-bf7e-22ae4066ed34"},"vehicle_type_id":"4","last_reported":1750253194,"current_range_meters":7200,"station_id":"ce4bh112rcd13ifvqda0","pricing_plan_id":"cebpf4jnsgd1na2vs0mg"},{"bike_id":"052040e2-4fd3-480f-8914-37bf4b2b0d0b","system_id":"levelo_inurba_marseille","lat":43.29197,"lon":5.35815,"is_reserved":false,"is_disabled":false,"rental_uris":{"android":"levelo://app?vid=052040e2-4fd3-480f-8914-37bf4b2b0d0b","ios":"levelo://app?vid=052040e2-4fd3-480f-8914-37bf4b2b0d0b"},"vehicle_type_id":"4","last_reported":1750253194,"current_range_meters":7200,"station_id":"ce4bhb12rcd13ifvqel0","pricing_plan_id":"cebpf4jnsgd1na2vs0mg"},{"bike_id":"4611b6b4-e0b2-4c45-a066-3b83391bf65c","system_id":"levelo_inurba_marseille","lat":43.32111,"lon":5.36774,"is_reserved":false,"is_disabled":false,"rental_uris":{"android":"levelo://app?vid=4611b6b4-e0b2-4c45-a066-3b83391bf65c","ios":"levelo://app?vid=4611b6b4-e0b2-4c45-a066-3b83391bf65c"},"vehicle_type_id":"4","last_reported":1750253194,"current_range_meters":7200,"station_id":"ce4bhrh2rcd13ifvqhug","pricing_plan_id":"cebpf4jnsgd1na2vs0mg"},{"bike_id":"13603010-4ba6-45d8-8742-faf7a41367fa","system_id":"levelo_inurba_marseille","lat":43.29195,"lon":5.3828,"is_reserved":false,"is_disabled":false,"rental_uris":{"android":"levelo://app?vid=13603010-4ba6-45d8-8742-faf7a41367fa","ios":"levelo://app?vid=13603010-4ba6-45d8-8742-faf7a41367fa"},"vehicle_type_id":"4","last_reported":1750253194,"current_range_meters":8000,"station_id":"","pricing_plan_id":"cebpf4jnsgd1na2vs0mg"},{"bike_id":"fb7f0fca-328c-4590-8315-5fcf92aa068d","system_id":"levelo_inurba_marseille","lat":43.30552,"lon":5.3655,"is_reserved":false,"is_disabled":false,"rental_uris":{"android":"levelo://app?vid=fb7f0fca-328c-4590-8315-5fcf92aa068d","ios":"levelo://app?vid=fb7f0fca-328c-4590-8315-5fcf92aa068d"},"vehicle_type_id":"4","last_reported":1750253194,"current_range_meters":8000,"station_id":"","pricing_plan_id":"cebpf4jnsgd1na2vs0mg"},{"bike_id":"6354a978-7e30-4f1c-842d-6fc4eed45587","system_id":"levelo_inurba_marseille","lat":43.29319,"lon":5.37181,"is_reserved":false,"is_disabled":false,"rental_uris":{"android":"levelo://app?vid=6354a978-7e30-4f1c-842d-6fc4eed45587","ios":"levelo://app?vid=6354a978-7e30-4f1c-842d-6fc4eed45587"},"vehicle_type_id":"4","last_reported":1750253194,"current_range_meters":8000,"station_id":"ce4bgh92rcd13ifvqb40","pricing_plan_id":"cebpf4jnsgd1na2vs0mg"},{"bike_id":"820df921-69fc-426c-b325-82acf4918bb0","system_id":"levelo_inurba_marseille","lat":43.30604,"lon":5.372023,"is_reserved":false,"is_disabled":false,"rental_uris":{"android":"levelo://app?vid=820df921-69fc-426c-b325-82acf4918bb0","ios":"levelo://app?vid=820df921-69fc-426c-b325-82acf4918bb0"},"vehicle_type_id":"4","last_reported":1750253194,"current_range_meters":8000,"station_id":"ce4bgqh2rcd13ifvqc4g","pricing_plan_id":"cebpf4jnsgd1na2vs0mg"},{"bike_id":"8a1ff60a-66e1-4a35-a779-89cb83ce3b6c","system_id":"levelo_inurba_marseille","lat":43.29193,"lon":5.35805,"is_reserved":false,"is_disabled":false,"rental_uris":{"android":"levelo://app?vid=8a1ff60a-66e1-4a35-a779-89cb83ce3b6c","ios":"levelo://app?vid=8a1ff60a-66e1-4a35-a779-89cb83ce3b6c"},"vehicle_type_id":"4","last_reported":1750253194,"current_range_meters":8000,"station_id":"ce4bhb12rcd13ifvqel0","pricing_plan_id":"cebpf4jnsgd1na2vs0mg"},{"bike_id":"155ad7b8-dc29-4ca8-bdc8-582add5147a8","system_id":"levelo_inurba_marseille","lat":43.28271,"lon":5.35059,"is_reserved":false,"is_disabled":false,"rental_uris":{"android":"levelo://app?vid=155ad7b8-dc29-4ca8-bdc8-582add5147a8","ios":"levelo://app?vid=155ad7b8-dc29-4ca8-bdc8-582add5147a8"},"vehicle_type_id":"4","last_reported":1750253194,"current_range_meters":8000,"station_id":"ce4bhbp2rcd13ifvqerg","pricing_plan_id":"cebpf4jnsgd1na2vs0mg"},{"bike_id":"6f3a0055-18ce-456d-886f-5dd53c809fc5","system_id":"levelo_inurba_marseille","lat":43.26771,"lon":5.4253,"is_reserved":false,"is_disabled":false,"rental_uris":{"android":"levelo://app?vid=6f3a0055-18ce-456d-886f-5dd53c809fc5","ios":"levelo://app?vid=6f3a0055-18ce-456d-886f-5dd53c809fc5"},"vehicle_type_id":"4","last_reported":1750253194,"current_range_meters":8400,"station_id":"","pricing_plan_id":"cebpf4jnsgd1na2vs0mg"},{"bike_id":"0c2732ce-a727-46b0-af5a-af7ba2098b27","system_id":"levelo_inurba_marseille","lat":43.319885,"lon":5.381659,"is_reserved":false,"is_disabled":false,"rental_uris":{"android":"levelo://app?vid=0c2732ce-a727-46b0-af5a-af7ba2098b27","ios":"levelo://app?vid=0c2732ce-a727-46b0-af5a-af7ba2098b27"},"vehicle_type_id":"4","last_reported":1750253194,"current_range_meters":8400,"station_id":"","pricing_plan_id":"cebpf4jnsgd1na2vs0mg"},{"bike_id":"94bcc58f-7023-41cb-871b-3595da7eac8b","system_id":"levelo_inurba_marseille","lat":43.33146,"lon":5.38144,"is_reserved":false,"is_disabled":false,"rental_uris":{"android":"levelo://app?vid=94bcc58f-7023-41cb-871b-3595da7eac8b","ios":"levelo://app?vid=94bcc58f-7023-41cb-871b-3595da7eac8b"},"vehicle_type_id":"4","last_reported":1750253194,"current_range_meters":8400,"station_id":"","pricing_plan_id":"cebpf4jnsgd1na2vs0mg"},{"bike_id":"563084a6-397a-428a-84cb-643c6752043a","system_id":"levelo_inurba_marseille","lat":43.29072,"lon":5.37182,"is_reserved":false,"is_disabled":false,"rental_uris":{"android":"levelo://app?vid=563084a6-397a-428a-84cb-643c6752043a","ios":"levelo://app?vid=563084a6-397a-428a-84cb-643c6752043a"},"vehicle_type_id":"4","last_reported":1750253194,"current_range_meters":8400,"station_id":"ce4bh5p2rcd13ifvqe4g","pricing_plan_id":"cebpf4jnsgd1na2vs0mg"},{"bike_id":"82d4fcb2-473d-4a05-8900-ed4315d43735","system_id":"levelo_inurba_marseille","lat":43.26203,"lon":5.3793,"is_reserved":false,"is_disabled":false,"rental_uris":{"android":"levelo://app?vid=82d4fcb2-473d-4a05-8900-ed4315d43735","ios":"levelo://app?vid=82d4fcb2-473d-4a05-8900-ed4315d43735"},"vehicle_type_id":"4","last_reported":1750253194,"current_range_meters":8400,"station_id":"ce4bhjp2rcd13ifvqg90","pricing_plan_id":"cebpf4jnsgd1na2vs0mg"},{"bike_id":"2c553150-8246-4d1f-9e82-d54a2afe42c4","system_id":"levelo_inurba_marseille","lat":43.33023,"lon":5.39037,"is_reserved":false,"is_disabled":false,"rental_uris":{"android":"levelo://app?vid=2c553150-8246-4d1f-9e82-d54a2afe42c4","ios":"levelo://app?vid=2c553150-8246-4d1f-9e82-d54a2afe42c4"},"vehicle_type_id":"4","last_reported":1750253194,"current_range_meters":8400,"station_id":"ce4bhr92rcd13ifvqhrg","pricing_plan_id":"cebpf4jnsgd1na2vs0mg"},{"bike_id":"d31dee22-c0d2-4965-a7a3-04f95bc8c47c","system_id":"levelo_inurba_marseille","lat":43.27898,"lon":5.41229,"is_reserved":false,"is_disabled":false,"rental_uris":{"android":"levelo://app?vid=d31dee22-c0d2-4965-a7a3-04f95bc8c47c","ios":"levelo://app?vid=d31dee22-c0d2-4965-a7a3-04f95bc8c47c"},"vehicle_type_id":"4","last_reported":1750253194,"current_range_meters":8800,"station_id":"","pricing_plan_id":"cebpf4jnsgd1na2vs0mg"},{"bike_id":"b5002037-f4b0-4634-8bc4-796d0c74810e","system_id":"levelo_inurba_marseille","lat":43.2435,"lon":5.4115,"is_reserved":false,"is_disabled":false,"rental_uris":{"android":"levelo://app?vid=b5002037-f4b0-4634-8bc4-796d0c74810e","ios":"levelo://app?vid=b5002037-f4b0-4634-8bc4-796d0c74810e"},"vehicle_type_id":"4","last_reported":1750253194,"current_range_meters":8800,"station_id":"","pricing_plan_id":"cebpf4jnsgd1na2vs0mg"},{"bike_id":"a7333462-bad0-4d72-9455-5c675b01d237","system_id":"levelo_inurba_marseille","lat":43.305509,"lon":5.365489,"is_reserved":false,"is_disabled":false,"rental_uris":{"android":"levelo://app?vid=a7333462-bad0-4d72-9455-5c675b01d237","ios":"levelo://app?vid=a7333462-bad0-4d72-9455-5c675b01d237"},"vehicle_type_id":"4","last_reported":1750253194,"current_range_meters":8800,"station_id":"ce4bgs12rcd13ifvqcag","pricing_plan_id":"cebpf4jnsgd1na2vs0mg"},{"bike_id":"920abe9b-32f3-498f-9215-00f0e0d8097a","system_id":"levelo_inurba_marseille","lat":43.290392,"lon":5.359215,"is_reserved":false,"is_disabled":false,"rental_uris":{"android":"levelo://app?vid=920abe9b-32f3-498f-9215-00f0e0d8097a","ios":"levelo://app?vid=920abe9b-32f3-498f-9215-00f0e0d8097a"},"vehicle_type_id":"4","last_reported":1750253194,"current_range_meters":8800,"station_id":"ce4bha92rcd13ifvqeg0","pricing_plan_id":"cebpf4jnsgd1na2vs0mg"},{"bike_id":"3561babf-0bf4-4ae4-b838-e54edaaa378b","system_id":"levelo_inurba_marseille","lat":43.30564,"lon":5.3814,"is_reserved":false,"is_disabled":false,"rental_uris":{"android":"levelo://app?vid=3561babf-0bf4-4ae4-b838-e54edaaa378b","ios":"levelo://app?vid=3561babf-0bf4-4ae4-b838-e54edaaa378b"},"vehicle_type_id":"4","last_reported":1750253194,"current_range_meters":9200,"station_id":"","pricing_plan_id":"cebpf4jnsgd1na2vs0mg"},{"bike_id":"9c44d03b-f25e-4605-8267-affefe84a4eb","system_id":"levelo_inurba_marseille","lat":43.30323,"lon":5.40436,"is_reserved":false,"is_disabled":false,"rental_uris":{"android":"levelo://app?vid=9c44d03b-f25e-4605-8267-affefe84a4eb","ios":"levelo://app?vid=9c44d03b-f25e-4605-8267-affefe84a4eb"},"vehicle_type_id":"4","last_reported":1750253194,"current_range_meters":9200,"station_id":"ce4bh012rcd13ifvqd10","pricing_plan_id":"cebpf4jnsgd1na2vs0mg"},{"bike_id":"1f5198db-286b-4410-8de9-e33aeb040672","system_id":"levelo_inurba_marseille","lat":43.28421,"lon":5.34995,"is_reserved":false,"is_disabled":false,"rental_uris":{"android":"levelo://app?vid=1f5198db-286b-4410-8de9-e33aeb040672","ios":"levelo://app?vid=1f5198db-286b-4410-8de9-e33aeb040672"},"vehicle_type_id":"4","last_reported":1750253194,"current_range_meters":9200,"station_id":"ce4bhbh2rcd13ifvqepg","pricing_plan_id":"cebpf4jnsgd1na2vs0mg"},{"bike_id":"83cfee7d-980d-496a-98c8-745c7e44c68d","system_id":"levelo_inurba_marseille","lat":43.32885,"lon":5.39049,"is_reserved":false,"is_disabled":false,"rental_uris":{"android":"levelo://app?vid=83cfee7d-980d-496a-98c8-745c7e44c68d","ios":"levelo://app?vid=83cfee7d-980d-496a-98c8-745c7e44c68d"},"vehicle_type_id":"4","last_reported":1750253194,"current_range_meters":9600,"station_id":"","pricing_plan_id":"cebpf4jnsgd1na2vs0mg"},{"bike_id":"f2d727ae-db19-4194-8fda-8d9e6ce370ed","system_id":"levelo_inurba_marseille","lat":43.30539,"lon":5.36526,"is_reserved":false,"is_disabled":false,"rental_uris":{"android":"levelo://app?vid=f2d727ae-db19-4194-8fda-8d9e6ce370ed","ios":"levelo://app?vid=f2d727ae-db19-4194-8fda-8d9e6ce370ed"},"vehicle_type_id":"4","last_reported":1750253194,"current_range_meters":9600,"station_id":"ce4bgs12rcd13ifvqcag","pricing_plan_id":"cebpf4jnsgd1na2vs0mg"},{"bike_id":"300ca1f9-c608-4982-82af-3f268e1aada5","system_id":"levelo_inurba_marseille","lat":43.30554,"lon":5.36529,"is_reserved":false,"is_disabled":false,"rental_uris":{"android":"levelo://app?vid=300ca1f9-c608-4982-82af-3f268e1aada5","ios":"levelo://app?vid=300ca1f9-c608-4982-82af-3f268e1aada5"},"vehicle_type_id":"4","last_reported":1750253194,"current_range_meters":9600,"station_id":"ce4bgs12rcd13ifvqcag","pricing_plan_id":"cebpf4jnsgd1na2vs0mg"},{"bike_id":"0735ef8f-c526-4b7c-842a-40f2241dffb7","system_id":"levelo_inurba_marseille","lat":43.30133,"lon":5.37419,"is_reserved":false,"is_disabled":false,"rental_uris":{"android":"levelo://app?vid=0735ef8f-c526-4b7c-842a-40f2241dffb7","ios":"levelo://app?vid=0735ef8f-c526-4b7c-842a-40f2241dffb7"},"vehicle_type_id":"4","last_reported":1750253194,"current_range_meters":9600,"station_id":"ce4bgs92rcd13ifvqcc0","pricing_plan_id":"cebpf4jnsgd1na2vs0mg"},{"bike_id":"d203ca48-5e13-4581-ba88-43195b3b80ca","system_id":"levelo_inurba_marseille","lat":43.28655,"lon":5.3634,"is_reserved":false,"is_disabled":false,"rental_uris":{"android":"levelo://app?vid=d203ca48-5e13-4581-ba88-43195b3b80ca","ios":"levelo://app?vid=d203ca48-5e13-4581-ba88-43195b3b80ca"},"vehicle_type_id":"4","last_reported":1750253194,"current_range_meters":9600,"station_id":"ce4bhah2rcd13ifvqej0","pricing_plan_id":"cebpf4jnsgd1na2vs0mg"},{"bike_id":"dc3ea99d-b92b-4bf4-b67f-110a25cea922","system_id":"levelo_inurba_marseille","lat":43.28942,"lon":5.36645,"is_reserved":false,"is_disabled":false,"rental_uris":{"android":"levelo://app?vid=dc3ea99d-b92b-4bf4-b67f-110a25cea922","ios":"levelo://app?vid=dc3ea99d-b92b-4bf4-b67f-110a25cea922"},"vehicle_type_id":"4","last_reported":1750253194,"current_range_meters":9600,"station_id":"ce4bhap2rcd13ifvqek0","pricing_plan_id":"cebpf4jnsgd1na2vs0mg"},{"bike_id":"d8ba3a4b-8d66-4c3b-840f-827bdf5cc288","system_id":"levelo_inurba_marseille","lat":43.29183,"lon":5.35812,"is_reserved":false,"is_disabled":false,"rental_uris":{"android":"levelo://app?vid=d8ba3a4b-8d66-4c3b-840f-827bdf5cc288","ios":"levelo://app?vid=d8ba3a4b-8d66-4c3b-840f-827bdf5cc288"},"vehicle_type_id":"4","last_reported":1750253194,"current_range_meters":9600,"station_id":"ce4bhb12rcd13ifvqel0","pricing_plan_id":"cebpf4jnsgd1na2vs0mg"},{"bike_id":"05567fca-a8cb-4d04-8a2a-2a6147d17f64","system_id":"levelo_inurba_marseille","lat":43.28617,"lon":5.35105,"is_reserved":false,"is_disabled":false,"rental_uris":{"android":"levelo://app?vid=05567fca-a8cb-4d04-8a2a-2a6147d17f64","ios":"levelo://app?vid=05567fca-a8cb-4d04-8a2a-2a6147d17f64"},"vehicle_type_id":"4","last_reported":1750253194,"current_range_meters":9600,"station_id":"ce4bhch2rcd13ifvqeug","pricing_plan_id":"cebpf4jnsgd1na2vs0mg"},{"bike_id":"1afa29c8-dae0-4076-b7dd-2c28d4257699","system_id":"levelo_inurba_marseille","lat":43.28612,"lon":5.35096,"is_reserved":false,"is_disabled":false,"rental_uris":{"android":"levelo://app?vid=1afa29c8-dae0-4076-b7dd-2c28d4257699","ios":"levelo://app?vid=1afa29c8-dae0-4076-b7dd-2c28d4257699"},"vehicle_type_id":"4","last_reported":1750253194,"current_range_meters":9600,"station_id":"ce4bhch2rcd13ifvqeug","pricing_plan_id":"cebpf4jnsgd1na2vs0mg"},{"bike_id":"79226f06-c54d-42a8-a21c-7b775be83700","system_id":"levelo_inurba_marseille","lat":43.25498,"lon":5.37637,"is_reserved":false,"is_disabled":false,"rental_uris":{"android":"levelo://app?vid=79226f06-c54d-42a8-a21c-7b775be83700","ios":"levelo://app?vid=79226f06-c54d-42a8-a21c-7b775be83700"},"vehicle_type_id":"4","last_reported":1750253194,"current_range_meters":9600,"station_id":"ce4bhh12rcd13ifvqff0","pricing_plan_id":"cebpf4jnsgd1na2vs0mg"},{"bike_id":"04a4d042-848d-4c10-aa67-8fd1bc782796","system_id":"levelo_inurba_marseille","lat":43.29281,"lon":5.37981,"is_reserved":false,"is_disabled":false,"rental_uris":{"android":"levelo://app?vid=04a4d042-848d-4c10-aa67-8fd1bc782796","ios":"levelo://app?vid=04a4d042-848d-4c10-aa67-8fd1bc782796"},"vehicle_type_id":"4","last_reported":1750253194,"current_range_meters":10000,"station_id":"","pricing_plan_id":"cebpf4jnsgd1na2vs0mg"},{"bike_id":"75fd588d-acfb-46e9-8dd8-1fb428c7a2d5","system_id":"levelo_inurba_marseille","lat":43.30538,"lon":5.36563,"is_reserved":false,"is_disabled":false,"rental_uris":{"android":"levelo://app?vid=75fd588d-acfb-46e9-8dd8-1fb428c7a2d5","ios":"levelo://app?vid=75fd588d-acfb-46e9-8dd8-1fb428c7a2d5"},"vehicle_type_id":"4","last_reported":1750253194,"current_range_meters":10000,"station_id":"","pricing_plan_id":"cebpf4jnsgd1na2vs0mg"},{"bike_id":"d30f880b-8118-45d2-aac3-136366f21bb5","system_id":"levelo_inurba_marseille","lat":43.2986,"lon":5.36279,"is_reserved":false,"is_disabled":false,"rental_uris":{"android":"levelo://app?vid=d30f880b-8118-45d2-aac3-136366f21bb5","ios":"levelo://app?vid=d30f880b-8118-45d2-aac3-136366f21bb5"},"vehicle_type_id":"4","last_reported":1750253194,"current_range_meters":10000,"station_id":"ce4bgpp2rcd13ifvqc3g","pricing_plan_id":"cebpf4jnsgd1na2vs0mg"},{"bike_id":"5e4e8448-c1ec-4871-9f68-97a64eae6307","system_id":"levelo_inurba_marseille","lat":43.28606,"lon":5.35091,"is_reserved":false,"is_disabled":false,"rental_uris":{"android":"levelo://app?vid=5e4e8448-c1ec-4871-9f68-97a64eae6307","ios":"levelo://app?vid=5e4e8448-c1ec-4871-9f68-97a64eae6307"},"vehicle_type_id":"4","last_reported":1750253194,"current_range_meters":10000,"station_id":"ce4bhch2rcd13ifvqeug","pricing_plan_id":"cebpf4jnsgd1na2vs0mg"},{"bike_id":"27794c75-2458-43f4-815f-46fd154086dd","system_id":"levelo_inurba_marseille","lat":43.26564,"lon":5.38999,"is_reserved":false,"is_disabled":false,"rental_uris":{"android":"levelo://app?vid=27794c75-2458-43f4-815f-46fd154086dd","ios":"levelo://app?vid=27794c75-2458-43f4-815f-46fd154086dd"},"vehicle_type_id":"4","last_reported":1750253194,"current_range_meters":10000,"station_id":"ce4bhe12rcd13ifvqf30","pricing_plan_id":"cebpf4jnsgd1na2vs0mg"},{"bike_id":"998d0538-52e0-477f-8e72-1b383baadd73","system_id":"levelo_inurba_marseille","lat":43.231468,"lon":5.437103,"is_reserved":false,"is_disabled":false,"rental_uris":{"android":"levelo://app?vid=998d0538-52e0-477f-8e72-1b383baadd73","ios":"levelo://app?vid=998d0538-52e0-477f-8e72-1b383baadd73"},"vehicle_type_id":"4","last_reported":1750253194,"current_range_meters":10000,"station_id":"ce4bhmp2rcd13ifvqgog","pricing_plan_id":"cebpf4jnsgd1na2vs0mg"},{"bike_id":"2c49226e-44b8-43a4-90f9-304e2e968ebb","system_id":"levelo_inurba_marseille","lat":43.24202,"lon":5.39745,"is_reserved":false,"is_disabled":false,"rental_uris":{"android":"levelo://app?vid=2c49226e-44b8-43a4-90f9-304e2e968ebb","ios":"levelo://app?vid=2c49226e-44b8-43a4-90f9-304e2e968ebb"},"vehicle_type_id":"4","last_reported":1750253194,"current_range_meters":10000,"station_id":"ce4bhn12rcd13ifvqgpg","pricing_plan_id":"cebpf4jnsgd1na2vs0mg"},{"bike_id":"63a0f3df-b773-4812-bf78-f5e48ebdb427","system_id":"levelo_inurba_marseille","lat":43.31528,"lon":5.38042,"is_reserved":false,"is_disabled":false,"rental_uris":{"android":"levelo://app?vid=63a0f3df-b773-4812-bf78-f5e48ebdb427","ios":"levelo://app?vid=63a0f3df-b773-4812-bf78-f5e48ebdb427"},"vehicle_type_id":"4","last_reported":1750253194,"current_range_meters":10000,"station_id":"ce4bhsp2rcd13ifvqi50","pricing_plan_id":"cebpf4jnsgd1na2vs0mg"},{"bike_id":"a86e038e-af92-4cea-a5ef-27ed12ce4474","system_id":"levelo_inurba_marseille","lat":43.295706,"lon":5.37532,"is_reserved":false,"is_disabled":false,"rental_uris":{"android":"levelo://app?vid=a86e038e-af92-4cea-a5ef-27ed12ce4474","ios":"levelo://app?vid=a86e038e-af92-4cea-a5ef-27ed12ce4474"},"vehicle_type_id":"4","last_reported":1750253194,"current_range_meters":10800,"station_id":"ce4bgh92rcd13ifvqb50","pricing_plan_id":"cebpf4jnsgd1na2vs0mg"},{"bike_id":"bfad0c77-1588-4a56-bbef-cf6a4407572e","system_id":"levelo_inurba_marseille","lat":43.28032,"lon":5.3696,"is_reserved":false,"is_disabled":false,"rental_uris":{"android":"levelo://app?vid=bfad0c77-1588-4a56-bbef-cf6a4407572e","ios":"levelo://app?vid=bfad0c77-1588-4a56-bbef-cf6a4407572e"},"vehicle_type_id":"4","last_reported":1750253194,"current_range_meters":10800,"station_id":"ce4bha12rcd13ifvqef0","pricing_plan_id":"cebpf4jnsgd1na2vs0mg"},{"bike_id":"985082bb-596d-4e9d-b2bd-044cce100ceb","system_id":"levelo_inurba_marseille","lat":43.27377,"lon":5.36255,"is_reserved":false,"is_disabled":false,"rental_uris":{"android":"levelo://app?vid=985082bb-596d-4e9d-b2bd-044cce100ceb","ios":"levelo://app?vid=985082bb-596d-4e9d-b2bd-044cce100ceb"},"vehicle_type_id":"4","last_reported":1750253194,"current_range_meters":10800,"station_id":"ce4bhbh2rcd13ifvqeo0","pricing_plan_id":"cebpf4jnsgd1na2vs0mg"},{"bike_id":"8bdb2c6a-591a-4960-b5ed-805bab55ca73","system_id":"levelo_inurba_marseille","lat":43.28275,"lon":5.35073,"is_reserved":false,"is_disabled":false,"rental_uris":{"android":"levelo://app?vid=8bdb2c6a-591a-4960-b5ed-805bab55ca73","ios":"levelo://app?vid=8bdb2c6a-591a-4960-b5ed-805bab55ca73"},"vehicle_type_id":"4","last_reported":1750253194,"current_range_meters":10800,"station_id":"ce4bhbp2rcd13ifvqerg","pricing_plan_id":"cebpf4jnsgd1na2vs0mg"},{"bike_id":"e7f8ed22-f01c-4930-8325-9521a3621fd0","system_id":"levelo_inurba_marseille","lat":43.2928,"lon":5.36842,"is_reserved":false,"is_disabled":false,"rental_uris":{"android":"levelo://app?vid=e7f8ed22-f01c-4930-8325-9521a3621fd0","ios":"levelo://app?vid=e7f8ed22-f01c-4930-8325-9521a3621fd0"},"vehicle_type_id":"4","last_reported":1750253194,"current_range_meters":10800,"station_id":"ce4bhbp2rcd13ifvqesg","pricing_plan_id":"cebpf4jnsgd1na2vs0mg"},{"bike_id":"960c85a1-5973-4697-9a13-ccb47f1e6891","system_id":"levelo_inurba_marseille","lat":43.229285,"lon":5.353753,"is_reserved":false,"is_disabled":false,"rental_uris":{"android":"levelo://app?vid=960c85a1-5973-4697-9a13-ccb47f1e6891","ios":"levelo://app?vid=960c85a1-5973-4697-9a13-ccb47f1e6891"},"vehicle_type_id":"4","last_reported":1750253194,"current_range_meters":10800,"station_id":"cpo3532slgdg3j2ikp40","pricing_plan_id":"cebpf4jnsgd1na2vs0mg"},{"bike_id":"86823ee4-c776-4bd8-a875-f4bb44d9ebcd","system_id":"levelo_inurba_marseille","lat":43.2936,"lon":5.37833,"is_reserved":false,"is_disabled":false,"rental_uris":{"android":"levelo://app?vid=86823ee4-c776-4bd8-a875-f4bb44d9ebcd","ios":"levelo://app?vid=86823ee4-c776-4bd8-a875-f4bb44d9ebcd"},"vehicle_type_id":"4","last_reported":1750253194,"current_range_meters":11200,"station_id":"ce4bgjh2rcd13ifvqbf0","pricing_plan_id":"cebpf4jnsgd1na2vs0mg"},{"bike_id":"de0f7c2b-5974-4035-a240-8ed367c0e3f3","system_id":"levelo_inurba_marseille","lat":43.3196,"lon":5.3761,"is_reserved":false,"is_disabled":false,"rental_uris":{"android":"levelo://app?vid=de0f7c2b-5974-4035-a240-8ed367c0e3f3","ios":"levelo://app?vid=de0f7c2b-5974-4035-a240-8ed367c0e3f3"},"vehicle_type_id":"4","last_reported":1750253194,"current_range_meters":11600,"station_id":"","pricing_plan_id":"cebpf4jnsgd1na2vs0mg"},{"bike_id":"23473c5a-ff05-41d4-a194-b16ef02094df","system_id":"levelo_inurba_marseille","lat":43.30552,"lon":5.36545,"is_reserved":false,"is_disabled":false,"rental_uris":{"android":"levelo://app?vid=23473c5a-ff05-41d4-a194-b16ef02094df","ios":"levelo://app?vid=23473c5a-ff05-41d4-a194-b16ef02094df"},"vehicle_type_id":"4","last_reported":1750253194,"current_range_meters":11600,"station_id":"ce4bgs12rcd13ifvqcag","pricing_plan_id":"cebpf4jnsgd1na2vs0mg"},{"bike_id":"df4e2464-49cf-4137-a654-97f7634a7442","system_id":"levelo_inurba_marseille","lat":43.24394,"lon":5.37052,"is_reserved":false,"is_disabled":false,"rental_uris":{"android":"levelo://app?vid=df4e2464-49cf-4137-a654-97f7634a7442","ios":"levelo://app?vid=df4e2464-49cf-4137-a654-97f7634a7442"},"vehicle_type_id":"4","last_reported":1750253194,"current_range_meters":11600,"station_id":"ce4bhhh2rcd13ifvqfk0","pricing_plan_id":"cebpf4jnsgd1na2vs0mg"},{"bike_id":"ef60deb6-8b85-4774-9888-87fa5e82e3cd","system_id":"levelo_inurba_marseille","lat":43.27993,"lon":5.40005,"is_reserved":false,"is_disabled":false,"rental_uris":{"android":"levelo://app?vid=ef60deb6-8b85-4774-9888-87fa5e82e3cd","ios":"levelo://app?vid=ef60deb6-8b85-4774-9888-87fa5e82e3cd"},"vehicle_type_id":"4","last_reported":1750253194,"current_range_meters":11600,"station_id":"ce4bho92rcd13ifvqh4g","pricing_plan_id":"cebpf4jnsgd1na2vs0mg"},{"bike_id":"f7fa858e-b7ee-404f-8191-6184cc003e2b","system_id":"levelo_inurba_marseille","lat":43.23189,"lon":5.35551,"is_reserved":false,"is_disabled":false,"rental_uris":{"android":"levelo://app?vid=f7fa858e-b7ee-404f-8191-6184cc003e2b","ios":"levelo://app?vid=f7fa858e-b7ee-404f-8191-6184cc003e2b"},"vehicle_type_id":"4","last_reported":1750253194,"current_range_meters":11600,"station_id":"ce4bhu92rcd13ifvqi70","pricing_plan_id":"cebpf4jnsgd1na2vs0mg"},{"bike_id":"05e2e880-75f3-4a05-81f8-c1237d819b48","system_id":"levelo_inurba_marseille","lat":43.231935,"lon":5.35557,"is_reserved":false,"is_disabled":false,"rental_uris":{"android":"levelo://app?vid=05e2e880-75f3-4a05-81f8-c1237d819b48","ios":"levelo://app?vid=05e2e880-75f3-4a05-81f8-c1237d819b48"},"vehicle_type_id":"4","last_reported":1750253194,"current_range_meters":11600,"station_id":"ce4bhu92rcd13ifvqi70","pricing_plan_id":"cebpf4jnsgd1na2vs0mg"},{"bike_id":"e0a889cf-2327-4278-9b67-453fc8c6ae2a","system_id":"levelo_inurba_marseille","lat":43.30248,"lon":5.37455,"is_reserved":false,"is_disabled":false,"rental_uris":{"android":"levelo://app?vid=e0a889cf-2327-4278-9b67-453fc8c6ae2a","ios":"levelo://app?vid=e0a889cf-2327-4278-9b67-453fc8c6ae2a"},"vehicle_type_id":"4","last_reported":1750253194,"current_range_meters":12000,"station_id":"","pricing_plan_id":"cebpf4jnsgd1na2vs0mg"},{"bike_id":"3518210a-6d90-482f-a11b-11cb7c94acd1","system_id":"levelo_inurba_marseille","lat":43.2645,"lon":5.39198,"is_reserved":false,"is_disabled":false,"rental_uris":{"android":"levelo://app?vid=3518210a-6d90-482f-a11b-11cb7c94acd1","ios":"levelo://app?vid=3518210a-6d90-482f-a11b-11cb7c94acd1"},"vehicle_type_id":"4","last_reported":1750253194,"current_range_meters":12000,"station_id":"","pricing_plan_id":"cebpf4jnsgd1na2vs0mg"},{"bike_id":"58f51d20-3b57-4f1e-a2bb-f6a34617c9a7","system_id":"levelo_inurba_marseille","lat":43.29062,"lon":5.35907,"is_reserved":false,"is_disabled":false,"rental_uris":{"android":"levelo://app?vid=58f51d20-3b57-4f1e-a2bb-f6a34617c9a7","ios":"levelo://app?vid=58f51d20-3b57-4f1e-a2bb-f6a34617c9a7"},"vehicle_type_id":"4","last_reported":1750253194,"current_range_meters":12000,"station_id":"ce4bha92rcd13ifvqeg0","pricing_plan_id":"cebpf4jnsgd1na2vs0mg"},{"bike_id":"21c5a6e1-ee31-4c46-800b-dc6f7391485e","system_id":"levelo_inurba_marseille","lat":43.26494,"lon":5.395536,"is_reserved":false,"is_disabled":false,"rental_uris":{"android":"levelo://app?vid=21c5a6e1-ee31-4c46-800b-dc6f7391485e","ios":"levelo://app?vid=21c5a6e1-ee31-4c46-800b-dc6f7391485e"},"vehicle_type_id":"4","last_reported":1750253194,"current_range_meters":12000,"station_id":"ce4bhi12rcd13ifvqfq0","pricing_plan_id":"cebpf4jnsgd1na2vs0mg"},{"bike_id":"5fca8285-46cd-4a61-afa7-083de6991d10","system_id":"levelo_inurba_marseille","lat":43.23143,"lon":5.43732,"is_reserved":false,"is_disabled":false,"rental_uris":{"android":"levelo://app?vid=5fca8285-46cd-4a61-afa7-083de6991d10","ios":"levelo://app?vid=5fca8285-46cd-4a61-afa7-083de6991d10"},"vehicle_type_id":"4","last_reported":1750253194,"current_range_meters":12000,"station_id":"ce4bhmp2rcd13ifvqgog","pricing_plan_id":"cebpf4jnsgd1na2vs0mg"},{"bike_id":"00e65d9c-581e-4fd7-8ef9-1693e34aa5a4","system_id":"levelo_inurba_marseille","lat":43.310211,"lon":5.390492,"is_reserved":false,"is_disabled":false,"rental_uris":{"android":"levelo://app?vid=00e65d9c-581e-4fd7-8ef9-1693e34aa5a4","ios":"levelo://app?vid=00e65d9c-581e-4fd7-8ef9-1693e34aa5a4"},"vehicle_type_id":"4","last_reported":1750253194,"current_range_meters":12400,"station_id":"ce4bgvh2rcd13ifvqcs0","pricing_plan_id":"cebpf4jnsgd1na2vs0mg"},{"bike_id":"123da0d5-857d-4adc-a1b8-a34fc5b1dfea","system_id":"levelo_inurba_marseille","lat":43.27923,"lon":5.39578,"is_reserved":false,"is_disabled":false,"rental_uris":{"android":"levelo://app?vid=123da0d5-857d-4adc-a1b8-a34fc5b1dfea","ios":"levelo://app?vid=123da0d5-857d-4adc-a1b8-a34fc5b1dfea"},"vehicle_type_id":"4","last_reported":1750253194,"current_range_meters":12400,"station_id":"ce4bhf92rcd13ifvqf40","pricing_plan_id":"cebpf4jnsgd1na2vs0mg"},{"bike_id":"510685b6-f89b-44e4-90e5-f912322aeba1","system_id":"levelo_inurba_marseille","lat":43.30887,"lon":5.37184,"is_reserved":false,"is_disabled":false,"rental_uris":{"android":"levelo://app?vid=510685b6-f89b-44e4-90e5-f912322aeba1","ios":"levelo://app?vid=510685b6-f89b-44e4-90e5-f912322aeba1"},"vehicle_type_id":"4","last_reported":1750253194,"current_range_meters":12800,"station_id":"ce4bguh2rcd13ifvqckg","pricing_plan_id":"cebpf4jnsgd1na2vs0mg"},{"bike_id":"f96fac91-fcd6-4cf6-94db-3fb959156263","system_id":"levelo_inurba_marseille","lat":43.282825,"lon":5.350645,"is_reserved":false,"is_disabled":false,"rental_uris":{"android":"levelo://app?vid=f96fac91-fcd6-4cf6-94db-3fb959156263","ios":"levelo://app?vid=f96fac91-fcd6-4cf6-94db-3fb959156263"},"vehicle_type_id":"4","last_reported":1750253194,"current_range_meters":12800,"station_id":"ce4bhbp2rcd13ifvqerg","pricing_plan_id":"cebpf4jnsgd1na2vs0mg"},{"bike_id":"d1cf4809-6529-41e3-8cbc-570ff5bdad5f","system_id":"levelo_inurba_marseille","lat":43.321072,"lon":5.36791,"is_reserved":false,"is_disabled":false,"rental_uris":{"android":"levelo://app?vid=d1cf4809-6529-41e3-8cbc-570ff5bdad5f","ios":"levelo://app?vid=d1cf4809-6529-41e3-8cbc-570ff5bdad5f"},"vehicle_type_id":"4","last_reported":1750253194,"current_range_meters":12800,"station_id":"ce4bhrh2rcd13ifvqhug","pricing_plan_id":"cebpf4jnsgd1na2vs0mg"},{"bike_id":"4b8da722-ee9e-48a4-a5e5-3a8a10364708","system_id":"levelo_inurba_marseille","lat":43.31228,"lon":5.37799,"is_reserved":false,"is_disabled":false,"rental_uris":{"android":"levelo://app?vid=4b8da722-ee9e-48a4-a5e5-3a8a10364708","ios":"levelo://app?vid=4b8da722-ee9e-48a4-a5e5-3a8a10364708"},"vehicle_type_id":"4","last_reported":1750253194,"current_range_meters":13600,"station_id":"","pricing_plan_id":"cebpf4jnsgd1na2vs0mg"},{"bike_id":"0dedb6f6-6801-483b-bfb8-9cd4533d158f","system_id":"levelo_inurba_marseille","lat":43.31148,"lon":5.38088,"is_reserved":false,"is_disabled":false,"rental_uris":{"android":"levelo://app?vid=0dedb6f6-6801-483b-bfb8-9cd4533d158f","ios":"levelo://app?vid=0dedb6f6-6801-483b-bfb8-9cd4533d158f"},"vehicle_type_id":"4","last_reported":1750253194,"current_range_meters":13600,"station_id":"","pricing_plan_id":"cebpf4jnsgd1na2vs0mg"},{"bike_id":"a4a6924c-c806-4cde-8440-26cd4df5fe79","system_id":"levelo_inurba_marseille","lat":43.297552,"lon":5.364287,"is_reserved":false,"is_disabled":false,"rental_uris":{"android":"levelo://app?vid=a4a6924c-c806-4cde-8440-26cd4df5fe79","ios":"levelo://app?vid=a4a6924c-c806-4cde-8440-26cd4df5fe79"},"vehicle_type_id":"4","last_reported":1750253194,"current_range_meters":13600,"station_id":"ce4bgpp2rcd13ifvqc3g","pricing_plan_id":"cebpf4jnsgd1na2vs0mg"},{"bike_id":"bf926316-c2d2-4b23-8f2b-109a2206ed7c","system_id":"levelo_inurba_marseille","lat":43.30123,"lon":5.37423,"is_reserved":false,"is_disabled":false,"rental_uris":{"android":"levelo://app?vid=bf926316-c2d2-4b23-8f2b-109a2206ed7c","ios":"levelo://app?vid=bf926316-c2d2-4b23-8f2b-109a2206ed7c"},"vehicle_type_id":"4","last_reported":1750253194,"current_range_meters":13600,"station_id":"ce4bgs92rcd13ifvqcc0","pricing_plan_id":"cebpf4jnsgd1na2vs0mg"},{"bike_id":"d44811ec-e9b3-4d96-9419-14e330144d4b","system_id":"levelo_inurba_marseille","lat":43.301425,"lon":5.373989,"is_reserved":false,"is_disabled":false,"rental_uris":{"android":"levelo://app?vid=d44811ec-e9b3-4d96-9419-14e330144d4b","ios":"levelo://app?vid=d44811ec-e9b3-4d96-9419-14e330144d4b"},"vehicle_type_id":"4","last_reported":1750253194,"current_range_meters":13600,"station_id":"ce4bgs92rcd13ifvqcc0","pricing_plan_id":"cebpf4jnsgd1na2vs0mg"},{"bike_id":"85c07136-3259-40cb-8893-a7d7712001d2","system_id":"levelo_inurba_marseille","lat":43.29036,"lon":5.38645,"is_reserved":false,"is_disabled":false,"rental_uris":{"android":"levelo://app?vid=85c07136-3259-40cb-8893-a7d7712001d2","ios":"levelo://app?vid=85c07136-3259-40cb-8893-a7d7712001d2"},"vehicle_type_id":"4","last_reported":1750253194,"current_range_meters":13600,"station_id":"ce4bh4p2rcd13ifvqe0g","pricing_plan_id":"cebpf4jnsgd1na2vs0mg"},{"bike_id":"ca60e93f-6166-4dc9-80ce-9c54203d59e4","system_id":"levelo_inurba_marseille","lat":43.28035,"lon":5.36967,"is_reserved":false,"is_disabled":false,"rental_uris":{"android":"levelo://app?vid=ca60e93f-6166-4dc9-80ce-9c54203d59e4","ios":"levelo://app?vid=ca60e93f-6166-4dc9-80ce-9c54203d59e4"},"vehicle_type_id":"4","last_reported":1750253194,"current_range_meters":13600,"station_id":"ce4bha12rcd13ifvqef0","pricing_plan_id":"cebpf4jnsgd1na2vs0mg"},{"bike_id":"75fa638a-1a58-42a4-b4c8-b01bf79ff2fc","system_id":"levelo_inurba_marseille","lat":43.25578,"lon":5.3823,"is_reserved":false,"is_disabled":false,"rental_uris":{"android":"levelo://app?vid=75fa638a-1a58-42a4-b4c8-b01bf79ff2fc","ios":"levelo://app?vid=75fa638a-1a58-42a4-b4c8-b01bf79ff2fc"},"vehicle_type_id":"4","last_reported":1750253194,"current_range_meters":13600,"station_id":"ce4bhih2rcd13ifvqfs0","pricing_plan_id":"cebpf4jnsgd1na2vs0mg"},{"bike_id":"f2bed293-2f9e-463a-a34d-dc7d66b72389","system_id":"levelo_inurba_marseille","lat":43.29896,"lon":5.4366,"is_reserved":false,"is_disabled":false,"rental_uris":{"android":"levelo://app?vid=f2bed293-2f9e-463a-a34d-dc7d66b72389","ios":"levelo://app?vid=f2bed293-2f9e-463a-a34d-dc7d66b72389"},"vehicle_type_id":"4","last_reported":1750253194,"current_range_meters":13600,"station_id":"ce4bhpp2rcd13ifvqhfg","pricing_plan_id":"cebpf4jnsgd1na2vs0mg"},{"bike_id":"b9740617-416c-49ef-a593-d345aa13726b","system_id":"levelo_inurba_marseille","lat":43.27009,"lon":5.43176,"is_reserved":false,"is_disabled":false,"rental_uris":{"android":"levelo://app?vid=b9740617-416c-49ef-a593-d345aa13726b","ios":"levelo://app?vid=b9740617-416c-49ef-a593-d345aa13726b"},"vehicle_type_id":"4","last_reported":1750253194,"current_range_meters":14000,"station_id":"","pricing_plan_id":"cebpf4jnsgd1na2vs0mg"},{"bike_id":"251590bc-0526-4a3c-8ef4-f4fac39200e1","system_id":"levelo_inurba_marseille","lat":43.30148,"lon":5.37416,"is_reserved":false,"is_disabled":false,"rental_uris":{"android":"levelo://app?vid=251590bc-0526-4a3c-8ef4-f4fac39200e1","ios":"levelo://app?vid=251590bc-0526-4a3c-8ef4-f4fac39200e1"},"vehicle_type_id":"4","last_reported":1750253194,"current_range_meters":14000,"station_id":"ce4bgs92rcd13ifvqcc0","pricing_plan_id":"cebpf4jnsgd1na2vs0mg"},{"bike_id":"777d236c-03b6-4042-9317-ef3ac7698753","system_id":"levelo_inurba_marseille","lat":43.31326,"lon":5.39695,"is_reserved":false,"is_disabled":false,"rental_uris":{"android":"levelo://app?vid=777d236c-03b6-4042-9317-ef3ac7698753","ios":"levelo://app?vid=777d236c-03b6-4042-9317-ef3ac7698753"},"vehicle_type_id":"4","last_reported":1750253194,"current_range_meters":14000,"station_id":"ce4bgvp2rcd13ifvqcu0","pricing_plan_id":"cebpf4jnsgd1na2vs0mg"},{"bike_id":"3509dfd7-be1b-468b-acc2-b7a8115690ca","system_id":"levelo_inurba_marseille","lat":43.30203,"lon":5.39472,"is_reserved":false,"is_disabled":false,"rental_uris":{"android":"levelo://app?vid=3509dfd7-be1b-468b-acc2-b7a8115690ca","ios":"levelo://app?vid=3509dfd7-be1b-468b-acc2-b7a8115690ca"},"vehicle_type_id":"4","last_reported":1750253194,"current_range_meters":14000,"station_id":"ce4bh0p2rcd13ifvqd70","pricing_plan_id":"cebpf4jnsgd1na2vs0mg"},{"bike_id":"1e811d78-daec-4c78-861f-af8fd0de3a46","system_id":"levelo_inurba_marseille","lat":43.24174,"lon":5.39727,"is_reserved":false,"is_disabled":false,"rental_uris":{"android":"levelo://app?vid=1e811d78-daec-4c78-861f-af8fd0de3a46","ios":"levelo://app?vid=1e811d78-daec-4c78-861f-af8fd0de3a46"},"vehicle_type_id":"4","last_reported":1750253194,"current_range_meters":14000,"station_id":"ce4bhn12rcd13ifvqgpg","pricing_plan_id":"cebpf4jnsgd1na2vs0mg"},{"bike_id":"75bdddd2-5231-4b11-90bc-5b998201fdc4","system_id":"levelo_inurba_marseille","lat":43.24173,"lon":5.36387,"is_reserved":false,"is_disabled":false,"rental_uris":{"android":"levelo://app?vid=75bdddd2-5231-4b11-90bc-5b998201fdc4","ios":"levelo://app?vid=75bdddd2-5231-4b11-90bc-5b998201fdc4"},"vehicle_type_id":"4","last_reported":1750253194,"current_range_meters":14000,"station_id":"cpo36qri1sfpv3e86is0","pricing_plan_id":"cebpf4jnsgd1na2vs0mg"},{"bike_id":"2a31244d-dbd8-464d-8b86-fe0edab2f644","system_id":"levelo_inurba_marseille","lat":43.30146,"lon":5.37417,"is_reserved":false,"is_disabled":false,"rental_uris":{"android":"levelo://app?vid=2a31244d-dbd8-464d-8b86-fe0edab2f644","ios":"levelo://app?vid=2a31244d-dbd8-464d-8b86-fe0edab2f644"},"vehicle_type_id":"4","last_reported":1750253194,"current_range_meters":14400,"station_id":"ce4bgs92rcd13ifvqcc0","pricing_plan_id":"cebpf4jnsgd1na2vs0mg"},{"bike_id":"f5f0666e-4dcb-4109-a3bb-95b2ddc76eff","system_id":"levelo_inurba_marseille","lat":43.30788,"lon":5.37656,"is_reserved":false,"is_disabled":false,"rental_uris":{"android":"levelo://app?vid=f5f0666e-4dcb-4109-a3bb-95b2ddc76eff","ios":"levelo://app?vid=f5f0666e-4dcb-4109-a3bb-95b2ddc76eff"},"vehicle_type_id":"4","last_reported":1750253194,"current_range_meters":14400,"station_id":"ce4bgv92rcd13ifvqcq0","pricing_plan_id":"cebpf4jnsgd1na2vs0mg"},{"bike_id":"9baef160-4e38-49ba-a1bd-dbb23e6da3b7","system_id":"levelo_inurba_marseille","lat":43.28573,"lon":5.39494,"is_reserved":false,"is_disabled":false,"rental_uris":{"android":"levelo://app?vid=9baef160-4e38-49ba-a1bd-dbb23e6da3b7","ios":"levelo://app?vid=9baef160-4e38-49ba-a1bd-dbb23e6da3b7"},"vehicle_type_id":"4","last_reported":1750253194,"current_range_meters":14400,"station_id":"ce4bh292rcd13ifvqdg0","pricing_plan_id":"cebpf4jnsgd1na2vs0mg"},{"bike_id":"521ac4ff-62b5-4e64-84dc-a872f1471373","system_id":"levelo_inurba_marseille","lat":43.29192,"lon":5.35809,"is_reserved":false,"is_disabled":false,"rental_uris":{"android":"levelo://app?vid=521ac4ff-62b5-4e64-84dc-a872f1471373","ios":"levelo://app?vid=521ac4ff-62b5-4e64-84dc-a872f1471373"},"vehicle_type_id":"4","last_reported":1750253194,"current_range_meters":14400,"station_id":"ce4bhb12rcd13ifvqel0","pricing_plan_id":"cebpf4jnsgd1na2vs0mg"},{"bike_id":"0c4f8e2e-823a-4951-9d73-bfb42fafec5d","system_id":"levelo_inurba_marseille","lat":43.23139,"lon":5.43703,"is_reserved":false,"is_disabled":false,"rental_uris":{"android":"levelo://app?vid=0c4f8e2e-823a-4951-9d73-bfb42fafec5d","ios":"levelo://app?vid=0c4f8e2e-823a-4951-9d73-bfb42fafec5d"},"vehicle_type_id":"4","last_reported":1750253194,"current_range_meters":14400,"station_id":"ce4bhmp2rcd13ifvqgog","pricing_plan_id":"cebpf4jnsgd1na2vs0mg"},{"bike_id":"6b09cd8d-e419-4258-9c4c-1ce241affa14","system_id":"levelo_inurba_marseille","lat":43.24072,"lon":5.37749,"is_reserved":false,"is_disabled":false,"rental_uris":{"android":"levelo://app?vid=6b09cd8d-e419-4258-9c4c-1ce241affa14","ios":"levelo://app?vid=6b09cd8d-e419-4258-9c4c-1ce241affa14"},"vehicle_type_id":"4","last_reported":1750253194,"current_range_meters":14400,"station_id":"ce4bhnp2rcd13ifvqgvg","pricing_plan_id":"cebpf4jnsgd1na2vs0mg"},{"bike_id":"693c37b3-a24b-4e79-8286-931aff3e9e12","system_id":"levelo_inurba_marseille","lat":43.30546,"lon":5.367157,"is_reserved":false,"is_disabled":false,"rental_uris":{"android":"levelo://app?vid=693c37b3-a24b-4e79-8286-931aff3e9e12","ios":"levelo://app?vid=693c37b3-a24b-4e79-8286-931aff3e9e12"},"vehicle_type_id":"4","last_reported":1750253194,"current_range_meters":14800,"station_id":"ce4bgrp2rcd13ifvqc9g","pricing_plan_id":"cebpf4jnsgd1na2vs0mg"},{"bike_id":"616c5da3-58de-4522-a95f-7dde1a17e140","system_id":"levelo_inurba_marseille","lat":43.30138,"lon":5.37405,"is_reserved":false,"is_disabled":false,"rental_uris":{"android":"levelo://app?vid=616c5da3-58de-4522-a95f-7dde1a17e140","ios":"levelo://app?vid=616c5da3-58de-4522-a95f-7dde1a17e140"},"vehicle_type_id":"4","last_reported":1750253194,"current_range_meters":14800,"station_id":"ce4bgs92rcd13ifvqcc0","pricing_plan_id":"cebpf4jnsgd1na2vs0mg"},{"bike_id":"37c2d40f-fea5-47d8-9c32-32532e9acce1","system_id":"levelo_inurba_marseille","lat":43.304762,"lon":5.379215,"is_reserved":false,"is_disabled":false,"rental_uris":{"android":"levelo://app?vid=37c2d40f-fea5-47d8-9c32-32532e9acce1","ios":"levelo://app?vid=37c2d40f-fea5-47d8-9c32-32532e9acce1"},"vehicle_type_id":"4","last_reported":1750253194,"current_range_meters":14800,"station_id":"ce4bgup2rcd13ifvqcn0","pricing_plan_id":"cebpf4jnsgd1na2vs0mg"},{"bike_id":"c432f84b-cecc-4733-8a4d-ad61d0d520f8","system_id":"levelo_inurba_marseille","lat":43.28101,"lon":5.37844,"is_reserved":false,"is_disabled":false,"rental_uris":{"android":"levelo://app?vid=c432f84b-cecc-4733-8a4d-ad61d0d520f8","ios":"levelo://app?vid=c432f84b-cecc-4733-8a4d-ad61d0d520f8"},"vehicle_type_id":"4","last_reported":1750253194,"current_range_meters":14800,"station_id":"ce4bha12rcd13ifvqee0","pricing_plan_id":"cebpf4jnsgd1na2vs0mg"},{"bike_id":"faf048f0-ef47-45f8-8544-8137d956151e","system_id":"levelo_inurba_marseille","lat":43.31242,"lon":5.37447,"is_reserved":false,"is_disabled":false,"rental_uris":{"android":"levelo://app?vid=faf048f0-ef47-45f8-8544-8137d956151e","ios":"levelo://app?vid=faf048f0-ef47-45f8-8544-8137d956151e"},"vehicle_type_id":"4","last_reported":1750253194,"current_range_meters":15200,"station_id":"","pricing_plan_id":"cebpf4jnsgd1na2vs0mg"},{"bike_id":"268aafb4-1331-426c-97bc-a7d6564caeb6","system_id":"levelo_inurba_marseille","lat":43.32933,"lon":5.37919,"is_reserved":false,"is_disabled":false,"rental_uris":{"android":"levelo://app?vid=268aafb4-1331-426c-97bc-a7d6564caeb6","ios":"levelo://app?vid=268aafb4-1331-426c-97bc-a7d6564caeb6"},"vehicle_type_id":"4","last_reported":1750253194,"current_range_meters":15200,"station_id":"","pricing_plan_id":"cebpf4jnsgd1na2vs0mg"},{"bike_id":"affee812-197a-49fe-b902-c28dedce5462","system_id":"levelo_inurba_marseille","lat":43.30137,"lon":5.39878,"is_reserved":false,"is_disabled":false,"rental_uris":{"android":"levelo://app?vid=affee812-197a-49fe-b902-c28dedce5462","ios":"levelo://app?vid=affee812-197a-49fe-b902-c28dedce5462"},"vehicle_type_id":"4","last_reported":1750253194,"current_range_meters":15200,"station_id":"ce4bh0h2rcd13ifvqd40","pricing_plan_id":"cebpf4jnsgd1na2vs0mg"},{"bike_id":"6f94229c-2e3c-4402-9bc2-545603c8c8fc","system_id":"levelo_inurba_marseille","lat":43.26033,"lon":5.37548,"is_reserved":false,"is_disabled":false,"rental_uris":{"android":"levelo://app?vid=6f94229c-2e3c-4402-9bc2-545603c8c8fc","ios":"levelo://app?vid=6f94229c-2e3c-4402-9bc2-545603c8c8fc"},"vehicle_type_id":"4","last_reported":1750253194,"current_range_meters":15200,"station_id":"ce4bhgh2rcd13ifvqfa0","pricing_plan_id":"cebpf4jnsgd1na2vs0mg"},{"bike_id":"9e6b6795-72a7-4c2f-ae9a-06b58fcd1632","system_id":"levelo_inurba_marseille","lat":43.25951,"lon":5.40856,"is_reserved":false,"is_disabled":false,"rental_uris":{"android":"levelo://app?vid=9e6b6795-72a7-4c2f-ae9a-06b58fcd1632","ios":"levelo://app?vid=9e6b6795-72a7-4c2f-ae9a-06b58fcd1632"},"vehicle_type_id":"4","last_reported":1750253194,"current_range_meters":15200,"station_id":"ce4bhm92rcd13ifvqglg","pricing_plan_id":"cebpf4jnsgd1na2vs0mg"},{"bike_id":"ff899b15-fdd1-4c2d-9023-b38ebd1a6335","system_id":"levelo_inurba_marseille","lat":43.23195,"lon":5.35559,"is_reserved":false,"is_disabled":false,"rental_uris":{"android":"levelo://app?vid=ff899b15-fdd1-4c2d-9023-b38ebd1a6335","ios":"levelo://app?vid=ff899b15-fdd1-4c2d-9023-b38ebd1a6335"},"vehicle_type_id":"4","last_reported":1750253194,"current_range_meters":15200,"station_id":"ce4bhu92rcd13ifvqi70","pricing_plan_id":"cebpf4jnsgd1na2vs0mg"},{"bike_id":"ff93609b-8182-4ef6-9867-ea1b72cfdc5d","system_id":"levelo_inurba_marseille","lat":43.22928,"lon":5.35374,"is_reserved":false,"is_disabled":false,"rental_uris":{"android":"levelo://app?vid=ff93609b-8182-4ef6-9867-ea1b72cfdc5d","ios":"levelo://app?vid=ff93609b-8182-4ef6-9867-ea1b72cfdc5d"},"vehicle_type_id":"4","last_reported":1750253194,"current_range_meters":15200,"station_id":"cpo3532slgdg3j2ikp40","pricing_plan_id":"cebpf4jnsgd1na2vs0mg"},{"bike_id":"8dc3f506-d8c7-45a7-8cc8-ec897678ea5f","system_id":"levelo_inurba_marseille","lat":43.24201,"lon":5.36389,"is_reserved":false,"is_disabled":false,"rental_uris":{"android":"levelo://app?vid=8dc3f506-d8c7-45a7-8cc8-ec897678ea5f","ios":"levelo://app?vid=8dc3f506-d8c7-45a7-8cc8-ec897678ea5f"},"vehicle_type_id":"4","last_reported":1750253194,"current_range_meters":15200,"station_id":"cpo36qri1sfpv3e86is0","pricing_plan_id":"cebpf4jnsgd1na2vs0mg"},{"bike_id":"d6a9a601-2d6d-4eaa-a415-3263b1f45536","system_id":"levelo_inurba_marseille","lat":43.30155,"lon":5.38092,"is_reserved":false,"is_disabled":false,"rental_uris":{"android":"levelo://app?vid=d6a9a601-2d6d-4eaa-a415-3263b1f45536","ios":"levelo://app?vid=d6a9a601-2d6d-4eaa-a415-3263b1f45536"},"vehicle_type_id":"4","last_reported":1750253194,"current_range_meters":16000,"station_id":"ce4bgjp2rcd13ifvqbh0","pricing_plan_id":"cebpf4jnsgd1na2vs0mg"},{"bike_id":"da20a186-c518-4f52-912e-e4f01c93dd67","system_id":"levelo_inurba_marseille","lat":43.2986,"lon":5.36271,"is_reserved":false,"is_disabled":false,"rental_uris":{"android":"levelo://app?vid=da20a186-c518-4f52-912e-e4f01c93dd67","ios":"levelo://app?vid=da20a186-c518-4f52-912e-e4f01c93dd67"},"vehicle_type_id":"4","last_reported":1750253194,"current_range_meters":16000,"station_id":"ce4bgpp2rcd13ifvqc3g","pricing_plan_id":"cebpf4jnsgd1na2vs0mg"},{"bike_id":"519791ae-fb2f-45a3-a2ff-6019a10f140d","system_id":"levelo_inurba_marseille","lat":43.3136,"lon":5.36686,"is_reserved":false,"is_disabled":false,"rental_uris":{"android":"levelo://app?vid=519791ae-fb2f-45a3-a2ff-6019a10f140d","ios":"levelo://app?vid=519791ae-fb2f-45a3-a2ff-6019a10f140d"},"vehicle_type_id":"4","last_reported":1750253194,"current_range_meters":16000,"station_id":"ce4bgr92rcd13ifvqc6g","pricing_plan_id":"cebpf4jnsgd1na2vs0mg"},{"bike_id":"1678d1c9-10e1-4099-b7e8-56f9d3c1433c","system_id":"levelo_inurba_marseille","lat":43.30137,"lon":5.37419,"is_reserved":false,"is_disabled":false,"rental_uris":{"android":"levelo://app?vid=1678d1c9-10e1-4099-b7e8-56f9d3c1433c","ios":"levelo://app?vid=1678d1c9-10e1-4099-b7e8-56f9d3c1433c"},"vehicle_type_id":"4","last_reported":1750253194,"current_range_meters":16000,"station_id":"ce4bgs92rcd13ifvqcc0","pricing_plan_id":"cebpf4jnsgd1na2vs0mg"},{"bike_id":"ce041c02-e685-4d1a-8b7b-ddcd9c7d87aa","system_id":"levelo_inurba_marseille","lat":43.306442,"lon":5.401022,"is_reserved":false,"is_disabled":false,"rental_uris":{"android":"levelo://app?vid=ce041c02-e685-4d1a-8b7b-ddcd9c7d87aa","ios":"levelo://app?vid=ce041c02-e685-4d1a-8b7b-ddcd9c7d87aa"},"vehicle_type_id":"4","last_reported":1750253194,"current_range_meters":16000,"station_id":"ce4bh112rcd13ifvqda0","pricing_plan_id":"cebpf4jnsgd1na2vs0mg"},{"bike_id":"9d2a90e7-394f-41d8-ae49-77712a22ee78","system_id":"levelo_inurba_marseille","lat":43.25504,"lon":5.37661,"is_reserved":false,"is_disabled":false,"rental_uris":{"android":"levelo://app?vid=9d2a90e7-394f-41d8-ae49-77712a22ee78","ios":"levelo://app?vid=9d2a90e7-394f-41d8-ae49-77712a22ee78"},"vehicle_type_id":"4","last_reported":1750253194,"current_range_meters":16000,"station_id":"ce4bhh12rcd13ifvqff0","pricing_plan_id":"cebpf4jnsgd1na2vs0mg"},{"bike_id":"c99a5839-34e9-403e-9b2f-0bb2519d5b25","system_id":"levelo_inurba_marseille","lat":43.26929,"lon":5.38914,"is_reserved":false,"is_disabled":false,"rental_uris":{"android":"levelo://app?vid=c99a5839-34e9-403e-9b2f-0bb2519d5b25","ios":"levelo://app?vid=c99a5839-34e9-403e-9b2f-0bb2519d5b25"},"vehicle_type_id":"4","last_reported":1750253194,"current_range_meters":16000,"station_id":"ce4bhhh2rcd13ifvqfl0","pricing_plan_id":"cebpf4jnsgd1na2vs0mg"},{"bike_id":"5c9878b4-89f1-4442-84b0-44598b017874","system_id":"levelo_inurba_marseille","lat":43.25925,"lon":5.40895,"is_reserved":false,"is_disabled":false,"rental_uris":{"android":"levelo://app?vid=5c9878b4-89f1-4442-84b0-44598b017874","ios":"levelo://app?vid=5c9878b4-89f1-4442-84b0-44598b017874"},"vehicle_type_id":"4","last_reported":1750253194,"current_range_meters":16000,"station_id":"ce4bhm92rcd13ifvqglg","pricing_plan_id":"cebpf4jnsgd1na2vs0mg"},{"bike_id":"cb91134e-3aff-47c2-a295-312a49fa8951","system_id":"levelo_inurba_marseille","lat":43.24177,"lon":5.39724,"is_reserved":false,"is_disabled":false,"rental_uris":{"android":"levelo://app?vid=cb91134e-3aff-47c2-a295-312a49fa8951","ios":"levelo://app?vid=cb91134e-3aff-47c2-a295-312a49fa8951"},"vehicle_type_id":"4","last_reported":1750253194,"current_range_meters":16000,"station_id":"ce4bhn12rcd13ifvqgpg","pricing_plan_id":"cebpf4jnsgd1na2vs0mg"},{"bike_id":"975d7472-abaa-40d3-8524-613626275fdc","system_id":"levelo_inurba_marseille","lat":43.23201,"lon":5.35574,"is_reserved":false,"is_disabled":false,"rental_uris":{"android":"levelo://app?vid=975d7472-abaa-40d3-8524-613626275fdc","ios":"levelo://app?vid=975d7472-abaa-40d3-8524-613626275fdc"},"vehicle_type_id":"4","last_reported":1750253194,"current_range_meters":16000,"station_id":"ce4bhu92rcd13ifvqi70","pricing_plan_id":"cebpf4jnsgd1na2vs0mg"},{"bike_id":"e921cee3-b8ce-4c00-b7eb-8ab335b5e125","system_id":"levelo_inurba_marseille","lat":43.30198,"lon":5.42269,"is_reserved":false,"is_disabled":false,"rental_uris":{"android":"levelo://app?vid=e921cee3-b8ce-4c00-b7eb-8ab335b5e125","ios":"levelo://app?vid=e921cee3-b8ce-4c00-b7eb-8ab335b5e125"},"vehicle_type_id":"4","last_reported":1750253194,"current_range_meters":16400,"station_id":"","pricing_plan_id":"cebpf4jnsgd1na2vs0mg"},{"bike_id":"f025e0b0-8595-426c-b214-cb9b74c5fcfd","system_id":"levelo_inurba_marseille","lat":43.32198,"lon":5.40595,"is_reserved":false,"is_disabled":false,"rental_uris":{"android":"levelo://app?vid=f025e0b0-8595-426c-b214-cb9b74c5fcfd","ios":"levelo://app?vid=f025e0b0-8595-426c-b214-cb9b74c5fcfd"},"vehicle_type_id":"4","last_reported":1750253194,"current_range_meters":16400,"station_id":"","pricing_plan_id":"cebpf4jnsgd1na2vs0mg"},{"bike_id":"34a2ba9a-1125-4feb-ab9c-58f669040010","system_id":"levelo_inurba_marseille","lat":43.2692,"lon":5.38874,"is_reserved":false,"is_disabled":false,"rental_uris":{"android":"levelo://app?vid=34a2ba9a-1125-4feb-ab9c-58f669040010","ios":"levelo://app?vid=34a2ba9a-1125-4feb-ab9c-58f669040010"},"vehicle_type_id":"4","last_reported":1750253194,"current_range_meters":16400,"station_id":"","pricing_plan_id":"cebpf4jnsgd1na2vs0mg"},{"bike_id":"390b8ed5-abf6-4fcf-9370-66dd64d65ab8","system_id":"levelo_inurba_marseille","lat":43.2179,"lon":5.34642,"is_reserved":false,"is_disabled":false,"rental_uris":{"android":"levelo://app?vid=390b8ed5-abf6-4fcf-9370-66dd64d65ab8","ios":"levelo://app?vid=390b8ed5-abf6-4fcf-9370-66dd64d65ab8"},"vehicle_type_id":"4","last_reported":1750253194,"current_range_meters":16400,"station_id":"","pricing_plan_id":"cebpf4jnsgd1na2vs0mg"},{"bike_id":"ae2fdae3-50bf-4bd1-ba6e-560530838045","system_id":"levelo_inurba_marseille","lat":43.2632,"lon":5.37394,"is_reserved":false,"is_disabled":false,"rental_uris":{"android":"levelo://app?vid=ae2fdae3-50bf-4bd1-ba6e-560530838045","ios":"levelo://app?vid=ae2fdae3-50bf-4bd1-ba6e-560530838045"},"vehicle_type_id":"4","last_reported":1750253194,"current_range_meters":16400,"station_id":"","pricing_plan_id":"cebpf4jnsgd1na2vs0mg"},{"bike_id":"5ba07b96-7d22-4bcd-9c38-69bb2aa2882e","system_id":"levelo_inurba_marseille","lat":43.30808,"lon":5.38161,"is_reserved":false,"is_disabled":false,"rental_uris":{"android":"levelo://app?vid=5ba07b96-7d22-4bcd-9c38-69bb2aa2882e","ios":"levelo://app?vid=5ba07b96-7d22-4bcd-9c38-69bb2aa2882e"},"vehicle_type_id":"4","last_reported":1750253194,"current_range_meters":16400,"station_id":"ce4bgt12rcd13ifvqce0","pricing_plan_id":"cebpf4jnsgd1na2vs0mg"},{"bike_id":"8cf48164-c33c-4a7e-bdd2-29c037fdaae1","system_id":"levelo_inurba_marseille","lat":43.29035,"lon":5.38641,"is_reserved":false,"is_disabled":false,"rental_uris":{"android":"levelo://app?vid=8cf48164-c33c-4a7e-bdd2-29c037fdaae1","ios":"levelo://app?vid=8cf48164-c33c-4a7e-bdd2-29c037fdaae1"},"vehicle_type_id":"4","last_reported":1750253194,"current_range_meters":16400,"station_id":"ce4bh4p2rcd13ifvqe0g","pricing_plan_id":"cebpf4jnsgd1na2vs0mg"},{"bike_id":"0423971e-c81c-4db7-bd87-9f4dd45cf949","system_id":"levelo_inurba_marseille","lat":43.28712,"lon":5.37917,"is_reserved":false,"is_disabled":false,"rental_uris":{"android":"levelo://app?vid=0423971e-c81c-4db7-bd87-9f4dd45cf949","ios":"levelo://app?vid=0423971e-c81c-4db7-bd87-9f4dd45cf949"},"vehicle_type_id":"4","last_reported":1750253194,"current_range_meters":16400,"station_id":"ce4bh9p2rcd13ifvqec0","pricing_plan_id":"cebpf4jnsgd1na2vs0mg"},{"bike_id":"4051dcf0-8453-434b-a586-1dcab5e6bd7c","system_id":"levelo_inurba_marseille","lat":43.28842,"lon":5.358737,"is_reserved":false,"is_disabled":false,"rental_uris":{"android":"levelo://app?vid=4051dcf0-8453-434b-a586-1dcab5e6bd7c","ios":"levelo://app?vid=4051dcf0-8453-434b-a586-1dcab5e6bd7c"},"vehicle_type_id":"4","last_reported":1750253194,"current_range_meters":16400,"station_id":"ce4bhb12rcd13ifvqem0","pricing_plan_id":"cebpf4jnsgd1na2vs0mg"},{"bike_id":"4136f9d4-b9fe-4eac-86fa-e57db8b68e83","system_id":"levelo_inurba_marseille","lat":43.29005,"lon":5.35618,"is_reserved":false,"is_disabled":false,"rental_uris":{"android":"levelo://app?vid=4136f9d4-b9fe-4eac-86fa-e57db8b68e83","ios":"levelo://app?vid=4136f9d4-b9fe-4eac-86fa-e57db8b68e83"},"vehicle_type_id":"4","last_reported":1750253194,"current_range_meters":16400,"station_id":"ce4bhb92rcd13ifvqen0","pricing_plan_id":"cebpf4jnsgd1na2vs0mg"},{"bike_id":"67f3df11-0585-4eae-81e9-f632ab83c308","system_id":"levelo_inurba_marseille","lat":43.26214,"lon":5.37437,"is_reserved":false,"is_disabled":false,"rental_uris":{"android":"levelo://app?vid=67f3df11-0585-4eae-81e9-f632ab83c308","ios":"levelo://app?vid=67f3df11-0585-4eae-81e9-f632ab83c308"},"vehicle_type_id":"4","last_reported":1750253194,"current_range_meters":16400,"station_id":"ce4bhgp2rcd13ifvqfc0","pricing_plan_id":"cebpf4jnsgd1na2vs0mg"},{"bike_id":"3dc5d3f1-95d7-4807-b466-f81f670676bb","system_id":"levelo_inurba_marseille","lat":43.26236,"lon":5.40453,"is_reserved":false,"is_disabled":false,"rental_uris":{"android":"levelo://app?vid=3dc5d3f1-95d7-4807-b466-f81f670676bb","ios":"levelo://app?vid=3dc5d3f1-95d7-4807-b466-f81f670676bb"},"vehicle_type_id":"4","last_reported":1750253194,"current_range_meters":16400,"station_id":"ce4bhmh2rcd13ifvqgmg","pricing_plan_id":"cebpf4jnsgd1na2vs0mg"},{"bike_id":"a359a9ed-ef3d-4171-9bf1-c34a33415325","system_id":"levelo_inurba_marseille","lat":43.24174,"lon":5.39716,"is_reserved":false,"is_disabled":false,"rental_uris":{"android":"levelo://app?vid=a359a9ed-ef3d-4171-9bf1-c34a33415325","ios":"levelo://app?vid=a359a9ed-ef3d-4171-9bf1-c34a33415325"},"vehicle_type_id":"4","last_reported":1750253194,"current_range_meters":16400,"station_id":"ce4bhn12rcd13ifvqgpg","pricing_plan_id":"cebpf4jnsgd1na2vs0mg"},{"bike_id":"d91d425f-bac8-4192-9846-0b58eda190fd","system_id":"levelo_inurba_marseille","lat":43.27954,"lon":5.41043,"is_reserved":false,"is_disabled":false,"rental_uris":{"android":"levelo://app?vid=d91d425f-bac8-4192-9846-0b58eda190fd","ios":"levelo://app?vid=d91d425f-bac8-4192-9846-0b58eda190fd"},"vehicle_type_id":"4","last_reported":1750253194,"current_range_meters":16400,"station_id":"ce4bhnp2rcd13ifvqh0g","pricing_plan_id":"cebpf4jnsgd1na2vs0mg"},{"bike_id":"4b1261bb-141d-492f-968e-f505abdba499","system_id":"levelo_inurba_marseille","lat":43.32368,"lon":5.38888,"is_reserved":false,"is_disabled":false,"rental_uris":{"android":"levelo://app?vid=4b1261bb-141d-492f-968e-f505abdba499","ios":"levelo://app?vid=4b1261bb-141d-492f-968e-f505abdba499"},"vehicle_type_id":"4","last_reported":1750253194,"current_range_meters":16400,"station_id":"ce4bhqp2rcd13ifvqhog","pricing_plan_id":"cebpf4jnsgd1na2vs0mg"},{"bike_id":"d6b59448-6161-4e70-befd-235ecc0fb1fc","system_id":"levelo_inurba_marseille","lat":43.23197,"lon":5.35559,"is_reserved":false,"is_disabled":false,"rental_uris":{"android":"levelo://app?vid=d6b59448-6161-4e70-befd-235ecc0fb1fc","ios":"levelo://app?vid=d6b59448-6161-4e70-befd-235ecc0fb1fc"},"vehicle_type_id":"4","last_reported":1750253194,"current_range_meters":16400,"station_id":"ce4bhu92rcd13ifvqi70","pricing_plan_id":"cebpf4jnsgd1na2vs0mg"},{"bike_id":"eaaa9fcd-34d4-4d0b-8f90-fbf605a0610f","system_id":"levelo_inurba_marseille","lat":43.21198,"lon":5.35063,"is_reserved":false,"is_disabled":false,"rental_uris":{"android":"levelo://app?vid=eaaa9fcd-34d4-4d0b-8f90-fbf605a0610f","ios":"levelo://app?vid=eaaa9fcd-34d4-4d0b-8f90-fbf605a0610f"},"vehicle_type_id":"4","last_reported":1750253194,"current_range_meters":16400,"station_id":"st_cvj6sg6p6f1abm77japg","pricing_plan_id":"cebpf4jnsgd1na2vs0mg"},{"bike_id":"87b77436-40f4-4cec-b641-2b02c1ef82e6","system_id":"levelo_inurba_marseille","lat":43.30232,"lon":5.37653,"is_reserved":false,"is_disabled":false,"rental_uris":{"android":"levelo://app?vid=87b77436-40f4-4cec-b641-2b02c1ef82e6","ios":"levelo://app?vid=87b77436-40f4-4cec-b641-2b02c1ef82e6"},"vehicle_type_id":"4","last_reported":1750253194,"current_range_meters":16800,"station_id":"","pricing_plan_id":"cebpf4jnsgd1na2vs0mg"},{"bike_id":"f9b66d6b-d00c-48f3-ae8e-444dc6752b49","system_id":"levelo_inurba_marseille","lat":43.30565,"lon":5.36548,"is_reserved":false,"is_disabled":false,"rental_uris":{"android":"levelo://app?vid=f9b66d6b-d00c-48f3-ae8e-444dc6752b49","ios":"levelo://app?vid=f9b66d6b-d00c-48f3-ae8e-444dc6752b49"},"vehicle_type_id":"4","last_reported":1750253194,"current_range_meters":16800,"station_id":"ce4bgs12rcd13ifvqcag","pricing_plan_id":"cebpf4jnsgd1na2vs0mg"},{"bike_id":"26a580ba-a3b2-4351-94f9-3ef785c31050","system_id":"levelo_inurba_marseille","lat":43.31364,"lon":5.385,"is_reserved":false,"is_disabled":false,"rental_uris":{"android":"levelo://app?vid=26a580ba-a3b2-4351-94f9-3ef785c31050","ios":"levelo://app?vid=26a580ba-a3b2-4351-94f9-3ef785c31050"},"vehicle_type_id":"4","last_reported":1750253194,"current_range_meters":16800,"station_id":"ce4bgt92rcd13ifvqcf0","pricing_plan_id":"cebpf4jnsgd1na2vs0mg"},{"bike_id":"fc357baa-81d3-49e6-b674-34f51da14b16","system_id":"levelo_inurba_marseille","lat":43.28573,"lon":5.39499,"is_reserved":false,"is_disabled":false,"rental_uris":{"android":"levelo://app?vid=fc357baa-81d3-49e6-b674-34f51da14b16","ios":"levelo://app?vid=fc357baa-81d3-49e6-b674-34f51da14b16"},"vehicle_type_id":"4","last_reported":1750253194,"current_range_meters":16800,"station_id":"ce4bh292rcd13ifvqdg0","pricing_plan_id":"cebpf4jnsgd1na2vs0mg"},{"bike_id":"cde78309-0217-44bb-bf0f-88763267654b","system_id":"levelo_inurba_marseille","lat":43.289754,"lon":5.378476,"is_reserved":false,"is_disabled":false,"rental_uris":{"android":"levelo://app?vid=cde78309-0217-44bb-bf0f-88763267654b","ios":"levelo://app?vid=cde78309-0217-44bb-bf0f-88763267654b"},"vehicle_type_id":"4","last_reported":1750253194,"current_range_meters":16800,"station_id":"ce4bh9p2rcd13ifvqed0","pricing_plan_id":"cebpf4jnsgd1na2vs0mg"},{"bike_id":"d65a10b5-8f70-4476-b2dd-ba37ef5bb371","system_id":"levelo_inurba_marseille","lat":43.29007,"lon":5.35609,"is_reserved":false,"is_disabled":false,"rental_uris":{"android":"levelo://app?vid=d65a10b5-8f70-4476-b2dd-ba37ef5bb371","ios":"levelo://app?vid=d65a10b5-8f70-4476-b2dd-ba37ef5bb371"},"vehicle_type_id":"4","last_reported":1750253194,"current_range_meters":16800,"station_id":"ce4bhb92rcd13ifvqen0","pricing_plan_id":"cebpf4jnsgd1na2vs0mg"},{"bike_id":"e7dad37e-e27e-45a3-98af-53555fde6281","system_id":"levelo_inurba_marseille","lat":43.28284,"lon":5.35069,"is_reserved":false,"is_disabled":false,"rental_uris":{"android":"levelo://app?vid=e7dad37e-e27e-45a3-98af-53555fde6281","ios":"levelo://app?vid=e7dad37e-e27e-45a3-98af-53555fde6281"},"vehicle_type_id":"4","last_reported":1750253194,"current_range_meters":16800,"station_id":"ce4bhbp2rcd13ifvqerg","pricing_plan_id":"cebpf4jnsgd1na2vs0mg"},{"bike_id":"e7686c58-35e2-4b3b-9612-c98b89e3da0b","system_id":"levelo_inurba_marseille","lat":43.26572,"lon":5.39013,"is_reserved":false,"is_disabled":false,"rental_uris":{"android":"levelo://app?vid=e7686c58-35e2-4b3b-9612-c98b89e3da0b","ios":"levelo://app?vid=e7686c58-35e2-4b3b-9612-c98b89e3da0b"},"vehicle_type_id":"4","last_reported":1750253194,"current_range_meters":16800,"station_id":"ce4bhe12rcd13ifvqf30","pricing_plan_id":"cebpf4jnsgd1na2vs0mg"},{"bike_id":"caa7a473-a728-4942-9155-61ec407abffe","system_id":"levelo_inurba_marseille","lat":43.26214,"lon":5.37963,"is_reserved":false,"is_disabled":false,"rental_uris":{"android":"levelo://app?vid=caa7a473-a728-4942-9155-61ec407abffe","ios":"levelo://app?vid=caa7a473-a728-4942-9155-61ec407abffe"},"vehicle_type_id":"4","last_reported":1750253194,"current_range_meters":16800,"station_id":"ce4bhjp2rcd13ifvqg90","pricing_plan_id":"cebpf4jnsgd1na2vs0mg"},{"bike_id":"4b6b2a2b-d3c4-4663-8ea1-de4eff39b7b2","system_id":"levelo_inurba_marseille","lat":43.21188,"lon":5.35083,"is_reserved":false,"is_disabled":false,"rental_uris":{"android":"levelo://app?vid=4b6b2a2b-d3c4-4663-8ea1-de4eff39b7b2","ios":"levelo://app?vid=4b6b2a2b-d3c4-4663-8ea1-de4eff39b7b2"},"vehicle_type_id":"4","last_reported":1750253194,"current_range_meters":16800,"station_id":"st_cvj6sg6p6f1abm77japg","pricing_plan_id":"cebpf4jnsgd1na2vs0mg"},{"bike_id":"fa84b247-3db5-4ee3-bfdd-ea86cc8f349e","system_id":"levelo_inurba_marseille","lat":43.30151,"lon":5.37404,"is_reserved":false,"is_disabled":false,"rental_uris":{"android":"levelo://app?vid=fa84b247-3db5-4ee3-bfdd-ea86cc8f349e","ios":"levelo://app?vid=fa84b247-3db5-4ee3-bfdd-ea86cc8f349e"},"vehicle_type_id":"4","last_reported":1750253194,"current_range_meters":17200,"station_id":"ce4bgs92rcd13ifvqcc0","pricing_plan_id":"cebpf4jnsgd1na2vs0mg"},{"bike_id":"d9a1cc3b-64c2-49fc-ba12-fb7514a25935","system_id":"levelo_inurba_marseille","lat":43.26212,"lon":5.37443,"is_reserved":false,"is_disabled":false,"rental_uris":{"android":"levelo://app?vid=d9a1cc3b-64c2-49fc-ba12-fb7514a25935","ios":"levelo://app?vid=d9a1cc3b-64c2-49fc-ba12-fb7514a25935"},"vehicle_type_id":"4","last_reported":1750253194,"current_range_meters":17200,"station_id":"ce4bhgp2rcd13ifvqfc0","pricing_plan_id":"cebpf4jnsgd1na2vs0mg"},{"bike_id":"cfef7392-1433-476b-a989-3fb180315ec3","system_id":"levelo_inurba_marseille","lat":43.24178,"lon":5.39735,"is_reserved":false,"is_disabled":false,"rental_uris":{"android":"levelo://app?vid=cfef7392-1433-476b-a989-3fb180315ec3","ios":"levelo://app?vid=cfef7392-1433-476b-a989-3fb180315ec3"},"vehicle_type_id":"4","last_reported":1750253194,"current_range_meters":17200,"station_id":"ce4bhn12rcd13ifvqgpg","pricing_plan_id":"cebpf4jnsgd1na2vs0mg"},{"bike_id":"db781c3a-6cac-4117-ad31-15bcf693324e","system_id":"levelo_inurba_marseille","lat":43.27803,"lon":5.4072,"is_reserved":false,"is_disabled":false,"rental_uris":{"android":"levelo://app?vid=db781c3a-6cac-4117-ad31-15bcf693324e","ios":"levelo://app?vid=db781c3a-6cac-4117-ad31-15bcf693324e"},"vehicle_type_id":"4","last_reported":1750253194,"current_range_meters":17200,"station_id":"ce4bhnh2rcd13ifvqgtg","pricing_plan_id":"cebpf4jnsgd1na2vs0mg"},{"bike_id":"bc23166e-55f9-473c-ba93-87dd12173a65","system_id":"levelo_inurba_marseille","lat":43.24068,"lon":5.37757,"is_reserved":false,"is_disabled":false,"rental_uris":{"android":"levelo://app?vid=bc23166e-55f9-473c-ba93-87dd12173a65","ios":"levelo://app?vid=bc23166e-55f9-473c-ba93-87dd12173a65"},"vehicle_type_id":"4","last_reported":1750253194,"current_range_meters":17200,"station_id":"ce4bhnp2rcd13ifvqgvg","pricing_plan_id":"cebpf4jnsgd1na2vs0mg"},{"bike_id":"744f0163-1137-46db-835e-c2dc58d25488","system_id":"levelo_inurba_marseille","lat":43.229341,"lon":5.353771,"is_reserved":false,"is_disabled":false,"rental_uris":{"android":"levelo://app?vid=744f0163-1137-46db-835e-c2dc58d25488","ios":"levelo://app?vid=744f0163-1137-46db-835e-c2dc58d25488"},"vehicle_type_id":"4","last_reported":1750253194,"current_range_meters":17200,"station_id":"cpo3532slgdg3j2ikp40","pricing_plan_id":"cebpf4jnsgd1na2vs0mg"},{"bike_id":"744b1c90-170f-4e99-8fd9-ae1376712de0","system_id":"levelo_inurba_marseille","lat":43.21753,"lon":5.34615,"is_reserved":false,"is_disabled":false,"rental_uris":{"android":"levelo://app?vid=744b1c90-170f-4e99-8fd9-ae1376712de0","ios":"levelo://app?vid=744b1c90-170f-4e99-8fd9-ae1376712de0"},"vehicle_type_id":"4","last_reported":1750253194,"current_range_meters":17200,"station_id":"st_cvj6r9ubvosntc0bgbag","pricing_plan_id":"cebpf4jnsgd1na2vs0mg"},{"bike_id":"77ac8037-3c3c-493a-82c2-904a9ad6c7d0","system_id":"levelo_inurba_marseille","lat":43.26801,"lon":5.39075,"is_reserved":false,"is_disabled":false,"rental_uris":{"android":"levelo://app?vid=77ac8037-3c3c-493a-82c2-904a9ad6c7d0","ios":"levelo://app?vid=77ac8037-3c3c-493a-82c2-904a9ad6c7d0"},"vehicle_type_id":"4","last_reported":1750253194,"current_range_meters":17600,"station_id":"","pricing_plan_id":"cebpf4jnsgd1na2vs0mg"},{"bike_id":"743758f9-36d1-4028-ae1f-99619666b6f9","system_id":"levelo_inurba_marseille","lat":43.31186,"lon":5.38717,"is_reserved":false,"is_disabled":false,"rental_uris":{"android":"levelo://app?vid=743758f9-36d1-4028-ae1f-99619666b6f9","ios":"levelo://app?vid=743758f9-36d1-4028-ae1f-99619666b6f9"},"vehicle_type_id":"4","last_reported":1750253194,"current_range_meters":17600,"station_id":"ce4bgv12rcd13ifvqcp0","pricing_plan_id":"cebpf4jnsgd1na2vs0mg"},{"bike_id":"9b7e93fc-dadb-44e3-ba33-72e0b313af0d","system_id":"levelo_inurba_marseille","lat":43.30889,"lon":5.39665,"is_reserved":false,"is_disabled":false,"rental_uris":{"android":"levelo://app?vid=9b7e93fc-dadb-44e3-ba33-72e0b313af0d","ios":"levelo://app?vid=9b7e93fc-dadb-44e3-ba33-72e0b313af0d"},"vehicle_type_id":"4","last_reported":1750253194,"current_range_meters":17600,"station_id":"ce4bh012rcd13ifvqcv0","pricing_plan_id":"cebpf4jnsgd1na2vs0mg"},{"bike_id":"3faa3961-acba-40c7-9213-4c174004efab","system_id":"levelo_inurba_marseille","lat":43.28416,"lon":5.34989,"is_reserved":false,"is_disabled":false,"rental_uris":{"android":"levelo://app?vid=3faa3961-acba-40c7-9213-4c174004efab","ios":"levelo://app?vid=3faa3961-acba-40c7-9213-4c174004efab"},"vehicle_type_id":"4","last_reported":1750253194,"current_range_meters":17600,"station_id":"ce4bhbh2rcd13ifvqepg","pricing_plan_id":"cebpf4jnsgd1na2vs0mg"},{"bike_id":"85403a20-b70a-4990-a036-9fdf9ed815d2","system_id":"levelo_inurba_marseille","lat":43.2862,"lon":5.35106,"is_reserved":false,"is_disabled":false,"rental_uris":{"android":"levelo://app?vid=85403a20-b70a-4990-a036-9fdf9ed815d2","ios":"levelo://app?vid=85403a20-b70a-4990-a036-9fdf9ed815d2"},"vehicle_type_id":"4","last_reported":1750253194,"current_range_meters":17600,"station_id":"ce4bhch2rcd13ifvqeug","pricing_plan_id":"cebpf4jnsgd1na2vs0mg"},{"bike_id":"ca17c611-8a47-42a0-bb1e-ca22e1401919","system_id":"levelo_inurba_marseille","lat":43.26221,"lon":5.37432,"is_reserved":false,"is_disabled":false,"rental_uris":{"android":"levelo://app?vid=ca17c611-8a47-42a0-bb1e-ca22e1401919","ios":"levelo://app?vid=ca17c611-8a47-42a0-bb1e-ca22e1401919"},"vehicle_type_id":"4","last_reported":1750253194,"current_range_meters":17600,"station_id":"ce4bhgp2rcd13ifvqfc0","pricing_plan_id":"cebpf4jnsgd1na2vs0mg"},{"bike_id":"73e60e02-e6a7-4b89-9541-57b7de048bfb","system_id":"levelo_inurba_marseille","lat":43.2558,"lon":5.38246,"is_reserved":false,"is_disabled":false,"rental_uris":{"android":"levelo://app?vid=73e60e02-e6a7-4b89-9541-57b7de048bfb","ios":"levelo://app?vid=73e60e02-e6a7-4b89-9541-57b7de048bfb"},"vehicle_type_id":"4","last_reported":1750253194,"current_range_meters":17600,"station_id":"ce4bhih2rcd13ifvqfs0","pricing_plan_id":"cebpf4jnsgd1na2vs0mg"},{"bike_id":"a004d7f2-75e1-49e9-b073-ad13bcf23d1e","system_id":"levelo_inurba_marseille","lat":43.23188,"lon":5.35557,"is_reserved":false,"is_disabled":false,"rental_uris":{"android":"levelo://app?vid=a004d7f2-75e1-49e9-b073-ad13bcf23d1e","ios":"levelo://app?vid=a004d7f2-75e1-49e9-b073-ad13bcf23d1e"},"vehicle_type_id":"4","last_reported":1750253194,"current_range_meters":17600,"station_id":"ce4bhu92rcd13ifvqi70","pricing_plan_id":"cebpf4jnsgd1na2vs0mg"},{"bike_id":"e5863b13-0bb4-41ee-a7a1-72091c1036b5","system_id":"levelo_inurba_marseille","lat":43.316063,"lon":5.383938,"is_reserved":false,"is_disabled":false,"rental_uris":{"android":"levelo://app?vid=e5863b13-0bb4-41ee-a7a1-72091c1036b5","ios":"levelo://app?vid=e5863b13-0bb4-41ee-a7a1-72091c1036b5"},"vehicle_type_id":"4","last_reported":1750253194,"current_range_meters":18000,"station_id":"","pricing_plan_id":"cebpf4jnsgd1na2vs0mg"},{"bike_id":"9a1e29c4-a04d-421d-b4e9-7ffe7fb1290b","system_id":"levelo_inurba_marseille","lat":43.301531,"lon":5.374239,"is_reserved":false,"is_disabled":false,"rental_uris":{"android":"levelo://app?vid=9a1e29c4-a04d-421d-b4e9-7ffe7fb1290b","ios":"levelo://app?vid=9a1e29c4-a04d-421d-b4e9-7ffe7fb1290b"},"vehicle_type_id":"4","last_reported":1750253194,"current_range_meters":18000,"station_id":"ce4bgs92rcd13ifvqcc0","pricing_plan_id":"cebpf4jnsgd1na2vs0mg"},