{"last_updated":1718132796,"ttl":30,"version":"2.2","data":{"bikes":[{"bike_id":"6453e501-d46c-49f4-9c11-34c2eb0a8ae8","system_id":"levelo_inurba_marseille","lat":43.313499,"lon":5.367185,"is_reserved":false,"is_disabled":false,"rental_uris":{"android":"levelo://app?vid=6453e501-d46c-49f4-9c11-34c2eb0a8ae8","ios":"levelo://app?vid=6453e501-d46c-49f4-9c11-34c2eb0a8ae8"},"vehicle_type_id":"4","last_reported":1718132797,"current_range_meters":0,"station_id":"ce4bgr92rcd13ifvqc6g","pricing_plan_id":"cebpf4jnsgd1na2vs0mg"},{"bike_id":"a1f7efc2-d574-44c3-bd48-1d8901b91767","system_id":"levelo_inurba_marseille","lat":43.312239,"lon":5.368562,"is_reserved":false,"is_disabled":false,"rental_uris":{"android":"levelo://app?vid=a1f7efc2-d574-44c3-bd48-1d8901b91767","ios":"levelo://app?vid=a1f7efc2-d574-44c3-bd48-1d8901b91767"},"vehicle_type_id":"4","last_reported":1718132797,"current_range_meters":27200,"station_id":"ce4bgl92rcd13ifvqbq0","pricing_plan_id":"cebpf4jnsgd1na2vs0mg"},{"bike_id":"90bcd632-521d-4504-aa04-7793421fbded","system_id":"levelo_inurba_marseille","lat":43.312239,"lon":5.368562,"is_reserved":false,"is_disabled":false,"rental_uris":{"android":"levelo://app?vid=90bcd632-521d-4504-aa04-7793421fbded","ios":"levelo://app?vid=90bcd632-521d-4504-aa04-7793421fbded"},"vehicle_type_id":"4","last_reported":1718132797,"current_range_meters":27600,"station_id":"ce4bgl92rcd13ifvqbq0","pricing_plan_id":"cebpf4jnsgd1na2vs0mg"},{"bike_id":"cd16a02a-3c34-4fef-add7-6ef6ccca89e9","system_id":"levelo_inurba_marseille","lat":43.312239,"lon":5.368562,"is_reserved":false,"is_disabled":false,"rental_uris":{"android":"levelo://app?vid=cd16a02a-3c34-4fef-add7-6ef6ccca89e9","ios":"levelo://app?vid=cd16a02a-3c34-4fef-add7-6ef6ccca89e9"},"vehicle_type_id":"4","last_reported":1718132797,"current_range_meters":26800,"station_id":"ce4bgl92rcd13ifvqbq0","pricing_plan_id":"cebpf4jnsgd1na2vs0mg"},{"bike_id":"8c9bee8a-97a1-4979-80c5-02db692c1c9e","system_id":"levelo_inurba_marseille","lat":43.312239,"lon":5.368562,"is_reserved":false,"is_disabled":false,"rental_uris":{"android":"levelo://app?vid=8c9bee8a-97a1-4979-80c5-02db692c1c9e","ios":"levelo://app?vid=8c9bee8a-97a1-4979-80c5-02db692c1c9e"},"vehicle_type_id":"4","last_reported":1718132797,"current_range_meters":0,"station_id":"ce4bgl92rcd13ifvqbq0","pricing_plan_id":"cebpf4jnsgd1na2vs0mg"},{"bike_id":"a86f38c7-03ae-4d15-8315-38073d791b31","system_id":"levelo_inurba_marseille","lat":43.312239,"lon":5.368562,"is_reserved":false,"is_disabled":false,"rental_uris":{"android":"levelo://app?vid=a86f38c7-03ae-4d15-8315-38073d791b31","ios":"levelo://app?vid=a86f38c7-03ae-4d15-8315-38073d791b31"},"vehicle_type_id":"4","last_reported":1718132797,"current_range_meters":28400,"station_id":"ce4bgl92rcd13ifvqbq0","pricing_plan_id":"cebpf4jnsgd1na2vs0mg"},{"bike_id":"fba2974c-0396-4688-a84d-21c5244cf301","system_id":"levelo_inurba_marseille","lat":43.314864,"lon":5.372886,"is_reserved":false,"is_disabled":false,"rental_uris":{"android":"levelo://app?vid=fba2974c-0396-4688-a84d-21c5244cf301","ios":"levelo://app?vid=fba2974c-0396-4688-a84d-21c5244cf301"},"vehicle_type_id":"4","last_reported":1718132797,"current_range_meters":6000,"station_id":"ce4bgt12rcd13ifvqcd0","pricing_plan_id":"cebpf4jnsgd1na2vs0mg"},{"bike_id":"99c4e4e8-7c5e-431b-8c42-229f28584f2d","system_id":"levelo_inurba_marseille","lat":43.314811,"lon":5.373104,"is_reserved":false,"is_disabled":false,"rental_uris":{"android":"levelo://app?vid=99c4e4e8-7c5e-431b-8c42-229f28584f2d","ios":"levelo://app?vid=99c4e4e8-7c5e-431b-8c42-229f28584f2d"},"vehicle_type_id":"4","last_reported":1718132797,"current_range_meters":18400,"station_id":"ce4bgt12rcd13ifvqcd0","pricing_plan_id":"cebpf4jnsgd1na2vs0mg"},{"bike_id":"b4a467c0-0653-44a7-8cb2-7abfc519de61","system_id":"levelo_inurba_marseille","lat":43.30891,"lon":5.37191,"is_reserved":false,"is_disabled":false,"rental_uris":{"android":"levelo://app?vid=b4a467c0-0653-44a7-8cb2-7abfc519de61","ios":"levelo://app?vid=b4a467c0-0653-44a7-8cb2-7abfc519de61"},"vehicle_type_id":"4","last_reported":1718132797,"current_range_meters":9600,"station_id":"ce4bguh2rcd13ifvqckg","pricing_plan_id":"cebpf4jnsgd1na2vs0mg"},{"bike_id":"001d03c9-f40e-44af-8262-b69211b13e21","system_id":"levelo_inurba_marseille","lat":43.309211,"lon":5.372318,"is_reserved":false,"is_disabled":false,"rental_uris":{"android":"levelo://app?vid=001d03c9-f40e-44af-8262-b69211b13e21","ios":"levelo://app?vid=001d03c9-f40e-44af-8262-b69211b13e21"},"vehicle_type_id":"4","last_reported":1718132797,"current_range_meters":0,"station_id":"ce4bgv12rcd13ifvqcp0","pricing_plan_id":"cebpf4jnsgd1na2vs0mg"},{"bike_id":"7d60e6d2-25b3-45ad-bd47-294098bbcf61","system_id":"levelo_inurba_marseille","lat":43.305989,"lon":5.37225,"is_reserved":false,"is_disabled":false,"rental_uris":{"android":"levelo://app?vid=7d60e6d2-25b3-45ad-bd47-294098bbcf61","ios":"levelo://app?vid=7d60e6d2-25b3-45ad-bd47-294098bbcf61"},"vehicle_type_id":"4","last_reported":1718132797,"current_range_meters":4000,"station_id":"ce4bgqh2rcd13ifvqc4g","pricing_plan_id":"cebpf4jnsgd1na2vs0mg"},{"bike_id":"8ee93c97-682b-40e0-bb21-6925ef1343ce","system_id":"levelo_inurba_marseille","lat":43.30537,"lon":5.367345,"is_reserved":false,"is_disabled":false,"rental_uris":{"android":"levelo://app?vid=8ee93c97-682b-40e0-bb21-6925ef1343ce","ios":"levelo://app?vid=8ee93c97-682b-40e0-bb21-6925ef1343ce"},"vehicle_type_id":"4","last_reported":1718132797,"current_range_meters":16800,"station_id":"ce4bgrp2rcd13ifvqc9g","pricing_plan_id":"cebpf4jnsgd1na2vs0mg"},{"bike_id":"58f7de4f-9578-4390-bc1b-f4bcb74c1a0a","system_id":"levelo_inurba_marseille","lat":43.305368,"lon":5.367343,"is_reserved":false,"is_disabled":false,"rental_uris":{"android":"levelo://app?vid=58f7de4f-9578-4390-bc1b-f4bcb74c1a0a","ios":"levelo://app?vid=58f7de4f-9578-4390-bc1b-f4bcb74c1a0a"},"vehicle_type_id":"4","last_reported":1718132797,"current_range_meters":22800,"station_id":"ce4bgrp2rcd13ifvqc9g","pricing_plan_id":"cebpf4jnsgd1na2vs0mg"},{"bike_id":"4c48491b-2ec6-42c7-8803-21a1796a6c22","system_id":"levelo_inurba_marseille","lat":43.314811,"lon":5.373104,"is_reserved":false,"is_disabled":false,"rental_uris":{"android":"levelo://app?vid=4c48491b-2ec6-42c7-8803-21a1796a6c22","ios":"levelo://app?vid=4c48491b-2ec6-42c7-8803-21a1796a6c22"},"vehicle_type_id":"4","last_reported":1718132797,"current_range_meters":14800,"station_id":"ce4bgt12rcd13ifvqcd0","pricing_plan_id":"cebpf4jnsgd1na2vs0mg"},{"bike_id":"81e5e0ef-0a50-46c8-87d2-2b0356c8b447","system_id":"levelo_inurba_marseille","lat":43.305989,"lon":5.37225,"is_reserved":false,"is_disabled":false,"rental_uris":{"android":"levelo://app?vid=81e5e0ef-0a50-46c8-87d2-2b0356c8b447","ios":"levelo://app?vid=81e5e0ef-0a50-46c8-87d2-2b0356c8b447"},"vehicle_type_id":"4","last_reported":1718132797,"current_range_meters":21600,"station_id":"ce4bgqh2rcd13ifvqc4g","pricing_plan_id":"cebpf4jnsgd1na2vs0mg"},{"bike_id":"aa547e3e-b596-4f74-9cbd-8f374471578a","system_id":"levelo_inurba_marseille","lat":43.305989,"lon":5.37225,"is_reserved":false,"is_disabled":false,"rental_uris":{"android":"levelo://app?vid=aa547e3e-b596-4f74-9cbd-8f374471578a","ios":"levelo://app?vid=aa547e3e-b596-4f74-9cbd-8f374471578a"},"vehicle_type_id":"4","last_reported":1718132797,"current_range_meters":4800,"station_id":"ce4bgqh2rcd13ifvqc4g","pricing_plan_id":"cebpf4jnsgd1na2vs0mg"},{"bike_id":"f87b988a-7080-4643-bb65-d6d9604e6231","system_id":"levelo_inurba_marseille","lat":43.311125,"lon":5.377624,"is_reserved":false,"is_disabled":false,"rental_uris":{"android":"levelo://app?vid=f87b988a-7080-4643-bb65-d6d9604e6231","ios":"levelo://app?vid=f87b988a-7080-4643-bb65-d6d9604e6231"},"vehicle_type_id":"4","last_reported":1718132797,"current_range_meters":6400,"station_id":"ce4bgt92rcd13ifvqcg0","pricing_plan_id":"cebpf4jnsgd1na2vs0mg"},{"bike_id":"599d5fde-279e-42b1-94fe-f11e2c3744d9","system_id":"levelo_inurba_marseille","lat":43.31119,"lon":5.377698,"is_reserved":false,"is_disabled":false,"rental_uris":{"android":"levelo://app?vid=599d5fde-279e-42b1-94fe-f11e2c3744d9","ios":"levelo://app?vid=599d5fde-279e-42b1-94fe-f11e2c3744d9"},"vehicle_type_id":"4","last_reported":1718132797,"current_range_meters":0,"station_id":"ce4bgt92rcd13ifvqcg0","pricing_plan_id":"cebpf4jnsgd1na2vs0mg"},{"bike_id":"cbb75c30-3747-4eaf-8df2-00f8d89b29a0","system_id":"levelo_inurba_marseille","lat":43.305989,"lon":5.37225,"is_reserved":false,"is_disabled":false,"rental_uris":{"android":"levelo://app?vid=cbb75c30-3747-4eaf-8df2-00f8d89b29a0","ios":"levelo://app?vid=cbb75c30-3747-4eaf-8df2-00f8d89b29a0"},"vehicle_type_id":"4","last_reported":1718132797,"current_range_meters":12000,"station_id":"ce4bgqh2rcd13ifvqc4g","pricing_plan_id":"cebpf4jnsgd1na2vs0mg"},{"bike_id":"565cc097-394e-4adb-8d0b-b5e2015b88a0","system_id":"levelo_inurba_marseille","lat":43.307945,"lon":5.376487,"is_reserved":false,"is_disabled":false,"rental_uris":{"android":"levelo://app?vid=565cc097-394e-4adb-8d0b-b5e2015b88a0","ios":"levelo://app?vid=565cc097-394e-4adb-8d0b-b5e2015b88a0"},"vehicle_type_id":"4","last_reported":1718132797,"current_range_meters":16400,"station_id":"ce4bgv92rcd13ifvqcq0","pricing_plan_id":"cebpf4jnsgd1na2vs0mg"},{"bike_id":"bfbde8bf-79ab-40c4-8c09-866d79143791","system_id":"levelo_inurba_marseille","lat":43.307945,"lon":5.376487,"is_reserved":false,"is_disabled":false,"rental_uris":{"android":"levelo://app?vid=bfbde8bf-79ab-40c4-8c09-866d79143791","ios":"levelo://app?vid=bfbde8bf-79ab-40c4-8c09-866d79143791"},"vehicle_type_id":"4","last_reported":1718132797,"current_range_meters":0,"station_id":"ce4bgv92rcd13ifvqcq0","pricing_plan_id":"cebpf4jnsgd1na2vs0mg"},{"bike_id":"212223b4-2416-4225-9533-c021508a88e0","system_id":"levelo_inurba_marseille","lat":43.307945,"lon":5.376487,"is_reserved":false,"is_disabled":false,"rental_uris":{"android":"levelo://app?vid=212223b4-2416-4225-9533-c021508a88e0","ios":"levelo://app?vid=212223b4-2416-4225-9533-c021508a88e0"},"vehicle_type_id":"4","last_reported":1718132797,"current_range_meters":20400,"station_id":"ce4bgv92rcd13ifvqcq0","pricing_plan_id":"cebpf4jnsgd1na2vs0mg"},{"bike_id":"f92c20c6-1c06-48d9-be15-5ebe4d495e3e","system_id":"levelo_inurba_marseille","lat":43.303241,"lon":5.366091,"is_reserved":false,"is_disabled":false,"rental_uris":{"android":"levelo://app?vid=f92c20c6-1c06-48d9-be15-5ebe4d495e3e","ios":"levelo://app?vid=f92c20c6-1c06-48d9-be15-5ebe4d495e3e"},"vehicle_type_id":"4","last_reported":1718132797,"current_range_meters":0,"station_id":"","pricing_plan_id":"cebpf4jnsgd1na2vs0mg"},{"bike_id":"02220b19-e4e1-43d5-8b34-1752a4fe5564","system_id":"levelo_inurba_marseille","lat":43.303046,"lon":5.368981,"is_reserved":false,"is_disabled":false,"rental_uris":{"android":"levelo://app?vid=02220b19-e4e1-43d5-8b34-1752a4fe5564","ios":"levelo://app?vid=02220b19-e4e1-43d5-8b34-1752a4fe5564"},"vehicle_type_id":"4","last_reported":1718132797,"current_range_meters":9200,"station_id":"ce4bgqh2rcd13ifvqc5g","pricing_plan_id":"cebpf4jnsgd1na2vs0mg"},{"bike_id":"2b243fb8-e3dc-48bc-b92d-b44ae9af97ff","system_id":"levelo_inurba_marseille","lat":43.308012,"lon":5.381511,"is_reserved":false,"is_disabled":false,"rental_uris":{"android":"levelo://app?vid=2b243fb8-e3dc-48bc-b92d-b44ae9af97ff","ios":"levelo://app?vid=2b243fb8-e3dc-48bc-b92d-b44ae9af97ff"},"vehicle_type_id":"4","last_reported":1718132797,"current_range_meters":5200,"station_id":"ce4bgt12rcd13ifvqce0","pricing_plan_id":"cebpf4jnsgd1na2vs0mg"},{"bike_id":"f5b65de9-dc74-49cc-870f-ef6a5bfa6b8b","system_id":"levelo_inurba_marseille","lat":43.324771,"lon":5.36557,"is_reserved":false,"is_disabled":false,"rental_uris":{"android":"levelo://app?vid=f5b65de9-dc74-49cc-870f-ef6a5bfa6b8b","ios":"levelo://app?vid=f5b65de9-dc74-49cc-870f-ef6a5bfa6b8b"},"vehicle_type_id":"4","last_reported":1718132797,"current_range_meters":5600,"station_id":"ce4bhs12rcd13ifvqhvg","pricing_plan_id":"cebpf4jnsgd1na2vs0mg"},{"bike_id":"5e948987-e62f-4415-833f-3039c8bf58ec","system_id":"levelo_inurba_marseille","lat":43.314294,"lon":5.383427,"is_reserved":false,"is_disabled":false,"rental_uris":{"android":"levelo://app?vid=5e948987-e62f-4415-833f-3039c8bf58ec","ios":"levelo://app?vid=5e948987-e62f-4415-833f-3039c8bf58ec"},"vehicle_type_id":"4","last_reported":1718132797,"current_range_meters":13600,"station_id":"","pricing_plan_id":"cebpf4jnsgd1na2vs0mg"},{"bike_id":"48fd896e-3eb7-4d38-b5c5-32e4c665f245","system_id":"levelo_inurba_marseille","lat":43.324771,"lon":5.36557,"is_reserved":false,"is_disabled":false,"rental_uris":{"android":"levelo://app?vid=48fd896e-3eb7-4d38-b5c5-32e4c665f245","ios":"levelo://app?vid=48fd896e-3eb7-4d38-b5c5-32e4c665f245"},"vehicle_type_id":"4","last_reported":1718132797,"current_range_meters":14800,"station_id":"ce4bhs12rcd13ifvqhvg","pricing_plan_id":"cebpf4jnsgd1na2vs0mg"},{"bike_id":"601aa9f6-6d76-4b6d-b200-0c1bb40216db","system_id":"levelo_inurba_marseille","lat":43.310804,"lon":5.38359,"is_reserved":false,"is_disabled":false,"rental_uris":{"android":"levelo://app?vid=601aa9f6-6d76-4b6d-b200-0c1bb40216db","ios":"levelo://app?vid=601aa9f6-6d76-4b6d-b200-0c1bb40216db"},"vehicle_type_id":"4","last_reported":1718132797,"current_range_meters":9200,"station_id":"ce4bgv92rcd13ifvqcr0","pricing_plan_id":"cebpf4jnsgd1na2vs0mg"},{"bike_id":"a60c969d-79e4-4984-a3d8-55ee653588c4","system_id":"levelo_inurba_marseille","lat":43.310804,"lon":5.38359,"is_reserved":false,"is_disabled":false,"rental_uris":{"android":"levelo://app?vid=a60c969d-79e4-4984-a3d8-55ee653588c4","ios":"levelo://app?vid=a60c969d-79e4-4984-a3d8-55ee653588c4"},"vehicle_type_id":"4","last_reported":1718132797,"current_range_meters":400,"station_id":"ce4bgv92rcd13ifvqcr0","pricing_plan_id":"cebpf4jnsgd1na2vs0mg"},{"bike_id":"f444f805-a1e9-45f8-ade1-e3d918b8a80b","system_id":"levelo_inurba_marseille","lat":43.310804,"lon":5.38359,"is_reserved":false,"is_disabled":false,"rental_uris":{"android":"levelo://app?vid=f444f805-a1e9-45f8-ade1-e3d918b8a80b","ios":"levelo://app?vid=f444f805-a1e9-45f8-ade1-e3d918b8a80b"},"vehicle_type_id":"4","last_reported":1718132797,"current_range_meters":0,"station_id":"ce4bgv92rcd13ifvqcr0","pricing_plan_id":"cebpf4jnsgd1na2vs0mg"},{"bike_id":"dd498d74-9853-4f0d-9e3a-f2d940906179","system_id":"levelo_inurba_marseille","lat":43.301429,"lon":5.37413,"is_reserved":false,"is_disabled":false,"rental_uris":{"android":"levelo://app?vid=dd498d74-9853-4f0d-9e3a-f2d940906179","ios":"levelo://app?vid=dd498d74-9853-4f0d-9e3a-f2d940906179"},"vehicle_type_id":"4","last_reported":1718132797,"current_range_meters":10000,"station_id":"ce4bgs92rcd13ifvqcc0","pricing_plan_id":"cebpf4jnsgd1na2vs0mg"},{"bike_id":"796b4b5e-08af-428e-9150-4f63d1569118","system_id":"levelo_inurba_marseille","lat":43.30143,"lon":5.37413,"is_reserved":false,"is_disabled":false,"rental_uris":{"android":"levelo://app?vid=796b4b5e-08af-428e-9150-4f63d1569118","ios":"levelo://app?vid=796b4b5e-08af-428e-9150-4f63d1569118"},"vehicle_type_id":"4","last_reported":1718132797,"current_range_meters":13200,"station_id":"ce4bgs92rcd13ifvqcc0","pricing_plan_id":"cebpf4jnsgd1na2vs0mg"},{"bike_id":"d0a68198-ab07-40b4-a9d8-e0d350383f80","system_id":"levelo_inurba_marseille","lat":43.30143,"lon":5.37413,"is_reserved":false,"is_disabled":false,"rental_uris":{"android":"levelo://app?vid=d0a68198-ab07-40b4-a9d8-e0d350383f80","ios":"levelo://app?vid=d0a68198-ab07-40b4-a9d8-e0d350383f80"},"vehicle_type_id":"4","last_reported":1718132797,"current_range_meters":0,"station_id":"ce4bgs92rcd13ifvqcc0","pricing_plan_id":"cebpf4jnsgd1na2vs0mg"},{"bike_id":"c7d3b741-38f9-4ea9-bcae-a9fc53686980","system_id":"levelo_inurba_marseille","lat":43.319935,"lon":5.381699,"is_reserved":false,"is_disabled":false,"rental_uris":{"android":"levelo://app?vid=c7d3b741-38f9-4ea9-bcae-a9fc53686980","ios":"levelo://app?vid=c7d3b741-38f9-4ea9-bcae-a9fc53686980"},"vehicle_type_id":"4","last_reported":1718132797,"current_range_meters":0,"station_id":"ce4bhr12rcd13ifvqhpg","pricing_plan_id":"cebpf4jnsgd1na2vs0mg"},{"bike_id":"ac1ae6bb-5da2-4a4e-88fe-7cd01d1e91ea","system_id":"levelo_inurba_marseille","lat":43.32002,"lon":5.38155,"is_reserved":false,"is_disabled":false,"rental_uris":{"android":"levelo://app?vid=ac1ae6bb-5da2-4a4e-88fe-7cd01d1e91ea","ios":"levelo://app?vid=ac1ae6bb-5da2-4a4e-88fe-7cd01d1e91ea"},"vehicle_type_id":"4","last_reported":1718132797,"current_range_meters":25600,"station_id":"ce4bhr12rcd13ifvqhpg","pricing_plan_id":"cebpf4jnsgd1na2vs0mg"},{"bike_id":"f01b3217-54fe-4a3f-bc07-e985cb83c074","system_id":"levelo_inurba_marseille","lat":43.319935,"lon":5.381699,"is_reserved":false,"is_disabled":false,"rental_uris":{"android":"levelo://app?vid=f01b3217-54fe-4a3f-bc07-e985cb83c074","ios":"levelo://app?vid=f01b3217-54fe-4a3f-bc07-e985cb83c074"},"vehicle_type_id":"4","last_reported":1718132797,"current_range_meters":16400,"station_id":"ce4bhr12rcd13ifvqhpg","pricing_plan_id":"cebpf4jnsgd1na2vs0mg"},{"bike_id":"3db3a2ec-0e0d-434e-bf04-6781c4e014f6","system_id":"levelo_inurba_marseille","lat":43.313571,"lon":5.384829,"is_reserved":false,"is_disabled":false,"rental_uris":{"android":"levelo://app?vid=3db3a2ec-0e0d-434e-bf04-6781c4e014f6","ios":"levelo://app?vid=3db3a2ec-0e0d-434e-bf04-6781c4e014f6"},"vehicle_type_id":"4","last_reported":1718132797,"current_range_meters":30800,"station_id":"ce4bgt92rcd13ifvqcf0","pricing_plan_id":"cebpf4jnsgd1na2vs0mg"},{"bike_id":"3e57d502-324a-4e66-956b-4384c1f17104","system_id":"levelo_inurba_marseille","lat":43.313585,"lon":5.385022,"is_reserved":false,"is_disabled":false,"rental_uris":{"android":"levelo://app?vid=3e57d502-324a-4e66-956b-4384c1f17104","ios":"levelo://app?vid=3e57d502-324a-4e66-956b-4384c1f17104"},"vehicle_type_id":"4","last_reported":1718132797,"current_range_meters":0,"station_id":"ce4bgt92rcd13ifvqcf0","pricing_plan_id":"cebpf4jnsgd1na2vs0mg"},{"bike_id":"c9fbac4f-da66-4525-8bdb-7bc6742c5e68","system_id":"levelo_inurba_marseille","lat":43.299724,"lon":5.371829,"is_reserved":false,"is_disabled":false,"rental_uris":{"android":"levelo://app?vid=c9fbac4f-da66-4525-8bdb-7bc6742c5e68","ios":"levelo://app?vid=c9fbac4f-da66-4525-8bdb-7bc6742c5e68"},"vehicle_type_id":"4","last_reported":1718132797,"current_range_meters":0,"station_id":"ce4bgr92rcd13ifvqc7g","pricing_plan_id":"cebpf4jnsgd1na2vs0mg"},{"bike_id":"63a6bf20-6c85-46c9-9b6f-8a1a2261c2b5","system_id":"levelo_inurba_marseille","lat":43.299355,"lon":5.371198,"is_reserved":false,"is_disabled":false,"rental_uris":{"android":"levelo://app?vid=63a6bf20-6c85-46c9-9b6f-8a1a2261c2b5","ios":"levelo://app?vid=63a6bf20-6c85-46c9-9b6f-8a1a2261c2b5"},"vehicle_type_id":"4","last_reported":1718132797,"current_range_meters":0,"station_id":"","pricing_plan_id":"cebpf4jnsgd1na2vs0mg"},{"bike_id":"01ca70b6-4e2c-42cb-9aed-a8b80d5ea29c","system_id":"levelo_inurba_marseille","lat":43.30533,"lon":5.383695,"is_reserved":false,"is_disabled":false,"rental_uris":{"android":"levelo://app?vid=01ca70b6-4e2c-42cb-9aed-a8b80d5ea29c","ios":"levelo://app?vid=01ca70b6-4e2c-42cb-9aed-a8b80d5ea29c"},"vehicle_type_id":"4","last_reported":1718132797,"current_range_meters":7200,"station_id":"ce4bgg92rcd13ifvqb30","pricing_plan_id":"cebpf4jnsgd1na2vs0mg"},{"bike_id":"7fbfaf3d-7fae-4ec6-a5e1-149292a86d6b","system_id":"levelo_inurba_marseille","lat":43.298433,"lon":5.362774,"is_reserved":false,"is_disabled":false,"rental_uris":{"android":"levelo://app?vid=7fbfaf3d-7fae-4ec6-a5e1-149292a86d6b","ios":"levelo://app?vid=7fbfaf3d-7fae-4ec6-a5e1-149292a86d6b"},"vehicle_type_id":"4","last_reported":1718132797,"current_range_meters":8400,"station_id":"ce4bgpp2rcd13ifvqc3g","pricing_plan_id":"cebpf4jnsgd1na2vs0mg"},{"bike_id":"2cd9aece-e3c7-4a0a-9085-cf65b3b9a14c","system_id":"levelo_inurba_marseille","lat":43.298433,"lon":5.362774,"is_reserved":false,"is_disabled":false,"rental_uris":{"android":"levelo://app?vid=2cd9aece-e3c7-4a0a-9085-cf65b3b9a14c","ios":"levelo://app?vid=2cd9aece-e3c7-4a0a-9085-cf65b3b9a14c"},"vehicle_type_id":"4","last_reported":1718132797,"current_range_meters":16400,"station_id":"ce4bgpp2rcd13ifvqc3g","pricing_plan_id":"cebpf4jnsgd1na2vs0mg"},{"bike_id":"76487c6f-0e68-418a-8b2b-0f69df822b6b","system_id":"levelo_inurba_marseille","lat":43.322577,"lon":5.381761,"is_reserved":false,"is_disabled":false,"rental_uris":{"android":"levelo://app?vid=76487c6f-0e68-418a-8b2b-0f69df822b6b","ios":"levelo://app?vid=76487c6f-0e68-418a-8b2b-0f69df822b6b"},"vehicle_type_id":"4","last_reported":1718132797,"current_range_meters":1200,"station_id":"ce4bhr12rcd13ifvqhqg","pricing_plan_id":"cebpf4jnsgd1na2vs0mg"},{"bike_id":"44633568-3934-497b-8674-62af8ef7d3fb","system_id":"levelo_inurba_marseille","lat":43.307843,"lon":5.385835,"is_reserved":false,"is_disabled":false,"rental_uris":{"android":"levelo://app?vid=44633568-3934-497b-8674-62af8ef7d3fb","ios":"levelo://app?vid=44633568-3934-497b-8674-62af8ef7d3fb"},"vehicle_type_id":"4","last_reported":1718132797,"current_range_meters":19600,"station_id":"","pricing_plan_id":"cebpf4jnsgd1na2vs0mg"},{"bike_id":"81eeba27-e5b9-489f-a95c-95e1195e0853","system_id":"levelo_inurba_marseille","lat":43.299243,"lon":5.374807,"is_reserved":false,"is_disabled":false,"rental_uris":{"android":"levelo://app?vid=81eeba27-e5b9-489f-a95c-95e1195e0853","ios":"levelo://app?vid=81eeba27-e5b9-489f-a95c-95e1195e0853"},"vehicle_type_id":"4","last_reported":1718132797,"current_range_meters":20800,"station_id":"ce4bgjh2rcd13ifvqbg0","pricing_plan_id":"cebpf4jnsgd1na2vs0mg"},{"bike_id":"0aadc67d-4f23-419f-90e8-bd7d82fb7aa5","system_id":"levelo_inurba_marseille","lat":43.299243,"lon":5.37481,"is_reserved":false,"is_disabled":false,"rental_uris":{"android":"levelo://app?vid=0aadc67d-4f23-419f-90e8-bd7d82fb7aa5","ios":"levelo://app?vid=0aadc67d-4f23-419f-90e8-bd7d82fb7aa5"},"vehicle_type_id":"4","last_reported":1718132797,"current_range_meters":11200,"station_id":"ce4bgjh2rcd13ifvqbg0","pricing_plan_id":"cebpf4jnsgd1na2vs0mg"},{"bike_id":"ded928f6-df41-4c19-927c-520012279d10","system_id":"levelo_inurba_marseille","lat":43.299243,"lon":5.37481,"is_reserved":false,"is_disabled":false,"rental_uris":{"android":"levelo://app?vid=ded928f6-df41-4c19-927c-520012279d10","ios":"levelo://app?vid=ded928f6-df41-4c19-927c-520012279d10"},"vehicle_type_id":"4","last_reported":1718132797,"current_range_meters":10000,"station_id":"ce4bgjh2rcd13ifvqbg0","pricing_plan_id":"cebpf4jnsgd1na2vs0mg"},{"bike_id":"e064325f-4d66-46f4-afa1-dbba5ef1549f","system_id":"levelo_inurba_marseille","lat":43.31182,"lon":5.38719,"is_reserved":false,"is_disabled":false,"rental_uris":{"android":"levelo://app?vid=e064325f-4d66-46f4-afa1-dbba5ef1549f","ios":"levelo://app?vid=e064325f-4d66-46f4-afa1-dbba5ef1549f"},"vehicle_type_id":"4","last_reported":1718132797,"current_range_meters":0,"station_id":"ce4bgv12rcd13ifvqcp0","pricing_plan_id":"cebpf4jnsgd1na2vs0mg"},{"bike_id":"7d05a583-f09d-4631-9f60-fcaee87f13e4","system_id":"levelo_inurba_marseille","lat":43.311722,"lon":5.387247,"is_reserved":false,"is_disabled":false,"rental_uris":{"android":"levelo://app?vid=7d05a583-f09d-4631-9f60-fcaee87f13e4","ios":"levelo://app?vid=7d05a583-f09d-4631-9f60-fcaee87f13e4"},"vehicle_type_id":"4","last_reported":1718132797,"current_range_meters":13200,"station_id":"ce4bgv12rcd13ifvqcp0","pricing_plan_id":"cebpf4jnsgd1na2vs0mg"},{"bike_id":"8d89eb36-95f8-4aca-984c-a8a27a697b7c","system_id":"levelo_inurba_marseille","lat":43.302784,"lon":5.377158,"is_reserved":false,"is_disabled":false,"rental_uris":{"android":"levelo://app?vid=8d89eb36-95f8-4aca-984c-a8a27a697b7c","ios":"levelo://app?vid=8d89eb36-95f8-4aca-984c-a8a27a697b7c"},"vehicle_type_id":"4","last_reported":1718132797,"current_range_meters":12400,"station_id":"ce4bguh2rcd13ifvqcj0","pricing_plan_id":"cebpf4jnsgd1na2vs0mg"},{"bike_id":"599b6b50-e579-486a-bbb7-a0ad9773bb9d","system_id":"levelo_inurba_marseille","lat":43.32288,"lon":5.38266,"is_reserved":false,"is_disabled":false,"rental_uris":{"android":"levelo://app?vid=599b6b50-e579-486a-bbb7-a0ad9773bb9d","ios":"levelo://app?vid=599b6b50-e579-486a-bbb7-a0ad9773bb9d"},"vehicle_type_id":"4","last_reported":1718132797,"current_range_meters":7200,"station_id":"ce4bhr12rcd13ifvqhqg","pricing_plan_id":"cebpf4jnsgd1na2vs0mg"},{"bike_id":"68d140ca-e192-4b7e-8348-a3928714c2c0","system_id":"levelo_inurba_marseille","lat":43.322872,"lon":5.382756,"is_reserved":false,"is_disabled":false,"rental_uris":{"android":"levelo://app?vid=68d140ca-e192-4b7e-8348-a3928714c2c0","ios":"levelo://app?vid=68d140ca-e192-4b7e-8348-a3928714c2c0"},"vehicle_type_id":"4","last_reported":1718132797,"current_range_meters":26800,"station_id":"ce4bhr12rcd13ifvqhqg","pricing_plan_id":"cebpf4jnsgd1na2vs0mg"},{"bike_id":"3bcdabb7-edf0-4e3b-9fb8-d1c81f1497cc","system_id":"levelo_inurba_marseille","lat":43.32286,"lon":5.38278,"is_reserved":false,"is_disabled":false,"rental_uris":{"android":"levelo://app?vid=3bcdabb7-edf0-4e3b-9fb8-d1c81f1497cc","ios":"levelo://app?vid=3bcdabb7-edf0-4e3b-9fb8-d1c81f1497cc"},"vehicle_type_id":"4","last_reported":1718132797,"current_range_meters":0,"station_id":"ce4bhr12rcd13ifvqhqg","pricing_plan_id":"cebpf4jnsgd1na2vs0mg"},{"bike_id":"92555f54-0797-4550-838f-0f17d1254d07","system_id":"levelo_inurba_marseille","lat":43.322872,"lon":5.382756,"is_reserved":false,"is_disabled":false,"rental_uris":{"android":"levelo://app?vid=92555f54-0797-4550-838f-0f17d1254d07","ios":"levelo://app?vid=92555f54-0797-4550-838f-0f17d1254d07"},"vehicle_type_id":"4","last_reported":1718132797,"current_range_meters":31200,"station_id":"ce4bhr12rcd13ifvqhqg","pricing_plan_id":"cebpf4jnsgd1na2vs0mg"},{"bike_id":"631e48be-2f23-4b91-8fd6-161a880883ce","system_id":"levelo_inurba_marseille","lat":43.322872,"lon":5.382756,"is_reserved":false,"is_disabled":false,"rental_uris":{"android":"levelo://app?vid=631e48be-2f23-4b91-8fd6-161a880883ce","ios":"levelo://app?vid=631e48be-2f23-4b91-8fd6-161a880883ce"},"vehicle_type_id":"4","last_reported":1718132797,"current_range_meters":9200,"station_id":"ce4bhr12rcd13ifvqhqg","pricing_plan_id":"cebpf4jnsgd1na2vs0mg"},{"bike_id":"c20c6e3c-880b-4268-a532-a320ac0e4934","system_id":"levelo_inurba_marseille","lat":43.297163,"lon":5.365866,"is_reserved":false,"is_disabled":false,"rental_uris":{"android":"levelo://app?vid=c20c6e3c-880b-4268-a532-a320ac0e4934","ios":"levelo://app?vid=c20c6e3c-880b-4268-a532-a320ac0e4934"},"vehicle_type_id":"4","last_reported":1718132797,"current_range_meters":1200,"station_id":"ce4bgn12rcd13ifvqbt0","pricing_plan_id":"cebpf4jnsgd1na2vs0mg"},{"bike_id":"ed2c5571-99a7-4e57-a4c1-af1a1b8022d0","system_id":"levelo_inurba_marseille","lat":43.2966,"lon":5.37471,"is_reserved":false,"is_disabled":false,"rental_uris":{"android":"levelo://app?vid=ed2c5571-99a7-4e57-a4c1-af1a1b8022d0","ios":"levelo://app?vid=ed2c5571-99a7-4e57-a4c1-af1a1b8022d0"},"vehicle_type_id":"4","last_reported":1718132797,"current_range_meters":10800,"station_id":"","pricing_plan_id":"cebpf4jnsgd1na2vs0mg"},{"bike_id":"b7b8d598-b4fc-49d0-a2ad-1aca9effde74","system_id":"levelo_inurba_marseille","lat":43.296935,"lon":5.376544,"is_reserved":false,"is_disabled":false,"rental_uris":{"android":"levelo://app?vid=b7b8d598-b4fc-49d0-a2ad-1aca9effde74","ios":"levelo://app?vid=b7b8d598-b4fc-49d0-a2ad-1aca9effde74"},"vehicle_type_id":"4","last_reported":1718132797,"current_range_meters":11200,"station_id":"ce4bgkh2rcd13ifvqbl0","pricing_plan_id":"cebpf4jnsgd1na2vs0mg"},{"bike_id":"6b0f8b81-7ecf-41ad-b00f-493ecab20ca6","system_id":"levelo_inurba_marseille","lat":43.309399,"lon":5.390559,"is_reserved":false,"is_disabled":false,"rental_uris":{"android":"levelo://app?vid=6b0f8b81-7ecf-41ad-b00f-493ecab20ca6","ios":"levelo://app?vid=6b0f8b81-7ecf-41ad-b00f-493ecab20ca6"},"vehicle_type_id":"4","last_reported":1718132797,"current_range_meters":0,"station_id":"ce4bgup2rcd13ifvqco0","pricing_plan_id":"cebpf4jnsgd1na2vs0mg"},{"bike_id":"e2ab7f4a-4d51-4d9b-8299-789aeaaddf75","system_id":"levelo_inurba_marseille","lat":43.317557,"lon":5.390173,"is_reserved":false,"is_disabled":false,"rental_uris":{"android":"levelo://app?vid=e2ab7f4a-4d51-4d9b-8299-789aeaaddf75","ios":"levelo://app?vid=e2ab7f4a-4d51-4d9b-8299-789aeaaddf75"},"vehicle_type_id":"4","last_reported":1718132797,"current_range_meters":28000,"station_id":"ce4bhqp2rcd13ifvqhng","pricing_plan_id":"cebpf4jnsgd1na2vs0mg"},{"bike_id":"b62276b2-72bf-4556-908c-84a1d704f063","system_id":"levelo_inurba_marseille","lat":43.317557,"lon":5.390173,"is_reserved":false,"is_disabled":false,"rental_uris":{"android":"levelo://app?vid=b62276b2-72bf-4556-908c-84a1d704f063","ios":"levelo://app?vid=b62276b2-72bf-4556-908c-84a1d704f063"},"vehicle_type_id":"4","last_reported":1718132797,"current_range_meters":9600,"station_id":"ce4bhqp2rcd13ifvqhng","pricing_plan_id":"cebpf4jnsgd1na2vs0mg"},{"bike_id":"afe5ba0e-748c-48e1-b610-d0584b74e886","system_id":"levelo_inurba_marseille","lat":43.317557,"lon":5.390173,"is_reserved":false,"is_disabled":false,"rental_uris":{"android":"levelo://app?vid=afe5ba0e-748c-48e1-b610-d0584b74e886","ios":"levelo://app?vid=afe5ba0e-748c-48e1-b610-d0584b74e886"},"vehicle_type_id":"4","last_reported":1718132797,"current_range_meters":17600,"station_id":"ce4bhqp2rcd13ifvqhng","pricing_plan_id":"cebpf4jnsgd1na2vs0mg"},{"bike_id":"926fd4f1-a2df-4c4b-a547-c3a4b238c342","system_id":"levelo_inurba_marseille","lat":43.31756,"lon":5.39019,"is_reserved":false,"is_disabled":false,"rental_uris":{"android":"levelo://app?vid=926fd4f1-a2df-4c4b-a547-c3a4b238c342","ios":"levelo://app?vid=926fd4f1-a2df-4c4b-a547-c3a4b238c342"},"vehicle_type_id":"4","last_reported":1718132797,"current_range_meters":3200,"station_id":"ce4bhqp2rcd13ifvqhng","pricing_plan_id":"cebpf4jnsgd1na2vs0mg"},{"bike_id":"513e687d-47ce-4267-8d1b-e207c99321bf","system_id":"levelo_inurba_marseille","lat":43.317557,"lon":5.390173,"is_reserved":false,"is_disabled":false,"rental_uris":{"android":"levelo://app?vid=513e687d-47ce-4267-8d1b-e207c99321bf","ios":"levelo://app?vid=513e687d-47ce-4267-8d1b-e207c99321bf"},"vehicle_type_id":"4","last_reported":1718132797,"current_range_meters":5600,"station_id":"ce4bhqp2rcd13ifvqhng","pricing_plan_id":"cebpf4jnsgd1na2vs0mg"},{"bike_id":"a2a4d24f-c906-47f9-91d2-1762c9ef98d3","system_id":"levelo_inurba_marseille","lat":43.298037,"lon":5.381066,"is_reserved":false,"is_disabled":false,"rental_uris":{"android":"levelo://app?vid=a2a4d24f-c906-47f9-91d2-1762c9ef98d3","ios":"levelo://app?vid=a2a4d24f-c906-47f9-91d2-1762c9ef98d3"},"vehicle_type_id":"4","last_reported":1718132797,"current_range_meters":3600,"station_id":"ce4bgip2rcd13ifvqbb0","pricing_plan_id":"cebpf4jnsgd1na2vs0mg"},{"bike_id":"dc909075-c3f4-4f5b-b1d2-76b1676c6dc5","system_id":"levelo_inurba_marseille","lat":43.295748,"lon":5.37522,"is_reserved":false,"is_disabled":false,"rental_uris":{"android":"levelo://app?vid=dc909075-c3f4-4f5b-b1d2-76b1676c6dc5","ios":"levelo://app?vid=dc909075-c3f4-4f5b-b1d2-76b1676c6dc5"},"vehicle_type_id":"4","last_reported":1718132797,"current_range_meters":28000,"station_id":"ce4bgh92rcd13ifvqb50","pricing_plan_id":"cebpf4jnsgd1na2vs0mg"},{"bike_id":"584b6214-ad3a-4dec-b045-def01e75a04a","system_id":"levelo_inurba_marseille","lat":43.296263,"lon":5.377094,"is_reserved":false,"is_disabled":false,"rental_uris":{"android":"levelo://app?vid=584b6214-ad3a-4dec-b045-def01e75a04a","ios":"levelo://app?vid=584b6214-ad3a-4dec-b045-def01e75a04a"},"vehicle_type_id":"4","last_reported":1718132797,"current_range_meters":29200,"station_id":"ce4bgi92rcd13ifvqb90","pricing_plan_id":"cebpf4jnsgd1na2vs0mg"},{"bike_id":"bfda20ce-5914-4be4-9650-85d8a577b2a8","system_id":"levelo_inurba_marseille","lat":43.304249,"lon":5.388929,"is_reserved":false,"is_disabled":false,"rental_uris":{"android":"levelo://app?vid=bfda20ce-5914-4be4-9650-85d8a577b2a8","ios":"levelo://app?vid=bfda20ce-5914-4be4-9650-85d8a577b2a8"},"vehicle_type_id":"4","last_reported":1718132797,"current_range_meters":0,"station_id":"ce4bgk12rcd13ifvqbi0","pricing_plan_id":"cebpf4jnsgd1na2vs0mg"},{"bike_id":"367ee5b8-79e8-4bac-b5fc-127768207a5e","system_id":"levelo_inurba_marseille","lat":43.296263,"lon":5.377094,"is_reserved":false,"is_disabled":false,"rental_uris":{"android":"levelo://app?vid=367ee5b8-79e8-4bac-b5fc-127768207a5e","ios":"levelo://app?vid=367ee5b8-79e8-4bac-b5fc-127768207a5e"},"vehicle_type_id":"4","last_reported":1718132797,"current_range_meters":0,"station_id":"ce4bgi92rcd13ifvqb90","pricing_plan_id":"cebpf4jnsgd1na2vs0mg"},{"bike_id":"692c0ba5-3a80-421f-87c5-3e8a99d02944","system_id":"levelo_inurba_marseille","lat":43.296263,"lon":5.377094,"is_reserved":false,"is_disabled":false,"rental_uris":{"android":"levelo://app?vid=692c0ba5-3a80-421f-87c5-3e8a99d02944","ios":"levelo://app?vid=692c0ba5-3a80-421f-87c5-3e8a99d02944"},"vehicle_type_id":"4","last_reported":1718132797,"current_range_meters":16000,"station_id":"ce4bgi92rcd13ifvqb90","pricing_plan_id":"cebpf4jnsgd1na2vs0mg"},{"bike_id":"6469e72c-8658-4801-899e-d9933f122a8d","system_id":"levelo_inurba_marseille","lat":43.296148,"lon":5.377195,"is_reserved":false,"is_disabled":false,"rental_uris":{"android":"levelo://app?vid=6469e72c-8658-4801-899e-d9933f122a8d","ios":"levelo://app?vid=6469e72c-8658-4801-899e-d9933f122a8d"},"vehicle_type_id":"4","last_reported":1718132797,"current_range_meters":0,"station_id":"ce4bgi92rcd13ifvqb90","pricing_plan_id":"cebpf4jnsgd1na2vs0mg"},{"bike_id":"26e641df-b3b8-4ad2-b256-dcba9579afb1","system_id":"levelo_inurba_marseille","lat":43.295279,"lon":5.375048,"is_reserved":false,"is_disabled":false,"rental_uris":{"android":"levelo://app?vid=26e641df-b3b8-4ad2-b256-dcba9579afb1","ios":"levelo://app?vid=26e641df-b3b8-4ad2-b256-dcba9579afb1"},"vehicle_type_id":"4","last_reported":1718132797,"current_range_meters":0,"station_id":"ce4bgkp2rcd13ifvqbmg","pricing_plan_id":"cebpf4jnsgd1na2vs0mg"},{"bike_id":"54ba454d-a99a-45ea-ace6-3dbbf9fce490","system_id":"levelo_inurba_marseille","lat":43.295279,"lon":5.375048,"is_reserved":false,"is_disabled":false,"rental_uris":{"android":"levelo://app?vid=54ba454d-a99a-45ea-ace6-3dbbf9fce490","ios":"levelo://app?vid=54ba454d-a99a-45ea-ace6-3dbbf9fce490"},"vehicle_type_id":"4","last_reported":1718132797,"current_range_meters":0,"station_id":"ce4bgkp2rcd13ifvqbmg","pricing_plan_id":"cebpf4jnsgd1na2vs0mg"},{"bike_id":"a415269e-0963-42b9-87b8-fd97f5322bd7","system_id":"levelo_inurba_marseille","lat":43.299724,"lon":5.384848,"is_reserved":false,"is_disabled":false,"rental_uris":{"android":"levelo://app?vid=a415269e-0963-42b9-87b8-fd97f5322bd7","ios":"levelo://app?vid=a415269e-0963-42b9-87b8-fd97f5322bd7"},"vehicle_type_id":"4","last_reported":1718132797,"current_range_meters":4800,"station_id":"ce4bgj92rcd13ifvqbd0","pricing_plan_id":"cebpf4jnsgd1na2vs0mg"},{"bike_id":"e6f86bd4-11fc-42a4-9720-9a9af91e0f60","system_id":"levelo_inurba_marseille","lat":43.295279,"lon":5.375048,"is_reserved":false,"is_disabled":false,"rental_uris":{"android":"levelo://app?vid=e6f86bd4-11fc-42a4-9720-9a9af91e0f60","ios":"levelo://app?vid=e6f86bd4-11fc-42a4-9720-9a9af91e0f60"},"vehicle_type_id":"4","last_reported":1718132797,"current_range_meters":7200,"station_id":"ce4bgkp2rcd13ifvqbmg","pricing_plan_id":"cebpf4jnsgd1na2vs0mg"},{"bike_id":"1557a60a-cec2-47d0-bfc4-23ba2bc39f85","system_id":"levelo_inurba_marseille","lat":43.299724,"lon":5.384848,"is_reserved":false,"is_disabled":false,"rental_uris":{"android":"levelo://app?vid=1557a60a-cec2-47d0-bfc4-23ba2bc39f85","ios":"levelo://app?vid=1557a60a-cec2-47d0-bfc4-23ba2bc39f85"},"vehicle_type_id":"4","last_reported":1718132797,"current_range_meters":20000,"station_id":"ce4bgj92rcd13ifvqbd0","pricing_plan_id":"cebpf4jnsgd1na2vs0mg"},{"bike_id":"471446c8-6abc-4356-a437-5aeff6906ee4","system_id":"levelo_inurba_marseille","lat":43.299724,"lon":5.384848,"is_reserved":false,"is_disabled":false,"rental_uris":{"android":"levelo://app?vid=471446c8-6abc-4356-a437-5aeff6906ee4","ios":"levelo://app?vid=471446c8-6abc-4356-a437-5aeff6906ee4"},"vehicle_type_id":"4","last_reported":1718132797,"current_range_meters":0,"station_id":"ce4bgj92rcd13ifvqbd0","pricing_plan_id":"cebpf4jnsgd1na2vs0mg"},{"bike_id":"f4546b9f-b4db-49b3-9d69-2e3437af7a5a","system_id":"levelo_inurba_marseille","lat":43.295279,"lon":5.375048,"is_reserved":false,"is_disabled":false,"rental_uris":{"android":"levelo://app?vid=f4546b9f-b4db-49b3-9d69-2e3437af7a5a","ios":"levelo://app?vid=f4546b9f-b4db-49b3-9d69-2e3437af7a5a"},"vehicle_type_id":"4","last_reported":1718132797,"current_range_meters":3600,"station_id":"ce4bgkp2rcd13ifvqbmg","pricing_plan_id":"cebpf4jnsgd1na2vs0mg"},{"bike_id":"2852718c-f44a-4d4e-94d3-f2cf38821c75","system_id":"levelo_inurba_marseille","lat":43.323613,"lon":5.388224,"is_reserved":false,"is_disabled":false,"rental_uris":{"android":"levelo://app?vid=2852718c-f44a-4d4e-94d3-f2cf38821c75","ios":"levelo://app?vid=2852718c-f44a-4d4e-94d3-f2cf38821c75"},"vehicle_type_id":"4","last_reported":1718132797,"current_range_meters":12000,"station_id":"ce4bhqp2rcd13ifvqhog","pricing_plan_id":"cebpf4jnsgd1na2vs0mg"},{"bike_id":"88b1e8a3-afb8-4639-8b01-9250b817527b","system_id":"levelo_inurba_marseille","lat":43.32365,"lon":5.38878,"is_reserved":false,"is_disabled":false,"rental_uris":{"android":"levelo://app?vid=88b1e8a3-afb8-4639-8b01-9250b817527b","ios":"levelo://app?vid=88b1e8a3-afb8-4639-8b01-9250b817527b"},"vehicle_type_id":"4","last_reported":1718132797,"current_range_meters":2800,"station_id":"ce4bhqp2rcd13ifvqhog","pricing_plan_id":"cebpf4jnsgd1na2vs0mg"},{"bike_id":"239653ab-8f82-4f5b-9719-1bbbb2dbb0a8","system_id":"levelo_inurba_marseille","lat":43.32366,"lon":5.38883,"is_reserved":false,"is_disabled":false,"rental_uris":{"android":"levelo://app?vid=239653ab-8f82-4f5b-9719-1bbbb2dbb0a8","ios":"levelo://app?vid=239653ab-8f82-4f5b-9719-1bbbb2dbb0a8"},"vehicle_type_id":"4","last_reported":1718132797,"current_range_meters":400,"station_id":"ce4bhqp2rcd13ifvqhog","pricing_plan_id":"cebpf4jnsgd1na2vs0mg"},{"bike_id":"606cc0e1-5cc8-40eb-945e-3f78d0406809","system_id":"levelo_inurba_marseille","lat":43.317557,"lon":5.390173,"is_reserved":false,"is_disabled":false,"rental_uris":{"android":"levelo://app?vid=606cc0e1-5cc8-40eb-945e-3f78d0406809","ios":"levelo://app?vid=606cc0e1-5cc8-40eb-945e-3f78d0406809"},"vehicle_type_id":"4","last_reported":1718132797,"current_range_meters":1200,"station_id":"ce4bhqp2rcd13ifvqhng","pricing_plan_id":"cebpf4jnsgd1na2vs0mg"},{"bike_id":"091d0760-44da-4d52-91d5-c81ebd757699","system_id":"levelo_inurba_marseille","lat":43.289184,"lon":5.366408,"is_reserved":false,"is_disabled":false,"rental_uris":{"android":"levelo://app?vid=091d0760-44da-4d52-91d5-c81ebd757699","ios":"levelo://app?vid=091d0760-44da-4d52-91d5-c81ebd757699"},"vehicle_type_id":"4","last_reported":1718132797,"current_range_meters":7600,"station_id":"ce4bhap2rcd13ifvqek0","pricing_plan_id":"cebpf4jnsgd1na2vs0mg"},{"bike_id":"0b165ad0-73d2-45b7-af21-7b85fdd16cde","system_id":"levelo_inurba_marseille","lat":43.293259,"lon":5.371586,"is_reserved":false,"is_disabled":false,"rental_uris":{"android":"levelo://app?vid=0b165ad0-73d2-45b7-af21-7b85fdd16cde","ios":"levelo://app?vid=0b165ad0-73d2-45b7-af21-7b85fdd16cde"},"vehicle_type_id":"4","last_reported":1718132797,"current_range_meters":27600,"station_id":"ce4bgh92rcd13ifvqb40","pricing_plan_id":"cebpf4jnsgd1na2vs0mg"},{"bike_id":"b2b3cc4d-b45d-4e7f-8aa6-1783c81849a5","system_id":"levelo_inurba_marseille","lat":43.292749,"lon":5.368402,"is_reserved":false,"is_disabled":false,"rental_uris":{"android":"levelo://app?vid=b2b3cc4d-b45d-4e7f-8aa6-1783c81849a5","ios":"levelo://app?vid=b2b3cc4d-b45d-4e7f-8aa6-1783c81849a5"},"vehicle_type_id":"4","last_reported":1718132797,"current_range_meters":0,"station_id":"ce4bhbp2rcd13ifvqesg","pricing_plan_id":"cebpf4jnsgd1na2vs0mg"},{"bike_id":"bf9700bf-3c2f-4b22-8643-bab27ec29599","system_id":"levelo_inurba_marseille","lat":43.292749,"lon":5.368398,"is_reserved":false,"is_disabled":false,"rental_uris":{"android":"levelo://app?vid=bf9700bf-3c2f-4b22-8643-bab27ec29599","ios":"levelo://app?vid=bf9700bf-3c2f-4b22-8643-bab27ec29599"},"vehicle_type_id":"4","last_reported":1718132797,"current_range_meters":0,"station_id":"ce4bhbp2rcd13ifvqesg","pricing_plan_id":"cebpf4jnsgd1na2vs0mg"},{"bike_id":"5433c9a2-7592-42f9-bbb9-542f0c1abbea","system_id":"levelo_inurba_marseille","lat":43.293009,"lon":5.374584,"is_reserved":false,"is_disabled":false,"rental_uris":{"android":"levelo://app?vid=5433c9a2-7592-42f9-bbb9-542f0c1abbea","ios":"levelo://app?vid=5433c9a2-7592-42f9-bbb9-542f0c1abbea"},"vehicle_type_id":"4","last_reported":1718132797,"current_range_meters":0,"station_id":"ce4bgi12rcd13ifvqb70","pricing_plan_id":"cebpf4jnsgd1na2vs0mg"},{"bike_id":"97907a2c-3f0e-40df-a3e4-4030a115e423","system_id":"levelo_inurba_marseille","lat":43.293009,"lon":5.374584,"is_reserved":false,"is_disabled":false,"rental_uris":{"android":"levelo://app?vid=97907a2c-3f0e-40df-a3e4-4030a115e423","ios":"levelo://app?vid=97907a2c-3f0e-40df-a3e4-4030a115e423"},"vehicle_type_id":"4","last_reported":1718132797,"current_range_meters":0,"station_id":"ce4bgi12rcd13ifvqb70","pricing_plan_id":"cebpf4jnsgd1na2vs0mg"},{"bike_id":"67550bf9-84d4-4e8b-8c5c-4448fd93119e","system_id":"levelo_inurba_marseille","lat":43.298764,"lon":5.388973,"is_reserved":false,"is_disabled":false,"rental_uris":{"android":"levelo://app?vid=67550bf9-84d4-4e8b-8c5c-4448fd93119e","ios":"levelo://app?vid=67550bf9-84d4-4e8b-8c5c-4448fd93119e"},"vehicle_type_id":"4","last_reported":1718132797,"current_range_meters":12400,"station_id":"ce4bh392rcd13ifvqdl0","pricing_plan_id":"cebpf4jnsgd1na2vs0mg"},{"bike_id":"0d73fb51-8b51-4477-9c60-0ede718b30b6","system_id":"levelo_inurba_marseille","lat":43.30589,"lon":5.39352,"is_reserved":false,"is_disabled":false,"rental_uris":{"android":"levelo://app?vid=0d73fb51-8b51-4477-9c60-0ede718b30b6","ios":"levelo://app?vid=0d73fb51-8b51-4477-9c60-0ede718b30b6"},"vehicle_type_id":"4","last_reported":1718132797,"current_range_meters":0,"station_id":"ce4bh0p2rcd13ifvqd80","pricing_plan_id":"cebpf4jnsgd1na2vs0mg"},{"bike_id":"0a36240d-4a30-4479-92cf-2f8b8f0907d2","system_id":"levelo_inurba_marseille","lat":43.309038,"lon":5.396546,"is_reserved":false,"is_disabled":false,"rental_uris":{"android":"levelo://app?vid=0a36240d-4a30-4479-92cf-2f8b8f0907d2","ios":"levelo://app?vid=0a36240d-4a30-4479-92cf-2f8b8f0907d2"},"vehicle_type_id":"4","last_reported":1718132797,"current_range_meters":0,"station_id":"ce4bh012rcd13ifvqcv0","pricing_plan_id":"cebpf4jnsgd1na2vs0mg"},{"bike_id":"d633537f-d6c2-47ac-8673-b66d41271413","system_id":"levelo_inurba_marseille","lat":43.303002,"lon":5.392142,"is_reserved":false,"is_disabled":false,"rental_uris":{"android":"levelo://app?vid=d633537f-d6c2-47ac-8673-b66d41271413","ios":"levelo://app?vid=d633537f-d6c2-47ac-8673-b66d41271413"},"vehicle_type_id":"4","last_reported":1718132797,"current_range_meters":14400,"station_id":"ce4bgkh2rcd13ifvqbk0","pricing_plan_id":"cebpf4jnsgd1na2vs0mg"},{"bike_id":"b26e0a38-a5db-48d6-a761-8c32fe0f78e6","system_id":"levelo_inurba_marseille","lat":43.29375,"lon":5.37842,"is_reserved":false,"is_disabled":false,"rental_uris":{"android":"levelo://app?vid=b26e0a38-a5db-48d6-a761-8c32fe0f78e6","ios":"levelo://app?vid=b26e0a38-a5db-48d6-a761-8c32fe0f78e6"},"vehicle_type_id":"4","last_reported":1718132797,"current_range_meters":18400,"station_id":"","pricing_plan_id":"cebpf4jnsgd1na2vs0mg"},{"bike_id":"288b41fe-79bf-4434-9be8-2a14b93dfa30","system_id":"levelo_inurba_marseille","lat":43.302992,"lon":5.392136,"is_reserved":false,"is_disabled":false,"rental_uris":{"android":"levelo://app?vid=288b41fe-79bf-4434-9be8-2a14b93dfa30","ios":"levelo://app?vid=288b41fe-79bf-4434-9be8-2a14b93dfa30"},"vehicle_type_id":"4","last_reported":1718132797,"current_range_meters":31200,"station_id":"ce4bgkh2rcd13ifvqbk0","pricing_plan_id":"cebpf4jnsgd1na2vs0mg"},{"bike_id":"66ee6e76-1991-4c7e-9e60-314442bb7dad","system_id":"levelo_inurba_marseille","lat":43.2936,"lon":5.37835,"is_reserved":false,"is_disabled":false,"rental_uris":{"android":"levelo://app?vid=66ee6e76-1991-4c7e-9e60-314442bb7dad","ios":"levelo://app?vid=66ee6e76-1991-4c7e-9e60-314442bb7dad"},"vehicle_type_id":"4","last_reported":1718132797,"current_range_meters":0,"station_id":"ce4bgjh2rcd13ifvqbf0","pricing_plan_id":"cebpf4jnsgd1na2vs0mg"},{"bike_id":"c13dfeb9-dd87-44a0-9e81-2216d8e02ef3","system_id":"levelo_inurba_marseille","lat":43.302992,"lon":5.392136,"is_reserved":false,"is_disabled":false,"rental_uris":{"android":"levelo://app?vid=c13dfeb9-dd87-44a0-9e81-2216d8e02ef3","ios":"levelo://app?vid=c13dfeb9-dd87-44a0-9e81-2216d8e02ef3"},"vehicle_type_id":"4","last_reported":1718132797,"current_range_meters":31200,"station_id":"ce4bgkh2rcd13ifvqbk0","pricing_plan_id":"cebpf4jnsgd1na2vs0mg"},{"bike_id":"6a02b8d2-d162-4d6e-89f7-50784c59bbe5","system_id":"levelo_inurba_marseille","lat":43.2936,"lon":5.37835,"is_reserved":false,"is_disabled":false,"rental_uris":{"android":"levelo://app?vid=6a02b8d2-d162-4d6e-89f7-50784c59bbe5","ios":"levelo://app?vid=6a02b8d2-d162-4d6e-89f7-50784c59bbe5"},"vehicle_type_id":"4","last_reported":1718132797,"current_range_meters":30400,"station_id":"ce4bgjh2rcd13ifvqbf0","pricing_plan_id":"cebpf4jnsgd1na2vs0mg"},{"bike_id":"ffd6fa11-5636-4d53-8fb1-fe2e8dba42a6","system_id":"levelo_inurba_marseille","lat":43.291994,"lon":5.392907,"is_reserved":false,"is_disabled":false,"rental_uris":{"android":"levelo://app?vid=ffd6fa11-5636-4d53-8fb1-fe2e8dba42a6","ios":"levelo://app?vid=ffd6fa11-5636-4d53-8fb1-fe2e8dba42a6"},"vehicle_type_id":"4","last_reported":1718132797,"current_range_meters":800,"station_id":"ce4bh192rcd13ifvqdd0","pricing_plan_id":"cebpf4jnsgd1na2vs0mg"},{"bike_id":"a8453ef9-350c-4df8-a4b2-d6bf55216e6a","system_id":"levelo_inurba_marseille","lat":43.292311,"lon":5.360731,"is_reserved":false,"is_disabled":false,"rental_uris":{"android":"levelo://app?vid=a8453ef9-350c-4df8-a4b2-d6bf55216e6a","ios":"levelo://app?vid=a8453ef9-350c-4df8-a4b2-d6bf55216e6a"},"vehicle_type_id":"4","last_reported":1718132797,"current_range_meters":31200,"station_id":"ce4bhbh2rcd13ifvqeqg","pricing_plan_id":"cebpf4jnsgd1na2vs0mg"},{"bike_id":"28ae5208-17d0-4e30-875f-d3db3d7e5f98","system_id":"levelo_inurba_marseille","lat":43.29227,"lon":5.36069,"is_reserved":false,"is_disabled":false,"rental_uris":{"android":"levelo://app?vid=28ae5208-17d0-4e30-875f-d3db3d7e5f98","ios":"levelo://app?vid=28ae5208-17d0-4e30-875f-d3db3d7e5f98"},"vehicle_type_id":"4","last_reported":1718132797,"current_range_meters":31200,"station_id":"ce4bhbh2rcd13ifvqeqg","pricing_plan_id":"cebpf4jnsgd1na2vs0mg"},{"bike_id":"3812219c-8eab-4087-8578-e57a2b305f1e","system_id":"levelo_inurba_marseille","lat":43.30085,"lon":5.390856,"is_reserved":false,"is_disabled":false,"rental_uris":{"android":"levelo://app?vid=3812219c-8eab-4087-8578-e57a2b305f1e","ios":"levelo://app?vid=3812219c-8eab-4087-8578-e57a2b305f1e"},"vehicle_type_id":"4","last_reported":1718132797,"current_range_meters":7200,"station_id":"ce4bh192rcd13ifvqdb0","pricing_plan_id":"cebpf4jnsgd1na2vs0mg"},{"bike_id":"501413d4-d986-4bbd-b8b8-6c9d0fe668dc","system_id":"levelo_inurba_marseille","lat":43.30085,"lon":5.390856,"is_reserved":false,"is_disabled":false,"rental_uris":{"android":"levelo://app?vid=501413d4-d986-4bbd-b8b8-6c9d0fe668dc","ios":"levelo://app?vid=501413d4-d986-4bbd-b8b8-6c9d0fe668dc"},"vehicle_type_id":"4","last_reported":1718132797,"current_range_meters":7600,"station_id":"ce4bh192rcd13ifvqdb0","pricing_plan_id":"cebpf4jnsgd1na2vs0mg"},{"bike_id":"f3dcb74d-77d9-4460-89bc-441423a5912f","system_id":"levelo_inurba_marseille","lat":43.30085,"lon":5.390856,"is_reserved":false,"is_disabled":false,"rental_uris":{"android":"levelo://app?vid=f3dcb74d-77d9-4460-89bc-441423a5912f","ios":"levelo://app?vid=f3dcb74d-77d9-4460-89bc-441423a5912f"},"vehicle_type_id":"4","last_reported":1718132797,"current_range_meters":0,"station_id":"ce4bh192rcd13ifvqdb0","pricing_plan_id":"cebpf4jnsgd1na2vs0mg"},{"bike_id":"08650b5b-7902-437e-804f-ecf05f80c443","system_id":"levelo_inurba_marseille","lat":43.300809,"lon":5.39076,"is_reserved":false,"is_disabled":false,"rental_uris":{"android":"levelo://app?vid=08650b5b-7902-437e-804f-ecf05f80c443","ios":"levelo://app?vid=08650b5b-7902-437e-804f-ecf05f80c443"},"vehicle_type_id":"4","last_reported":1718132797,"current_range_meters":0,"station_id":"ce4bh192rcd13ifvqdb0","pricing_plan_id":"cebpf4jnsgd1na2vs0mg"},{"bike_id":"6273c217-afed-4044-bb52-85b6dfe9a38b","system_id":"levelo_inurba_marseille","lat":43.30087,"lon":5.3909,"is_reserved":false,"is_disabled":false,"rental_uris":{"android":"levelo://app?vid=6273c217-afed-4044-bb52-85b6dfe9a38b","ios":"levelo://app?vid=6273c217-afed-4044-bb52-85b6dfe9a38b"},"vehicle_type_id":"4","last_reported":1718132797,"current_range_meters":0,"station_id":"ce4bh192rcd13ifvqdb0","pricing_plan_id":"cebpf4jnsgd1na2vs0mg"},{"bike_id":"017cc2e4-e85b-48e7-a839-6a7ff6309c79","system_id":"levelo_inurba_marseille","lat":43.291675,"lon":5.371583,"is_reserved":false,"is_disabled":false,"rental_uris":{"android":"levelo://app?vid=017cc2e4-e85b-48e7-a839-6a7ff6309c79","ios":"levelo://app?vid=017cc2e4-e85b-48e7-a839-6a7ff6309c79"},"vehicle_type_id":"4","last_reported":1718132797,"current_range_meters":25600,"station_id":"ce4bha92rcd13ifvqeh0","pricing_plan_id":"cebpf4jnsgd1na2vs0mg"},{"bike_id":"b673fa03-f399-4612-b1fd-36cf95232bcc","system_id":"levelo_inurba_marseille","lat":43.291671,"lon":5.371575,"is_reserved":false,"is_disabled":false,"rental_uris":{"android":"levelo://app?vid=b673fa03-f399-4612-b1fd-36cf95232bcc","ios":"levelo://app?vid=b673fa03-f399-4612-b1fd-36cf95232bcc"},"vehicle_type_id":"4","last_reported":1718132797,"current_range_meters":6400,"station_id":"ce4bha92rcd13ifvqeh0","pricing_plan_id":"cebpf4jnsgd1na2vs0mg"},{"bike_id":"8b066052-05b2-4aa1-9b31-97512b955e82","system_id":"levelo_inurba_marseille","lat":43.298764,"lon":5.388973,"is_reserved":false,"is_disabled":false,"rental_uris":{"android":"levelo://app?vid=8b066052-05b2-4aa1-9b31-97512b955e82","ios":"levelo://app?vid=8b066052-05b2-4aa1-9b31-97512b955e82"},"vehicle_type_id":"4","last_reported":1718132797,"current_range_meters":20400,"station_id":"ce4bh392rcd13ifvqdl0","pricing_plan_id":"cebpf4jnsgd1na2vs0mg"},{"bike_id":"f7abaf42-bc6b-4e52-be33-5b3c55df7e8f","system_id":"levelo_inurba_marseille","lat":43.298764,"lon":5.388973,"is_reserved":false,"is_disabled":false,"rental_uris":{"android":"levelo://app?vid=f7abaf42-bc6b-4e52-be33-5b3c55df7e8f","ios":"levelo://app?vid=f7abaf42-bc6b-4e52-be33-5b3c55df7e8f"},"vehicle_type_id":"4","last_reported":1718132797,"current_range_meters":4000,"station_id":"ce4bh392rcd13ifvqdl0","pricing_plan_id":"cebpf4jnsgd1na2vs0mg"},{"bike_id":"6b0b8237-382e-4381-8d44-436854f74d1f","system_id":"levelo_inurba_marseille","lat":43.29136,"lon":5.370105,"is_reserved":false,"is_disabled":false,"rental_uris":{"android":"levelo://app?vid=6b0b8237-382e-4381-8d44-436854f74d1f","ios":"levelo://app?vid=6b0b8237-382e-4381-8d44-436854f74d1f"},"vehicle_type_id":"4","last_reported":1718132797,"current_range_meters":23200,"station_id":"","pricing_plan_id":"cebpf4jnsgd1na2vs0mg"},{"bike_id":"26266f7f-d9d1-4d09-baa2-1ba18857d7cc","system_id":"levelo_inurba_marseille","lat":43.29529,"lon":5.385581,"is_reserved":false,"is_disabled":false,"rental_uris":{"android":"levelo://app?vid=26266f7f-d9d1-4d09-baa2-1ba18857d7cc","ios":"levelo://app?vid=26266f7f-d9d1-4d09-baa2-1ba18857d7cc"},"vehicle_type_id":"4","last_reported":1718132797,"current_range_meters":0,"station_id":"ce4bgih2rcd13ifvqba0","pricing_plan_id":"cebpf4jnsgd1na2vs0mg"},{"bike_id":"ce44886c-4cca-4fcd-93a7-5dcc8c11521b","system_id":"levelo_inurba_marseille","lat":43.313291,"lon":5.396838,"is_reserved":false,"is_disabled":false,"rental_uris":{"android":"levelo://app?vid=ce44886c-4cca-4fcd-93a7-5dcc8c11521b","ios":"levelo://app?vid=ce44886c-4cca-4fcd-93a7-5dcc8c11521b"},"vehicle_type_id":"4","last_reported":1718132797,"current_range_meters":18000,"station_id":"ce4bgvp2rcd13ifvqcu0","pricing_plan_id":"cebpf4jnsgd1na2vs0mg"},{"bike_id":"bb03b40e-f8e5-417e-8ad4-c2455759b511","system_id":"levelo_inurba_marseille","lat":43.309047,"lon":5.396551,"is_reserved":false,"is_disabled":false,"rental_uris":{"android":"levelo://app?vid=bb03b40e-f8e5-417e-8ad4-c2455759b511","ios":"levelo://app?vid=bb03b40e-f8e5-417e-8ad4-c2455759b511"},"vehicle_type_id":"4","last_reported":1718132797,"current_range_meters":4800,"station_id":"ce4bh012rcd13ifvqcv0","pricing_plan_id":"cebpf4jnsgd1na2vs0mg"},{"bike_id":"410c0a4b-8925-4d92-88e8-7defdcc37066","system_id":"levelo_inurba_marseille","lat":43.309038,"lon":5.396546,"is_reserved":false,"is_disabled":false,"rental_uris":{"android":"levelo://app?vid=410c0a4b-8925-4d92-88e8-7defdcc37066","ios":"levelo://app?vid=410c0a4b-8925-4d92-88e8-7defdcc37066"},"vehicle_type_id":"4","last_reported":1718132797,"current_range_meters":14800,"station_id":"ce4bh012rcd13ifvqcv0","pricing_plan_id":"cebpf4jnsgd1na2vs0mg"},{"bike_id":"5274f6e5-020a-4b6b-ab01-b1e12607f174","system_id":"levelo_inurba_marseille","lat":43.292005,"lon":5.357875,"is_reserved":false,"is_disabled":false,"rental_uris":{"android":"levelo://app?vid=5274f6e5-020a-4b6b-ab01-b1e12607f174","ios":"levelo://app?vid=5274f6e5-020a-4b6b-ab01-b1e12607f174"},"vehicle_type_id":"4","last_reported":1718132797,"current_range_meters":7600,"station_id":"ce4bhb12rcd13ifvqel0","pricing_plan_id":"cebpf4jnsgd1na2vs0mg"},{"bike_id":"ddf954db-a279-4d02-b090-f1ded49820b5","system_id":"levelo_inurba_marseille","lat":43.291994,"lon":5.357886,"is_reserved":false,"is_disabled":false,"rental_uris":{"android":"levelo://app?vid=ddf954db-a279-4d02-b090-f1ded49820b5","ios":"levelo://app?vid=ddf954db-a279-4d02-b090-f1ded49820b5"},"vehicle_type_id":"4","last_reported":1718132797,"current_range_meters":15200,"station_id":"ce4bhb12rcd13ifvqel0","pricing_plan_id":"cebpf4jnsgd1na2vs0mg"},{"bike_id":"58912c00-1f3c-4b0d-90cd-9be0503ba43f","system_id":"levelo_inurba_marseille","lat":43.291896,"lon":5.357959,"is_reserved":false,"is_disabled":false,"rental_uris":{"android":"levelo://app?vid=58912c00-1f3c-4b0d-90cd-9be0503ba43f","ios":"levelo://app?vid=58912c00-1f3c-4b0d-90cd-9be0503ba43f"},"vehicle_type_id":"4","last_reported":1718132797,"current_range_meters":10400,"station_id":"","pricing_plan_id":"cebpf4jnsgd1na2vs0mg"},{"bike_id":"78f797b9-05ed-4929-abe9-2a7ebe5fdcbb","system_id":"levelo_inurba_marseille","lat":43.309038,"lon":5.396546,"is_reserved":false,"is_disabled":false,"rental_uris":{"android":"levelo://app?vid=78f797b9-05ed-4929-abe9-2a7ebe5fdcbb","ios":"levelo://app?vid=78f797b9-05ed-4929-abe9-2a7ebe5fdcbb"},"vehicle_type_id":"4","last_reported":1718132797,"current_range_meters":2800,"station_id":"ce4bh012rcd13ifvqcv0","pricing_plan_id":"cebpf4jnsgd1na2vs0mg"},{"bike_id":"29cbd84a-e705-4e0c-a26a-f359b8fd84ac","system_id":"levelo_inurba_marseille","lat":43.31333,"lon":5.39698,"is_reserved":false,"is_disabled":false,"rental_uris":{"android":"levelo://app?vid=29cbd84a-e705-4e0c-a26a-f359b8fd84ac","ios":"levelo://app?vid=29cbd84a-e705-4e0c-a26a-f359b8fd84ac"},"vehicle_type_id":"4","last_reported":1718132797,"current_range_meters":0,"station_id":"ce4bgvp2rcd13ifvqcu0","pricing_plan_id":"cebpf4jnsgd1na2vs0mg"},{"bike_id":"43ce451f-8251-462e-b7b9-c8f063f17077","system_id":"levelo_inurba_marseille","lat":43.313291,"lon":5.396838,"is_reserved":false,"is_disabled":false,"rental_uris":{"android":"levelo://app?vid=43ce451f-8251-462e-b7b9-c8f063f17077","ios":"levelo://app?vid=43ce451f-8251-462e-b7b9-c8f063f17077"},"vehicle_type_id":"4","last_reported":1718132797,"current_range_meters":30800,"station_id":"ce4bgvp2rcd13ifvqcu0","pricing_plan_id":"cebpf4jnsgd1na2vs0mg"},{"bike_id":"fd4bf969-4976-49b9-9638-da48e9b3c80f","system_id":"levelo_inurba_marseille","lat":43.313291,"lon":5.396838,"is_reserved":false,"is_disabled":false,"rental_uris":{"android":"levelo://app?vid=fd4bf969-4976-49b9-9638-da48e9b3c80f","ios":"levelo://app?vid=fd4bf969-4976-49b9-9638-da48e9b3c80f"},"vehicle_type_id":"4","last_reported":1718132797,"current_range_meters":30800,"station_id":"ce4bgvp2rcd13ifvqcu0","pricing_plan_id":"cebpf4jnsgd1na2vs0mg"},{"bike_id":"a06c8380-6281-4ac7-8eed-1512a399f02a","system_id":"levelo_inurba_marseille","lat":43.29529,"lon":5.385581,"is_reserved":false,"is_disabled":false,"rental_uris":{"android":"levelo://app?vid=a06c8380-6281-4ac7-8eed-1512a399f02a","ios":"levelo://app?vid=a06c8380-6281-4ac7-8eed-1512a399f02a"},"vehicle_type_id":"4","last_reported":1718132797,"current_range_meters":24800,"station_id":"ce4bgih2rcd13ifvqba0","pricing_plan_id":"cebpf4jnsgd1na2vs0mg"},{"bike_id":"eae65e6b-d4a6-4580-b70a-e9e4b00d7855","system_id":"levelo_inurba_marseille","lat":43.29529,"lon":5.385581,"is_reserved":false,"is_disabled":false,"rental_uris":{"android":"levelo://app?vid=eae65e6b-d4a6-4580-b70a-e9e4b00d7855","ios":"levelo://app?vid=eae65e6b-d4a6-4580-b70a-e9e4b00d7855"},"vehicle_type_id":"4","last_reported":1718132797,"current_range_meters":0,"station_id":"ce4bgih2rcd13ifvqba0","pricing_plan_id":"cebpf4jnsgd1na2vs0mg"},{"bike_id":"9539e980-29ab-4f6a-814c-e42a95f7c2ee","system_id":"levelo_inurba_marseille","lat":43.29529,"lon":5.385581,"is_reserved":false,"is_disabled":false,"rental_uris":{"android":"levelo://app?vid=9539e980-29ab-4f6a-814c-e42a95f7c2ee","ios":"levelo://app?vid=9539e980-29ab-4f6a-814c-e42a95f7c2ee"},"vehicle_type_id":"4","last_reported":1718132797,"current_range_meters":23200,"station_id":"ce4bgih2rcd13ifvqba0","pricing_plan_id":"cebpf4jnsgd1na2vs0mg"},{"bike_id":"20475b79-e9e5-4d83-9ee6-15b6e5082734","system_id":"levelo_inurba_marseille","lat":43.309047,"lon":5.396551,"is_reserved":false,"is_disabled":false,"rental_uris":{"android":"levelo://app?vid=20475b79-e9e5-4d83-9ee6-15b6e5082734","ios":"levelo://app?vid=20475b79-e9e5-4d83-9ee6-15b6e5082734"},"vehicle_type_id":"4","last_reported":1718132797,"current_range_meters":11200,"station_id":"ce4bh012rcd13ifvqcv0","pricing_plan_id":"cebpf4jnsgd1na2vs0mg"},{"bike_id":"7a094ea4-da5d-4626-a564-1407fef63ad7","system_id":"levelo_inurba_marseille","lat":43.29529,"lon":5.385581,"is_reserved":false,"is_disabled":false,"rental_uris":{"android":"levelo://app?vid=7a094ea4-da5d-4626-a564-1407fef63ad7","ios":"levelo://app?vid=7a094ea4-da5d-4626-a564-1407fef63ad7"},"vehicle_type_id":"4","last_reported":1718132797,"current_range_meters":31200,"station_id":"ce4bgih2rcd13ifvqba0","pricing_plan_id":"cebpf4jnsgd1na2vs0mg"},{"bike_id":"3d45ed5c-c424-4f93-b20c-caf4d25ebb27","system_id":"levelo_inurba_marseille","lat":43.294314,"lon":5.397498,"is_reserved":false,"is_disabled":false,"rental_uris":{"android":"levelo://app?vid=3d45ed5c-c424-4f93-b20c-caf4d25ebb27","ios":"levelo://app?vid=3d45ed5c-c424-4f93-b20c-caf4d25ebb27"},"vehicle_type_id":"4","last_reported":1718132797,"current_range_meters":0,"station_id":"ce4bh3h2rcd13ifvqdo0","pricing_plan_id":"cebpf4jnsgd1na2vs0mg"},{"bike_id":"45a971c1-eecd-4a0b-83a0-781950a3eec8","system_id":"levelo_inurba_marseille","lat":43.29529,"lon":5.385581,"is_reserved":false,"is_disabled":false,"rental_uris":{"android":"levelo://app?vid=45a971c1-eecd-4a0b-83a0-781950a3eec8","ios":"levelo://app?vid=45a971c1-eecd-4a0b-83a0-781950a3eec8"},"vehicle_type_id":"4","last_reported":1718132797,"current_range_meters":26000,"station_id":"ce4bgih2rcd13ifvqba0","pricing_plan_id":"cebpf4jnsgd1na2vs0mg"},{"bike_id":"3e7ea03a-06dd-4cd0-935b-2a8e6c28ece7","system_id":"levelo_inurba_marseille","lat":43.29529,"lon":5.385581,"is_reserved":false,"is_disabled":false,"rental_uris":{"android":"levelo://app?vid=3e7ea03a-06dd-4cd0-935b-2a8e6c28ece7","ios":"levelo://app?vid=3e7ea03a-06dd-4cd0-935b-2a8e6c28ece7"},"vehicle_type_id":"4","last_reported":1718132797,"current_range_meters":11200,"station_id":"ce4bgih2rcd13ifvqba0","pricing_plan_id":"cebpf4jnsgd1na2vs0mg"},{"bike_id":"598268c6-22ce-4e12-be30-1e20848543ee","system_id":"levelo_inurba_marseille","lat":43.29529,"lon":5.385581,"is_reserved":false,"is_disabled":false,"rental_uris":{"android":"levelo://app?vid=598268c6-22ce-4e12-be30-1e20848543ee","ios":"levelo://app?vid=598268c6-22ce-4e12-be30-1e20848543ee"},"vehicle_type_id":"4","last_reported":1718132797,"current_range_meters":28000,"station_id":"ce4bgih2rcd13ifvqba0","pricing_plan_id":"cebpf4jnsgd1na2vs0mg"},{"bike_id":"b7fd3469-ef86-44c8-b751-35639c4f839b","system_id":"levelo_inurba_marseille","lat":43.29529,"lon":5.385581,"is_reserved":false,"is_disabled":false,"rental_uris":{"android":"levelo://app?vid=b7fd3469-ef86-44c8-b751-35639c4f839b","ios":"levelo://app?vid=b7fd3469-ef86-44c8-b751-35639c4f839b"},"vehicle_type_id":"4","last_reported":1718132797,"current_range_meters":22000,"station_id":"ce4bgih2rcd13ifvqba0","pricing_plan_id":"cebpf4jnsgd1na2vs0mg"},{"bike_id":"db7ab45f-0218-4ea6-915f-7f08b50635bb","system_id":"levelo_inurba_marseille","lat":43.29529,"lon":5.385581,"is_reserved":false,"is_disabled":false,"rental_uris":{"android":"levelo://app?vid=db7ab45f-0218-4ea6-915f-7f08b50635bb","ios":"levelo://app?vid=db7ab45f-0218-4ea6-915f-7f08b50635bb"},"vehicle_type_id":"4","last_reported":1718132797,"current_range_meters":21600,"station_id":"ce4bgih2rcd13ifvqba0","pricing_plan_id":"cebpf4jnsgd1na2vs0mg"},{"bike_id":"3015c277-7dd6-4c00-9d04-b711bbfb76a6","system_id":"levelo_inurba_marseille","lat":43.290264,"lon":5.36977,"is_reserved":false,"is_disabled":false,"rental_uris":{"android":"levelo://app?vid=3015c277-7dd6-4c00-9d04-b711bbfb76a6","ios":"levelo://app?vid=3015c277-7dd6-4c00-9d04-b711bbfb76a6"},"vehicle_type_id":"4","last_reported":1718132797,"current_range_meters":24400,"station_id":"ce4bh412rcd13ifvqds0","pricing_plan_id":"cebpf4jnsgd1na2vs0mg"},{"bike_id":"c5fc96cc-fd92-454e-985a-8e3a41a3ab47","system_id":"levelo_inurba_marseille","lat":43.294162,"lon":5.386292,"is_reserved":false,"is_disabled":false,"rental_uris":{"android":"levelo://app?vid=c5fc96cc-fd92-454e-985a-8e3a41a3ab47","ios":"levelo://app?vid=c5fc96cc-fd92-454e-985a-8e3a41a3ab47"},"vehicle_type_id":"4","last_reported":1718132797,"current_range_meters":26000,"station_id":"ce4bh2h2rcd13ifvqdh0","pricing_plan_id":"cebpf4jnsgd1na2vs0mg"},{"bike_id":"31b12c01-27c3-4855-9d1b-57fb03d961a7","system_id":"levelo_inurba_marseille","lat":43.302008,"lon":5.394694,"is_reserved":false,"is_disabled":false,"rental_uris":{"android":"levelo://app?vid=31b12c01-27c3-4855-9d1b-57fb03d961a7","ios":"levelo://app?vid=31b12c01-27c3-4855-9d1b-57fb03d961a7"},"vehicle_type_id":"4","last_reported":1718132797,"current_range_meters":20000,"station_id":"ce4bh0p2rcd13ifvqd70","pricing_plan_id":"cebpf4jnsgd1na2vs0mg"},{"bike_id":"f96229b3-608a-4b90-bcea-f0ab52219ca3","system_id":"levelo_inurba_marseille","lat":43.290624,"lon":5.359245,"is_reserved":false,"is_disabled":false,"rental_uris":{"android":"levelo://app?vid=f96229b3-608a-4b90-bcea-f0ab52219ca3","ios":"levelo://app?vid=f96229b3-608a-4b90-bcea-f0ab52219ca3"},"vehicle_type_id":"4","last_reported":1718132797,"current_range_meters":2400,"station_id":"ce4bha92rcd13ifvqeg0","pricing_plan_id":"cebpf4jnsgd1na2vs0mg"},{"bike_id":"af74589b-a34e-4fca-a28d-5693ad244992","system_id":"levelo_inurba_marseille","lat":43.30216,"lon":5.39475,"is_reserved":false,"is_disabled":false,"rental_uris":{"android":"levelo://app?vid=af74589b-a34e-4fca-a28d-5693ad244992","ios":"levelo://app?vid=af74589b-a34e-4fca-a28d-5693ad244992"},"vehicle_type_id":"4","last_reported":1718132797,"current_range_meters":19600,"station_id":"ce4bh0p2rcd13ifvqd70","pricing_plan_id":"cebpf4jnsgd1na2vs0mg"},{"bike_id":"0e0bb179-4a76-4847-a865-f1f279d90529","system_id":"levelo_inurba_marseille","lat":43.290286,"lon":5.372869,"is_reserved":false,"is_disabled":false,"rental_uris":{"android":"levelo://app?vid=0e0bb179-4a76-4847-a865-f1f279d90529","ios":"levelo://app?vid=0e0bb179-4a76-4847-a865-f1f279d90529"},"vehicle_type_id":"4","last_reported":1718132797,"current_range_meters":20000,"station_id":"ce4bhc92rcd13ifvqetg","pricing_plan_id":"cebpf4jnsgd1na2vs0mg"},{"bike_id":"260f37aa-67f8-492a-b214-90e418067432","system_id":"levelo_inurba_marseille","lat":43.294581,"lon":5.386092,"is_reserved":false,"is_disabled":false,"rental_uris":{"android":"levelo://app?vid=260f37aa-67f8-492a-b214-90e418067432","ios":"levelo://app?vid=260f37aa-67f8-492a-b214-90e418067432"},"vehicle_type_id":"4","last_reported":1718132797,"current_range_meters":14800,"station_id":"ce4bh2h2rcd13ifvqdh0","pricing_plan_id":"cebpf4jnsgd1na2vs0mg"},{"bike_id":"5ff0231b-02fb-446c-913e-18814484ee45","system_id":"levelo_inurba_marseille","lat":43.290624,"lon":5.359245,"is_reserved":false,"is_disabled":false,"rental_uris":{"android":"levelo://app?vid=5ff0231b-02fb-446c-913e-18814484ee45","ios":"levelo://app?vid=5ff0231b-02fb-446c-913e-18814484ee45"},"vehicle_type_id":"4","last_reported":1718132797,"current_range_meters":20000,"station_id":"ce4bha92rcd13ifvqeg0","pricing_plan_id":"cebpf4jnsgd1na2vs0mg"},{"bike_id":"590cb0e5-ae8a-4a50-b361-9fe4b8e1f282","system_id":"levelo_inurba_marseille","lat":43.29422,"lon":5.38616,"is_reserved":false,"is_disabled":false,"rental_uris":{"android":"levelo://app?vid=590cb0e5-ae8a-4a50-b361-9fe4b8e1f282","ios":"levelo://app?vid=590cb0e5-ae8a-4a50-b361-9fe4b8e1f282"},"vehicle_type_id":"4","last_reported":1718132797,"current_range_meters":800,"station_id":"ce4bh2h2rcd13ifvqdh0","pricing_plan_id":"cebpf4jnsgd1na2vs0mg"},{"bike_id":"5693ef7a-5f8f-4442-bdc2-3ecd704a66cb","system_id":"levelo_inurba_marseille","lat":43.295169,"lon":5.390426,"is_reserved":false,"is_disabled":false,"rental_uris":{"android":"levelo://app?vid=5693ef7a-5f8f-4442-bdc2-3ecd704a66cb","ios":"levelo://app?vid=5693ef7a-5f8f-4442-bdc2-3ecd704a66cb"},"vehicle_type_id":"4","last_reported":1718132797,"current_range_meters":14000,"station_id":"ce4bh3p2rcd13ifvqdp0","pricing_plan_id":"cebpf4jnsgd1na2vs0mg"},{"bike_id":"c23d77b5-c61a-4dcd-81c1-91eccc88b261","system_id":"levelo_inurba_marseille","lat":43.294162,"lon":5.386292,"is_reserved":false,"is_disabled":false,"rental_uris":{"android":"levelo://app?vid=c23d77b5-c61a-4dcd-81c1-91eccc88b261","ios":"levelo://app?vid=c23d77b5-c61a-4dcd-81c1-91eccc88b261"},"vehicle_type_id":"4","last_reported":1718132797,"current_range_meters":0,"station_id":"ce4bh2h2rcd13ifvqdh0","pricing_plan_id":"cebpf4jnsgd1na2vs0mg"},{"bike_id":"9b04e2e3-3cb9-4fe9-80bd-744cd082ed9d","system_id":"levelo_inurba_marseille","lat":43.29421,"lon":5.38619,"is_reserved":false,"is_disabled":false,"rental_uris":{"android":"levelo://app?vid=9b04e2e3-3cb9-4fe9-80bd-744cd082ed9d","ios":"levelo://app?vid=9b04e2e3-3cb9-4fe9-80bd-744cd082ed9d"},"vehicle_type_id":"4","last_reported":1718132797,"current_range_meters":13600,"station_id":"ce4bh2h2rcd13ifvqdh0","pricing_plan_id":"cebpf4jnsgd1na2vs0mg"},{"bike_id":"3ad50e76-9b2d-4eea-9f59-cc8e310c76a9","system_id":"levelo_inurba_marseille","lat":43.290327,"lon":5.375711,"is_reserved":false,"is_disabled":false,"rental_uris":{"android":"levelo://app?vid=3ad50e76-9b2d-4eea-9f59-cc8e310c76a9","ios":"levelo://app?vid=3ad50e76-9b2d-4eea-9f59-cc8e310c76a9"},"vehicle_type_id":"4","last_reported":1718132797,"current_range_meters":0,"station_id":"ce4bh692rcd13ifvqe90","pricing_plan_id":"cebpf4jnsgd1na2vs0mg"},{"bike_id":"fb47187e-888d-4172-8edf-a2e06918f92e","system_id":"levelo_inurba_marseille","lat":43.294162,"lon":5.386292,"is_reserved":false,"is_disabled":false,"rental_uris":{"android":"levelo://app?vid=fb47187e-888d-4172-8edf-a2e06918f92e","ios":"levelo://app?vid=fb47187e-888d-4172-8edf-a2e06918f92e"},"vehicle_type_id":"4","last_reported":1718132797,"current_range_meters":7600,"station_id":"ce4bh2h2rcd13ifvqdh0","pricing_plan_id":"cebpf4jnsgd1na2vs0mg"},{"bike_id":"aac7bc63-2b23-481a-a5bb-a38cd4b475ce","system_id":"levelo_inurba_marseille","lat":43.294162,"lon":5.386292,"is_reserved":false,"is_disabled":false,"rental_uris":{"android":"levelo://app?vid=aac7bc63-2b23-481a-a5bb-a38cd4b475ce","ios":"levelo://app?vid=aac7bc63-2b23-481a-a5bb-a38cd4b475ce"},"vehicle_type_id":"4","last_reported":1718132797,"current_range_meters":6000,"station_id":"ce4bh2h2rcd13ifvqdh0","pricing_plan_id":"cebpf4jnsgd1na2vs0mg"},{"bike_id":"f963633e-ee91-464a-a83b-19bf0325e2c6","system_id":"levelo_inurba_marseille","lat":43.294162,"lon":5.386292,"is_reserved":false,"is_disabled":false,"rental_uris":{"android":"levelo://app?vid=f963633e-ee91-464a-a83b-19bf0325e2c6","ios":"levelo://app?vid=f963633e-ee91-464a-a83b-19bf0325e2c6"},"vehicle_type_id":"4","last_reported":1718132797,"current_range_meters":0,"station_id":"ce4bh2h2rcd13ifvqdh0","pricing_plan_id":"cebpf4jnsgd1na2vs0mg"},{"bike_id":"f8279eb2-ac0b-452e-a1dd-94f1d60d0c8f","system_id":"levelo_inurba_marseille","lat":43.294118,"lon":5.386107,"is_reserved":false,"is_disabled":false,"rental_uris":{"android":"levelo://app?vid=f8279eb2-ac0b-452e-a1dd-94f1d60d0c8f","ios":"levelo://app?vid=f8279eb2-ac0b-452e-a1dd-94f1d60d0c8f"},"vehicle_type_id":"4","last_reported":1718132797,"current_range_meters":5200,"station_id":"ce4bh2h2rcd13ifvqdh0","pricing_plan_id":"cebpf4jnsgd1na2vs0mg"},{"bike_id":"10350dfa-21b6-4f5c-ae49-b31e3b92e25a","system_id":"levelo_inurba_marseille","lat":43.290327,"lon":5.375711,"is_reserved":false,"is_disabled":false,"rental_uris":{"android":"levelo://app?vid=10350dfa-21b6-4f5c-ae49-b31e3b92e25a","ios":"levelo://app?vid=10350dfa-21b6-4f5c-ae49-b31e3b92e25a"},"vehicle_type_id":"4","last_reported":1718132797,"current_range_meters":6000,"station_id":"ce4bh692rcd13ifvqe90","pricing_plan_id":"cebpf4jnsgd1na2vs0mg"},{"bike_id":"051bcb4b-1ca0-48ea-a4a9-7f693bd841fd","system_id":"levelo_inurba_marseille","lat":43.309038,"lon":5.396546,"is_reserved":false,"is_disabled":false,"rental_uris":{"android":"levelo://app?vid=051bcb4b-1ca0-48ea-a4a9-7f693bd841fd","ios":"levelo://app?vid=051bcb4b-1ca0-48ea-a4a9-7f693bd841fd"},"vehicle_type_id":"4","last_reported":1718132797,"current_range_meters":10400,"station_id":"ce4bh012rcd13ifvqcv0","pricing_plan_id":"cebpf4jnsgd1na2vs0mg"},{"bike_id":"66c5c051-412c-421c-a0f5-454f582378de","system_id":"levelo_inurba_marseille","lat":43.29421,"lon":5.38635,"is_reserved":false,"is_disabled":false,"rental_uris":{"android":"levelo://app?vid=66c5c051-412c-421c-a0f5-454f582378de","ios":"levelo://app?vid=66c5c051-412c-421c-a0f5-454f582378de"},"vehicle_type_id":"4","last_reported":1718132797,"current_range_meters":0,"station_id":"ce4bh2h2rcd13ifvqdh0","pricing_plan_id":"cebpf4jnsgd1na2vs0mg"},{"bike_id":"76885f57-344b-4d1d-854d-c62579398822","system_id":"levelo_inurba_marseille","lat":43.28943,"lon":5.36637,"is_reserved":false,"is_disabled":false,"rental_uris":{"android":"levelo://app?vid=76885f57-344b-4d1d-854d-c62579398822","ios":"levelo://app?vid=76885f57-344b-4d1d-854d-c62579398822"},"vehicle_type_id":"4","last_reported":1718132797,"current_range_meters":0,"station_id":"ce4bhap2rcd13ifvqek0","pricing_plan_id":"cebpf4jnsgd1na2vs0mg"},{"bike_id":"1ecf39dd-d6d8-4980-b19d-07e8b9408274","system_id":"levelo_inurba_marseille","lat":43.28941,"lon":5.36405,"is_reserved":false,"is_disabled":false,"rental_uris":{"android":"levelo://app?vid=1ecf39dd-d6d8-4980-b19d-07e8b9408274","ios":"levelo://app?vid=1ecf39dd-d6d8-4980-b19d-07e8b9408274"},"vehicle_type_id":"4","last_reported":1718132797,"current_range_meters":29200,"station_id":"ce4bhc92rcd13ifvqetg","pricing_plan_id":"cebpf4jnsgd1na2vs0mg"},{"bike_id":"6e0ad48c-362d-43d3-bd0e-783b866e7a65","system_id":"levelo_inurba_marseille","lat":43.289408,"lon":5.364041,"is_reserved":false,"is_disabled":false,"rental_uris":{"android":"levelo://app?vid=6e0ad48c-362d-43d3-bd0e-783b866e7a65","ios":"levelo://app?vid=6e0ad48c-362d-43d3-bd0e-783b866e7a65"},"vehicle_type_id":"4","last_reported":1718132797,"current_range_meters":12800,"station_id":"ce4bhc92rcd13ifvqetg","pricing_plan_id":"cebpf4jnsgd1na2vs0mg"},{"bike_id":"abfa27ff-1b12-460b-b53d-e8108afeb982","system_id":"levelo_inurba_marseille","lat":43.289184,"lon":5.366408,"is_reserved":false,"is_disabled":false,"rental_uris":{"android":"levelo://app?vid=abfa27ff-1b12-460b-b53d-e8108afeb982","ios":"levelo://app?vid=abfa27ff-1b12-460b-b53d-e8108afeb982"},"vehicle_type_id":"4","last_reported":1718132797,"current_range_meters":8800,"station_id":"ce4bhap2rcd13ifvqek0","pricing_plan_id":"cebpf4jnsgd1na2vs0mg"},{"bike_id":"c2473b62-0de8-4238-8c4c-65b8071397db","system_id":"levelo_inurba_marseille","lat":43.28936,"lon":5.36402,"is_reserved":false,"is_disabled":false,"rental_uris":{"android":"levelo://app?vid=c2473b62-0de8-4238-8c4c-65b8071397db","ios":"levelo://app?vid=c2473b62-0de8-4238-8c4c-65b8071397db"},"vehicle_type_id":"4","last_reported":1718132797,"current_range_meters":0,"station_id":"ce4bhc92rcd13ifvqetg","pricing_plan_id":"cebpf4jnsgd1na2vs0mg"},{"bike_id":"13f09f69-c705-439f-b6fe-67b6eeb18e88","system_id":"levelo_inurba_marseille","lat":43.289343,"lon":5.364013,"is_reserved":false,"is_disabled":false,"rental_uris":{"android":"levelo://app?vid=13f09f69-c705-439f-b6fe-67b6eeb18e88","ios":"levelo://app?vid=13f09f69-c705-439f-b6fe-67b6eeb18e88"},"vehicle_type_id":"4","last_reported":1718132797,"current_range_meters":8800,"station_id":"ce4bhc92rcd13ifvqetg","pricing_plan_id":"cebpf4jnsgd1na2vs0mg"},{"bike_id":"eb35c175-d443-4ed5-b312-c46f90e96da1","system_id":"levelo_inurba_marseille","lat":43.290327,"lon":5.375711,"is_reserved":false,"is_disabled":false,"rental_uris":{"android":"levelo://app?vid=eb35c175-d443-4ed5-b312-c46f90e96da1","ios":"levelo://app?vid=eb35c175-d443-4ed5-b312-c46f90e96da1"},"vehicle_type_id":"4","last_reported":1718132797,"current_range_meters":13200,"station_id":"ce4bh692rcd13ifvqe90","pricing_plan_id":"cebpf4jnsgd1na2vs0mg"},{"bike_id":"33840393-3edd-4f56-884a-f3da0427471a","system_id":"levelo_inurba_marseille","lat":43.289468,"lon":5.363719,"is_reserved":false,"is_disabled":false,"rental_uris":{"android":"levelo://app?vid=33840393-3edd-4f56-884a-f3da0427471a","ios":"levelo://app?vid=33840393-3edd-4f56-884a-f3da0427471a"},"vehicle_type_id":"4","last_reported":1718132797,"current_range_meters":2000,"station_id":"ce4bhc92rcd13ifvqetg","pricing_plan_id":"cebpf4jnsgd1na2vs0mg"},{"bike_id":"483a226f-9426-49e0-a8c6-5b66f5efbc80","system_id":"levelo_inurba_marseille","lat":43.304274,"lon":5.397513,"is_reserved":false,"is_disabled":false,"rental_uris":{"android":"levelo://app?vid=483a226f-9426-49e0-a8c6-5b66f5efbc80","ios":"levelo://app?vid=483a226f-9426-49e0-a8c6-5b66f5efbc80"},"vehicle_type_id":"4","last_reported":1718132797,"current_range_meters":20000,"station_id":"ce4bh092rcd13ifvqd20","pricing_plan_id":"cebpf4jnsgd1na2vs0mg"},{"bike_id":"26d64b1c-38b9-4535-b6a4-56efcba24b1b","system_id":"levelo_inurba_marseille","lat":43.29262,"lon":5.38435,"is_reserved":false,"is_disabled":false,"rental_uris":{"android":"levelo://app?vid=26d64b1c-38b9-4535-b6a4-56efcba24b1b","ios":"levelo://app?vid=26d64b1c-38b9-4535-b6a4-56efcba24b1b"},"vehicle_type_id":"4","last_reported":1718132797,"current_range_meters":0,"station_id":"ce4bh692rcd13ifvqea0","pricing_plan_id":"cebpf4jnsgd1na2vs0mg"},{"bike_id":"e4528e62-b656-4d1b-9658-8c6ba6bf8773","system_id":"levelo_inurba_marseille","lat":43.292653,"lon":5.384435,"is_reserved":false,"is_disabled":false,"rental_uris":{"android":"levelo://app?vid=e4528e62-b656-4d1b-9658-8c6ba6bf8773","ios":"levelo://app?vid=e4528e62-b656-4d1b-9658-8c6ba6bf8773"},"vehicle_type_id":"4","last_reported":1718132797,"current_range_meters":0,"station_id":"ce4bh692rcd13ifvqea0","pricing_plan_id":"cebpf4jnsgd1na2vs0mg"},{"bike_id":"c34c86ce-de88-485c-9f7c-82faa7daeaa3","system_id":"levelo_inurba_marseille","lat":43.292609,"lon":5.384414,"is_reserved":false,"is_disabled":false,"rental_uris":{"android":"levelo://app?vid=c34c86ce-de88-485c-9f7c-82faa7daeaa3","ios":"levelo://app?vid=c34c86ce-de88-485c-9f7c-82faa7daeaa3"},"vehicle_type_id":"4","last_reported":1718132797,"current_range_meters":0,"station_id":"ce4bh692rcd13ifvqea0","pricing_plan_id":"cebpf4jnsgd1na2vs0mg"},{"bike_id":"732af352-06a0-4fe9-8acf-115cef567fc5","system_id":"levelo_inurba_marseille","lat":43.292644,"lon":5.384257,"is_reserved":false,"is_disabled":false,"rental_uris":{"android":"levelo://app?vid=732af352-06a0-4fe9-8acf-115cef567fc5","ios":"levelo://app?vid=732af352-06a0-4fe9-8acf-115cef567fc5"},"vehicle_type_id":"4","last_reported":1718132797,"current_range_meters":6800,"station_id":"ce4bh692rcd13ifvqea0","pricing_plan_id":"cebpf4jnsgd1na2vs0mg"},{"bike_id":"a8a6c026-590c-4d21-9666-f1560e4546e0","system_id":"levelo_inurba_marseille","lat":43.297815,"lon":5.393548,"is_reserved":false,"is_disabled":false,"rental_uris":{"android":"levelo://app?vid=a8a6c026-590c-4d21-9666-f1560e4546e0","ios":"levelo://app?vid=a8a6c026-590c-4d21-9666-f1560e4546e0"},"vehicle_type_id":"4","last_reported":1718132797,"current_range_meters":13600,"station_id":"chh1huq6cuj3fo74tm60","pricing_plan_id":"cebpf4jnsgd1na2vs0mg"},{"bike_id":"cdcdca81-c02c-429d-aab1-21f9cdecf7e6","system_id":"levelo_inurba_marseille","lat":43.292613,"lon":5.384486,"is_reserved":false,"is_disabled":false,"rental_uris":{"android":"levelo://app?vid=cdcdca81-c02c-429d-aab1-21f9cdecf7e6","ios":"levelo://app?vid=cdcdca81-c02c-429d-aab1-21f9cdecf7e6"},"vehicle_type_id":"4","last_reported":1718132797,"current_range_meters":0,"station_id":"ce4bh692rcd13ifvqea0","pricing_plan_id":"cebpf4jnsgd1na2vs0mg"},{"bike_id":"697772fc-701e-45a0-bd46-0c9fd683155e","system_id":"levelo_inurba_marseille","lat":43.290104,"lon":5.356111,"is_reserved":false,"is_disabled":false,"rental_uris":{"android":"levelo://app?vid=697772fc-701e-45a0-bd46-0c9fd683155e","ios":"levelo://app?vid=697772fc-701e-45a0-bd46-0c9fd683155e"},"vehicle_type_id":"4","last_reported":1718132797,"current_range_meters":1200,"station_id":"ce4bhb92rcd13ifvqen0","pricing_plan_id":"cebpf4jnsgd1na2vs0mg"},{"bike_id":"cb7aff67-c0c8-44c0-823a-87f35e8d88d2","system_id":"levelo_inurba_marseille","lat":43.290103,"lon":5.356114,"is_reserved":false,"is_disabled":false,"rental_uris":{"android":"levelo://app?vid=cb7aff67-c0c8-44c0-823a-87f35e8d88d2","ios":"levelo://app?vid=cb7aff67-c0c8-44c0-823a-87f35e8d88d2"},"vehicle_type_id":"4","last_reported":1718132797,"current_range_meters":0,"station_id":"ce4bhb92rcd13ifvqen0","pricing_plan_id":"cebpf4jnsgd1na2vs0mg"},{"bike_id":"e551f7b1-1921-4a46-bede-5745b61fecc3","system_id":"levelo_inurba_marseille","lat":43.290104,"lon":5.356111,"is_reserved":false,"is_disabled":false,"rental_uris":{"android":"levelo://app?vid=e551f7b1-1921-4a46-bede-5745b61fecc3","ios":"levelo://app?vid=e551f7b1-1921-4a46-bede-5745b61fecc3"},"vehicle_type_id":"4","last_reported":1718132797,"current_range_meters":0,"station_id":"ce4bhb92rcd13ifvqen0","pricing_plan_id":"cebpf4jnsgd1na2vs0mg"},{"bike_id":"e392052b-7e81-48fe-9b33-7dd63ee2908f","system_id":"levelo_inurba_marseille","lat":43.295169,"lon":5.390426,"is_reserved":false,"is_disabled":false,"rental_uris":{"android":"levelo://app?vid=e392052b-7e81-48fe-9b33-7dd63ee2908f","ios":"levelo://app?vid=e392052b-7e81-48fe-9b33-7dd63ee2908f"},"vehicle_type_id":"4","last_reported":1718132797,"current_range_meters":11600,"station_id":"ce4bh3p2rcd13ifvqdp0","pricing_plan_id":"cebpf4jnsgd1na2vs0mg"},{"bike_id":"5fdcd0c9-7051-4869-9f98-1d16d0a04572","system_id":"levelo_inurba_marseille","lat":43.290995,"lon":5.381361,"is_reserved":false,"is_disabled":false,"rental_uris":{"android":"levelo://app?vid=5fdcd0c9-7051-4869-9f98-1d16d0a04572","ios":"levelo://app?vid=5fdcd0c9-7051-4869-9f98-1d16d0a04572"},"vehicle_type_id":"4","last_reported":1718132797,"current_range_meters":3600,"station_id":"ce4bh512rcd13ifvqe2g","pricing_plan_id":"cebpf4jnsgd1na2vs0mg"},{"bike_id":"d40d0b8e-6a0b-4c49-97d0-9f40c9a48606","system_id":"levelo_inurba_marseille","lat":43.290995,"lon":5.381361,"is_reserved":false,"is_disabled":false,"rental_uris":{"android":"levelo://app?vid=d40d0b8e-6a0b-4c49-97d0-9f40c9a48606","ios":"levelo://app?vid=d40d0b8e-6a0b-4c49-97d0-9f40c9a48606"},"vehicle_type_id":"4","last_reported":1718132797,"current_range_meters":10000,"station_id":"ce4bh512rcd13ifvqe2g","pricing_plan_id":"cebpf4jnsgd1na2vs0mg"},{"bike_id":"624d9ce4-b638-4f72-94c4-d6a23e56969b","system_id":"levelo_inurba_marseille","lat":43.290995,"lon":5.381361,"is_reserved":false,"is_disabled":false,"rental_uris":{"android":"levelo://app?vid=624d9ce4-b638-4f72-94c4-d6a23e56969b","ios":"levelo://app?vid=624d9ce4-b638-4f72-94c4-d6a23e56969b"},"vehicle_type_id":"4","last_reported":1718132797,"current_range_meters":800,"station_id":"ce4bh512rcd13ifvqe2g","pricing_plan_id":"cebpf4jnsgd1na2vs0mg"},{"bike_id":"02b7ae77-2435-4114-b22d-c2110173b54c","system_id":"levelo_inurba_marseille","lat":43.290995,"lon":5.381361,"is_reserved":false,"is_disabled":false,"rental_uris":{"android":"levelo://app?vid=02b7ae77-2435-4114-b22d-c2110173b54c","ios":"levelo://app?vid=02b7ae77-2435-4114-b22d-c2110173b54c"},"vehicle_type_id":"4","last_reported":1718132797,"current_range_meters":26400,"station_id":"ce4bh512rcd13ifvqe2g","pricing_plan_id":"cebpf4jnsgd1na2vs0mg"},{"bike_id":"6acfd528-d694-4b97-9114-a364695ede81","system_id":"levelo_inurba_marseille","lat":43.297815,"lon":5.393548,"is_reserved":false,"is_disabled":false,"rental_uris":{"android":"levelo://app?vid=6acfd528-d694-4b97-9114-a364695ede81","ios":"levelo://app?vid=6acfd528-d694-4b97-9114-a364695ede81"},"vehicle_type_id":"4","last_reported":1718132797,"current_range_meters":27200,"station_id":"chh1huq6cuj3fo74tm60","pricing_plan_id":"cebpf4jnsgd1na2vs0mg"},{"bike_id":"852fb46c-5e33-4e49-8685-c9597d5835d7","system_id":"levelo_inurba_marseille","lat":43.295169,"lon":5.390426,"is_reserved":false,"is_disabled":false,"rental_uris":{"android":"levelo://app?vid=852fb46c-5e33-4e49-8685-c9597d5835d7","ios":"levelo://app?vid=852fb46c-5e33-4e49-8685-c9597d5835d7"},"vehicle_type_id":"4","last_reported":1718132797,"current_range_meters":30800,"station_id":"ce4bh3p2rcd13ifvqdp0","pricing_plan_id":"cebpf4jnsgd1na2vs0mg"},{"bike_id":"0f017fe9-bafb-49d1-b2f1-c3a4f48170f8","system_id":"levelo_inurba_marseille","lat":43.297816,"lon":5.393341,"is_reserved":false,"is_disabled":false,"rental_uris":{"android":"levelo://app?vid=0f017fe9-bafb-49d1-b2f1-c3a4f48170f8","ios":"levelo://app?vid=0f017fe9-bafb-49d1-b2f1-c3a4f48170f8"},"vehicle_type_id":"4","last_reported":1718132797,"current_range_meters":30800,"station_id":"chh1huq6cuj3fo74tm60","pricing_plan_id":"cebpf4jnsgd1na2vs0mg"},{"bike_id":"9005514b-12b4-4dc7-97a2-afe8497cbd50","system_id":"levelo_inurba_marseille","lat":43.29791,"lon":5.39346,"is_reserved":false,"is_disabled":false,"rental_uris":{"android":"levelo://app?vid=9005514b-12b4-4dc7-97a2-afe8497cbd50","ios":"levelo://app?vid=9005514b-12b4-4dc7-97a2-afe8497cbd50"},"vehicle_type_id":"4","last_reported":1718132797,"current_range_meters":31200,"station_id":"chh1huq6cuj3fo74tm60","pricing_plan_id":"cebpf4jnsgd1na2vs0mg"},{"bike_id":"6e2bacef-c04f-4bf0-90be-497d260d10f1","system_id":"levelo_inurba_marseille","lat":43.329521,"lon":5.391232,"is_reserved":false,"is_disabled":false,"rental_uris":{"android":"levelo://app?vid=6e2bacef-c04f-4bf0-90be-497d260d10f1","ios":"levelo://app?vid=6e2bacef-c04f-4bf0-90be-497d260d10f1"},"vehicle_type_id":"4","last_reported":1718132797,"current_range_meters":3600,"station_id":"","pricing_plan_id":"cebpf4jnsgd1na2vs0mg"},{"bike_id":"2a4dccb4-ffb0-46b2-81cd-269e4ddd6e9a","system_id":"levelo_inurba_marseille","lat":43.295169,"lon":5.390426,"is_reserved":false,"is_disabled":false,"rental_uris":{"android":"levelo://app?vid=2a4dccb4-ffb0-46b2-81cd-269e4ddd6e9a","ios":"levelo://app?vid=2a4dccb4-ffb0-46b2-81cd-269e4ddd6e9a"},"vehicle_type_id":"4","last_reported":1718132797,"current_range_meters":7200,"station_id":"ce4bh3p2rcd13ifvqdp0","pricing_plan_id":"cebpf4jnsgd1na2vs0mg"},{"bike_id":"23f8089f-eac9-4e6f-97f2-0bc6e97eeca0","system_id":"levelo_inurba_marseille","lat":43.295169,"lon":5.390426,"is_reserved":false,"is_disabled":false,"rental_uris":{"android":"levelo://app?vid=23f8089f-eac9-4e6f-97f2-0bc6e97eeca0","ios":"levelo://app?vid=23f8089f-eac9-4e6f-97f2-0bc6e97eeca0"},"vehicle_type_id":"4","last_reported":1718132797,"current_range_meters":31200,"station_id":"ce4bh3p2rcd13ifvqdp0","pricing_plan_id":"cebpf4jnsgd1na2vs0mg"},{"bike_id":"48511f30-6522-4076-9bd7-43dc993b8f71","system_id":"levelo_inurba_marseille","lat":43.295169,"lon":5.390426,"is_reserved":false,"is_disabled":false,"rental_uris":{"android":"levelo://app?vid=48511f30-6522-4076-9bd7-43dc993b8f71","ios":"levelo://app?vid=48511f30-6522-4076-9bd7-43dc993b8f71"},"vehicle_type_id":"4","last_reported":1718132797,"current_range_meters":28800,"station_id":"ce4bh3p2rcd13ifvqdp0","pricing_plan_id":"cebpf4jnsgd1na2vs0mg"},{"bike_id":"f8aa99ef-e6fb-4ad6-87ca-73adb1f8b1e9","system_id":"levelo_inurba_marseille","lat":43.330219,"lon":5.390413,"is_reserved":false,"is_disabled":false,"rental_uris":{"android":"levelo://app?vid=f8aa99ef-e6fb-4ad6-87ca-73adb1f8b1e9","ios":"levelo://app?vid=f8aa99ef-e6fb-4ad6-87ca-73adb1f8b1e9"},"vehicle_type_id":"4","last_reported":1718132797,"current_range_meters":10800,"station_id":"ce4bhr92rcd13ifvqhrg","pricing_plan_id":"cebpf4jnsgd1na2vs0mg"},{"bike_id":"480f4ac2-6220-4c91-a7d9-973704368056","system_id":"levelo_inurba_marseille","lat":43.330442,"lon":5.389148,"is_reserved":false,"is_disabled":false,"rental_uris":{"android":"levelo://app?vid=480f4ac2-6220-4c91-a7d9-973704368056","ios":"levelo://app?vid=480f4ac2-6220-4c91-a7d9-973704368056"},"vehicle_type_id":"4","last_reported":1718132797,"current_range_meters":16000,"station_id":"ce4bhr92rcd13ifvqhrg","pricing_plan_id":"cebpf4jnsgd1na2vs0mg"},{"bike_id":"12429ecb-1951-4ba1-a93d-ea9d3fe3596a","system_id":"levelo_inurba_marseille","lat":43.330442,"lon":5.389148,"is_reserved":false,"is_disabled":false,"rental_uris":{"android":"levelo://app?vid=12429ecb-1951-4ba1-a93d-ea9d3fe3596a","ios":"levelo://app?vid=12429ecb-1951-4ba1-a93d-ea9d3fe3596a"},"vehicle_type_id":"4","last_reported":1718132797,"current_range_meters":14000,"station_id":"ce4bhr92rcd13ifvqhrg","pricing_plan_id":"cebpf4jnsgd1na2vs0mg"},{"bike_id":"4f01d364-83b3-43ce-aca0-6f22906ec077","system_id":"levelo_inurba_marseille","lat":43.330442,"lon":5.389148,"is_reserved":false,"is_disabled":false,"rental_uris":{"android":"levelo://app?vid=4f01d364-83b3-43ce-aca0-6f22906ec077","ios":"levelo://app?vid=4f01d364-83b3-43ce-aca0-6f22906ec077"},"vehicle_type_id":"4","last_reported":1718132797,"current_range_meters":1600,"station_id":"ce4bhr92rcd13ifvqhrg","pricing_plan_id":"cebpf4jnsgd1na2vs0mg"},{"bike_id":"09d71230-e9e4-4d01-a767-fc69cf9779c4","system_id":"levelo_inurba_marseille","lat":43.295169,"lon":5.390426,"is_reserved":false,"is_disabled":false,"rental_uris":{"android":"levelo://app?vid=09d71230-e9e4-4d01-a767-fc69cf9779c4","ios":"levelo://app?vid=09d71230-e9e4-4d01-a767-fc69cf9779c4"},"vehicle_type_id":"4","last_reported":1718132797,"current_range_meters":12000,"station_id":"ce4bh3p2rcd13ifvqdp0","pricing_plan_id":"cebpf4jnsgd1na2vs0mg"},{"bike_id":"e9f1bb0e-57cd-41ec-b231-bba6b62a417a","system_id":"levelo_inurba_marseille","lat":43.295169,"lon":5.390426,"is_reserved":false,"is_disabled":false,"rental_uris":{"android":"levelo://app?vid=e9f1bb0e-57cd-41ec-b231-bba6b62a417a","ios":"levelo://app?vid=e9f1bb0e-57cd-41ec-b231-bba6b62a417a"},"vehicle_type_id":"4","last_reported":1718132797,"current_range_meters":13200,"station_id":"ce4bh3p2rcd13ifvqdp0","pricing_plan_id":"cebpf4jnsgd1na2vs0mg"},{"bike_id":"41b80456-0963-4aa1-962e-c852389978d9","system_id":"levelo_inurba_marseille","lat":43.295169,"lon":5.390426,"is_reserved":false,"is_disabled":false,"rental_uris":{"android":"levelo://app?vid=41b80456-0963-4aa1-962e-c852389978d9","ios":"levelo://app?vid=41b80456-0963-4aa1-962e-c852389978d9"},"vehicle_type_id":"4","last_reported":1718132797,"current_range_meters":0,"station_id":"ce4bh3p2rcd13ifvqdp0","pricing_plan_id":"cebpf4jnsgd1na2vs0mg"},{"bike_id":"2c81c98d-95aa-4b0d-ace4-074e8c50c30f","system_id":"levelo_inurba_marseille","lat":43.29749,"lon":5.393391,"is_reserved":false,"is_disabled":false,"rental_uris":{"android":"levelo://app?vid=2c81c98d-95aa-4b0d-ace4-074e8c50c30f","ios":"levelo://app?vid=2c81c98d-95aa-4b0d-ace4-074e8c50c30f"},"vehicle_type_id":"4","last_reported":1718132797,"current_range_meters":4400,"station_id":"chh1huq6cuj3fo74tm60","pricing_plan_id":"cebpf4jnsgd1na2vs0mg"},{"bike_id":"2f2cadda-dc8d-4f15-a34c-70c6a982ec8a","system_id":"levelo_inurba_marseille","lat":43.2978,"lon":5.39373,"is_reserved":false,"is_disabled":false,"rental_uris":{"android":"levelo://app?vid=2f2cadda-dc8d-4f15-a34c-70c6a982ec8a","ios":"levelo://app?vid=2f2cadda-dc8d-4f15-a34c-70c6a982ec8a"},"vehicle_type_id":"4","last_reported":1718132797,"current_range_meters":18000,"station_id":"chh1huq6cuj3fo74tm60","pricing_plan_id":"cebpf4jnsgd1na2vs0mg"},{"bike_id":"f3cc3a03-5857-4a34-979c-e3b89811488c","system_id":"levelo_inurba_marseille","lat":43.295169,"lon":5.390426,"is_reserved":false,"is_disabled":false,"rental_uris":{"android":"levelo://app?vid=f3cc3a03-5857-4a34-979c-e3b89811488c","ios":"levelo://app?vid=f3cc3a03-5857-4a34-979c-e3b89811488c"},"vehicle_type_id":"4","last_reported":1718132797,"current_range_meters":6800,"station_id":"ce4bh3p2rcd13ifvqdp0","pricing_plan_id":"cebpf4jnsgd1na2vs0mg"},{"bike_id":"cfe52df5-0333-4d46-908e-12cd3bfaa32f","system_id":"levelo_inurba_marseille","lat":43.29022,"lon":5.38147,"is_reserved":false,"is_disabled":false,"rental_uris":{"android":"levelo://app?vid=cfe52df5-0333-4d46-908e-12cd3bfaa32f","ios":"levelo://app?vid=cfe52df5-0333-4d46-908e-12cd3bfaa32f"},"vehicle_type_id":"4","last_reported":1718132797,"current_range_meters":0,"station_id":"ce4bh4p2rcd13ifvqe1g","pricing_plan_id":"cebpf4jnsgd1na2vs0mg"},{"bike_id":"bee27043-b5e1-431f-8020-230947713d1c","system_id":"levelo_inurba_marseille","lat":43.28856,"lon":5.358371,"is_reserved":false,"is_disabled":false,"rental_uris":{"android":"levelo://app?vid=bee27043-b5e1-431f-8020-230947713d1c","ios":"levelo://app?vid=bee27043-b5e1-431f-8020-230947713d1c"},"vehicle_type_id":"4","last_reported":1718132797,"current_range_meters":0,"station_id":"ce4bhb12rcd13ifvqem0","pricing_plan_id":"cebpf4jnsgd1na2vs0mg"},{"bike_id":"ef4b61f1-1c80-432c-92ef-a8f3cf179785","system_id":"levelo_inurba_marseille","lat":43.286039,"lon":5.370679,"is_reserved":false,"is_disabled":false,"rental_uris":{"android":"levelo://app?vid=ef4b61f1-1c80-432c-92ef-a8f3cf179785","ios":"levelo://app?vid=ef4b61f1-1c80-432c-92ef-a8f3cf179785"},"vehicle_type_id":"4","last_reported":1718132797,"current_range_meters":17200,"station_id":"ce4bht12rcd13ifvqi60","pricing_plan_id":"cebpf4jnsgd1na2vs0mg"},{"bike_id":"ccd571a6-bce0-4574-9589-1007c1a29d19","system_id":"levelo_inurba_marseille","lat":43.28852,"lon":5.35837,"is_reserved":false,"is_disabled":false,"rental_uris":{"android":"levelo://app?vid=ccd571a6-bce0-4574-9589-1007c1a29d19","ios":"levelo://app?vid=ccd571a6-bce0-4574-9589-1007c1a29d19"},"vehicle_type_id":"4","last_reported":1718132797,"current_range_meters":0,"station_id":"ce4bhb12rcd13ifvqem0","pricing_plan_id":"cebpf4jnsgd1na2vs0mg"},{"bike_id":"1c17298a-0b04-4710-a3c7-a696f2bffb99","system_id":"levelo_inurba_marseille","lat":43.28844,"lon":5.35861,"is_reserved":false,"is_disabled":false,"rental_uris":{"android":"levelo://app?vid=1c17298a-0b04-4710-a3c7-a696f2bffb99","ios":"levelo://app?vid=1c17298a-0b04-4710-a3c7-a696f2bffb99"},"vehicle_type_id":"4","last_reported":1718132797,"current_range_meters":0,"station_id":"ce4bhb12rcd13ifvqem0","pricing_plan_id":"cebpf4jnsgd1na2vs0mg"},{"bike_id":"112a5b3e-37ba-45fa-9408-9e85c518b3ad","system_id":"levelo_inurba_marseille","lat":43.288416,"lon":5.35835,"is_reserved":false,"is_disabled":false,"rental_uris":{"android":"levelo://app?vid=112a5b3e-37ba-45fa-9408-9e85c518b3ad","ios":"levelo://app?vid=112a5b3e-37ba-45fa-9408-9e85c518b3ad"},"vehicle_type_id":"4","last_reported":1718132797,"current_range_meters":3600,"station_id":"ce4bhb12rcd13ifvqem0","pricing_plan_id":"cebpf4jnsgd1na2vs0mg"},{"bike_id":"202f3cce-2f52-4ae6-9970-08621ae8ad86","system_id":"levelo_inurba_marseille","lat":43.291773,"lon":5.386008,"is_reserved":false,"is_disabled":false,"rental_uris":{"android":"levelo://app?vid=202f3cce-2f52-4ae6-9970-08621ae8ad86","ios":"levelo://app?vid=202f3cce-2f52-4ae6-9970-08621ae8ad86"},"vehicle_type_id":"4","last_reported":1718132797,"current_range_meters":8800,"station_id":"","pricing_plan_id":"cebpf4jnsgd1na2vs0mg"},{"bike_id":"3c0324c5-c393-43fa-8dcd-aa986d88a712","system_id":"levelo_inurba_marseille","lat":43.29176,"lon":5.38605,"is_reserved":false,"is_disabled":false,"rental_uris":{"android":"levelo://app?vid=3c0324c5-c393-43fa-8dcd-aa986d88a712","ios":"levelo://app?vid=3c0324c5-c393-43fa-8dcd-aa986d88a712"},"vehicle_type_id":"4","last_reported":1718132797,"current_range_meters":11200,"station_id":"","pricing_plan_id":"cebpf4jnsgd1na2vs0mg"},{"bike_id":"6e6202b8-7034-44e5-825e-a583abd496ab","system_id":"levelo_inurba_marseille","lat":43.309371,"lon":5.401449,"is_reserved":false,"is_disabled":false,"rental_uris":{"android":"levelo://app?vid=6e6202b8-7034-44e5-825e-a583abd496ab","ios":"levelo://app?vid=6e6202b8-7034-44e5-825e-a583abd496ab"},"vehicle_type_id":"4","last_reported":1718132797,"current_range_meters":5200,"station_id":"ce4bgvp2rcd13ifvqct0","pricing_plan_id":"cebpf4jnsgd1na2vs0mg"},{"bike_id":"28071ec7-1694-4425-a570-d6eda6acd7b3","system_id":"levelo_inurba_marseille","lat":43.309371,"lon":5.401449,"is_reserved":false,"is_disabled":false,"rental_uris":{"android":"levelo://app?vid=28071ec7-1694-4425-a570-d6eda6acd7b3","ios":"levelo://app?vid=28071ec7-1694-4425-a570-d6eda6acd7b3"},"vehicle_type_id":"4","last_reported":1718132797,"current_range_meters":8400,"station_id":"ce4bgvp2rcd13ifvqct0","pricing_plan_id":"cebpf4jnsgd1na2vs0mg"},{"bike_id":"fc0a311a-b514-450c-97c4-df72f4df371d","system_id":"levelo_inurba_marseille","lat":43.3127,"lon":5.40181,"is_reserved":false,"is_disabled":false,"rental_uris":{"android":"levelo://app?vid=fc0a311a-b514-450c-97c4-df72f4df371d","ios":"levelo://app?vid=fc0a311a-b514-450c-97c4-df72f4df371d"},"vehicle_type_id":"4","last_reported":1718132797,"current_range_meters":0,"station_id":"ce4bh092rcd13ifvqd30","pricing_plan_id":"cebpf4jnsgd1na2vs0mg"},{"bike_id":"b7176475-229e-412c-ac27-b639d6a69dea","system_id":"levelo_inurba_marseille","lat":43.309235,"lon":5.401501,"is_reserved":false,"is_disabled":false,"rental_uris":{"android":"levelo://app?vid=b7176475-229e-412c-ac27-b639d6a69dea","ios":"levelo://app?vid=b7176475-229e-412c-ac27-b639d6a69dea"},"vehicle_type_id":"4","last_reported":1718132797,"current_range_meters":0,"station_id":"ce4bgvp2rcd13ifvqct0","pricing_plan_id":"cebpf4jnsgd1na2vs0mg"},{"bike_id":"1969922b-2a4e-451f-aba8-7e053bc0c68e","system_id":"levelo_inurba_marseille","lat":43.30917,"lon":5.4015,"is_reserved":false,"is_disabled":false,"rental_uris":{"android":"levelo://app?vid=1969922b-2a4e-451f-aba8-7e053bc0c68e","ios":"levelo://app?vid=1969922b-2a4e-451f-aba8-7e053bc0c68e"},"vehicle_type_id":"4","last_reported":1718132797,"current_range_meters":0,"station_id":"ce4bgvp2rcd13ifvqct0","pricing_plan_id":"cebpf4jnsgd1na2vs0mg"},{"bike_id":"ad66a201-6efe-4d73-836a-976caef4a30e","system_id":"levelo_inurba_marseille","lat":43.337539,"lon":5.374568,"is_reserved":false,"is_disabled":false,"rental_uris":{"android":"levelo://app?vid=ad66a201-6efe-4d73-836a-976caef4a30e","ios":"levelo://app?vid=ad66a201-6efe-4d73-836a-976caef4a30e"},"vehicle_type_id":"4","last_reported":1718132797,"current_range_meters":26400,"station_id":"","pricing_plan_id":"cebpf4jnsgd1na2vs0mg"},{"bike_id":"86a27a08-ce72-4f4b-aca9-9dcfbf309216","system_id":"levelo_inurba_marseille","lat":43.337562,"lon":5.374545,"is_reserved":false,"is_disabled":false,"rental_uris":{"android":"levelo://app?vid=86a27a08-ce72-4f4b-aca9-9dcfbf309216","ios":"levelo://app?vid=86a27a08-ce72-4f4b-aca9-9dcfbf309216"},"vehicle_type_id":"4","last_reported":1718132797,"current_range_meters":29600,"station_id":"","pricing_plan_id":"cebpf4jnsgd1na2vs0mg"},{"bike_id":"e3f4fee1-3d91-4e16-890f-c8431f6d2044","system_id":"levelo_inurba_marseille","lat":43.306412,"lon":5.401035,"is_reserved":false,"is_disabled":false,"rental_uris":{"android":"levelo://app?vid=e3f4fee1-3d91-4e16-890f-c8431f6d2044","ios":"levelo://app?vid=e3f4fee1-3d91-4e16-890f-c8431f6d2044"},"vehicle_type_id":"4","last_reported":1718132797,"current_range_meters":20400,"station_id":"ce4bh112rcd13ifvqda0","pricing_plan_id":"cebpf4jnsgd1na2vs0mg"},{"bike_id":"5c0db6dc-5c6e-4cba-afc4-635c58692b48","system_id":"levelo_inurba_marseille","lat":43.30642,"lon":5.401031,"is_reserved":false,"is_disabled":false,"rental_uris":{"android":"levelo://app?vid=5c0db6dc-5c6e-4cba-afc4-635c58692b48","ios":"levelo://app?vid=5c0db6dc-5c6e-4cba-afc4-635c58692b48"},"vehicle_type_id":"4","last_reported":1718132797,"current_range_meters":26000,"station_id":"ce4bh112rcd13ifvqda0","pricing_plan_id":"cebpf4jnsgd1na2vs0mg"},{"bike_id":"ee3aaa46-cb8b-4961-80ae-2197af341e03","system_id":"levelo_inurba_marseille","lat":43.301117,"lon":5.398795,"is_reserved":false,"is_disabled":false,"rental_uris":{"android":"levelo://app?vid=ee3aaa46-cb8b-4961-80ae-2197af341e03","ios":"levelo://app?vid=ee3aaa46-cb8b-4961-80ae-2197af341e03"},"vehicle_type_id":"4","last_reported":1718132797,"current_range_meters":25200,"station_id":"ce4bh0h2rcd13ifvqd40","pricing_plan_id":"cebpf4jnsgd1na2vs0mg"},{"bike_id":"09658381-8476-4924-8112-ac7f9af9b92c","system_id":"levelo_inurba_marseille","lat":43.309371,"lon":5.401449,"is_reserved":false,"is_disabled":false,"rental_uris":{"android":"levelo://app?vid=09658381-8476-4924-8112-ac7f9af9b92c","ios":"levelo://app?vid=09658381-8476-4924-8112-ac7f9af9b92c"},"vehicle_type_id":"4","last_reported":1718132797,"current_range_meters":8400,"station_id":"ce4bgvp2rcd13ifvqct0","pricing_plan_id":"cebpf4jnsgd1na2vs0mg"},{"bike_id":"f5d5a13d-42b2-4b5d-865c-9d9d03478357","system_id":"levelo_inurba_marseille","lat":43.295194,"lon":5.39397,"is_reserved":false,"is_disabled":false,"rental_uris":{"android":"levelo://app?vid=f5d5a13d-42b2-4b5d-865c-9d9d03478357","ios":"levelo://app?vid=f5d5a13d-42b2-4b5d-865c-9d9d03478357"},"vehicle_type_id":"4","last_reported":1718132797,"current_range_meters":15600,"station_id":"ce4bh292rcd13ifvqdf0","pricing_plan_id":"cebpf4jnsgd1na2vs0mg"},{"bike_id":"3b5ef04b-352f-417b-8946-8ef56d92e374","system_id":"levelo_inurba_marseille","lat":43.28727,"lon":5.36078,"is_reserved":false,"is_disabled":false,"rental_uris":{"android":"levelo://app?vid=3b5ef04b-352f-417b-8946-8ef56d92e374","ios":"levelo://app?vid=3b5ef04b-352f-417b-8946-8ef56d92e374"},"vehicle_type_id":"4","last_reported":1718132797,"current_range_meters":4000,"station_id":"cki0cbj6b192h4jlfktg","pricing_plan_id":"cebpf4jnsgd1na2vs0mg"},{"bike_id":"88b16dfe-5134-4427-b23b-c29788283ed4","system_id":"levelo_inurba_marseille","lat":43.28727,"lon":5.36078,"is_reserved":false,"is_disabled":false,"rental_uris":{"android":"levelo://app?vid=88b16dfe-5134-4427-b23b-c29788283ed4","ios":"levelo://app?vid=88b16dfe-5134-4427-b23b-c29788283ed4"},"vehicle_type_id":"4","last_reported":1718132797,"current_range_meters":14400,"station_id":"cki0cbj6b192h4jlfktg","pricing_plan_id":"cebpf4jnsgd1na2vs0mg"},{"bike_id":"e09ec0e2-5e5a-4e33-a9fd-225160f2c35a","system_id":"levelo_inurba_marseille","lat":43.295196,"lon":5.39397,"is_reserved":false,"is_disabled":false,"rental_uris":{"android":"levelo://app?vid=e09ec0e2-5e5a-4e33-a9fd-225160f2c35a","ios":"levelo://app?vid=e09ec0e2-5e5a-4e33-a9fd-225160f2c35a"},"vehicle_type_id":"4","last_reported":1718132797,"current_range_meters":1600,"station_id":"ce4bh292rcd13ifvqdf0","pricing_plan_id":"cebpf4jnsgd1na2vs0mg"},{"bike_id":"318989b4-1548-4662-80dc-74a50d62c317","system_id":"levelo_inurba_marseille","lat":43.287034,"lon":5.373882,"is_reserved":false,"is_disabled":false,"rental_uris":{"android":"levelo://app?vid=318989b4-1548-4662-80dc-74a50d62c317","ios":"levelo://app?vid=318989b4-1548-4662-80dc-74a50d62c317"},"vehicle_type_id":"4","last_reported":1718132797,"current_range_meters":0,"station_id":"ce4bh3p2rcd13ifvqdq0","pricing_plan_id":"cebpf4jnsgd1na2vs0mg"},