{"last_updated":1691946259,"ttl":30,"version":"2.2","data":{"bikes":[{"bike_id":"5791228a-4fe3-4110-af26-99928fcdf5dc","system_id":"levelo_inurba_marseille","lat":43.312239,"lon":5.368562,"is_reserved":false,"is_disabled":false,"rental_uris":{"android":"levelo://app?vid=5791228a-4fe3-4110-af26-99928fcdf5dc","ios":"levelo://app?vid=5791228a-4fe3-4110-af26-99928fcdf5dc"},"vehicle_type_id":"4","last_reported":1691946259,"current_range_meters":4400,"station_id":"ce4bgl92rcd13ifvqbq0","pricing_plan_id":"free"},{"bike_id":"98d497be-a468-4bbf-8ae2-36fd363eae58","system_id":"levelo_inurba_marseille","lat":43.31237,"lon":5.36848,"is_reserved":false,"is_disabled":false,"rental_uris":{"android":"levelo://app?vid=98d497be-a468-4bbf-8ae2-36fd363eae58","ios":"levelo://app?vid=98d497be-a468-4bbf-8ae2-36fd363eae58"},"vehicle_type_id":"4","last_reported":1691946259,"current_range_meters":18000,"station_id":"","pricing_plan_id":"free"},{"bike_id":"b57cfe8d-9ef0-48fc-b6c9-35783f986e85","system_id":"levelo_inurba_marseille","lat":43.312239,"lon":5.368562,"is_reserved":false,"is_disabled":false,"rental_uris":{"android":"levelo://app?vid=b57cfe8d-9ef0-48fc-b6c9-35783f986e85","ios":"levelo://app?vid=b57cfe8d-9ef0-48fc-b6c9-35783f986e85"},"vehicle_type_id":"4","last_reported":1691946259,"current_range_meters":6000,"station_id":"ce4bgl92rcd13ifvqbq0","pricing_plan_id":"free"},{"bike_id":"14a7d69b-c12c-48b6-adf6-18c57447f94e","system_id":"levelo_inurba_marseille","lat":43.314811,"lon":5.373103,"is_reserved":false,"is_disabled":false,"rental_uris":{"android":"levelo://app?vid=14a7d69b-c12c-48b6-adf6-18c57447f94e","ios":"levelo://app?vid=14a7d69b-c12c-48b6-adf6-18c57447f94e"},"vehicle_type_id":"4","last_reported":1691946259,"current_range_meters":27600,"station_id":"ce4bgt12rcd13ifvqcd0","pricing_plan_id":"free"},{"bike_id":"115816db-ba79-4957-8fd8-668570062849","system_id":"levelo_inurba_marseille","lat":43.314811,"lon":5.373103,"is_reserved":false,"is_disabled":false,"rental_uris":{"android":"levelo://app?vid=115816db-ba79-4957-8fd8-668570062849","ios":"levelo://app?vid=115816db-ba79-4957-8fd8-668570062849"},"vehicle_type_id":"4","last_reported":1691946259,"current_range_meters":5200,"station_id":"ce4bgt12rcd13ifvqcd0","pricing_plan_id":"free"},{"bike_id":"60fd1a8c-d293-41e0-9616-2dd4b3166e41","system_id":"levelo_inurba_marseille","lat":43.314811,"lon":5.373104,"is_reserved":false,"is_disabled":false,"rental_uris":{"android":"levelo://app?vid=60fd1a8c-d293-41e0-9616-2dd4b3166e41","ios":"levelo://app?vid=60fd1a8c-d293-41e0-9616-2dd4b3166e41"},"vehicle_type_id":"4","last_reported":1691946259,"current_range_meters":18400,"station_id":"ce4bgt12rcd13ifvqcd0","pricing_plan_id":"free"},{"bike_id":"68129b0a-bbb8-492e-b7e4-d8e596be938a","system_id":"levelo_inurba_marseille","lat":43.309039,"lon":5.371797,"is_reserved":false,"is_disabled":false,"rental_uris":{"android":"levelo://app?vid=68129b0a-bbb8-492e-b7e4-d8e596be938a","ios":"levelo://app?vid=68129b0a-bbb8-492e-b7e4-d8e596be938a"},"vehicle_type_id":"4","last_reported":1691946259,"current_range_meters":12000,"station_id":"ce4bguh2rcd13ifvqckg","pricing_plan_id":"free"},{"bike_id":"ce42beca-f9c7-4d57-adc2-6dec6d5f5e77","system_id":"levelo_inurba_marseille","lat":43.30636,"lon":5.36548,"is_reserved":false,"is_disabled":false,"rental_uris":{"android":"levelo://app?vid=ce42beca-f9c7-4d57-adc2-6dec6d5f5e77","ios":"levelo://app?vid=ce42beca-f9c7-4d57-adc2-6dec6d5f5e77"},"vehicle_type_id":"4","last_reported":1691946259,"current_range_meters":24000,"station_id":"","pricing_plan_id":"free"},{"bike_id":"f028e6ca-67ae-492f-ae77-177d7724adcb","system_id":"levelo_inurba_marseille","lat":43.305368,"lon":5.367343,"is_reserved":false,"is_disabled":false,"rental_uris":{"android":"levelo://app?vid=f028e6ca-67ae-492f-ae77-177d7724adcb","ios":"levelo://app?vid=f028e6ca-67ae-492f-ae77-177d7724adcb"},"vehicle_type_id":"4","last_reported":1691946259,"current_range_meters":0,"station_id":"ce4bgrp2rcd13ifvqc9g","pricing_plan_id":"free"},{"bike_id":"5c55ad28-11f1-42cb-b21e-0ce429e7bb6d","system_id":"levelo_inurba_marseille","lat":43.31116,"lon":5.37773,"is_reserved":false,"is_disabled":false,"rental_uris":{"android":"levelo://app?vid=5c55ad28-11f1-42cb-b21e-0ce429e7bb6d","ios":"levelo://app?vid=5c55ad28-11f1-42cb-b21e-0ce429e7bb6d"},"vehicle_type_id":"4","last_reported":1691946259,"current_range_meters":14000,"station_id":"ce4bgt92rcd13ifvqcg0","pricing_plan_id":"free"},{"bike_id":"cc6c34b1-be44-439e-937a-1ccdf20692cb","system_id":"levelo_inurba_marseille","lat":43.31122,"lon":5.37778,"is_reserved":false,"is_disabled":false,"rental_uris":{"android":"levelo://app?vid=cc6c34b1-be44-439e-937a-1ccdf20692cb","ios":"levelo://app?vid=cc6c34b1-be44-439e-937a-1ccdf20692cb"},"vehicle_type_id":"4","last_reported":1691946259,"current_range_meters":21200,"station_id":"ce4bgt92rcd13ifvqcg0","pricing_plan_id":"free"},{"bike_id":"0b41ddf6-1860-4525-bed0-452a903d3f7c","system_id":"levelo_inurba_marseille","lat":43.31926,"lon":5.37418,"is_reserved":false,"is_disabled":false,"rental_uris":{"android":"levelo://app?vid=0b41ddf6-1860-4525-bed0-452a903d3f7c","ios":"levelo://app?vid=0b41ddf6-1860-4525-bed0-452a903d3f7c"},"vehicle_type_id":"4","last_reported":1691946259,"current_range_meters":16000,"station_id":"","pricing_plan_id":"free"},{"bike_id":"18ff13f7-8a63-4d71-95c3-82e5f131ff4d","system_id":"levelo_inurba_marseille","lat":43.30782,"lon":5.37649,"is_reserved":false,"is_disabled":false,"rental_uris":{"android":"levelo://app?vid=18ff13f7-8a63-4d71-95c3-82e5f131ff4d","ios":"levelo://app?vid=18ff13f7-8a63-4d71-95c3-82e5f131ff4d"},"vehicle_type_id":"4","last_reported":1691946259,"current_range_meters":8000,"station_id":"ce4bgv92rcd13ifvqcq0","pricing_plan_id":"free"},{"bike_id":"1b06980e-4126-4634-b53d-1e5246d34c6f","system_id":"levelo_inurba_marseille","lat":43.317075,"lon":5.377367,"is_reserved":false,"is_disabled":false,"rental_uris":{"android":"levelo://app?vid=1b06980e-4126-4634-b53d-1e5246d34c6f","ios":"levelo://app?vid=1b06980e-4126-4634-b53d-1e5246d34c6f"},"vehicle_type_id":"4","last_reported":1691946259,"current_range_meters":21600,"station_id":"ce4bgth2rcd13ifvqch0","pricing_plan_id":"free"},{"bike_id":"de460d34-bb09-4664-b305-4061da085597","system_id":"levelo_inurba_marseille","lat":43.3188,"lon":5.37706,"is_reserved":false,"is_disabled":false,"rental_uris":{"android":"levelo://app?vid=de460d34-bb09-4664-b305-4061da085597","ios":"levelo://app?vid=de460d34-bb09-4664-b305-4061da085597"},"vehicle_type_id":"4","last_reported":1691946259,"current_range_meters":20000,"station_id":"","pricing_plan_id":"free"},{"bike_id":"6dc4d77e-c5fa-4216-a1f6-9b6940258e6b","system_id":"levelo_inurba_marseille","lat":43.30299,"lon":5.36893,"is_reserved":false,"is_disabled":false,"rental_uris":{"android":"levelo://app?vid=6dc4d77e-c5fa-4216-a1f6-9b6940258e6b","ios":"levelo://app?vid=6dc4d77e-c5fa-4216-a1f6-9b6940258e6b"},"vehicle_type_id":"4","last_reported":1691946259,"current_range_meters":23200,"station_id":"ce4bgqh2rcd13ifvqc5g","pricing_plan_id":"free"},{"bike_id":"1d4001ce-b10f-4932-8cf8-d78ab4da1b32","system_id":"levelo_inurba_marseille","lat":43.315293,"lon":5.380349,"is_reserved":false,"is_disabled":false,"rental_uris":{"android":"levelo://app?vid=1d4001ce-b10f-4932-8cf8-d78ab4da1b32","ios":"levelo://app?vid=1d4001ce-b10f-4932-8cf8-d78ab4da1b32"},"vehicle_type_id":"4","last_reported":1691946259,"current_range_meters":13200,"station_id":"ce4bhsp2rcd13ifvqi50","pricing_plan_id":"free"},{"bike_id":"061c8d67-017d-436c-a69d-4739d7109d5f","system_id":"levelo_inurba_marseille","lat":43.315293,"lon":5.380349,"is_reserved":false,"is_disabled":false,"rental_uris":{"android":"levelo://app?vid=061c8d67-017d-436c-a69d-4739d7109d5f","ios":"levelo://app?vid=061c8d67-017d-436c-a69d-4739d7109d5f"},"vehicle_type_id":"4","last_reported":1691946259,"current_range_meters":12000,"station_id":"ce4bhsp2rcd13ifvqi50","pricing_plan_id":"free"},{"bike_id":"6a0232fa-80b1-4833-b4f3-d079d6504d6f","system_id":"levelo_inurba_marseille","lat":43.315293,"lon":5.380349,"is_reserved":false,"is_disabled":false,"rental_uris":{"android":"levelo://app?vid=6a0232fa-80b1-4833-b4f3-d079d6504d6f","ios":"levelo://app?vid=6a0232fa-80b1-4833-b4f3-d079d6504d6f"},"vehicle_type_id":"4","last_reported":1691946259,"current_range_meters":26800,"station_id":"ce4bhsp2rcd13ifvqi50","pricing_plan_id":"free"},{"bike_id":"4776d223-119d-4108-819f-9a9b949591b9","system_id":"levelo_inurba_marseille","lat":43.315289,"lon":5.380349,"is_reserved":false,"is_disabled":false,"rental_uris":{"android":"levelo://app?vid=4776d223-119d-4108-819f-9a9b949591b9","ios":"levelo://app?vid=4776d223-119d-4108-819f-9a9b949591b9"},"vehicle_type_id":"4","last_reported":1691946259,"current_range_meters":23600,"station_id":"ce4bhsp2rcd13ifvqi50","pricing_plan_id":"free"},{"bike_id":"91a1afbf-ecd7-44d6-a6a6-d4716539f2f2","system_id":"levelo_inurba_marseille","lat":43.315293,"lon":5.380349,"is_reserved":false,"is_disabled":false,"rental_uris":{"android":"levelo://app?vid=91a1afbf-ecd7-44d6-a6a6-d4716539f2f2","ios":"levelo://app?vid=91a1afbf-ecd7-44d6-a6a6-d4716539f2f2"},"vehicle_type_id":"4","last_reported":1691946259,"current_range_meters":21200,"station_id":"ce4bhsp2rcd13ifvqi50","pricing_plan_id":"free"},{"bike_id":"d625d531-5034-474b-abb4-6df6deb493be","system_id":"levelo_inurba_marseille","lat":43.31533,"lon":5.38029,"is_reserved":false,"is_disabled":false,"rental_uris":{"android":"levelo://app?vid=d625d531-5034-474b-abb4-6df6deb493be","ios":"levelo://app?vid=d625d531-5034-474b-abb4-6df6deb493be"},"vehicle_type_id":"4","last_reported":1691946259,"current_range_meters":16000,"station_id":"ce4bhsp2rcd13ifvqi50","pricing_plan_id":"free"},{"bike_id":"b5698e6e-13cb-4874-a1f7-a559392d3af4","system_id":"levelo_inurba_marseille","lat":43.31532,"lon":5.38031,"is_reserved":false,"is_disabled":false,"rental_uris":{"android":"levelo://app?vid=b5698e6e-13cb-4874-a1f7-a559392d3af4","ios":"levelo://app?vid=b5698e6e-13cb-4874-a1f7-a559392d3af4"},"vehicle_type_id":"4","last_reported":1691946259,"current_range_meters":30800,"station_id":"ce4bhsp2rcd13ifvqi50","pricing_plan_id":"free"},{"bike_id":"e00290c8-1d56-4e61-b8dc-949a9f696918","system_id":"levelo_inurba_marseille","lat":43.315289,"lon":5.380349,"is_reserved":false,"is_disabled":false,"rental_uris":{"android":"levelo://app?vid=e00290c8-1d56-4e61-b8dc-949a9f696918","ios":"levelo://app?vid=e00290c8-1d56-4e61-b8dc-949a9f696918"},"vehicle_type_id":"4","last_reported":1691946259,"current_range_meters":8400,"station_id":"ce4bhsp2rcd13ifvqi50","pricing_plan_id":"free"},{"bike_id":"ee65936e-c51d-4ed8-bd5e-f57e6949ba5d","system_id":"levelo_inurba_marseille","lat":43.315323,"lon":5.380354,"is_reserved":false,"is_disabled":false,"rental_uris":{"android":"levelo://app?vid=ee65936e-c51d-4ed8-bd5e-f57e6949ba5d","ios":"levelo://app?vid=ee65936e-c51d-4ed8-bd5e-f57e6949ba5d"},"vehicle_type_id":"4","last_reported":1691946259,"current_range_meters":22000,"station_id":"ce4bhsp2rcd13ifvqi50","pricing_plan_id":"free"},{"bike_id":"8c12ea8d-a36f-4d35-b5a5-64cc158eff9f","system_id":"levelo_inurba_marseille","lat":43.315298,"lon":5.380377,"is_reserved":false,"is_disabled":false,"rental_uris":{"android":"levelo://app?vid=8c12ea8d-a36f-4d35-b5a5-64cc158eff9f","ios":"levelo://app?vid=8c12ea8d-a36f-4d35-b5a5-64cc158eff9f"},"vehicle_type_id":"4","last_reported":1691946259,"current_range_meters":5200,"station_id":"ce4bhsp2rcd13ifvqi50","pricing_plan_id":"free"},{"bike_id":"08c88e7b-c250-4189-96f3-738d74122a59","system_id":"levelo_inurba_marseille","lat":43.301939,"lon":5.366286,"is_reserved":false,"is_disabled":false,"rental_uris":{"android":"levelo://app?vid=08c88e7b-c250-4189-96f3-738d74122a59","ios":"levelo://app?vid=08c88e7b-c250-4189-96f3-738d74122a59"},"vehicle_type_id":"4","last_reported":1691946259,"current_range_meters":29200,"station_id":"ce4bgrh2rcd13ifvqc8g","pricing_plan_id":"free"},{"bike_id":"0d91cb03-14fa-4afe-9fd9-96cd5a2a737f","system_id":"levelo_inurba_marseille","lat":43.301939,"lon":5.366286,"is_reserved":false,"is_disabled":false,"rental_uris":{"android":"levelo://app?vid=0d91cb03-14fa-4afe-9fd9-96cd5a2a737f","ios":"levelo://app?vid=0d91cb03-14fa-4afe-9fd9-96cd5a2a737f"},"vehicle_type_id":"4","last_reported":1691946259,"current_range_meters":0,"station_id":"ce4bgrh2rcd13ifvqc8g","pricing_plan_id":"free"},{"bike_id":"a7ebab1e-677b-4443-a9cb-34cbfd7d86fd","system_id":"levelo_inurba_marseille","lat":43.30792,"lon":5.38148,"is_reserved":false,"is_disabled":false,"rental_uris":{"android":"levelo://app?vid=a7ebab1e-677b-4443-a9cb-34cbfd7d86fd","ios":"levelo://app?vid=a7ebab1e-677b-4443-a9cb-34cbfd7d86fd"},"vehicle_type_id":"4","last_reported":1691946259,"current_range_meters":19200,"station_id":"ce4bgt12rcd13ifvqce0","pricing_plan_id":"free"},{"bike_id":"1f0f560a-e5a1-4769-82cc-f748d995341b","system_id":"levelo_inurba_marseille","lat":43.304606,"lon":5.379026,"is_reserved":false,"is_disabled":false,"rental_uris":{"android":"levelo://app?vid=1f0f560a-e5a1-4769-82cc-f748d995341b","ios":"levelo://app?vid=1f0f560a-e5a1-4769-82cc-f748d995341b"},"vehicle_type_id":"4","last_reported":1691946259,"current_range_meters":16800,"station_id":"ce4bgup2rcd13ifvqcn0","pricing_plan_id":"free"},{"bike_id":"6f8ef17a-7233-480b-bf5c-0670e618535f","system_id":"levelo_inurba_marseille","lat":43.319935,"lon":5.381699,"is_reserved":false,"is_disabled":false,"rental_uris":{"android":"levelo://app?vid=6f8ef17a-7233-480b-bf5c-0670e618535f","ios":"levelo://app?vid=6f8ef17a-7233-480b-bf5c-0670e618535f"},"vehicle_type_id":"4","last_reported":1691946259,"current_range_meters":30800,"station_id":"ce4bhr12rcd13ifvqhpg","pricing_plan_id":"free"},{"bike_id":"10ace6ff-ef76-4b4d-a04f-2ec52dd81c45","system_id":"levelo_inurba_marseille","lat":43.319935,"lon":5.381699,"is_reserved":false,"is_disabled":false,"rental_uris":{"android":"levelo://app?vid=10ace6ff-ef76-4b4d-a04f-2ec52dd81c45","ios":"levelo://app?vid=10ace6ff-ef76-4b4d-a04f-2ec52dd81c45"},"vehicle_type_id":"4","last_reported":1691946259,"current_range_meters":28400,"station_id":"ce4bhr12rcd13ifvqhpg","pricing_plan_id":"free"},{"bike_id":"8257b402-9e5d-4065-83c8-88f3934663dd","system_id":"levelo_inurba_marseille","lat":43.319935,"lon":5.381699,"is_reserved":false,"is_disabled":false,"rental_uris":{"android":"levelo://app?vid=8257b402-9e5d-4065-83c8-88f3934663dd","ios":"levelo://app?vid=8257b402-9e5d-4065-83c8-88f3934663dd"},"vehicle_type_id":"4","last_reported":1691946259,"current_range_meters":24800,"station_id":"ce4bhr12rcd13ifvqhpg","pricing_plan_id":"free"},{"bike_id":"78abbae6-fb70-438b-804f-1c5ad07d176a","system_id":"levelo_inurba_marseille","lat":43.31999,"lon":5.38159,"is_reserved":false,"is_disabled":false,"rental_uris":{"android":"levelo://app?vid=78abbae6-fb70-438b-804f-1c5ad07d176a","ios":"levelo://app?vid=78abbae6-fb70-438b-804f-1c5ad07d176a"},"vehicle_type_id":"4","last_reported":1691946259,"current_range_meters":16400,"station_id":"ce4bhr12rcd13ifvqhpg","pricing_plan_id":"free"},{"bike_id":"bf0ebb28-55fb-4f87-bb59-3ee042c40e9f","system_id":"levelo_inurba_marseille","lat":43.313571,"lon":5.384829,"is_reserved":false,"is_disabled":false,"rental_uris":{"android":"levelo://app?vid=bf0ebb28-55fb-4f87-bb59-3ee042c40e9f","ios":"levelo://app?vid=bf0ebb28-55fb-4f87-bb59-3ee042c40e9f"},"vehicle_type_id":"4","last_reported":1691946259,"current_range_meters":7600,"station_id":"ce4bgt92rcd13ifvqcf0","pricing_plan_id":"free"},{"bike_id":"f11cc777-96ff-4b87-83ab-6b0d3263968c","system_id":"levelo_inurba_marseille","lat":43.30533,"lon":5.38406,"is_reserved":false,"is_disabled":false,"rental_uris":{"android":"levelo://app?vid=f11cc777-96ff-4b87-83ab-6b0d3263968c","ios":"levelo://app?vid=f11cc777-96ff-4b87-83ab-6b0d3263968c"},"vehicle_type_id":"4","last_reported":1691946259,"current_range_meters":0,"station_id":"ce4bgg92rcd13ifvqb30","pricing_plan_id":"free"},{"bike_id":"223c6b03-d5c3-4675-90f8-8ec6ae12d118","system_id":"levelo_inurba_marseille","lat":43.30537,"lon":5.38415,"is_reserved":false,"is_disabled":false,"rental_uris":{"android":"levelo://app?vid=223c6b03-d5c3-4675-90f8-8ec6ae12d118","ios":"levelo://app?vid=223c6b03-d5c3-4675-90f8-8ec6ae12d118"},"vehicle_type_id":"4","last_reported":1691946259,"current_range_meters":10400,"station_id":"ce4bgg92rcd13ifvqb30","pricing_plan_id":"free"},{"bike_id":"3f717c95-35c0-4480-bf0e-7626f0c8340a","system_id":"levelo_inurba_marseille","lat":43.311722,"lon":5.387247,"is_reserved":false,"is_disabled":false,"rental_uris":{"android":"levelo://app?vid=3f717c95-35c0-4480-bf0e-7626f0c8340a","ios":"levelo://app?vid=3f717c95-35c0-4480-bf0e-7626f0c8340a"},"vehicle_type_id":"4","last_reported":1691946259,"current_range_meters":8400,"station_id":"ce4bgv12rcd13ifvqcp0","pricing_plan_id":"free"},{"bike_id":"7870443a-8caa-4b77-93a4-5f2d5350bf6f","system_id":"levelo_inurba_marseille","lat":43.299243,"lon":5.37481,"is_reserved":false,"is_disabled":false,"rental_uris":{"android":"levelo://app?vid=7870443a-8caa-4b77-93a4-5f2d5350bf6f","ios":"levelo://app?vid=7870443a-8caa-4b77-93a4-5f2d5350bf6f"},"vehicle_type_id":"4","last_reported":1691946259,"current_range_meters":28000,"station_id":"ce4bgjh2rcd13ifvqbg0","pricing_plan_id":"free"},{"bike_id":"5680a71f-2231-4f72-8ff9-a0a57ff7ea4a","system_id":"levelo_inurba_marseille","lat":43.311722,"lon":5.387247,"is_reserved":false,"is_disabled":false,"rental_uris":{"android":"levelo://app?vid=5680a71f-2231-4f72-8ff9-a0a57ff7ea4a","ios":"levelo://app?vid=5680a71f-2231-4f72-8ff9-a0a57ff7ea4a"},"vehicle_type_id":"4","last_reported":1691946259,"current_range_meters":3600,"station_id":"ce4bgv12rcd13ifvqcp0","pricing_plan_id":"free"},{"bike_id":"106e53bb-5164-48ad-b04e-2d3a6a2615db","system_id":"levelo_inurba_marseille","lat":43.311722,"lon":5.387247,"is_reserved":false,"is_disabled":false,"rental_uris":{"android":"levelo://app?vid=106e53bb-5164-48ad-b04e-2d3a6a2615db","ios":"levelo://app?vid=106e53bb-5164-48ad-b04e-2d3a6a2615db"},"vehicle_type_id":"4","last_reported":1691946259,"current_range_meters":14800,"station_id":"ce4bgv12rcd13ifvqcp0","pricing_plan_id":"free"},{"bike_id":"d7629a61-bac3-4263-9db0-0ba7bdc4ff58","system_id":"levelo_inurba_marseille","lat":43.299243,"lon":5.374807,"is_reserved":false,"is_disabled":false,"rental_uris":{"android":"levelo://app?vid=d7629a61-bac3-4263-9db0-0ba7bdc4ff58","ios":"levelo://app?vid=d7629a61-bac3-4263-9db0-0ba7bdc4ff58"},"vehicle_type_id":"4","last_reported":1691946259,"current_range_meters":30800,"station_id":"ce4bgjh2rcd13ifvqbg0","pricing_plan_id":"free"},{"bike_id":"eccae8ad-f911-4f65-8e32-710414685a46","system_id":"levelo_inurba_marseille","lat":43.311722,"lon":5.387247,"is_reserved":false,"is_disabled":false,"rental_uris":{"android":"levelo://app?vid=eccae8ad-f911-4f65-8e32-710414685a46","ios":"levelo://app?vid=eccae8ad-f911-4f65-8e32-710414685a46"},"vehicle_type_id":"4","last_reported":1691946259,"current_range_meters":10400,"station_id":"ce4bgv12rcd13ifvqcp0","pricing_plan_id":"free"},{"bike_id":"de7e422c-72cd-43c3-8ab6-3bd536fd8669","system_id":"levelo_inurba_marseille","lat":43.32344,"lon":5.38166,"is_reserved":false,"is_disabled":false,"rental_uris":{"android":"levelo://app?vid=de7e422c-72cd-43c3-8ab6-3bd536fd8669","ios":"levelo://app?vid=de7e422c-72cd-43c3-8ab6-3bd536fd8669"},"vehicle_type_id":"4","last_reported":1691946259,"current_range_meters":26800,"station_id":"ce4bhr12rcd13ifvqhqg","pricing_plan_id":"free"},{"bike_id":"34544adb-53d3-44b1-86f1-bb8bc7dbf546","system_id":"levelo_inurba_marseille","lat":43.32289,"lon":5.38254,"is_reserved":false,"is_disabled":false,"rental_uris":{"android":"levelo://app?vid=34544adb-53d3-44b1-86f1-bb8bc7dbf546","ios":"levelo://app?vid=34544adb-53d3-44b1-86f1-bb8bc7dbf546"},"vehicle_type_id":"4","last_reported":1691946259,"current_range_meters":19600,"station_id":"ce4bhr12rcd13ifvqhqg","pricing_plan_id":"free"},{"bike_id":"2a877c10-47b3-4336-884b-4186f2d4f096","system_id":"levelo_inurba_marseille","lat":43.32289,"lon":5.38255,"is_reserved":false,"is_disabled":false,"rental_uris":{"android":"levelo://app?vid=2a877c10-47b3-4336-884b-4186f2d4f096","ios":"levelo://app?vid=2a877c10-47b3-4336-884b-4186f2d4f096"},"vehicle_type_id":"4","last_reported":1691946259,"current_range_meters":8400,"station_id":"ce4bhr12rcd13ifvqhqg","pricing_plan_id":"free"},{"bike_id":"3d75ec31-9bc5-447c-81ba-d21539df621f","system_id":"levelo_inurba_marseille","lat":43.32296,"lon":5.38247,"is_reserved":false,"is_disabled":false,"rental_uris":{"android":"levelo://app?vid=3d75ec31-9bc5-447c-81ba-d21539df621f","ios":"levelo://app?vid=3d75ec31-9bc5-447c-81ba-d21539df621f"},"vehicle_type_id":"4","last_reported":1691946259,"current_range_meters":4400,"station_id":"ce4bhr12rcd13ifvqhqg","pricing_plan_id":"free"},{"bike_id":"2e341b8a-19ca-467a-9062-4e524deac17d","system_id":"levelo_inurba_marseille","lat":43.32283,"lon":5.38264,"is_reserved":false,"is_disabled":false,"rental_uris":{"android":"levelo://app?vid=2e341b8a-19ca-467a-9062-4e524deac17d","ios":"levelo://app?vid=2e341b8a-19ca-467a-9062-4e524deac17d"},"vehicle_type_id":"4","last_reported":1691946259,"current_range_meters":22800,"station_id":"ce4bhr12rcd13ifvqhqg","pricing_plan_id":"free"},{"bike_id":"daf1c66e-67e4-446b-ab69-51ad2a5f2181","system_id":"levelo_inurba_marseille","lat":43.322872,"lon":5.382756,"is_reserved":false,"is_disabled":false,"rental_uris":{"android":"levelo://app?vid=daf1c66e-67e4-446b-ab69-51ad2a5f2181","ios":"levelo://app?vid=daf1c66e-67e4-446b-ab69-51ad2a5f2181"},"vehicle_type_id":"4","last_reported":1691946259,"current_range_meters":21600,"station_id":"ce4bhr12rcd13ifvqhqg","pricing_plan_id":"free"},{"bike_id":"026ee3db-f828-4ad6-9e78-43e60a812318","system_id":"levelo_inurba_marseille","lat":43.32296,"lon":5.38259,"is_reserved":false,"is_disabled":false,"rental_uris":{"android":"levelo://app?vid=026ee3db-f828-4ad6-9e78-43e60a812318","ios":"levelo://app?vid=026ee3db-f828-4ad6-9e78-43e60a812318"},"vehicle_type_id":"4","last_reported":1691946259,"current_range_meters":15200,"station_id":"ce4bhr12rcd13ifvqhqg","pricing_plan_id":"free"},{"bike_id":"d5ba6dfd-c10b-42c6-9d3b-6c84491d0869","system_id":"levelo_inurba_marseille","lat":43.297774,"lon":5.370875,"is_reserved":false,"is_disabled":false,"rental_uris":{"android":"levelo://app?vid=d5ba6dfd-c10b-42c6-9d3b-6c84491d0869","ios":"levelo://app?vid=d5ba6dfd-c10b-42c6-9d3b-6c84491d0869"},"vehicle_type_id":"4","last_reported":1691946259,"current_range_meters":22400,"station_id":"ce4bgop2rcd13ifvqc1g","pricing_plan_id":"free"},{"bike_id":"d5eef15e-0954-4664-bc52-6dbffde98296","system_id":"levelo_inurba_marseille","lat":43.297774,"lon":5.370875,"is_reserved":false,"is_disabled":false,"rental_uris":{"android":"levelo://app?vid=d5eef15e-0954-4664-bc52-6dbffde98296","ios":"levelo://app?vid=d5eef15e-0954-4664-bc52-6dbffde98296"},"vehicle_type_id":"4","last_reported":1691946259,"current_range_meters":30800,"station_id":"ce4bgop2rcd13ifvqc1g","pricing_plan_id":"free"},{"bike_id":"ccde4fab-a619-4b85-80d1-631ae22c1186","system_id":"levelo_inurba_marseille","lat":43.32282,"lon":5.38284,"is_reserved":false,"is_disabled":false,"rental_uris":{"android":"levelo://app?vid=ccde4fab-a619-4b85-80d1-631ae22c1186","ios":"levelo://app?vid=ccde4fab-a619-4b85-80d1-631ae22c1186"},"vehicle_type_id":"4","last_reported":1691946259,"current_range_meters":14000,"station_id":"ce4bhr12rcd13ifvqhqg","pricing_plan_id":"free"},{"bike_id":"53943a50-8d69-4b20-b459-cf6b8dbe01ba","system_id":"levelo_inurba_marseille","lat":43.32823,"lon":5.3668,"is_reserved":false,"is_disabled":false,"rental_uris":{"android":"levelo://app?vid=53943a50-8d69-4b20-b459-cf6b8dbe01ba","ios":"levelo://app?vid=53943a50-8d69-4b20-b459-cf6b8dbe01ba"},"vehicle_type_id":"4","last_reported":1691946259,"current_range_meters":400,"station_id":"ce4bhs92rcd13ifvqi0g","pricing_plan_id":"free"},{"bike_id":"6d7060ba-4cbf-4107-b8cd-a85710fab571","system_id":"levelo_inurba_marseille","lat":43.297163,"lon":5.365866,"is_reserved":false,"is_disabled":false,"rental_uris":{"android":"levelo://app?vid=6d7060ba-4cbf-4107-b8cd-a85710fab571","ios":"levelo://app?vid=6d7060ba-4cbf-4107-b8cd-a85710fab571"},"vehicle_type_id":"4","last_reported":1691946259,"current_range_meters":14000,"station_id":"ce4bgn12rcd13ifvqbt0","pricing_plan_id":"free"},{"bike_id":"dd789220-e7b5-42c1-b9dc-dc4243148021","system_id":"levelo_inurba_marseille","lat":43.297163,"lon":5.365866,"is_reserved":false,"is_disabled":false,"rental_uris":{"android":"levelo://app?vid=dd789220-e7b5-42c1-b9dc-dc4243148021","ios":"levelo://app?vid=dd789220-e7b5-42c1-b9dc-dc4243148021"},"vehicle_type_id":"4","last_reported":1691946259,"current_range_meters":32000,"station_id":"ce4bgn12rcd13ifvqbt0","pricing_plan_id":"free"},{"bike_id":"d7854780-5f58-4941-8d3d-c803bf6f8daf","system_id":"levelo_inurba_marseille","lat":43.297163,"lon":5.365866,"is_reserved":false,"is_disabled":false,"rental_uris":{"android":"levelo://app?vid=d7854780-5f58-4941-8d3d-c803bf6f8daf","ios":"levelo://app?vid=d7854780-5f58-4941-8d3d-c803bf6f8daf"},"vehicle_type_id":"4","last_reported":1691946259,"current_range_meters":5600,"station_id":"ce4bgn12rcd13ifvqbt0","pricing_plan_id":"free"},{"bike_id":"a72354b4-d8f7-402a-8594-3139a0611b93","system_id":"levelo_inurba_marseille","lat":43.297163,"lon":5.365866,"is_reserved":false,"is_disabled":false,"rental_uris":{"android":"levelo://app?vid=a72354b4-d8f7-402a-8594-3139a0611b93","ios":"levelo://app?vid=a72354b4-d8f7-402a-8594-3139a0611b93"},"vehicle_type_id":"4","last_reported":1691946259,"current_range_meters":10400,"station_id":"ce4bgn12rcd13ifvqbt0","pricing_plan_id":"free"},{"bike_id":"65a784cc-9e75-4a21-84e5-9f9eb16961dc","system_id":"levelo_inurba_marseille","lat":43.297163,"lon":5.365866,"is_reserved":false,"is_disabled":false,"rental_uris":{"android":"levelo://app?vid=65a784cc-9e75-4a21-84e5-9f9eb16961dc","ios":"levelo://app?vid=65a784cc-9e75-4a21-84e5-9f9eb16961dc"},"vehicle_type_id":"4","last_reported":1691946259,"current_range_meters":15600,"station_id":"ce4bgn12rcd13ifvqbt0","pricing_plan_id":"free"},{"bike_id":"a0847d1b-f4ad-4ee4-9767-b154484a317f","system_id":"levelo_inurba_marseille","lat":43.297163,"lon":5.365866,"is_reserved":false,"is_disabled":false,"rental_uris":{"android":"levelo://app?vid=a0847d1b-f4ad-4ee4-9767-b154484a317f","ios":"levelo://app?vid=a0847d1b-f4ad-4ee4-9767-b154484a317f"},"vehicle_type_id":"4","last_reported":1691946259,"current_range_meters":30400,"station_id":"ce4bgn12rcd13ifvqbt0","pricing_plan_id":"free"},{"bike_id":"06745e9b-1d96-4f39-9a80-89caa664c15b","system_id":"levelo_inurba_marseille","lat":43.297163,"lon":5.365866,"is_reserved":false,"is_disabled":false,"rental_uris":{"android":"levelo://app?vid=06745e9b-1d96-4f39-9a80-89caa664c15b","ios":"levelo://app?vid=06745e9b-1d96-4f39-9a80-89caa664c15b"},"vehicle_type_id":"4","last_reported":1691946259,"current_range_meters":21200,"station_id":"ce4bgn12rcd13ifvqbt0","pricing_plan_id":"free"},{"bike_id":"def48adf-a61a-4adc-8dc8-a18c96c6020c","system_id":"levelo_inurba_marseille","lat":43.29573,"lon":5.367355,"is_reserved":false,"is_disabled":false,"rental_uris":{"android":"levelo://app?vid=def48adf-a61a-4adc-8dc8-a18c96c6020c","ios":"levelo://app?vid=def48adf-a61a-4adc-8dc8-a18c96c6020c"},"vehicle_type_id":"4","last_reported":1691946259,"current_range_meters":22800,"station_id":"ce4bgph2rcd13ifvqc2g","pricing_plan_id":"free"},{"bike_id":"325d339f-d5a0-4d1e-bc8d-068453a0ae07","system_id":"levelo_inurba_marseille","lat":43.296921,"lon":5.376579,"is_reserved":false,"is_disabled":false,"rental_uris":{"android":"levelo://app?vid=325d339f-d5a0-4d1e-bc8d-068453a0ae07","ios":"levelo://app?vid=325d339f-d5a0-4d1e-bc8d-068453a0ae07"},"vehicle_type_id":"4","last_reported":1691946259,"current_range_meters":18000,"station_id":"ce4bgkh2rcd13ifvqbl0","pricing_plan_id":"free"},{"bike_id":"c12fab94-ab59-4ac9-bb26-6c834fa442cf","system_id":"levelo_inurba_marseille","lat":43.299028,"lon":5.381509,"is_reserved":false,"is_disabled":false,"rental_uris":{"android":"levelo://app?vid=c12fab94-ab59-4ac9-bb26-6c834fa442cf","ios":"levelo://app?vid=c12fab94-ab59-4ac9-bb26-6c834fa442cf"},"vehicle_type_id":"4","last_reported":1691946259,"current_range_meters":9600,"station_id":"ce4bgj12rcd13ifvqbc0","pricing_plan_id":"free"},{"bike_id":"600e98bb-a112-43d7-b169-996e7a423377","system_id":"levelo_inurba_marseille","lat":43.304606,"lon":5.379026,"is_reserved":false,"is_disabled":false,"rental_uris":{"android":"levelo://app?vid=600e98bb-a112-43d7-b169-996e7a423377","ios":"levelo://app?vid=600e98bb-a112-43d7-b169-996e7a423377"},"vehicle_type_id":"4","last_reported":1691946259,"current_range_meters":30000,"station_id":"ce4bgup2rcd13ifvqcn0","pricing_plan_id":"free"},{"bike_id":"675d7927-01a8-4d8d-abf0-ade7c73aa12e","system_id":"levelo_inurba_marseille","lat":43.317557,"lon":5.390173,"is_reserved":false,"is_disabled":false,"rental_uris":{"android":"levelo://app?vid=675d7927-01a8-4d8d-abf0-ade7c73aa12e","ios":"levelo://app?vid=675d7927-01a8-4d8d-abf0-ade7c73aa12e"},"vehicle_type_id":"4","last_reported":1691946259,"current_range_meters":4400,"station_id":"ce4bhqp2rcd13ifvqhng","pricing_plan_id":"free"},{"bike_id":"e5414efa-6387-419a-ace9-d2f04c517860","system_id":"levelo_inurba_marseille","lat":43.29808,"lon":5.38083,"is_reserved":false,"is_disabled":false,"rental_uris":{"android":"levelo://app?vid=e5414efa-6387-419a-ace9-d2f04c517860","ios":"levelo://app?vid=e5414efa-6387-419a-ace9-d2f04c517860"},"vehicle_type_id":"4","last_reported":1691946259,"current_range_meters":20800,"station_id":"ce4bgip2rcd13ifvqbb0","pricing_plan_id":"free"},{"bike_id":"94300d13-627d-40bc-a5c5-c1ea69f104e0","system_id":"levelo_inurba_marseille","lat":43.29555,"lon":5.37362,"is_reserved":false,"is_disabled":false,"rental_uris":{"android":"levelo://app?vid=94300d13-627d-40bc-a5c5-c1ea69f104e0","ios":"levelo://app?vid=94300d13-627d-40bc-a5c5-c1ea69f104e0"},"vehicle_type_id":"4","last_reported":1691946259,"current_range_meters":24400,"station_id":"","pricing_plan_id":"free"},{"bike_id":"c7e141e6-0de2-4002-a8e9-ea29def1aac1","system_id":"levelo_inurba_marseille","lat":43.298,"lon":5.38089,"is_reserved":false,"is_disabled":false,"rental_uris":{"android":"levelo://app?vid=c7e141e6-0de2-4002-a8e9-ea29def1aac1","ios":"levelo://app?vid=c7e141e6-0de2-4002-a8e9-ea29def1aac1"},"vehicle_type_id":"4","last_reported":1691946259,"current_range_meters":30000,"station_id":"ce4bgip2rcd13ifvqbb0","pricing_plan_id":"free"},{"bike_id":"dec1a87c-b01c-4702-b5e5-a5c171279616","system_id":"levelo_inurba_marseille","lat":43.29796,"lon":5.38091,"is_reserved":false,"is_disabled":false,"rental_uris":{"android":"levelo://app?vid=dec1a87c-b01c-4702-b5e5-a5c171279616","ios":"levelo://app?vid=dec1a87c-b01c-4702-b5e5-a5c171279616"},"vehicle_type_id":"4","last_reported":1691946259,"current_range_meters":24000,"station_id":"ce4bgip2rcd13ifvqbb0","pricing_plan_id":"free"},{"bike_id":"a4df99ce-0488-49dd-a888-94686f562e88","system_id":"levelo_inurba_marseille","lat":43.295748,"lon":5.37522,"is_reserved":false,"is_disabled":false,"rental_uris":{"android":"levelo://app?vid=a4df99ce-0488-49dd-a888-94686f562e88","ios":"levelo://app?vid=a4df99ce-0488-49dd-a888-94686f562e88"},"vehicle_type_id":"4","last_reported":1691946259,"current_range_meters":27200,"station_id":"ce4bgh92rcd13ifvqb50","pricing_plan_id":"free"},{"bike_id":"bad653c4-f08b-42e2-9c40-bd3a64785f30","system_id":"levelo_inurba_marseille","lat":43.295748,"lon":5.37522,"is_reserved":false,"is_disabled":false,"rental_uris":{"android":"levelo://app?vid=bad653c4-f08b-42e2-9c40-bd3a64785f30","ios":"levelo://app?vid=bad653c4-f08b-42e2-9c40-bd3a64785f30"},"vehicle_type_id":"4","last_reported":1691946259,"current_range_meters":0,"station_id":"ce4bgh92rcd13ifvqb50","pricing_plan_id":"free"},{"bike_id":"5a8c7c81-1bf5-46b7-9819-af3f95975121","system_id":"levelo_inurba_marseille","lat":43.296263,"lon":5.377094,"is_reserved":false,"is_disabled":false,"rental_uris":{"android":"levelo://app?vid=5a8c7c81-1bf5-46b7-9819-af3f95975121","ios":"levelo://app?vid=5a8c7c81-1bf5-46b7-9819-af3f95975121"},"vehicle_type_id":"4","last_reported":1691946259,"current_range_meters":9200,"station_id":"ce4bgi92rcd13ifvqb90","pricing_plan_id":"free"},{"bike_id":"03f2060c-25b1-4796-ab2b-43e52e9b26a0","system_id":"levelo_inurba_marseille","lat":43.295748,"lon":5.37522,"is_reserved":false,"is_disabled":false,"rental_uris":{"android":"levelo://app?vid=03f2060c-25b1-4796-ab2b-43e52e9b26a0","ios":"levelo://app?vid=03f2060c-25b1-4796-ab2b-43e52e9b26a0"},"vehicle_type_id":"4","last_reported":1691946259,"current_range_meters":25200,"station_id":"ce4bgh92rcd13ifvqb50","pricing_plan_id":"free"},{"bike_id":"158e19cf-9815-4dcf-be86-322187c85842","system_id":"levelo_inurba_marseille","lat":43.29542,"lon":5.37499,"is_reserved":false,"is_disabled":false,"rental_uris":{"android":"levelo://app?vid=158e19cf-9815-4dcf-be86-322187c85842","ios":"levelo://app?vid=158e19cf-9815-4dcf-be86-322187c85842"},"vehicle_type_id":"4","last_reported":1691946259,"current_range_meters":24800,"station_id":"","pricing_plan_id":"free"},{"bike_id":"c5cec987-dc0e-4a5c-92d7-773019e26a45","system_id":"levelo_inurba_marseille","lat":43.295279,"lon":5.375048,"is_reserved":false,"is_disabled":false,"rental_uris":{"android":"levelo://app?vid=c5cec987-dc0e-4a5c-92d7-773019e26a45","ios":"levelo://app?vid=c5cec987-dc0e-4a5c-92d7-773019e26a45"},"vehicle_type_id":"4","last_reported":1691946259,"current_range_meters":26800,"station_id":"ce4bgkp2rcd13ifvqbmg","pricing_plan_id":"free"},{"bike_id":"c48b005a-87e8-4aed-ac9c-2f808d1a1df6","system_id":"levelo_inurba_marseille","lat":43.295279,"lon":5.375048,"is_reserved":false,"is_disabled":false,"rental_uris":{"android":"levelo://app?vid=c48b005a-87e8-4aed-ac9c-2f808d1a1df6","ios":"levelo://app?vid=c48b005a-87e8-4aed-ac9c-2f808d1a1df6"},"vehicle_type_id":"4","last_reported":1691946259,"current_range_meters":5600,"station_id":"ce4bgkp2rcd13ifvqbmg","pricing_plan_id":"free"},{"bike_id":"460fc91e-f93f-44bb-8be9-81238befcc77","system_id":"levelo_inurba_marseille","lat":43.299707,"lon":5.384859,"is_reserved":false,"is_disabled":false,"rental_uris":{"android":"levelo://app?vid=460fc91e-f93f-44bb-8be9-81238befcc77","ios":"levelo://app?vid=460fc91e-f93f-44bb-8be9-81238befcc77"},"vehicle_type_id":"4","last_reported":1691946259,"current_range_meters":16800,"station_id":"ce4bgj92rcd13ifvqbd0","pricing_plan_id":"free"},{"bike_id":"373636ed-388e-4d6b-8b8a-cfb971b060a3","system_id":"levelo_inurba_marseille","lat":43.295279,"lon":5.375048,"is_reserved":false,"is_disabled":false,"rental_uris":{"android":"levelo://app?vid=373636ed-388e-4d6b-8b8a-cfb971b060a3","ios":"levelo://app?vid=373636ed-388e-4d6b-8b8a-cfb971b060a3"},"vehicle_type_id":"4","last_reported":1691946259,"current_range_meters":8400,"station_id":"ce4bgkp2rcd13ifvqbmg","pricing_plan_id":"free"},{"bike_id":"d659969f-c17e-417c-aec7-80be38b7da8c","system_id":"levelo_inurba_marseille","lat":43.29764,"lon":5.3816,"is_reserved":false,"is_disabled":false,"rental_uris":{"android":"levelo://app?vid=d659969f-c17e-417c-aec7-80be38b7da8c","ios":"levelo://app?vid=d659969f-c17e-417c-aec7-80be38b7da8c"},"vehicle_type_id":"4","last_reported":1691946259,"current_range_meters":4400,"station_id":"","pricing_plan_id":"free"},{"bike_id":"75837f4b-a79c-4f85-aef2-1b7a45846412","system_id":"levelo_inurba_marseille","lat":43.295279,"lon":5.375048,"is_reserved":false,"is_disabled":false,"rental_uris":{"android":"levelo://app?vid=75837f4b-a79c-4f85-aef2-1b7a45846412","ios":"levelo://app?vid=75837f4b-a79c-4f85-aef2-1b7a45846412"},"vehicle_type_id":"4","last_reported":1691946259,"current_range_meters":25200,"station_id":"ce4bgkp2rcd13ifvqbmg","pricing_plan_id":"free"},{"bike_id":"672890e5-eb26-4d4b-9e62-4d488e0397c4","system_id":"levelo_inurba_marseille","lat":43.32365,"lon":5.38878,"is_reserved":false,"is_disabled":false,"rental_uris":{"android":"levelo://app?vid=672890e5-eb26-4d4b-9e62-4d488e0397c4","ios":"levelo://app?vid=672890e5-eb26-4d4b-9e62-4d488e0397c4"},"vehicle_type_id":"4","last_reported":1691946259,"current_range_meters":22800,"station_id":"ce4bhqp2rcd13ifvqhog","pricing_plan_id":"free"},{"bike_id":"8cf443cb-46c7-4bd3-a280-17544d32dd29","system_id":"levelo_inurba_marseille","lat":43.32367,"lon":5.388836,"is_reserved":false,"is_disabled":false,"rental_uris":{"android":"levelo://app?vid=8cf443cb-46c7-4bd3-a280-17544d32dd29","ios":"levelo://app?vid=8cf443cb-46c7-4bd3-a280-17544d32dd29"},"vehicle_type_id":"4","last_reported":1691946259,"current_range_meters":0,"station_id":"ce4bhqp2rcd13ifvqhog","pricing_plan_id":"free"},{"bike_id":"58ddd65f-fb55-4a74-82b0-03a77dece273","system_id":"levelo_inurba_marseille","lat":43.2931,"lon":5.37178,"is_reserved":false,"is_disabled":false,"rental_uris":{"android":"levelo://app?vid=58ddd65f-fb55-4a74-82b0-03a77dece273","ios":"levelo://app?vid=58ddd65f-fb55-4a74-82b0-03a77dece273"},"vehicle_type_id":"4","last_reported":1691946259,"current_range_meters":0,"station_id":"ce4bgh92rcd13ifvqb40","pricing_plan_id":"free"},{"bike_id":"d0dedf13-14fc-4684-8379-f8d6901ff8d8","system_id":"levelo_inurba_marseille","lat":43.29308,"lon":5.37177,"is_reserved":false,"is_disabled":false,"rental_uris":{"android":"levelo://app?vid=d0dedf13-14fc-4684-8379-f8d6901ff8d8","ios":"levelo://app?vid=d0dedf13-14fc-4684-8379-f8d6901ff8d8"},"vehicle_type_id":"4","last_reported":1691946259,"current_range_meters":0,"station_id":"ce4bgh92rcd13ifvqb40","pricing_plan_id":"free"},{"bike_id":"745c0f48-0095-4bb4-a69b-8c7ea33a8f92","system_id":"levelo_inurba_marseille","lat":43.293063,"lon":5.371774,"is_reserved":false,"is_disabled":false,"rental_uris":{"android":"levelo://app?vid=745c0f48-0095-4bb4-a69b-8c7ea33a8f92","ios":"levelo://app?vid=745c0f48-0095-4bb4-a69b-8c7ea33a8f92"},"vehicle_type_id":"4","last_reported":1691946259,"current_range_meters":5600,"station_id":"ce4bgh92rcd13ifvqb40","pricing_plan_id":"free"},{"bike_id":"dbe406a0-e31d-4174-932b-0d8d584d17c2","system_id":"levelo_inurba_marseille","lat":43.292749,"lon":5.368398,"is_reserved":false,"is_disabled":false,"rental_uris":{"android":"levelo://app?vid=dbe406a0-e31d-4174-932b-0d8d584d17c2","ios":"levelo://app?vid=dbe406a0-e31d-4174-932b-0d8d584d17c2"},"vehicle_type_id":"4","last_reported":1691946259,"current_range_meters":30800,"station_id":"ce4bhbp2rcd13ifvqesg","pricing_plan_id":"free"},{"bike_id":"d12c3bd2-0b87-47d4-85bf-d8dba09063d5","system_id":"levelo_inurba_marseille","lat":43.30591,"lon":5.39341,"is_reserved":false,"is_disabled":false,"rental_uris":{"android":"levelo://app?vid=d12c3bd2-0b87-47d4-85bf-d8dba09063d5","ios":"levelo://app?vid=d12c3bd2-0b87-47d4-85bf-d8dba09063d5"},"vehicle_type_id":"4","last_reported":1691946259,"current_range_meters":11600,"station_id":"ce4bh0p2rcd13ifvqd80","pricing_plan_id":"free"},{"bike_id":"9fe67b7a-6fa1-49cd-a3d0-d577e4348f27","system_id":"levelo_inurba_marseille","lat":43.293009,"lon":5.374584,"is_reserved":false,"is_disabled":false,"rental_uris":{"android":"levelo://app?vid=9fe67b7a-6fa1-49cd-a3d0-d577e4348f27","ios":"levelo://app?vid=9fe67b7a-6fa1-49cd-a3d0-d577e4348f27"},"vehicle_type_id":"4","last_reported":1691946259,"current_range_meters":6800,"station_id":"ce4bgi12rcd13ifvqb70","pricing_plan_id":"free"},{"bike_id":"2c218193-aabf-46f7-bbe7-cd9fb4cde293","system_id":"levelo_inurba_marseille","lat":43.305994,"lon":5.393687,"is_reserved":false,"is_disabled":false,"rental_uris":{"android":"levelo://app?vid=2c218193-aabf-46f7-bbe7-cd9fb4cde293","ios":"levelo://app?vid=2c218193-aabf-46f7-bbe7-cd9fb4cde293"},"vehicle_type_id":"4","last_reported":1691946259,"current_range_meters":27600,"station_id":"ce4bh0p2rcd13ifvqd80","pricing_plan_id":"free"},{"bike_id":"6dfa9de0-31e2-442f-9112-6cccdf5176c0","system_id":"levelo_inurba_marseille","lat":43.2936,"lon":5.37835,"is_reserved":false,"is_disabled":false,"rental_uris":{"android":"levelo://app?vid=6dfa9de0-31e2-442f-9112-6cccdf5176c0","ios":"levelo://app?vid=6dfa9de0-31e2-442f-9112-6cccdf5176c0"},"vehicle_type_id":"4","last_reported":1691946259,"current_range_meters":24400,"station_id":"ce4bgjh2rcd13ifvqbf0","pricing_plan_id":"free"},{"bike_id":"51c514d6-058e-4f55-a0e2-cf3954340eaa","system_id":"levelo_inurba_marseille","lat":43.2936,"lon":5.37835,"is_reserved":false,"is_disabled":false,"rental_uris":{"android":"levelo://app?vid=51c514d6-058e-4f55-a0e2-cf3954340eaa","ios":"levelo://app?vid=51c514d6-058e-4f55-a0e2-cf3954340eaa"},"vehicle_type_id":"4","last_reported":1691946259,"current_range_meters":11200,"station_id":"ce4bgjh2rcd13ifvqbf0","pricing_plan_id":"free"},{"bike_id":"b32b5ebe-1d97-4242-ac5d-5670addb3a48","system_id":"levelo_inurba_marseille","lat":43.300852,"lon":5.390859,"is_reserved":false,"is_disabled":false,"rental_uris":{"android":"levelo://app?vid=b32b5ebe-1d97-4242-ac5d-5670addb3a48","ios":"levelo://app?vid=b32b5ebe-1d97-4242-ac5d-5670addb3a48"},"vehicle_type_id":"4","last_reported":1691946259,"current_range_meters":2400,"station_id":"ce4bh192rcd13ifvqdb0","pricing_plan_id":"free"},{"bike_id":"540b3ed4-c2c8-401b-82f8-360c38d70b9f","system_id":"levelo_inurba_marseille","lat":43.292311,"lon":5.360731,"is_reserved":false,"is_disabled":false,"rental_uris":{"android":"levelo://app?vid=540b3ed4-c2c8-401b-82f8-360c38d70b9f","ios":"levelo://app?vid=540b3ed4-c2c8-401b-82f8-360c38d70b9f"},"vehicle_type_id":"4","last_reported":1691946259,"current_range_meters":10800,"station_id":"ce4bhbh2rcd13ifvqeqg","pricing_plan_id":"free"},{"bike_id":"1808e272-aeab-418e-8d27-2054fa0a88f9","system_id":"levelo_inurba_marseille","lat":43.300852,"lon":5.390859,"is_reserved":false,"is_disabled":false,"rental_uris":{"android":"levelo://app?vid=1808e272-aeab-418e-8d27-2054fa0a88f9","ios":"levelo://app?vid=1808e272-aeab-418e-8d27-2054fa0a88f9"},"vehicle_type_id":"4","last_reported":1691946259,"current_range_meters":17600,"station_id":"ce4bh192rcd13ifvqdb0","pricing_plan_id":"free"},{"bike_id":"cba407d1-3dc5-497f-a8d4-09bd207d468a","system_id":"levelo_inurba_marseille","lat":43.300852,"lon":5.390859,"is_reserved":false,"is_disabled":false,"rental_uris":{"android":"levelo://app?vid=cba407d1-3dc5-497f-a8d4-09bd207d468a","ios":"levelo://app?vid=cba407d1-3dc5-497f-a8d4-09bd207d468a"},"vehicle_type_id":"4","last_reported":1691946259,"current_range_meters":18000,"station_id":"ce4bh192rcd13ifvqdb0","pricing_plan_id":"free"},{"bike_id":"baf13ebf-9a9d-4657-a714-07537ebce5f6","system_id":"levelo_inurba_marseille","lat":43.300852,"lon":5.390859,"is_reserved":false,"is_disabled":false,"rental_uris":{"android":"levelo://app?vid=baf13ebf-9a9d-4657-a714-07537ebce5f6","ios":"levelo://app?vid=baf13ebf-9a9d-4657-a714-07537ebce5f6"},"vehicle_type_id":"4","last_reported":1691946259,"current_range_meters":6800,"station_id":"ce4bh192rcd13ifvqdb0","pricing_plan_id":"free"},{"bike_id":"22007042-930e-44f4-bd44-5faecae92f97","system_id":"levelo_inurba_marseille","lat":43.29195,"lon":5.35799,"is_reserved":false,"is_disabled":false,"rental_uris":{"android":"levelo://app?vid=22007042-930e-44f4-bd44-5faecae92f97","ios":"levelo://app?vid=22007042-930e-44f4-bd44-5faecae92f97"},"vehicle_type_id":"4","last_reported":1691946259,"current_range_meters":23200,"station_id":"ce4bhb12rcd13ifvqel0","pricing_plan_id":"free"},{"bike_id":"9fa75bb3-ad35-46fc-b003-c78325c3e1ba","system_id":"levelo_inurba_marseille","lat":43.31327,"lon":5.39686,"is_reserved":false,"is_disabled":false,"rental_uris":{"android":"levelo://app?vid=9fa75bb3-ad35-46fc-b003-c78325c3e1ba","ios":"levelo://app?vid=9fa75bb3-ad35-46fc-b003-c78325c3e1ba"},"vehicle_type_id":"4","last_reported":1691946259,"current_range_meters":9200,"station_id":"ce4bgvp2rcd13ifvqcu0","pricing_plan_id":"free"},{"bike_id":"a8450a9e-6010-4e7f-bb34-3838fd79354c","system_id":"levelo_inurba_marseille","lat":43.31329,"lon":5.39689,"is_reserved":false,"is_disabled":false,"rental_uris":{"android":"levelo://app?vid=a8450a9e-6010-4e7f-bb34-3838fd79354c","ios":"levelo://app?vid=a8450a9e-6010-4e7f-bb34-3838fd79354c"},"vehicle_type_id":"4","last_reported":1691946259,"current_range_meters":26800,"station_id":"ce4bgvp2rcd13ifvqcu0","pricing_plan_id":"free"},{"bike_id":"2d0e9751-39a6-45cb-a6d5-c0f2e6d5d0e5","system_id":"levelo_inurba_marseille","lat":43.290779,"lon":5.371482,"is_reserved":false,"is_disabled":false,"rental_uris":{"android":"levelo://app?vid=2d0e9751-39a6-45cb-a6d5-c0f2e6d5d0e5","ios":"levelo://app?vid=2d0e9751-39a6-45cb-a6d5-c0f2e6d5d0e5"},"vehicle_type_id":"4","last_reported":1691946259,"current_range_meters":15200,"station_id":"ce4bh5p2rcd13ifvqe4g","pricing_plan_id":"free"},{"bike_id":"a6c76311-f896-40e8-ab66-744ed61cb5b0","system_id":"levelo_inurba_marseille","lat":43.302008,"lon":5.394694,"is_reserved":false,"is_disabled":false,"rental_uris":{"android":"levelo://app?vid=a6c76311-f896-40e8-ab66-744ed61cb5b0","ios":"levelo://app?vid=a6c76311-f896-40e8-ab66-744ed61cb5b0"},"vehicle_type_id":"4","last_reported":1691946259,"current_range_meters":8400,"station_id":"ce4bh0p2rcd13ifvqd70","pricing_plan_id":"free"},{"bike_id":"2099f92b-22a8-475f-8214-24be4e03e493","system_id":"levelo_inurba_marseille","lat":43.294153,"lon":5.386305,"is_reserved":false,"is_disabled":false,"rental_uris":{"android":"levelo://app?vid=2099f92b-22a8-475f-8214-24be4e03e493","ios":"levelo://app?vid=2099f92b-22a8-475f-8214-24be4e03e493"},"vehicle_type_id":"4","last_reported":1691946259,"current_range_meters":13200,"station_id":"ce4bh2h2rcd13ifvqdh0","pricing_plan_id":"free"},{"bike_id":"7970d0bb-8b4b-4d79-b111-9596341e4fbc","system_id":"levelo_inurba_marseille","lat":43.290327,"lon":5.375711,"is_reserved":false,"is_disabled":false,"rental_uris":{"android":"levelo://app?vid=7970d0bb-8b4b-4d79-b111-9596341e4fbc","ios":"levelo://app?vid=7970d0bb-8b4b-4d79-b111-9596341e4fbc"},"vehicle_type_id":"4","last_reported":1691946259,"current_range_meters":1600,"station_id":"ce4bh692rcd13ifvqe90","pricing_plan_id":"free"},{"bike_id":"c8f5308a-067f-4784-b3d9-88abe269d0b6","system_id":"levelo_inurba_marseille","lat":43.2904,"lon":5.37569,"is_reserved":false,"is_disabled":false,"rental_uris":{"android":"levelo://app?vid=c8f5308a-067f-4784-b3d9-88abe269d0b6","ios":"levelo://app?vid=c8f5308a-067f-4784-b3d9-88abe269d0b6"},"vehicle_type_id":"4","last_reported":1691946259,"current_range_meters":19600,"station_id":"ce4bh692rcd13ifvqe90","pricing_plan_id":"free"},{"bike_id":"adff4120-6f3b-4032-abfc-0fb16af18903","system_id":"levelo_inurba_marseille","lat":43.290327,"lon":5.375711,"is_reserved":false,"is_disabled":false,"rental_uris":{"android":"levelo://app?vid=adff4120-6f3b-4032-abfc-0fb16af18903","ios":"levelo://app?vid=adff4120-6f3b-4032-abfc-0fb16af18903"},"vehicle_type_id":"4","last_reported":1691946259,"current_range_meters":10400,"station_id":"ce4bh692rcd13ifvqe90","pricing_plan_id":"free"},{"bike_id":"4740afc7-d3d2-44b8-892c-70275b788977","system_id":"levelo_inurba_marseille","lat":43.294153,"lon":5.386305,"is_reserved":false,"is_disabled":false,"rental_uris":{"android":"levelo://app?vid=4740afc7-d3d2-44b8-892c-70275b788977","ios":"levelo://app?vid=4740afc7-d3d2-44b8-892c-70275b788977"},"vehicle_type_id":"4","last_reported":1691946259,"current_range_meters":1600,"station_id":"ce4bh2h2rcd13ifvqdh0","pricing_plan_id":"free"},{"bike_id":"cd327ba7-eade-4dc9-be86-abc962a15ff5","system_id":"levelo_inurba_marseille","lat":43.294153,"lon":5.386305,"is_reserved":false,"is_disabled":false,"rental_uris":{"android":"levelo://app?vid=cd327ba7-eade-4dc9-be86-abc962a15ff5","ios":"levelo://app?vid=cd327ba7-eade-4dc9-be86-abc962a15ff5"},"vehicle_type_id":"4","last_reported":1691946259,"current_range_meters":27600,"station_id":"ce4bh2h2rcd13ifvqdh0","pricing_plan_id":"free"},{"bike_id":"e6dc74db-6c0f-41fa-858a-4212bef75a05","system_id":"levelo_inurba_marseille","lat":43.289184,"lon":5.366408,"is_reserved":false,"is_disabled":false,"rental_uris":{"android":"levelo://app?vid=e6dc74db-6c0f-41fa-858a-4212bef75a05","ios":"levelo://app?vid=e6dc74db-6c0f-41fa-858a-4212bef75a05"},"vehicle_type_id":"4","last_reported":1691946259,"current_range_meters":19600,"station_id":"ce4bhap2rcd13ifvqek0","pricing_plan_id":"free"},{"bike_id":"d22cd6bd-536c-46e6-a5ad-f198e1d562c5","system_id":"levelo_inurba_marseille","lat":43.294162,"lon":5.386292,"is_reserved":false,"is_disabled":false,"rental_uris":{"android":"levelo://app?vid=d22cd6bd-536c-46e6-a5ad-f198e1d562c5","ios":"levelo://app?vid=d22cd6bd-536c-46e6-a5ad-f198e1d562c5"},"vehicle_type_id":"4","last_reported":1691946259,"current_range_meters":6400,"station_id":"ce4bh2h2rcd13ifvqdh0","pricing_plan_id":"free"},{"bike_id":"21e27dfc-823e-4778-b539-5e505680e564","system_id":"levelo_inurba_marseille","lat":43.289468,"lon":5.363719,"is_reserved":false,"is_disabled":false,"rental_uris":{"android":"levelo://app?vid=21e27dfc-823e-4778-b539-5e505680e564","ios":"levelo://app?vid=21e27dfc-823e-4778-b539-5e505680e564"},"vehicle_type_id":"4","last_reported":1691946259,"current_range_meters":12000,"station_id":"ce4bhc92rcd13ifvqetg","pricing_plan_id":"free"},{"bike_id":"3b9c9343-8e10-4bf3-9291-50f3221c903c","system_id":"levelo_inurba_marseille","lat":43.28945,"lon":5.36393,"is_reserved":false,"is_disabled":false,"rental_uris":{"android":"levelo://app?vid=3b9c9343-8e10-4bf3-9291-50f3221c903c","ios":"levelo://app?vid=3b9c9343-8e10-4bf3-9291-50f3221c903c"},"vehicle_type_id":"4","last_reported":1691946259,"current_range_meters":12400,"station_id":"ce4bhc92rcd13ifvqetg","pricing_plan_id":"free"},{"bike_id":"6e2536c1-eeeb-494c-92c2-09fd60a0e638","system_id":"levelo_inurba_marseille","lat":43.292644,"lon":5.384257,"is_reserved":false,"is_disabled":false,"rental_uris":{"android":"levelo://app?vid=6e2536c1-eeeb-494c-92c2-09fd60a0e638","ios":"levelo://app?vid=6e2536c1-eeeb-494c-92c2-09fd60a0e638"},"vehicle_type_id":"4","last_reported":1691946259,"current_range_meters":27600,"station_id":"ce4bh692rcd13ifvqea0","pricing_plan_id":"free"},{"bike_id":"dde5d9c9-88ab-47fb-bd46-f437daa76429","system_id":"levelo_inurba_marseille","lat":43.292642,"lon":5.384254,"is_reserved":false,"is_disabled":false,"rental_uris":{"android":"levelo://app?vid=dde5d9c9-88ab-47fb-bd46-f437daa76429","ios":"levelo://app?vid=dde5d9c9-88ab-47fb-bd46-f437daa76429"},"vehicle_type_id":"4","last_reported":1691946259,"current_range_meters":8000,"station_id":"ce4bh692rcd13ifvqea0","pricing_plan_id":"free"},{"bike_id":"2229d67f-93f6-4e78-af67-48648e25bf76","system_id":"levelo_inurba_marseille","lat":43.30471,"lon":5.39782,"is_reserved":false,"is_disabled":false,"rental_uris":{"android":"levelo://app?vid=2229d67f-93f6-4e78-af67-48648e25bf76","ios":"levelo://app?vid=2229d67f-93f6-4e78-af67-48648e25bf76"},"vehicle_type_id":"4","last_reported":1691946259,"current_range_meters":20800,"station_id":"","pricing_plan_id":"free"},{"bike_id":"030a6f98-f1a8-48d2-be4a-038df7abe12e","system_id":"levelo_inurba_marseille","lat":43.3047,"lon":5.39783,"is_reserved":false,"is_disabled":false,"rental_uris":{"android":"levelo://app?vid=030a6f98-f1a8-48d2-be4a-038df7abe12e","ios":"levelo://app?vid=030a6f98-f1a8-48d2-be4a-038df7abe12e"},"vehicle_type_id":"4","last_reported":1691946259,"current_range_meters":21200,"station_id":"","pricing_plan_id":"free"},{"bike_id":"69c23820-b8c4-4b33-a6c2-28beb4ed1d2a","system_id":"levelo_inurba_marseille","lat":43.330357,"lon":5.38912,"is_reserved":false,"is_disabled":false,"rental_uris":{"android":"levelo://app?vid=69c23820-b8c4-4b33-a6c2-28beb4ed1d2a","ios":"levelo://app?vid=69c23820-b8c4-4b33-a6c2-28beb4ed1d2a"},"vehicle_type_id":"4","last_reported":1691946259,"current_range_meters":8800,"station_id":"","pricing_plan_id":"free"},{"bike_id":"3d4f9485-05e3-4530-850f-dac89566f289","system_id":"levelo_inurba_marseille","lat":43.33046,"lon":5.38913,"is_reserved":false,"is_disabled":false,"rental_uris":{"android":"levelo://app?vid=3d4f9485-05e3-4530-850f-dac89566f289","ios":"levelo://app?vid=3d4f9485-05e3-4530-850f-dac89566f289"},"vehicle_type_id":"4","last_reported":1691946259,"current_range_meters":29600,"station_id":"ce4bhr92rcd13ifvqhrg","pricing_plan_id":"free"},{"bike_id":"4f4a6db8-d3b4-4d22-9a3e-55cb5f4088f2","system_id":"levelo_inurba_marseille","lat":43.33047,"lon":5.38913,"is_reserved":false,"is_disabled":false,"rental_uris":{"android":"levelo://app?vid=4f4a6db8-d3b4-4d22-9a3e-55cb5f4088f2","ios":"levelo://app?vid=4f4a6db8-d3b4-4d22-9a3e-55cb5f4088f2"},"vehicle_type_id":"4","last_reported":1691946259,"current_range_meters":26000,"station_id":"ce4bhr92rcd13ifvqhrg","pricing_plan_id":"free"},{"bike_id":"8f878f28-ac1b-4cce-960b-11748c4b16d3","system_id":"levelo_inurba_marseille","lat":43.33045,"lon":5.38917,"is_reserved":false,"is_disabled":false,"rental_uris":{"android":"levelo://app?vid=8f878f28-ac1b-4cce-960b-11748c4b16d3","ios":"levelo://app?vid=8f878f28-ac1b-4cce-960b-11748c4b16d3"},"vehicle_type_id":"4","last_reported":1691946259,"current_range_meters":30000,"station_id":"ce4bhr92rcd13ifvqhrg","pricing_plan_id":"free"},{"bike_id":"b196e7c2-39b5-485c-b7d7-2598bdf80c34","system_id":"levelo_inurba_marseille","lat":43.33046,"lon":5.38917,"is_reserved":false,"is_disabled":false,"rental_uris":{"android":"levelo://app?vid=b196e7c2-39b5-485c-b7d7-2598bdf80c34","ios":"levelo://app?vid=b196e7c2-39b5-485c-b7d7-2598bdf80c34"},"vehicle_type_id":"4","last_reported":1691946259,"current_range_meters":28800,"station_id":"ce4bhr92rcd13ifvqhrg","pricing_plan_id":"free"},{"bike_id":"9ef4775d-1eef-4f53-b9fa-b7d1ca1a147a","system_id":"levelo_inurba_marseille","lat":43.33043,"lon":5.38922,"is_reserved":false,"is_disabled":false,"rental_uris":{"android":"levelo://app?vid=9ef4775d-1eef-4f53-b9fa-b7d1ca1a147a","ios":"levelo://app?vid=9ef4775d-1eef-4f53-b9fa-b7d1ca1a147a"},"vehicle_type_id":"4","last_reported":1691946259,"current_range_meters":0,"station_id":"ce4bhr92rcd13ifvqhrg","pricing_plan_id":"free"},{"bike_id":"892867ae-c845-473e-87fc-2b3f5701ecf4","system_id":"levelo_inurba_marseille","lat":43.29003,"lon":5.35608,"is_reserved":false,"is_disabled":false,"rental_uris":{"android":"levelo://app?vid=892867ae-c845-473e-87fc-2b3f5701ecf4","ios":"levelo://app?vid=892867ae-c845-473e-87fc-2b3f5701ecf4"},"vehicle_type_id":"4","last_reported":1691946259,"current_range_meters":14000,"station_id":"ce4bhb92rcd13ifvqen0","pricing_plan_id":"free"},{"bike_id":"d92191b5-3897-428d-989c-4b986c7a7e64","system_id":"levelo_inurba_marseille","lat":43.29,"lon":5.35607,"is_reserved":false,"is_disabled":false,"rental_uris":{"android":"levelo://app?vid=d92191b5-3897-428d-989c-4b986c7a7e64","ios":"levelo://app?vid=d92191b5-3897-428d-989c-4b986c7a7e64"},"vehicle_type_id":"4","last_reported":1691946259,"current_range_meters":13200,"station_id":"ce4bhb92rcd13ifvqen0","pricing_plan_id":"free"},{"bike_id":"6a29f25d-dbac-4ff2-9117-4f789869818a","system_id":"levelo_inurba_marseille","lat":43.290995,"lon":5.381361,"is_reserved":false,"is_disabled":false,"rental_uris":{"android":"levelo://app?vid=6a29f25d-dbac-4ff2-9117-4f789869818a","ios":"levelo://app?vid=6a29f25d-dbac-4ff2-9117-4f789869818a"},"vehicle_type_id":"4","last_reported":1691946259,"current_range_meters":0,"station_id":"ce4bh512rcd13ifvqe2g","pricing_plan_id":"free"},{"bike_id":"4ac3feea-70a0-4c88-9623-965d37aa2d61","system_id":"levelo_inurba_marseille","lat":43.290995,"lon":5.381361,"is_reserved":false,"is_disabled":false,"rental_uris":{"android":"levelo://app?vid=4ac3feea-70a0-4c88-9623-965d37aa2d61","ios":"levelo://app?vid=4ac3feea-70a0-4c88-9623-965d37aa2d61"},"vehicle_type_id":"4","last_reported":1691946259,"current_range_meters":30400,"station_id":"ce4bh512rcd13ifvqe2g","pricing_plan_id":"free"},{"bike_id":"0ac2b7dd-caa0-4a1f-a860-30ce518b34a1","system_id":"levelo_inurba_marseille","lat":43.29061,"lon":5.38024,"is_reserved":false,"is_disabled":false,"rental_uris":{"android":"levelo://app?vid=0ac2b7dd-caa0-4a1f-a860-30ce518b34a1","ios":"levelo://app?vid=0ac2b7dd-caa0-4a1f-a860-30ce518b34a1"},"vehicle_type_id":"4","last_reported":1691946259,"current_range_meters":0,"station_id":"ce4bh512rcd13ifvqe2g","pricing_plan_id":"free"},{"bike_id":"8537b9c2-fab2-4464-8cad-b352a3f16d0c","system_id":"levelo_inurba_marseille","lat":43.290995,"lon":5.381361,"is_reserved":false,"is_disabled":false,"rental_uris":{"android":"levelo://app?vid=8537b9c2-fab2-4464-8cad-b352a3f16d0c","ios":"levelo://app?vid=8537b9c2-fab2-4464-8cad-b352a3f16d0c"},"vehicle_type_id":"4","last_reported":1691946259,"current_range_meters":6000,"station_id":"ce4bh512rcd13ifvqe2g","pricing_plan_id":"free"},{"bike_id":"be005e4f-d207-40fd-bd99-241d744b2797","system_id":"levelo_inurba_marseille","lat":43.33084,"lon":5.389,"is_reserved":false,"is_disabled":false,"rental_uris":{"android":"levelo://app?vid=be005e4f-d207-40fd-bd99-241d744b2797","ios":"levelo://app?vid=be005e4f-d207-40fd-bd99-241d744b2797"},"vehicle_type_id":"4","last_reported":1691946259,"current_range_meters":29200,"station_id":"ce4bhr92rcd13ifvqhrg","pricing_plan_id":"free"},{"bike_id":"e5ee0acf-4e1b-4468-b851-5c089c883a8c","system_id":"levelo_inurba_marseille","lat":43.2901,"lon":5.381269,"is_reserved":false,"is_disabled":false,"rental_uris":{"android":"levelo://app?vid=e5ee0acf-4e1b-4468-b851-5c089c883a8c","ios":"levelo://app?vid=e5ee0acf-4e1b-4468-b851-5c089c883a8c"},"vehicle_type_id":"4","last_reported":1691946259,"current_range_meters":21600,"station_id":"ce4bh4p2rcd13ifvqe1g","pricing_plan_id":"free"},{"bike_id":"8839d8b5-a0e7-4be5-9c35-5f7fb6fafff8","system_id":"levelo_inurba_marseille","lat":43.290287,"lon":5.381324,"is_reserved":false,"is_disabled":false,"rental_uris":{"android":"levelo://app?vid=8839d8b5-a0e7-4be5-9c35-5f7fb6fafff8","ios":"levelo://app?vid=8839d8b5-a0e7-4be5-9c35-5f7fb6fafff8"},"vehicle_type_id":"4","last_reported":1691946259,"current_range_meters":18800,"station_id":"ce4bh4p2rcd13ifvqe1g","pricing_plan_id":"free"},{"bike_id":"982add29-e854-4305-bba8-9ce8b75865db","system_id":"levelo_inurba_marseille","lat":43.29027,"lon":5.38132,"is_reserved":false,"is_disabled":false,"rental_uris":{"android":"levelo://app?vid=982add29-e854-4305-bba8-9ce8b75865db","ios":"levelo://app?vid=982add29-e854-4305-bba8-9ce8b75865db"},"vehicle_type_id":"4","last_reported":1691946259,"current_range_meters":30000,"station_id":"ce4bh4p2rcd13ifvqe1g","pricing_plan_id":"free"},{"bike_id":"823cfa5d-07dd-4e37-a33c-b28b5cbcc1d6","system_id":"levelo_inurba_marseille","lat":43.312609,"lon":5.401662,"is_reserved":false,"is_disabled":false,"rental_uris":{"android":"levelo://app?vid=823cfa5d-07dd-4e37-a33c-b28b5cbcc1d6","ios":"levelo://app?vid=823cfa5d-07dd-4e37-a33c-b28b5cbcc1d6"},"vehicle_type_id":"4","last_reported":1691946259,"current_range_meters":2000,"station_id":"ce4bh092rcd13ifvqd30","pricing_plan_id":"free"},{"bike_id":"45184e88-a30b-48ed-9575-37acac1f0ef8","system_id":"levelo_inurba_marseille","lat":43.3064,"lon":5.40089,"is_reserved":false,"is_disabled":false,"rental_uris":{"android":"levelo://app?vid=45184e88-a30b-48ed-9575-37acac1f0ef8","ios":"levelo://app?vid=45184e88-a30b-48ed-9575-37acac1f0ef8"},"vehicle_type_id":"4","last_reported":1691946259,"current_range_meters":25200,"station_id":"ce4bh112rcd13ifvqda0","pricing_plan_id":"free"},{"bike_id":"721c1c9e-49b1-4751-9d7b-125e0539ee40","system_id":"levelo_inurba_marseille","lat":43.286591,"lon":5.363346,"is_reserved":false,"is_disabled":false,"rental_uris":{"android":"levelo://app?vid=721c1c9e-49b1-4751-9d7b-125e0539ee40","ios":"levelo://app?vid=721c1c9e-49b1-4751-9d7b-125e0539ee40"},"vehicle_type_id":"4","last_reported":1691946259,"current_range_meters":4000,"station_id":"ce4bhah2rcd13ifvqej0","pricing_plan_id":"free"},{"bike_id":"915f802e-f31b-4c71-8de0-2a5fc39e5970","system_id":"levelo_inurba_marseille","lat":43.32994,"lon":5.39403,"is_reserved":false,"is_disabled":false,"rental_uris":{"android":"levelo://app?vid=915f802e-f31b-4c71-8de0-2a5fc39e5970","ios":"levelo://app?vid=915f802e-f31b-4c71-8de0-2a5fc39e5970"},"vehicle_type_id":"4","last_reported":1691946259,"current_range_meters":0,"station_id":"","pricing_plan_id":"free"},{"bike_id":"fd946c29-85f3-4e10-8a64-ddd96a4c671b","system_id":"levelo_inurba_marseille","lat":43.286593,"lon":5.363346,"is_reserved":false,"is_disabled":false,"rental_uris":{"android":"levelo://app?vid=fd946c29-85f3-4e10-8a64-ddd96a4c671b","ios":"levelo://app?vid=fd946c29-85f3-4e10-8a64-ddd96a4c671b"},"vehicle_type_id":"4","last_reported":1691946259,"current_range_meters":16000,"station_id":"ce4bhah2rcd13ifvqej0","pricing_plan_id":"free"},{"bike_id":"75199276-b705-4ad7-b6a9-49aeaa84628a","system_id":"levelo_inurba_marseille","lat":43.286591,"lon":5.363346,"is_reserved":false,"is_disabled":false,"rental_uris":{"android":"levelo://app?vid=75199276-b705-4ad7-b6a9-49aeaa84628a","ios":"levelo://app?vid=75199276-b705-4ad7-b6a9-49aeaa84628a"},"vehicle_type_id":"4","last_reported":1691946259,"current_range_meters":31600,"station_id":"ce4bhah2rcd13ifvqej0","pricing_plan_id":"free"},{"bike_id":"f38ca3d4-53e6-4f8c-9570-1cc3209eb69b","system_id":"levelo_inurba_marseille","lat":43.295196,"lon":5.39397,"is_reserved":false,"is_disabled":false,"rental_uris":{"android":"levelo://app?vid=f38ca3d4-53e6-4f8c-9570-1cc3209eb69b","ios":"levelo://app?vid=f38ca3d4-53e6-4f8c-9570-1cc3209eb69b"},"vehicle_type_id":"4","last_reported":1691946259,"current_range_meters":0,"station_id":"ce4bh292rcd13ifvqdf0","pricing_plan_id":"free"},{"bike_id":"4a4ecd76-3e41-4883-bb0a-f5754ba3199c","system_id":"levelo_inurba_marseille","lat":43.290336,"lon":5.386425,"is_reserved":false,"is_disabled":false,"rental_uris":{"android":"levelo://app?vid=4a4ecd76-3e41-4883-bb0a-f5754ba3199c","ios":"levelo://app?vid=4a4ecd76-3e41-4883-bb0a-f5754ba3199c"},"vehicle_type_id":"4","last_reported":1691946259,"current_range_meters":18400,"station_id":"ce4bh4p2rcd13ifvqe0g","pricing_plan_id":"free"},{"bike_id":"b3b29e63-7951-4166-90c8-105be2b97db7","system_id":"levelo_inurba_marseille","lat":43.302759,"lon":5.400793,"is_reserved":false,"is_disabled":false,"rental_uris":{"android":"levelo://app?vid=b3b29e63-7951-4166-90c8-105be2b97db7","ios":"levelo://app?vid=b3b29e63-7951-4166-90c8-105be2b97db7"},"vehicle_type_id":"4","last_reported":1691946259,"current_range_meters":7200,"station_id":"ce4bgvh2rcd13ifvqcs0","pricing_plan_id":"free"},{"bike_id":"ff5146fb-30c4-42a2-847b-f6c8c15b464e","system_id":"levelo_inurba_marseille","lat":43.30259,"lon":5.40065,"is_reserved":false,"is_disabled":false,"rental_uris":{"android":"levelo://app?vid=ff5146fb-30c4-42a2-847b-f6c8c15b464e","ios":"levelo://app?vid=ff5146fb-30c4-42a2-847b-f6c8c15b464e"},"vehicle_type_id":"4","last_reported":1691946259,"current_range_meters":28000,"station_id":"","pricing_plan_id":"free"},{"bike_id":"6923eacc-bb34-4e92-a2be-3038cf7bece4","system_id":"levelo_inurba_marseille","lat":43.286039,"lon":5.370679,"is_reserved":false,"is_disabled":false,"rental_uris":{"android":"levelo://app?vid=6923eacc-bb34-4e92-a2be-3038cf7bece4","ios":"levelo://app?vid=6923eacc-bb34-4e92-a2be-3038cf7bece4"},"vehicle_type_id":"4","last_reported":1691946259,"current_range_meters":18800,"station_id":"ce4bht12rcd13ifvqi60","pricing_plan_id":"free"},{"bike_id":"04e80991-7bd5-4eaa-ae88-1721f0a71114","system_id":"levelo_inurba_marseille","lat":43.286039,"lon":5.370679,"is_reserved":false,"is_disabled":false,"rental_uris":{"android":"levelo://app?vid=04e80991-7bd5-4eaa-ae88-1721f0a71114","ios":"levelo://app?vid=04e80991-7bd5-4eaa-ae88-1721f0a71114"},"vehicle_type_id":"4","last_reported":1691946259,"current_range_meters":14800,"station_id":"ce4bht12rcd13ifvqi60","pricing_plan_id":"free"},{"bike_id":"48e10a38-b893-429e-8ddb-416c23bd3a88","system_id":"levelo_inurba_marseille","lat":43.287185,"lon":5.379373,"is_reserved":false,"is_disabled":false,"rental_uris":{"android":"levelo://app?vid=48e10a38-b893-429e-8ddb-416c23bd3a88","ios":"levelo://app?vid=48e10a38-b893-429e-8ddb-416c23bd3a88"},"vehicle_type_id":"4","last_reported":1691946259,"current_range_meters":18000,"station_id":"ce4bh9p2rcd13ifvqec0","pricing_plan_id":"free"},{"bike_id":"a2348519-1ec9-43d1-be2f-1db32422f0fc","system_id":"levelo_inurba_marseille","lat":43.287184,"lon":5.37937,"is_reserved":false,"is_disabled":false,"rental_uris":{"android":"levelo://app?vid=a2348519-1ec9-43d1-be2f-1db32422f0fc","ios":"levelo://app?vid=a2348519-1ec9-43d1-be2f-1db32422f0fc"},"vehicle_type_id":"4","last_reported":1691946259,"current_range_meters":20400,"station_id":"ce4bh9p2rcd13ifvqec0","pricing_plan_id":"free"},{"bike_id":"b84b321d-ea8c-4854-a69b-5a9d96669104","system_id":"levelo_inurba_marseille","lat":43.287185,"lon":5.379373,"is_reserved":false,"is_disabled":false,"rental_uris":{"android":"levelo://app?vid=b84b321d-ea8c-4854-a69b-5a9d96669104","ios":"levelo://app?vid=b84b321d-ea8c-4854-a69b-5a9d96669104"},"vehicle_type_id":"4","last_reported":1691946259,"current_range_meters":0,"station_id":"ce4bh9p2rcd13ifvqec0","pricing_plan_id":"free"},{"bike_id":"12707d68-b5fe-4ec7-a6f9-452190304a78","system_id":"levelo_inurba_marseille","lat":43.287184,"lon":5.37937,"is_reserved":false,"is_disabled":false,"rental_uris":{"android":"levelo://app?vid=12707d68-b5fe-4ec7-a6f9-452190304a78","ios":"levelo://app?vid=12707d68-b5fe-4ec7-a6f9-452190304a78"},"vehicle_type_id":"4","last_reported":1691946259,"current_range_meters":22400,"station_id":"ce4bh9p2rcd13ifvqec0","pricing_plan_id":"free"},{"bike_id":"b261096e-3f27-4515-85ad-f053576410a4","system_id":"levelo_inurba_marseille","lat":43.287185,"lon":5.379373,"is_reserved":false,"is_disabled":false,"rental_uris":{"android":"levelo://app?vid=b261096e-3f27-4515-85ad-f053576410a4","ios":"levelo://app?vid=b261096e-3f27-4515-85ad-f053576410a4"},"vehicle_type_id":"4","last_reported":1691946259,"current_range_meters":28000,"station_id":"ce4bh9p2rcd13ifvqec0","pricing_plan_id":"free"},{"bike_id":"d923e6a9-564a-4727-afdc-ee00ce906dfa","system_id":"levelo_inurba_marseille","lat":43.287185,"lon":5.379373,"is_reserved":false,"is_disabled":false,"rental_uris":{"android":"levelo://app?vid=d923e6a9-564a-4727-afdc-ee00ce906dfa","ios":"levelo://app?vid=d923e6a9-564a-4727-afdc-ee00ce906dfa"},"vehicle_type_id":"4","last_reported":1691946259,"current_range_meters":4000,"station_id":"ce4bh9p2rcd13ifvqec0","pricing_plan_id":"free"},{"bike_id":"b3ad3f0a-61f7-4cb9-b524-6c0fd0b90971","system_id":"levelo_inurba_marseille","lat":43.31645,"lon":5.40428,"is_reserved":false,"is_disabled":false,"rental_uris":{"android":"levelo://app?vid=b3ad3f0a-61f7-4cb9-b524-6c0fd0b90971","ios":"levelo://app?vid=b3ad3f0a-61f7-4cb9-b524-6c0fd0b90971"},"vehicle_type_id":"4","last_reported":1691946259,"current_range_meters":400,"station_id":"ce4bh012rcd13ifvqd00","pricing_plan_id":"free"},{"bike_id":"1821996b-d300-4989-bc00-26377b700915","system_id":"levelo_inurba_marseille","lat":43.31654,"lon":5.40434,"is_reserved":false,"is_disabled":false,"rental_uris":{"android":"levelo://app?vid=1821996b-d300-4989-bc00-26377b700915","ios":"levelo://app?vid=1821996b-d300-4989-bc00-26377b700915"},"vehicle_type_id":"4","last_reported":1691946259,"current_range_meters":0,"station_id":"ce4bh012rcd13ifvqd00","pricing_plan_id":"free"},{"bike_id":"634f60e9-3004-46f1-a731-7b660759b046","system_id":"levelo_inurba_marseille","lat":43.291994,"lon":5.392907,"is_reserved":false,"is_disabled":false,"rental_uris":{"android":"levelo://app?vid=634f60e9-3004-46f1-a731-7b660759b046","ios":"levelo://app?vid=634f60e9-3004-46f1-a731-7b660759b046"},"vehicle_type_id":"4","last_reported":1691946259,"current_range_meters":3200,"station_id":"ce4bh192rcd13ifvqdd0","pricing_plan_id":"free"},{"bike_id":"d96a7e18-5094-4ed6-a2f5-71a7a74325c9","system_id":"levelo_inurba_marseille","lat":43.291994,"lon":5.392907,"is_reserved":false,"is_disabled":false,"rental_uris":{"android":"levelo://app?vid=d96a7e18-5094-4ed6-a2f5-71a7a74325c9","ios":"levelo://app?vid=d96a7e18-5094-4ed6-a2f5-71a7a74325c9"},"vehicle_type_id":"4","last_reported":1691946259,"current_range_meters":22000,"station_id":"ce4bh192rcd13ifvqdd0","pricing_plan_id":"free"},{"bike_id":"97123dfd-e53d-4b15-bbfc-38508a4e2563","system_id":"levelo_inurba_marseille","lat":43.284538,"lon":5.358657,"is_reserved":false,"is_disabled":false,"rental_uris":{"android":"levelo://app?vid=97123dfd-e53d-4b15-bbfc-38508a4e2563","ios":"levelo://app?vid=97123dfd-e53d-4b15-bbfc-38508a4e2563"},"vehicle_type_id":"4","last_reported":1691946259,"current_range_meters":0,"station_id":"ce4bhah2rcd13ifvqei0","pricing_plan_id":"free"},{"bike_id":"72c6a02e-43d1-4d49-9ab0-005bc6e80a93","system_id":"levelo_inurba_marseille","lat":43.284538,"lon":5.358657,"is_reserved":false,"is_disabled":false,"rental_uris":{"android":"levelo://app?vid=72c6a02e-43d1-4d49-9ab0-005bc6e80a93","ios":"levelo://app?vid=72c6a02e-43d1-4d49-9ab0-005bc6e80a93"},"vehicle_type_id":"4","last_reported":1691946259,"current_range_meters":10800,"station_id":"ce4bhah2rcd13ifvqei0","pricing_plan_id":"free"},{"bike_id":"affee759-67ff-4d0f-9985-e3d69c82ba96","system_id":"levelo_inurba_marseille","lat":43.28457,"lon":5.35883,"is_reserved":false,"is_disabled":false,"rental_uris":{"android":"levelo://app?vid=affee759-67ff-4d0f-9985-e3d69c82ba96","ios":"levelo://app?vid=affee759-67ff-4d0f-9985-e3d69c82ba96"},"vehicle_type_id":"4","last_reported":1691946259,"current_range_meters":3200,"station_id":"ce4bhah2rcd13ifvqei0","pricing_plan_id":"free"},{"bike_id":"33e4141f-33b2-4487-b986-7feb5dfe391b","system_id":"levelo_inurba_marseille","lat":43.28616,"lon":5.35098,"is_reserved":false,"is_disabled":false,"rental_uris":{"android":"levelo://app?vid=33e4141f-33b2-4487-b986-7feb5dfe391b","ios":"levelo://app?vid=33e4141f-33b2-4487-b986-7feb5dfe391b"},"vehicle_type_id":"4","last_reported":1691946259,"current_range_meters":26000,"station_id":"ce4bhch2rcd13ifvqeug","pricing_plan_id":"free"},{"bike_id":"c16c871c-1f10-474e-9421-6f95900e9be1","system_id":"levelo_inurba_marseille","lat":43.28615,"lon":5.35096,"is_reserved":false,"is_disabled":false,"rental_uris":{"android":"levelo://app?vid=c16c871c-1f10-474e-9421-6f95900e9be1","ios":"levelo://app?vid=c16c871c-1f10-474e-9421-6f95900e9be1"},"vehicle_type_id":"4","last_reported":1691946259,"current_range_meters":10800,"station_id":"ce4bhch2rcd13ifvqeug","pricing_plan_id":"free"},{"bike_id":"8f587198-8e56-48d9-bf68-52ba99b5fb4b","system_id":"levelo_inurba_marseille","lat":43.28613,"lon":5.35101,"is_reserved":false,"is_disabled":false,"rental_uris":{"android":"levelo://app?vid=8f587198-8e56-48d9-bf68-52ba99b5fb4b","ios":"levelo://app?vid=8f587198-8e56-48d9-bf68-52ba99b5fb4b"},"vehicle_type_id":"4","last_reported":1691946259,"current_range_meters":3200,"station_id":"ce4bhch2rcd13ifvqeug","pricing_plan_id":"free"},{"bike_id":"e4e493c2-cf04-485b-a5be-a8d99062d1fa","system_id":"levelo_inurba_marseille","lat":43.2861,"lon":5.35098,"is_reserved":false,"is_disabled":false,"rental_uris":{"android":"levelo://app?vid=e4e493c2-cf04-485b-a5be-a8d99062d1fa","ios":"levelo://app?vid=e4e493c2-cf04-485b-a5be-a8d99062d1fa"},"vehicle_type_id":"4","last_reported":1691946259,"current_range_meters":20800,"station_id":"ce4bhch2rcd13ifvqeug","pricing_plan_id":"free"},{"bike_id":"1c2eab0e-0b1d-4733-abb9-30b60511a134","system_id":"levelo_inurba_marseille","lat":43.294153,"lon":5.386305,"is_reserved":false,"is_disabled":false,"rental_uris":{"android":"levelo://app?vid=1c2eab0e-0b1d-4733-abb9-30b60511a134","ios":"levelo://app?vid=1c2eab0e-0b1d-4733-abb9-30b60511a134"},"vehicle_type_id":"4","last_reported":1691946259,"current_range_meters":18800,"station_id":"ce4bh2h2rcd13ifvqdh0","pricing_plan_id":"free"},{"bike_id":"73d29ba9-3c6f-4364-ba92-fc9531ec0285","system_id":"levelo_inurba_marseille","lat":43.283998,"lon":5.375062,"is_reserved":false,"is_disabled":false,"rental_uris":{"android":"levelo://app?vid=73d29ba9-3c6f-4364-ba92-fc9531ec0285","ios":"levelo://app?vid=73d29ba9-3c6f-4364-ba92-fc9531ec0285"},"vehicle_type_id":"4","last_reported":1691946259,"current_range_meters":20800,"station_id":"ce4bh412rcd13ifvqds0","pricing_plan_id":"free"},{"bike_id":"edecb395-89b4-401c-b878-f6dc76493177","system_id":"levelo_inurba_marseille","lat":43.28372,"lon":5.3752,"is_reserved":false,"is_disabled":false,"rental_uris":{"android":"levelo://app?vid=edecb395-89b4-401c-b878-f6dc76493177","ios":"levelo://app?vid=edecb395-89b4-401c-b878-f6dc76493177"},"vehicle_type_id":"4","last_reported":1691946259,"current_range_meters":11200,"station_id":"ce4bh412rcd13ifvqds0","pricing_plan_id":"free"},{"bike_id":"7651d742-570e-4cc1-8fa6-97b50c5de15a","system_id":"levelo_inurba_marseille","lat":43.28676,"lon":5.38653,"is_reserved":false,"is_disabled":false,"rental_uris":{"android":"levelo://app?vid=7651d742-570e-4cc1-8fa6-97b50c5de15a","ios":"levelo://app?vid=7651d742-570e-4cc1-8fa6-97b50c5de15a"},"vehicle_type_id":"4","last_reported":1691946259,"current_range_meters":22400,"station_id":"ce4bh492rcd13ifvqdug","pricing_plan_id":"free"},{"bike_id":"22c62e29-0086-48dc-9862-2be8ca4c389a","system_id":"levelo_inurba_marseille","lat":43.319179,"lon":5.407725,"is_reserved":false,"is_disabled":false,"rental_uris":{"android":"levelo://app?vid=22c62e29-0086-48dc-9862-2be8ca4c389a","ios":"levelo://app?vid=22c62e29-0086-48dc-9862-2be8ca4c389a"},"vehicle_type_id":"4","last_reported":1691946259,"current_range_meters":19600,"station_id":"ce4bhq12rcd13ifvqhig","pricing_plan_id":"free"},{"bike_id":"3418df2e-6699-4bed-91a2-b25e9f32f724","system_id":"levelo_inurba_marseille","lat":43.33717,"lon":5.391857,"is_reserved":false,"is_disabled":false,"rental_uris":{"android":"levelo://app?vid=3418df2e-6699-4bed-91a2-b25e9f32f724","ios":"levelo://app?vid=3418df2e-6699-4bed-91a2-b25e9f32f724"},"vehicle_type_id":"4","last_reported":1691946259,"current_range_meters":2400,"station_id":"ce4bhr92rcd13ifvqhsg","pricing_plan_id":"free"},{"bike_id":"516bb14a-6b1b-4c06-b018-75a599b6c480","system_id":"levelo_inurba_marseille","lat":43.33734,"lon":5.39183,"is_reserved":false,"is_disabled":false,"rental_uris":{"android":"levelo://app?vid=516bb14a-6b1b-4c06-b018-75a599b6c480","ios":"levelo://app?vid=516bb14a-6b1b-4c06-b018-75a599b6c480"},"vehicle_type_id":"4","last_reported":1691946259,"current_range_meters":22000,"station_id":"ce4bhr92rcd13ifvqhsg","pricing_plan_id":"free"},{"bike_id":"44332cf0-859e-47ac-b688-018185cef5db","system_id":"levelo_inurba_marseille","lat":43.284787,"lon":5.384116,"is_reserved":false,"is_disabled":false,"rental_uris":{"android":"levelo://app?vid=44332cf0-859e-47ac-b688-018185cef5db","ios":"levelo://app?vid=44332cf0-859e-47ac-b688-018185cef5db"},"vehicle_type_id":"4","last_reported":1691946259,"current_range_meters":28000,"station_id":"ce4bh512rcd13ifvqe3g","pricing_plan_id":"free"},{"bike_id":"57fc6c58-ab06-4ff3-bdf3-d4d1deb1eadb","system_id":"levelo_inurba_marseille","lat":43.284793,"lon":5.384119,"is_reserved":false,"is_disabled":false,"rental_uris":{"android":"levelo://app?vid=57fc6c58-ab06-4ff3-bdf3-d4d1deb1eadb","ios":"levelo://app?vid=57fc6c58-ab06-4ff3-bdf3-d4d1deb1eadb"},"vehicle_type_id":"4","last_reported":1691946259,"current_range_meters":24400,"station_id":"ce4bh512rcd13ifvqe3g","pricing_plan_id":"free"},{"bike_id":"8c9ee6a1-5fc1-426b-bf2d-8c7a637c69d3","system_id":"levelo_inurba_marseille","lat":43.29793,"lon":5.40415,"is_reserved":false,"is_disabled":false,"rental_uris":{"android":"levelo://app?vid=8c9ee6a1-5fc1-426b-bf2d-8c7a637c69d3","ios":"levelo://app?vid=8c9ee6a1-5fc1-426b-bf2d-8c7a637c69d3"},"vehicle_type_id":"4","last_reported":1691946259,"current_range_meters":0,"station_id":"ce4bh112rcd13ifvqd90","pricing_plan_id":"free"},{"bike_id":"a1177b0b-a4f3-48d7-937d-9230283931f4","system_id":"levelo_inurba_marseille","lat":43.283498,"lon":5.380948,"is_reserved":false,"is_disabled":false,"rental_uris":{"android":"levelo://app?vid=a1177b0b-a4f3-48d7-937d-9230283931f4","ios":"levelo://app?vid=a1177b0b-a4f3-48d7-937d-9230283931f4"},"vehicle_type_id":"4","last_reported":1691946259,"current_range_meters":0,"station_id":"ce4bh412rcd13ifvqdr0","pricing_plan_id":"free"},{"bike_id":"f7cdf8a6-2c24-4126-b1d7-838e613c4ac2","system_id":"levelo_inurba_marseille","lat":43.28427,"lon":5.34983,"is_reserved":false,"is_disabled":false,"rental_uris":{"android":"levelo://app?vid=f7cdf8a6-2c24-4126-b1d7-838e613c4ac2","ios":"levelo://app?vid=f7cdf8a6-2c24-4126-b1d7-838e613c4ac2"},"vehicle_type_id":"4","last_reported":1691946259,"current_range_meters":31200,"station_id":"ce4bhbh2rcd13ifvqepg","pricing_plan_id":"free"},{"bike_id":"5cec26ac-344f-432b-af34-450b75305b9b","system_id":"levelo_inurba_marseille","lat":43.292724,"lon":5.401131,"is_reserved":false,"is_disabled":false,"rental_uris":{"android":"levelo://app?vid=5cec26ac-344f-432b-af34-450b75305b9b","ios":"levelo://app?vid=5cec26ac-344f-432b-af34-450b75305b9b"},"vehicle_type_id":"4","last_reported":1691946259,"current_range_meters":31200,"station_id":"ce4bh312rcd13ifvqdk0","pricing_plan_id":"free"},{"bike_id":"1d7541d6-9596-4fd6-bc27-ff66be0f6838","system_id":"levelo_inurba_marseille","lat":43.283502,"lon":5.386471,"is_reserved":false,"is_disabled":false,"rental_uris":{"android":"levelo://app?vid=1d7541d6-9596-4fd6-bc27-ff66be0f6838","ios":"levelo://app?vid=1d7541d6-9596-4fd6-bc27-ff66be0f6838"},"vehicle_type_id":"4","last_reported":1691946259,"current_range_meters":14800,"station_id":"ce4bh492rcd13ifvqdvg","pricing_plan_id":"free"},{"bike_id":"88940920-727e-47f8-bee6-24feedff1167","system_id":"levelo_inurba_marseille","lat":43.282754,"lon":5.350519,"is_reserved":false,"is_disabled":false,"rental_uris":{"android":"levelo://app?vid=88940920-727e-47f8-bee6-24feedff1167","ios":"levelo://app?vid=88940920-727e-47f8-bee6-24feedff1167"},"vehicle_type_id":"4","last_reported":1691946259,"current_range_meters":31600,"station_id":"ce4bhbp2rcd13ifvqerg","pricing_plan_id":"free"},{"bike_id":"62074297-90a6-4fd8-a5ec-25e9e1e41eaf","system_id":"levelo_inurba_marseille","lat":43.282754,"lon":5.350519,"is_reserved":false,"is_disabled":false,"rental_uris":{"android":"levelo://app?vid=62074297-90a6-4fd8-a5ec-25e9e1e41eaf","ios":"levelo://app?vid=62074297-90a6-4fd8-a5ec-25e9e1e41eaf"},"vehicle_type_id":"4","last_reported":1691946259,"current_range_meters":12800,"station_id":"ce4bhbp2rcd13ifvqerg","pricing_plan_id":"free"},{"bike_id":"217d43c7-9b81-4458-8110-0a7987d5fe72","system_id":"levelo_inurba_marseille","lat":43.280382,"lon":5.369291,"is_reserved":false,"is_disabled":false,"rental_uris":{"android":"levelo://app?vid=217d43c7-9b81-4458-8110-0a7987d5fe72","ios":"levelo://app?vid=217d43c7-9b81-4458-8110-0a7987d5fe72"},"vehicle_type_id":"4","last_reported":1691946259,"current_range_meters":0,"station_id":"ce4bha12rcd13ifvqef0","pricing_plan_id":"free"},{"bike_id":"7979eb3f-ef4b-414b-b280-8446de29dfce","system_id":"levelo_inurba_marseille","lat":43.280382,"lon":5.369291,"is_reserved":false,"is_disabled":false,"rental_uris":{"android":"levelo://app?vid=7979eb3f-ef4b-414b-b280-8446de29dfce","ios":"levelo://app?vid=7979eb3f-ef4b-414b-b280-8446de29dfce"},"vehicle_type_id":"4","last_reported":1691946259,"current_range_meters":6400,"station_id":"ce4bha12rcd13ifvqef0","pricing_plan_id":"free"},{"bike_id":"a10c0f2b-3482-440e-b736-f4de90f11069","system_id":"levelo_inurba_marseille","lat":43.280382,"lon":5.369291,"is_reserved":false,"is_disabled":false,"rental_uris":{"android":"levelo://app?vid=a10c0f2b-3482-440e-b736-f4de90f11069","ios":"levelo://app?vid=a10c0f2b-3482-440e-b736-f4de90f11069"},"vehicle_type_id":"4","last_reported":1691946259,"current_range_meters":19600,"station_id":"ce4bha12rcd13ifvqef0","pricing_plan_id":"free"},{"bike_id":"7a5905ed-0192-4191-88ed-e3f8c41bb5aa","system_id":"levelo_inurba_marseille","lat":43.283502,"lon":5.386471,"is_reserved":false,"is_disabled":false,"rental_uris":{"android":"levelo://app?vid=7a5905ed-0192-4191-88ed-e3f8c41bb5aa","ios":"levelo://app?vid=7a5905ed-0192-4191-88ed-e3f8c41bb5aa"},"vehicle_type_id":"4","last_reported":1691946259,"current_range_meters":0,"station_id":"ce4bh492rcd13ifvqdvg","pricing_plan_id":"free"},{"bike_id":"50b70692-3eb1-42a9-b3cc-7e6245bee8d8","system_id":"levelo_inurba_marseille","lat":43.29042,"lon":5.39979,"is_reserved":false,"is_disabled":false,"rental_uris":{"android":"levelo://app?vid=50b70692-3eb1-42a9-b3cc-7e6245bee8d8","ios":"levelo://app?vid=50b70692-3eb1-42a9-b3cc-7e6245bee8d8"},"vehicle_type_id":"4","last_reported":1691946259,"current_range_meters":13600,"station_id":"ce4bh392rcd13ifvqdm0","pricing_plan_id":"free"},{"bike_id":"eb8e4c4f-5fc5-4007-ab2b-231fad0dc17c","system_id":"levelo_inurba_marseille","lat":43.29041,"lon":5.399634,"is_reserved":false,"is_disabled":false,"rental_uris":{"android":"levelo://app?vid=eb8e4c4f-5fc5-4007-ab2b-231fad0dc17c","ios":"levelo://app?vid=eb8e4c4f-5fc5-4007-ab2b-231fad0dc17c"},"vehicle_type_id":"4","last_reported":1691946259,"current_range_meters":31200,"station_id":"ce4bh392rcd13ifvqdm0","pricing_plan_id":"free"},{"bike_id":"29604581-c851-48e1-840e-0637efceab06","system_id":"levelo_inurba_marseille","lat":43.284462,"lon":5.392121,"is_reserved":false,"is_disabled":false,"rental_uris":{"android":"levelo://app?vid=29604581-c851-48e1-840e-0637efceab06","ios":"levelo://app?vid=29604581-c851-48e1-840e-0637efceab06"},"vehicle_type_id":"4","last_reported":1691946259,"current_range_meters":24800,"station_id":"ce4bhoh2rcd13ifvqh5g","pricing_plan_id":"free"},{"bike_id":"36d34531-9505-4491-8ea4-2b88364892c3","system_id":"levelo_inurba_marseille","lat":43.284462,"lon":5.392121,"is_reserved":false,"is_disabled":false,"rental_uris":{"android":"levelo://app?vid=36d34531-9505-4491-8ea4-2b88364892c3","ios":"levelo://app?vid=36d34531-9505-4491-8ea4-2b88364892c3"},"vehicle_type_id":"4","last_reported":1691946259,"current_range_meters":23200,"station_id":"ce4bhoh2rcd13ifvqh5g","pricing_plan_id":"free"},{"bike_id":"a0f258ed-ced3-412c-a3a0-592502c28464","system_id":"levelo_inurba_marseille","lat":43.32661,"lon":5.40929,"is_reserved":false,"is_disabled":false,"rental_uris":{"android":"levelo://app?vid=a0f258ed-ced3-412c-a3a0-592502c28464","ios":"levelo://app?vid=a0f258ed-ced3-412c-a3a0-592502c28464"},"vehicle_type_id":"4","last_reported":1691946259,"current_range_meters":11200,"station_id":"","pricing_plan_id":"free"},{"bike_id":"538e7572-332d-415e-b6cd-e74457693da6","system_id":"levelo_inurba_marseille","lat":43.2857,"lon":5.39486,"is_reserved":false,"is_disabled":false,"rental_uris":{"android":"levelo://app?vid=538e7572-332d-415e-b6cd-e74457693da6","ios":"levelo://app?vid=538e7572-332d-415e-b6cd-e74457693da6"},"vehicle_type_id":"4","last_reported":1691946259,"current_range_meters":15600,"station_id":"ce4bh292rcd13ifvqdg0","pricing_plan_id":"free"},{"bike_id":"ee205d92-5143-474c-ae39-3bbf62e23187","system_id":"levelo_inurba_marseille","lat":43.28567,"lon":5.3949,"is_reserved":false,"is_disabled":false,"rental_uris":{"android":"levelo://app?vid=ee205d92-5143-474c-ae39-3bbf62e23187","ios":"levelo://app?vid=ee205d92-5143-474c-ae39-3bbf62e23187"},"vehicle_type_id":"4","last_reported":1691946259,"current_range_meters":26400,"station_id":"ce4bh292rcd13ifvqdg0","pricing_plan_id":"free"},{"bike_id":"02f7a1e3-31ef-47e2-8193-ac43caa766bd","system_id":"levelo_inurba_marseille","lat":43.32655,"lon":5.40985,"is_reserved":false,"is_disabled":false,"rental_uris":{"android":"levelo://app?vid=02f7a1e3-31ef-47e2-8193-ac43caa766bd","ios":"levelo://app?vid=02f7a1e3-31ef-47e2-8193-ac43caa766bd"},"vehicle_type_id":"4","last_reported":1691946259,"current_range_meters":5200,"station_id":"ce4bhpp2rcd13ifvqhgg","pricing_plan_id":"free"},{"bike_id":"7d20c6f9-54b3-482c-9f46-2975184da393","system_id":"levelo_inurba_marseille","lat":43.32658,"lon":5.40988,"is_reserved":false,"is_disabled":false,"rental_uris":{"android":"levelo://app?vid=7d20c6f9-54b3-482c-9f46-2975184da393","ios":"levelo://app?vid=7d20c6f9-54b3-482c-9f46-2975184da393"},"vehicle_type_id":"4","last_reported":1691946259,"current_range_meters":5200,"station_id":"ce4bhpp2rcd13ifvqhgg","pricing_plan_id":"free"},{"bike_id":"6e30458f-080c-417e-b6a7-ad3a09af53ae","system_id":"levelo_inurba_marseille","lat":43.32657,"lon":5.40991,"is_reserved":false,"is_disabled":false,"rental_uris":{"android":"levelo://app?vid=6e30458f-080c-417e-b6a7-ad3a09af53ae","ios":"levelo://app?vid=6e30458f-080c-417e-b6a7-ad3a09af53ae"},"vehicle_type_id":"4","last_reported":1691946259,"current_range_meters":26800,"station_id":"ce4bhpp2rcd13ifvqhgg","pricing_plan_id":"free"},{"bike_id":"4ca2ead3-1d1a-4dd7-8c6f-a0877bd63423","system_id":"levelo_inurba_marseille","lat":43.32659,"lon":5.4099,"is_reserved":false,"is_disabled":false,"rental_uris":{"android":"levelo://app?vid=4ca2ead3-1d1a-4dd7-8c6f-a0877bd63423","ios":"levelo://app?vid=4ca2ead3-1d1a-4dd7-8c6f-a0877bd63423"},"vehicle_type_id":"4","last_reported":1691946259,"current_range_meters":0,"station_id":"ce4bhpp2rcd13ifvqhgg","pricing_plan_id":"free"},{"bike_id":"efc2e4c7-e2e3-4994-ab4a-1e549672444f","system_id":"levelo_inurba_marseille","lat":43.32656,"lon":5.40995,"is_reserved":false,"is_disabled":false,"rental_uris":{"android":"levelo://app?vid=efc2e4c7-e2e3-4994-ab4a-1e549672444f","ios":"levelo://app?vid=efc2e4c7-e2e3-4994-ab4a-1e549672444f"},"vehicle_type_id":"4","last_reported":1691946259,"current_range_meters":6000,"station_id":"ce4bhpp2rcd13ifvqhgg","pricing_plan_id":"free"},{"bike_id":"d322a378-eed5-4105-a886-20d4ef6aa1c0","system_id":"levelo_inurba_marseille","lat":43.32658,"lon":5.40994,"is_reserved":false,"is_disabled":false,"rental_uris":{"android":"levelo://app?vid=d322a378-eed5-4105-a886-20d4ef6aa1c0","ios":"levelo://app?vid=d322a378-eed5-4105-a886-20d4ef6aa1c0"},"vehicle_type_id":"4","last_reported":1691946259,"current_range_meters":25200,"station_id":"ce4bhpp2rcd13ifvqhgg","pricing_plan_id":"free"},{"bike_id":"884c45dd-82b9-436a-82a3-88c9ab10b234","system_id":"levelo_inurba_marseille","lat":43.32659,"lon":5.40996,"is_reserved":false,"is_disabled":false,"rental_uris":{"android":"levelo://app?vid=884c45dd-82b9-436a-82a3-88c9ab10b234","ios":"levelo://app?vid=884c45dd-82b9-436a-82a3-88c9ab10b234"},"vehicle_type_id":"4","last_reported":1691946259,"current_range_meters":3200,"station_id":"ce4bhpp2rcd13ifvqhgg","pricing_plan_id":"free"},{"bike_id":"1cb7cf3b-87b5-42bd-b17c-1a9d8836ab80","system_id":"levelo_inurba_marseille","lat":43.279087,"lon":5.380114,"is_reserved":false,"is_disabled":false,"rental_uris":{"android":"levelo://app?vid=1cb7cf3b-87b5-42bd-b17c-1a9d8836ab80","ios":"levelo://app?vid=1cb7cf3b-87b5-42bd-b17c-1a9d8836ab80"},"vehicle_type_id":"4","last_reported":1691946259,"current_range_meters":19600,"station_id":"ce4bhf92rcd13ifvqf50","pricing_plan_id":"free"},{"bike_id":"bccc79fa-1466-4b60-b174-58e3836d08d5","system_id":"levelo_inurba_marseille","lat":43.279087,"lon":5.380114,"is_reserved":false,"is_disabled":false,"rental_uris":{"android":"levelo://app?vid=bccc79fa-1466-4b60-b174-58e3836d08d5","ios":"levelo://app?vid=bccc79fa-1466-4b60-b174-58e3836d08d5"},"vehicle_type_id":"4","last_reported":1691946259,"current_range_meters":23600,"station_id":"ce4bhf92rcd13ifvqf50","pricing_plan_id":"free"},{"bike_id":"b9ca51bc-ed73-4980-9a30-0dc64f56cf40","system_id":"levelo_inurba_marseille","lat":43.279087,"lon":5.380114,"is_reserved":false,"is_disabled":false,"rental_uris":{"android":"levelo://app?vid=b9ca51bc-ed73-4980-9a30-0dc64f56cf40","ios":"levelo://app?vid=b9ca51bc-ed73-4980-9a30-0dc64f56cf40"},"vehicle_type_id":"4","last_reported":1691946259,"current_range_meters":12800,"station_id":"ce4bhf92rcd13ifvqf50","pricing_plan_id":"free"},{"bike_id":"0fdc976b-496c-4b1c-a55f-b943500c077c","system_id":"levelo_inurba_marseille","lat":43.279087,"lon":5.380114,"is_reserved":false,"is_disabled":false,"rental_uris":{"android":"levelo://app?vid=0fdc976b-496c-4b1c-a55f-b943500c077c","ios":"levelo://app?vid=0fdc976b-496c-4b1c-a55f-b943500c077c"},"vehicle_type_id":"4","last_reported":1691946259,"current_range_meters":14800,"station_id":"ce4bhf92rcd13ifvqf50","pricing_plan_id":"free"},{"bike_id":"ebd724cb-28a5-4548-bd5e-b3645a3e9f27","system_id":"levelo_inurba_marseille","lat":43.279087,"lon":5.380114,"is_reserved":false,"is_disabled":false,"rental_uris":{"android":"levelo://app?vid=ebd724cb-28a5-4548-bd5e-b3645a3e9f27","ios":"levelo://app?vid=ebd724cb-28a5-4548-bd5e-b3645a3e9f27"},"vehicle_type_id":"4","last_reported":1691946259,"current_range_meters":17200,"station_id":"ce4bhf92rcd13ifvqf50","pricing_plan_id":"free"},{"bike_id":"e613e85f-b0c7-48a6-9aef-92e5bd78b85b","system_id":"levelo_inurba_marseille","lat":43.279087,"lon":5.380114,"is_reserved":false,"is_disabled":false,"rental_uris":{"android":"levelo://app?vid=e613e85f-b0c7-48a6-9aef-92e5bd78b85b","ios":"levelo://app?vid=e613e85f-b0c7-48a6-9aef-92e5bd78b85b"},"vehicle_type_id":"4","last_reported":1691946259,"current_range_meters":19200,"station_id":"ce4bhf92rcd13ifvqf50","pricing_plan_id":"free"},{"bike_id":"55c4ccad-c59e-49f6-a9a7-7d82e1d9c2d6","system_id":"levelo_inurba_marseille","lat":43.287154,"lon":5.399979,"is_reserved":false,"is_disabled":false,"rental_uris":{"android":"levelo://app?vid=55c4ccad-c59e-49f6-a9a7-7d82e1d9c2d6","ios":"levelo://app?vid=55c4ccad-c59e-49f6-a9a7-7d82e1d9c2d6"},"vehicle_type_id":"4","last_reported":1691946259,"current_range_meters":6800,"station_id":"ce4bho92rcd13ifvqh3g","pricing_plan_id":"free"},{"bike_id":"18413246-a78c-4278-a1e9-7085427af4b9","system_id":"levelo_inurba_marseille","lat":43.287154,"lon":5.399979,"is_reserved":false,"is_disabled":false,"rental_uris":{"android":"levelo://app?vid=18413246-a78c-4278-a1e9-7085427af4b9","ios":"levelo://app?vid=18413246-a78c-4278-a1e9-7085427af4b9"},"vehicle_type_id":"4","last_reported":1691946259,"current_range_meters":5600,"station_id":"ce4bho92rcd13ifvqh3g","pricing_plan_id":"free"},{"bike_id":"2468db78-ebc6-46d3-a4a5-13f732cfd056","system_id":"levelo_inurba_marseille","lat":43.28703,"lon":5.39992,"is_reserved":false,"is_disabled":false,"rental_uris":{"android":"levelo://app?vid=2468db78-ebc6-46d3-a4a5-13f732cfd056","ios":"levelo://app?vid=2468db78-ebc6-46d3-a4a5-13f732cfd056"},"vehicle_type_id":"4","last_reported":1691946259,"current_range_meters":17200,"station_id":"","pricing_plan_id":"free"},{"bike_id":"6cbbe917-8b47-476b-8e9f-e102b926e57e","system_id":"levelo_inurba_marseille","lat":43.32051,"lon":5.41533,"is_reserved":false,"is_disabled":false,"rental_uris":{"android":"levelo://app?vid=6cbbe917-8b47-476b-8e9f-e102b926e57e","ios":"levelo://app?vid=6cbbe917-8b47-476b-8e9f-e102b926e57e"},"vehicle_type_id":"4","last_reported":1691946259,"current_range_meters":31200,"station_id":"","pricing_plan_id":"free"},{"bike_id":"2804c083-51db-4ca7-804d-e0ccbc767238","system_id":"levelo_inurba_marseille","lat":43.27979,"lon":5.38735,"is_reserved":false,"is_disabled":false,"rental_uris":{"android":"levelo://app?vid=2804c083-51db-4ca7-804d-e0ccbc767238","ios":"levelo://app?vid=2804c083-51db-4ca7-804d-e0ccbc767238"},"vehicle_type_id":"4","last_reported":1691946259,"current_range_meters":9600,"station_id":"ce4bhg12rcd13ifvqf80","pricing_plan_id":"free"},{"bike_id":"2c970ae3-a7a6-4170-a395-fca7bccd9a36","system_id":"levelo_inurba_marseille","lat":43.320045,"lon":5.415046,"is_reserved":false,"is_disabled":false,"rental_uris":{"android":"levelo://app?vid=2c970ae3-a7a6-4170-a395-fca7bccd9a36","ios":"levelo://app?vid=2c970ae3-a7a6-4170-a395-fca7bccd9a36"},"vehicle_type_id":"4","last_reported":1691946259,"current_range_meters":28000,"station_id":"ce4bhq92rcd13ifvqhkg","pricing_plan_id":"free"},{"bike_id":"c327718a-8fe6-4791-a349-aba0f8f94e82","system_id":"levelo_inurba_marseille","lat":43.279742,"lon":5.38744,"is_reserved":false,"is_disabled":false,"rental_uris":{"android":"levelo://app?vid=c327718a-8fe6-4791-a349-aba0f8f94e82","ios":"levelo://app?vid=c327718a-8fe6-4791-a349-aba0f8f94e82"},"vehicle_type_id":"4","last_reported":1691946259,"current_range_meters":27200,"station_id":"ce4bhg12rcd13ifvqf80","pricing_plan_id":"free"},{"bike_id":"b003d282-cd34-4f50-804b-fa64a3319aef","system_id":"levelo_inurba_marseille","lat":43.279742,"lon":5.38744,"is_reserved":false,"is_disabled":false,"rental_uris":{"android":"levelo://app?vid=b003d282-cd34-4f50-804b-fa64a3319aef","ios":"levelo://app?vid=b003d282-cd34-4f50-804b-fa64a3319aef"},"vehicle_type_id":"4","last_reported":1691946259,"current_range_meters":8400,"station_id":"ce4bhg12rcd13ifvqf80","pricing_plan_id":"free"},{"bike_id":"faa71999-f401-4005-aa2b-e11aa09810b9","system_id":"levelo_inurba_marseille","lat":43.27952,"lon":5.38702,"is_reserved":false,"is_disabled":false,"rental_uris":{"android":"levelo://app?vid=faa71999-f401-4005-aa2b-e11aa09810b9","ios":"levelo://app?vid=faa71999-f401-4005-aa2b-e11aa09810b9"},"vehicle_type_id":"4","last_reported":1691946259,"current_range_meters":5600,"station_id":"ce4bhg12rcd13ifvqf80","pricing_plan_id":"free"},{"bike_id":"a3c1bdbf-9979-4841-9ebc-965c7e47e8e5","system_id":"levelo_inurba_marseille","lat":43.27952,"lon":5.38707,"is_reserved":false,"is_disabled":false,"rental_uris":{"android":"levelo://app?vid=a3c1bdbf-9979-4841-9ebc-965c7e47e8e5","ios":"levelo://app?vid=a3c1bdbf-9979-4841-9ebc-965c7e47e8e5"},"vehicle_type_id":"4","last_reported":1691946259,"current_range_meters":31600,"station_id":"ce4bhg12rcd13ifvqf80","pricing_plan_id":"free"},{"bike_id":"11ab773a-dbba-4785-ab9a-fe1c7f4d7bc1","system_id":"levelo_inurba_marseille","lat":43.27951,"lon":5.38705,"is_reserved":false,"is_disabled":false,"rental_uris":{"android":"levelo://app?vid=11ab773a-dbba-4785-ab9a-fe1c7f4d7bc1","ios":"levelo://app?vid=11ab773a-dbba-4785-ab9a-fe1c7f4d7bc1"},"vehicle_type_id":"4","last_reported":1691946259,"current_range_meters":27600,"station_id":"ce4bhg12rcd13ifvqf80","pricing_plan_id":"free"},{"bike_id":"f3c38291-d3ec-44ee-a741-6ba87e356813","system_id":"levelo_inurba_marseille","lat":43.292571,"lon":5.409107,"is_reserved":false,"is_disabled":false,"rental_uris":{"android":"levelo://app?vid=f3c38291-d3ec-44ee-a741-6ba87e356813","ios":"levelo://app?vid=f3c38291-d3ec-44ee-a741-6ba87e356813"},"vehicle_type_id":"4","last_reported":1691946259,"current_range_meters":2800,"station_id":"ce4bh192rcd13ifvqdc0","pricing_plan_id":"free"},{"bike_id":"1c95e95b-e8a8-470c-bf7c-127c2d331631","system_id":"levelo_inurba_marseille","lat":43.325233,"lon":5.414318,"is_reserved":false,"is_disabled":false,"rental_uris":{"android":"levelo://app?vid=1c95e95b-e8a8-470c-bf7c-127c2d331631","ios":"levelo://app?vid=1c95e95b-e8a8-470c-bf7c-127c2d331631"},"vehicle_type_id":"4","last_reported":1691946259,"current_range_meters":28000,"station_id":"ce4bhq12rcd13ifvqhhg","pricing_plan_id":"free"},{"bike_id":"386ed8e3-b71e-4f68-86af-202c5b76503e","system_id":"levelo_inurba_marseille","lat":43.27618,"lon":5.361009,"is_reserved":false,"is_disabled":false,"rental_uris":{"android":"levelo://app?vid=386ed8e3-b71e-4f68-86af-202c5b76503e","ios":"levelo://app?vid=386ed8e3-b71e-4f68-86af-202c5b76503e"},"vehicle_type_id":"4","last_reported":1691946259,"current_range_meters":19200,"station_id":"ce4bgj92rcd13ifvqbe0","pricing_plan_id":"free"},{"bike_id":"cbfd4a71-af23-44f8-b401-4db5c09ec9ba","system_id":"levelo_inurba_marseille","lat":43.28075,"lon":5.39651,"is_reserved":false,"is_disabled":false,"rental_uris":{"android":"levelo://app?vid=cbfd4a71-af23-44f8-b401-4db5c09ec9ba","ios":"levelo://app?vid=cbfd4a71-af23-44f8-b401-4db5c09ec9ba"},"vehicle_type_id":"4","last_reported":1691946259,"current_range_meters":2800,"station_id":"ce4bho12rcd13ifvqh2g","pricing_plan_id":"free"},{"bike_id":"dcee6744-b3e5-4c48-a422-a0247a02bb31","system_id":"levelo_inurba_marseille","lat":43.336134,"lon":5.410341,"is_reserved":false,"is_disabled":false,"rental_uris":{"android":"levelo://app?vid=dcee6744-b3e5-4c48-a422-a0247a02bb31","ios":"levelo://app?vid=dcee6744-b3e5-4c48-a422-a0247a02bb31"},"vehicle_type_id":"4","last_reported":1691946259,"current_range_meters":27600,"station_id":"ce4bhqh2rcd13ifvqhmg","pricing_plan_id":"free"},{"bike_id":"dd01e7e4-3b06-4b7c-9178-231f3e3692f8","system_id":"levelo_inurba_marseille","lat":43.278399,"lon":5.392139,"is_reserved":false,"is_disabled":false,"rental_uris":{"android":"levelo://app?vid=dd01e7e4-3b06-4b7c-9178-231f3e3692f8","ios":"levelo://app?vid=dd01e7e4-3b06-4b7c-9178-231f3e3692f8"},"vehicle_type_id":"4","last_reported":1691946259,"current_range_meters":28800,"station_id":"ce4bhjp2rcd13ifvqga0","pricing_plan_id":"free"},{"bike_id":"e7f5c53a-331e-460d-a400-9321795b9858","system_id":"levelo_inurba_marseille","lat":43.278401,"lon":5.392152,"is_reserved":false,"is_disabled":false,"rental_uris":{"android":"levelo://app?vid=e7f5c53a-331e-460d-a400-9321795b9858","ios":"levelo://app?vid=e7f5c53a-331e-460d-a400-9321795b9858"},"vehicle_type_id":"4","last_reported":1691946259,"current_range_meters":8000,"station_id":"ce4bhjp2rcd13ifvqga0","pricing_plan_id":"free"},{"bike_id":"f65d7c12-cf54-4f90-8427-eaf4134efb61","system_id":"levelo_inurba_marseille","lat":43.27562,"lon":5.38406,"is_reserved":false,"is_disabled":false,"rental_uris":{"android":"levelo://app?vid=f65d7c12-cf54-4f90-8427-eaf4134efb61","ios":"levelo://app?vid=f65d7c12-cf54-4f90-8427-eaf4134efb61"},"vehicle_type_id":"4","last_reported":1691946259,"current_range_meters":6000,"station_id":"ce4bhh92rcd13ifvqfi0","pricing_plan_id":"free"},{"bike_id":"2b9ea48e-6e5e-47b0-9089-9cf3f475f7db","system_id":"levelo_inurba_marseille","lat":43.27559,"lon":5.3842,"is_reserved":false,"is_disabled":false,"rental_uris":{"android":"levelo://app?vid=2b9ea48e-6e5e-47b0-9089-9cf3f475f7db","ios":"levelo://app?vid=2b9ea48e-6e5e-47b0-9089-9cf3f475f7db"},"vehicle_type_id":"4","last_reported":1691946259,"current_range_meters":0,"station_id":"ce4bhh92rcd13ifvqfi0","pricing_plan_id":"free"},{"bike_id":"d8b1bd29-75ec-4f17-8a9f-fe974e818210","system_id":"levelo_inurba_marseille","lat":43.275625,"lon":5.384392,"is_reserved":false,"is_disabled":false,"rental_uris":{"android":"levelo://app?vid=d8b1bd29-75ec-4f17-8a9f-fe974e818210","ios":"levelo://app?vid=d8b1bd29-75ec-4f17-8a9f-fe974e818210"},"vehicle_type_id":"4","last_reported":1691946259,"current_range_meters":19200,"station_id":"ce4bhh92rcd13ifvqfi0","pricing_plan_id":"free"},{"bike_id":"2c002134-e4d2-41d1-b436-28e8e2ea24ca","system_id":"levelo_inurba_marseille","lat":43.276769,"lon":5.388787,"is_reserved":false,"is_disabled":false,"rental_uris":{"android":"levelo://app?vid=2c002134-e4d2-41d1-b436-28e8e2ea24ca","ios":"levelo://app?vid=2c002134-e4d2-41d1-b436-28e8e2ea24ca"},"vehicle_type_id":"4","last_reported":1691946259,"current_range_meters":28400,"station_id":"ce4bhi12rcd13ifvqfo0","pricing_plan_id":"free"},{"bike_id":"ea20c92f-16eb-4426-a8a2-251d45d436f2","system_id":"levelo_inurba_marseille","lat":43.317121,"lon":5.423936,"is_reserved":false,"is_disabled":false,"rental_uris":{"android":"levelo://app?vid=ea20c92f-16eb-4426-a8a2-251d45d436f2","ios":"levelo://app?vid=ea20c92f-16eb-4426-a8a2-251d45d436f2"},"vehicle_type_id":"4","last_reported":1691946259,"current_range_meters":31200,"station_id":"ce4bhp92rcd13ifvqhbg","pricing_plan_id":"free"},{"bike_id":"7af49c3d-5cb3-4ec8-b77f-3af5c6dd8e1c","system_id":"levelo_inurba_marseille","lat":43.34138,"lon":5.40898,"is_reserved":false,"is_disabled":false,"rental_uris":{"android":"levelo://app?vid=7af49c3d-5cb3-4ec8-b77f-3af5c6dd8e1c","ios":"levelo://app?vid=7af49c3d-5cb3-4ec8-b77f-3af5c6dd8e1c"},"vehicle_type_id":"4","last_reported":1691946259,"current_range_meters":4800,"station_id":"ce4bhqh2rcd13ifvqhlg","pricing_plan_id":"free"},{"bike_id":"47ce54ab-84fa-4f95-8b5a-6599448f3a8c","system_id":"levelo_inurba_marseille","lat":43.340804,"lon":5.410219,"is_reserved":false,"is_disabled":false,"rental_uris":{"android":"levelo://app?vid=47ce54ab-84fa-4f95-8b5a-6599448f3a8c","ios":"levelo://app?vid=47ce54ab-84fa-4f95-8b5a-6599448f3a8c"},"vehicle_type_id":"4","last_reported":1691946259,"current_range_meters":29200,"station_id":"ce4bhqh2rcd13ifvqhlg","pricing_plan_id":"free"},{"bike_id":"9670ec6a-f429-44ee-9d8b-38f32befc4e2","system_id":"levelo_inurba_marseille","lat":43.34141,"lon":5.40901,"is_reserved":false,"is_disabled":false,"rental_uris":{"android":"levelo://app?vid=9670ec6a-f429-44ee-9d8b-38f32befc4e2","ios":"levelo://app?vid=9670ec6a-f429-44ee-9d8b-38f32befc4e2"},"vehicle_type_id":"4","last_reported":1691946259,"current_range_meters":14000,"station_id":"ce4bhqh2rcd13ifvqhlg","pricing_plan_id":"free"},