{"last_updated":1749827492,"ttl":60,"version":"2.2","data":{"bikes":[{"bike_id":"b31f0139-170f-4194-984f-4386218a1e9d","system_id":"levelo_inurba_marseille","lat":43.33771,"lon":5.37424,"is_reserved":false,"is_disabled":true,"rental_uris":{"android":"levelo://app?vid=b31f0139-170f-4194-984f-4386218a1e9d","ios":"levelo://app?vid=b31f0139-170f-4194-984f-4386218a1e9d"},"vehicle_type_id":"4","last_reported":1749827492,"current_range_meters":0,"station_id":"","pricing_plan_id":"cebpf4jnsgd1na2vs0mg"},{"bike_id":"1acfb620-cad7-48c0-8901-d7a5b74a5b65","system_id":"levelo_inurba_marseille","lat":43.33751,"lon":5.37456,"is_reserved":false,"is_disabled":false,"rental_uris":{"android":"levelo://app?vid=1acfb620-cad7-48c0-8901-d7a5b74a5b65","ios":"levelo://app?vid=1acfb620-cad7-48c0-8901-d7a5b74a5b65"},"vehicle_type_id":"4","last_reported":1749827492,"current_range_meters":3600,"station_id":"","pricing_plan_id":"cebpf4jnsgd1na2vs0mg"},{"bike_id":"a5652db6-c4dd-41f1-afe5-06a93e19d8ff","system_id":"levelo_inurba_marseille","lat":43.24622,"lon":5.3933,"is_reserved":false,"is_disabled":true,"rental_uris":{"android":"levelo://app?vid=a5652db6-c4dd-41f1-afe5-06a93e19d8ff","ios":"levelo://app?vid=a5652db6-c4dd-41f1-afe5-06a93e19d8ff"},"vehicle_type_id":"4","last_reported":1749827492,"current_range_meters":0,"station_id":"","pricing_plan_id":"cebpf4jnsgd1na2vs0mg"},{"bike_id":"bf89d78c-eb96-40d5-beb0-f402ef102cc1","system_id":"levelo_inurba_marseille","lat":43.337444,"lon":5.374475,"is_reserved":false,"is_disabled":true,"rental_uris":{"android":"levelo://app?vid=bf89d78c-eb96-40d5-beb0-f402ef102cc1","ios":"levelo://app?vid=bf89d78c-eb96-40d5-beb0-f402ef102cc1"},"vehicle_type_id":"4","last_reported":1749827492,"current_range_meters":0,"station_id":"","pricing_plan_id":"cebpf4jnsgd1na2vs0mg"},{"bike_id":"5077581b-cebb-46fc-ba69-4fa8272d4810","system_id":"levelo_inurba_marseille","lat":43.21368,"lon":5.35525,"is_reserved":false,"is_disabled":true,"rental_uris":{"android":"levelo://app?vid=5077581b-cebb-46fc-ba69-4fa8272d4810","ios":"levelo://app?vid=5077581b-cebb-46fc-ba69-4fa8272d4810"},"vehicle_type_id":"4","last_reported":1749827492,"current_range_meters":0,"station_id":"","pricing_plan_id":"cebpf4jnsgd1na2vs0mg"},{"bike_id":"ff34c0f3-8c25-4dfe-a1c9-11838519013d","system_id":"levelo_inurba_marseille","lat":43.24349,"lon":5.40155,"is_reserved":false,"is_disabled":true,"rental_uris":{"android":"levelo://app?vid=ff34c0f3-8c25-4dfe-a1c9-11838519013d","ios":"levelo://app?vid=ff34c0f3-8c25-4dfe-a1c9-11838519013d"},"vehicle_type_id":"4","last_reported":1749827492,"current_range_meters":0,"station_id":"","pricing_plan_id":"cebpf4jnsgd1na2vs0mg"},{"bike_id":"7c6a9c32-3bbe-4d4c-8294-1969d0688a87","system_id":"levelo_inurba_marseille","lat":43.28462,"lon":5.42052,"is_reserved":false,"is_disabled":true,"rental_uris":{"android":"levelo://app?vid=7c6a9c32-3bbe-4d4c-8294-1969d0688a87","ios":"levelo://app?vid=7c6a9c32-3bbe-4d4c-8294-1969d0688a87"},"vehicle_type_id":"4","last_reported":1749827492,"current_range_meters":0,"station_id":"","pricing_plan_id":"cebpf4jnsgd1na2vs0mg"},{"bike_id":"66b1cbfb-c132-4ef4-922c-0beab9b5a350","system_id":"levelo_inurba_marseille","lat":43.29738,"lon":5.46039,"is_reserved":false,"is_disabled":true,"rental_uris":{"android":"levelo://app?vid=66b1cbfb-c132-4ef4-922c-0beab9b5a350","ios":"levelo://app?vid=66b1cbfb-c132-4ef4-922c-0beab9b5a350"},"vehicle_type_id":"4","last_reported":1749827492,"current_range_meters":0,"station_id":"","pricing_plan_id":"cebpf4jnsgd1na2vs0mg"},{"bike_id":"492f4bbd-1190-4ef2-b66a-479ffe91b09b","system_id":"levelo_inurba_marseille","lat":43.337444,"lon":5.374475,"is_reserved":false,"is_disabled":true,"rental_uris":{"android":"levelo://app?vid=492f4bbd-1190-4ef2-b66a-479ffe91b09b","ios":"levelo://app?vid=492f4bbd-1190-4ef2-b66a-479ffe91b09b"},"vehicle_type_id":"4","last_reported":1749827492,"current_range_meters":0,"station_id":"","pricing_plan_id":"cebpf4jnsgd1na2vs0mg"},{"bike_id":"a9b6bf99-4070-4437-bb20-72962ae30b90","system_id":"levelo_inurba_marseille","lat":43.27457,"lon":5.36413,"is_reserved":false,"is_disabled":true,"rental_uris":{"android":"levelo://app?vid=a9b6bf99-4070-4437-bb20-72962ae30b90","ios":"levelo://app?vid=a9b6bf99-4070-4437-bb20-72962ae30b90"},"vehicle_type_id":"4","last_reported":1749827492,"current_range_meters":0,"station_id":"","pricing_plan_id":"cebpf4jnsgd1na2vs0mg"},{"bike_id":"72882136-a295-4649-b3ba-3e5832aab67a","system_id":"levelo_inurba_marseille","lat":43.30301,"lon":5.39221,"is_reserved":false,"is_disabled":true,"rental_uris":{"android":"levelo://app?vid=72882136-a295-4649-b3ba-3e5832aab67a","ios":"levelo://app?vid=72882136-a295-4649-b3ba-3e5832aab67a"},"vehicle_type_id":"4","last_reported":1749827492,"current_range_meters":0,"station_id":"ce4bgkh2rcd13ifvqbk0","pricing_plan_id":"cebpf4jnsgd1na2vs0mg"},{"bike_id":"201b81fe-1cde-432c-a1fb-42118a9e3e1f","system_id":"levelo_inurba_marseille","lat":43.29527,"lon":5.39031,"is_reserved":false,"is_disabled":true,"rental_uris":{"android":"levelo://app?vid=201b81fe-1cde-432c-a1fb-42118a9e3e1f","ios":"levelo://app?vid=201b81fe-1cde-432c-a1fb-42118a9e3e1f"},"vehicle_type_id":"4","last_reported":1749827492,"current_range_meters":0,"station_id":"ce4bh3p2rcd13ifvqdp0","pricing_plan_id":"cebpf4jnsgd1na2vs0mg"},{"bike_id":"ed37f061-96ea-425a-81cf-a119afb18136","system_id":"levelo_inurba_marseille","lat":43.2927,"lon":5.38432,"is_reserved":false,"is_disabled":true,"rental_uris":{"android":"levelo://app?vid=ed37f061-96ea-425a-81cf-a119afb18136","ios":"levelo://app?vid=ed37f061-96ea-425a-81cf-a119afb18136"},"vehicle_type_id":"4","last_reported":1749827492,"current_range_meters":0,"station_id":"ce4bh692rcd13ifvqea0","pricing_plan_id":"cebpf4jnsgd1na2vs0mg"},{"bike_id":"1dc5a1e0-073e-479f-8079-df043a2ede31","system_id":"levelo_inurba_marseille","lat":43.29008,"lon":5.3561,"is_reserved":false,"is_disabled":true,"rental_uris":{"android":"levelo://app?vid=1dc5a1e0-073e-479f-8079-df043a2ede31","ios":"levelo://app?vid=1dc5a1e0-073e-479f-8079-df043a2ede31"},"vehicle_type_id":"4","last_reported":1749827492,"current_range_meters":0,"station_id":"ce4bhb92rcd13ifvqen0","pricing_plan_id":"cebpf4jnsgd1na2vs0mg"},{"bike_id":"66bd3c2b-93bd-4ab4-90fd-bd1ff5279fe6","system_id":"levelo_inurba_marseille","lat":43.292274,"lon":5.360619,"is_reserved":false,"is_disabled":true,"rental_uris":{"android":"levelo://app?vid=66bd3c2b-93bd-4ab4-90fd-bd1ff5279fe6","ios":"levelo://app?vid=66bd3c2b-93bd-4ab4-90fd-bd1ff5279fe6"},"vehicle_type_id":"4","last_reported":1749827492,"current_range_meters":0,"station_id":"ce4bhbh2rcd13ifvqeqg","pricing_plan_id":"cebpf4jnsgd1na2vs0mg"},{"bike_id":"00d973bf-6e01-4f89-8c94-bbfdd6c19797","system_id":"levelo_inurba_marseille","lat":43.2827,"lon":5.3506,"is_reserved":false,"is_disabled":true,"rental_uris":{"android":"levelo://app?vid=00d973bf-6e01-4f89-8c94-bbfdd6c19797","ios":"levelo://app?vid=00d973bf-6e01-4f89-8c94-bbfdd6c19797"},"vehicle_type_id":"4","last_reported":1749827492,"current_range_meters":0,"station_id":"ce4bhbp2rcd13ifvqerg","pricing_plan_id":"cebpf4jnsgd1na2vs0mg"},{"bike_id":"784f0dcc-6a3e-4718-bf14-48e3da72315d","system_id":"levelo_inurba_marseille","lat":43.25119,"lon":5.40319,"is_reserved":false,"is_disabled":true,"rental_uris":{"android":"levelo://app?vid=784f0dcc-6a3e-4718-bf14-48e3da72315d","ios":"levelo://app?vid=784f0dcc-6a3e-4718-bf14-48e3da72315d"},"vehicle_type_id":"4","last_reported":1749827492,"current_range_meters":0,"station_id":"ce4bhlh2rcd13ifvqgig","pricing_plan_id":"cebpf4jnsgd1na2vs0mg"},{"bike_id":"7552c6f4-df46-4a59-993d-4e2d051d97f7","system_id":"levelo_inurba_marseille","lat":43.28151,"lon":5.426375,"is_reserved":false,"is_disabled":true,"rental_uris":{"android":"levelo://app?vid=7552c6f4-df46-4a59-993d-4e2d051d97f7","ios":"levelo://app?vid=7552c6f4-df46-4a59-993d-4e2d051d97f7"},"vehicle_type_id":"4","last_reported":1749827492,"current_range_meters":0,"station_id":"ce4bhnh2rcd13ifvqgug","pricing_plan_id":"cebpf4jnsgd1na2vs0mg"},{"bike_id":"e52668b5-ee1d-4bf2-9569-0bf5dba5a96c","system_id":"levelo_inurba_marseille","lat":43.30806,"lon":5.43523,"is_reserved":false,"is_disabled":true,"rental_uris":{"android":"levelo://app?vid=e52668b5-ee1d-4bf2-9569-0bf5dba5a96c","ios":"levelo://app?vid=e52668b5-ee1d-4bf2-9569-0bf5dba5a96c"},"vehicle_type_id":"4","last_reported":1749827492,"current_range_meters":0,"station_id":"ce4bhph2rcd13ifvqheg","pricing_plan_id":"cebpf4jnsgd1na2vs0mg"},{"bike_id":"810c296c-b8fd-4815-b6f8-62698ccc5f59","system_id":"levelo_inurba_marseille","lat":43.29898,"lon":5.43669,"is_reserved":false,"is_disabled":true,"rental_uris":{"android":"levelo://app?vid=810c296c-b8fd-4815-b6f8-62698ccc5f59","ios":"levelo://app?vid=810c296c-b8fd-4815-b6f8-62698ccc5f59"},"vehicle_type_id":"4","last_reported":1749827492,"current_range_meters":0,"station_id":"ce4bhpp2rcd13ifvqhfg","pricing_plan_id":"cebpf4jnsgd1na2vs0mg"},{"bike_id":"5f1f3b25-4fe7-47fd-a759-354c5f1dc1e6","system_id":"levelo_inurba_marseille","lat":43.26378,"lon":5.37827,"is_reserved":false,"is_disabled":true,"rental_uris":{"android":"levelo://app?vid=5f1f3b25-4fe7-47fd-a759-354c5f1dc1e6","ios":"levelo://app?vid=5f1f3b25-4fe7-47fd-a759-354c5f1dc1e6"},"vehicle_type_id":"4","last_reported":1749827492,"current_range_meters":0,"station_id":"st_d163nis0mtpqnht9uue0","pricing_plan_id":"cebpf4jnsgd1na2vs0mg"},{"bike_id":"273c2b9d-bb83-4a7d-8832-5eabff17ef1b","system_id":"levelo_inurba_marseille","lat":43.29521,"lon":5.39403,"is_reserved":false,"is_disabled":true,"rental_uris":{"android":"levelo://app?vid=273c2b9d-bb83-4a7d-8832-5eabff17ef1b","ios":"levelo://app?vid=273c2b9d-bb83-4a7d-8832-5eabff17ef1b"},"vehicle_type_id":"4","last_reported":1749827492,"current_range_meters":400,"station_id":"ce4bh292rcd13ifvqdf0","pricing_plan_id":"cebpf4jnsgd1na2vs0mg"},{"bike_id":"9e2166df-c558-4b05-8698-26432dbfbb10","system_id":"levelo_inurba_marseille","lat":43.28859,"lon":5.35845,"is_reserved":false,"is_disabled":true,"rental_uris":{"android":"levelo://app?vid=9e2166df-c558-4b05-8698-26432dbfbb10","ios":"levelo://app?vid=9e2166df-c558-4b05-8698-26432dbfbb10"},"vehicle_type_id":"4","last_reported":1749827492,"current_range_meters":400,"station_id":"ce4bhb12rcd13ifvqem0","pricing_plan_id":"cebpf4jnsgd1na2vs0mg"},{"bike_id":"bfda8107-b3ef-4b75-8f3e-7dece146299d","system_id":"levelo_inurba_marseille","lat":43.24179,"lon":5.397327,"is_reserved":false,"is_disabled":true,"rental_uris":{"android":"levelo://app?vid=bfda8107-b3ef-4b75-8f3e-7dece146299d","ios":"levelo://app?vid=bfda8107-b3ef-4b75-8f3e-7dece146299d"},"vehicle_type_id":"4","last_reported":1749827492,"current_range_meters":400,"station_id":"ce4bhn12rcd13ifvqgpg","pricing_plan_id":"cebpf4jnsgd1na2vs0mg"},{"bike_id":"5c219ba0-bd6f-4ec1-8199-9fc28d07f25c","system_id":"levelo_inurba_marseille","lat":43.32308,"lon":5.44674,"is_reserved":false,"is_disabled":true,"rental_uris":{"android":"levelo://app?vid=5c219ba0-bd6f-4ec1-8199-9fc28d07f25c","ios":"levelo://app?vid=5c219ba0-bd6f-4ec1-8199-9fc28d07f25c"},"vehicle_type_id":"4","last_reported":1749827492,"current_range_meters":800,"station_id":"","pricing_plan_id":"cebpf4jnsgd1na2vs0mg"},{"bike_id":"cd7cfdd2-9dbe-4c33-98ec-38a1b7fe9958","system_id":"levelo_inurba_marseille","lat":43.297935,"lon":5.381127,"is_reserved":false,"is_disabled":true,"rental_uris":{"android":"levelo://app?vid=cd7cfdd2-9dbe-4c33-98ec-38a1b7fe9958","ios":"levelo://app?vid=cd7cfdd2-9dbe-4c33-98ec-38a1b7fe9958"},"vehicle_type_id":"4","last_reported":1749827492,"current_range_meters":800,"station_id":"ce4bgip2rcd13ifvqbb0","pricing_plan_id":"cebpf4jnsgd1na2vs0mg"},{"bike_id":"dc358d54-cf2d-4fba-8aa2-5d607fa8ec26","system_id":"levelo_inurba_marseille","lat":43.28409,"lon":5.37523,"is_reserved":false,"is_disabled":true,"rental_uris":{"android":"levelo://app?vid=dc358d54-cf2d-4fba-8aa2-5d607fa8ec26","ios":"levelo://app?vid=dc358d54-cf2d-4fba-8aa2-5d607fa8ec26"},"vehicle_type_id":"4","last_reported":1749827492,"current_range_meters":800,"station_id":"ce4bh412rcd13ifvqds0","pricing_plan_id":"cebpf4jnsgd1na2vs0mg"},{"bike_id":"35e61fed-f996-450f-bc04-d14448e3c8b4","system_id":"levelo_inurba_marseille","lat":43.29305,"lon":5.37186,"is_reserved":false,"is_disabled":true,"rental_uris":{"android":"levelo://app?vid=35e61fed-f996-450f-bc04-d14448e3c8b4","ios":"levelo://app?vid=35e61fed-f996-450f-bc04-d14448e3c8b4"},"vehicle_type_id":"4","last_reported":1749827492,"current_range_meters":1200,"station_id":"ce4bgh92rcd13ifvqb40","pricing_plan_id":"cebpf4jnsgd1na2vs0mg"},{"bike_id":"7d7a6a1c-2be9-4ff7-8f4e-450619ef21cc","system_id":"levelo_inurba_marseille","lat":43.287807,"lon":5.379268,"is_reserved":false,"is_disabled":true,"rental_uris":{"android":"levelo://app?vid=7d7a6a1c-2be9-4ff7-8f4e-450619ef21cc","ios":"levelo://app?vid=7d7a6a1c-2be9-4ff7-8f4e-450619ef21cc"},"vehicle_type_id":"4","last_reported":1749827492,"current_range_meters":1200,"station_id":"ce4bh9p2rcd13ifvqec0","pricing_plan_id":"cebpf4jnsgd1na2vs0mg"},{"bike_id":"e3fa7513-cab4-47a8-979c-c95905c3bf3b","system_id":"levelo_inurba_marseille","lat":43.28935,"lon":5.36655,"is_reserved":false,"is_disabled":true,"rental_uris":{"android":"levelo://app?vid=e3fa7513-cab4-47a8-979c-c95905c3bf3b","ios":"levelo://app?vid=e3fa7513-cab4-47a8-979c-c95905c3bf3b"},"vehicle_type_id":"4","last_reported":1749827492,"current_range_meters":1200,"station_id":"ce4bhap2rcd13ifvqek0","pricing_plan_id":"cebpf4jnsgd1na2vs0mg"},{"bike_id":"a5efc519-94cc-4ffe-a88a-e9fd4f434c71","system_id":"levelo_inurba_marseille","lat":43.28615,"lon":5.35112,"is_reserved":false,"is_disabled":true,"rental_uris":{"android":"levelo://app?vid=a5efc519-94cc-4ffe-a88a-e9fd4f434c71","ios":"levelo://app?vid=a5efc519-94cc-4ffe-a88a-e9fd4f434c71"},"vehicle_type_id":"4","last_reported":1749827492,"current_range_meters":1200,"station_id":"ce4bhch2rcd13ifvqeug","pricing_plan_id":"cebpf4jnsgd1na2vs0mg"},{"bike_id":"4a891bb4-ce58-4c6e-bb71-e08532355b22","system_id":"levelo_inurba_marseille","lat":43.32403,"lon":5.36554,"is_reserved":false,"is_disabled":true,"rental_uris":{"android":"levelo://app?vid=4a891bb4-ce58-4c6e-bb71-e08532355b22","ios":"levelo://app?vid=4a891bb4-ce58-4c6e-bb71-e08532355b22"},"vehicle_type_id":"4","last_reported":1749827492,"current_range_meters":1600,"station_id":"","pricing_plan_id":"cebpf4jnsgd1na2vs0mg"},{"bike_id":"cab5a424-5807-473a-b195-12b3903f46b1","system_id":"levelo_inurba_marseille","lat":43.29794,"lon":5.38106,"is_reserved":false,"is_disabled":true,"rental_uris":{"android":"levelo://app?vid=cab5a424-5807-473a-b195-12b3903f46b1","ios":"levelo://app?vid=cab5a424-5807-473a-b195-12b3903f46b1"},"vehicle_type_id":"4","last_reported":1749827492,"current_range_meters":1600,"station_id":"ce4bgip2rcd13ifvqbb0","pricing_plan_id":"cebpf4jnsgd1na2vs0mg"},{"bike_id":"10a05585-1e65-497b-94e0-2758f359e53b","system_id":"levelo_inurba_marseille","lat":43.30935,"lon":5.40143,"is_reserved":false,"is_disabled":true,"rental_uris":{"android":"levelo://app?vid=10a05585-1e65-497b-94e0-2758f359e53b","ios":"levelo://app?vid=10a05585-1e65-497b-94e0-2758f359e53b"},"vehicle_type_id":"4","last_reported":1749827492,"current_range_meters":1600,"station_id":"ce4bgvp2rcd13ifvqct0","pricing_plan_id":"cebpf4jnsgd1na2vs0mg"},{"bike_id":"8e108a83-e2bf-43e0-9b41-3765b051abd1","system_id":"levelo_inurba_marseille","lat":43.28074,"lon":5.34935,"is_reserved":false,"is_disabled":true,"rental_uris":{"android":"levelo://app?vid=8e108a83-e2bf-43e0-9b41-3765b051abd1","ios":"levelo://app?vid=8e108a83-e2bf-43e0-9b41-3765b051abd1"},"vehicle_type_id":"4","last_reported":1749827492,"current_range_meters":2000,"station_id":"","pricing_plan_id":"cebpf4jnsgd1na2vs0mg"},{"bike_id":"ce6509bc-0a84-45a5-82ba-037aa2a5becd","system_id":"levelo_inurba_marseille","lat":43.29568,"lon":5.37519,"is_reserved":false,"is_disabled":true,"rental_uris":{"android":"levelo://app?vid=ce6509bc-0a84-45a5-82ba-037aa2a5becd","ios":"levelo://app?vid=ce6509bc-0a84-45a5-82ba-037aa2a5becd"},"vehicle_type_id":"4","last_reported":1749827492,"current_range_meters":2000,"station_id":"ce4bgh92rcd13ifvqb50","pricing_plan_id":"cebpf4jnsgd1na2vs0mg"},{"bike_id":"f90d2604-fe50-48dc-9ec8-a6aabe671619","system_id":"levelo_inurba_marseille","lat":43.29613,"lon":5.37705,"is_reserved":false,"is_disabled":true,"rental_uris":{"android":"levelo://app?vid=f90d2604-fe50-48dc-9ec8-a6aabe671619","ios":"levelo://app?vid=f90d2604-fe50-48dc-9ec8-a6aabe671619"},"vehicle_type_id":"4","last_reported":1749827492,"current_range_meters":2000,"station_id":"ce4bgi92rcd13ifvqb90","pricing_plan_id":"cebpf4jnsgd1na2vs0mg"},{"bike_id":"01668ddb-6d1b-4f7d-81e0-a34f434a5f6e","system_id":"levelo_inurba_marseille","lat":43.29606,"lon":5.38097,"is_reserved":false,"is_disabled":true,"rental_uris":{"android":"levelo://app?vid=01668ddb-6d1b-4f7d-81e0-a34f434a5f6e","ios":"levelo://app?vid=01668ddb-6d1b-4f7d-81e0-a34f434a5f6e"},"vehicle_type_id":"4","last_reported":1749827492,"current_range_meters":2000,"station_id":"ce4bgl12rcd13ifvqbo0","pricing_plan_id":"cebpf4jnsgd1na2vs0mg"},{"bike_id":"716ad9d9-5ce6-4f0b-8cb1-4565036e2d8e","system_id":"levelo_inurba_marseille","lat":43.2721,"lon":5.39189,"is_reserved":false,"is_disabled":true,"rental_uris":{"android":"levelo://app?vid=716ad9d9-5ce6-4f0b-8cb1-4565036e2d8e","ios":"levelo://app?vid=716ad9d9-5ce6-4f0b-8cb1-4565036e2d8e"},"vehicle_type_id":"4","last_reported":1749827492,"current_range_meters":2000,"station_id":"ce4bhhp2rcd13ifvqfm0","pricing_plan_id":"cebpf4jnsgd1na2vs0mg"},{"bike_id":"a1efb89a-b95f-461b-9668-fc91bc527653","system_id":"levelo_inurba_marseille","lat":43.241815,"lon":5.39755,"is_reserved":false,"is_disabled":true,"rental_uris":{"android":"levelo://app?vid=a1efb89a-b95f-461b-9668-fc91bc527653","ios":"levelo://app?vid=a1efb89a-b95f-461b-9668-fc91bc527653"},"vehicle_type_id":"4","last_reported":1749827492,"current_range_meters":2000,"station_id":"ce4bhn12rcd13ifvqgpg","pricing_plan_id":"cebpf4jnsgd1na2vs0mg"},{"bike_id":"f1ffc609-f4db-42de-8683-8987326e16fa","system_id":"levelo_inurba_marseille","lat":43.29571,"lon":5.39975,"is_reserved":false,"is_disabled":false,"rental_uris":{"android":"levelo://app?vid=f1ffc609-f4db-42de-8683-8987326e16fa","ios":"levelo://app?vid=f1ffc609-f4db-42de-8683-8987326e16fa"},"vehicle_type_id":"4","last_reported":1749827492,"current_range_meters":2800,"station_id":"ce4bh312rcd13ifvqdj0","pricing_plan_id":"cebpf4jnsgd1na2vs0mg"},{"bike_id":"0e3f31e3-da98-4d9f-a791-118fded3f7a2","system_id":"levelo_inurba_marseille","lat":43.24388,"lon":5.37063,"is_reserved":false,"is_disabled":false,"rental_uris":{"android":"levelo://app?vid=0e3f31e3-da98-4d9f-a791-118fded3f7a2","ios":"levelo://app?vid=0e3f31e3-da98-4d9f-a791-118fded3f7a2"},"vehicle_type_id":"4","last_reported":1749827492,"current_range_meters":2800,"station_id":"ce4bhhh2rcd13ifvqfk0","pricing_plan_id":"cebpf4jnsgd1na2vs0mg"},{"bike_id":"11759e94-a741-45b9-98ab-7b7e64b281b4","system_id":"levelo_inurba_marseille","lat":43.30211,"lon":5.39464,"is_reserved":false,"is_disabled":false,"rental_uris":{"android":"levelo://app?vid=11759e94-a741-45b9-98ab-7b7e64b281b4","ios":"levelo://app?vid=11759e94-a741-45b9-98ab-7b7e64b281b4"},"vehicle_type_id":"4","last_reported":1749827492,"current_range_meters":3200,"station_id":"ce4bh0p2rcd13ifvqd70","pricing_plan_id":"cebpf4jnsgd1na2vs0mg"},{"bike_id":"2698e881-a817-4bc2-90dd-18041b5f0492","system_id":"levelo_inurba_marseille","lat":43.290344,"lon":5.375607,"is_reserved":false,"is_disabled":false,"rental_uris":{"android":"levelo://app?vid=2698e881-a817-4bc2-90dd-18041b5f0492","ios":"levelo://app?vid=2698e881-a817-4bc2-90dd-18041b5f0492"},"vehicle_type_id":"4","last_reported":1749827492,"current_range_meters":3200,"station_id":"ce4bha12rcd13ifvqee0","pricing_plan_id":"cebpf4jnsgd1na2vs0mg"},{"bike_id":"36bb6181-813c-45d6-b75b-69b665d97c99","system_id":"levelo_inurba_marseille","lat":43.286608,"lon":5.351522,"is_reserved":false,"is_disabled":false,"rental_uris":{"android":"levelo://app?vid=36bb6181-813c-45d6-b75b-69b665d97c99","ios":"levelo://app?vid=36bb6181-813c-45d6-b75b-69b665d97c99"},"vehicle_type_id":"4","last_reported":1749827492,"current_range_meters":4000,"station_id":"","pricing_plan_id":"cebpf4jnsgd1na2vs0mg"},{"bike_id":"3f381a6e-96b0-49d3-bc54-7f9fcb950fa4","system_id":"levelo_inurba_marseille","lat":43.282684,"lon":5.350578,"is_reserved":false,"is_disabled":false,"rental_uris":{"android":"levelo://app?vid=3f381a6e-96b0-49d3-bc54-7f9fcb950fa4","ios":"levelo://app?vid=3f381a6e-96b0-49d3-bc54-7f9fcb950fa4"},"vehicle_type_id":"4","last_reported":1749827492,"current_range_meters":4800,"station_id":"ce4bhbp2rcd13ifvqerg","pricing_plan_id":"cebpf4jnsgd1na2vs0mg"},{"bike_id":"f541efca-43d4-4dc0-861e-27891cbe9fce","system_id":"levelo_inurba_marseille","lat":43.27618,"lon":5.36123,"is_reserved":false,"is_disabled":false,"rental_uris":{"android":"levelo://app?vid=f541efca-43d4-4dc0-861e-27891cbe9fce","ios":"levelo://app?vid=f541efca-43d4-4dc0-861e-27891cbe9fce"},"vehicle_type_id":"4","last_reported":1749827492,"current_range_meters":5600,"station_id":"ce4bgj92rcd13ifvqbe0","pricing_plan_id":"cebpf4jnsgd1na2vs0mg"},{"bike_id":"0607254a-8ff7-4a6b-8ac1-3095275be14c","system_id":"levelo_inurba_marseille","lat":43.30544,"lon":5.36549,"is_reserved":false,"is_disabled":false,"rental_uris":{"android":"levelo://app?vid=0607254a-8ff7-4a6b-8ac1-3095275be14c","ios":"levelo://app?vid=0607254a-8ff7-4a6b-8ac1-3095275be14c"},"vehicle_type_id":"4","last_reported":1749827492,"current_range_meters":5600,"station_id":"ce4bgs12rcd13ifvqcag","pricing_plan_id":"cebpf4jnsgd1na2vs0mg"},{"bike_id":"53f98635-c67d-4ba0-89fd-60cacf19fbba","system_id":"levelo_inurba_marseille","lat":43.34139,"lon":5.40909,"is_reserved":false,"is_disabled":false,"rental_uris":{"android":"levelo://app?vid=53f98635-c67d-4ba0-89fd-60cacf19fbba","ios":"levelo://app?vid=53f98635-c67d-4ba0-89fd-60cacf19fbba"},"vehicle_type_id":"4","last_reported":1749827492,"current_range_meters":5600,"station_id":"ce4bhqh2rcd13ifvqhlg","pricing_plan_id":"cebpf4jnsgd1na2vs0mg"},{"bike_id":"8d6264e9-2751-4987-adbc-71ccbba94291","system_id":"levelo_inurba_marseille","lat":43.29009,"lon":5.35605,"is_reserved":false,"is_disabled":false,"rental_uris":{"android":"levelo://app?vid=8d6264e9-2751-4987-adbc-71ccbba94291","ios":"levelo://app?vid=8d6264e9-2751-4987-adbc-71ccbba94291"},"vehicle_type_id":"4","last_reported":1749827492,"current_range_meters":6000,"station_id":"ce4bhb92rcd13ifvqen0","pricing_plan_id":"cebpf4jnsgd1na2vs0mg"},{"bike_id":"ddf983ad-4666-432a-a775-1562f69c55fb","system_id":"levelo_inurba_marseille","lat":43.29529,"lon":5.38546,"is_reserved":false,"is_disabled":false,"rental_uris":{"android":"levelo://app?vid=ddf983ad-4666-432a-a775-1562f69c55fb","ios":"levelo://app?vid=ddf983ad-4666-432a-a775-1562f69c55fb"},"vehicle_type_id":"4","last_reported":1749827492,"current_range_meters":6400,"station_id":"ce4bgih2rcd13ifvqba0","pricing_plan_id":"cebpf4jnsgd1na2vs0mg"},{"bike_id":"48969b76-be72-4c90-a4ab-2eb9c44f0f46","system_id":"levelo_inurba_marseille","lat":43.264818,"lon":5.373506,"is_reserved":false,"is_disabled":false,"rental_uris":{"android":"levelo://app?vid=48969b76-be72-4c90-a4ab-2eb9c44f0f46","ios":"levelo://app?vid=48969b76-be72-4c90-a4ab-2eb9c44f0f46"},"vehicle_type_id":"4","last_reported":1749827492,"current_range_meters":6400,"station_id":"st_d163nis0mtpqnht9uue0","pricing_plan_id":"cebpf4jnsgd1na2vs0mg"},{"bike_id":"ba595de7-6b52-44c9-9688-3de48c34bfe4","system_id":"levelo_inurba_marseille","lat":43.26835,"lon":5.38537,"is_reserved":false,"is_disabled":false,"rental_uris":{"android":"levelo://app?vid=ba595de7-6b52-44c9-9688-3de48c34bfe4","ios":"levelo://app?vid=ba595de7-6b52-44c9-9688-3de48c34bfe4"},"vehicle_type_id":"4","last_reported":1749827492,"current_range_meters":6800,"station_id":"","pricing_plan_id":"cebpf4jnsgd1na2vs0mg"},{"bike_id":"a426bcb6-9733-433a-b425-ccc13f254a65","system_id":"levelo_inurba_marseille","lat":43.29577,"lon":5.44252,"is_reserved":false,"is_disabled":false,"rental_uris":{"android":"levelo://app?vid=a426bcb6-9733-433a-b425-ccc13f254a65","ios":"levelo://app?vid=a426bcb6-9733-433a-b425-ccc13f254a65"},"vehicle_type_id":"4","last_reported":1749827492,"current_range_meters":6800,"station_id":"","pricing_plan_id":"cebpf4jnsgd1na2vs0mg"},{"bike_id":"501fe5cc-ec9f-4031-8e12-9c9a87dfd25d","system_id":"levelo_inurba_marseille","lat":43.31774,"lon":5.40615,"is_reserved":false,"is_disabled":false,"rental_uris":{"android":"levelo://app?vid=501fe5cc-ec9f-4031-8e12-9c9a87dfd25d","ios":"levelo://app?vid=501fe5cc-ec9f-4031-8e12-9c9a87dfd25d"},"vehicle_type_id":"4","last_reported":1749827492,"current_range_meters":6800,"station_id":"","pricing_plan_id":"cebpf4jnsgd1na2vs0mg"},{"bike_id":"9fecd467-b716-4226-853b-664846906982","system_id":"levelo_inurba_marseille","lat":43.31115,"lon":5.37782,"is_reserved":false,"is_disabled":false,"rental_uris":{"android":"levelo://app?vid=9fecd467-b716-4226-853b-664846906982","ios":"levelo://app?vid=9fecd467-b716-4226-853b-664846906982"},"vehicle_type_id":"4","last_reported":1749827492,"current_range_meters":6800,"station_id":"ce4bgt92rcd13ifvqcg0","pricing_plan_id":"cebpf4jnsgd1na2vs0mg"},{"bike_id":"4406c8d7-7739-4acb-90cf-989e37bd06e0","system_id":"levelo_inurba_marseille","lat":43.287018,"lon":5.373859,"is_reserved":false,"is_disabled":false,"rental_uris":{"android":"levelo://app?vid=4406c8d7-7739-4acb-90cf-989e37bd06e0","ios":"levelo://app?vid=4406c8d7-7739-4acb-90cf-989e37bd06e0"},"vehicle_type_id":"4","last_reported":1749827492,"current_range_meters":6800,"station_id":"ce4bh3p2rcd13ifvqdq0","pricing_plan_id":"cebpf4jnsgd1na2vs0mg"},{"bike_id":"9969095f-9c0e-4613-a80d-8c2c55d8e1e7","system_id":"levelo_inurba_marseille","lat":43.29192,"lon":5.35822,"is_reserved":false,"is_disabled":false,"rental_uris":{"android":"levelo://app?vid=9969095f-9c0e-4613-a80d-8c2c55d8e1e7","ios":"levelo://app?vid=9969095f-9c0e-4613-a80d-8c2c55d8e1e7"},"vehicle_type_id":"4","last_reported":1749827492,"current_range_meters":6800,"station_id":"ce4bhb12rcd13ifvqel0","pricing_plan_id":"cebpf4jnsgd1na2vs0mg"},{"bike_id":"6213e075-56c2-4b65-a847-77431fe60e66","system_id":"levelo_inurba_marseille","lat":43.28413,"lon":5.34981,"is_reserved":false,"is_disabled":false,"rental_uris":{"android":"levelo://app?vid=6213e075-56c2-4b65-a847-77431fe60e66","ios":"levelo://app?vid=6213e075-56c2-4b65-a847-77431fe60e66"},"vehicle_type_id":"4","last_reported":1749827492,"current_range_meters":6800,"station_id":"ce4bhbh2rcd13ifvqepg","pricing_plan_id":"cebpf4jnsgd1na2vs0mg"},{"bike_id":"860ba5a8-acc3-45c6-ab62-dfb5fe59938f","system_id":"levelo_inurba_marseille","lat":43.26558,"lon":5.37282,"is_reserved":false,"is_disabled":false,"rental_uris":{"android":"levelo://app?vid=860ba5a8-acc3-45c6-ab62-dfb5fe59938f","ios":"levelo://app?vid=860ba5a8-acc3-45c6-ab62-dfb5fe59938f"},"vehicle_type_id":"4","last_reported":1749827492,"current_range_meters":6800,"station_id":"ce4bhg12rcd13ifvqf70","pricing_plan_id":"cebpf4jnsgd1na2vs0mg"},{"bike_id":"a25b84b4-c252-4eda-97fb-1a1f22303c5d","system_id":"levelo_inurba_marseille","lat":43.31385,"lon":5.37448,"is_reserved":false,"is_disabled":false,"rental_uris":{"android":"levelo://app?vid=a25b84b4-c252-4eda-97fb-1a1f22303c5d","ios":"levelo://app?vid=a25b84b4-c252-4eda-97fb-1a1f22303c5d"},"vehicle_type_id":"4","last_reported":1749827492,"current_range_meters":7200,"station_id":"","pricing_plan_id":"cebpf4jnsgd1na2vs0mg"},{"bike_id":"9d555611-e81c-4acf-b613-3c6c65c41fe2","system_id":"levelo_inurba_marseille","lat":43.29545,"lon":5.42288,"is_reserved":false,"is_disabled":false,"rental_uris":{"android":"levelo://app?vid=9d555611-e81c-4acf-b613-3c6c65c41fe2","ios":"levelo://app?vid=9d555611-e81c-4acf-b613-3c6c65c41fe2"},"vehicle_type_id":"4","last_reported":1749827492,"current_range_meters":7200,"station_id":"ce4bhph2rcd13ifvqhdg","pricing_plan_id":"cebpf4jnsgd1na2vs0mg"},{"bike_id":"20f935e2-d31e-4fd4-865f-6521a8894153","system_id":"levelo_inurba_marseille","lat":43.30089,"lon":5.39083,"is_reserved":false,"is_disabled":false,"rental_uris":{"android":"levelo://app?vid=20f935e2-d31e-4fd4-865f-6521a8894153","ios":"levelo://app?vid=20f935e2-d31e-4fd4-865f-6521a8894153"},"vehicle_type_id":"4","last_reported":1749827492,"current_range_meters":8000,"station_id":"ce4bh192rcd13ifvqdb0","pricing_plan_id":"cebpf4jnsgd1na2vs0mg"},{"bike_id":"54e78396-db8a-40df-9016-0e11188781d5","system_id":"levelo_inurba_marseille","lat":43.255845,"lon":5.382321,"is_reserved":false,"is_disabled":false,"rental_uris":{"android":"levelo://app?vid=54e78396-db8a-40df-9016-0e11188781d5","ios":"levelo://app?vid=54e78396-db8a-40df-9016-0e11188781d5"},"vehicle_type_id":"4","last_reported":1749827492,"current_range_meters":8000,"station_id":"ce4bhih2rcd13ifvqfs0","pricing_plan_id":"cebpf4jnsgd1na2vs0mg"},{"bike_id":"c7ed29cf-1d0b-4b1f-8db7-a985499fe63e","system_id":"levelo_inurba_marseille","lat":43.32541,"lon":5.41458,"is_reserved":false,"is_disabled":false,"rental_uris":{"android":"levelo://app?vid=c7ed29cf-1d0b-4b1f-8db7-a985499fe63e","ios":"levelo://app?vid=c7ed29cf-1d0b-4b1f-8db7-a985499fe63e"},"vehicle_type_id":"4","last_reported":1749827492,"current_range_meters":8000,"station_id":"ce4bhq12rcd13ifvqhhg","pricing_plan_id":"cebpf4jnsgd1na2vs0mg"},{"bike_id":"5b0e4a94-7875-4dc2-8d8c-8e2f5f98aa84","system_id":"levelo_inurba_marseille","lat":43.26567,"lon":5.38092,"is_reserved":false,"is_disabled":false,"rental_uris":{"android":"levelo://app?vid=5b0e4a94-7875-4dc2-8d8c-8e2f5f98aa84","ios":"levelo://app?vid=5b0e4a94-7875-4dc2-8d8c-8e2f5f98aa84"},"vehicle_type_id":"4","last_reported":1749827492,"current_range_meters":8400,"station_id":"","pricing_plan_id":"cebpf4jnsgd1na2vs0mg"},{"bike_id":"1268e070-f02d-4537-93df-0bfd5c4daa05","system_id":"levelo_inurba_marseille","lat":43.32687,"lon":5.37637,"is_reserved":false,"is_disabled":false,"rental_uris":{"android":"levelo://app?vid=1268e070-f02d-4537-93df-0bfd5c4daa05","ios":"levelo://app?vid=1268e070-f02d-4537-93df-0bfd5c4daa05"},"vehicle_type_id":"4","last_reported":1749827492,"current_range_meters":8400,"station_id":"","pricing_plan_id":"cebpf4jnsgd1na2vs0mg"},{"bike_id":"97421c04-2630-4fc1-9da9-b17d88602c5f","system_id":"levelo_inurba_marseille","lat":43.337682,"lon":5.374519,"is_reserved":false,"is_disabled":false,"rental_uris":{"android":"levelo://app?vid=97421c04-2630-4fc1-9da9-b17d88602c5f","ios":"levelo://app?vid=97421c04-2630-4fc1-9da9-b17d88602c5f"},"vehicle_type_id":"4","last_reported":1749827492,"current_range_meters":8400,"station_id":"","pricing_plan_id":"cebpf4jnsgd1na2vs0mg"},{"bike_id":"8d60347d-541c-40fb-90ca-203bf6bd520a","system_id":"levelo_inurba_marseille","lat":43.27119,"lon":5.36396,"is_reserved":false,"is_disabled":false,"rental_uris":{"android":"levelo://app?vid=8d60347d-541c-40fb-90ca-203bf6bd520a","ios":"levelo://app?vid=8d60347d-541c-40fb-90ca-203bf6bd520a"},"vehicle_type_id":"4","last_reported":1749827492,"current_range_meters":8400,"station_id":"","pricing_plan_id":"cebpf4jnsgd1na2vs0mg"},{"bike_id":"3dc09ba3-d307-45ed-8d96-2eb029b22bc9","system_id":"levelo_inurba_marseille","lat":43.28948,"lon":5.36637,"is_reserved":false,"is_disabled":false,"rental_uris":{"android":"levelo://app?vid=3dc09ba3-d307-45ed-8d96-2eb029b22bc9","ios":"levelo://app?vid=3dc09ba3-d307-45ed-8d96-2eb029b22bc9"},"vehicle_type_id":"4","last_reported":1749827492,"current_range_meters":8400,"station_id":"ce4bhap2rcd13ifvqek0","pricing_plan_id":"cebpf4jnsgd1na2vs0mg"},{"bike_id":"b6940234-90f7-44c0-bd1f-1e5d7b7ad79e","system_id":"levelo_inurba_marseille","lat":43.32109,"lon":5.36769,"is_reserved":false,"is_disabled":false,"rental_uris":{"android":"levelo://app?vid=b6940234-90f7-44c0-bd1f-1e5d7b7ad79e","ios":"levelo://app?vid=b6940234-90f7-44c0-bd1f-1e5d7b7ad79e"},"vehicle_type_id":"4","last_reported":1749827492,"current_range_meters":8400,"station_id":"ce4bhrh2rcd13ifvqhug","pricing_plan_id":"cebpf4jnsgd1na2vs0mg"},{"bike_id":"5d9c4594-b8c2-4889-9e31-da1cb8d0bc2e","system_id":"levelo_inurba_marseille","lat":43.22932,"lon":5.35374,"is_reserved":false,"is_disabled":false,"rental_uris":{"android":"levelo://app?vid=5d9c4594-b8c2-4889-9e31-da1cb8d0bc2e","ios":"levelo://app?vid=5d9c4594-b8c2-4889-9e31-da1cb8d0bc2e"},"vehicle_type_id":"4","last_reported":1749827492,"current_range_meters":8400,"station_id":"cpo3532slgdg3j2ikp40","pricing_plan_id":"cebpf4jnsgd1na2vs0mg"},{"bike_id":"5f977929-ccb4-449a-8fdc-f2bf323c78e2","system_id":"levelo_inurba_marseille","lat":43.24164,"lon":5.36418,"is_reserved":false,"is_disabled":false,"rental_uris":{"android":"levelo://app?vid=5f977929-ccb4-449a-8fdc-f2bf323c78e2","ios":"levelo://app?vid=5f977929-ccb4-449a-8fdc-f2bf323c78e2"},"vehicle_type_id":"4","last_reported":1749827492,"current_range_meters":8400,"station_id":"cpo36qri1sfpv3e86is0","pricing_plan_id":"cebpf4jnsgd1na2vs0mg"},{"bike_id":"625204a7-ce3f-4e44-a170-557f88988a2a","system_id":"levelo_inurba_marseille","lat":43.31071,"lon":5.38351,"is_reserved":false,"is_disabled":false,"rental_uris":{"android":"levelo://app?vid=625204a7-ce3f-4e44-a170-557f88988a2a","ios":"levelo://app?vid=625204a7-ce3f-4e44-a170-557f88988a2a"},"vehicle_type_id":"4","last_reported":1749827492,"current_range_meters":8800,"station_id":"ce4bgv92rcd13ifvqcr0","pricing_plan_id":"cebpf4jnsgd1na2vs0mg"},{"bike_id":"89f94f3e-6603-4383-b3d7-c5826397a327","system_id":"levelo_inurba_marseille","lat":43.27377,"lon":5.36257,"is_reserved":false,"is_disabled":false,"rental_uris":{"android":"levelo://app?vid=89f94f3e-6603-4383-b3d7-c5826397a327","ios":"levelo://app?vid=89f94f3e-6603-4383-b3d7-c5826397a327"},"vehicle_type_id":"4","last_reported":1749827492,"current_range_meters":8800,"station_id":"ce4bhbh2rcd13ifvqeo0","pricing_plan_id":"cebpf4jnsgd1na2vs0mg"},{"bike_id":"99a27cd6-76de-4fd9-8d8f-03deedfa48ac","system_id":"levelo_inurba_marseille","lat":43.29793,"lon":5.38112,"is_reserved":false,"is_disabled":false,"rental_uris":{"android":"levelo://app?vid=99a27cd6-76de-4fd9-8d8f-03deedfa48ac","ios":"levelo://app?vid=99a27cd6-76de-4fd9-8d8f-03deedfa48ac"},"vehicle_type_id":"4","last_reported":1749827492,"current_range_meters":9200,"station_id":"ce4bgip2rcd13ifvqbb0","pricing_plan_id":"cebpf4jnsgd1na2vs0mg"},{"bike_id":"09f8d7ed-8c2c-4ac3-9d4d-93480f7a7a84","system_id":"levelo_inurba_marseille","lat":43.29579,"lon":5.36741,"is_reserved":false,"is_disabled":false,"rental_uris":{"android":"levelo://app?vid=09f8d7ed-8c2c-4ac3-9d4d-93480f7a7a84","ios":"levelo://app?vid=09f8d7ed-8c2c-4ac3-9d4d-93480f7a7a84"},"vehicle_type_id":"4","last_reported":1749827492,"current_range_meters":9200,"station_id":"ce4bgph2rcd13ifvqc2g","pricing_plan_id":"cebpf4jnsgd1na2vs0mg"},{"bike_id":"abc3927b-e63a-4778-9718-b99a66e59284","system_id":"levelo_inurba_marseille","lat":43.29845,"lon":5.36279,"is_reserved":false,"is_disabled":false,"rental_uris":{"android":"levelo://app?vid=abc3927b-e63a-4778-9718-b99a66e59284","ios":"levelo://app?vid=abc3927b-e63a-4778-9718-b99a66e59284"},"vehicle_type_id":"4","last_reported":1749827492,"current_range_meters":9200,"station_id":"ce4bgpp2rcd13ifvqc3g","pricing_plan_id":"cebpf4jnsgd1na2vs0mg"},{"bike_id":"b189d6e0-baea-49b3-9105-9b4c03fdcc9b","system_id":"levelo_inurba_marseille","lat":43.28927,"lon":5.38395,"is_reserved":false,"is_disabled":false,"rental_uris":{"android":"levelo://app?vid=b189d6e0-baea-49b3-9105-9b4c03fdcc9b","ios":"levelo://app?vid=b189d6e0-baea-49b3-9105-9b4c03fdcc9b"},"vehicle_type_id":"4","last_reported":1749827492,"current_range_meters":9200,"station_id":"ce4bh612rcd13ifvqe6g","pricing_plan_id":"cebpf4jnsgd1na2vs0mg"},{"bike_id":"c34bbb0b-dbee-4ba1-afcd-fd1087748bfe","system_id":"levelo_inurba_marseille","lat":43.25477,"lon":5.37705,"is_reserved":false,"is_disabled":false,"rental_uris":{"android":"levelo://app?vid=c34bbb0b-dbee-4ba1-afcd-fd1087748bfe","ios":"levelo://app?vid=c34bbb0b-dbee-4ba1-afcd-fd1087748bfe"},"vehicle_type_id":"4","last_reported":1749827492,"current_range_meters":9200,"station_id":"ce4bhh12rcd13ifvqff0","pricing_plan_id":"cebpf4jnsgd1na2vs0mg"},{"bike_id":"efef7ea9-dfe7-4a71-9a42-eb2cee9bc37e","system_id":"levelo_inurba_marseille","lat":43.31221,"lon":5.37243,"is_reserved":false,"is_disabled":false,"rental_uris":{"android":"levelo://app?vid=efef7ea9-dfe7-4a71-9a42-eb2cee9bc37e","ios":"levelo://app?vid=efef7ea9-dfe7-4a71-9a42-eb2cee9bc37e"},"vehicle_type_id":"4","last_reported":1749827492,"current_range_meters":9600,"station_id":"","pricing_plan_id":"cebpf4jnsgd1na2vs0mg"},{"bike_id":"e5ef7447-82af-477b-846f-d44631249354","system_id":"levelo_inurba_marseille","lat":43.32489,"lon":5.38779,"is_reserved":false,"is_disabled":false,"rental_uris":{"android":"levelo://app?vid=e5ef7447-82af-477b-846f-d44631249354","ios":"levelo://app?vid=e5ef7447-82af-477b-846f-d44631249354"},"vehicle_type_id":"4","last_reported":1749827492,"current_range_meters":9600,"station_id":"","pricing_plan_id":"cebpf4jnsgd1na2vs0mg"},{"bike_id":"5b4d390b-8290-443f-b9f9-dcc795327874","system_id":"levelo_inurba_marseille","lat":43.25497,"lon":5.37654,"is_reserved":false,"is_disabled":false,"rental_uris":{"android":"levelo://app?vid=5b4d390b-8290-443f-b9f9-dcc795327874","ios":"levelo://app?vid=5b4d390b-8290-443f-b9f9-dcc795327874"},"vehicle_type_id":"4","last_reported":1749827492,"current_range_meters":9600,"station_id":"ce4bhh12rcd13ifvqff0","pricing_plan_id":"cebpf4jnsgd1na2vs0mg"},{"bike_id":"3a11c5a8-e636-4a8e-97c5-5f95a0b7cfbb","system_id":"levelo_inurba_marseille","lat":43.33709,"lon":5.39172,"is_reserved":false,"is_disabled":false,"rental_uris":{"android":"levelo://app?vid=3a11c5a8-e636-4a8e-97c5-5f95a0b7cfbb","ios":"levelo://app?vid=3a11c5a8-e636-4a8e-97c5-5f95a0b7cfbb"},"vehicle_type_id":"4","last_reported":1749827492,"current_range_meters":9600,"station_id":"ce4bhr92rcd13ifvqhsg","pricing_plan_id":"cebpf4jnsgd1na2vs0mg"},{"bike_id":"66eba015-a12c-48a5-ba67-4ccda32c9266","system_id":"levelo_inurba_marseille","lat":43.28404,"lon":5.3751,"is_reserved":false,"is_disabled":false,"rental_uris":{"android":"levelo://app?vid=66eba015-a12c-48a5-ba67-4ccda32c9266","ios":"levelo://app?vid=66eba015-a12c-48a5-ba67-4ccda32c9266"},"vehicle_type_id":"4","last_reported":1749827492,"current_range_meters":10000,"station_id":"ce4bh412rcd13ifvqds0","pricing_plan_id":"cebpf4jnsgd1na2vs0mg"},{"bike_id":"092c36e3-ab84-42d6-b134-ecb3844c5258","system_id":"levelo_inurba_marseille","lat":43.28416,"lon":5.34996,"is_reserved":false,"is_disabled":false,"rental_uris":{"android":"levelo://app?vid=092c36e3-ab84-42d6-b134-ecb3844c5258","ios":"levelo://app?vid=092c36e3-ab84-42d6-b134-ecb3844c5258"},"vehicle_type_id":"4","last_reported":1749827492,"current_range_meters":10000,"station_id":"ce4bhbh2rcd13ifvqepg","pricing_plan_id":"cebpf4jnsgd1na2vs0mg"},{"bike_id":"733d494c-ec58-4a10-8729-8a856d9667ed","system_id":"levelo_inurba_marseille","lat":43.260246,"lon":5.375475,"is_reserved":false,"is_disabled":false,"rental_uris":{"android":"levelo://app?vid=733d494c-ec58-4a10-8729-8a856d9667ed","ios":"levelo://app?vid=733d494c-ec58-4a10-8729-8a856d9667ed"},"vehicle_type_id":"4","last_reported":1749827492,"current_range_meters":10000,"station_id":"ce4bhgh2rcd13ifvqfa0","pricing_plan_id":"cebpf4jnsgd1na2vs0mg"},{"bike_id":"917587f3-3d7d-4c52-9290-0d53b08f5aed","system_id":"levelo_inurba_marseille","lat":43.28445,"lon":5.39205,"is_reserved":false,"is_disabled":false,"rental_uris":{"android":"levelo://app?vid=917587f3-3d7d-4c52-9290-0d53b08f5aed","ios":"levelo://app?vid=917587f3-3d7d-4c52-9290-0d53b08f5aed"},"vehicle_type_id":"4","last_reported":1749827492,"current_range_meters":10000,"station_id":"ce4bhoh2rcd13ifvqh5g","pricing_plan_id":"cebpf4jnsgd1na2vs0mg"},{"bike_id":"26bb1fa6-965c-44a5-bfc4-93836ccbcd55","system_id":"levelo_inurba_marseille","lat":43.32448,"lon":5.36567,"is_reserved":false,"is_disabled":false,"rental_uris":{"android":"levelo://app?vid=26bb1fa6-965c-44a5-bfc4-93836ccbcd55","ios":"levelo://app?vid=26bb1fa6-965c-44a5-bfc4-93836ccbcd55"},"vehicle_type_id":"4","last_reported":1749827492,"current_range_meters":10000,"station_id":"ce4bhs12rcd13ifvqhvg","pricing_plan_id":"cebpf4jnsgd1na2vs0mg"},{"bike_id":"87a4cd70-4bb7-4b9d-926f-f7c9584f8138","system_id":"levelo_inurba_marseille","lat":43.2654,"lon":5.37351,"is_reserved":false,"is_disabled":false,"rental_uris":{"android":"levelo://app?vid=87a4cd70-4bb7-4b9d-926f-f7c9584f8138","ios":"levelo://app?vid=87a4cd70-4bb7-4b9d-926f-f7c9584f8138"},"vehicle_type_id":"4","last_reported":1749827492,"current_range_meters":10800,"station_id":"","pricing_plan_id":"cebpf4jnsgd1na2vs0mg"},{"bike_id":"04dc7e6c-32c7-459b-9049-fc84be69f223","system_id":"levelo_inurba_marseille","lat":43.25511,"lon":5.37656,"is_reserved":false,"is_disabled":false,"rental_uris":{"android":"levelo://app?vid=04dc7e6c-32c7-459b-9049-fc84be69f223","ios":"levelo://app?vid=04dc7e6c-32c7-459b-9049-fc84be69f223"},"vehicle_type_id":"4","last_reported":1749827492,"current_range_meters":10800,"station_id":"ce4bhh12rcd13ifvqff0","pricing_plan_id":"cebpf4jnsgd1na2vs0mg"},{"bike_id":"1a5bde47-bf3b-4cd4-b091-da658f66aa67","system_id":"levelo_inurba_marseille","lat":43.32532,"lon":5.41463,"is_reserved":false,"is_disabled":false,"rental_uris":{"android":"levelo://app?vid=1a5bde47-bf3b-4cd4-b091-da658f66aa67","ios":"levelo://app?vid=1a5bde47-bf3b-4cd4-b091-da658f66aa67"},"vehicle_type_id":"4","last_reported":1749827492,"current_range_meters":10800,"station_id":"ce4bhq12rcd13ifvqhhg","pricing_plan_id":"cebpf4jnsgd1na2vs0mg"},{"bike_id":"78e4331f-c67f-4812-a1cf-4af0acc5e2d6","system_id":"levelo_inurba_marseille","lat":43.32368,"lon":5.36766,"is_reserved":false,"is_disabled":false,"rental_uris":{"android":"levelo://app?vid=78e4331f-c67f-4812-a1cf-4af0acc5e2d6","ios":"levelo://app?vid=78e4331f-c67f-4812-a1cf-4af0acc5e2d6"},"vehicle_type_id":"4","last_reported":1749827492,"current_range_meters":10800,"station_id":"ce4bhsh2rcd13ifvqi2g","pricing_plan_id":"cebpf4jnsgd1na2vs0mg"},{"bike_id":"41902e46-3363-402b-89a9-77321257c96b","system_id":"levelo_inurba_marseille","lat":43.32347,"lon":5.3664,"is_reserved":false,"is_disabled":false,"rental_uris":{"android":"levelo://app?vid=41902e46-3363-402b-89a9-77321257c96b","ios":"levelo://app?vid=41902e46-3363-402b-89a9-77321257c96b"},"vehicle_type_id":"4","last_reported":1749827492,"current_range_meters":10800,"station_id":"ce4bhsh2rcd13ifvqi2g","pricing_plan_id":"cebpf4jnsgd1na2vs0mg"},{"bike_id":"163b8154-b862-468a-a610-4f97210152ed","system_id":"levelo_inurba_marseille","lat":43.29008,"lon":5.35626,"is_reserved":false,"is_disabled":false,"rental_uris":{"android":"levelo://app?vid=163b8154-b862-468a-a610-4f97210152ed","ios":"levelo://app?vid=163b8154-b862-468a-a610-4f97210152ed"},"vehicle_type_id":"4","last_reported":1749827492,"current_range_meters":11200,"station_id":"ce4bhb92rcd13ifvqen0","pricing_plan_id":"cebpf4jnsgd1na2vs0mg"},{"bike_id":"708de379-c454-4457-9dfb-8f467d4d661e","system_id":"levelo_inurba_marseille","lat":43.24805,"lon":5.37457,"is_reserved":false,"is_disabled":false,"rental_uris":{"android":"levelo://app?vid=708de379-c454-4457-9dfb-8f467d4d661e","ios":"levelo://app?vid=708de379-c454-4457-9dfb-8f467d4d661e"},"vehicle_type_id":"4","last_reported":1749827492,"current_range_meters":11200,"station_id":"ce4bhgh2rcd13ifvqfb0","pricing_plan_id":"cebpf4jnsgd1na2vs0mg"},{"bike_id":"79d6c66c-ad69-467e-b020-4ae4bd247e9a","system_id":"levelo_inurba_marseille","lat":43.25502,"lon":5.37656,"is_reserved":false,"is_disabled":false,"rental_uris":{"android":"levelo://app?vid=79d6c66c-ad69-467e-b020-4ae4bd247e9a","ios":"levelo://app?vid=79d6c66c-ad69-467e-b020-4ae4bd247e9a"},"vehicle_type_id":"4","last_reported":1749827492,"current_range_meters":11200,"station_id":"ce4bhh12rcd13ifvqff0","pricing_plan_id":"cebpf4jnsgd1na2vs0mg"},{"bike_id":"0efd4d91-0166-42f0-94bd-aa9668b77917","system_id":"levelo_inurba_marseille","lat":43.27839,"lon":5.39207,"is_reserved":false,"is_disabled":false,"rental_uris":{"android":"levelo://app?vid=0efd4d91-0166-42f0-94bd-aa9668b77917","ios":"levelo://app?vid=0efd4d91-0166-42f0-94bd-aa9668b77917"},"vehicle_type_id":"4","last_reported":1749827492,"current_range_meters":11200,"station_id":"ce4bhjp2rcd13ifvqga0","pricing_plan_id":"cebpf4jnsgd1na2vs0mg"},{"bike_id":"8bca9568-3ad8-4b04-a52d-0210c5555d25","system_id":"levelo_inurba_marseille","lat":43.32114,"lon":5.36761,"is_reserved":false,"is_disabled":false,"rental_uris":{"android":"levelo://app?vid=8bca9568-3ad8-4b04-a52d-0210c5555d25","ios":"levelo://app?vid=8bca9568-3ad8-4b04-a52d-0210c5555d25"},"vehicle_type_id":"4","last_reported":1749827492,"current_range_meters":11200,"station_id":"ce4bhrh2rcd13ifvqhug","pricing_plan_id":"cebpf4jnsgd1na2vs0mg"},{"bike_id":"346f3f80-6b15-4406-b905-bb78596f5bac","system_id":"levelo_inurba_marseille","lat":43.32374,"lon":5.36772,"is_reserved":false,"is_disabled":false,"rental_uris":{"android":"levelo://app?vid=346f3f80-6b15-4406-b905-bb78596f5bac","ios":"levelo://app?vid=346f3f80-6b15-4406-b905-bb78596f5bac"},"vehicle_type_id":"4","last_reported":1749827492,"current_range_meters":11200,"station_id":"ce4bhsh2rcd13ifvqi2g","pricing_plan_id":"cebpf4jnsgd1na2vs0mg"},{"bike_id":"6bbce94f-fa78-4da0-bb32-d9a6b7892a61","system_id":"levelo_inurba_marseille","lat":43.313538,"lon":5.367168,"is_reserved":false,"is_disabled":false,"rental_uris":{"android":"levelo://app?vid=6bbce94f-fa78-4da0-bb32-d9a6b7892a61","ios":"levelo://app?vid=6bbce94f-fa78-4da0-bb32-d9a6b7892a61"},"vehicle_type_id":"4","last_reported":1749827492,"current_range_meters":11600,"station_id":"ce4bgr92rcd13ifvqc6g","pricing_plan_id":"cebpf4jnsgd1na2vs0mg"},{"bike_id":"0aae3e7f-600e-40d9-afc5-6b72ace921f1","system_id":"levelo_inurba_marseille","lat":43.2957,"lon":5.37481,"is_reserved":false,"is_disabled":false,"rental_uris":{"android":"levelo://app?vid=0aae3e7f-600e-40d9-afc5-6b72ace921f1","ios":"levelo://app?vid=0aae3e7f-600e-40d9-afc5-6b72ace921f1"},"vehicle_type_id":"4","last_reported":1749827492,"current_range_meters":11600,"station_id":"ce4bh692rcd13ifvqe90","pricing_plan_id":"cebpf4jnsgd1na2vs0mg"},{"bike_id":"5208b96a-b019-4b46-babe-b6595c3c679a","system_id":"levelo_inurba_marseille","lat":43.28423,"lon":5.35,"is_reserved":false,"is_disabled":false,"rental_uris":{"android":"levelo://app?vid=5208b96a-b019-4b46-babe-b6595c3c679a","ios":"levelo://app?vid=5208b96a-b019-4b46-babe-b6595c3c679a"},"vehicle_type_id":"4","last_reported":1749827492,"current_range_meters":11600,"station_id":"ce4bhbh2rcd13ifvqepg","pricing_plan_id":"cebpf4jnsgd1na2vs0mg"},{"bike_id":"5b0c3ff8-247c-4928-97e1-b79badce49c8","system_id":"levelo_inurba_marseille","lat":43.326625,"lon":5.409912,"is_reserved":false,"is_disabled":false,"rental_uris":{"android":"levelo://app?vid=5b0c3ff8-247c-4928-97e1-b79badce49c8","ios":"levelo://app?vid=5b0c3ff8-247c-4928-97e1-b79badce49c8"},"vehicle_type_id":"4","last_reported":1749827492,"current_range_meters":11600,"station_id":"ce4bhpp2rcd13ifvqhgg","pricing_plan_id":"cebpf4jnsgd1na2vs0mg"},{"bike_id":"65fc4373-d309-463f-a5c4-1a49f246aa07","system_id":"levelo_inurba_marseille","lat":43.29529,"lon":5.38543,"is_reserved":false,"is_disabled":false,"rental_uris":{"android":"levelo://app?vid=65fc4373-d309-463f-a5c4-1a49f246aa07","ios":"levelo://app?vid=65fc4373-d309-463f-a5c4-1a49f246aa07"},"vehicle_type_id":"4","last_reported":1749827492,"current_range_meters":12400,"station_id":"ce4bgih2rcd13ifvqba0","pricing_plan_id":"cebpf4jnsgd1na2vs0mg"},{"bike_id":"de0dbb56-906c-4a13-b03b-538f74d41695","system_id":"levelo_inurba_marseille","lat":43.3033,"lon":5.40433,"is_reserved":false,"is_disabled":false,"rental_uris":{"android":"levelo://app?vid=de0dbb56-906c-4a13-b03b-538f74d41695","ios":"levelo://app?vid=de0dbb56-906c-4a13-b03b-538f74d41695"},"vehicle_type_id":"4","last_reported":1749827492,"current_range_meters":12400,"station_id":"ce4bh012rcd13ifvqd10","pricing_plan_id":"cebpf4jnsgd1na2vs0mg"},{"bike_id":"5d4e0346-703b-46bb-b163-eedd1cd4586a","system_id":"levelo_inurba_marseille","lat":43.29275,"lon":5.36841,"is_reserved":false,"is_disabled":false,"rental_uris":{"android":"levelo://app?vid=5d4e0346-703b-46bb-b163-eedd1cd4586a","ios":"levelo://app?vid=5d4e0346-703b-46bb-b163-eedd1cd4586a"},"vehicle_type_id":"4","last_reported":1749827492,"current_range_meters":12400,"station_id":"ce4bhbp2rcd13ifvqesg","pricing_plan_id":"cebpf4jnsgd1na2vs0mg"},{"bike_id":"87251a4d-b10a-4503-81d5-c63c79e47f2a","system_id":"levelo_inurba_marseille","lat":43.28618,"lon":5.35106,"is_reserved":false,"is_disabled":false,"rental_uris":{"android":"levelo://app?vid=87251a4d-b10a-4503-81d5-c63c79e47f2a","ios":"levelo://app?vid=87251a4d-b10a-4503-81d5-c63c79e47f2a"},"vehicle_type_id":"4","last_reported":1749827492,"current_range_meters":12400,"station_id":"ce4bhch2rcd13ifvqeug","pricing_plan_id":"cebpf4jnsgd1na2vs0mg"},{"bike_id":"df3d95e5-c55d-40cd-8ffd-482f74fd9877","system_id":"levelo_inurba_marseille","lat":43.2621,"lon":5.37446,"is_reserved":false,"is_disabled":false,"rental_uris":{"android":"levelo://app?vid=df3d95e5-c55d-40cd-8ffd-482f74fd9877","ios":"levelo://app?vid=df3d95e5-c55d-40cd-8ffd-482f74fd9877"},"vehicle_type_id":"4","last_reported":1749827492,"current_range_meters":12400,"station_id":"ce4bhgp2rcd13ifvqfc0","pricing_plan_id":"cebpf4jnsgd1na2vs0mg"},{"bike_id":"a04c9cbd-ce09-4b21-bfb3-e31666f9f958","system_id":"levelo_inurba_marseille","lat":43.23968,"lon":5.36644,"is_reserved":false,"is_disabled":false,"rental_uris":{"android":"levelo://app?vid=a04c9cbd-ce09-4b21-bfb3-e31666f9f958","ios":"levelo://app?vid=a04c9cbd-ce09-4b21-bfb3-e31666f9f958"},"vehicle_type_id":"4","last_reported":1749827492,"current_range_meters":12400,"station_id":"ce4bhi12rcd13ifvqfp0","pricing_plan_id":"cebpf4jnsgd1na2vs0mg"},{"bike_id":"724726ce-9123-4234-937a-f9739fec3740","system_id":"levelo_inurba_marseille","lat":43.23193,"lon":5.35574,"is_reserved":false,"is_disabled":false,"rental_uris":{"android":"levelo://app?vid=724726ce-9123-4234-937a-f9739fec3740","ios":"levelo://app?vid=724726ce-9123-4234-937a-f9739fec3740"},"vehicle_type_id":"4","last_reported":1749827492,"current_range_meters":12400,"station_id":"ce4bhu92rcd13ifvqi70","pricing_plan_id":"cebpf4jnsgd1na2vs0mg"},{"bike_id":"6facbc0d-f1b5-4dc3-86d4-5c1204834925","system_id":"levelo_inurba_marseille","lat":43.28053,"lon":5.34796,"is_reserved":false,"is_disabled":false,"rental_uris":{"android":"levelo://app?vid=6facbc0d-f1b5-4dc3-86d4-5c1204834925","ios":"levelo://app?vid=6facbc0d-f1b5-4dc3-86d4-5c1204834925"},"vehicle_type_id":"4","last_reported":1749827492,"current_range_meters":12800,"station_id":"","pricing_plan_id":"cebpf4jnsgd1na2vs0mg"},{"bike_id":"e93c5fa1-256a-460d-8cbb-815e6da4edd7","system_id":"levelo_inurba_marseille","lat":43.29015,"lon":5.35599,"is_reserved":false,"is_disabled":false,"rental_uris":{"android":"levelo://app?vid=e93c5fa1-256a-460d-8cbb-815e6da4edd7","ios":"levelo://app?vid=e93c5fa1-256a-460d-8cbb-815e6da4edd7"},"vehicle_type_id":"4","last_reported":1749827492,"current_range_meters":12800,"station_id":"ce4bhb92rcd13ifvqen0","pricing_plan_id":"cebpf4jnsgd1na2vs0mg"},{"bike_id":"c048e9aa-54eb-4aeb-98ed-0a372f597676","system_id":"levelo_inurba_marseille","lat":43.28404,"lon":5.34998,"is_reserved":false,"is_disabled":false,"rental_uris":{"android":"levelo://app?vid=c048e9aa-54eb-4aeb-98ed-0a372f597676","ios":"levelo://app?vid=c048e9aa-54eb-4aeb-98ed-0a372f597676"},"vehicle_type_id":"4","last_reported":1749827492,"current_range_meters":12800,"station_id":"ce4bhbh2rcd13ifvqepg","pricing_plan_id":"cebpf4jnsgd1na2vs0mg"},{"bike_id":"10edcc86-2f37-44b5-8038-6012b393b448","system_id":"levelo_inurba_marseille","lat":43.28284,"lon":5.3509,"is_reserved":false,"is_disabled":false,"rental_uris":{"android":"levelo://app?vid=10edcc86-2f37-44b5-8038-6012b393b448","ios":"levelo://app?vid=10edcc86-2f37-44b5-8038-6012b393b448"},"vehicle_type_id":"4","last_reported":1749827492,"current_range_meters":12800,"station_id":"ce4bhbp2rcd13ifvqerg","pricing_plan_id":"cebpf4jnsgd1na2vs0mg"},{"bike_id":"53f4dd1c-57b4-4700-99af-7fa79fea45bf","system_id":"levelo_inurba_marseille","lat":43.28616,"lon":5.35099,"is_reserved":false,"is_disabled":false,"rental_uris":{"android":"levelo://app?vid=53f4dd1c-57b4-4700-99af-7fa79fea45bf","ios":"levelo://app?vid=53f4dd1c-57b4-4700-99af-7fa79fea45bf"},"vehicle_type_id":"4","last_reported":1749827492,"current_range_meters":12800,"station_id":"ce4bhch2rcd13ifvqeug","pricing_plan_id":"cebpf4jnsgd1na2vs0mg"},{"bike_id":"0769833d-6b94-4c5d-a196-dc7c07587e1b","system_id":"levelo_inurba_marseille","lat":43.28616,"lon":5.35122,"is_reserved":false,"is_disabled":false,"rental_uris":{"android":"levelo://app?vid=0769833d-6b94-4c5d-a196-dc7c07587e1b","ios":"levelo://app?vid=0769833d-6b94-4c5d-a196-dc7c07587e1b"},"vehicle_type_id":"4","last_reported":1749827492,"current_range_meters":12800,"station_id":"ce4bhch2rcd13ifvqeug","pricing_plan_id":"cebpf4jnsgd1na2vs0mg"},{"bike_id":"635076ef-6a70-4f05-986a-396f6c0ebead","system_id":"levelo_inurba_marseille","lat":43.30028,"lon":5.40177,"is_reserved":false,"is_disabled":false,"rental_uris":{"android":"levelo://app?vid=635076ef-6a70-4f05-986a-396f6c0ebead","ios":"levelo://app?vid=635076ef-6a70-4f05-986a-396f6c0ebead"},"vehicle_type_id":"4","last_reported":1749827492,"current_range_meters":13600,"station_id":"","pricing_plan_id":"cebpf4jnsgd1na2vs0mg"},{"bike_id":"46d2a023-167f-4e04-91f5-6a32e2fdd02f","system_id":"levelo_inurba_marseille","lat":43.278387,"lon":5.392044,"is_reserved":false,"is_disabled":false,"rental_uris":{"android":"levelo://app?vid=46d2a023-167f-4e04-91f5-6a32e2fdd02f","ios":"levelo://app?vid=46d2a023-167f-4e04-91f5-6a32e2fdd02f"},"vehicle_type_id":"4","last_reported":1749827492,"current_range_meters":13600,"station_id":"ce4bhjp2rcd13ifvqga0","pricing_plan_id":"cebpf4jnsgd1na2vs0mg"},{"bike_id":"326cc913-bdbc-48c2-9a88-414846f09512","system_id":"levelo_inurba_marseille","lat":43.3237,"lon":5.36767,"is_reserved":false,"is_disabled":false,"rental_uris":{"android":"levelo://app?vid=326cc913-bdbc-48c2-9a88-414846f09512","ios":"levelo://app?vid=326cc913-bdbc-48c2-9a88-414846f09512"},"vehicle_type_id":"4","last_reported":1749827492,"current_range_meters":13600,"station_id":"ce4bhsh2rcd13ifvqi2g","pricing_plan_id":"cebpf4jnsgd1na2vs0mg"},{"bike_id":"6fdeb730-fdbc-47cd-bd24-e8dbe003b234","system_id":"levelo_inurba_marseille","lat":43.24576,"lon":5.39524,"is_reserved":false,"is_disabled":false,"rental_uris":{"android":"levelo://app?vid=6fdeb730-fdbc-47cd-bd24-e8dbe003b234","ios":"levelo://app?vid=6fdeb730-fdbc-47cd-bd24-e8dbe003b234"},"vehicle_type_id":"4","last_reported":1749827492,"current_range_meters":14000,"station_id":"ce4bhlp2rcd13ifvqgjg","pricing_plan_id":"cebpf4jnsgd1na2vs0mg"},{"bike_id":"255d6719-c0b6-4954-b138-a712818b5c92","system_id":"levelo_inurba_marseille","lat":43.27667,"lon":5.38866,"is_reserved":false,"is_disabled":false,"rental_uris":{"android":"levelo://app?vid=255d6719-c0b6-4954-b138-a712818b5c92","ios":"levelo://app?vid=255d6719-c0b6-4954-b138-a712818b5c92"},"vehicle_type_id":"4","last_reported":1749827492,"current_range_meters":14400,"station_id":"ce4bhi12rcd13ifvqfo0","pricing_plan_id":"cebpf4jnsgd1na2vs0mg"},{"bike_id":"d8c030fa-bebc-4212-901a-186c9b5d764f","system_id":"levelo_inurba_marseille","lat":43.31711,"lon":5.43702,"is_reserved":false,"is_disabled":false,"rental_uris":{"android":"levelo://app?vid=d8c030fa-bebc-4212-901a-186c9b5d764f","ios":"levelo://app?vid=d8c030fa-bebc-4212-901a-186c9b5d764f"},"vehicle_type_id":"4","last_reported":1749827492,"current_range_meters":14400,"station_id":"ce4bhp92rcd13ifvqhcg","pricing_plan_id":"cebpf4jnsgd1na2vs0mg"},{"bike_id":"bfd037dc-c935-4191-9291-0563bdc87437","system_id":"levelo_inurba_marseille","lat":43.28624,"lon":5.35098,"is_reserved":false,"is_disabled":false,"rental_uris":{"android":"levelo://app?vid=bfd037dc-c935-4191-9291-0563bdc87437","ios":"levelo://app?vid=bfd037dc-c935-4191-9291-0563bdc87437"},"vehicle_type_id":"4","last_reported":1749827492,"current_range_meters":14800,"station_id":"ce4bhch2rcd13ifvqeug","pricing_plan_id":"cebpf4jnsgd1na2vs0mg"},{"bike_id":"0afcb599-3d9f-4bc3-a6eb-ed35bcfdac84","system_id":"levelo_inurba_marseille","lat":43.23192,"lon":5.35563,"is_reserved":false,"is_disabled":false,"rental_uris":{"android":"levelo://app?vid=0afcb599-3d9f-4bc3-a6eb-ed35bcfdac84","ios":"levelo://app?vid=0afcb599-3d9f-4bc3-a6eb-ed35bcfdac84"},"vehicle_type_id":"4","last_reported":1749827492,"current_range_meters":14800,"station_id":"ce4bhu92rcd13ifvqi70","pricing_plan_id":"cebpf4jnsgd1na2vs0mg"},{"bike_id":"890877e9-2b2f-4874-b40f-a4f1f4504057","system_id":"levelo_inurba_marseille","lat":43.25574,"lon":5.38312,"is_reserved":false,"is_disabled":false,"rental_uris":{"android":"levelo://app?vid=890877e9-2b2f-4874-b40f-a4f1f4504057","ios":"levelo://app?vid=890877e9-2b2f-4874-b40f-a4f1f4504057"},"vehicle_type_id":"4","last_reported":1749827492,"current_range_meters":15200,"station_id":"","pricing_plan_id":"cebpf4jnsgd1na2vs0mg"},{"bike_id":"3b2851dc-cdc3-4c74-bb7a-6b50ea5674bc","system_id":"levelo_inurba_marseille","lat":43.30157,"lon":5.38067,"is_reserved":false,"is_disabled":false,"rental_uris":{"android":"levelo://app?vid=3b2851dc-cdc3-4c74-bb7a-6b50ea5674bc","ios":"levelo://app?vid=3b2851dc-cdc3-4c74-bb7a-6b50ea5674bc"},"vehicle_type_id":"4","last_reported":1749827492,"current_range_meters":15200,"station_id":"ce4bgjp2rcd13ifvqbh0","pricing_plan_id":"cebpf4jnsgd1na2vs0mg"},{"bike_id":"3d60204a-0ce4-41b2-9d6d-6c234d47b123","system_id":"levelo_inurba_marseille","lat":43.28348,"lon":5.38104,"is_reserved":false,"is_disabled":false,"rental_uris":{"android":"levelo://app?vid=3d60204a-0ce4-41b2-9d6d-6c234d47b123","ios":"levelo://app?vid=3d60204a-0ce4-41b2-9d6d-6c234d47b123"},"vehicle_type_id":"4","last_reported":1749827492,"current_range_meters":15200,"station_id":"ce4bh412rcd13ifvqdr0","pricing_plan_id":"cebpf4jnsgd1na2vs0mg"},{"bike_id":"bc56a0b1-9845-4cf0-9d2c-ef1ad6c727ee","system_id":"levelo_inurba_marseille","lat":43.280341,"lon":5.369573,"is_reserved":false,"is_disabled":false,"rental_uris":{"android":"levelo://app?vid=bc56a0b1-9845-4cf0-9d2c-ef1ad6c727ee","ios":"levelo://app?vid=bc56a0b1-9845-4cf0-9d2c-ef1ad6c727ee"},"vehicle_type_id":"4","last_reported":1749827492,"current_range_meters":15200,"station_id":"ce4bha12rcd13ifvqef0","pricing_plan_id":"cebpf4jnsgd1na2vs0mg"},{"bike_id":"69bd8d0c-90b3-4745-8006-a5f3f32c0e33","system_id":"levelo_inurba_marseille","lat":43.28422,"lon":5.34993,"is_reserved":false,"is_disabled":false,"rental_uris":{"android":"levelo://app?vid=69bd8d0c-90b3-4745-8006-a5f3f32c0e33","ios":"levelo://app?vid=69bd8d0c-90b3-4745-8006-a5f3f32c0e33"},"vehicle_type_id":"4","last_reported":1749827492,"current_range_meters":15200,"station_id":"ce4bhbh2rcd13ifvqepg","pricing_plan_id":"cebpf4jnsgd1na2vs0mg"},{"bike_id":"94502b14-ff48-4cde-b2d3-edd6d6e7a52e","system_id":"levelo_inurba_marseille","lat":43.2841,"lon":5.35001,"is_reserved":false,"is_disabled":false,"rental_uris":{"android":"levelo://app?vid=94502b14-ff48-4cde-b2d3-edd6d6e7a52e","ios":"levelo://app?vid=94502b14-ff48-4cde-b2d3-edd6d6e7a52e"},"vehicle_type_id":"4","last_reported":1749827492,"current_range_meters":15200,"station_id":"ce4bhbh2rcd13ifvqepg","pricing_plan_id":"cebpf4jnsgd1na2vs0mg"},{"bike_id":"17a0d057-1a05-4542-be85-336367902277","system_id":"levelo_inurba_marseille","lat":43.32334,"lon":5.4062,"is_reserved":false,"is_disabled":false,"rental_uris":{"android":"levelo://app?vid=17a0d057-1a05-4542-be85-336367902277","ios":"levelo://app?vid=17a0d057-1a05-4542-be85-336367902277"},"vehicle_type_id":"4","last_reported":1749827492,"current_range_meters":15200,"station_id":"ce4bhq92rcd13ifvqhjg","pricing_plan_id":"cebpf4jnsgd1na2vs0mg"},{"bike_id":"2e76f108-4e2f-4abc-98c6-845eccc02f10","system_id":"levelo_inurba_marseille","lat":43.28408,"lon":5.37516,"is_reserved":false,"is_disabled":false,"rental_uris":{"android":"levelo://app?vid=2e76f108-4e2f-4abc-98c6-845eccc02f10","ios":"levelo://app?vid=2e76f108-4e2f-4abc-98c6-845eccc02f10"},"vehicle_type_id":"4","last_reported":1749827492,"current_range_meters":16000,"station_id":"ce4bh412rcd13ifvqds0","pricing_plan_id":"cebpf4jnsgd1na2vs0mg"},{"bike_id":"5d367ef6-b663-4835-b570-34e9dd9c8399","system_id":"levelo_inurba_marseille","lat":43.26062,"lon":5.39398,"is_reserved":false,"is_disabled":false,"rental_uris":{"android":"levelo://app?vid=5d367ef6-b663-4835-b570-34e9dd9c8399","ios":"levelo://app?vid=5d367ef6-b663-4835-b570-34e9dd9c8399"},"vehicle_type_id":"4","last_reported":1749827492,"current_range_meters":16000,"station_id":"ce4bhh92rcd13ifvqfj0","pricing_plan_id":"cebpf4jnsgd1na2vs0mg"},{"bike_id":"df67cda8-5394-4d76-8989-06023cc75e94","system_id":"levelo_inurba_marseille","lat":43.272078,"lon":5.391771,"is_reserved":false,"is_disabled":false,"rental_uris":{"android":"levelo://app?vid=df67cda8-5394-4d76-8989-06023cc75e94","ios":"levelo://app?vid=df67cda8-5394-4d76-8989-06023cc75e94"},"vehicle_type_id":"4","last_reported":1749827492,"current_range_meters":16000,"station_id":"ce4bhhp2rcd13ifvqfm0","pricing_plan_id":"cebpf4jnsgd1na2vs0mg"},{"bike_id":"2ab31527-f915-4286-b3a0-0beafd2cdd50","system_id":"levelo_inurba_marseille","lat":43.3002,"lon":5.37066,"is_reserved":false,"is_disabled":false,"rental_uris":{"android":"levelo://app?vid=2ab31527-f915-4286-b3a0-0beafd2cdd50","ios":"levelo://app?vid=2ab31527-f915-4286-b3a0-0beafd2cdd50"},"vehicle_type_id":"4","last_reported":1749827492,"current_range_meters":16400,"station_id":"","pricing_plan_id":"cebpf4jnsgd1na2vs0mg"},{"bike_id":"8077970b-9179-4bc8-96b9-b2932530866b","system_id":"levelo_inurba_marseille","lat":43.29007,"lon":5.35609,"is_reserved":false,"is_disabled":false,"rental_uris":{"android":"levelo://app?vid=8077970b-9179-4bc8-96b9-b2932530866b","ios":"levelo://app?vid=8077970b-9179-4bc8-96b9-b2932530866b"},"vehicle_type_id":"4","last_reported":1749827492,"current_range_meters":16400,"station_id":"ce4bhb92rcd13ifvqen0","pricing_plan_id":"cebpf4jnsgd1na2vs0mg"},{"bike_id":"7b4b91ba-b664-47ac-8822-2de6bb5c357d","system_id":"levelo_inurba_marseille","lat":43.28422,"lon":5.35013,"is_reserved":false,"is_disabled":false,"rental_uris":{"android":"levelo://app?vid=7b4b91ba-b664-47ac-8822-2de6bb5c357d","ios":"levelo://app?vid=7b4b91ba-b664-47ac-8822-2de6bb5c357d"},"vehicle_type_id":"4","last_reported":1749827492,"current_range_meters":16400,"station_id":"ce4bhbh2rcd13ifvqepg","pricing_plan_id":"cebpf4jnsgd1na2vs0mg"},{"bike_id":"134173f2-e1c0-48a3-b21e-4f5766509157","system_id":"levelo_inurba_marseille","lat":43.28407,"lon":5.34998,"is_reserved":false,"is_disabled":false,"rental_uris":{"android":"levelo://app?vid=134173f2-e1c0-48a3-b21e-4f5766509157","ios":"levelo://app?vid=134173f2-e1c0-48a3-b21e-4f5766509157"},"vehicle_type_id":"4","last_reported":1749827492,"current_range_meters":16400,"station_id":"ce4bhbh2rcd13ifvqepg","pricing_plan_id":"cebpf4jnsgd1na2vs0mg"},{"bike_id":"2bbed242-3d5f-4c43-a4d4-36390aeaf22d","system_id":"levelo_inurba_marseille","lat":43.2841,"lon":5.35015,"is_reserved":false,"is_disabled":false,"rental_uris":{"android":"levelo://app?vid=2bbed242-3d5f-4c43-a4d4-36390aeaf22d","ios":"levelo://app?vid=2bbed242-3d5f-4c43-a4d4-36390aeaf22d"},"vehicle_type_id":"4","last_reported":1749827492,"current_range_meters":16400,"station_id":"ce4bhbh2rcd13ifvqepg","pricing_plan_id":"cebpf4jnsgd1na2vs0mg"},{"bike_id":"fd68312a-e9f8-4f70-8e75-2c4a23b88cb4","system_id":"levelo_inurba_marseille","lat":43.28271,"lon":5.35078,"is_reserved":false,"is_disabled":false,"rental_uris":{"android":"levelo://app?vid=fd68312a-e9f8-4f70-8e75-2c4a23b88cb4","ios":"levelo://app?vid=fd68312a-e9f8-4f70-8e75-2c4a23b88cb4"},"vehicle_type_id":"4","last_reported":1749827492,"current_range_meters":16400,"station_id":"ce4bhbp2rcd13ifvqerg","pricing_plan_id":"cebpf4jnsgd1na2vs0mg"},{"bike_id":"80f019d5-2f82-45f2-9396-8e774bf21f94","system_id":"levelo_inurba_marseille","lat":43.28261,"lon":5.35088,"is_reserved":false,"is_disabled":false,"rental_uris":{"android":"levelo://app?vid=80f019d5-2f82-45f2-9396-8e774bf21f94","ios":"levelo://app?vid=80f019d5-2f82-45f2-9396-8e774bf21f94"},"vehicle_type_id":"4","last_reported":1749827492,"current_range_meters":16400,"station_id":"ce4bhbp2rcd13ifvqerg","pricing_plan_id":"cebpf4jnsgd1na2vs0mg"},{"bike_id":"715478fd-76c6-4ef8-b993-75b351929d64","system_id":"levelo_inurba_marseille","lat":43.28256,"lon":5.35101,"is_reserved":false,"is_disabled":false,"rental_uris":{"android":"levelo://app?vid=715478fd-76c6-4ef8-b993-75b351929d64","ios":"levelo://app?vid=715478fd-76c6-4ef8-b993-75b351929d64"},"vehicle_type_id":"4","last_reported":1749827492,"current_range_meters":16400,"station_id":"ce4bhbp2rcd13ifvqerg","pricing_plan_id":"cebpf4jnsgd1na2vs0mg"},{"bike_id":"ef8cd878-4200-4514-9177-a8c6a06efe85","system_id":"levelo_inurba_marseille","lat":43.23963,"lon":5.36634,"is_reserved":false,"is_disabled":false,"rental_uris":{"android":"levelo://app?vid=ef8cd878-4200-4514-9177-a8c6a06efe85","ios":"levelo://app?vid=ef8cd878-4200-4514-9177-a8c6a06efe85"},"vehicle_type_id":"4","last_reported":1749827492,"current_range_meters":16400,"station_id":"ce4bhi12rcd13ifvqfp0","pricing_plan_id":"cebpf4jnsgd1na2vs0mg"},{"bike_id":"eb3157db-7907-4378-987b-8527567b445f","system_id":"levelo_inurba_marseille","lat":43.25586,"lon":5.38227,"is_reserved":false,"is_disabled":false,"rental_uris":{"android":"levelo://app?vid=eb3157db-7907-4378-987b-8527567b445f","ios":"levelo://app?vid=eb3157db-7907-4378-987b-8527567b445f"},"vehicle_type_id":"4","last_reported":1749827492,"current_range_meters":16400,"station_id":"ce4bhih2rcd13ifvqfs0","pricing_plan_id":"cebpf4jnsgd1na2vs0mg"},{"bike_id":"9e9e6492-ca64-49e9-8f21-909fdd2acb19","system_id":"levelo_inurba_marseille","lat":43.27072,"lon":5.42277,"is_reserved":false,"is_disabled":false,"rental_uris":{"android":"levelo://app?vid=9e9e6492-ca64-49e9-8f21-909fdd2acb19","ios":"levelo://app?vid=9e9e6492-ca64-49e9-8f21-909fdd2acb19"},"vehicle_type_id":"4","last_reported":1749827492,"current_range_meters":16400,"station_id":"ce4bhk92rcd13ifvqgb0","pricing_plan_id":"cebpf4jnsgd1na2vs0mg"},{"bike_id":"fefb2124-c719-4560-b7ce-4a631df98300","system_id":"levelo_inurba_marseille","lat":43.25112,"lon":5.4032,"is_reserved":false,"is_disabled":false,"rental_uris":{"android":"levelo://app?vid=fefb2124-c719-4560-b7ce-4a631df98300","ios":"levelo://app?vid=fefb2124-c719-4560-b7ce-4a631df98300"},"vehicle_type_id":"4","last_reported":1749827492,"current_range_meters":16400,"station_id":"ce4bhlh2rcd13ifvqgig","pricing_plan_id":"cebpf4jnsgd1na2vs0mg"},{"bike_id":"26e2572d-2d9b-4252-a754-e30587914fc4","system_id":"levelo_inurba_marseille","lat":43.23197,"lon":5.35558,"is_reserved":false,"is_disabled":false,"rental_uris":{"android":"levelo://app?vid=26e2572d-2d9b-4252-a754-e30587914fc4","ios":"levelo://app?vid=26e2572d-2d9b-4252-a754-e30587914fc4"},"vehicle_type_id":"4","last_reported":1749827492,"current_range_meters":16400,"station_id":"ce4bhu92rcd13ifvqi70","pricing_plan_id":"cebpf4jnsgd1na2vs0mg"},{"bike_id":"d44844b9-91bf-49b2-8a97-6c6e2370d471","system_id":"levelo_inurba_marseille","lat":43.26803,"lon":5.40264,"is_reserved":false,"is_disabled":false,"rental_uris":{"android":"levelo://app?vid=d44844b9-91bf-49b2-8a97-6c6e2370d471","ios":"levelo://app?vid=d44844b9-91bf-49b2-8a97-6c6e2370d471"},"vehicle_type_id":"4","last_reported":1749827492,"current_range_meters":16400,"station_id":"ce501612rcd8frsf0b60","pricing_plan_id":"cebpf4jnsgd1na2vs0mg"},{"bike_id":"953d3a69-edfe-4227-87fa-3b6cd06c3658","system_id":"levelo_inurba_marseille","lat":43.22938,"lon":5.35375,"is_reserved":false,"is_disabled":false,"rental_uris":{"android":"levelo://app?vid=953d3a69-edfe-4227-87fa-3b6cd06c3658","ios":"levelo://app?vid=953d3a69-edfe-4227-87fa-3b6cd06c3658"},"vehicle_type_id":"4","last_reported":1749827492,"current_range_meters":16400,"station_id":"cpo3532slgdg3j2ikp40","pricing_plan_id":"cebpf4jnsgd1na2vs0mg"},{"bike_id":"f52b856b-d0d3-4612-9165-24b6bc7ae175","system_id":"levelo_inurba_marseille","lat":43.30529,"lon":5.36711,"is_reserved":false,"is_disabled":false,"rental_uris":{"android":"levelo://app?vid=f52b856b-d0d3-4612-9165-24b6bc7ae175","ios":"levelo://app?vid=f52b856b-d0d3-4612-9165-24b6bc7ae175"},"vehicle_type_id":"4","last_reported":1749827492,"current_range_meters":16800,"station_id":"ce4bgrp2rcd13ifvqc9g","pricing_plan_id":"cebpf4jnsgd1na2vs0mg"},{"bike_id":"a3d8ed61-ad96-4794-9377-3745ebafc863","system_id":"levelo_inurba_marseille","lat":43.29129,"lon":5.38081,"is_reserved":false,"is_disabled":false,"rental_uris":{"android":"levelo://app?vid=a3d8ed61-ad96-4794-9377-3745ebafc863","ios":"levelo://app?vid=a3d8ed61-ad96-4794-9377-3745ebafc863"},"vehicle_type_id":"4","last_reported":1749827492,"current_range_meters":16800,"station_id":"ce4bh512rcd13ifvqe2g","pricing_plan_id":"cebpf4jnsgd1na2vs0mg"},{"bike_id":"16bf3f7f-06d1-456a-94dd-ac8719458159","system_id":"levelo_inurba_marseille","lat":43.26956,"lon":5.38626,"is_reserved":false,"is_disabled":false,"rental_uris":{"android":"levelo://app?vid=16bf3f7f-06d1-456a-94dd-ac8719458159","ios":"levelo://app?vid=16bf3f7f-06d1-456a-94dd-ac8719458159"},"vehicle_type_id":"4","last_reported":1749827492,"current_range_meters":16800,"station_id":"ce4bhh92rcd13ifvqfh0","pricing_plan_id":"cebpf4jnsgd1na2vs0mg"},{"bike_id":"0aa971a1-83cb-4b29-8176-65986212db0b","system_id":"levelo_inurba_marseille","lat":43.2511,"lon":5.40328,"is_reserved":false,"is_disabled":false,"rental_uris":{"android":"levelo://app?vid=0aa971a1-83cb-4b29-8176-65986212db0b","ios":"levelo://app?vid=0aa971a1-83cb-4b29-8176-65986212db0b"},"vehicle_type_id":"4","last_reported":1749827492,"current_range_meters":16800,"station_id":"ce4bhlh2rcd13ifvqgig","pricing_plan_id":"cebpf4jnsgd1na2vs0mg"},{"bike_id":"f3ec16b2-8afd-4ecb-8d58-15a6a90ff603","system_id":"levelo_inurba_marseille","lat":43.323618,"lon":5.367609,"is_reserved":false,"is_disabled":false,"rental_uris":{"android":"levelo://app?vid=f3ec16b2-8afd-4ecb-8d58-15a6a90ff603","ios":"levelo://app?vid=f3ec16b2-8afd-4ecb-8d58-15a6a90ff603"},"vehicle_type_id":"4","last_reported":1749827492,"current_range_meters":16800,"station_id":"ce4bhsh2rcd13ifvqi2g","pricing_plan_id":"cebpf4jnsgd1na2vs0mg"},{"bike_id":"250cb1db-9b0a-4a16-bbea-f0bf6e1a394a","system_id":"levelo_inurba_marseille","lat":43.231905,"lon":5.355518,"is_reserved":false,"is_disabled":false,"rental_uris":{"android":"levelo://app?vid=250cb1db-9b0a-4a16-bbea-f0bf6e1a394a","ios":"levelo://app?vid=250cb1db-9b0a-4a16-bbea-f0bf6e1a394a"},"vehicle_type_id":"4","last_reported":1749827492,"current_range_meters":16800,"station_id":"ce4bhu92rcd13ifvqi70","pricing_plan_id":"cebpf4jnsgd1na2vs0mg"},{"bike_id":"6024cd97-e778-4321-a25a-5ec2429eedf4","system_id":"levelo_inurba_marseille","lat":43.28654,"lon":5.39325,"is_reserved":false,"is_disabled":false,"rental_uris":{"android":"levelo://app?vid=6024cd97-e778-4321-a25a-5ec2429eedf4","ios":"levelo://app?vid=6024cd97-e778-4321-a25a-5ec2429eedf4"},"vehicle_type_id":"4","last_reported":1749827492,"current_range_meters":17200,"station_id":"","pricing_plan_id":"cebpf4jnsgd1na2vs0mg"},{"bike_id":"cbc6df09-9b31-4a0d-ac3d-dd5a4b305d82","system_id":"levelo_inurba_marseille","lat":43.29714,"lon":5.37693,"is_reserved":false,"is_disabled":false,"rental_uris":{"android":"levelo://app?vid=cbc6df09-9b31-4a0d-ac3d-dd5a4b305d82","ios":"levelo://app?vid=cbc6df09-9b31-4a0d-ac3d-dd5a4b305d82"},"vehicle_type_id":"4","last_reported":1749827492,"current_range_meters":17200,"station_id":"ce4bgkh2rcd13ifvqbl0","pricing_plan_id":"cebpf4jnsgd1na2vs0mg"},{"bike_id":"17b42007-873c-4168-9b6a-0a8b8f0153fe","system_id":"levelo_inurba_marseille","lat":43.24803,"lon":5.37457,"is_reserved":false,"is_disabled":false,"rental_uris":{"android":"levelo://app?vid=17b42007-873c-4168-9b6a-0a8b8f0153fe","ios":"levelo://app?vid=17b42007-873c-4168-9b6a-0a8b8f0153fe"},"vehicle_type_id":"4","last_reported":1749827492,"current_range_meters":17200,"station_id":"ce4bhgh2rcd13ifvqfb0","pricing_plan_id":"cebpf4jnsgd1na2vs0mg"},{"bike_id":"4ee97cf1-7f69-4ef0-81f5-7b013aa88d5c","system_id":"levelo_inurba_marseille","lat":43.23193,"lon":5.35553,"is_reserved":false,"is_disabled":false,"rental_uris":{"android":"levelo://app?vid=4ee97cf1-7f69-4ef0-81f5-7b013aa88d5c","ios":"levelo://app?vid=4ee97cf1-7f69-4ef0-81f5-7b013aa88d5c"},"vehicle_type_id":"4","last_reported":1749827492,"current_range_meters":17200,"station_id":"ce4bhu92rcd13ifvqi70","pricing_plan_id":"cebpf4jnsgd1na2vs0mg"},{"bike_id":"a2ed17d8-ea70-4dd9-896f-ad99fc045207","system_id":"levelo_inurba_marseille","lat":43.2175,"lon":5.34603,"is_reserved":false,"is_disabled":false,"rental_uris":{"android":"levelo://app?vid=a2ed17d8-ea70-4dd9-896f-ad99fc045207","ios":"levelo://app?vid=a2ed17d8-ea70-4dd9-896f-ad99fc045207"},"vehicle_type_id":"4","last_reported":1749827492,"current_range_meters":17200,"station_id":"st_cvj6r9ubvosntc0bgbag","pricing_plan_id":"cebpf4jnsgd1na2vs0mg"},{"bike_id":"2b9f2ac2-c6b9-4f37-8e06-1acbe7047485","system_id":"levelo_inurba_marseille","lat":43.298431,"lon":5.362754,"is_reserved":false,"is_disabled":false,"rental_uris":{"android":"levelo://app?vid=2b9f2ac2-c6b9-4f37-8e06-1acbe7047485","ios":"levelo://app?vid=2b9f2ac2-c6b9-4f37-8e06-1acbe7047485"},"vehicle_type_id":"4","last_reported":1749827492,"current_range_meters":17600,"station_id":"ce4bgpp2rcd13ifvqc3g","pricing_plan_id":"cebpf4jnsgd1na2vs0mg"},{"bike_id":"4c4c7fdd-35c3-4fa5-b7e4-3f0f4324d0c2","system_id":"levelo_inurba_marseille","lat":43.282714,"lon":5.35064,"is_reserved":false,"is_disabled":false,"rental_uris":{"android":"levelo://app?vid=4c4c7fdd-35c3-4fa5-b7e4-3f0f4324d0c2","ios":"levelo://app?vid=4c4c7fdd-35c3-4fa5-b7e4-3f0f4324d0c2"},"vehicle_type_id":"4","last_reported":1749827492,"current_range_meters":17600,"station_id":"ce4bhbp2rcd13ifvqerg","pricing_plan_id":"cebpf4jnsgd1na2vs0mg"},{"bike_id":"28c69188-821e-4d21-b20f-ad352a3cb410","system_id":"levelo_inurba_marseille","lat":43.28608,"lon":5.35113,"is_reserved":false,"is_disabled":false,"rental_uris":{"android":"levelo://app?vid=28c69188-821e-4d21-b20f-ad352a3cb410","ios":"levelo://app?vid=28c69188-821e-4d21-b20f-ad352a3cb410"},"vehicle_type_id":"4","last_reported":1749827492,"current_range_meters":17600,"station_id":"ce4bhch2rcd13ifvqeug","pricing_plan_id":"cebpf4jnsgd1na2vs0mg"},{"bike_id":"d62e0bc4-53be-4127-b8cf-051d25b2d784","system_id":"levelo_inurba_marseille","lat":43.27179,"lon":5.40995,"is_reserved":false,"is_disabled":false,"rental_uris":{"android":"levelo://app?vid=d62e0bc4-53be-4127-b8cf-051d25b2d784","ios":"levelo://app?vid=d62e0bc4-53be-4127-b8cf-051d25b2d784"},"vehicle_type_id":"4","last_reported":1749827492,"current_range_meters":17600,"station_id":"ce4bhl12rcd13ifvqgf0","pricing_plan_id":"cebpf4jnsgd1na2vs0mg"},{"bike_id":"463fb9b9-8652-4d93-988b-20d087f02099","system_id":"levelo_inurba_marseille","lat":43.30538,"lon":5.36539,"is_reserved":false,"is_disabled":false,"rental_uris":{"android":"levelo://app?vid=463fb9b9-8652-4d93-988b-20d087f02099","ios":"levelo://app?vid=463fb9b9-8652-4d93-988b-20d087f02099"},"vehicle_type_id":"4","last_reported":1749827492,"current_range_meters":18000,"station_id":"ce4bgs12rcd13ifvqcag","pricing_plan_id":"cebpf4jnsgd1na2vs0mg"},{"bike_id":"b6b00f3d-b6dd-4a00-a49a-c700818d248b","system_id":"levelo_inurba_marseille","lat":43.28628,"lon":5.3509,"is_reserved":false,"is_disabled":false,"rental_uris":{"android":"levelo://app?vid=b6b00f3d-b6dd-4a00-a49a-c700818d248b","ios":"levelo://app?vid=b6b00f3d-b6dd-4a00-a49a-c700818d248b"},"vehicle_type_id":"4","last_reported":1749827492,"current_range_meters":18000,"station_id":"ce4bhch2rcd13ifvqeug","pricing_plan_id":"cebpf4jnsgd1na2vs0mg"},{"bike_id":"b4eaa219-6eb5-4a58-b0c7-04e029cac587","system_id":"levelo_inurba_marseille","lat":43.28621,"lon":5.35104,"is_reserved":false,"is_disabled":false,"rental_uris":{"android":"levelo://app?vid=b4eaa219-6eb5-4a58-b0c7-04e029cac587","ios":"levelo://app?vid=b4eaa219-6eb5-4a58-b0c7-04e029cac587"},"vehicle_type_id":"4","last_reported":1749827492,"current_range_meters":18000,"station_id":"ce4bhch2rcd13ifvqeug","pricing_plan_id":"cebpf4jnsgd1na2vs0mg"},{"bike_id":"c807bac3-8944-474d-ad16-f7c6e365a037","system_id":"levelo_inurba_marseille","lat":43.27915,"lon":5.39587,"is_reserved":false,"is_disabled":false,"rental_uris":{"android":"levelo://app?vid=c807bac3-8944-474d-ad16-f7c6e365a037","ios":"levelo://app?vid=c807bac3-8944-474d-ad16-f7c6e365a037"},"vehicle_type_id":"4","last_reported":1749827492,"current_range_meters":18000,"station_id":"ce4bhf92rcd13ifvqf40","pricing_plan_id":"cebpf4jnsgd1na2vs0mg"},{"bike_id":"d0e0617d-5016-40ba-b4c5-1a83d3add731","system_id":"levelo_inurba_marseille","lat":43.32378,"lon":5.36791,"is_reserved":false,"is_disabled":false,"rental_uris":{"android":"levelo://app?vid=d0e0617d-5016-40ba-b4c5-1a83d3add731","ios":"levelo://app?vid=d0e0617d-5016-40ba-b4c5-1a83d3add731"},"vehicle_type_id":"4","last_reported":1749827492,"current_range_meters":18000,"station_id":"ce4bhsh2rcd13ifvqi2g","pricing_plan_id":"cebpf4jnsgd1na2vs0mg"},{"bike_id":"ccb9975b-34a8-47da-b755-e17344ae18d3","system_id":"levelo_inurba_marseille","lat":43.23191,"lon":5.35558,"is_reserved":false,"is_disabled":false,"rental_uris":{"android":"levelo://app?vid=ccb9975b-34a8-47da-b755-e17344ae18d3","ios":"levelo://app?vid=ccb9975b-34a8-47da-b755-e17344ae18d3"},"vehicle_type_id":"4","last_reported":1749827492,"current_range_meters":18000,"station_id":"ce4bhu92rcd13ifvqi70","pricing_plan_id":"cebpf4jnsgd1na2vs0mg"},{"bike_id":"29b3ac9e-6e30-47c1-a4b6-99bffb94577e","system_id":"levelo_inurba_marseille","lat":43.27439,"lon":5.39416,"is_reserved":false,"is_disabled":false,"rental_uris":{"android":"levelo://app?vid=29b3ac9e-6e30-47c1-a4b6-99bffb94577e","ios":"levelo://app?vid=29b3ac9e-6e30-47c1-a4b6-99bffb94577e"},"vehicle_type_id":"4","last_reported":1749827492,"current_range_meters":18800,"station_id":"ce4bhdp2rcd13ifvqf20","pricing_plan_id":"cebpf4jnsgd1na2vs0mg"},{"bike_id":"a025437d-d905-4581-a812-0c2f72b00469","system_id":"levelo_inurba_marseille","lat":43.32666,"lon":5.40992,"is_reserved":false,"is_disabled":false,"rental_uris":{"android":"levelo://app?vid=a025437d-d905-4581-a812-0c2f72b00469","ios":"levelo://app?vid=a025437d-d905-4581-a812-0c2f72b00469"},"vehicle_type_id":"4","last_reported":1749827492,"current_range_meters":18800,"station_id":"ce4bhpp2rcd13ifvqhgg","pricing_plan_id":"cebpf4jnsgd1na2vs0mg"},{"bike_id":"14f70c0f-d252-4eee-8f53-1a9a55411c6a","system_id":"levelo_inurba_marseille","lat":43.22931,"lon":5.35378,"is_reserved":false,"is_disabled":false,"rental_uris":{"android":"levelo://app?vid=14f70c0f-d252-4eee-8f53-1a9a55411c6a","ios":"levelo://app?vid=14f70c0f-d252-4eee-8f53-1a9a55411c6a"},"vehicle_type_id":"4","last_reported":1749827492,"current_range_meters":18800,"station_id":"cpo3532slgdg3j2ikp40","pricing_plan_id":"cebpf4jnsgd1na2vs0mg"},{"bike_id":"0cab7589-a818-4c87-9204-fc80474ae419","system_id":"levelo_inurba_marseille","lat":43.27375,"lon":5.36253,"is_reserved":false,"is_disabled":false,"rental_uris":{"android":"levelo://app?vid=0cab7589-a818-4c87-9204-fc80474ae419","ios":"levelo://app?vid=0cab7589-a818-4c87-9204-fc80474ae419"},"vehicle_type_id":"4","last_reported":1749827492,"current_range_meters":19200,"station_id":"ce4bhbh2rcd13ifvqeo0","pricing_plan_id":"cebpf4jnsgd1na2vs0mg"},{"bike_id":"51204135-fe1e-4ebc-8ed0-332020267afb","system_id":"levelo_inurba_marseille","lat":43.2842,"lon":5.34993,"is_reserved":false,"is_disabled":false,"rental_uris":{"android":"levelo://app?vid=51204135-fe1e-4ebc-8ed0-332020267afb","ios":"levelo://app?vid=51204135-fe1e-4ebc-8ed0-332020267afb"},"vehicle_type_id":"4","last_reported":1749827492,"current_range_meters":19200,"station_id":"ce4bhbh2rcd13ifvqepg","pricing_plan_id":"cebpf4jnsgd1na2vs0mg"},{"bike_id":"a89cb948-989f-4863-a75b-e1ca319e412e","system_id":"levelo_inurba_marseille","lat":43.2297,"lon":5.35369,"is_reserved":false,"is_disabled":false,"rental_uris":{"android":"levelo://app?vid=a89cb948-989f-4863-a75b-e1ca319e412e","ios":"levelo://app?vid=a89cb948-989f-4863-a75b-e1ca319e412e"},"vehicle_type_id":"4","last_reported":1749827492,"current_range_meters":19200,"station_id":"cpo3532slgdg3j2ikp40","pricing_plan_id":"cebpf4jnsgd1na2vs0mg"},{"bike_id":"10f66477-76c3-45db-ad71-d4a9c35a2189","system_id":"levelo_inurba_marseille","lat":43.28402,"lon":5.34999,"is_reserved":false,"is_disabled":false,"rental_uris":{"android":"levelo://app?vid=10f66477-76c3-45db-ad71-d4a9c35a2189","ios":"levelo://app?vid=10f66477-76c3-45db-ad71-d4a9c35a2189"},"vehicle_type_id":"4","last_reported":1749827492,"current_range_meters":19600,"station_id":"ce4bhbh2rcd13ifvqepg","pricing_plan_id":"cebpf4jnsgd1na2vs0mg"},{"bike_id":"5838fa56-acfd-4f90-bff3-fe13b5d2855e","system_id":"levelo_inurba_marseille","lat":43.2658,"lon":5.39066,"is_reserved":false,"is_disabled":false,"rental_uris":{"android":"levelo://app?vid=5838fa56-acfd-4f90-bff3-fe13b5d2855e","ios":"levelo://app?vid=5838fa56-acfd-4f90-bff3-fe13b5d2855e"},"vehicle_type_id":"4","last_reported":1749827492,"current_range_meters":19600,"station_id":"ce4bhe12rcd13ifvqf30","pricing_plan_id":"cebpf4jnsgd1na2vs0mg"},{"bike_id":"a99534fe-9a56-4676-9b1d-d76bc66815ef","system_id":"levelo_inurba_marseille","lat":43.25579,"lon":5.38239,"is_reserved":false,"is_disabled":false,"rental_uris":{"android":"levelo://app?vid=a99534fe-9a56-4676-9b1d-d76bc66815ef","ios":"levelo://app?vid=a99534fe-9a56-4676-9b1d-d76bc66815ef"},"vehicle_type_id":"4","last_reported":1749827492,"current_range_meters":19600,"station_id":"ce4bhih2rcd13ifvqfs0","pricing_plan_id":"cebpf4jnsgd1na2vs0mg"},{"bike_id":"1cafb062-09f5-4882-b2ed-4b99b468ec88","system_id":"levelo_inurba_marseille","lat":43.27998,"lon":5.40011,"is_reserved":false,"is_disabled":false,"rental_uris":{"android":"levelo://app?vid=1cafb062-09f5-4882-b2ed-4b99b468ec88","ios":"levelo://app?vid=1cafb062-09f5-4882-b2ed-4b99b468ec88"},"vehicle_type_id":"4","last_reported":1749827492,"current_range_meters":19600,"station_id":"ce4bho92rcd13ifvqh4g","pricing_plan_id":"cebpf4jnsgd1na2vs0mg"},{"bike_id":"fde5d727-d1b4-4859-8d52-424400ca0ed9","system_id":"levelo_inurba_marseille","lat":43.23196,"lon":5.3555,"is_reserved":false,"is_disabled":false,"rental_uris":{"android":"levelo://app?vid=fde5d727-d1b4-4859-8d52-424400ca0ed9","ios":"levelo://app?vid=fde5d727-d1b4-4859-8d52-424400ca0ed9"},"vehicle_type_id":"4","last_reported":1749827492,"current_range_meters":19600,"station_id":"ce4bhu92rcd13ifvqi70","pricing_plan_id":"cebpf4jnsgd1na2vs0mg"},{"bike_id":"0ad0e2e7-ff48-4b8d-8c8d-50aa61a56700","system_id":"levelo_inurba_marseille","lat":43.28268,"lon":5.35063,"is_reserved":false,"is_disabled":false,"rental_uris":{"android":"levelo://app?vid=0ad0e2e7-ff48-4b8d-8c8d-50aa61a56700","ios":"levelo://app?vid=0ad0e2e7-ff48-4b8d-8c8d-50aa61a56700"},"vehicle_type_id":"4","last_reported":1749827492,"current_range_meters":20000,"station_id":"ce4bhbp2rcd13ifvqerg","pricing_plan_id":"cebpf4jnsgd1na2vs0mg"},{"bike_id":"7240a984-bb6d-4c3b-ab8d-aef55ac0bce8","system_id":"levelo_inurba_marseille","lat":43.21209,"lon":5.35087,"is_reserved":false,"is_disabled":false,"rental_uris":{"android":"levelo://app?vid=7240a984-bb6d-4c3b-ab8d-aef55ac0bce8","ios":"levelo://app?vid=7240a984-bb6d-4c3b-ab8d-aef55ac0bce8"},"vehicle_type_id":"4","last_reported":1749827492,"current_range_meters":20000,"station_id":"st_cvj6sg6p6f1abm77japg","pricing_plan_id":"cebpf4jnsgd1na2vs0mg"},{"bike_id":"679d881d-2dfe-4ec2-babb-8b09d0832382","system_id":"levelo_inurba_marseille","lat":43.32781,"lon":5.39148,"is_reserved":false,"is_disabled":false,"rental_uris":{"android":"levelo://app?vid=679d881d-2dfe-4ec2-babb-8b09d0832382","ios":"levelo://app?vid=679d881d-2dfe-4ec2-babb-8b09d0832382"},"vehicle_type_id":"4","last_reported":1749827492,"current_range_meters":20400,"station_id":"","pricing_plan_id":"cebpf4jnsgd1na2vs0mg"},{"bike_id":"528fed24-a581-4453-8253-6cb11e6043ab","system_id":"levelo_inurba_marseille","lat":43.29844,"lon":5.36283,"is_reserved":false,"is_disabled":false,"rental_uris":{"android":"levelo://app?vid=528fed24-a581-4453-8253-6cb11e6043ab","ios":"levelo://app?vid=528fed24-a581-4453-8253-6cb11e6043ab"},"vehicle_type_id":"4","last_reported":1749827492,"current_range_meters":20400,"station_id":"ce4bgpp2rcd13ifvqc3g","pricing_plan_id":"cebpf4jnsgd1na2vs0mg"},{"bike_id":"a3b07faa-9411-48f2-b8e8-5d289e0fdf4e","system_id":"levelo_inurba_marseille","lat":43.27433,"lon":5.39411,"is_reserved":false,"is_disabled":false,"rental_uris":{"android":"levelo://app?vid=a3b07faa-9411-48f2-b8e8-5d289e0fdf4e","ios":"levelo://app?vid=a3b07faa-9411-48f2-b8e8-5d289e0fdf4e"},"vehicle_type_id":"4","last_reported":1749827492,"current_range_meters":20400,"station_id":"ce4bhdp2rcd13ifvqf20","pricing_plan_id":"cebpf4jnsgd1na2vs0mg"},{"bike_id":"810b6267-0dc6-4cdf-ba87-f72fc9f3bd3c","system_id":"levelo_inurba_marseille","lat":43.21758,"lon":5.34579,"is_reserved":false,"is_disabled":false,"rental_uris":{"android":"levelo://app?vid=810b6267-0dc6-4cdf-ba87-f72fc9f3bd3c","ios":"levelo://app?vid=810b6267-0dc6-4cdf-ba87-f72fc9f3bd3c"},"vehicle_type_id":"4","last_reported":1749827492,"current_range_meters":20400,"station_id":"st_cvj6r9ubvosntc0bgbag","pricing_plan_id":"cebpf4jnsgd1na2vs0mg"},{"bike_id":"c82f75f2-635c-40da-9f67-77d82cb74c97","system_id":"levelo_inurba_marseille","lat":43.211943,"lon":5.350669,"is_reserved":false,"is_disabled":false,"rental_uris":{"android":"levelo://app?vid=c82f75f2-635c-40da-9f67-77d82cb74c97","ios":"levelo://app?vid=c82f75f2-635c-40da-9f67-77d82cb74c97"},"vehicle_type_id":"4","last_reported":1749827492,"current_range_meters":20400,"station_id":"st_cvj6sg6p6f1abm77japg","pricing_plan_id":"cebpf4jnsgd1na2vs0mg"},{"bike_id":"ad48cf04-0af9-4b06-8d23-9abdf7daf187","system_id":"levelo_inurba_marseille","lat":43.271121,"lon":5.387203,"is_reserved":false,"is_disabled":false,"rental_uris":{"android":"levelo://app?vid=ad48cf04-0af9-4b06-8d23-9abdf7daf187","ios":"levelo://app?vid=ad48cf04-0af9-4b06-8d23-9abdf7daf187"},"vehicle_type_id":"4","last_reported":1749827492,"current_range_meters":20800,"station_id":"","pricing_plan_id":"cebpf4jnsgd1na2vs0mg"},{"bike_id":"c08a4e60-4de0-497c-b9cd-8ac734283f03","system_id":"levelo_inurba_marseille","lat":43.28037,"lon":5.36942,"is_reserved":false,"is_disabled":false,"rental_uris":{"android":"levelo://app?vid=c08a4e60-4de0-497c-b9cd-8ac734283f03","ios":"levelo://app?vid=c08a4e60-4de0-497c-b9cd-8ac734283f03"},"vehicle_type_id":"4","last_reported":1749827492,"current_range_meters":20800,"station_id":"ce4bha12rcd13ifvqef0","pricing_plan_id":"cebpf4jnsgd1na2vs0mg"},{"bike_id":"766d3560-1913-4b62-b9de-27d7409b67a2","system_id":"levelo_inurba_marseille","lat":43.29004,"lon":5.35613,"is_reserved":false,"is_disabled":false,"rental_uris":{"android":"levelo://app?vid=766d3560-1913-4b62-b9de-27d7409b67a2","ios":"levelo://app?vid=766d3560-1913-4b62-b9de-27d7409b67a2"},"vehicle_type_id":"4","last_reported":1749827492,"current_range_meters":20800,"station_id":"ce4bhb92rcd13ifvqen0","pricing_plan_id":"cebpf4jnsgd1na2vs0mg"},{"bike_id":"2783e6a8-37cb-4711-b8ed-2fd6dbb1cb23","system_id":"levelo_inurba_marseille","lat":43.28416,"lon":5.34997,"is_reserved":false,"is_disabled":false,"rental_uris":{"android":"levelo://app?vid=2783e6a8-37cb-4711-b8ed-2fd6dbb1cb23","ios":"levelo://app?vid=2783e6a8-37cb-4711-b8ed-2fd6dbb1cb23"},"vehicle_type_id":"4","last_reported":1749827492,"current_range_meters":20800,"station_id":"ce4bhbh2rcd13ifvqepg","pricing_plan_id":"cebpf4jnsgd1na2vs0mg"},{"bike_id":"96a6e1c5-89fe-41c1-824f-86be1aa3c668","system_id":"levelo_inurba_marseille","lat":43.29898,"lon":5.43672,"is_reserved":false,"is_disabled":false,"rental_uris":{"android":"levelo://app?vid=96a6e1c5-89fe-41c1-824f-86be1aa3c668","ios":"levelo://app?vid=96a6e1c5-89fe-41c1-824f-86be1aa3c668"},"vehicle_type_id":"4","last_reported":1749827492,"current_range_meters":20800,"station_id":"ce4bhpp2rcd13ifvqhfg","pricing_plan_id":"cebpf4jnsgd1na2vs0mg"},{"bike_id":"e07237e1-21e1-4c8e-89ec-d69e5cd00949","system_id":"levelo_inurba_marseille","lat":43.21739,"lon":5.34616,"is_reserved":false,"is_disabled":false,"rental_uris":{"android":"levelo://app?vid=e07237e1-21e1-4c8e-89ec-d69e5cd00949","ios":"levelo://app?vid=e07237e1-21e1-4c8e-89ec-d69e5cd00949"},"vehicle_type_id":"4","last_reported":1749827492,"current_range_meters":20800,"station_id":"st_cvj6r9ubvosntc0bgbag","pricing_plan_id":"cebpf4jnsgd1na2vs0mg"},{"bike_id":"a7b026ab-7e1a-436f-a6ba-fdca1bd5cb67","system_id":"levelo_inurba_marseille","lat":43.299036,"lon":5.383268,"is_reserved":false,"is_disabled":false,"rental_uris":{"android":"levelo://app?vid=a7b026ab-7e1a-436f-a6ba-fdca1bd5cb67","ios":"levelo://app?vid=a7b026ab-7e1a-436f-a6ba-fdca1bd5cb67"},"vehicle_type_id":"4","last_reported":1749827492,"current_range_meters":21600,"station_id":"","pricing_plan_id":"cebpf4jnsgd1na2vs0mg"},{"bike_id":"f2c9af96-1c1f-4ce9-b7e8-1282fcb6fec2","system_id":"levelo_inurba_marseille","lat":43.24354,"lon":5.41163,"is_reserved":false,"is_disabled":false,"rental_uris":{"android":"levelo://app?vid=f2c9af96-1c1f-4ce9-b7e8-1282fcb6fec2","ios":"levelo://app?vid=f2c9af96-1c1f-4ce9-b7e8-1282fcb6fec2"},"vehicle_type_id":"4","last_reported":1749827492,"current_range_meters":21600,"station_id":"","pricing_plan_id":"cebpf4jnsgd1na2vs0mg"},{"bike_id":"b69af400-b870-49dc-9230-fe658a197219","system_id":"levelo_inurba_marseille","lat":43.29782,"lon":5.38115,"is_reserved":false,"is_disabled":false,"rental_uris":{"android":"levelo://app?vid=b69af400-b870-49dc-9230-fe658a197219","ios":"levelo://app?vid=b69af400-b870-49dc-9230-fe658a197219"},"vehicle_type_id":"4","last_reported":1749827492,"current_range_meters":21600,"station_id":"ce4bgip2rcd13ifvqbb0","pricing_plan_id":"cebpf4jnsgd1na2vs0mg"},{"bike_id":"67aeb570-d5d3-4dfd-b2fe-5371cbf739f5","system_id":"levelo_inurba_marseille","lat":43.28421,"lon":5.35,"is_reserved":false,"is_disabled":false,"rental_uris":{"android":"levelo://app?vid=67aeb570-d5d3-4dfd-b2fe-5371cbf739f5","ios":"levelo://app?vid=67aeb570-d5d3-4dfd-b2fe-5371cbf739f5"},"vehicle_type_id":"4","last_reported":1749827492,"current_range_meters":21600,"station_id":"ce4bhbh2rcd13ifvqepg","pricing_plan_id":"cebpf4jnsgd1na2vs0mg"},{"bike_id":"9145c2a5-8440-4fb2-a044-a388068ff0bc","system_id":"levelo_inurba_marseille","lat":43.28609,"lon":5.35111,"is_reserved":false,"is_disabled":false,"rental_uris":{"android":"levelo://app?vid=9145c2a5-8440-4fb2-a044-a388068ff0bc","ios":"levelo://app?vid=9145c2a5-8440-4fb2-a044-a388068ff0bc"},"vehicle_type_id":"4","last_reported":1749827492,"current_range_meters":21600,"station_id":"ce4bhch2rcd13ifvqeug","pricing_plan_id":"cebpf4jnsgd1na2vs0mg"},{"bike_id":"addc4bd6-e356-4c8a-8673-c6aca6ec4666","system_id":"levelo_inurba_marseille","lat":43.25817,"lon":5.39441,"is_reserved":false,"is_disabled":false,"rental_uris":{"android":"levelo://app?vid=addc4bd6-e356-4c8a-8673-c6aca6ec4666","ios":"levelo://app?vid=addc4bd6-e356-4c8a-8673-c6aca6ec4666"},"vehicle_type_id":"4","last_reported":1749827492,"current_range_meters":21600,"station_id":"ce4bhip2rcd13ifvqft0","pricing_plan_id":"cebpf4jnsgd1na2vs0mg"},{"bike_id":"2e555dff-22c0-4d51-9ade-e3168fb145c7","system_id":"levelo_inurba_marseille","lat":43.24162,"lon":5.36397,"is_reserved":false,"is_disabled":false,"rental_uris":{"android":"levelo://app?vid=2e555dff-22c0-4d51-9ade-e3168fb145c7","ios":"levelo://app?vid=2e555dff-22c0-4d51-9ade-e3168fb145c7"},"vehicle_type_id":"4","last_reported":1749827492,"current_range_meters":21600,"station_id":"cpo36qri1sfpv3e86is0","pricing_plan_id":"cebpf4jnsgd1na2vs0mg"},{"bike_id":"1548ec44-a46a-4b31-b9a0-c9d090c13a07","system_id":"levelo_inurba_marseille","lat":43.26372,"lon":5.37799,"is_reserved":false,"is_disabled":false,"rental_uris":{"android":"levelo://app?vid=1548ec44-a46a-4b31-b9a0-c9d090c13a07","ios":"levelo://app?vid=1548ec44-a46a-4b31-b9a0-c9d090c13a07"},"vehicle_type_id":"4","last_reported":1749827492,"current_range_meters":21600,"station_id":"st_d163nis0mtpqnht9uue0","pricing_plan_id":"cebpf4jnsgd1na2vs0mg"},{"bike_id":"d81ebef1-def3-4b3b-8a2c-e915262efa10","system_id":"levelo_inurba_marseille","lat":43.328729,"lon":5.391682,"is_reserved":false,"is_disabled":false,"rental_uris":{"android":"levelo://app?vid=d81ebef1-def3-4b3b-8a2c-e915262efa10","ios":"levelo://app?vid=d81ebef1-def3-4b3b-8a2c-e915262efa10"},"vehicle_type_id":"4","last_reported":1749827492,"current_range_meters":22000,"station_id":"","pricing_plan_id":"cebpf4jnsgd1na2vs0mg"},{"bike_id":"f728e1d2-ed56-42b2-97d7-cfc4dcbfd5fa","system_id":"levelo_inurba_marseille","lat":43.302781,"lon":5.377175,"is_reserved":false,"is_disabled":false,"rental_uris":{"android":"levelo://app?vid=f728e1d2-ed56-42b2-97d7-cfc4dcbfd5fa","ios":"levelo://app?vid=f728e1d2-ed56-42b2-97d7-cfc4dcbfd5fa"},"vehicle_type_id":"4","last_reported":1749827492,"current_range_meters":22000,"station_id":"ce4bguh2rcd13ifvqcj0","pricing_plan_id":"cebpf4jnsgd1na2vs0mg"},{"bike_id":"e4a76ede-178f-4719-84d9-8bac9d402ec4","system_id":"levelo_inurba_marseille","lat":43.3043,"lon":5.39747,"is_reserved":false,"is_disabled":false,"rental_uris":{"android":"levelo://app?vid=e4a76ede-178f-4719-84d9-8bac9d402ec4","ios":"levelo://app?vid=e4a76ede-178f-4719-84d9-8bac9d402ec4"},"vehicle_type_id":"4","last_reported":1749827492,"current_range_meters":22000,"station_id":"ce4bh092rcd13ifvqd20","pricing_plan_id":"cebpf4jnsgd1na2vs0mg"},{"bike_id":"0798ddaf-9ed2-4ab4-9f65-a36cf2bb4d91","system_id":"levelo_inurba_marseille","lat":43.28355,"lon":5.38104,"is_reserved":false,"is_disabled":false,"rental_uris":{"android":"levelo://app?vid=0798ddaf-9ed2-4ab4-9f65-a36cf2bb4d91","ios":"levelo://app?vid=0798ddaf-9ed2-4ab4-9f65-a36cf2bb4d91"},"vehicle_type_id":"4","last_reported":1749827492,"current_range_meters":22000,"station_id":"ce4bh412rcd13ifvqdr0","pricing_plan_id":"cebpf4jnsgd1na2vs0mg"},{"bike_id":"8eaf82da-f25f-4dc7-b9db-c3cfa125e2f9","system_id":"levelo_inurba_marseille","lat":43.29027,"lon":5.386398,"is_reserved":false,"is_disabled":false,"rental_uris":{"android":"levelo://app?vid=8eaf82da-f25f-4dc7-b9db-c3cfa125e2f9","ios":"levelo://app?vid=8eaf82da-f25f-4dc7-b9db-c3cfa125e2f9"},"vehicle_type_id":"4","last_reported":1749827492,"current_range_meters":22000,"station_id":"ce4bh4p2rcd13ifvqe0g","pricing_plan_id":"cebpf4jnsgd1na2vs0mg"},{"bike_id":"0ff932d9-d8d5-4612-bf22-38bd842f329e","system_id":"levelo_inurba_marseille","lat":43.28615,"lon":5.35109,"is_reserved":false,"is_disabled":false,"rental_uris":{"android":"levelo://app?vid=0ff932d9-d8d5-4612-bf22-38bd842f329e","ios":"levelo://app?vid=0ff932d9-d8d5-4612-bf22-38bd842f329e"},"vehicle_type_id":"4","last_reported":1749827492,"current_range_meters":22000,"station_id":"ce4bhch2rcd13ifvqeug","pricing_plan_id":"cebpf4jnsgd1na2vs0mg"},{"bike_id":"e090937d-4eb3-418a-8057-1a009dfff7dd","system_id":"levelo_inurba_marseille","lat":43.25514,"lon":5.37641,"is_reserved":false,"is_disabled":false,"rental_uris":{"android":"levelo://app?vid=e090937d-4eb3-418a-8057-1a009dfff7dd","ios":"levelo://app?vid=e090937d-4eb3-418a-8057-1a009dfff7dd"},"vehicle_type_id":"4","last_reported":1749827492,"current_range_meters":22000,"station_id":"ce4bhh12rcd13ifvqff0","pricing_plan_id":"cebpf4jnsgd1na2vs0mg"},{"bike_id":"9fad3d43-b855-4f2f-bb2a-3cf0f629709e","system_id":"levelo_inurba_marseille","lat":43.25584,"lon":5.3824,"is_reserved":false,"is_disabled":false,"rental_uris":{"android":"levelo://app?vid=9fad3d43-b855-4f2f-bb2a-3cf0f629709e","ios":"levelo://app?vid=9fad3d43-b855-4f2f-bb2a-3cf0f629709e"},"vehicle_type_id":"4","last_reported":1749827492,"current_range_meters":22000,"station_id":"ce4bhih2rcd13ifvqfs0","pricing_plan_id":"cebpf4jnsgd1na2vs0mg"},{"bike_id":"353472f3-8208-45e4-942e-6f93816fb866","system_id":"levelo_inurba_marseille","lat":43.25591,"lon":5.38197,"is_reserved":false,"is_disabled":false,"rental_uris":{"android":"levelo://app?vid=353472f3-8208-45e4-942e-6f93816fb866","ios":"levelo://app?vid=353472f3-8208-45e4-942e-6f93816fb866"},"vehicle_type_id":"4","last_reported":1749827492,"current_range_meters":22000,"station_id":"ce4bhih2rcd13ifvqfs0","pricing_plan_id":"cebpf4jnsgd1na2vs0mg"},{"bike_id":"5f34245e-85ad-496b-9d84-a13db1c24f1d","system_id":"levelo_inurba_marseille","lat":43.33727,"lon":5.39207,"is_reserved":false,"is_disabled":false,"rental_uris":{"android":"levelo://app?vid=5f34245e-85ad-496b-9d84-a13db1c24f1d","ios":"levelo://app?vid=5f34245e-85ad-496b-9d84-a13db1c24f1d"},"vehicle_type_id":"4","last_reported":1749827492,"current_range_meters":22000,"station_id":"ce4bhr92rcd13ifvqhsg","pricing_plan_id":"cebpf4jnsgd1na2vs0mg"},{"bike_id":"25638e98-9a31-4b5b-91d1-35ecce5a10fd","system_id":"levelo_inurba_marseille","lat":43.2417,"lon":5.36399,"is_reserved":false,"is_disabled":false,"rental_uris":{"android":"levelo://app?vid=25638e98-9a31-4b5b-91d1-35ecce5a10fd","ios":"levelo://app?vid=25638e98-9a31-4b5b-91d1-35ecce5a10fd"},"vehicle_type_id":"4","last_reported":1749827492,"current_range_meters":22000,"station_id":"cpo36qri1sfpv3e86is0","pricing_plan_id":"cebpf4jnsgd1na2vs0mg"},{"bike_id":"89075a02-100a-4a09-b51a-6f34b878336d","system_id":"levelo_inurba_marseille","lat":43.26592,"lon":5.39062,"is_reserved":false,"is_disabled":false,"rental_uris":{"android":"levelo://app?vid=89075a02-100a-4a09-b51a-6f34b878336d","ios":"levelo://app?vid=89075a02-100a-4a09-b51a-6f34b878336d"},"vehicle_type_id":"4","last_reported":1749827492,"current_range_meters":22400,"station_id":"","pricing_plan_id":"cebpf4jnsgd1na2vs0mg"},{"bike_id":"753ab0d3-9a61-4169-898c-c36728e72505","system_id":"levelo_inurba_marseille","lat":43.29538,"lon":5.38535,"is_reserved":false,"is_disabled":false,"rental_uris":{"android":"levelo://app?vid=753ab0d3-9a61-4169-898c-c36728e72505","ios":"levelo://app?vid=753ab0d3-9a61-4169-898c-c36728e72505"},"vehicle_type_id":"4","last_reported":1749827492,"current_range_meters":22400,"station_id":"ce4bgih2rcd13ifvqba0","pricing_plan_id":"cebpf4jnsgd1na2vs0mg"},{"bike_id":"953459f2-d677-4ddf-a3f1-0e2fe7873303","system_id":"levelo_inurba_marseille","lat":43.30793,"lon":5.38112,"is_reserved":false,"is_disabled":false,"rental_uris":{"android":"levelo://app?vid=953459f2-d677-4ddf-a3f1-0e2fe7873303","ios":"levelo://app?vid=953459f2-d677-4ddf-a3f1-0e2fe7873303"},"vehicle_type_id":"4","last_reported":1749827492,"current_range_meters":22400,"station_id":"ce4bgt12rcd13ifvqce0","pricing_plan_id":"cebpf4jnsgd1na2vs0mg"},{"bike_id":"fbd98def-b47d-4f47-a6e1-a583d083d67e","system_id":"levelo_inurba_marseille","lat":43.28413,"lon":5.34982,"is_reserved":false,"is_disabled":false,"rental_uris":{"android":"levelo://app?vid=fbd98def-b47d-4f47-a6e1-a583d083d67e","ios":"levelo://app?vid=fbd98def-b47d-4f47-a6e1-a583d083d67e"},"vehicle_type_id":"4","last_reported":1749827492,"current_range_meters":22400,"station_id":"ce4bhbh2rcd13ifvqepg","pricing_plan_id":"cebpf4jnsgd1na2vs0mg"},{"bike_id":"f57d60d1-5908-41e3-99c6-7c61b280cb96","system_id":"levelo_inurba_marseille","lat":43.28424,"lon":5.34992,"is_reserved":false,"is_disabled":false,"rental_uris":{"android":"levelo://app?vid=f57d60d1-5908-41e3-99c6-7c61b280cb96","ios":"levelo://app?vid=f57d60d1-5908-41e3-99c6-7c61b280cb96"},"vehicle_type_id":"4","last_reported":1749827492,"current_range_meters":22400,"station_id":"ce4bhbh2rcd13ifvqepg","pricing_plan_id":"cebpf4jnsgd1na2vs0mg"},{"bike_id":"a6572749-9a9e-413d-a515-dd560f75452c","system_id":"levelo_inurba_marseille","lat":43.22934,"lon":5.35379,"is_reserved":false,"is_disabled":false,"rental_uris":{"android":"levelo://app?vid=a6572749-9a9e-413d-a515-dd560f75452c","ios":"levelo://app?vid=a6572749-9a9e-413d-a515-dd560f75452c"},"vehicle_type_id":"4","last_reported":1749827492,"current_range_meters":22400,"station_id":"cpo3532slgdg3j2ikp40","pricing_plan_id":"cebpf4jnsgd1na2vs0mg"},