{"last_updated":1701796012,"ttl":30,"version":"2.2","data":{"bikes":[{"bike_id":"1913bd3d-b906-4748-8c6a-e440cb35796d","system_id":"levelo_inurba_marseille","lat":43.31474,"lon":5.3718,"is_reserved":false,"is_disabled":false,"rental_uris":{"android":"levelo://app?vid=1913bd3d-b906-4748-8c6a-e440cb35796d","ios":"levelo://app?vid=1913bd3d-b906-4748-8c6a-e440cb35796d"},"vehicle_type_id":"4","last_reported":1701796012,"current_range_meters":0,"station_id":"","pricing_plan_id":"free"},{"bike_id":"d0ba7508-adfb-4f45-857b-74f778e1a8d3","system_id":"levelo_inurba_marseille","lat":43.31491,"lon":5.37298,"is_reserved":false,"is_disabled":false,"rental_uris":{"android":"levelo://app?vid=d0ba7508-adfb-4f45-857b-74f778e1a8d3","ios":"levelo://app?vid=d0ba7508-adfb-4f45-857b-74f778e1a8d3"},"vehicle_type_id":"4","last_reported":1701796012,"current_range_meters":0,"station_id":"ce4bgt12rcd13ifvqcd0","pricing_plan_id":"free"},{"bike_id":"3a2dda2e-3aab-4d0e-a954-793f1706ec09","system_id":"levelo_inurba_marseille","lat":43.315542,"lon":5.372774,"is_reserved":false,"is_disabled":false,"rental_uris":{"android":"levelo://app?vid=3a2dda2e-3aab-4d0e-a954-793f1706ec09","ios":"levelo://app?vid=3a2dda2e-3aab-4d0e-a954-793f1706ec09"},"vehicle_type_id":"4","last_reported":1701796012,"current_range_meters":23200,"station_id":"","pricing_plan_id":"free"},{"bike_id":"a1aa84c6-967e-4d23-bdad-2825c25f5c4d","system_id":"levelo_inurba_marseille","lat":43.30559,"lon":5.36539,"is_reserved":false,"is_disabled":false,"rental_uris":{"android":"levelo://app?vid=a1aa84c6-967e-4d23-bdad-2825c25f5c4d","ios":"levelo://app?vid=a1aa84c6-967e-4d23-bdad-2825c25f5c4d"},"vehicle_type_id":"4","last_reported":1701796012,"current_range_meters":0,"station_id":"ce4bgs12rcd13ifvqcag","pricing_plan_id":"free"},{"bike_id":"b3393b55-c834-4647-bc49-d040a812efa5","system_id":"levelo_inurba_marseille","lat":43.305368,"lon":5.367343,"is_reserved":false,"is_disabled":false,"rental_uris":{"android":"levelo://app?vid=b3393b55-c834-4647-bc49-d040a812efa5","ios":"levelo://app?vid=b3393b55-c834-4647-bc49-d040a812efa5"},"vehicle_type_id":"4","last_reported":1701796012,"current_range_meters":0,"station_id":"ce4bgrp2rcd13ifvqc9g","pricing_plan_id":"free"},{"bike_id":"299c1eda-a86c-4f2c-a320-58b4e01cd6b9","system_id":"levelo_inurba_marseille","lat":43.305537,"lon":5.365347,"is_reserved":false,"is_disabled":false,"rental_uris":{"android":"levelo://app?vid=299c1eda-a86c-4f2c-a320-58b4e01cd6b9","ios":"levelo://app?vid=299c1eda-a86c-4f2c-a320-58b4e01cd6b9"},"vehicle_type_id":"4","last_reported":1701796012,"current_range_meters":0,"station_id":"ce4bgs12rcd13ifvqcag","pricing_plan_id":"free"},{"bike_id":"76a277ee-5f24-4377-9fe1-e5c9d906a019","system_id":"levelo_inurba_marseille","lat":43.305714,"lon":5.365633,"is_reserved":false,"is_disabled":false,"rental_uris":{"android":"levelo://app?vid=76a277ee-5f24-4377-9fe1-e5c9d906a019","ios":"levelo://app?vid=76a277ee-5f24-4377-9fe1-e5c9d906a019"},"vehicle_type_id":"4","last_reported":1701796012,"current_range_meters":9200,"station_id":"ce4bgs12rcd13ifvqcag","pricing_plan_id":"free"},{"bike_id":"5d01a031-4e69-4eea-a561-44fe80c0813f","system_id":"levelo_inurba_marseille","lat":43.305706,"lon":5.365654,"is_reserved":false,"is_disabled":false,"rental_uris":{"android":"levelo://app?vid=5d01a031-4e69-4eea-a561-44fe80c0813f","ios":"levelo://app?vid=5d01a031-4e69-4eea-a561-44fe80c0813f"},"vehicle_type_id":"4","last_reported":1701796012,"current_range_meters":25200,"station_id":"ce4bgs12rcd13ifvqcag","pricing_plan_id":"free"},{"bike_id":"b065b12a-ef87-47d8-8ac6-a38844050d40","system_id":"levelo_inurba_marseille","lat":43.319338,"lon":5.372928,"is_reserved":false,"is_disabled":false,"rental_uris":{"android":"levelo://app?vid=b065b12a-ef87-47d8-8ac6-a38844050d40","ios":"levelo://app?vid=b065b12a-ef87-47d8-8ac6-a38844050d40"},"vehicle_type_id":"4","last_reported":1701796012,"current_range_meters":0,"station_id":"","pricing_plan_id":"free"},{"bike_id":"6a9266e1-51d4-4e02-9614-61fa97198216","system_id":"levelo_inurba_marseille","lat":43.31117,"lon":5.3777,"is_reserved":false,"is_disabled":false,"rental_uris":{"android":"levelo://app?vid=6a9266e1-51d4-4e02-9614-61fa97198216","ios":"levelo://app?vid=6a9266e1-51d4-4e02-9614-61fa97198216"},"vehicle_type_id":"4","last_reported":1701796012,"current_range_meters":0,"station_id":"ce4bgt92rcd13ifvqcg0","pricing_plan_id":"free"},{"bike_id":"22d3ceee-41a3-4219-a10c-7637763fd132","system_id":"levelo_inurba_marseille","lat":43.307945,"lon":5.376487,"is_reserved":false,"is_disabled":false,"rental_uris":{"android":"levelo://app?vid=22d3ceee-41a3-4219-a10c-7637763fd132","ios":"levelo://app?vid=22d3ceee-41a3-4219-a10c-7637763fd132"},"vehicle_type_id":"4","last_reported":1701796012,"current_range_meters":800,"station_id":"ce4bgv92rcd13ifvqcq0","pricing_plan_id":"free"},{"bike_id":"d46cbd14-1d84-4284-afe7-58ccc81e8fca","system_id":"levelo_inurba_marseille","lat":43.307945,"lon":5.376487,"is_reserved":false,"is_disabled":false,"rental_uris":{"android":"levelo://app?vid=d46cbd14-1d84-4284-afe7-58ccc81e8fca","ios":"levelo://app?vid=d46cbd14-1d84-4284-afe7-58ccc81e8fca"},"vehicle_type_id":"4","last_reported":1701796012,"current_range_meters":26800,"station_id":"ce4bgv92rcd13ifvqcq0","pricing_plan_id":"free"},{"bike_id":"d9395397-ef31-4476-8c6a-1ffd684a2405","system_id":"levelo_inurba_marseille","lat":43.317075,"lon":5.377367,"is_reserved":false,"is_disabled":false,"rental_uris":{"android":"levelo://app?vid=d9395397-ef31-4476-8c6a-1ffd684a2405","ios":"levelo://app?vid=d9395397-ef31-4476-8c6a-1ffd684a2405"},"vehicle_type_id":"4","last_reported":1701796012,"current_range_meters":18400,"station_id":"ce4bgth2rcd13ifvqch0","pricing_plan_id":"free"},{"bike_id":"fb6fd937-527b-4585-9058-0dfdc6436ac8","system_id":"levelo_inurba_marseille","lat":43.31351,"lon":5.37909,"is_reserved":false,"is_disabled":false,"rental_uris":{"android":"levelo://app?vid=fb6fd937-527b-4585-9058-0dfdc6436ac8","ios":"levelo://app?vid=fb6fd937-527b-4585-9058-0dfdc6436ac8"},"vehicle_type_id":"4","last_reported":1701796012,"current_range_meters":9600,"station_id":"","pricing_plan_id":"free"},{"bike_id":"c7d1fbe9-8316-4a95-ba6f-fa72b18432ec","system_id":"levelo_inurba_marseille","lat":43.30304,"lon":5.368987,"is_reserved":false,"is_disabled":false,"rental_uris":{"android":"levelo://app?vid=c7d1fbe9-8316-4a95-ba6f-fa72b18432ec","ios":"levelo://app?vid=c7d1fbe9-8316-4a95-ba6f-fa72b18432ec"},"vehicle_type_id":"4","last_reported":1701796012,"current_range_meters":14400,"station_id":"ce4bgqh2rcd13ifvqc5g","pricing_plan_id":"free"},{"bike_id":"f2b85ef9-ef40-4780-afd5-94e513664508","system_id":"levelo_inurba_marseille","lat":43.301939,"lon":5.366286,"is_reserved":false,"is_disabled":false,"rental_uris":{"android":"levelo://app?vid=f2b85ef9-ef40-4780-afd5-94e513664508","ios":"levelo://app?vid=f2b85ef9-ef40-4780-afd5-94e513664508"},"vehicle_type_id":"4","last_reported":1701796012,"current_range_meters":20800,"station_id":"ce4bgrh2rcd13ifvqc8g","pricing_plan_id":"free"},{"bike_id":"7a3a84a1-56f9-4911-8537-13afb316dc7c","system_id":"levelo_inurba_marseille","lat":43.308012,"lon":5.381511,"is_reserved":false,"is_disabled":false,"rental_uris":{"android":"levelo://app?vid=7a3a84a1-56f9-4911-8537-13afb316dc7c","ios":"levelo://app?vid=7a3a84a1-56f9-4911-8537-13afb316dc7c"},"vehicle_type_id":"4","last_reported":1701796012,"current_range_meters":26800,"station_id":"ce4bgt12rcd13ifvqce0","pricing_plan_id":"free"},{"bike_id":"af3ff8cb-f6e6-4096-86b5-99e7868d0944","system_id":"levelo_inurba_marseille","lat":43.32474,"lon":5.36579,"is_reserved":false,"is_disabled":false,"rental_uris":{"android":"levelo://app?vid=af3ff8cb-f6e6-4096-86b5-99e7868d0944","ios":"levelo://app?vid=af3ff8cb-f6e6-4096-86b5-99e7868d0944"},"vehicle_type_id":"4","last_reported":1701796012,"current_range_meters":0,"station_id":"ce4bhs12rcd13ifvqhvg","pricing_plan_id":"free"},{"bike_id":"5eca4dc7-805f-4d07-8fa6-3c74dd49a968","system_id":"levelo_inurba_marseille","lat":43.324771,"lon":5.36557,"is_reserved":false,"is_disabled":false,"rental_uris":{"android":"levelo://app?vid=5eca4dc7-805f-4d07-8fa6-3c74dd49a968","ios":"levelo://app?vid=5eca4dc7-805f-4d07-8fa6-3c74dd49a968"},"vehicle_type_id":"4","last_reported":1701796012,"current_range_meters":10800,"station_id":"ce4bhs12rcd13ifvqhvg","pricing_plan_id":"free"},{"bike_id":"ab542b0a-b258-4b62-baed-c4ff4b3a7961","system_id":"levelo_inurba_marseille","lat":43.324771,"lon":5.36557,"is_reserved":false,"is_disabled":false,"rental_uris":{"android":"levelo://app?vid=ab542b0a-b258-4b62-baed-c4ff4b3a7961","ios":"levelo://app?vid=ab542b0a-b258-4b62-baed-c4ff4b3a7961"},"vehicle_type_id":"4","last_reported":1701796012,"current_range_meters":12400,"station_id":"ce4bhs12rcd13ifvqhvg","pricing_plan_id":"free"},{"bike_id":"41280701-a143-4e50-93ef-fa297df3585f","system_id":"levelo_inurba_marseille","lat":43.324771,"lon":5.36557,"is_reserved":false,"is_disabled":false,"rental_uris":{"android":"levelo://app?vid=41280701-a143-4e50-93ef-fa297df3585f","ios":"levelo://app?vid=41280701-a143-4e50-93ef-fa297df3585f"},"vehicle_type_id":"4","last_reported":1701796012,"current_range_meters":24800,"station_id":"ce4bhs12rcd13ifvqhvg","pricing_plan_id":"free"},{"bike_id":"d8a378f4-d537-42d0-88f8-cd2cbcd41234","system_id":"levelo_inurba_marseille","lat":43.299875,"lon":5.365986,"is_reserved":false,"is_disabled":false,"rental_uris":{"android":"levelo://app?vid=d8a378f4-d537-42d0-88f8-cd2cbcd41234","ios":"levelo://app?vid=d8a378f4-d537-42d0-88f8-cd2cbcd41234"},"vehicle_type_id":"4","last_reported":1701796012,"current_range_meters":21200,"station_id":"ce4bgm92rcd13ifvqbr0","pricing_plan_id":"free"},{"bike_id":"b3aa95d3-2946-4d4d-8c7e-5852ed8ef34d","system_id":"levelo_inurba_marseille","lat":43.313571,"lon":5.384829,"is_reserved":false,"is_disabled":false,"rental_uris":{"android":"levelo://app?vid=b3aa95d3-2946-4d4d-8c7e-5852ed8ef34d","ios":"levelo://app?vid=b3aa95d3-2946-4d4d-8c7e-5852ed8ef34d"},"vehicle_type_id":"4","last_reported":1701796012,"current_range_meters":11600,"station_id":"ce4bgt92rcd13ifvqcf0","pricing_plan_id":"free"},{"bike_id":"4dd07d9b-0e67-494b-92dc-bfb4b400d26a","system_id":"levelo_inurba_marseille","lat":43.313571,"lon":5.384829,"is_reserved":false,"is_disabled":false,"rental_uris":{"android":"levelo://app?vid=4dd07d9b-0e67-494b-92dc-bfb4b400d26a","ios":"levelo://app?vid=4dd07d9b-0e67-494b-92dc-bfb4b400d26a"},"vehicle_type_id":"4","last_reported":1701796012,"current_range_meters":19200,"station_id":"ce4bgt92rcd13ifvqcf0","pricing_plan_id":"free"},{"bike_id":"809a9e4a-1645-43e2-bd0d-212e11ca3bd8","system_id":"levelo_inurba_marseille","lat":43.2993,"lon":5.37288,"is_reserved":false,"is_disabled":false,"rental_uris":{"android":"levelo://app?vid=809a9e4a-1645-43e2-bd0d-212e11ca3bd8","ios":"levelo://app?vid=809a9e4a-1645-43e2-bd0d-212e11ca3bd8"},"vehicle_type_id":"4","last_reported":1701796012,"current_range_meters":19200,"station_id":"","pricing_plan_id":"free"},{"bike_id":"613bfecc-7144-4727-a2ef-1059bc02b985","system_id":"levelo_inurba_marseille","lat":43.305364,"lon":5.384119,"is_reserved":false,"is_disabled":false,"rental_uris":{"android":"levelo://app?vid=613bfecc-7144-4727-a2ef-1059bc02b985","ios":"levelo://app?vid=613bfecc-7144-4727-a2ef-1059bc02b985"},"vehicle_type_id":"4","last_reported":1701796012,"current_range_meters":1600,"station_id":"ce4bgg92rcd13ifvqb30","pricing_plan_id":"free"},{"bike_id":"b4879a0b-f87c-476b-ba9f-57011b8686d8","system_id":"levelo_inurba_marseille","lat":43.298218,"lon":5.374416,"is_reserved":false,"is_disabled":false,"rental_uris":{"android":"levelo://app?vid=b4879a0b-f87c-476b-ba9f-57011b8686d8","ios":"levelo://app?vid=b4879a0b-f87c-476b-ba9f-57011b8686d8"},"vehicle_type_id":"4","last_reported":1701796012,"current_range_meters":16800,"station_id":"","pricing_plan_id":"free"},{"bike_id":"eaa0e7e7-2390-47fa-909b-7b240952cbef","system_id":"levelo_inurba_marseille","lat":43.316538,"lon":5.38954,"is_reserved":false,"is_disabled":false,"rental_uris":{"android":"levelo://app?vid=eaa0e7e7-2390-47fa-909b-7b240952cbef","ios":"levelo://app?vid=eaa0e7e7-2390-47fa-909b-7b240952cbef"},"vehicle_type_id":"4","last_reported":1701796012,"current_range_meters":12400,"station_id":"","pricing_plan_id":"free"},{"bike_id":"390ce454-35de-4c2a-bf9c-0ba60f1ce790","system_id":"levelo_inurba_marseille","lat":43.31704,"lon":5.38962,"is_reserved":false,"is_disabled":false,"rental_uris":{"android":"levelo://app?vid=390ce454-35de-4c2a-bf9c-0ba60f1ce790","ios":"levelo://app?vid=390ce454-35de-4c2a-bf9c-0ba60f1ce790"},"vehicle_type_id":"4","last_reported":1701796012,"current_range_meters":30400,"station_id":"","pricing_plan_id":"free"},{"bike_id":"f0ace778-8510-4b66-9383-5d46ff94701c","system_id":"levelo_inurba_marseille","lat":43.299028,"lon":5.381509,"is_reserved":false,"is_disabled":false,"rental_uris":{"android":"levelo://app?vid=f0ace778-8510-4b66-9383-5d46ff94701c","ios":"levelo://app?vid=f0ace778-8510-4b66-9383-5d46ff94701c"},"vehicle_type_id":"4","last_reported":1701796012,"current_range_meters":2800,"station_id":"ce4bgj12rcd13ifvqbc0","pricing_plan_id":"free"},{"bike_id":"a848a516-edf5-4de1-bd8b-6fa090643430","system_id":"levelo_inurba_marseille","lat":43.3095,"lon":5.3903,"is_reserved":false,"is_disabled":false,"rental_uris":{"android":"levelo://app?vid=a848a516-edf5-4de1-bd8b-6fa090643430","ios":"levelo://app?vid=a848a516-edf5-4de1-bd8b-6fa090643430"},"vehicle_type_id":"4","last_reported":1701796012,"current_range_meters":0,"station_id":"ce4bgup2rcd13ifvqco0","pricing_plan_id":"free"},{"bike_id":"5797e6ff-4d80-43da-ba9d-51a3f3bd17c9","system_id":"levelo_inurba_marseille","lat":43.298037,"lon":5.381066,"is_reserved":false,"is_disabled":false,"rental_uris":{"android":"levelo://app?vid=5797e6ff-4d80-43da-ba9d-51a3f3bd17c9","ios":"levelo://app?vid=5797e6ff-4d80-43da-ba9d-51a3f3bd17c9"},"vehicle_type_id":"4","last_reported":1701796012,"current_range_meters":0,"station_id":"ce4bgip2rcd13ifvqbb0","pricing_plan_id":"free"},{"bike_id":"4b8a60a1-8cd9-45cd-85d7-b99c5b261a11","system_id":"levelo_inurba_marseille","lat":43.299724,"lon":5.384848,"is_reserved":false,"is_disabled":false,"rental_uris":{"android":"levelo://app?vid=4b8a60a1-8cd9-45cd-85d7-b99c5b261a11","ios":"levelo://app?vid=4b8a60a1-8cd9-45cd-85d7-b99c5b261a11"},"vehicle_type_id":"4","last_reported":1701796012,"current_range_meters":16400,"station_id":"ce4bgj92rcd13ifvqbd0","pricing_plan_id":"free"},{"bike_id":"b109c11e-e355-4842-a457-705d57f5f634","system_id":"levelo_inurba_marseille","lat":43.32367,"lon":5.388836,"is_reserved":false,"is_disabled":false,"rental_uris":{"android":"levelo://app?vid=b109c11e-e355-4842-a457-705d57f5f634","ios":"levelo://app?vid=b109c11e-e355-4842-a457-705d57f5f634"},"vehicle_type_id":"4","last_reported":1701796012,"current_range_meters":18000,"station_id":"ce4bhqp2rcd13ifvqhog","pricing_plan_id":"free"},{"bike_id":"abe84497-fb17-455f-b511-71d1ec1fd3ce","system_id":"levelo_inurba_marseille","lat":43.32367,"lon":5.388836,"is_reserved":false,"is_disabled":false,"rental_uris":{"android":"levelo://app?vid=abe84497-fb17-455f-b511-71d1ec1fd3ce","ios":"levelo://app?vid=abe84497-fb17-455f-b511-71d1ec1fd3ce"},"vehicle_type_id":"4","last_reported":1701796012,"current_range_meters":8800,"station_id":"ce4bhqp2rcd13ifvqhog","pricing_plan_id":"free"},{"bike_id":"c3643ac2-cdd1-4bd1-99e6-62e33012d634","system_id":"levelo_inurba_marseille","lat":43.32367,"lon":5.388836,"is_reserved":false,"is_disabled":false,"rental_uris":{"android":"levelo://app?vid=c3643ac2-cdd1-4bd1-99e6-62e33012d634","ios":"levelo://app?vid=c3643ac2-cdd1-4bd1-99e6-62e33012d634"},"vehicle_type_id":"4","last_reported":1701796012,"current_range_meters":11600,"station_id":"ce4bhqp2rcd13ifvqhog","pricing_plan_id":"free"},{"bike_id":"969c774f-219a-455d-a7e3-7d5572508857","system_id":"levelo_inurba_marseille","lat":43.32368,"lon":5.38886,"is_reserved":false,"is_disabled":false,"rental_uris":{"android":"levelo://app?vid=969c774f-219a-455d-a7e3-7d5572508857","ios":"levelo://app?vid=969c774f-219a-455d-a7e3-7d5572508857"},"vehicle_type_id":"4","last_reported":1701796012,"current_range_meters":18800,"station_id":"ce4bhqp2rcd13ifvqhog","pricing_plan_id":"free"},{"bike_id":"4010a8ad-85e0-48be-acfe-31dae8960622","system_id":"levelo_inurba_marseille","lat":43.293009,"lon":5.374584,"is_reserved":false,"is_disabled":false,"rental_uris":{"android":"levelo://app?vid=4010a8ad-85e0-48be-acfe-31dae8960622","ios":"levelo://app?vid=4010a8ad-85e0-48be-acfe-31dae8960622"},"vehicle_type_id":"4","last_reported":1701796012,"current_range_meters":20800,"station_id":"ce4bgi12rcd13ifvqb70","pricing_plan_id":"free"},{"bike_id":"5be61a5b-92a6-4b73-96f8-285b919148f7","system_id":"levelo_inurba_marseille","lat":43.293009,"lon":5.374584,"is_reserved":false,"is_disabled":false,"rental_uris":{"android":"levelo://app?vid=5be61a5b-92a6-4b73-96f8-285b919148f7","ios":"levelo://app?vid=5be61a5b-92a6-4b73-96f8-285b919148f7"},"vehicle_type_id":"4","last_reported":1701796012,"current_range_meters":19600,"station_id":"ce4bgi12rcd13ifvqb70","pricing_plan_id":"free"},{"bike_id":"019eb27b-93b7-40a4-905a-7d7ae5248977","system_id":"levelo_inurba_marseille","lat":43.293009,"lon":5.374584,"is_reserved":false,"is_disabled":false,"rental_uris":{"android":"levelo://app?vid=019eb27b-93b7-40a4-905a-7d7ae5248977","ios":"levelo://app?vid=019eb27b-93b7-40a4-905a-7d7ae5248977"},"vehicle_type_id":"4","last_reported":1701796012,"current_range_meters":13200,"station_id":"ce4bgi12rcd13ifvqb70","pricing_plan_id":"free"},{"bike_id":"429609f0-0487-44d9-aa09-2777aa85fc63","system_id":"levelo_inurba_marseille","lat":43.305994,"lon":5.393687,"is_reserved":false,"is_disabled":false,"rental_uris":{"android":"levelo://app?vid=429609f0-0487-44d9-aa09-2777aa85fc63","ios":"levelo://app?vid=429609f0-0487-44d9-aa09-2777aa85fc63"},"vehicle_type_id":"4","last_reported":1701796012,"current_range_meters":3600,"station_id":"ce4bh0p2rcd13ifvqd80","pricing_plan_id":"free"},{"bike_id":"bfd44d75-1244-4340-9723-7631ef02968b","system_id":"levelo_inurba_marseille","lat":43.300852,"lon":5.390859,"is_reserved":false,"is_disabled":false,"rental_uris":{"android":"levelo://app?vid=bfd44d75-1244-4340-9723-7631ef02968b","ios":"levelo://app?vid=bfd44d75-1244-4340-9723-7631ef02968b"},"vehicle_type_id":"4","last_reported":1701796012,"current_range_meters":12800,"station_id":"ce4bh192rcd13ifvqdb0","pricing_plan_id":"free"},{"bike_id":"78ce1688-b9fd-431a-9c9c-b749f9d5f30a","system_id":"levelo_inurba_marseille","lat":43.29881,"lon":5.38908,"is_reserved":false,"is_disabled":false,"rental_uris":{"android":"levelo://app?vid=78ce1688-b9fd-431a-9c9c-b749f9d5f30a","ios":"levelo://app?vid=78ce1688-b9fd-431a-9c9c-b749f9d5f30a"},"vehicle_type_id":"4","last_reported":1701796012,"current_range_meters":18000,"station_id":"ce4bh392rcd13ifvqdl0","pricing_plan_id":"free"},{"bike_id":"d69ca176-c0f3-4879-ab51-2b3b45a9a669","system_id":"levelo_inurba_marseille","lat":43.298764,"lon":5.388973,"is_reserved":false,"is_disabled":false,"rental_uris":{"android":"levelo://app?vid=d69ca176-c0f3-4879-ab51-2b3b45a9a669","ios":"levelo://app?vid=d69ca176-c0f3-4879-ab51-2b3b45a9a669"},"vehicle_type_id":"4","last_reported":1701796012,"current_range_meters":16000,"station_id":"ce4bh392rcd13ifvqdl0","pricing_plan_id":"free"},{"bike_id":"fbd491d6-3aee-4c71-9e0b-339e90057561","system_id":"levelo_inurba_marseille","lat":43.291671,"lon":5.371575,"is_reserved":false,"is_disabled":false,"rental_uris":{"android":"levelo://app?vid=fbd491d6-3aee-4c71-9e0b-339e90057561","ios":"levelo://app?vid=fbd491d6-3aee-4c71-9e0b-339e90057561"},"vehicle_type_id":"4","last_reported":1701796012,"current_range_meters":17200,"station_id":"ce4bha92rcd13ifvqeh0","pricing_plan_id":"free"},{"bike_id":"f218baac-adfe-4bb1-b279-b4a35b961b7c","system_id":"levelo_inurba_marseille","lat":43.305994,"lon":5.393687,"is_reserved":false,"is_disabled":false,"rental_uris":{"android":"levelo://app?vid=f218baac-adfe-4bb1-b279-b4a35b961b7c","ios":"levelo://app?vid=f218baac-adfe-4bb1-b279-b4a35b961b7c"},"vehicle_type_id":"4","last_reported":1701796012,"current_range_meters":11600,"station_id":"ce4bh0p2rcd13ifvqd80","pricing_plan_id":"free"},{"bike_id":"8146f9b5-b15a-4a68-934b-8d7fdd7ab4e5","system_id":"levelo_inurba_marseille","lat":43.313291,"lon":5.396838,"is_reserved":false,"is_disabled":false,"rental_uris":{"android":"levelo://app?vid=8146f9b5-b15a-4a68-934b-8d7fdd7ab4e5","ios":"levelo://app?vid=8146f9b5-b15a-4a68-934b-8d7fdd7ab4e5"},"vehicle_type_id":"4","last_reported":1701796012,"current_range_meters":21200,"station_id":"ce4bgvp2rcd13ifvqcu0","pricing_plan_id":"free"},{"bike_id":"aa0bce23-3cfb-42a9-9753-8729fc0be799","system_id":"levelo_inurba_marseille","lat":43.29529,"lon":5.385581,"is_reserved":false,"is_disabled":false,"rental_uris":{"android":"levelo://app?vid=aa0bce23-3cfb-42a9-9753-8729fc0be799","ios":"levelo://app?vid=aa0bce23-3cfb-42a9-9753-8729fc0be799"},"vehicle_type_id":"4","last_reported":1701796012,"current_range_meters":2000,"station_id":"ce4bgih2rcd13ifvqba0","pricing_plan_id":"free"},{"bike_id":"a3ae9465-6ae1-4aac-9900-2619a168c722","system_id":"levelo_inurba_marseille","lat":43.290779,"lon":5.371482,"is_reserved":false,"is_disabled":false,"rental_uris":{"android":"levelo://app?vid=a3ae9465-6ae1-4aac-9900-2619a168c722","ios":"levelo://app?vid=a3ae9465-6ae1-4aac-9900-2619a168c722"},"vehicle_type_id":"4","last_reported":1701796012,"current_range_meters":26400,"station_id":"ce4bh5p2rcd13ifvqe4g","pricing_plan_id":"free"},{"bike_id":"d474c752-8114-4b77-a711-ca6b0ffd7da3","system_id":"levelo_inurba_marseille","lat":43.290779,"lon":5.371482,"is_reserved":false,"is_disabled":false,"rental_uris":{"android":"levelo://app?vid=d474c752-8114-4b77-a711-ca6b0ffd7da3","ios":"levelo://app?vid=d474c752-8114-4b77-a711-ca6b0ffd7da3"},"vehicle_type_id":"4","last_reported":1701796012,"current_range_meters":10000,"station_id":"ce4bh5p2rcd13ifvqe4g","pricing_plan_id":"free"},{"bike_id":"972163b3-7de1-471f-892b-4c3a73ffe0fd","system_id":"levelo_inurba_marseille","lat":43.32527,"lon":5.39393,"is_reserved":false,"is_disabled":false,"rental_uris":{"android":"levelo://app?vid=972163b3-7de1-471f-892b-4c3a73ffe0fd","ios":"levelo://app?vid=972163b3-7de1-471f-892b-4c3a73ffe0fd"},"vehicle_type_id":"4","last_reported":1701796012,"current_range_meters":17600,"station_id":"","pricing_plan_id":"free"},{"bike_id":"4b1cec11-26f9-4985-92d5-c4a2fafda4a5","system_id":"levelo_inurba_marseille","lat":43.294162,"lon":5.386292,"is_reserved":false,"is_disabled":false,"rental_uris":{"android":"levelo://app?vid=4b1cec11-26f9-4985-92d5-c4a2fafda4a5","ios":"levelo://app?vid=4b1cec11-26f9-4985-92d5-c4a2fafda4a5"},"vehicle_type_id":"4","last_reported":1701796012,"current_range_meters":6400,"station_id":"ce4bh2h2rcd13ifvqdh0","pricing_plan_id":"free"},{"bike_id":"ab20a735-ae29-4a5d-8e9a-c33f70c1ca12","system_id":"levelo_inurba_marseille","lat":43.289184,"lon":5.366408,"is_reserved":false,"is_disabled":false,"rental_uris":{"android":"levelo://app?vid=ab20a735-ae29-4a5d-8e9a-c33f70c1ca12","ios":"levelo://app?vid=ab20a735-ae29-4a5d-8e9a-c33f70c1ca12"},"vehicle_type_id":"4","last_reported":1701796012,"current_range_meters":21200,"station_id":"ce4bhap2rcd13ifvqek0","pricing_plan_id":"free"},{"bike_id":"ef643588-093a-4561-b1fb-df0dd1acb0a4","system_id":"levelo_inurba_marseille","lat":43.304296,"lon":5.397513,"is_reserved":false,"is_disabled":false,"rental_uris":{"android":"levelo://app?vid=ef643588-093a-4561-b1fb-df0dd1acb0a4","ios":"levelo://app?vid=ef643588-093a-4561-b1fb-df0dd1acb0a4"},"vehicle_type_id":"4","last_reported":1701796012,"current_range_meters":0,"station_id":"ce4bh092rcd13ifvqd20","pricing_plan_id":"free"},{"bike_id":"3ed78a9e-1d22-46b9-977a-44f38d66a860","system_id":"levelo_inurba_marseille","lat":43.330442,"lon":5.389148,"is_reserved":false,"is_disabled":false,"rental_uris":{"android":"levelo://app?vid=3ed78a9e-1d22-46b9-977a-44f38d66a860","ios":"levelo://app?vid=3ed78a9e-1d22-46b9-977a-44f38d66a860"},"vehicle_type_id":"4","last_reported":1701796012,"current_range_meters":21600,"station_id":"ce4bhr92rcd13ifvqhrg","pricing_plan_id":"free"},{"bike_id":"f68e2c8b-de08-4ad7-b342-74483183b5be","system_id":"levelo_inurba_marseille","lat":43.330353,"lon":5.38926,"is_reserved":false,"is_disabled":false,"rental_uris":{"android":"levelo://app?vid=f68e2c8b-de08-4ad7-b342-74483183b5be","ios":"levelo://app?vid=f68e2c8b-de08-4ad7-b342-74483183b5be"},"vehicle_type_id":"4","last_reported":1701796012,"current_range_meters":30000,"station_id":"ce4bhr92rcd13ifvqhrg","pricing_plan_id":"free"},{"bike_id":"8ca36f68-4e86-4918-ac42-18616e1ddee0","system_id":"levelo_inurba_marseille","lat":43.290103,"lon":5.356114,"is_reserved":false,"is_disabled":false,"rental_uris":{"android":"levelo://app?vid=8ca36f68-4e86-4918-ac42-18616e1ddee0","ios":"levelo://app?vid=8ca36f68-4e86-4918-ac42-18616e1ddee0"},"vehicle_type_id":"4","last_reported":1701796012,"current_range_meters":18000,"station_id":"ce4bhb92rcd13ifvqen0","pricing_plan_id":"free"},{"bike_id":"46dd305c-7b3f-4d87-acc4-c158be163a86","system_id":"levelo_inurba_marseille","lat":43.290995,"lon":5.381361,"is_reserved":false,"is_disabled":false,"rental_uris":{"android":"levelo://app?vid=46dd305c-7b3f-4d87-acc4-c158be163a86","ios":"levelo://app?vid=46dd305c-7b3f-4d87-acc4-c158be163a86"},"vehicle_type_id":"4","last_reported":1701796012,"current_range_meters":30800,"station_id":"ce4bh512rcd13ifvqe2g","pricing_plan_id":"free"},{"bike_id":"d7d4a842-8d35-4b72-bd6c-34883f80a88f","system_id":"levelo_inurba_marseille","lat":43.290104,"lon":5.356111,"is_reserved":false,"is_disabled":false,"rental_uris":{"android":"levelo://app?vid=d7d4a842-8d35-4b72-bd6c-34883f80a88f","ios":"levelo://app?vid=d7d4a842-8d35-4b72-bd6c-34883f80a88f"},"vehicle_type_id":"4","last_reported":1701796012,"current_range_meters":19600,"station_id":"ce4bhb92rcd13ifvqen0","pricing_plan_id":"free"},{"bike_id":"22e73c92-0848-4b89-8c40-80e40da9cf88","system_id":"levelo_inurba_marseille","lat":43.290995,"lon":5.381361,"is_reserved":false,"is_disabled":false,"rental_uris":{"android":"levelo://app?vid=22e73c92-0848-4b89-8c40-80e40da9cf88","ios":"levelo://app?vid=22e73c92-0848-4b89-8c40-80e40da9cf88"},"vehicle_type_id":"4","last_reported":1701796012,"current_range_meters":22000,"station_id":"ce4bh512rcd13ifvqe2g","pricing_plan_id":"free"},{"bike_id":"e59b4899-10b3-4d52-9b84-6d7ed0b6d274","system_id":"levelo_inurba_marseille","lat":43.289743,"lon":5.378304,"is_reserved":false,"is_disabled":false,"rental_uris":{"android":"levelo://app?vid=e59b4899-10b3-4d52-9b84-6d7ed0b6d274","ios":"levelo://app?vid=e59b4899-10b3-4d52-9b84-6d7ed0b6d274"},"vehicle_type_id":"4","last_reported":1701796012,"current_range_meters":14400,"station_id":"ce4bh9p2rcd13ifvqed0","pricing_plan_id":"free"},{"bike_id":"b7821505-ad32-4fab-986c-307fa03010d0","system_id":"levelo_inurba_marseille","lat":43.29779,"lon":5.39337,"is_reserved":false,"is_disabled":false,"rental_uris":{"android":"levelo://app?vid=b7821505-ad32-4fab-986c-307fa03010d0","ios":"levelo://app?vid=b7821505-ad32-4fab-986c-307fa03010d0"},"vehicle_type_id":"4","last_reported":1701796012,"current_range_meters":25200,"station_id":"chh1huq6cuj3fo74tm60","pricing_plan_id":"free"},{"bike_id":"425a8d4e-450a-43a4-b3a9-4f2158072fbc","system_id":"levelo_inurba_marseille","lat":43.28852,"lon":5.35854,"is_reserved":false,"is_disabled":false,"rental_uris":{"android":"levelo://app?vid=425a8d4e-450a-43a4-b3a9-4f2158072fbc","ios":"levelo://app?vid=425a8d4e-450a-43a4-b3a9-4f2158072fbc"},"vehicle_type_id":"4","last_reported":1701796012,"current_range_meters":24000,"station_id":"ce4bhb12rcd13ifvqem0","pricing_plan_id":"free"},{"bike_id":"d9f6bc08-0ebf-471c-9a2a-c0e243a9aad9","system_id":"levelo_inurba_marseille","lat":43.28856,"lon":5.358371,"is_reserved":false,"is_disabled":false,"rental_uris":{"android":"levelo://app?vid=d9f6bc08-0ebf-471c-9a2a-c0e243a9aad9","ios":"levelo://app?vid=d9f6bc08-0ebf-471c-9a2a-c0e243a9aad9"},"vehicle_type_id":"4","last_reported":1701796012,"current_range_meters":15600,"station_id":"ce4bhb12rcd13ifvqem0","pricing_plan_id":"free"},{"bike_id":"61e94894-252e-4e6e-9735-b09eceabfad5","system_id":"levelo_inurba_marseille","lat":43.33744,"lon":5.3747,"is_reserved":false,"is_disabled":false,"rental_uris":{"android":"levelo://app?vid=61e94894-252e-4e6e-9735-b09eceabfad5","ios":"levelo://app?vid=61e94894-252e-4e6e-9735-b09eceabfad5"},"vehicle_type_id":"4","last_reported":1701796012,"current_range_meters":28800,"station_id":"","pricing_plan_id":"free"},{"bike_id":"2fbea006-0d22-445c-bfc1-d379dcddc1c1","system_id":"levelo_inurba_marseille","lat":43.337444,"lon":5.374696,"is_reserved":false,"is_disabled":false,"rental_uris":{"android":"levelo://app?vid=2fbea006-0d22-445c-bfc1-d379dcddc1c1","ios":"levelo://app?vid=2fbea006-0d22-445c-bfc1-d379dcddc1c1"},"vehicle_type_id":"4","last_reported":1701796012,"current_range_meters":28400,"station_id":"","pricing_plan_id":"free"},{"bike_id":"a01a8d62-3f82-430f-8cbf-bf5e5048b82c","system_id":"levelo_inurba_marseille","lat":43.337471,"lon":5.374573,"is_reserved":false,"is_disabled":false,"rental_uris":{"android":"levelo://app?vid=a01a8d62-3f82-430f-8cbf-bf5e5048b82c","ios":"levelo://app?vid=a01a8d62-3f82-430f-8cbf-bf5e5048b82c"},"vehicle_type_id":"4","last_reported":1701796012,"current_range_meters":24400,"station_id":"","pricing_plan_id":"free"},{"bike_id":"b1da507f-59bc-4bfa-9de7-dd18b0d37739","system_id":"levelo_inurba_marseille","lat":43.337527,"lon":5.374597,"is_reserved":false,"is_disabled":false,"rental_uris":{"android":"levelo://app?vid=b1da507f-59bc-4bfa-9de7-dd18b0d37739","ios":"levelo://app?vid=b1da507f-59bc-4bfa-9de7-dd18b0d37739"},"vehicle_type_id":"4","last_reported":1701796012,"current_range_meters":30800,"station_id":"","pricing_plan_id":"free"},{"bike_id":"2c0bfd2f-173a-4baf-b2df-0133adbb7ed0","system_id":"levelo_inurba_marseille","lat":43.337577,"lon":5.374555,"is_reserved":false,"is_disabled":false,"rental_uris":{"android":"levelo://app?vid=2c0bfd2f-173a-4baf-b2df-0133adbb7ed0","ios":"levelo://app?vid=2c0bfd2f-173a-4baf-b2df-0133adbb7ed0"},"vehicle_type_id":"4","last_reported":1701796012,"current_range_meters":28400,"station_id":"","pricing_plan_id":"free"},{"bike_id":"327f071a-3258-4852-becf-fb22d34b8170","system_id":"levelo_inurba_marseille","lat":43.28727,"lon":5.36078,"is_reserved":false,"is_disabled":false,"rental_uris":{"android":"levelo://app?vid=327f071a-3258-4852-becf-fb22d34b8170","ios":"levelo://app?vid=327f071a-3258-4852-becf-fb22d34b8170"},"vehicle_type_id":"4","last_reported":1701796012,"current_range_meters":26400,"station_id":"cki0cbj6b192h4jlfktg","pricing_plan_id":"free"},{"bike_id":"b0c0b8b2-6de1-46c8-a308-000282710503","system_id":"levelo_inurba_marseille","lat":43.289307,"lon":5.38406,"is_reserved":false,"is_disabled":false,"rental_uris":{"android":"levelo://app?vid=b0c0b8b2-6de1-46c8-a308-000282710503","ios":"levelo://app?vid=b0c0b8b2-6de1-46c8-a308-000282710503"},"vehicle_type_id":"4","last_reported":1701796012,"current_range_meters":7600,"station_id":"ce4bh612rcd13ifvqe6g","pricing_plan_id":"free"},{"bike_id":"642e6834-89b3-4d4a-88c5-396381cc00fa","system_id":"levelo_inurba_marseille","lat":43.287184,"lon":5.37937,"is_reserved":false,"is_disabled":false,"rental_uris":{"android":"levelo://app?vid=642e6834-89b3-4d4a-88c5-396381cc00fa","ios":"levelo://app?vid=642e6834-89b3-4d4a-88c5-396381cc00fa"},"vehicle_type_id":"4","last_reported":1701796012,"current_range_meters":13600,"station_id":"ce4bh9p2rcd13ifvqec0","pricing_plan_id":"free"},{"bike_id":"383fefec-aba2-4ed7-b60f-92294683ce2e","system_id":"levelo_inurba_marseille","lat":43.29198,"lon":5.39322,"is_reserved":false,"is_disabled":false,"rental_uris":{"android":"levelo://app?vid=383fefec-aba2-4ed7-b60f-92294683ce2e","ios":"levelo://app?vid=383fefec-aba2-4ed7-b60f-92294683ce2e"},"vehicle_type_id":"4","last_reported":1701796012,"current_range_meters":0,"station_id":"ce4bh192rcd13ifvqdd0","pricing_plan_id":"free"},{"bike_id":"f4c56948-9ee8-44c1-94ce-b772991cc42a","system_id":"levelo_inurba_marseille","lat":43.291994,"lon":5.392907,"is_reserved":false,"is_disabled":false,"rental_uris":{"android":"levelo://app?vid=f4c56948-9ee8-44c1-94ce-b772991cc42a","ios":"levelo://app?vid=f4c56948-9ee8-44c1-94ce-b772991cc42a"},"vehicle_type_id":"4","last_reported":1701796012,"current_range_meters":29200,"station_id":"ce4bh192rcd13ifvqdd0","pricing_plan_id":"free"},{"bike_id":"616de673-6899-473d-9b42-af3026e97c7a","system_id":"levelo_inurba_marseille","lat":43.291994,"lon":5.392907,"is_reserved":false,"is_disabled":false,"rental_uris":{"android":"levelo://app?vid=616de673-6899-473d-9b42-af3026e97c7a","ios":"levelo://app?vid=616de673-6899-473d-9b42-af3026e97c7a"},"vehicle_type_id":"4","last_reported":1701796012,"current_range_meters":5600,"station_id":"ce4bh192rcd13ifvqdd0","pricing_plan_id":"free"},{"bike_id":"986fe882-05f0-4b67-a893-e9872bb1ca99","system_id":"levelo_inurba_marseille","lat":43.291994,"lon":5.392907,"is_reserved":false,"is_disabled":false,"rental_uris":{"android":"levelo://app?vid=986fe882-05f0-4b67-a893-e9872bb1ca99","ios":"levelo://app?vid=986fe882-05f0-4b67-a893-e9872bb1ca99"},"vehicle_type_id":"4","last_reported":1701796012,"current_range_meters":24400,"station_id":"ce4bh192rcd13ifvqdd0","pricing_plan_id":"free"},{"bike_id":"d931887b-ef0e-422f-a7bf-23a18709d079","system_id":"levelo_inurba_marseille","lat":43.284538,"lon":5.358657,"is_reserved":false,"is_disabled":false,"rental_uris":{"android":"levelo://app?vid=d931887b-ef0e-422f-a7bf-23a18709d079","ios":"levelo://app?vid=d931887b-ef0e-422f-a7bf-23a18709d079"},"vehicle_type_id":"4","last_reported":1701796012,"current_range_meters":2000,"station_id":"ce4bhah2rcd13ifvqei0","pricing_plan_id":"free"},{"bike_id":"296b16e6-6914-44c4-a4af-5e200e848f2d","system_id":"levelo_inurba_marseille","lat":43.294314,"lon":5.397498,"is_reserved":false,"is_disabled":false,"rental_uris":{"android":"levelo://app?vid=296b16e6-6914-44c4-a4af-5e200e848f2d","ios":"levelo://app?vid=296b16e6-6914-44c4-a4af-5e200e848f2d"},"vehicle_type_id":"4","last_reported":1701796012,"current_range_meters":26800,"station_id":"ce4bh3h2rcd13ifvqdo0","pricing_plan_id":"free"},{"bike_id":"cf3c8e31-8ed0-4028-96cf-dc8bc52965d3","system_id":"levelo_inurba_marseille","lat":43.285848,"lon":5.350787,"is_reserved":false,"is_disabled":false,"rental_uris":{"android":"levelo://app?vid=cf3c8e31-8ed0-4028-96cf-dc8bc52965d3","ios":"levelo://app?vid=cf3c8e31-8ed0-4028-96cf-dc8bc52965d3"},"vehicle_type_id":"4","last_reported":1701796012,"current_range_meters":15200,"station_id":"ce4bhch2rcd13ifvqeug","pricing_plan_id":"free"},{"bike_id":"3764c427-6351-4ee6-b700-6ae1b44ea201","system_id":"levelo_inurba_marseille","lat":43.285848,"lon":5.350787,"is_reserved":false,"is_disabled":false,"rental_uris":{"android":"levelo://app?vid=3764c427-6351-4ee6-b700-6ae1b44ea201","ios":"levelo://app?vid=3764c427-6351-4ee6-b700-6ae1b44ea201"},"vehicle_type_id":"4","last_reported":1701796012,"current_range_meters":8000,"station_id":"ce4bhch2rcd13ifvqeug","pricing_plan_id":"free"},{"bike_id":"6e9a6edc-645d-4b00-8ea1-7a83c7e6c12a","system_id":"levelo_inurba_marseille","lat":43.283998,"lon":5.375062,"is_reserved":false,"is_disabled":false,"rental_uris":{"android":"levelo://app?vid=6e9a6edc-645d-4b00-8ea1-7a83c7e6c12a","ios":"levelo://app?vid=6e9a6edc-645d-4b00-8ea1-7a83c7e6c12a"},"vehicle_type_id":"4","last_reported":1701796012,"current_range_meters":31600,"station_id":"ce4bh412rcd13ifvqds0","pricing_plan_id":"free"},{"bike_id":"43ea8f0c-4a83-4ce5-9c4c-ffe30f5ac7b2","system_id":"levelo_inurba_marseille","lat":43.295713,"lon":5.399639,"is_reserved":false,"is_disabled":false,"rental_uris":{"android":"levelo://app?vid=43ea8f0c-4a83-4ce5-9c4c-ffe30f5ac7b2","ios":"levelo://app?vid=43ea8f0c-4a83-4ce5-9c4c-ffe30f5ac7b2"},"vehicle_type_id":"4","last_reported":1701796012,"current_range_meters":12800,"station_id":"ce4bh312rcd13ifvqdj0","pricing_plan_id":"free"},{"bike_id":"54c1fac5-158a-4115-9788-6f1f1cb37cac","system_id":"levelo_inurba_marseille","lat":43.295713,"lon":5.399639,"is_reserved":false,"is_disabled":false,"rental_uris":{"android":"levelo://app?vid=54c1fac5-158a-4115-9788-6f1f1cb37cac","ios":"levelo://app?vid=54c1fac5-158a-4115-9788-6f1f1cb37cac"},"vehicle_type_id":"4","last_reported":1701796012,"current_range_meters":21600,"station_id":"ce4bh312rcd13ifvqdj0","pricing_plan_id":"free"},{"bike_id":"fe9aba23-218a-412c-946e-a1dfc543a85b","system_id":"levelo_inurba_marseille","lat":43.295713,"lon":5.399639,"is_reserved":false,"is_disabled":false,"rental_uris":{"android":"levelo://app?vid=fe9aba23-218a-412c-946e-a1dfc543a85b","ios":"levelo://app?vid=fe9aba23-218a-412c-946e-a1dfc543a85b"},"vehicle_type_id":"4","last_reported":1701796012,"current_range_meters":9600,"station_id":"ce4bh312rcd13ifvqdj0","pricing_plan_id":"free"},{"bike_id":"002dc5ea-6f8b-41fa-bd72-9a65e040a039","system_id":"levelo_inurba_marseille","lat":43.283998,"lon":5.375062,"is_reserved":false,"is_disabled":false,"rental_uris":{"android":"levelo://app?vid=002dc5ea-6f8b-41fa-bd72-9a65e040a039","ios":"levelo://app?vid=002dc5ea-6f8b-41fa-bd72-9a65e040a039"},"vehicle_type_id":"4","last_reported":1701796012,"current_range_meters":22400,"station_id":"ce4bh412rcd13ifvqds0","pricing_plan_id":"free"},{"bike_id":"196b2a5f-14a8-4a44-91b1-eed21e34e508","system_id":"levelo_inurba_marseille","lat":43.28748,"lon":5.38905,"is_reserved":false,"is_disabled":false,"rental_uris":{"android":"levelo://app?vid=196b2a5f-14a8-4a44-91b1-eed21e34e508","ios":"levelo://app?vid=196b2a5f-14a8-4a44-91b1-eed21e34e508"},"vehicle_type_id":"4","last_reported":1701796012,"current_range_meters":0,"station_id":"","pricing_plan_id":"free"},{"bike_id":"3112d83b-6f2a-4ef3-8373-f90714a3f157","system_id":"levelo_inurba_marseille","lat":43.3189,"lon":5.40733,"is_reserved":false,"is_disabled":false,"rental_uris":{"android":"levelo://app?vid=3112d83b-6f2a-4ef3-8373-f90714a3f157","ios":"levelo://app?vid=3112d83b-6f2a-4ef3-8373-f90714a3f157"},"vehicle_type_id":"4","last_reported":1701796012,"current_range_meters":0,"station_id":"ce4bhq12rcd13ifvqhig","pricing_plan_id":"free"},{"bike_id":"3734231e-d673-4404-b15d-d7a23ba8c854","system_id":"levelo_inurba_marseille","lat":43.28806,"lon":5.391477,"is_reserved":false,"is_disabled":false,"rental_uris":{"android":"levelo://app?vid=3734231e-d673-4404-b15d-d7a23ba8c854","ios":"levelo://app?vid=3734231e-d673-4404-b15d-d7a23ba8c854"},"vehicle_type_id":"4","last_reported":1701796012,"current_range_meters":0,"station_id":"","pricing_plan_id":"free"},{"bike_id":"58deed64-6d9e-4363-abf2-f79687d5f29b","system_id":"levelo_inurba_marseille","lat":43.289307,"lon":5.38406,"is_reserved":false,"is_disabled":false,"rental_uris":{"android":"levelo://app?vid=58deed64-6d9e-4363-abf2-f79687d5f29b","ios":"levelo://app?vid=58deed64-6d9e-4363-abf2-f79687d5f29b"},"vehicle_type_id":"4","last_reported":1701796012,"current_range_meters":26800,"station_id":"ce4bh612rcd13ifvqe6g","pricing_plan_id":"free"},{"bike_id":"9fc316fe-8c58-456f-a54c-5c9f861533c8","system_id":"levelo_inurba_marseille","lat":43.323464,"lon":5.406297,"is_reserved":false,"is_disabled":false,"rental_uris":{"android":"levelo://app?vid=9fc316fe-8c58-456f-a54c-5c9f861533c8","ios":"levelo://app?vid=9fc316fe-8c58-456f-a54c-5c9f861533c8"},"vehicle_type_id":"4","last_reported":1701796012,"current_range_meters":24000,"station_id":"ce4bhq92rcd13ifvqhjg","pricing_plan_id":"free"},{"bike_id":"5d4625ac-0624-458e-9546-04be29bfe079","system_id":"levelo_inurba_marseille","lat":43.297946,"lon":5.404063,"is_reserved":false,"is_disabled":false,"rental_uris":{"android":"levelo://app?vid=5d4625ac-0624-458e-9546-04be29bfe079","ios":"levelo://app?vid=5d4625ac-0624-458e-9546-04be29bfe079"},"vehicle_type_id":"4","last_reported":1701796012,"current_range_meters":0,"station_id":"ce4bh112rcd13ifvqd90","pricing_plan_id":"free"},{"bike_id":"2083f45e-1cb7-4465-8d89-672b2b5d31f4","system_id":"levelo_inurba_marseille","lat":43.284214,"lon":5.349706,"is_reserved":false,"is_disabled":false,"rental_uris":{"android":"levelo://app?vid=2083f45e-1cb7-4465-8d89-672b2b5d31f4","ios":"levelo://app?vid=2083f45e-1cb7-4465-8d89-672b2b5d31f4"},"vehicle_type_id":"4","last_reported":1701796012,"current_range_meters":19600,"station_id":"ce4bhbh2rcd13ifvqepg","pricing_plan_id":"free"},{"bike_id":"ce4e8ace-e3e2-429d-af58-c851f7e0c065","system_id":"levelo_inurba_marseille","lat":43.292724,"lon":5.401131,"is_reserved":false,"is_disabled":false,"rental_uris":{"android":"levelo://app?vid=ce4e8ace-e3e2-429d-af58-c851f7e0c065","ios":"levelo://app?vid=ce4e8ace-e3e2-429d-af58-c851f7e0c065"},"vehicle_type_id":"4","last_reported":1701796012,"current_range_meters":17200,"station_id":"ce4bh312rcd13ifvqdk0","pricing_plan_id":"free"},{"bike_id":"8624d708-1901-4941-9703-198b948fe8eb","system_id":"levelo_inurba_marseille","lat":43.282744,"lon":5.350533,"is_reserved":false,"is_disabled":false,"rental_uris":{"android":"levelo://app?vid=8624d708-1901-4941-9703-198b948fe8eb","ios":"levelo://app?vid=8624d708-1901-4941-9703-198b948fe8eb"},"vehicle_type_id":"4","last_reported":1701796012,"current_range_meters":1600,"station_id":"ce4bhbp2rcd13ifvqerg","pricing_plan_id":"free"},{"bike_id":"d2545455-c627-480d-b85a-60cd38cce806","system_id":"levelo_inurba_marseille","lat":43.28039,"lon":5.369297,"is_reserved":false,"is_disabled":false,"rental_uris":{"android":"levelo://app?vid=d2545455-c627-480d-b85a-60cd38cce806","ios":"levelo://app?vid=d2545455-c627-480d-b85a-60cd38cce806"},"vehicle_type_id":"4","last_reported":1701796012,"current_range_meters":13200,"station_id":"ce4bha12rcd13ifvqef0","pricing_plan_id":"free"},{"bike_id":"0c8bd4b6-35fc-4273-9a73-20453ee194a3","system_id":"levelo_inurba_marseille","lat":43.281044,"lon":5.378308,"is_reserved":false,"is_disabled":false,"rental_uris":{"android":"levelo://app?vid=0c8bd4b6-35fc-4273-9a73-20453ee194a3","ios":"levelo://app?vid=0c8bd4b6-35fc-4273-9a73-20453ee194a3"},"vehicle_type_id":"4","last_reported":1701796012,"current_range_meters":19600,"station_id":"ce4bha12rcd13ifvqee0","pricing_plan_id":"free"},{"bike_id":"968abd91-345a-45ad-9716-8dcaaff9caca","system_id":"levelo_inurba_marseille","lat":43.281044,"lon":5.378308,"is_reserved":false,"is_disabled":false,"rental_uris":{"android":"levelo://app?vid=968abd91-345a-45ad-9716-8dcaaff9caca","ios":"levelo://app?vid=968abd91-345a-45ad-9716-8dcaaff9caca"},"vehicle_type_id":"4","last_reported":1701796012,"current_range_meters":22000,"station_id":"ce4bha12rcd13ifvqee0","pricing_plan_id":"free"},{"bike_id":"063affd8-5395-486a-b094-19982571ed08","system_id":"levelo_inurba_marseille","lat":43.28573,"lon":5.394992,"is_reserved":false,"is_disabled":false,"rental_uris":{"android":"levelo://app?vid=063affd8-5395-486a-b094-19982571ed08","ios":"levelo://app?vid=063affd8-5395-486a-b094-19982571ed08"},"vehicle_type_id":"4","last_reported":1701796012,"current_range_meters":14800,"station_id":"ce4bh292rcd13ifvqdg0","pricing_plan_id":"free"},{"bike_id":"e1e7f669-4983-44ce-85f1-65a269f1e61a","system_id":"levelo_inurba_marseille","lat":43.29156,"lon":5.40369,"is_reserved":false,"is_disabled":false,"rental_uris":{"android":"levelo://app?vid=e1e7f669-4983-44ce-85f1-65a269f1e61a","ios":"levelo://app?vid=e1e7f669-4983-44ce-85f1-65a269f1e61a"},"vehicle_type_id":"4","last_reported":1701796012,"current_range_meters":10800,"station_id":"","pricing_plan_id":"free"},{"bike_id":"d1d4f96c-9c2d-43ea-a8fc-c8e9f0752cea","system_id":"levelo_inurba_marseille","lat":43.304188,"lon":5.412904,"is_reserved":false,"is_disabled":false,"rental_uris":{"android":"levelo://app?vid=d1d4f96c-9c2d-43ea-a8fc-c8e9f0752cea","ios":"levelo://app?vid=d1d4f96c-9c2d-43ea-a8fc-c8e9f0752cea"},"vehicle_type_id":"4","last_reported":1701796012,"current_range_meters":2800,"station_id":"ce4bhop2rcd13ifvqh8g","pricing_plan_id":"free"},{"bike_id":"11974ead-8da0-4854-84ce-1258673507f1","system_id":"levelo_inurba_marseille","lat":43.278945,"lon":5.380195,"is_reserved":false,"is_disabled":false,"rental_uris":{"android":"levelo://app?vid=11974ead-8da0-4854-84ce-1258673507f1","ios":"levelo://app?vid=11974ead-8da0-4854-84ce-1258673507f1"},"vehicle_type_id":"4","last_reported":1701796012,"current_range_meters":19200,"station_id":"ce4bhf92rcd13ifvqf50","pricing_plan_id":"free"},{"bike_id":"f724e94a-4cda-40a8-9e44-2001b4693524","system_id":"levelo_inurba_marseille","lat":43.292569,"lon":5.409107,"is_reserved":false,"is_disabled":false,"rental_uris":{"android":"levelo://app?vid=f724e94a-4cda-40a8-9e44-2001b4693524","ios":"levelo://app?vid=f724e94a-4cda-40a8-9e44-2001b4693524"},"vehicle_type_id":"4","last_reported":1701796012,"current_range_meters":16000,"station_id":"ce4bh192rcd13ifvqdc0","pricing_plan_id":"free"},{"bike_id":"83a38fcb-0d4a-443e-a24c-e4aaa51191ca","system_id":"levelo_inurba_marseille","lat":43.292571,"lon":5.409107,"is_reserved":false,"is_disabled":false,"rental_uris":{"android":"levelo://app?vid=83a38fcb-0d4a-443e-a24c-e4aaa51191ca","ios":"levelo://app?vid=83a38fcb-0d4a-443e-a24c-e4aaa51191ca"},"vehicle_type_id":"4","last_reported":1701796012,"current_range_meters":1200,"station_id":"ce4bh192rcd13ifvqdc0","pricing_plan_id":"free"},{"bike_id":"f06a3698-9f5e-4ae6-b904-44d10a93c217","system_id":"levelo_inurba_marseille","lat":43.292569,"lon":5.409107,"is_reserved":false,"is_disabled":false,"rental_uris":{"android":"levelo://app?vid=f06a3698-9f5e-4ae6-b904-44d10a93c217","ios":"levelo://app?vid=f06a3698-9f5e-4ae6-b904-44d10a93c217"},"vehicle_type_id":"4","last_reported":1701796012,"current_range_meters":8400,"station_id":"ce4bh192rcd13ifvqdc0","pricing_plan_id":"free"},{"bike_id":"a401cde3-3173-4179-91a6-aa5fd687b456","system_id":"levelo_inurba_marseille","lat":43.292571,"lon":5.409107,"is_reserved":false,"is_disabled":false,"rental_uris":{"android":"levelo://app?vid=a401cde3-3173-4179-91a6-aa5fd687b456","ios":"levelo://app?vid=a401cde3-3173-4179-91a6-aa5fd687b456"},"vehicle_type_id":"4","last_reported":1701796012,"current_range_meters":18800,"station_id":"ce4bh192rcd13ifvqdc0","pricing_plan_id":"free"},{"bike_id":"84f271d7-f0ca-40fe-b6b7-7d821ffbf538","system_id":"levelo_inurba_marseille","lat":43.292571,"lon":5.409107,"is_reserved":false,"is_disabled":false,"rental_uris":{"android":"levelo://app?vid=84f271d7-f0ca-40fe-b6b7-7d821ffbf538","ios":"levelo://app?vid=84f271d7-f0ca-40fe-b6b7-7d821ffbf538"},"vehicle_type_id":"4","last_reported":1701796012,"current_range_meters":20000,"station_id":"ce4bh192rcd13ifvqdc0","pricing_plan_id":"free"},{"bike_id":"a9cd9e83-64b9-48d3-98a3-1973bd0da06a","system_id":"levelo_inurba_marseille","lat":43.292569,"lon":5.409107,"is_reserved":false,"is_disabled":false,"rental_uris":{"android":"levelo://app?vid=a9cd9e83-64b9-48d3-98a3-1973bd0da06a","ios":"levelo://app?vid=a9cd9e83-64b9-48d3-98a3-1973bd0da06a"},"vehicle_type_id":"4","last_reported":1701796012,"current_range_meters":30400,"station_id":"ce4bh192rcd13ifvqdc0","pricing_plan_id":"free"},{"bike_id":"d5496b0b-d65e-476b-9c84-85763e1f7164","system_id":"levelo_inurba_marseille","lat":43.292569,"lon":5.409107,"is_reserved":false,"is_disabled":false,"rental_uris":{"android":"levelo://app?vid=d5496b0b-d65e-476b-9c84-85763e1f7164","ios":"levelo://app?vid=d5496b0b-d65e-476b-9c84-85763e1f7164"},"vehicle_type_id":"4","last_reported":1701796012,"current_range_meters":5200,"station_id":"ce4bh192rcd13ifvqdc0","pricing_plan_id":"free"},{"bike_id":"61825c4f-f7da-497f-883a-baf0ef499de7","system_id":"levelo_inurba_marseille","lat":43.280784,"lon":5.396622,"is_reserved":false,"is_disabled":false,"rental_uris":{"android":"levelo://app?vid=61825c4f-f7da-497f-883a-baf0ef499de7","ios":"levelo://app?vid=61825c4f-f7da-497f-883a-baf0ef499de7"},"vehicle_type_id":"4","last_reported":1701796012,"current_range_meters":29200,"station_id":"ce4bho12rcd13ifvqh2g","pricing_plan_id":"free"},{"bike_id":"e3ec7fde-2bb8-4bfe-8926-b8bb35e9b330","system_id":"levelo_inurba_marseille","lat":43.280784,"lon":5.396622,"is_reserved":false,"is_disabled":false,"rental_uris":{"android":"levelo://app?vid=e3ec7fde-2bb8-4bfe-8926-b8bb35e9b330","ios":"levelo://app?vid=e3ec7fde-2bb8-4bfe-8926-b8bb35e9b330"},"vehicle_type_id":"4","last_reported":1701796012,"current_range_meters":15600,"station_id":"ce4bho12rcd13ifvqh2g","pricing_plan_id":"free"},{"bike_id":"c1823ed2-3641-4b42-83a8-d814fd572228","system_id":"levelo_inurba_marseille","lat":43.278399,"lon":5.392118,"is_reserved":false,"is_disabled":false,"rental_uris":{"android":"levelo://app?vid=c1823ed2-3641-4b42-83a8-d814fd572228","ios":"levelo://app?vid=c1823ed2-3641-4b42-83a8-d814fd572228"},"vehicle_type_id":"4","last_reported":1701796012,"current_range_meters":14800,"station_id":"","pricing_plan_id":"free"},{"bike_id":"17db11e9-ff6b-4265-a772-9fca0f8a787a","system_id":"levelo_inurba_marseille","lat":43.28478,"lon":5.40417,"is_reserved":false,"is_disabled":false,"rental_uris":{"android":"levelo://app?vid=17db11e9-ff6b-4265-a772-9fca0f8a787a","ios":"levelo://app?vid=17db11e9-ff6b-4265-a772-9fca0f8a787a"},"vehicle_type_id":"4","last_reported":1701796012,"current_range_meters":800,"station_id":"","pricing_plan_id":"free"},{"bike_id":"1310acdd-aac8-4fe6-97e3-8ac80e7d9b22","system_id":"levelo_inurba_marseille","lat":43.278401,"lon":5.392152,"is_reserved":false,"is_disabled":false,"rental_uris":{"android":"levelo://app?vid=1310acdd-aac8-4fe6-97e3-8ac80e7d9b22","ios":"levelo://app?vid=1310acdd-aac8-4fe6-97e3-8ac80e7d9b22"},"vehicle_type_id":"4","last_reported":1701796012,"current_range_meters":4000,"station_id":"ce4bhjp2rcd13ifvqga0","pricing_plan_id":"free"},{"bike_id":"972ad8df-576c-4a6c-98b8-67136b54b8e0","system_id":"levelo_inurba_marseille","lat":43.279952,"lon":5.400085,"is_reserved":false,"is_disabled":false,"rental_uris":{"android":"levelo://app?vid=972ad8df-576c-4a6c-98b8-67136b54b8e0","ios":"levelo://app?vid=972ad8df-576c-4a6c-98b8-67136b54b8e0"},"vehicle_type_id":"4","last_reported":1701796012,"current_range_meters":0,"station_id":"ce4bho92rcd13ifvqh4g","pricing_plan_id":"free"},{"bike_id":"4f3c361f-dc39-4eb2-8cb4-572b7625ae11","system_id":"levelo_inurba_marseille","lat":43.279952,"lon":5.400085,"is_reserved":false,"is_disabled":false,"rental_uris":{"android":"levelo://app?vid=4f3c361f-dc39-4eb2-8cb4-572b7625ae11","ios":"levelo://app?vid=4f3c361f-dc39-4eb2-8cb4-572b7625ae11"},"vehicle_type_id":"4","last_reported":1701796012,"current_range_meters":12000,"station_id":"ce4bho92rcd13ifvqh4g","pricing_plan_id":"free"},{"bike_id":"a9e9906d-1d07-4052-b1db-a806b8e7c813","system_id":"levelo_inurba_marseille","lat":43.279975,"lon":5.40009,"is_reserved":false,"is_disabled":false,"rental_uris":{"android":"levelo://app?vid=a9e9906d-1d07-4052-b1db-a806b8e7c813","ios":"levelo://app?vid=a9e9906d-1d07-4052-b1db-a806b8e7c813"},"vehicle_type_id":"4","last_reported":1701796012,"current_range_meters":20000,"station_id":"ce4bho92rcd13ifvqh4g","pricing_plan_id":"free"},{"bike_id":"c81b8013-7f96-4844-84ec-34257fceb5ea","system_id":"levelo_inurba_marseille","lat":43.279952,"lon":5.400085,"is_reserved":false,"is_disabled":false,"rental_uris":{"android":"levelo://app?vid=c81b8013-7f96-4844-84ec-34257fceb5ea","ios":"levelo://app?vid=c81b8013-7f96-4844-84ec-34257fceb5ea"},"vehicle_type_id":"4","last_reported":1701796012,"current_range_meters":22000,"station_id":"ce4bho92rcd13ifvqh4g","pricing_plan_id":"free"},{"bike_id":"83aa46b1-d7af-4394-b602-d523ac2828fb","system_id":"levelo_inurba_marseille","lat":43.279952,"lon":5.400085,"is_reserved":false,"is_disabled":false,"rental_uris":{"android":"levelo://app?vid=83aa46b1-d7af-4394-b602-d523ac2828fb","ios":"levelo://app?vid=83aa46b1-d7af-4394-b602-d523ac2828fb"},"vehicle_type_id":"4","last_reported":1701796012,"current_range_meters":28800,"station_id":"ce4bho92rcd13ifvqh4g","pricing_plan_id":"free"},{"bike_id":"6f069aab-0dfd-4bb1-a7c7-dafdd20df186","system_id":"levelo_inurba_marseille","lat":43.279952,"lon":5.400085,"is_reserved":false,"is_disabled":false,"rental_uris":{"android":"levelo://app?vid=6f069aab-0dfd-4bb1-a7c7-dafdd20df186","ios":"levelo://app?vid=6f069aab-0dfd-4bb1-a7c7-dafdd20df186"},"vehicle_type_id":"4","last_reported":1701796012,"current_range_meters":29600,"station_id":"ce4bho92rcd13ifvqh4g","pricing_plan_id":"free"},{"bike_id":"1f2f2ee0-9d2b-4f14-b2ef-172df1842b70","system_id":"levelo_inurba_marseille","lat":43.317121,"lon":5.423936,"is_reserved":false,"is_disabled":false,"rental_uris":{"android":"levelo://app?vid=1f2f2ee0-9d2b-4f14-b2ef-172df1842b70","ios":"levelo://app?vid=1f2f2ee0-9d2b-4f14-b2ef-172df1842b70"},"vehicle_type_id":"4","last_reported":1701796012,"current_range_meters":16800,"station_id":"ce4bhp92rcd13ifvqhbg","pricing_plan_id":"free"},{"bike_id":"910fd3aa-d2e0-4553-894a-6161d41c7fcd","system_id":"levelo_inurba_marseille","lat":43.27578,"lon":5.39535,"is_reserved":false,"is_disabled":false,"rental_uris":{"android":"levelo://app?vid=910fd3aa-d2e0-4553-894a-6161d41c7fcd","ios":"levelo://app?vid=910fd3aa-d2e0-4553-894a-6161d41c7fcd"},"vehicle_type_id":"4","last_reported":1701796012,"current_range_meters":5600,"station_id":"","pricing_plan_id":"free"},{"bike_id":"44b7e749-26e2-4b57-bc9c-9a6ffa54d913","system_id":"levelo_inurba_marseille","lat":43.295511,"lon":5.422926,"is_reserved":false,"is_disabled":false,"rental_uris":{"android":"levelo://app?vid=44b7e749-26e2-4b57-bc9c-9a6ffa54d913","ios":"levelo://app?vid=44b7e749-26e2-4b57-bc9c-9a6ffa54d913"},"vehicle_type_id":"4","last_reported":1701796012,"current_range_meters":26800,"station_id":"ce4bhph2rcd13ifvqhdg","pricing_plan_id":"free"},{"bike_id":"30606be1-5b96-4f23-bf9b-1a637fac67ac","system_id":"levelo_inurba_marseille","lat":43.295511,"lon":5.422926,"is_reserved":false,"is_disabled":false,"rental_uris":{"android":"levelo://app?vid=30606be1-5b96-4f23-bf9b-1a637fac67ac","ios":"levelo://app?vid=30606be1-5b96-4f23-bf9b-1a637fac67ac"},"vehicle_type_id":"4","last_reported":1701796012,"current_range_meters":6000,"station_id":"ce4bhph2rcd13ifvqhdg","pricing_plan_id":"free"},{"bike_id":"a11fb346-e9c7-4f14-b9d0-d97adcd5dbd2","system_id":"levelo_inurba_marseille","lat":43.295523,"lon":5.422926,"is_reserved":false,"is_disabled":false,"rental_uris":{"android":"levelo://app?vid=a11fb346-e9c7-4f14-b9d0-d97adcd5dbd2","ios":"levelo://app?vid=a11fb346-e9c7-4f14-b9d0-d97adcd5dbd2"},"vehicle_type_id":"4","last_reported":1701796012,"current_range_meters":28000,"station_id":"ce4bhph2rcd13ifvqhdg","pricing_plan_id":"free"},{"bike_id":"4aaafaa4-5992-4d41-aca4-45ea537c3e9e","system_id":"levelo_inurba_marseille","lat":43.27214,"lon":5.3925,"is_reserved":false,"is_disabled":false,"rental_uris":{"android":"levelo://app?vid=4aaafaa4-5992-4d41-aca4-45ea537c3e9e","ios":"levelo://app?vid=4aaafaa4-5992-4d41-aca4-45ea537c3e9e"},"vehicle_type_id":"4","last_reported":1701796012,"current_range_meters":16400,"station_id":"","pricing_plan_id":"free"},{"bike_id":"edd349c3-c851-4937-92f4-79e6f14f7f70","system_id":"levelo_inurba_marseille","lat":43.278128,"lon":5.407195,"is_reserved":false,"is_disabled":false,"rental_uris":{"android":"levelo://app?vid=edd349c3-c851-4937-92f4-79e6f14f7f70","ios":"levelo://app?vid=edd349c3-c851-4937-92f4-79e6f14f7f70"},"vehicle_type_id":"4","last_reported":1701796012,"current_range_meters":31200,"station_id":"ce4bhnh2rcd13ifvqgtg","pricing_plan_id":"free"},{"bike_id":"957601ce-461b-458d-bd36-af297ec29bcd","system_id":"levelo_inurba_marseille","lat":43.278128,"lon":5.407195,"is_reserved":false,"is_disabled":false,"rental_uris":{"android":"levelo://app?vid=957601ce-461b-458d-bd36-af297ec29bcd","ios":"levelo://app?vid=957601ce-461b-458d-bd36-af297ec29bcd"},"vehicle_type_id":"4","last_reported":1701796012,"current_range_meters":20400,"station_id":"ce4bhnh2rcd13ifvqgtg","pricing_plan_id":"free"},{"bike_id":"b5071254-167a-438c-95ea-9979603b40b5","system_id":"levelo_inurba_marseille","lat":43.267966,"lon":5.393976,"is_reserved":false,"is_disabled":false,"rental_uris":{"android":"levelo://app?vid=b5071254-167a-438c-95ea-9979603b40b5","ios":"levelo://app?vid=b5071254-167a-438c-95ea-9979603b40b5"},"vehicle_type_id":"4","last_reported":1701796012,"current_range_meters":3600,"station_id":"ce4bhh12rcd13ifvqfg0","pricing_plan_id":"free"},{"bike_id":"44c46d62-3aa7-4f31-9168-25a2d583c445","system_id":"levelo_inurba_marseille","lat":43.265714,"lon":5.372891,"is_reserved":false,"is_disabled":false,"rental_uris":{"android":"levelo://app?vid=44c46d62-3aa7-4f31-9168-25a2d583c445","ios":"levelo://app?vid=44c46d62-3aa7-4f31-9168-25a2d583c445"},"vehicle_type_id":"4","last_reported":1701796012,"current_range_meters":28400,"station_id":"ce4bhg12rcd13ifvqf70","pricing_plan_id":"free"},{"bike_id":"bac0a2e4-c3c7-4d99-9925-7725fafa6196","system_id":"levelo_inurba_marseille","lat":43.267966,"lon":5.393976,"is_reserved":false,"is_disabled":false,"rental_uris":{"android":"levelo://app?vid=bac0a2e4-c3c7-4d99-9925-7725fafa6196","ios":"levelo://app?vid=bac0a2e4-c3c7-4d99-9925-7725fafa6196"},"vehicle_type_id":"4","last_reported":1701796012,"current_range_meters":22400,"station_id":"ce4bhh12rcd13ifvqfg0","pricing_plan_id":"free"},{"bike_id":"dc4074c4-cc24-403f-a189-9d432876569f","system_id":"levelo_inurba_marseille","lat":43.26944,"lon":5.39976,"is_reserved":false,"is_disabled":false,"rental_uris":{"android":"levelo://app?vid=dc4074c4-cc24-403f-a189-9d432876569f","ios":"levelo://app?vid=dc4074c4-cc24-403f-a189-9d432876569f"},"vehicle_type_id":"4","last_reported":1701796012,"current_range_meters":0,"station_id":"","pricing_plan_id":"free"},{"bike_id":"8e50a2a3-63a6-454e-bfc7-0d30cf65c822","system_id":"levelo_inurba_marseille","lat":43.308051,"lon":5.43527,"is_reserved":false,"is_disabled":false,"rental_uris":{"android":"levelo://app?vid=8e50a2a3-63a6-454e-bfc7-0d30cf65c822","ios":"levelo://app?vid=8e50a2a3-63a6-454e-bfc7-0d30cf65c822"},"vehicle_type_id":"4","last_reported":1701796012,"current_range_meters":28000,"station_id":"ce4bhph2rcd13ifvqheg","pricing_plan_id":"free"},{"bike_id":"eac827eb-8704-4f61-936f-cd84a862ca54","system_id":"levelo_inurba_marseille","lat":43.308051,"lon":5.43527,"is_reserved":false,"is_disabled":false,"rental_uris":{"android":"levelo://app?vid=eac827eb-8704-4f61-936f-cd84a862ca54","ios":"levelo://app?vid=eac827eb-8704-4f61-936f-cd84a862ca54"},"vehicle_type_id":"4","last_reported":1701796012,"current_range_meters":22000,"station_id":"ce4bhph2rcd13ifvqheg","pricing_plan_id":"free"},{"bike_id":"6a7b162a-c164-4417-9a21-6cac3b3b28d5","system_id":"levelo_inurba_marseille","lat":43.281548,"lon":5.42643,"is_reserved":false,"is_disabled":false,"rental_uris":{"android":"levelo://app?vid=6a7b162a-c164-4417-9a21-6cac3b3b28d5","ios":"levelo://app?vid=6a7b162a-c164-4417-9a21-6cac3b3b28d5"},"vehicle_type_id":"4","last_reported":1701796012,"current_range_meters":26400,"station_id":"ce4bhnh2rcd13ifvqgug","pricing_plan_id":"free"},{"bike_id":"1e1ba617-5267-444c-b4f3-91171f220dc3","system_id":"levelo_inurba_marseille","lat":43.261782,"lon":5.374515,"is_reserved":false,"is_disabled":false,"rental_uris":{"android":"levelo://app?vid=1e1ba617-5267-444c-b4f3-91171f220dc3","ios":"levelo://app?vid=1e1ba617-5267-444c-b4f3-91171f220dc3"},"vehicle_type_id":"4","last_reported":1701796012,"current_range_meters":0,"station_id":"ce4bhgp2rcd13ifvqfc0","pricing_plan_id":"free"},{"bike_id":"4f34044e-b6b5-4f45-aa26-16b610aacef7","system_id":"levelo_inurba_marseille","lat":43.317104,"lon":5.436818,"is_reserved":false,"is_disabled":false,"rental_uris":{"android":"levelo://app?vid=4f34044e-b6b5-4f45-aa26-16b610aacef7","ios":"levelo://app?vid=4f34044e-b6b5-4f45-aa26-16b610aacef7"},"vehicle_type_id":"4","last_reported":1701796012,"current_range_meters":21600,"station_id":"ce4bhp92rcd13ifvqhcg","pricing_plan_id":"free"},{"bike_id":"037482d9-5565-4803-b381-e11c7c214e7d","system_id":"levelo_inurba_marseille","lat":43.271368,"lon":5.40928,"is_reserved":false,"is_disabled":false,"rental_uris":{"android":"levelo://app?vid=037482d9-5565-4803-b381-e11c7c214e7d","ios":"levelo://app?vid=037482d9-5565-4803-b381-e11c7c214e7d"},"vehicle_type_id":"4","last_reported":1701796012,"current_range_meters":26000,"station_id":"ce4bhl12rcd13ifvqgf0","pricing_plan_id":"free"},{"bike_id":"f6d6fc2d-eb87-44f6-91b8-810431325fca","system_id":"levelo_inurba_marseille","lat":43.267959,"lon":5.402687,"is_reserved":false,"is_disabled":false,"rental_uris":{"android":"levelo://app?vid=f6d6fc2d-eb87-44f6-91b8-810431325fca","ios":"levelo://app?vid=f6d6fc2d-eb87-44f6-91b8-810431325fca"},"vehicle_type_id":"4","last_reported":1701796012,"current_range_meters":12000,"station_id":"ce501612rcd8frsf0b60","pricing_plan_id":"free"},{"bike_id":"c54cd023-a6f2-4d68-aabc-4be9f862ccbb","system_id":"levelo_inurba_marseille","lat":43.298768,"lon":5.43643,"is_reserved":false,"is_disabled":false,"rental_uris":{"android":"levelo://app?vid=c54cd023-a6f2-4d68-aabc-4be9f862ccbb","ios":"levelo://app?vid=c54cd023-a6f2-4d68-aabc-4be9f862ccbb"},"vehicle_type_id":"4","last_reported":1701796012,"current_range_meters":30400,"station_id":"ce4bhpp2rcd13ifvqhfg","pricing_plan_id":"free"},{"bike_id":"31cc13e0-ffa4-4e7e-acc7-e55aaad1253a","system_id":"levelo_inurba_marseille","lat":43.281548,"lon":5.42643,"is_reserved":false,"is_disabled":false,"rental_uris":{"android":"levelo://app?vid=31cc13e0-ffa4-4e7e-acc7-e55aaad1253a","ios":"levelo://app?vid=31cc13e0-ffa4-4e7e-acc7-e55aaad1253a"},"vehicle_type_id":"4","last_reported":1701796012,"current_range_meters":12800,"station_id":"ce4bhnh2rcd13ifvqgug","pricing_plan_id":"free"},{"bike_id":"9b7799c6-86ef-404d-ab60-50f69e07ba4c","system_id":"levelo_inurba_marseille","lat":43.281548,"lon":5.42643,"is_reserved":false,"is_disabled":false,"rental_uris":{"android":"levelo://app?vid=9b7799c6-86ef-404d-ab60-50f69e07ba4c","ios":"levelo://app?vid=9b7799c6-86ef-404d-ab60-50f69e07ba4c"},"vehicle_type_id":"4","last_reported":1701796012,"current_range_meters":0,"station_id":"ce4bhnh2rcd13ifvqgug","pricing_plan_id":"free"},{"bike_id":"de8427fd-8a06-4303-ae50-7edb663628c5","system_id":"levelo_inurba_marseille","lat":43.255756,"lon":5.382303,"is_reserved":false,"is_disabled":false,"rental_uris":{"android":"levelo://app?vid=de8427fd-8a06-4303-ae50-7edb663628c5","ios":"levelo://app?vid=de8427fd-8a06-4303-ae50-7edb663628c5"},"vehicle_type_id":"4","last_reported":1701796012,"current_range_meters":18400,"station_id":"ce4bhih2rcd13ifvqfs0","pricing_plan_id":"free"},{"bike_id":"223ecd5d-377c-4f2e-af74-ea1efda5630d","system_id":"levelo_inurba_marseille","lat":43.258224,"lon":5.394369,"is_reserved":false,"is_disabled":false,"rental_uris":{"android":"levelo://app?vid=223ecd5d-377c-4f2e-af74-ea1efda5630d","ios":"levelo://app?vid=223ecd5d-377c-4f2e-af74-ea1efda5630d"},"vehicle_type_id":"4","last_reported":1701796012,"current_range_meters":20400,"station_id":"ce4bhip2rcd13ifvqft0","pricing_plan_id":"free"},{"bike_id":"0c8af203-d673-474c-840b-33000aa98c3d","system_id":"levelo_inurba_marseille","lat":43.25573,"lon":5.38232,"is_reserved":false,"is_disabled":false,"rental_uris":{"android":"levelo://app?vid=0c8af203-d673-474c-840b-33000aa98c3d","ios":"levelo://app?vid=0c8af203-d673-474c-840b-33000aa98c3d"},"vehicle_type_id":"4","last_reported":1701796012,"current_range_meters":20800,"station_id":"ce4bhih2rcd13ifvqfs0","pricing_plan_id":"free"},{"bike_id":"3fde312f-c007-42c2-90ea-33364bf55a8d","system_id":"levelo_inurba_marseille","lat":43.25569,"lon":5.38248,"is_reserved":false,"is_disabled":false,"rental_uris":{"android":"levelo://app?vid=3fde312f-c007-42c2-90ea-33364bf55a8d","ios":"levelo://app?vid=3fde312f-c007-42c2-90ea-33364bf55a8d"},"vehicle_type_id":"4","last_reported":1701796012,"current_range_meters":21600,"station_id":"ce4bhih2rcd13ifvqfs0","pricing_plan_id":"free"},{"bike_id":"b17d73de-1d0d-448c-b735-e7f985bab5a8","system_id":"levelo_inurba_marseille","lat":43.270721,"lon":5.422764,"is_reserved":false,"is_disabled":false,"rental_uris":{"android":"levelo://app?vid=b17d73de-1d0d-448c-b735-e7f985bab5a8","ios":"levelo://app?vid=b17d73de-1d0d-448c-b735-e7f985bab5a8"},"vehicle_type_id":"4","last_reported":1701796012,"current_range_meters":16800,"station_id":"ce4bhk92rcd13ifvqgb0","pricing_plan_id":"free"},{"bike_id":"fd0a1228-d2fc-47de-9f3b-3dde6b3f5395","system_id":"levelo_inurba_marseille","lat":43.258658,"lon":5.398935,"is_reserved":false,"is_disabled":false,"rental_uris":{"android":"levelo://app?vid=fd0a1228-d2fc-47de-9f3b-3dde6b3f5395","ios":"levelo://app?vid=fd0a1228-d2fc-47de-9f3b-3dde6b3f5395"},"vehicle_type_id":"4","last_reported":1701796012,"current_range_meters":23600,"station_id":"ce4bhl92rcd13ifvqghg","pricing_plan_id":"free"},{"bike_id":"85f9f73e-6c47-42d6-ab03-8a43f7a4c921","system_id":"levelo_inurba_marseille","lat":43.250009,"lon":5.389195,"is_reserved":false,"is_disabled":false,"rental_uris":{"android":"levelo://app?vid=85f9f73e-6c47-42d6-ab03-8a43f7a4c921","ios":"levelo://app?vid=85f9f73e-6c47-42d6-ab03-8a43f7a4c921"},"vehicle_type_id":"4","last_reported":1701796012,"current_range_meters":23600,"station_id":"ce4bhgp2rcd13ifvqfd0","pricing_plan_id":"free"},{"bike_id":"f91c02df-296b-4c44-b539-d016bc0c1972","system_id":"levelo_inurba_marseille","lat":43.2479,"lon":5.374457,"is_reserved":false,"is_disabled":false,"rental_uris":{"android":"levelo://app?vid=f91c02df-296b-4c44-b539-d016bc0c1972","ios":"levelo://app?vid=f91c02df-296b-4c44-b539-d016bc0c1972"},"vehicle_type_id":"4","last_reported":1701796012,"current_range_meters":25600,"station_id":"ce4bhgh2rcd13ifvqfb0","pricing_plan_id":"free"},{"bike_id":"faca4551-989f-4720-bc48-6dc70b1866ce","system_id":"levelo_inurba_marseille","lat":43.2479,"lon":5.374457,"is_reserved":false,"is_disabled":false,"rental_uris":{"android":"levelo://app?vid=faca4551-989f-4720-bc48-6dc70b1866ce","ios":"levelo://app?vid=faca4551-989f-4720-bc48-6dc70b1866ce"},"vehicle_type_id":"4","last_reported":1701796012,"current_range_meters":16800,"station_id":"ce4bhgh2rcd13ifvqfb0","pricing_plan_id":"free"},{"bike_id":"d937d55c-eea2-4bb6-97b9-fb380acb913c","system_id":"levelo_inurba_marseille","lat":43.2479,"lon":5.374457,"is_reserved":false,"is_disabled":false,"rental_uris":{"android":"levelo://app?vid=d937d55c-eea2-4bb6-97b9-fb380acb913c","ios":"levelo://app?vid=d937d55c-eea2-4bb6-97b9-fb380acb913c"},"vehicle_type_id":"4","last_reported":1701796012,"current_range_meters":3200,"station_id":"ce4bhgh2rcd13ifvqfb0","pricing_plan_id":"free"},{"bike_id":"26a4f7ac-6f4a-4ce5-9894-db7cc7774f56","system_id":"levelo_inurba_marseille","lat":43.25102,"lon":5.403214,"is_reserved":false,"is_disabled":false,"rental_uris":{"android":"levelo://app?vid=26a4f7ac-6f4a-4ce5-9894-db7cc7774f56","ios":"levelo://app?vid=26a4f7ac-6f4a-4ce5-9894-db7cc7774f56"},"vehicle_type_id":"4","last_reported":1701796012,"current_range_meters":2800,"station_id":"ce4bhlh2rcd13ifvqgig","pricing_plan_id":"free"},{"bike_id":"cc0b54e3-b796-4027-b1b1-1ab91fabadfd","system_id":"levelo_inurba_marseille","lat":43.24644,"lon":5.38893,"is_reserved":false,"is_disabled":false,"rental_uris":{"android":"levelo://app?vid=cc0b54e3-b796-4027-b1b1-1ab91fabadfd","ios":"levelo://app?vid=cc0b54e3-b796-4027-b1b1-1ab91fabadfd"},"vehicle_type_id":"4","last_reported":1701796012,"current_range_meters":30000,"station_id":"ce4bhg12rcd13ifvqf60","pricing_plan_id":"free"},{"bike_id":"8d80d84a-3dd5-4d4a-85df-eed98a72632a","system_id":"levelo_inurba_marseille","lat":43.243884,"lon":5.370737,"is_reserved":false,"is_disabled":false,"rental_uris":{"android":"levelo://app?vid=8d80d84a-3dd5-4d4a-85df-eed98a72632a","ios":"levelo://app?vid=8d80d84a-3dd5-4d4a-85df-eed98a72632a"},"vehicle_type_id":"4","last_reported":1701796012,"current_range_meters":21600,"station_id":"ce4bhhh2rcd13ifvqfk0","pricing_plan_id":"free"},{"bike_id":"2c2c6877-0f4c-44c1-a94f-407c72fed725","system_id":"levelo_inurba_marseille","lat":43.239588,"lon":5.366238,"is_reserved":false,"is_disabled":false,"rental_uris":{"android":"levelo://app?vid=2c2c6877-0f4c-44c1-a94f-407c72fed725","ios":"levelo://app?vid=2c2c6877-0f4c-44c1-a94f-407c72fed725"},"vehicle_type_id":"4","last_reported":1701796012,"current_range_meters":27200,"station_id":"ce4bhi12rcd13ifvqfp0","pricing_plan_id":"free"},{"bike_id":"e8835d61-d2e2-44c6-bbea-081f4b44c0ee","system_id":"levelo_inurba_marseille","lat":43.239588,"lon":5.366238,"is_reserved":false,"is_disabled":false,"rental_uris":{"android":"levelo://app?vid=e8835d61-d2e2-44c6-bbea-081f4b44c0ee","ios":"levelo://app?vid=e8835d61-d2e2-44c6-bbea-081f4b44c0ee"},"vehicle_type_id":"4","last_reported":1701796012,"current_range_meters":4400,"station_id":"ce4bhi12rcd13ifvqfp0","pricing_plan_id":"free"},{"bike_id":"04b00323-44dc-4556-add8-5a131157a4f0","system_id":"levelo_inurba_marseille","lat":43.24404,"lon":5.40191,"is_reserved":false,"is_disabled":false,"rental_uris":{"android":"levelo://app?vid=04b00323-44dc-4556-add8-5a131157a4f0","ios":"levelo://app?vid=04b00323-44dc-4556-add8-5a131157a4f0"},"vehicle_type_id":"4","last_reported":1701796012,"current_range_meters":2000,"station_id":"","pricing_plan_id":"free"},{"bike_id":"fdf75cfc-9169-4782-bc3f-e67b3f8fdfcc","system_id":"levelo_inurba_marseille","lat":43.241807,"lon":5.397084,"is_reserved":false,"is_disabled":false,"rental_uris":{"android":"levelo://app?vid=fdf75cfc-9169-4782-bc3f-e67b3f8fdfcc","ios":"levelo://app?vid=fdf75cfc-9169-4782-bc3f-e67b3f8fdfcc"},"vehicle_type_id":"4","last_reported":1701796012,"current_range_meters":15200,"station_id":"","pricing_plan_id":"free"},{"bike_id":"cf3102c4-88e0-4a41-86b7-69a76932d3e6","system_id":"levelo_inurba_marseille","lat":43.231923,"lon":5.355545,"is_reserved":false,"is_disabled":false,"rental_uris":{"android":"levelo://app?vid=cf3102c4-88e0-4a41-86b7-69a76932d3e6","ios":"levelo://app?vid=cf3102c4-88e0-4a41-86b7-69a76932d3e6"},"vehicle_type_id":"4","last_reported":1701796012,"current_range_meters":31600,"station_id":"ce4bhu92rcd13ifvqi70","pricing_plan_id":"free"},{"bike_id":"e2fb0602-0025-4bc2-a80e-ca4c6079bddc","system_id":"levelo_inurba_marseille","lat":43.231923,"lon":5.355545,"is_reserved":false,"is_disabled":false,"rental_uris":{"android":"levelo://app?vid=e2fb0602-0025-4bc2-a80e-ca4c6079bddc","ios":"levelo://app?vid=e2fb0602-0025-4bc2-a80e-ca4c6079bddc"},"vehicle_type_id":"4","last_reported":1701796012,"current_range_meters":5600,"station_id":"ce4bhu92rcd13ifvqi70","pricing_plan_id":"free"},{"bike_id":"d868c0b5-242c-4b9f-b108-cbde91aaec79","system_id":"levelo_inurba_marseille","lat":43.231923,"lon":5.355545,"is_reserved":false,"is_disabled":false,"rental_uris":{"android":"levelo://app?vid=d868c0b5-242c-4b9f-b108-cbde91aaec79","ios":"levelo://app?vid=d868c0b5-242c-4b9f-b108-cbde91aaec79"},"vehicle_type_id":"4","last_reported":1701796012,"current_range_meters":24400,"station_id":"ce4bhu92rcd13ifvqi70","pricing_plan_id":"free"},{"bike_id":"b988d3fe-c649-4089-ae26-b7efbdfc136a","system_id":"levelo_inurba_marseille","lat":43.231794,"lon":5.400052,"is_reserved":false,"is_disabled":false,"rental_uris":{"android":"levelo://app?vid=b988d3fe-c649-4089-ae26-b7efbdfc136a","ios":"levelo://app?vid=b988d3fe-c649-4089-ae26-b7efbdfc136a"},"vehicle_type_id":"4","last_reported":1701796012,"current_range_meters":27200,"station_id":"ce4bhn12rcd13ifvqgqg","pricing_plan_id":"free"},{"bike_id":"0b1e3bd7-033b-46ef-8d43-f0325c18a334","system_id":"levelo_inurba_marseille","lat":43.231794,"lon":5.400052,"is_reserved":false,"is_disabled":false,"rental_uris":{"android":"levelo://app?vid=0b1e3bd7-033b-46ef-8d43-f0325c18a334","ios":"levelo://app?vid=0b1e3bd7-033b-46ef-8d43-f0325c18a334"},"vehicle_type_id":"4","last_reported":1701796012,"current_range_meters":14400,"station_id":"ce4bhn12rcd13ifvqgqg","pricing_plan_id":"free"},{"bike_id":"a02b4087-b7a4-431d-882b-09fea48aaf26","system_id":"levelo_inurba_marseille","lat":43.231794,"lon":5.400052,"is_reserved":false,"is_disabled":false,"rental_uris":{"android":"levelo://app?vid=a02b4087-b7a4-431d-882b-09fea48aaf26","ios":"levelo://app?vid=a02b4087-b7a4-431d-882b-09fea48aaf26"},"vehicle_type_id":"4","last_reported":1701796012,"current_range_meters":27200,"station_id":"ce4bhn12rcd13ifvqgqg","pricing_plan_id":"free"},{"bike_id":"e9e62f9b-b2fe-4312-af15-bcf56f0a2f27","system_id":"levelo_inurba_marseille","lat":43.231794,"lon":5.400052,"is_reserved":false,"is_disabled":false,"rental_uris":{"android":"levelo://app?vid=e9e62f9b-b2fe-4312-af15-bcf56f0a2f27","ios":"levelo://app?vid=e9e62f9b-b2fe-4312-af15-bcf56f0a2f27"},"vehicle_type_id":"4","last_reported":1701796012,"current_range_meters":13200,"station_id":"ce4bhn12rcd13ifvqgqg","pricing_plan_id":"free"},{"bike_id":"2b041fe8-040b-45d0-aaf2-e229fc1e5336","system_id":"levelo_inurba_marseille","lat":43.231794,"lon":5.400052,"is_reserved":false,"is_disabled":false,"rental_uris":{"android":"levelo://app?vid=2b041fe8-040b-45d0-aaf2-e229fc1e5336","ios":"levelo://app?vid=2b041fe8-040b-45d0-aaf2-e229fc1e5336"},"vehicle_type_id":"4","last_reported":1701796012,"current_range_meters":800,"station_id":"ce4bhn12rcd13ifvqgqg","pricing_plan_id":"free"},{"bike_id":"bf14e917-5b8a-4d5c-b641-9c988333d4ee","system_id":"levelo_inurba_marseille","lat":43.231794,"lon":5.400052,"is_reserved":false,"is_disabled":false,"rental_uris":{"android":"levelo://app?vid=bf14e917-5b8a-4d5c-b641-9c988333d4ee","ios":"levelo://app?vid=bf14e917-5b8a-4d5c-b641-9c988333d4ee"},"vehicle_type_id":"4","last_reported":1701796012,"current_range_meters":17600,"station_id":"ce4bhn12rcd13ifvqgqg","pricing_plan_id":"free"}]}}