{"last_updated":1736024819,"ttl":60,"version":"2.2","data":{"bikes":[{"bike_id":"c4d3bfbc-fd4b-4bdd-99fc-e4e3d50b1bc8","system_id":"levelo_inurba_marseille","lat":43.28856,"lon":5.39328,"is_reserved":false,"is_disabled":false,"rental_uris":{"android":"levelo://app?vid=c4d3bfbc-fd4b-4bdd-99fc-e4e3d50b1bc8","ios":"levelo://app?vid=c4d3bfbc-fd4b-4bdd-99fc-e4e3d50b1bc8"},"vehicle_type_id":"4","last_reported":1736024819,"current_range_meters":38800,"station_id":"ce4bh2p2rcd13ifvqdi0","pricing_plan_id":"cebpf4jnsgd1na2vs0mg"},{"bike_id":"4517f105-c6cd-42b4-a2b8-453f0a872c81","system_id":"levelo_inurba_marseille","lat":43.24699,"lon":5.38131,"is_reserved":false,"is_disabled":false,"rental_uris":{"android":"levelo://app?vid=4517f105-c6cd-42b4-a2b8-453f0a872c81","ios":"levelo://app?vid=4517f105-c6cd-42b4-a2b8-453f0a872c81"},"vehicle_type_id":"4","last_reported":1736024819,"current_range_meters":23200,"station_id":"ce4bhih2rcd13ifvqfr0","pricing_plan_id":"cebpf4jnsgd1na2vs0mg"},{"bike_id":"a77c06f9-f887-410c-8ba9-f83901dfdc35","system_id":"levelo_inurba_marseille","lat":43.28923,"lon":5.38391,"is_reserved":false,"is_disabled":false,"rental_uris":{"android":"levelo://app?vid=a77c06f9-f887-410c-8ba9-f83901dfdc35","ios":"levelo://app?vid=a77c06f9-f887-410c-8ba9-f83901dfdc35"},"vehicle_type_id":"4","last_reported":1736024819,"current_range_meters":27600,"station_id":"ce4bh612rcd13ifvqe6g","pricing_plan_id":"cebpf4jnsgd1na2vs0mg"},{"bike_id":"2f08c9fc-4d21-46b6-8ae3-3acb81bd9994","system_id":"levelo_inurba_marseille","lat":43.32463,"lon":5.3656,"is_reserved":false,"is_disabled":false,"rental_uris":{"android":"levelo://app?vid=2f08c9fc-4d21-46b6-8ae3-3acb81bd9994","ios":"levelo://app?vid=2f08c9fc-4d21-46b6-8ae3-3acb81bd9994"},"vehicle_type_id":"4","last_reported":1736024819,"current_range_meters":38800,"station_id":"ce4bhs12rcd13ifvqhvg","pricing_plan_id":"cebpf4jnsgd1na2vs0mg"},{"bike_id":"45e3d465-e360-4b89-a581-55fc9cb92877","system_id":"levelo_inurba_marseille","lat":43.29536,"lon":5.39016,"is_reserved":false,"is_disabled":false,"rental_uris":{"android":"levelo://app?vid=45e3d465-e360-4b89-a581-55fc9cb92877","ios":"levelo://app?vid=45e3d465-e360-4b89-a581-55fc9cb92877"},"vehicle_type_id":"4","last_reported":1736024819,"current_range_meters":24000,"station_id":"ce4bh3p2rcd13ifvqdp0","pricing_plan_id":"cebpf4jnsgd1na2vs0mg"},{"bike_id":"91037f15-fe17-4186-85a2-9e0438c13c3d","system_id":"levelo_inurba_marseille","lat":43.27215,"lon":5.3926,"is_reserved":false,"is_disabled":false,"rental_uris":{"android":"levelo://app?vid=91037f15-fe17-4186-85a2-9e0438c13c3d","ios":"levelo://app?vid=91037f15-fe17-4186-85a2-9e0438c13c3d"},"vehicle_type_id":"4","last_reported":1736024819,"current_range_meters":5600,"station_id":"ce4bhhp2rcd13ifvqfm0","pricing_plan_id":"cebpf4jnsgd1na2vs0mg"},{"bike_id":"ac060c07-7cec-4494-9467-409aca079f0f","system_id":"levelo_inurba_marseille","lat":43.2845,"lon":5.37545,"is_reserved":false,"is_disabled":false,"rental_uris":{"android":"levelo://app?vid=ac060c07-7cec-4494-9467-409aca079f0f","ios":"levelo://app?vid=ac060c07-7cec-4494-9467-409aca079f0f"},"vehicle_type_id":"4","last_reported":1736024819,"current_range_meters":38800,"station_id":"","pricing_plan_id":"cebpf4jnsgd1na2vs0mg"},{"bike_id":"98063e86-2e1a-460a-8ef5-ff11faf4c9e1","system_id":"levelo_inurba_marseille","lat":43.29752,"lon":5.37081,"is_reserved":false,"is_disabled":false,"rental_uris":{"android":"levelo://app?vid=98063e86-2e1a-460a-8ef5-ff11faf4c9e1","ios":"levelo://app?vid=98063e86-2e1a-460a-8ef5-ff11faf4c9e1"},"vehicle_type_id":"4","last_reported":1736024819,"current_range_meters":24000,"station_id":"ce4bgop2rcd13ifvqc1g","pricing_plan_id":"cebpf4jnsgd1na2vs0mg"},{"bike_id":"36d0910b-d540-4d75-b065-f044cb5b6555","system_id":"levelo_inurba_marseille","lat":43.295974,"lon":5.367299,"is_reserved":false,"is_disabled":false,"rental_uris":{"android":"levelo://app?vid=36d0910b-d540-4d75-b065-f044cb5b6555","ios":"levelo://app?vid=36d0910b-d540-4d75-b065-f044cb5b6555"},"vehicle_type_id":"4","last_reported":1736024819,"current_range_meters":38800,"station_id":"ce4bgph2rcd13ifvqc2g","pricing_plan_id":"cebpf4jnsgd1na2vs0mg"},{"bike_id":"8f47d509-f00d-4495-8a84-a371a88478f8","system_id":"levelo_inurba_marseille","lat":43.30906,"lon":5.36829,"is_reserved":false,"is_disabled":false,"rental_uris":{"android":"levelo://app?vid=8f47d509-f00d-4495-8a84-a371a88478f8","ios":"levelo://app?vid=8f47d509-f00d-4495-8a84-a371a88478f8"},"vehicle_type_id":"4","last_reported":1736024819,"current_range_meters":25200,"station_id":"ce4bgn92rcd13ifvqbvg","pricing_plan_id":"cebpf4jnsgd1na2vs0mg"},{"bike_id":"f05a1a35-ba67-4106-8e78-28bebbf99fed","system_id":"levelo_inurba_marseille","lat":43.2922,"lon":5.36907,"is_reserved":false,"is_disabled":false,"rental_uris":{"android":"levelo://app?vid=f05a1a35-ba67-4106-8e78-28bebbf99fed","ios":"levelo://app?vid=f05a1a35-ba67-4106-8e78-28bebbf99fed"},"vehicle_type_id":"4","last_reported":1736024819,"current_range_meters":16400,"station_id":"","pricing_plan_id":"cebpf4jnsgd1na2vs0mg"},{"bike_id":"7d275717-441a-4436-940f-85b40ec180ab","system_id":"levelo_inurba_marseille","lat":43.31396,"lon":5.37201,"is_reserved":false,"is_disabled":false,"rental_uris":{"android":"levelo://app?vid=7d275717-441a-4436-940f-85b40ec180ab","ios":"levelo://app?vid=7d275717-441a-4436-940f-85b40ec180ab"},"vehicle_type_id":"4","last_reported":1736024819,"current_range_meters":19200,"station_id":"","pricing_plan_id":"cebpf4jnsgd1na2vs0mg"},{"bike_id":"bcf0bc77-feb4-4e25-93da-4721812265a5","system_id":"levelo_inurba_marseille","lat":43.29847,"lon":5.36259,"is_reserved":false,"is_disabled":false,"rental_uris":{"android":"levelo://app?vid=bcf0bc77-feb4-4e25-93da-4721812265a5","ios":"levelo://app?vid=bcf0bc77-feb4-4e25-93da-4721812265a5"},"vehicle_type_id":"4","last_reported":1736024819,"current_range_meters":39200,"station_id":"ce4bgpp2rcd13ifvqc3g","pricing_plan_id":"cebpf4jnsgd1na2vs0mg"},{"bike_id":"3219318c-a8dd-450c-b767-094b10a2e823","system_id":"levelo_inurba_marseille","lat":43.29434,"lon":5.38598,"is_reserved":false,"is_disabled":false,"rental_uris":{"android":"levelo://app?vid=3219318c-a8dd-450c-b767-094b10a2e823","ios":"levelo://app?vid=3219318c-a8dd-450c-b767-094b10a2e823"},"vehicle_type_id":"4","last_reported":1736024819,"current_range_meters":39200,"station_id":"ce4bh2h2rcd13ifvqdh0","pricing_plan_id":"cebpf4jnsgd1na2vs0mg"},{"bike_id":"7e02c190-5c9c-4514-a114-7f937b909c56","system_id":"levelo_inurba_marseille","lat":43.25495,"lon":5.37642,"is_reserved":false,"is_disabled":false,"rental_uris":{"android":"levelo://app?vid=7e02c190-5c9c-4514-a114-7f937b909c56","ios":"levelo://app?vid=7e02c190-5c9c-4514-a114-7f937b909c56"},"vehicle_type_id":"4","last_reported":1736024819,"current_range_meters":39200,"station_id":"ce4bhh12rcd13ifvqff0","pricing_plan_id":"cebpf4jnsgd1na2vs0mg"},{"bike_id":"63e6bb50-ce1f-4541-be03-12125c98f18d","system_id":"levelo_inurba_marseille","lat":43.28412,"lon":5.37507,"is_reserved":false,"is_disabled":false,"rental_uris":{"android":"levelo://app?vid=63e6bb50-ce1f-4541-be03-12125c98f18d","ios":"levelo://app?vid=63e6bb50-ce1f-4541-be03-12125c98f18d"},"vehicle_type_id":"4","last_reported":1736024819,"current_range_meters":13600,"station_id":"ce4bh412rcd13ifvqds0","pricing_plan_id":"cebpf4jnsgd1na2vs0mg"},{"bike_id":"cfa9ca20-27d4-44a2-a7d9-d2b75ed2f4ac","system_id":"levelo_inurba_marseille","lat":43.31074,"lon":5.38343,"is_reserved":false,"is_disabled":true,"rental_uris":{"android":"levelo://app?vid=cfa9ca20-27d4-44a2-a7d9-d2b75ed2f4ac","ios":"levelo://app?vid=cfa9ca20-27d4-44a2-a7d9-d2b75ed2f4ac"},"vehicle_type_id":"4","last_reported":1736024819,"current_range_meters":9200,"station_id":"ce4bgv92rcd13ifvqcr0","pricing_plan_id":"cebpf4jnsgd1na2vs0mg"},{"bike_id":"2e3020fc-739e-484f-aff1-968aa18f2ac1","system_id":"levelo_inurba_marseille","lat":43.27974,"lon":5.41646,"is_reserved":false,"is_disabled":true,"rental_uris":{"android":"levelo://app?vid=2e3020fc-739e-484f-aff1-968aa18f2ac1","ios":"levelo://app?vid=2e3020fc-739e-484f-aff1-968aa18f2ac1"},"vehicle_type_id":"4","last_reported":1736024819,"current_range_meters":8400,"station_id":"ce4bho12rcd13ifvqh1g","pricing_plan_id":"cebpf4jnsgd1na2vs0mg"},{"bike_id":"f18f8327-b78e-417b-a113-93735f200515","system_id":"levelo_inurba_marseille","lat":43.29022,"lon":5.38619,"is_reserved":false,"is_disabled":false,"rental_uris":{"android":"levelo://app?vid=f18f8327-b78e-417b-a113-93735f200515","ios":"levelo://app?vid=f18f8327-b78e-417b-a113-93735f200515"},"vehicle_type_id":"4","last_reported":1736024819,"current_range_meters":38800,"station_id":"ce4bh4p2rcd13ifvqe0g","pricing_plan_id":"cebpf4jnsgd1na2vs0mg"},{"bike_id":"8d3c0f78-e962-4e13-b73d-d1069bc6cb91","system_id":"levelo_inurba_marseille","lat":43.27318,"lon":5.39122,"is_reserved":false,"is_disabled":false,"rental_uris":{"android":"levelo://app?vid=8d3c0f78-e962-4e13-b73d-d1069bc6cb91","ios":"levelo://app?vid=8d3c0f78-e962-4e13-b73d-d1069bc6cb91"},"vehicle_type_id":"4","last_reported":1736024819,"current_range_meters":38800,"station_id":"ce4bhgp2rcd13ifvqfe0","pricing_plan_id":"cebpf4jnsgd1na2vs0mg"},{"bike_id":"a0adb3c4-caf9-464d-8f3e-6b5be1eb9699","system_id":"levelo_inurba_marseille","lat":43.25101,"lon":5.40308,"is_reserved":false,"is_disabled":false,"rental_uris":{"android":"levelo://app?vid=a0adb3c4-caf9-464d-8f3e-6b5be1eb9699","ios":"levelo://app?vid=a0adb3c4-caf9-464d-8f3e-6b5be1eb9699"},"vehicle_type_id":"4","last_reported":1736024819,"current_range_meters":34800,"station_id":"ce4bhlh2rcd13ifvqgig","pricing_plan_id":"cebpf4jnsgd1na2vs0mg"},{"bike_id":"593d8424-f565-422e-8480-e0f50e2c043e","system_id":"levelo_inurba_marseille","lat":43.27979,"lon":5.38685,"is_reserved":false,"is_disabled":true,"rental_uris":{"android":"levelo://app?vid=593d8424-f565-422e-8480-e0f50e2c043e","ios":"levelo://app?vid=593d8424-f565-422e-8480-e0f50e2c043e"},"vehicle_type_id":"4","last_reported":1736024819,"current_range_meters":36400,"station_id":"ce4bhg12rcd13ifvqf80","pricing_plan_id":"cebpf4jnsgd1na2vs0mg"},{"bike_id":"a944f865-f260-4d6e-8bfb-34b22d4c0ecd","system_id":"levelo_inurba_marseille","lat":43.30204,"lon":5.36602,"is_reserved":false,"is_disabled":true,"rental_uris":{"android":"levelo://app?vid=a944f865-f260-4d6e-8bfb-34b22d4c0ecd","ios":"levelo://app?vid=a944f865-f260-4d6e-8bfb-34b22d4c0ecd"},"vehicle_type_id":"4","last_reported":1736024819,"current_range_meters":32800,"station_id":"ce4bgrh2rcd13ifvqc8g","pricing_plan_id":"cebpf4jnsgd1na2vs0mg"},{"bike_id":"8cdc1ef2-0806-4959-9c23-8b6d5fa7df18","system_id":"levelo_inurba_marseille","lat":43.32654,"lon":5.40987,"is_reserved":false,"is_disabled":false,"rental_uris":{"android":"levelo://app?vid=8cdc1ef2-0806-4959-9c23-8b6d5fa7df18","ios":"levelo://app?vid=8cdc1ef2-0806-4959-9c23-8b6d5fa7df18"},"vehicle_type_id":"4","last_reported":1736024819,"current_range_meters":37600,"station_id":"ce4bhpp2rcd13ifvqhgg","pricing_plan_id":"cebpf4jnsgd1na2vs0mg"},{"bike_id":"11a2eb82-99a1-42d5-83a9-0353405f227e","system_id":"levelo_inurba_marseille","lat":43.32505,"lon":5.36635,"is_reserved":false,"is_disabled":false,"rental_uris":{"android":"levelo://app?vid=11a2eb82-99a1-42d5-83a9-0353405f227e","ios":"levelo://app?vid=11a2eb82-99a1-42d5-83a9-0353405f227e"},"vehicle_type_id":"4","last_reported":1736024819,"current_range_meters":6000,"station_id":"","pricing_plan_id":"cebpf4jnsgd1na2vs0mg"},{"bike_id":"c9830413-d767-4d5e-9a59-c4e1724c89ef","system_id":"levelo_inurba_marseille","lat":43.29418,"lon":5.38629,"is_reserved":false,"is_disabled":false,"rental_uris":{"android":"levelo://app?vid=c9830413-d767-4d5e-9a59-c4e1724c89ef","ios":"levelo://app?vid=c9830413-d767-4d5e-9a59-c4e1724c89ef"},"vehicle_type_id":"4","last_reported":1736024819,"current_range_meters":27200,"station_id":"ce4bh2h2rcd13ifvqdh0","pricing_plan_id":"cebpf4jnsgd1na2vs0mg"},{"bike_id":"43154997-c200-4bb7-bede-ab4e4a1c2437","system_id":"levelo_inurba_marseille","lat":43.30067,"lon":5.40078,"is_reserved":false,"is_disabled":false,"rental_uris":{"android":"levelo://app?vid=43154997-c200-4bb7-bede-ab4e4a1c2437","ios":"levelo://app?vid=43154997-c200-4bb7-bede-ab4e4a1c2437"},"vehicle_type_id":"4","last_reported":1736024819,"current_range_meters":25600,"station_id":"ce4bgvh2rcd13ifvqcs0","pricing_plan_id":"cebpf4jnsgd1na2vs0mg"},{"bike_id":"070aaf8c-5956-497b-b956-7261d25d6c15","system_id":"levelo_inurba_marseille","lat":43.28072,"lon":5.39658,"is_reserved":false,"is_disabled":false,"rental_uris":{"android":"levelo://app?vid=070aaf8c-5956-497b-b956-7261d25d6c15","ios":"levelo://app?vid=070aaf8c-5956-497b-b956-7261d25d6c15"},"vehicle_type_id":"4","last_reported":1736024819,"current_range_meters":14000,"station_id":"ce4bho12rcd13ifvqh2g","pricing_plan_id":"cebpf4jnsgd1na2vs0mg"},{"bike_id":"4a63a773-0587-4c36-9848-1c5102052063","system_id":"levelo_inurba_marseille","lat":43.29527,"lon":5.39043,"is_reserved":false,"is_disabled":false,"rental_uris":{"android":"levelo://app?vid=4a63a773-0587-4c36-9848-1c5102052063","ios":"levelo://app?vid=4a63a773-0587-4c36-9848-1c5102052063"},"vehicle_type_id":"4","last_reported":1736024819,"current_range_meters":29600,"station_id":"ce4bh3p2rcd13ifvqdp0","pricing_plan_id":"cebpf4jnsgd1na2vs0mg"},{"bike_id":"11bab6b1-8f19-4376-9cab-a89cad5be186","system_id":"levelo_inurba_marseille","lat":43.32489,"lon":5.36578,"is_reserved":false,"is_disabled":false,"rental_uris":{"android":"levelo://app?vid=11bab6b1-8f19-4376-9cab-a89cad5be186","ios":"levelo://app?vid=11bab6b1-8f19-4376-9cab-a89cad5be186"},"vehicle_type_id":"4","last_reported":1736024819,"current_range_meters":36800,"station_id":"ce4bhs12rcd13ifvqhvg","pricing_plan_id":"cebpf4jnsgd1na2vs0mg"},{"bike_id":"9bd04c4d-bba3-44a3-88b7-e0bf363fe6b8","system_id":"levelo_inurba_marseille","lat":43.2471,"lon":5.38147,"is_reserved":false,"is_disabled":false,"rental_uris":{"android":"levelo://app?vid=9bd04c4d-bba3-44a3-88b7-e0bf363fe6b8","ios":"levelo://app?vid=9bd04c4d-bba3-44a3-88b7-e0bf363fe6b8"},"vehicle_type_id":"4","last_reported":1736024819,"current_range_meters":36400,"station_id":"ce4bhih2rcd13ifvqfr0","pricing_plan_id":"cebpf4jnsgd1na2vs0mg"},{"bike_id":"9f5cd564-e5f7-47cf-975d-1d217c460618","system_id":"levelo_inurba_marseille","lat":43.29201,"lon":5.39326,"is_reserved":false,"is_disabled":false,"rental_uris":{"android":"levelo://app?vid=9f5cd564-e5f7-47cf-975d-1d217c460618","ios":"levelo://app?vid=9f5cd564-e5f7-47cf-975d-1d217c460618"},"vehicle_type_id":"4","last_reported":1736024819,"current_range_meters":16800,"station_id":"ce4bh192rcd13ifvqdd0","pricing_plan_id":"cebpf4jnsgd1na2vs0mg"},{"bike_id":"f52c7654-593e-4648-8d72-c1c67a3bd0b7","system_id":"levelo_inurba_marseille","lat":43.28355,"lon":5.38109,"is_reserved":false,"is_disabled":false,"rental_uris":{"android":"levelo://app?vid=f52c7654-593e-4648-8d72-c1c67a3bd0b7","ios":"levelo://app?vid=f52c7654-593e-4648-8d72-c1c67a3bd0b7"},"vehicle_type_id":"4","last_reported":1736024819,"current_range_meters":22800,"station_id":"ce4bh412rcd13ifvqdr0","pricing_plan_id":"cebpf4jnsgd1na2vs0mg"},{"bike_id":"4608dad6-0378-4f07-a39f-dd205981ef2d","system_id":"levelo_inurba_marseille","lat":43.27206,"lon":5.39194,"is_reserved":false,"is_disabled":false,"rental_uris":{"android":"levelo://app?vid=4608dad6-0378-4f07-a39f-dd205981ef2d","ios":"levelo://app?vid=4608dad6-0378-4f07-a39f-dd205981ef2d"},"vehicle_type_id":"4","last_reported":1736024819,"current_range_meters":38800,"station_id":"ce4bhhp2rcd13ifvqfm0","pricing_plan_id":"cebpf4jnsgd1na2vs0mg"},{"bike_id":"2c9070a1-605e-4cf4-a186-3478949d2d99","system_id":"levelo_inurba_marseille","lat":43.28681,"lon":5.38654,"is_reserved":false,"is_disabled":false,"rental_uris":{"android":"levelo://app?vid=2c9070a1-605e-4cf4-a186-3478949d2d99","ios":"levelo://app?vid=2c9070a1-605e-4cf4-a186-3478949d2d99"},"vehicle_type_id":"4","last_reported":1736024819,"current_range_meters":18000,"station_id":"ce4bh492rcd13ifvqdug","pricing_plan_id":"cebpf4jnsgd1na2vs0mg"},{"bike_id":"02198883-bde0-48b0-801e-7744ed946672","system_id":"levelo_inurba_marseille","lat":43.29736,"lon":5.37087,"is_reserved":false,"is_disabled":false,"rental_uris":{"android":"levelo://app?vid=02198883-bde0-48b0-801e-7744ed946672","ios":"levelo://app?vid=02198883-bde0-48b0-801e-7744ed946672"},"vehicle_type_id":"4","last_reported":1736024819,"current_range_meters":38800,"station_id":"ce4bgop2rcd13ifvqc1g","pricing_plan_id":"cebpf4jnsgd1na2vs0mg"},{"bike_id":"4d010683-2ccf-478e-baa7-c439fbf0a201","system_id":"levelo_inurba_marseille","lat":43.25719,"lon":5.41104,"is_reserved":false,"is_disabled":false,"rental_uris":{"android":"levelo://app?vid=4d010683-2ccf-478e-baa7-c439fbf0a201","ios":"levelo://app?vid=4d010683-2ccf-478e-baa7-c439fbf0a201"},"vehicle_type_id":"4","last_reported":1736024819,"current_range_meters":38800,"station_id":"ce4bhkp2rcd13ifvqgd0","pricing_plan_id":"cebpf4jnsgd1na2vs0mg"},{"bike_id":"ad036647-e9f4-4246-953d-37ee6601db50","system_id":"levelo_inurba_marseille","lat":43.246689,"lon":5.381657,"is_reserved":false,"is_disabled":false,"rental_uris":{"android":"levelo://app?vid=ad036647-e9f4-4246-953d-37ee6601db50","ios":"levelo://app?vid=ad036647-e9f4-4246-953d-37ee6601db50"},"vehicle_type_id":"4","last_reported":1736024819,"current_range_meters":28800,"station_id":"ce4bhih2rcd13ifvqfr0","pricing_plan_id":"cebpf4jnsgd1na2vs0mg"},{"bike_id":"45541365-1ced-47f7-8412-fe1288417af3","system_id":"levelo_inurba_marseille","lat":43.28696,"lon":5.38642,"is_reserved":false,"is_disabled":false,"rental_uris":{"android":"levelo://app?vid=45541365-1ced-47f7-8412-fe1288417af3","ios":"levelo://app?vid=45541365-1ced-47f7-8412-fe1288417af3"},"vehicle_type_id":"4","last_reported":1736024819,"current_range_meters":34800,"station_id":"","pricing_plan_id":"cebpf4jnsgd1na2vs0mg"},{"bike_id":"09d9ba3f-c877-4b51-ad47-9efa7cfa44c1","system_id":"levelo_inurba_marseille","lat":43.25503,"lon":5.37646,"is_reserved":false,"is_disabled":false,"rental_uris":{"android":"levelo://app?vid=09d9ba3f-c877-4b51-ad47-9efa7cfa44c1","ios":"levelo://app?vid=09d9ba3f-c877-4b51-ad47-9efa7cfa44c1"},"vehicle_type_id":"4","last_reported":1736024819,"current_range_meters":18800,"station_id":"ce4bhh12rcd13ifvqff0","pricing_plan_id":"cebpf4jnsgd1na2vs0mg"},{"bike_id":"e23a8edf-e2ad-466c-9528-bd5f04fbfc74","system_id":"levelo_inurba_marseille","lat":43.33013,"lon":5.39026,"is_reserved":false,"is_disabled":false,"rental_uris":{"android":"levelo://app?vid=e23a8edf-e2ad-466c-9528-bd5f04fbfc74","ios":"levelo://app?vid=e23a8edf-e2ad-466c-9528-bd5f04fbfc74"},"vehicle_type_id":"4","last_reported":1736024819,"current_range_meters":37600,"station_id":"ce4bhr92rcd13ifvqhrg","pricing_plan_id":"cebpf4jnsgd1na2vs0mg"},{"bike_id":"1b7d2371-0eba-4a43-8133-800073020b26","system_id":"levelo_inurba_marseille","lat":43.31523,"lon":5.38031,"is_reserved":false,"is_disabled":false,"rental_uris":{"android":"levelo://app?vid=1b7d2371-0eba-4a43-8133-800073020b26","ios":"levelo://app?vid=1b7d2371-0eba-4a43-8133-800073020b26"},"vehicle_type_id":"4","last_reported":1736024819,"current_range_meters":33200,"station_id":"ce4bhsp2rcd13ifvqi50","pricing_plan_id":"cebpf4jnsgd1na2vs0mg"},{"bike_id":"5cc43707-092d-4bdb-8131-bd84677c4258","system_id":"levelo_inurba_marseille","lat":43.29563,"lon":5.38508,"is_reserved":false,"is_disabled":false,"rental_uris":{"android":"levelo://app?vid=5cc43707-092d-4bdb-8131-bd84677c4258","ios":"levelo://app?vid=5cc43707-092d-4bdb-8131-bd84677c4258"},"vehicle_type_id":"4","last_reported":1736024819,"current_range_meters":27600,"station_id":"ce4bgih2rcd13ifvqba0","pricing_plan_id":"cebpf4jnsgd1na2vs0mg"},{"bike_id":"66d3e1ef-7727-44f9-b619-eeddb54c1fba","system_id":"levelo_inurba_marseille","lat":43.30423,"lon":5.38878,"is_reserved":false,"is_disabled":true,"rental_uris":{"android":"levelo://app?vid=66d3e1ef-7727-44f9-b619-eeddb54c1fba","ios":"levelo://app?vid=66d3e1ef-7727-44f9-b619-eeddb54c1fba"},"vehicle_type_id":"4","last_reported":1736024819,"current_range_meters":12800,"station_id":"ce4bgk12rcd13ifvqbi0","pricing_plan_id":"cebpf4jnsgd1na2vs0mg"},{"bike_id":"e7057304-f019-4221-abcd-7c933f0a195c","system_id":"levelo_inurba_marseille","lat":43.28855,"lon":5.35866,"is_reserved":false,"is_disabled":false,"rental_uris":{"android":"levelo://app?vid=e7057304-f019-4221-abcd-7c933f0a195c","ios":"levelo://app?vid=e7057304-f019-4221-abcd-7c933f0a195c"},"vehicle_type_id":"4","last_reported":1736024819,"current_range_meters":33600,"station_id":"ce4bhb12rcd13ifvqem0","pricing_plan_id":"cebpf4jnsgd1na2vs0mg"},{"bike_id":"c8ac5f2a-e62e-4fc6-aacc-cf5870109233","system_id":"levelo_inurba_marseille","lat":43.30255,"lon":5.40061,"is_reserved":false,"is_disabled":false,"rental_uris":{"android":"levelo://app?vid=c8ac5f2a-e62e-4fc6-aacc-cf5870109233","ios":"levelo://app?vid=c8ac5f2a-e62e-4fc6-aacc-cf5870109233"},"vehicle_type_id":"4","last_reported":1736024819,"current_range_meters":37600,"station_id":"ce4bgvh2rcd13ifvqcs0","pricing_plan_id":"cebpf4jnsgd1na2vs0mg"},{"bike_id":"95b4ed6c-9114-44e6-99d9-3f23b39fc01c","system_id":"levelo_inurba_marseille","lat":43.29035,"lon":5.38628,"is_reserved":false,"is_disabled":false,"rental_uris":{"android":"levelo://app?vid=95b4ed6c-9114-44e6-99d9-3f23b39fc01c","ios":"levelo://app?vid=95b4ed6c-9114-44e6-99d9-3f23b39fc01c"},"vehicle_type_id":"4","last_reported":1736024819,"current_range_meters":37600,"station_id":"ce4bh4p2rcd13ifvqe0g","pricing_plan_id":"cebpf4jnsgd1na2vs0mg"},{"bike_id":"642eb0c4-eb99-41cb-9b33-d2cba9e24933","system_id":"levelo_inurba_marseille","lat":43.31076,"lon":5.38349,"is_reserved":false,"is_disabled":false,"rental_uris":{"android":"levelo://app?vid=642eb0c4-eb99-41cb-9b33-d2cba9e24933","ios":"levelo://app?vid=642eb0c4-eb99-41cb-9b33-d2cba9e24933"},"vehicle_type_id":"4","last_reported":1736024819,"current_range_meters":32800,"station_id":"ce4bgv92rcd13ifvqcr0","pricing_plan_id":"cebpf4jnsgd1na2vs0mg"},{"bike_id":"683c3a18-2fe8-4db2-829b-d8065bc8adc1","system_id":"levelo_inurba_marseille","lat":43.24071,"lon":5.37757,"is_reserved":false,"is_disabled":false,"rental_uris":{"android":"levelo://app?vid=683c3a18-2fe8-4db2-829b-d8065bc8adc1","ios":"levelo://app?vid=683c3a18-2fe8-4db2-829b-d8065bc8adc1"},"vehicle_type_id":"4","last_reported":1736024819,"current_range_meters":30400,"station_id":"ce4bhnp2rcd13ifvqgvg","pricing_plan_id":"cebpf4jnsgd1na2vs0mg"},{"bike_id":"3c7354c6-a1f8-498d-abe8-469408c6b0e1","system_id":"levelo_inurba_marseille","lat":43.3014,"lon":5.38783,"is_reserved":false,"is_disabled":false,"rental_uris":{"android":"levelo://app?vid=3c7354c6-a1f8-498d-abe8-469408c6b0e1","ios":"levelo://app?vid=3c7354c6-a1f8-498d-abe8-469408c6b0e1"},"vehicle_type_id":"4","last_reported":1736024819,"current_range_meters":32000,"station_id":"ce4bghh2rcd13ifvqb60","pricing_plan_id":"cebpf4jnsgd1na2vs0mg"},{"bike_id":"e701aeeb-d4e0-4470-aad9-be342ce267f0","system_id":"levelo_inurba_marseille","lat":43.32269,"lon":5.38246,"is_reserved":false,"is_disabled":false,"rental_uris":{"android":"levelo://app?vid=e701aeeb-d4e0-4470-aad9-be342ce267f0","ios":"levelo://app?vid=e701aeeb-d4e0-4470-aad9-be342ce267f0"},"vehicle_type_id":"4","last_reported":1736024819,"current_range_meters":35600,"station_id":"ce4bhr12rcd13ifvqhqg","pricing_plan_id":"cebpf4jnsgd1na2vs0mg"},{"bike_id":"ea7050ff-7aa9-43ba-b203-b876f0962480","system_id":"levelo_inurba_marseille","lat":43.279962,"lon":5.40027,"is_reserved":false,"is_disabled":false,"rental_uris":{"android":"levelo://app?vid=ea7050ff-7aa9-43ba-b203-b876f0962480","ios":"levelo://app?vid=ea7050ff-7aa9-43ba-b203-b876f0962480"},"vehicle_type_id":"4","last_reported":1736024819,"current_range_meters":38800,"station_id":"ce4bho92rcd13ifvqh4g","pricing_plan_id":"cebpf4jnsgd1na2vs0mg"},{"bike_id":"691c611c-1893-47b2-9143-313397a0d4b6","system_id":"levelo_inurba_marseille","lat":43.30434,"lon":5.39748,"is_reserved":false,"is_disabled":false,"rental_uris":{"android":"levelo://app?vid=691c611c-1893-47b2-9143-313397a0d4b6","ios":"levelo://app?vid=691c611c-1893-47b2-9143-313397a0d4b6"},"vehicle_type_id":"4","last_reported":1736024819,"current_range_meters":36800,"station_id":"ce4bh092rcd13ifvqd20","pricing_plan_id":"cebpf4jnsgd1na2vs0mg"},{"bike_id":"427908c3-8f62-4301-a09c-c64c860847d9","system_id":"levelo_inurba_marseille","lat":43.29292,"lon":5.37172,"is_reserved":false,"is_disabled":false,"rental_uris":{"android":"levelo://app?vid=427908c3-8f62-4301-a09c-c64c860847d9","ios":"levelo://app?vid=427908c3-8f62-4301-a09c-c64c860847d9"},"vehicle_type_id":"4","last_reported":1736024819,"current_range_meters":30400,"station_id":"ce4bgh92rcd13ifvqb40","pricing_plan_id":"cebpf4jnsgd1na2vs0mg"},{"bike_id":"8bf5141e-3146-496b-828c-aa16db841e56","system_id":"levelo_inurba_marseille","lat":43.32554,"lon":5.41439,"is_reserved":false,"is_disabled":false,"rental_uris":{"android":"levelo://app?vid=8bf5141e-3146-496b-828c-aa16db841e56","ios":"levelo://app?vid=8bf5141e-3146-496b-828c-aa16db841e56"},"vehicle_type_id":"4","last_reported":1736024819,"current_range_meters":28800,"station_id":"ce4bhq12rcd13ifvqhhg","pricing_plan_id":"cebpf4jnsgd1na2vs0mg"},{"bike_id":"2332862a-3884-4317-af82-ee9793e9b62c","system_id":"levelo_inurba_marseille","lat":43.24076,"lon":5.37739,"is_reserved":false,"is_disabled":false,"rental_uris":{"android":"levelo://app?vid=2332862a-3884-4317-af82-ee9793e9b62c","ios":"levelo://app?vid=2332862a-3884-4317-af82-ee9793e9b62c"},"vehicle_type_id":"4","last_reported":1736024819,"current_range_meters":14800,"station_id":"ce4bhnp2rcd13ifvqgvg","pricing_plan_id":"cebpf4jnsgd1na2vs0mg"},{"bike_id":"3fed1827-13aa-4afe-a0f9-8be0a428d811","system_id":"levelo_inurba_marseille","lat":43.32374,"lon":5.38879,"is_reserved":false,"is_disabled":false,"rental_uris":{"android":"levelo://app?vid=3fed1827-13aa-4afe-a0f9-8be0a428d811","ios":"levelo://app?vid=3fed1827-13aa-4afe-a0f9-8be0a428d811"},"vehicle_type_id":"4","last_reported":1736024819,"current_range_meters":38800,"station_id":"ce4bhqp2rcd13ifvqhog","pricing_plan_id":"cebpf4jnsgd1na2vs0mg"},{"bike_id":"df6396a0-238b-4467-8e80-f854b4f79617","system_id":"levelo_inurba_marseille","lat":43.31483,"lon":5.40328,"is_reserved":false,"is_disabled":false,"rental_uris":{"android":"levelo://app?vid=df6396a0-238b-4467-8e80-f854b4f79617","ios":"levelo://app?vid=df6396a0-238b-4467-8e80-f854b4f79617"},"vehicle_type_id":"4","last_reported":1736024819,"current_range_meters":37600,"station_id":"ce4bhqh2rcd13ifvqhlg","pricing_plan_id":"cebpf4jnsgd1na2vs0mg"},{"bike_id":"d6623fb3-7fe3-4914-8803-99fc449c9eb9","system_id":"levelo_inurba_marseille","lat":43.24816,"lon":5.37447,"is_reserved":false,"is_disabled":false,"rental_uris":{"android":"levelo://app?vid=d6623fb3-7fe3-4914-8803-99fc449c9eb9","ios":"levelo://app?vid=d6623fb3-7fe3-4914-8803-99fc449c9eb9"},"vehicle_type_id":"4","last_reported":1736024819,"current_range_meters":22400,"station_id":"ce4bhgh2rcd13ifvqfb0","pricing_plan_id":"cebpf4jnsgd1na2vs0mg"},{"bike_id":"065e15fa-7fcf-47e7-bf49-de94cdc8d7c4","system_id":"levelo_inurba_marseille","lat":43.28408,"lon":5.37509,"is_reserved":false,"is_disabled":false,"rental_uris":{"android":"levelo://app?vid=065e15fa-7fcf-47e7-bf49-de94cdc8d7c4","ios":"levelo://app?vid=065e15fa-7fcf-47e7-bf49-de94cdc8d7c4"},"vehicle_type_id":"4","last_reported":1736024819,"current_range_meters":11600,"station_id":"ce4bh412rcd13ifvqds0","pricing_plan_id":"cebpf4jnsgd1na2vs0mg"},{"bike_id":"9ac259cf-6fc9-444f-aa73-fc3531cfa12d","system_id":"levelo_inurba_marseille","lat":43.25117,"lon":5.40311,"is_reserved":false,"is_disabled":false,"rental_uris":{"android":"levelo://app?vid=9ac259cf-6fc9-444f-aa73-fc3531cfa12d","ios":"levelo://app?vid=9ac259cf-6fc9-444f-aa73-fc3531cfa12d"},"vehicle_type_id":"4","last_reported":1736024819,"current_range_meters":38000,"station_id":"ce4bhlh2rcd13ifvqgig","pricing_plan_id":"cebpf4jnsgd1na2vs0mg"},{"bike_id":"2bc86944-f212-4952-8a3f-addab1198fb5","system_id":"levelo_inurba_marseille","lat":43.29532,"lon":5.38525,"is_reserved":false,"is_disabled":false,"rental_uris":{"android":"levelo://app?vid=2bc86944-f212-4952-8a3f-addab1198fb5","ios":"levelo://app?vid=2bc86944-f212-4952-8a3f-addab1198fb5"},"vehicle_type_id":"4","last_reported":1736024819,"current_range_meters":25600,"station_id":"ce4bgih2rcd13ifvqba0","pricing_plan_id":"cebpf4jnsgd1na2vs0mg"},{"bike_id":"4a9ae638-3a1c-4c74-88bc-52947c053a13","system_id":"levelo_inurba_marseille","lat":43.26512,"lon":5.39529,"is_reserved":false,"is_disabled":false,"rental_uris":{"android":"levelo://app?vid=4a9ae638-3a1c-4c74-88bc-52947c053a13","ios":"levelo://app?vid=4a9ae638-3a1c-4c74-88bc-52947c053a13"},"vehicle_type_id":"4","last_reported":1736024819,"current_range_meters":8400,"station_id":"ce4bhi12rcd13ifvqfq0","pricing_plan_id":"cebpf4jnsgd1na2vs0mg"},{"bike_id":"c8529c5f-726c-44b9-8f81-1b72db6f4e53","system_id":"levelo_inurba_marseille","lat":43.3236,"lon":5.38881,"is_reserved":false,"is_disabled":false,"rental_uris":{"android":"levelo://app?vid=c8529c5f-726c-44b9-8f81-1b72db6f4e53","ios":"levelo://app?vid=c8529c5f-726c-44b9-8f81-1b72db6f4e53"},"vehicle_type_id":"4","last_reported":1736024819,"current_range_meters":38800,"station_id":"ce4bhqp2rcd13ifvqhog","pricing_plan_id":"cebpf4jnsgd1na2vs0mg"},{"bike_id":"66c1f4a8-00f2-48da-ab15-4047c3fa8786","system_id":"levelo_inurba_marseille","lat":43.308824,"lon":5.396115,"is_reserved":false,"is_disabled":false,"rental_uris":{"android":"levelo://app?vid=66c1f4a8-00f2-48da-ab15-4047c3fa8786","ios":"levelo://app?vid=66c1f4a8-00f2-48da-ab15-4047c3fa8786"},"vehicle_type_id":"4","last_reported":1736024819,"current_range_meters":38800,"station_id":"ce4bh012rcd13ifvqcv0","pricing_plan_id":"cebpf4jnsgd1na2vs0mg"},{"bike_id":"9a483109-5bce-4e89-a527-a3ced035742c","system_id":"levelo_inurba_marseille","lat":43.26948,"lon":5.3863,"is_reserved":false,"is_disabled":false,"rental_uris":{"android":"levelo://app?vid=9a483109-5bce-4e89-a527-a3ced035742c","ios":"levelo://app?vid=9a483109-5bce-4e89-a527-a3ced035742c"},"vehicle_type_id":"4","last_reported":1736024819,"current_range_meters":14800,"station_id":"ce4bhh92rcd13ifvqfh0","pricing_plan_id":"cebpf4jnsgd1na2vs0mg"},{"bike_id":"6c503bd7-7bec-4e40-8157-ec408bcaad78","system_id":"levelo_inurba_marseille","lat":43.24809,"lon":5.37455,"is_reserved":false,"is_disabled":false,"rental_uris":{"android":"levelo://app?vid=6c503bd7-7bec-4e40-8157-ec408bcaad78","ios":"levelo://app?vid=6c503bd7-7bec-4e40-8157-ec408bcaad78"},"vehicle_type_id":"4","last_reported":1736024819,"current_range_meters":28800,"station_id":"ce4bhgh2rcd13ifvqfb0","pricing_plan_id":"cebpf4jnsgd1na2vs0mg"},{"bike_id":"f4300c28-af3e-407a-b00f-975f89e7fa58","system_id":"levelo_inurba_marseille","lat":43.29167,"lon":5.37157,"is_reserved":false,"is_disabled":false,"rental_uris":{"android":"levelo://app?vid=f4300c28-af3e-407a-b00f-975f89e7fa58","ios":"levelo://app?vid=f4300c28-af3e-407a-b00f-975f89e7fa58"},"vehicle_type_id":"4","last_reported":1736024819,"current_range_meters":38800,"station_id":"ce4bha92rcd13ifvqeh0","pricing_plan_id":"cebpf4jnsgd1na2vs0mg"},{"bike_id":"e990e063-7cd9-414c-a1b2-2232b3b57494","system_id":"levelo_inurba_marseille","lat":43.29959,"lon":5.41304,"is_reserved":false,"is_disabled":false,"rental_uris":{"android":"levelo://app?vid=e990e063-7cd9-414c-a1b2-2232b3b57494","ios":"levelo://app?vid=e990e063-7cd9-414c-a1b2-2232b3b57494"},"vehicle_type_id":"4","last_reported":1736024819,"current_range_meters":38000,"station_id":"ce4bhp12rcd13ifvqh9g","pricing_plan_id":"cebpf4jnsgd1na2vs0mg"},{"bike_id":"7f1ce4ed-0cd0-4d23-b89e-099e0df8c108","system_id":"levelo_inurba_marseille","lat":43.25724,"lon":5.41117,"is_reserved":false,"is_disabled":false,"rental_uris":{"android":"levelo://app?vid=7f1ce4ed-0cd0-4d23-b89e-099e0df8c108","ios":"levelo://app?vid=7f1ce4ed-0cd0-4d23-b89e-099e0df8c108"},"vehicle_type_id":"4","last_reported":1736024819,"current_range_meters":38800,"station_id":"ce4bhkp2rcd13ifvqgd0","pricing_plan_id":"cebpf4jnsgd1na2vs0mg"},{"bike_id":"ae1505a2-b6d7-4b9a-b7ac-103098d44e5c","system_id":"levelo_inurba_marseille","lat":43.29558,"lon":5.38555,"is_reserved":false,"is_disabled":false,"rental_uris":{"android":"levelo://app?vid=ae1505a2-b6d7-4b9a-b7ac-103098d44e5c","ios":"levelo://app?vid=ae1505a2-b6d7-4b9a-b7ac-103098d44e5c"},"vehicle_type_id":"4","last_reported":1736024819,"current_range_meters":29600,"station_id":"ce4bgih2rcd13ifvqba0","pricing_plan_id":"cebpf4jnsgd1na2vs0mg"},{"bike_id":"969c8a84-cf60-4395-8c81-a1d2e7dc81af","system_id":"levelo_inurba_marseille","lat":43.25863,"lon":5.39888,"is_reserved":false,"is_disabled":false,"rental_uris":{"android":"levelo://app?vid=969c8a84-cf60-4395-8c81-a1d2e7dc81af","ios":"levelo://app?vid=969c8a84-cf60-4395-8c81-a1d2e7dc81af"},"vehicle_type_id":"4","last_reported":1736024819,"current_range_meters":19200,"station_id":"ce4bhl92rcd13ifvqghg","pricing_plan_id":"cebpf4jnsgd1na2vs0mg"},{"bike_id":"76ac28dd-d530-4709-9115-da90567e2011","system_id":"levelo_inurba_marseille","lat":43.29523,"lon":5.38543,"is_reserved":false,"is_disabled":false,"rental_uris":{"android":"levelo://app?vid=76ac28dd-d530-4709-9115-da90567e2011","ios":"levelo://app?vid=76ac28dd-d530-4709-9115-da90567e2011"},"vehicle_type_id":"4","last_reported":1736024819,"current_range_meters":29600,"station_id":"ce4bgih2rcd13ifvqba0","pricing_plan_id":"cebpf4jnsgd1na2vs0mg"},{"bike_id":"9d2065c5-e801-47c6-a32c-5834d37e9dab","system_id":"levelo_inurba_marseille","lat":43.32371,"lon":5.38867,"is_reserved":false,"is_disabled":false,"rental_uris":{"android":"levelo://app?vid=9d2065c5-e801-47c6-a32c-5834d37e9dab","ios":"levelo://app?vid=9d2065c5-e801-47c6-a32c-5834d37e9dab"},"vehicle_type_id":"4","last_reported":1736024819,"current_range_meters":37600,"station_id":"ce4bhqp2rcd13ifvqhog","pricing_plan_id":"cebpf4jnsgd1na2vs0mg"},{"bike_id":"8452ac70-b36f-4236-9954-dfaf1a87fa71","system_id":"levelo_inurba_marseille","lat":43.26827,"lon":5.4023,"is_reserved":false,"is_disabled":false,"rental_uris":{"android":"levelo://app?vid=8452ac70-b36f-4236-9954-dfaf1a87fa71","ios":"levelo://app?vid=8452ac70-b36f-4236-9954-dfaf1a87fa71"},"vehicle_type_id":"4","last_reported":1736024819,"current_range_meters":38800,"station_id":"ce501612rcd8frsf0b60","pricing_plan_id":"cebpf4jnsgd1na2vs0mg"},{"bike_id":"df49b311-14a3-4419-9895-f6d4bb3203a7","system_id":"levelo_inurba_marseille","lat":43.30898,"lon":5.37182,"is_reserved":false,"is_disabled":false,"rental_uris":{"android":"levelo://app?vid=df49b311-14a3-4419-9895-f6d4bb3203a7","ios":"levelo://app?vid=df49b311-14a3-4419-9895-f6d4bb3203a7"},"vehicle_type_id":"4","last_reported":1736024819,"current_range_meters":36800,"station_id":"ce4bguh2rcd13ifvqckg","pricing_plan_id":"cebpf4jnsgd1na2vs0mg"},{"bike_id":"f3d41f41-839d-41a5-aa6d-f2ba87ff18f0","system_id":"levelo_inurba_marseille","lat":43.24082,"lon":5.3773,"is_reserved":false,"is_disabled":true,"rental_uris":{"android":"levelo://app?vid=f3d41f41-839d-41a5-aa6d-f2ba87ff18f0","ios":"levelo://app?vid=f3d41f41-839d-41a5-aa6d-f2ba87ff18f0"},"vehicle_type_id":"4","last_reported":1736024819,"current_range_meters":0,"station_id":"ce4bhnp2rcd13ifvqgvg","pricing_plan_id":"cebpf4jnsgd1na2vs0mg"},{"bike_id":"6d14468d-d4fe-4fb2-b1d6-ebb52c384fb6","system_id":"levelo_inurba_marseille","lat":43.32001,"lon":5.38145,"is_reserved":false,"is_disabled":false,"rental_uris":{"android":"levelo://app?vid=6d14468d-d4fe-4fb2-b1d6-ebb52c384fb6","ios":"levelo://app?vid=6d14468d-d4fe-4fb2-b1d6-ebb52c384fb6"},"vehicle_type_id":"4","last_reported":1736024819,"current_range_meters":38800,"station_id":"ce4bhr12rcd13ifvqhpg","pricing_plan_id":"cebpf4jnsgd1na2vs0mg"},{"bike_id":"9f326815-9d5b-4c57-b098-1465cece3aff","system_id":"levelo_inurba_marseille","lat":43.28089,"lon":5.44153,"is_reserved":false,"is_disabled":false,"rental_uris":{"android":"levelo://app?vid=9f326815-9d5b-4c57-b098-1465cece3aff","ios":"levelo://app?vid=9f326815-9d5b-4c57-b098-1465cece3aff"},"vehicle_type_id":"4","last_reported":1736024819,"current_range_meters":18800,"station_id":"","pricing_plan_id":"cebpf4jnsgd1na2vs0mg"},{"bike_id":"2f857458-45ae-4306-9ffb-5d94252d59a5","system_id":"levelo_inurba_marseille","lat":43.24638,"lon":5.38925,"is_reserved":false,"is_disabled":false,"rental_uris":{"android":"levelo://app?vid=2f857458-45ae-4306-9ffb-5d94252d59a5","ios":"levelo://app?vid=2f857458-45ae-4306-9ffb-5d94252d59a5"},"vehicle_type_id":"4","last_reported":1736024819,"current_range_meters":37600,"station_id":"ce4bhg12rcd13ifvqf60","pricing_plan_id":"cebpf4jnsgd1na2vs0mg"},{"bike_id":"6bd6b947-ea52-46af-a064-970984313cc5","system_id":"levelo_inurba_marseille","lat":43.29428,"lon":5.38622,"is_reserved":false,"is_disabled":false,"rental_uris":{"android":"levelo://app?vid=6bd6b947-ea52-46af-a064-970984313cc5","ios":"levelo://app?vid=6bd6b947-ea52-46af-a064-970984313cc5"},"vehicle_type_id":"4","last_reported":1736024819,"current_range_meters":10000,"station_id":"ce4bh2h2rcd13ifvqdh0","pricing_plan_id":"cebpf4jnsgd1na2vs0mg"},{"bike_id":"7b78d5e2-5142-402d-a4f8-0f3037a6c533","system_id":"levelo_inurba_marseille","lat":43.26944,"lon":5.38644,"is_reserved":false,"is_disabled":true,"rental_uris":{"android":"levelo://app?vid=7b78d5e2-5142-402d-a4f8-0f3037a6c533","ios":"levelo://app?vid=7b78d5e2-5142-402d-a4f8-0f3037a6c533"},"vehicle_type_id":"4","last_reported":1736024819,"current_range_meters":10800,"station_id":"ce4bhh92rcd13ifvqfh0","pricing_plan_id":"cebpf4jnsgd1na2vs0mg"},{"bike_id":"a5427f41-9e99-4a1d-b40f-d6b3a65dcb1e","system_id":"levelo_inurba_marseille","lat":43.29182,"lon":5.39329,"is_reserved":false,"is_disabled":false,"rental_uris":{"android":"levelo://app?vid=a5427f41-9e99-4a1d-b40f-d6b3a65dcb1e","ios":"levelo://app?vid=a5427f41-9e99-4a1d-b40f-d6b3a65dcb1e"},"vehicle_type_id":"4","last_reported":1736024819,"current_range_meters":30400,"station_id":"ce4bh192rcd13ifvqdd0","pricing_plan_id":"cebpf4jnsgd1na2vs0mg"},{"bike_id":"00b0c897-4e8f-453d-8e9d-6135317dff3d","system_id":"levelo_inurba_marseille","lat":43.29541,"lon":5.42256,"is_reserved":false,"is_disabled":false,"rental_uris":{"android":"levelo://app?vid=00b0c897-4e8f-453d-8e9d-6135317dff3d","ios":"levelo://app?vid=00b0c897-4e8f-453d-8e9d-6135317dff3d"},"vehicle_type_id":"4","last_reported":1736024819,"current_range_meters":36800,"station_id":"ce4bhph2rcd13ifvqhdg","pricing_plan_id":"cebpf4jnsgd1na2vs0mg"},{"bike_id":"d0d21930-fe1d-478b-8251-bcf89564599d","system_id":"levelo_inurba_marseille","lat":43.29526,"lon":5.42287,"is_reserved":false,"is_disabled":false,"rental_uris":{"android":"levelo://app?vid=d0d21930-fe1d-478b-8251-bcf89564599d","ios":"levelo://app?vid=d0d21930-fe1d-478b-8251-bcf89564599d"},"vehicle_type_id":"4","last_reported":1736024819,"current_range_meters":28400,"station_id":"ce4bhph2rcd13ifvqhdg","pricing_plan_id":"cebpf4jnsgd1na2vs0mg"},{"bike_id":"0bd56123-f8b9-4d53-b166-447025313db1","system_id":"levelo_inurba_marseille","lat":43.2558,"lon":5.38234,"is_reserved":false,"is_disabled":false,"rental_uris":{"android":"levelo://app?vid=0bd56123-f8b9-4d53-b166-447025313db1","ios":"levelo://app?vid=0bd56123-f8b9-4d53-b166-447025313db1"},"vehicle_type_id":"4","last_reported":1736024819,"current_range_meters":23200,"station_id":"ce4bhih2rcd13ifvqfs0","pricing_plan_id":"cebpf4jnsgd1na2vs0mg"},{"bike_id":"ca097f70-8976-4699-b173-05723d0647b2","system_id":"levelo_inurba_marseille","lat":43.28186,"lon":5.42568,"is_reserved":false,"is_disabled":false,"rental_uris":{"android":"levelo://app?vid=ca097f70-8976-4699-b173-05723d0647b2","ios":"levelo://app?vid=ca097f70-8976-4699-b173-05723d0647b2"},"vehicle_type_id":"4","last_reported":1736024819,"current_range_meters":14800,"station_id":"","pricing_plan_id":"cebpf4jnsgd1na2vs0mg"},{"bike_id":"00f9b7cc-443a-445e-8bce-f0359a5266c8","system_id":"levelo_inurba_marseille","lat":43.29272,"lon":5.38435,"is_reserved":false,"is_disabled":false,"rental_uris":{"android":"levelo://app?vid=00f9b7cc-443a-445e-8bce-f0359a5266c8","ios":"levelo://app?vid=00f9b7cc-443a-445e-8bce-f0359a5266c8"},"vehicle_type_id":"4","last_reported":1736024819,"current_range_meters":30000,"station_id":"ce4bh692rcd13ifvqea0","pricing_plan_id":"cebpf4jnsgd1na2vs0mg"},{"bike_id":"ce634d00-ecec-40ad-8a20-bd8ba4a4d1fa","system_id":"levelo_inurba_marseille","lat":43.25497,"lon":5.37651,"is_reserved":false,"is_disabled":false,"rental_uris":{"android":"levelo://app?vid=ce634d00-ecec-40ad-8a20-bd8ba4a4d1fa","ios":"levelo://app?vid=ce634d00-ecec-40ad-8a20-bd8ba4a4d1fa"},"vehicle_type_id":"4","last_reported":1736024819,"current_range_meters":11200,"station_id":"ce4bhh12rcd13ifvqff0","pricing_plan_id":"cebpf4jnsgd1na2vs0mg"},{"bike_id":"bf078f72-daa5-4a9e-8bcf-19d7a4dcbdde","system_id":"levelo_inurba_marseille","lat":43.29799,"lon":5.39327,"is_reserved":false,"is_disabled":false,"rental_uris":{"android":"levelo://app?vid=bf078f72-daa5-4a9e-8bcf-19d7a4dcbdde","ios":"levelo://app?vid=bf078f72-daa5-4a9e-8bcf-19d7a4dcbdde"},"vehicle_type_id":"4","last_reported":1736024819,"current_range_meters":22800,"station_id":"chh1huq6cuj3fo74tm60","pricing_plan_id":"cebpf4jnsgd1na2vs0mg"},{"bike_id":"225d2cbf-fda4-4f24-8256-ab54a3b9439f","system_id":"levelo_inurba_marseille","lat":43.28408,"lon":5.37513,"is_reserved":false,"is_disabled":false,"rental_uris":{"android":"levelo://app?vid=225d2cbf-fda4-4f24-8256-ab54a3b9439f","ios":"levelo://app?vid=225d2cbf-fda4-4f24-8256-ab54a3b9439f"},"vehicle_type_id":"4","last_reported":1736024819,"current_range_meters":38800,"station_id":"ce4bh412rcd13ifvqds0","pricing_plan_id":"cebpf4jnsgd1na2vs0mg"},{"bike_id":"830b5d3b-cabb-4fdb-be27-c9d3d8ea9fde","system_id":"levelo_inurba_marseille","lat":43.2481,"lon":5.37453,"is_reserved":false,"is_disabled":false,"rental_uris":{"android":"levelo://app?vid=830b5d3b-cabb-4fdb-be27-c9d3d8ea9fde","ios":"levelo://app?vid=830b5d3b-cabb-4fdb-be27-c9d3d8ea9fde"},"vehicle_type_id":"4","last_reported":1736024819,"current_range_meters":38800,"station_id":"ce4bhgh2rcd13ifvqfb0","pricing_plan_id":"cebpf4jnsgd1na2vs0mg"},{"bike_id":"c7e37645-c5bb-4c3c-ab8a-35657fec26b6","system_id":"levelo_inurba_marseille","lat":43.3153,"lon":5.38026,"is_reserved":false,"is_disabled":false,"rental_uris":{"android":"levelo://app?vid=c7e37645-c5bb-4c3c-ab8a-35657fec26b6","ios":"levelo://app?vid=c7e37645-c5bb-4c3c-ab8a-35657fec26b6"},"vehicle_type_id":"4","last_reported":1736024819,"current_range_meters":38800,"station_id":"ce4bhsp2rcd13ifvqi50","pricing_plan_id":"cebpf4jnsgd1na2vs0mg"},{"bike_id":"4b270d4c-61fb-4561-80b8-6ff5c7629d20","system_id":"levelo_inurba_marseille","lat":43.28152,"lon":5.42644,"is_reserved":false,"is_disabled":false,"rental_uris":{"android":"levelo://app?vid=4b270d4c-61fb-4561-80b8-6ff5c7629d20","ios":"levelo://app?vid=4b270d4c-61fb-4561-80b8-6ff5c7629d20"},"vehicle_type_id":"4","last_reported":1736024819,"current_range_meters":29600,"station_id":"ce4bhnh2rcd13ifvqgug","pricing_plan_id":"cebpf4jnsgd1na2vs0mg"},{"bike_id":"3f80a8a7-088c-48ba-bdfc-1290fe642fc3","system_id":"levelo_inurba_marseille","lat":43.29088,"lon":5.37162,"is_reserved":false,"is_disabled":false,"rental_uris":{"android":"levelo://app?vid=3f80a8a7-088c-48ba-bdfc-1290fe642fc3","ios":"levelo://app?vid=3f80a8a7-088c-48ba-bdfc-1290fe642fc3"},"vehicle_type_id":"4","last_reported":1736024819,"current_range_meters":34800,"station_id":"ce4bh5p2rcd13ifvqe4g","pricing_plan_id":"cebpf4jnsgd1na2vs0mg"},{"bike_id":"19c307b4-701d-44a6-9709-df12f94ff36d","system_id":"levelo_inurba_marseille","lat":43.29176,"lon":5.3579,"is_reserved":false,"is_disabled":false,"rental_uris":{"android":"levelo://app?vid=19c307b4-701d-44a6-9709-df12f94ff36d","ios":"levelo://app?vid=19c307b4-701d-44a6-9709-df12f94ff36d"},"vehicle_type_id":"4","last_reported":1736024819,"current_range_meters":37600,"station_id":"ce4bhb12rcd13ifvqel0","pricing_plan_id":"cebpf4jnsgd1na2vs0mg"},{"bike_id":"a6f828f1-5f97-4da7-bf33-7d48a155db3e","system_id":"levelo_inurba_marseille","lat":43.27836,"lon":5.39196,"is_reserved":false,"is_disabled":false,"rental_uris":{"android":"levelo://app?vid=a6f828f1-5f97-4da7-bf33-7d48a155db3e","ios":"levelo://app?vid=a6f828f1-5f97-4da7-bf33-7d48a155db3e"},"vehicle_type_id":"4","last_reported":1736024819,"current_range_meters":25600,"station_id":"ce4bhjp2rcd13ifvqga0","pricing_plan_id":"cebpf4jnsgd1na2vs0mg"},{"bike_id":"cb4e598e-43fb-4420-bc13-ffc9995271ca","system_id":"levelo_inurba_marseille","lat":43.30634,"lon":5.37154,"is_reserved":false,"is_disabled":false,"rental_uris":{"android":"levelo://app?vid=cb4e598e-43fb-4420-bc13-ffc9995271ca","ios":"levelo://app?vid=cb4e598e-43fb-4420-bc13-ffc9995271ca"},"vehicle_type_id":"4","last_reported":1736024819,"current_range_meters":32800,"station_id":"ce4bgqh2rcd13ifvqc4g","pricing_plan_id":"cebpf4jnsgd1na2vs0mg"},{"bike_id":"a522c7f8-85db-4294-bcdd-44c45cbf4d5e","system_id":"levelo_inurba_marseille","lat":43.23213,"lon":5.39958,"is_reserved":false,"is_disabled":false,"rental_uris":{"android":"levelo://app?vid=a522c7f8-85db-4294-bcdd-44c45cbf4d5e","ios":"levelo://app?vid=a522c7f8-85db-4294-bcdd-44c45cbf4d5e"},"vehicle_type_id":"4","last_reported":1736024819,"current_range_meters":38800,"station_id":"ce4bhn12rcd13ifvqgqg","pricing_plan_id":"cebpf4jnsgd1na2vs0mg"},{"bike_id":"3146e349-8953-4d60-9187-c45e3c6929f5","system_id":"levelo_inurba_marseille","lat":43.27978,"lon":5.38727,"is_reserved":false,"is_disabled":false,"rental_uris":{"android":"levelo://app?vid=3146e349-8953-4d60-9187-c45e3c6929f5","ios":"levelo://app?vid=3146e349-8953-4d60-9187-c45e3c6929f5"},"vehicle_type_id":"4","last_reported":1736024819,"current_range_meters":10800,"station_id":"ce4bhg12rcd13ifvqf80","pricing_plan_id":"cebpf4jnsgd1na2vs0mg"},{"bike_id":"2bb365b9-b0ab-4842-8b8c-e8de6374870a","system_id":"levelo_inurba_marseille","lat":43.24651,"lon":5.3889,"is_reserved":false,"is_disabled":false,"rental_uris":{"android":"levelo://app?vid=2bb365b9-b0ab-4842-8b8c-e8de6374870a","ios":"levelo://app?vid=2bb365b9-b0ab-4842-8b8c-e8de6374870a"},"vehicle_type_id":"4","last_reported":1736024819,"current_range_meters":11600,"station_id":"ce4bhg12rcd13ifvqf60","pricing_plan_id":"cebpf4jnsgd1na2vs0mg"},{"bike_id":"9c3607c3-9997-438e-a3e0-f49fa87e5001","system_id":"levelo_inurba_marseille","lat":43.34156,"lon":5.4091,"is_reserved":false,"is_disabled":false,"rental_uris":{"android":"levelo://app?vid=9c3607c3-9997-438e-a3e0-f49fa87e5001","ios":"levelo://app?vid=9c3607c3-9997-438e-a3e0-f49fa87e5001"},"vehicle_type_id":"4","last_reported":1736024819,"current_range_meters":20000,"station_id":"ce4bhqh2rcd13ifvqhlg","pricing_plan_id":"cebpf4jnsgd1na2vs0mg"},{"bike_id":"d4fbba9a-ec19-4084-9841-cc80ff196e58","system_id":"levelo_inurba_marseille","lat":43.29627,"lon":5.3715,"is_reserved":false,"is_disabled":false,"rental_uris":{"android":"levelo://app?vid=d4fbba9a-ec19-4084-9841-cc80ff196e58","ios":"levelo://app?vid=d4fbba9a-ec19-4084-9841-cc80ff196e58"},"vehicle_type_id":"4","last_reported":1736024819,"current_range_meters":36400,"station_id":"ce4bgnh2rcd13ifvqc0g","pricing_plan_id":"cebpf4jnsgd1na2vs0mg"},{"bike_id":"34e4255c-9fbc-4de9-a3d7-5e22e73f9618","system_id":"levelo_inurba_marseille","lat":43.311145,"lon":5.377734,"is_reserved":false,"is_disabled":false,"rental_uris":{"android":"levelo://app?vid=34e4255c-9fbc-4de9-a3d7-5e22e73f9618","ios":"levelo://app?vid=34e4255c-9fbc-4de9-a3d7-5e22e73f9618"},"vehicle_type_id":"4","last_reported":1736024819,"current_range_meters":38800,"station_id":"ce4bgt92rcd13ifvqcg0","pricing_plan_id":"cebpf4jnsgd1na2vs0mg"},{"bike_id":"6c0950ff-ad32-4545-a3b0-d009b8de7beb","system_id":"levelo_inurba_marseille","lat":43.264966,"lon":5.395379,"is_reserved":false,"is_disabled":false,"rental_uris":{"android":"levelo://app?vid=6c0950ff-ad32-4545-a3b0-d009b8de7beb","ios":"levelo://app?vid=6c0950ff-ad32-4545-a3b0-d009b8de7beb"},"vehicle_type_id":"4","last_reported":1736024819,"current_range_meters":38800,"station_id":"ce4bhi12rcd13ifvqfq0","pricing_plan_id":"cebpf4jnsgd1na2vs0mg"},{"bike_id":"641d8acc-50b2-4173-ab23-c70f2a11d28e","system_id":"levelo_inurba_marseille","lat":43.28162,"lon":5.42628,"is_reserved":false,"is_disabled":true,"rental_uris":{"android":"levelo://app?vid=641d8acc-50b2-4173-ab23-c70f2a11d28e","ios":"levelo://app?vid=641d8acc-50b2-4173-ab23-c70f2a11d28e"},"vehicle_type_id":"4","last_reported":1736024819,"current_range_meters":36000,"station_id":"ce4bhnh2rcd13ifvqgug","pricing_plan_id":"cebpf4jnsgd1na2vs0mg"},{"bike_id":"c36a7d02-7399-460a-bd07-81bde3f07927","system_id":"levelo_inurba_marseille","lat":43.29265,"lon":5.3843,"is_reserved":false,"is_disabled":false,"rental_uris":{"android":"levelo://app?vid=c36a7d02-7399-460a-bd07-81bde3f07927","ios":"levelo://app?vid=c36a7d02-7399-460a-bd07-81bde3f07927"},"vehicle_type_id":"4","last_reported":1736024819,"current_range_meters":36400,"station_id":"ce4bh692rcd13ifvqea0","pricing_plan_id":"cebpf4jnsgd1na2vs0mg"},{"bike_id":"15e503f5-1d52-42d6-a98f-33a61fd8b554","system_id":"levelo_inurba_marseille","lat":43.2846,"lon":5.35894,"is_reserved":false,"is_disabled":true,"rental_uris":{"android":"levelo://app?vid=15e503f5-1d52-42d6-a98f-33a61fd8b554","ios":"levelo://app?vid=15e503f5-1d52-42d6-a98f-33a61fd8b554"},"vehicle_type_id":"4","last_reported":1736024819,"current_range_meters":28800,"station_id":"ce4bhah2rcd13ifvqei0","pricing_plan_id":"cebpf4jnsgd1na2vs0mg"},{"bike_id":"842941ff-2635-4eaa-8045-9295a83b7d3a","system_id":"levelo_inurba_marseille","lat":43.31526,"lon":5.38067,"is_reserved":false,"is_disabled":false,"rental_uris":{"android":"levelo://app?vid=842941ff-2635-4eaa-8045-9295a83b7d3a","ios":"levelo://app?vid=842941ff-2635-4eaa-8045-9295a83b7d3a"},"vehicle_type_id":"4","last_reported":1736024819,"current_range_meters":36000,"station_id":"ce4bhsp2rcd13ifvqi50","pricing_plan_id":"cebpf4jnsgd1na2vs0mg"},{"bike_id":"1c32083a-3b07-4502-8e29-beb20d8418d3","system_id":"levelo_inurba_marseille","lat":43.30304,"lon":5.3689,"is_reserved":false,"is_disabled":false,"rental_uris":{"android":"levelo://app?vid=1c32083a-3b07-4502-8e29-beb20d8418d3","ios":"levelo://app?vid=1c32083a-3b07-4502-8e29-beb20d8418d3"},"vehicle_type_id":"4","last_reported":1736024819,"current_range_meters":38400,"station_id":"ce4bgqh2rcd13ifvqc5g","pricing_plan_id":"cebpf4jnsgd1na2vs0mg"},{"bike_id":"939d444f-90af-4242-b314-80106977b85f","system_id":"levelo_inurba_marseille","lat":43.28157,"lon":5.42644,"is_reserved":false,"is_disabled":false,"rental_uris":{"android":"levelo://app?vid=939d444f-90af-4242-b314-80106977b85f","ios":"levelo://app?vid=939d444f-90af-4242-b314-80106977b85f"},"vehicle_type_id":"4","last_reported":1736024819,"current_range_meters":35600,"station_id":"ce4bhnh2rcd13ifvqgug","pricing_plan_id":"cebpf4jnsgd1na2vs0mg"},{"bike_id":"bd609247-c05b-4bfd-8224-3974e4956916","system_id":"levelo_inurba_marseille","lat":43.3091,"lon":5.3685,"is_reserved":false,"is_disabled":true,"rental_uris":{"android":"levelo://app?vid=bd609247-c05b-4bfd-8224-3974e4956916","ios":"levelo://app?vid=bd609247-c05b-4bfd-8224-3974e4956916"},"vehicle_type_id":"4","last_reported":1736024819,"current_range_meters":35200,"station_id":"ce4bgn92rcd13ifvqbvg","pricing_plan_id":"cebpf4jnsgd1na2vs0mg"},{"bike_id":"a9f90c20-0c4c-4bd2-8739-3a4cbc16cafb","system_id":"levelo_inurba_marseille","lat":43.29181,"lon":5.37125,"is_reserved":false,"is_disabled":false,"rental_uris":{"android":"levelo://app?vid=a9f90c20-0c4c-4bd2-8739-3a4cbc16cafb","ios":"levelo://app?vid=a9f90c20-0c4c-4bd2-8739-3a4cbc16cafb"},"vehicle_type_id":"4","last_reported":1736024819,"current_range_meters":39200,"station_id":"ce4bha92rcd13ifvqeh0","pricing_plan_id":"cebpf4jnsgd1na2vs0mg"},{"bike_id":"54f6c29e-1f89-491c-9684-ffafebbba118","system_id":"levelo_inurba_marseille","lat":43.29001,"lon":5.35614,"is_reserved":false,"is_disabled":false,"rental_uris":{"android":"levelo://app?vid=54f6c29e-1f89-491c-9684-ffafebbba118","ios":"levelo://app?vid=54f6c29e-1f89-491c-9684-ffafebbba118"},"vehicle_type_id":"4","last_reported":1736024819,"current_range_meters":38000,"station_id":"ce4bhb92rcd13ifvqen0","pricing_plan_id":"cebpf4jnsgd1na2vs0mg"},{"bike_id":"39c07b57-5acb-4f0f-9fba-1d11f8a5afbd","system_id":"levelo_inurba_marseille","lat":43.30347,"lon":5.41907,"is_reserved":false,"is_disabled":false,"rental_uris":{"android":"levelo://app?vid=39c07b57-5acb-4f0f-9fba-1d11f8a5afbd","ios":"levelo://app?vid=39c07b57-5acb-4f0f-9fba-1d11f8a5afbd"},"vehicle_type_id":"4","last_reported":1736024819,"current_range_meters":28800,"station_id":"ce4bhop2rcd13ifvqh7g","pricing_plan_id":"cebpf4jnsgd1na2vs0mg"},{"bike_id":"50b46b06-9521-42f4-a35c-b326c9eae1f5","system_id":"levelo_inurba_marseille","lat":43.32352,"lon":5.38876,"is_reserved":false,"is_disabled":false,"rental_uris":{"android":"levelo://app?vid=50b46b06-9521-42f4-a35c-b326c9eae1f5","ios":"levelo://app?vid=50b46b06-9521-42f4-a35c-b326c9eae1f5"},"vehicle_type_id":"4","last_reported":1736024819,"current_range_meters":35200,"station_id":"ce4bhqp2rcd13ifvqhog","pricing_plan_id":"cebpf4jnsgd1na2vs0mg"},{"bike_id":"816e32d2-6e31-4b88-a72e-c5f2731086d3","system_id":"levelo_inurba_marseille","lat":43.28409,"lon":5.37528,"is_reserved":false,"is_disabled":false,"rental_uris":{"android":"levelo://app?vid=816e32d2-6e31-4b88-a72e-c5f2731086d3","ios":"levelo://app?vid=816e32d2-6e31-4b88-a72e-c5f2731086d3"},"vehicle_type_id":"4","last_reported":1736024819,"current_range_meters":26000,"station_id":"ce4bh412rcd13ifvqds0","pricing_plan_id":"cebpf4jnsgd1na2vs0mg"},{"bike_id":"8d4566f5-07fe-47f4-85a6-9546b8b4eddd","system_id":"levelo_inurba_marseille","lat":43.25106,"lon":5.40325,"is_reserved":false,"is_disabled":false,"rental_uris":{"android":"levelo://app?vid=8d4566f5-07fe-47f4-85a6-9546b8b4eddd","ios":"levelo://app?vid=8d4566f5-07fe-47f4-85a6-9546b8b4eddd"},"vehicle_type_id":"4","last_reported":1736024819,"current_range_meters":9600,"station_id":"ce4bhlh2rcd13ifvqgig","pricing_plan_id":"cebpf4jnsgd1na2vs0mg"},{"bike_id":"ef22ed5c-9277-41a7-9094-412b6c7751ba","system_id":"levelo_inurba_marseille","lat":43.26199,"lon":5.37928,"is_reserved":false,"is_disabled":false,"rental_uris":{"android":"levelo://app?vid=ef22ed5c-9277-41a7-9094-412b6c7751ba","ios":"levelo://app?vid=ef22ed5c-9277-41a7-9094-412b6c7751ba"},"vehicle_type_id":"4","last_reported":1736024819,"current_range_meters":24000,"station_id":"ce4bhjp2rcd13ifvqg90","pricing_plan_id":"cebpf4jnsgd1na2vs0mg"},{"bike_id":"37674824-1b6f-4a97-b262-9eae4332dd3e","system_id":"levelo_inurba_marseille","lat":43.26947,"lon":5.38962,"is_reserved":false,"is_disabled":false,"rental_uris":{"android":"levelo://app?vid=37674824-1b6f-4a97-b262-9eae4332dd3e","ios":"levelo://app?vid=37674824-1b6f-4a97-b262-9eae4332dd3e"},"vehicle_type_id":"4","last_reported":1736024819,"current_range_meters":38800,"station_id":"ce4bhhh2rcd13ifvqfl0","pricing_plan_id":"cebpf4jnsgd1na2vs0mg"},{"bike_id":"de3b9e87-80fb-4ddb-b113-ac48a8e7e4cd","system_id":"levelo_inurba_marseille","lat":43.31241,"lon":5.36865,"is_reserved":false,"is_disabled":false,"rental_uris":{"android":"levelo://app?vid=de3b9e87-80fb-4ddb-b113-ac48a8e7e4cd","ios":"levelo://app?vid=de3b9e87-80fb-4ddb-b113-ac48a8e7e4cd"},"vehicle_type_id":"4","last_reported":1736024819,"current_range_meters":36000,"station_id":"ce4bgl92rcd13ifvqbq0","pricing_plan_id":"cebpf4jnsgd1na2vs0mg"},{"bike_id":"6b0010cd-3642-4bfe-be22-757a511f1a64","system_id":"levelo_inurba_marseille","lat":43.29544,"lon":5.38531,"is_reserved":false,"is_disabled":false,"rental_uris":{"android":"levelo://app?vid=6b0010cd-3642-4bfe-be22-757a511f1a64","ios":"levelo://app?vid=6b0010cd-3642-4bfe-be22-757a511f1a64"},"vehicle_type_id":"4","last_reported":1736024819,"current_range_meters":30800,"station_id":"ce4bgih2rcd13ifvqba0","pricing_plan_id":"cebpf4jnsgd1na2vs0mg"},{"bike_id":"983a939f-0c90-4b41-8e07-1ba37a328643","system_id":"levelo_inurba_marseille","lat":43.24175,"lon":5.36413,"is_reserved":false,"is_disabled":false,"rental_uris":{"android":"levelo://app?vid=983a939f-0c90-4b41-8e07-1ba37a328643","ios":"levelo://app?vid=983a939f-0c90-4b41-8e07-1ba37a328643"},"vehicle_type_id":"4","last_reported":1736024819,"current_range_meters":24000,"station_id":"cpo36qri1sfpv3e86is0","pricing_plan_id":"cebpf4jnsgd1na2vs0mg"},{"bike_id":"cfd72c2f-528a-4e71-a74c-356dcb547453","system_id":"levelo_inurba_marseille","lat":43.24082,"lon":5.37744,"is_reserved":false,"is_disabled":false,"rental_uris":{"android":"levelo://app?vid=cfd72c2f-528a-4e71-a74c-356dcb547453","ios":"levelo://app?vid=cfd72c2f-528a-4e71-a74c-356dcb547453"},"vehicle_type_id":"4","last_reported":1736024819,"current_range_meters":9200,"station_id":"ce4bhnp2rcd13ifvqgvg","pricing_plan_id":"cebpf4jnsgd1na2vs0mg"},{"bike_id":"2744d3d7-1c79-4955-8dfb-cd899dddfff5","system_id":"levelo_inurba_marseille","lat":43.28438,"lon":5.39178,"is_reserved":false,"is_disabled":false,"rental_uris":{"android":"levelo://app?vid=2744d3d7-1c79-4955-8dfb-cd899dddfff5","ios":"levelo://app?vid=2744d3d7-1c79-4955-8dfb-cd899dddfff5"},"vehicle_type_id":"4","last_reported":1736024819,"current_range_meters":34000,"station_id":"ce4bhoh2rcd13ifvqh5g","pricing_plan_id":"cebpf4jnsgd1na2vs0mg"},{"bike_id":"1f95228b-2707-4808-8d35-1365263ec69f","system_id":"levelo_inurba_marseille","lat":43.29916,"lon":5.36502,"is_reserved":false,"is_disabled":false,"rental_uris":{"android":"levelo://app?vid=1f95228b-2707-4808-8d35-1365263ec69f","ios":"levelo://app?vid=1f95228b-2707-4808-8d35-1365263ec69f"},"vehicle_type_id":"4","last_reported":1736024819,"current_range_meters":24800,"station_id":"ce4bgm92rcd13ifvqbr0","pricing_plan_id":"cebpf4jnsgd1na2vs0mg"},{"bike_id":"32fac1ac-160b-43ec-a560-a05ca5d5e872","system_id":"levelo_inurba_marseille","lat":43.31914,"lon":5.40729,"is_reserved":false,"is_disabled":false,"rental_uris":{"android":"levelo://app?vid=32fac1ac-160b-43ec-a560-a05ca5d5e872","ios":"levelo://app?vid=32fac1ac-160b-43ec-a560-a05ca5d5e872"},"vehicle_type_id":"4","last_reported":1736024819,"current_range_meters":38800,"station_id":"ce4bhq12rcd13ifvqhig","pricing_plan_id":"cebpf4jnsgd1na2vs0mg"},{"bike_id":"09a9cb86-d81c-4618-82f7-eabb09c6ac81","system_id":"levelo_inurba_marseille","lat":43.30003,"lon":5.37163,"is_reserved":false,"is_disabled":false,"rental_uris":{"android":"levelo://app?vid=09a9cb86-d81c-4618-82f7-eabb09c6ac81","ios":"levelo://app?vid=09a9cb86-d81c-4618-82f7-eabb09c6ac81"},"vehicle_type_id":"4","last_reported":1736024819,"current_range_meters":38400,"station_id":"ce4bgr92rcd13ifvqc7g","pricing_plan_id":"cebpf4jnsgd1na2vs0mg"},{"bike_id":"44ca4ac3-dcc1-4588-b960-4ecb52d04b93","system_id":"levelo_inurba_marseille","lat":43.29525,"lon":5.38531,"is_reserved":false,"is_disabled":false,"rental_uris":{"android":"levelo://app?vid=44ca4ac3-dcc1-4588-b960-4ecb52d04b93","ios":"levelo://app?vid=44ca4ac3-dcc1-4588-b960-4ecb52d04b93"},"vehicle_type_id":"4","last_reported":1736024819,"current_range_meters":28000,"station_id":"ce4bgih2rcd13ifvqba0","pricing_plan_id":"cebpf4jnsgd1na2vs0mg"},{"bike_id":"d9288af1-5f8c-4fd9-8c46-d082ffb038e4","system_id":"levelo_inurba_marseille","lat":43.27249,"lon":5.40993,"is_reserved":false,"is_disabled":false,"rental_uris":{"android":"levelo://app?vid=d9288af1-5f8c-4fd9-8c46-d082ffb038e4","ios":"levelo://app?vid=d9288af1-5f8c-4fd9-8c46-d082ffb038e4"},"vehicle_type_id":"4","last_reported":1736024819,"current_range_meters":39200,"station_id":"ce4bhl12rcd13ifvqgf0","pricing_plan_id":"cebpf4jnsgd1na2vs0mg"},{"bike_id":"2bef00f9-c889-4aa5-8c4f-8a155c58bfef","system_id":"levelo_inurba_marseille","lat":43.29968,"lon":5.38493,"is_reserved":false,"is_disabled":false,"rental_uris":{"android":"levelo://app?vid=2bef00f9-c889-4aa5-8c4f-8a155c58bfef","ios":"levelo://app?vid=2bef00f9-c889-4aa5-8c4f-8a155c58bfef"},"vehicle_type_id":"4","last_reported":1736024819,"current_range_meters":38400,"station_id":"ce4bgj92rcd13ifvqbd0","pricing_plan_id":"cebpf4jnsgd1na2vs0mg"},{"bike_id":"bcc619c8-857b-4da4-aae0-71b0c2252e06","system_id":"levelo_inurba_marseille","lat":43.26686,"lon":5.38273,"is_reserved":false,"is_disabled":true,"rental_uris":{"android":"levelo://app?vid=bcc619c8-857b-4da4-aae0-71b0c2252e06","ios":"levelo://app?vid=bcc619c8-857b-4da4-aae0-71b0c2252e06"},"vehicle_type_id":"4","last_reported":1736024819,"current_range_meters":38800,"station_id":"ce4bhg92rcd13ifvqf90","pricing_plan_id":"cebpf4jnsgd1na2vs0mg"},{"bike_id":"bb3cc3cd-ed26-4d52-86f9-759f15274d1c","system_id":"levelo_inurba_marseille","lat":43.29968,"lon":5.38501,"is_reserved":false,"is_disabled":false,"rental_uris":{"android":"levelo://app?vid=bb3cc3cd-ed26-4d52-86f9-759f15274d1c","ios":"levelo://app?vid=bb3cc3cd-ed26-4d52-86f9-759f15274d1c"},"vehicle_type_id":"4","last_reported":1736024819,"current_range_meters":25600,"station_id":"ce4bgj92rcd13ifvqbd0","pricing_plan_id":"cebpf4jnsgd1na2vs0mg"},{"bike_id":"04078594-c1a2-4cb9-8574-6094d7a07249","system_id":"levelo_inurba_marseille","lat":43.29375,"lon":5.37837,"is_reserved":false,"is_disabled":false,"rental_uris":{"android":"levelo://app?vid=04078594-c1a2-4cb9-8574-6094d7a07249","ios":"levelo://app?vid=04078594-c1a2-4cb9-8574-6094d7a07249"},"vehicle_type_id":"4","last_reported":1736024819,"current_range_meters":29600,"station_id":"ce4bgjh2rcd13ifvqbf0","pricing_plan_id":"cebpf4jnsgd1na2vs0mg"},{"bike_id":"f7315e0c-9ac4-4fe2-9962-ccd716c04475","system_id":"levelo_inurba_marseille","lat":43.2795,"lon":5.41035,"is_reserved":false,"is_disabled":false,"rental_uris":{"android":"levelo://app?vid=f7315e0c-9ac4-4fe2-9962-ccd716c04475","ios":"levelo://app?vid=f7315e0c-9ac4-4fe2-9962-ccd716c04475"},"vehicle_type_id":"4","last_reported":1736024819,"current_range_meters":33200,"station_id":"ce4bhnp2rcd13ifvqh0g","pricing_plan_id":"cebpf4jnsgd1na2vs0mg"},{"bike_id":"53f617a7-9ee8-4223-a487-3a2df429000b","system_id":"levelo_inurba_marseille","lat":43.31128,"lon":5.37762,"is_reserved":false,"is_disabled":false,"rental_uris":{"android":"levelo://app?vid=53f617a7-9ee8-4223-a487-3a2df429000b","ios":"levelo://app?vid=53f617a7-9ee8-4223-a487-3a2df429000b"},"vehicle_type_id":"4","last_reported":1736024819,"current_range_meters":38800,"station_id":"ce4bgt92rcd13ifvqcg0","pricing_plan_id":"cebpf4jnsgd1na2vs0mg"},{"bike_id":"e56311a9-696b-4623-ac80-1212db344ea8","system_id":"levelo_inurba_marseille","lat":43.26809,"lon":5.40257,"is_reserved":false,"is_disabled":false,"rental_uris":{"android":"levelo://app?vid=e56311a9-696b-4623-ac80-1212db344ea8","ios":"levelo://app?vid=e56311a9-696b-4623-ac80-1212db344ea8"},"vehicle_type_id":"4","last_reported":1736024819,"current_range_meters":38800,"station_id":"ce501612rcd8frsf0b60","pricing_plan_id":"cebpf4jnsgd1na2vs0mg"},{"bike_id":"095ad4b1-5813-4236-86c5-520f3e421d1b","system_id":"levelo_inurba_marseille","lat":43.291,"lon":5.38137,"is_reserved":false,"is_disabled":false,"rental_uris":{"android":"levelo://app?vid=095ad4b1-5813-4236-86c5-520f3e421d1b","ios":"levelo://app?vid=095ad4b1-5813-4236-86c5-520f3e421d1b"},"vehicle_type_id":"4","last_reported":1736024819,"current_range_meters":37600,"station_id":"ce4bh512rcd13ifvqe2g","pricing_plan_id":"cebpf4jnsgd1na2vs0mg"},{"bike_id":"182c8827-ad8b-4aa6-9862-5b2da55309dc","system_id":"levelo_inurba_marseille","lat":43.29223,"lon":5.36042,"is_reserved":false,"is_disabled":true,"rental_uris":{"android":"levelo://app?vid=182c8827-ad8b-4aa6-9862-5b2da55309dc","ios":"levelo://app?vid=182c8827-ad8b-4aa6-9862-5b2da55309dc"},"vehicle_type_id":"4","last_reported":1736024819,"current_range_meters":8000,"station_id":"ce4bhbh2rcd13ifvqeqg","pricing_plan_id":"cebpf4jnsgd1na2vs0mg"},{"bike_id":"33377877-2eb6-455a-8d73-976ec2361c9c","system_id":"levelo_inurba_marseille","lat":43.2989,"lon":5.36261,"is_reserved":false,"is_disabled":false,"rental_uris":{"android":"levelo://app?vid=33377877-2eb6-455a-8d73-976ec2361c9c","ios":"levelo://app?vid=33377877-2eb6-455a-8d73-976ec2361c9c"},"vehicle_type_id":"4","last_reported":1736024819,"current_range_meters":32400,"station_id":"ce4bgpp2rcd13ifvqc3g","pricing_plan_id":"cebpf4jnsgd1na2vs0mg"},{"bike_id":"d8b76d84-2dfc-400f-9630-9e7b0787e9cc","system_id":"levelo_inurba_marseille","lat":43.27503,"lon":5.42443,"is_reserved":false,"is_disabled":true,"rental_uris":{"android":"levelo://app?vid=d8b76d84-2dfc-400f-9630-9e7b0787e9cc","ios":"levelo://app?vid=d8b76d84-2dfc-400f-9630-9e7b0787e9cc"},"vehicle_type_id":"4","last_reported":1736024819,"current_range_meters":8000,"station_id":"ce4bhn92rcd13ifvqgrg","pricing_plan_id":"cebpf4jnsgd1na2vs0mg"},{"bike_id":"0b0738b3-2046-45aa-a250-de9e0811c5a6","system_id":"levelo_inurba_marseille","lat":43.29273,"lon":5.38429,"is_reserved":false,"is_disabled":false,"rental_uris":{"android":"levelo://app?vid=0b0738b3-2046-45aa-a250-de9e0811c5a6","ios":"levelo://app?vid=0b0738b3-2046-45aa-a250-de9e0811c5a6"},"vehicle_type_id":"4","last_reported":1736024819,"current_range_meters":33200,"station_id":"ce4bh692rcd13ifvqea0","pricing_plan_id":"cebpf4jnsgd1na2vs0mg"},{"bike_id":"eaecfcca-aa89-4e9a-8d17-c5be1539665b","system_id":"levelo_inurba_marseille","lat":43.2827,"lon":5.35071,"is_reserved":false,"is_disabled":true,"rental_uris":{"android":"levelo://app?vid=eaecfcca-aa89-4e9a-8d17-c5be1539665b","ios":"levelo://app?vid=eaecfcca-aa89-4e9a-8d17-c5be1539665b"},"vehicle_type_id":"4","last_reported":1736024819,"current_range_meters":6000,"station_id":"ce4bhbp2rcd13ifvqerg","pricing_plan_id":"cebpf4jnsgd1na2vs0mg"},{"bike_id":"896797d5-e48c-435a-a4ff-c7d0b4682116","system_id":"levelo_inurba_marseille","lat":43.278127,"lon":5.407091,"is_reserved":false,"is_disabled":false,"rental_uris":{"android":"levelo://app?vid=896797d5-e48c-435a-a4ff-c7d0b4682116","ios":"levelo://app?vid=896797d5-e48c-435a-a4ff-c7d0b4682116"},"vehicle_type_id":"4","last_reported":1736024819,"current_range_meters":26000,"station_id":"ce4bhnh2rcd13ifvqgtg","pricing_plan_id":"cebpf4jnsgd1na2vs0mg"},{"bike_id":"bbf16901-1354-41cb-b2ef-aa011be26434","system_id":"levelo_inurba_marseille","lat":43.26808,"lon":5.40258,"is_reserved":false,"is_disabled":false,"rental_uris":{"android":"levelo://app?vid=bbf16901-1354-41cb-b2ef-aa011be26434","ios":"levelo://app?vid=bbf16901-1354-41cb-b2ef-aa011be26434"},"vehicle_type_id":"4","last_reported":1736024819,"current_range_meters":39200,"station_id":"ce501612rcd8frsf0b60","pricing_plan_id":"cebpf4jnsgd1na2vs0mg"},{"bike_id":"4e86006f-38d3-401d-be15-e8dd8ff28846","system_id":"levelo_inurba_marseille","lat":43.27875,"lon":5.38,"is_reserved":false,"is_disabled":false,"rental_uris":{"android":"levelo://app?vid=4e86006f-38d3-401d-be15-e8dd8ff28846","ios":"levelo://app?vid=4e86006f-38d3-401d-be15-e8dd8ff28846"},"vehicle_type_id":"4","last_reported":1736024819,"current_range_meters":38800,"station_id":"ce4bhf92rcd13ifvqf50","pricing_plan_id":"cebpf4jnsgd1na2vs0mg"},{"bike_id":"1ea77e5a-5105-4780-8651-5152cb7f17a1","system_id":"levelo_inurba_marseille","lat":43.29527,"lon":5.3903,"is_reserved":false,"is_disabled":false,"rental_uris":{"android":"levelo://app?vid=1ea77e5a-5105-4780-8651-5152cb7f17a1","ios":"levelo://app?vid=1ea77e5a-5105-4780-8651-5152cb7f17a1"},"vehicle_type_id":"4","last_reported":1736024819,"current_range_meters":24000,"station_id":"ce4bh3p2rcd13ifvqdp0","pricing_plan_id":"cebpf4jnsgd1na2vs0mg"},{"bike_id":"36d72a86-2006-4935-94c0-f8a9aba928ab","system_id":"levelo_inurba_marseille","lat":43.2791,"lon":5.39574,"is_reserved":false,"is_disabled":false,"rental_uris":{"android":"levelo://app?vid=36d72a86-2006-4935-94c0-f8a9aba928ab","ios":"levelo://app?vid=36d72a86-2006-4935-94c0-f8a9aba928ab"},"vehicle_type_id":"4","last_reported":1736024819,"current_range_meters":19600,"station_id":"ce4bhf92rcd13ifvqf40","pricing_plan_id":"cebpf4jnsgd1na2vs0mg"},{"bike_id":"7b7b303a-a0b7-4a31-b23c-f8fd5396854f","system_id":"levelo_inurba_marseille","lat":43.27688,"lon":5.38908,"is_reserved":false,"is_disabled":false,"rental_uris":{"android":"levelo://app?vid=7b7b303a-a0b7-4a31-b23c-f8fd5396854f","ios":"levelo://app?vid=7b7b303a-a0b7-4a31-b23c-f8fd5396854f"},"vehicle_type_id":"4","last_reported":1736024819,"current_range_meters":35600,"station_id":"ce4bhi12rcd13ifvqfo0","pricing_plan_id":"cebpf4jnsgd1na2vs0mg"},{"bike_id":"e504a9cb-457a-4f20-bb8f-53a96a79b176","system_id":"levelo_inurba_marseille","lat":43.29559,"lon":5.37501,"is_reserved":false,"is_disabled":false,"rental_uris":{"android":"levelo://app?vid=e504a9cb-457a-4f20-bb8f-53a96a79b176","ios":"levelo://app?vid=e504a9cb-457a-4f20-bb8f-53a96a79b176"},"vehicle_type_id":"4","last_reported":1736024819,"current_range_meters":8800,"station_id":"ce4bgh92rcd13ifvqb50","pricing_plan_id":"cebpf4jnsgd1na2vs0mg"},{"bike_id":"106410ef-38e7-4ceb-a005-c087e0a4c836","system_id":"levelo_inurba_marseille","lat":43.26025,"lon":5.37557,"is_reserved":false,"is_disabled":false,"rental_uris":{"android":"levelo://app?vid=106410ef-38e7-4ceb-a005-c087e0a4c836","ios":"levelo://app?vid=106410ef-38e7-4ceb-a005-c087e0a4c836"},"vehicle_type_id":"4","last_reported":1736024819,"current_range_meters":38800,"station_id":"ce4bhgh2rcd13ifvqfa0","pricing_plan_id":"cebpf4jnsgd1na2vs0mg"},{"bike_id":"182069f5-9311-441d-b62a-092147390eed","system_id":"levelo_inurba_marseille","lat":43.23175,"lon":5.40019,"is_reserved":false,"is_disabled":false,"rental_uris":{"android":"levelo://app?vid=182069f5-9311-441d-b62a-092147390eed","ios":"levelo://app?vid=182069f5-9311-441d-b62a-092147390eed"},"vehicle_type_id":"4","last_reported":1736024819,"current_range_meters":38800,"station_id":"ce4bhn12rcd13ifvqgqg","pricing_plan_id":"cebpf4jnsgd1na2vs0mg"},{"bike_id":"5d0325b4-bbc6-4de3-bcc4-af792ab62121","system_id":"levelo_inurba_marseille","lat":43.27499,"lon":5.42444,"is_reserved":false,"is_disabled":false,"rental_uris":{"android":"levelo://app?vid=5d0325b4-bbc6-4de3-bcc4-af792ab62121","ios":"levelo://app?vid=5d0325b4-bbc6-4de3-bcc4-af792ab62121"},"vehicle_type_id":"4","last_reported":1736024819,"current_range_meters":15200,"station_id":"ce4bhn92rcd13ifvqgrg","pricing_plan_id":"cebpf4jnsgd1na2vs0mg"},{"bike_id":"b3675ee3-ecbf-4b35-aa11-6ad9d3c21926","system_id":"levelo_inurba_marseille","lat":43.291942,"lon":5.393371,"is_reserved":false,"is_disabled":false,"rental_uris":{"android":"levelo://app?vid=b3675ee3-ecbf-4b35-aa11-6ad9d3c21926","ios":"levelo://app?vid=b3675ee3-ecbf-4b35-aa11-6ad9d3c21926"},"vehicle_type_id":"4","last_reported":1736024819,"current_range_meters":38000,"station_id":"ce4bh192rcd13ifvqdd0","pricing_plan_id":"cebpf4jnsgd1na2vs0mg"},{"bike_id":"270f72ca-6ff0-4006-b955-8701cfe72efd","system_id":"levelo_inurba_marseille","lat":43.29254,"lon":5.4017,"is_reserved":false,"is_disabled":true,"rental_uris":{"android":"levelo://app?vid=270f72ca-6ff0-4006-b955-8701cfe72efd","ios":"levelo://app?vid=270f72ca-6ff0-4006-b955-8701cfe72efd"},"vehicle_type_id":"4","last_reported":1736024819,"current_range_meters":5600,"station_id":"ce4bh312rcd13ifvqdk0","pricing_plan_id":"cebpf4jnsgd1na2vs0mg"},{"bike_id":"2aa381f8-49e1-4c02-8d58-963cdf8ee0da","system_id":"levelo_inurba_marseille","lat":43.25502,"lon":5.37648,"is_reserved":false,"is_disabled":false,"rental_uris":{"android":"levelo://app?vid=2aa381f8-49e1-4c02-8d58-963cdf8ee0da","ios":"levelo://app?vid=2aa381f8-49e1-4c02-8d58-963cdf8ee0da"},"vehicle_type_id":"4","last_reported":1736024819,"current_range_meters":30000,"station_id":"ce4bhh12rcd13ifvqff0","pricing_plan_id":"cebpf4jnsgd1na2vs0mg"},{"bike_id":"a30fe080-22f3-4a43-87de-e603ec1ba604","system_id":"levelo_inurba_marseille","lat":43.29207,"lon":5.39316,"is_reserved":false,"is_disabled":false,"rental_uris":{"android":"levelo://app?vid=a30fe080-22f3-4a43-87de-e603ec1ba604","ios":"levelo://app?vid=a30fe080-22f3-4a43-87de-e603ec1ba604"},"vehicle_type_id":"4","last_reported":1736024819,"current_range_meters":12800,"station_id":"ce4bh192rcd13ifvqdd0","pricing_plan_id":"cebpf4jnsgd1na2vs0mg"},{"bike_id":"9efb44f1-493b-4c25-8222-f4802e654228","system_id":"levelo_inurba_marseille","lat":43.29277,"lon":5.38439,"is_reserved":false,"is_disabled":false,"rental_uris":{"android":"levelo://app?vid=9efb44f1-493b-4c25-8222-f4802e654228","ios":"levelo://app?vid=9efb44f1-493b-4c25-8222-f4802e654228"},"vehicle_type_id":"4","last_reported":1736024819,"current_range_meters":28000,"station_id":"ce4bh692rcd13ifvqea0","pricing_plan_id":"cebpf4jnsgd1na2vs0mg"},{"bike_id":"359a1aa8-70b2-403f-9709-f8f88023876b","system_id":"levelo_inurba_marseille","lat":43.26959,"lon":5.38642,"is_reserved":false,"is_disabled":false,"rental_uris":{"android":"levelo://app?vid=359a1aa8-70b2-403f-9709-f8f88023876b","ios":"levelo://app?vid=359a1aa8-70b2-403f-9709-f8f88023876b"},"vehicle_type_id":"4","last_reported":1736024819,"current_range_meters":24800,"station_id":"ce4bhh92rcd13ifvqfh0","pricing_plan_id":"cebpf4jnsgd1na2vs0mg"},{"bike_id":"b5de95e0-8f34-41aa-a5fc-c4e76e03a994","system_id":"levelo_inurba_marseille","lat":43.2809,"lon":5.39659,"is_reserved":false,"is_disabled":true,"rental_uris":{"android":"levelo://app?vid=b5de95e0-8f34-41aa-a5fc-c4e76e03a994","ios":"levelo://app?vid=b5de95e0-8f34-41aa-a5fc-c4e76e03a994"},"vehicle_type_id":"4","last_reported":1736024819,"current_range_meters":34800,"station_id":"ce4bho12rcd13ifvqh2g","pricing_plan_id":"cebpf4jnsgd1na2vs0mg"},{"bike_id":"aa33a53e-f806-43a8-ad7e-8e2bd9644426","system_id":"levelo_inurba_marseille","lat":43.32373,"lon":5.40608,"is_reserved":false,"is_disabled":true,"rental_uris":{"android":"levelo://app?vid=aa33a53e-f806-43a8-ad7e-8e2bd9644426","ios":"levelo://app?vid=aa33a53e-f806-43a8-ad7e-8e2bd9644426"},"vehicle_type_id":"4","last_reported":1736024819,"current_range_meters":0,"station_id":"ce4bhq92rcd13ifvqhjg","pricing_plan_id":"cebpf4jnsgd1na2vs0mg"},{"bike_id":"b9dc4ae5-8ee5-4a0e-8a96-a2e835ae7769","system_id":"levelo_inurba_marseille","lat":43.243923,"lon":5.370496,"is_reserved":false,"is_disabled":false,"rental_uris":{"android":"levelo://app?vid=b9dc4ae5-8ee5-4a0e-8a96-a2e835ae7769","ios":"levelo://app?vid=b9dc4ae5-8ee5-4a0e-8a96-a2e835ae7769"},"vehicle_type_id":"4","last_reported":1736024819,"current_range_meters":16000,"station_id":"ce4bhhh2rcd13ifvqfk0","pricing_plan_id":"cebpf4jnsgd1na2vs0mg"},{"bike_id":"2ec31271-7086-4941-a1c7-8eefa9be0505","system_id":"levelo_inurba_marseille","lat":43.30299,"lon":5.39205,"is_reserved":false,"is_disabled":false,"rental_uris":{"android":"levelo://app?vid=2ec31271-7086-4941-a1c7-8eefa9be0505","ios":"levelo://app?vid=2ec31271-7086-4941-a1c7-8eefa9be0505"},"vehicle_type_id":"4","last_reported":1736024819,"current_range_meters":36000,"station_id":"ce4bgkh2rcd13ifvqbk0","pricing_plan_id":"cebpf4jnsgd1na2vs0mg"},{"bike_id":"0b9e00db-c635-48b8-8cb0-7cb4bde04e03","system_id":"levelo_inurba_marseille","lat":43.29424,"lon":5.38624,"is_reserved":false,"is_disabled":false,"rental_uris":{"android":"levelo://app?vid=0b9e00db-c635-48b8-8cb0-7cb4bde04e03","ios":"levelo://app?vid=0b9e00db-c635-48b8-8cb0-7cb4bde04e03"},"vehicle_type_id":"4","last_reported":1736024819,"current_range_meters":16800,"station_id":"ce4bh2h2rcd13ifvqdh0","pricing_plan_id":"cebpf4jnsgd1na2vs0mg"},{"bike_id":"c61dded9-9b60-470d-9452-144bc895a3f4","system_id":"levelo_inurba_marseille","lat":43.31326,"lon":5.39679,"is_reserved":false,"is_disabled":false,"rental_uris":{"android":"levelo://app?vid=c61dded9-9b60-470d-9452-144bc895a3f4","ios":"levelo://app?vid=c61dded9-9b60-470d-9452-144bc895a3f4"},"vehicle_type_id":"4","last_reported":1736024819,"current_range_meters":17600,"station_id":"ce4bgvp2rcd13ifvqcu0","pricing_plan_id":"cebpf4jnsgd1na2vs0mg"},{"bike_id":"ab73afb0-3b51-428a-bfec-7c863bcacd3c","system_id":"levelo_inurba_marseille","lat":43.30002,"lon":5.37187,"is_reserved":false,"is_disabled":false,"rental_uris":{"android":"levelo://app?vid=ab73afb0-3b51-428a-bfec-7c863bcacd3c","ios":"levelo://app?vid=ab73afb0-3b51-428a-bfec-7c863bcacd3c"},"vehicle_type_id":"4","last_reported":1736024819,"current_range_meters":28400,"station_id":"ce4bgr92rcd13ifvqc7g","pricing_plan_id":"cebpf4jnsgd1na2vs0mg"},{"bike_id":"45744d07-eb73-453c-b6ee-d9a256b9901b","system_id":"levelo_inurba_marseille","lat":43.30939,"lon":5.39007,"is_reserved":false,"is_disabled":true,"rental_uris":{"android":"levelo://app?vid=45744d07-eb73-453c-b6ee-d9a256b9901b","ios":"levelo://app?vid=45744d07-eb73-453c-b6ee-d9a256b9901b"},"vehicle_type_id":"4","last_reported":1736024819,"current_range_meters":17200,"station_id":"ce4bgup2rcd13ifvqco0","pricing_plan_id":"cebpf4jnsgd1na2vs0mg"},{"bike_id":"336b1a63-3ea7-4e1c-8fe5-6b13ba610617","system_id":"levelo_inurba_marseille","lat":43.28602,"lon":5.3709,"is_reserved":false,"is_disabled":false,"rental_uris":{"android":"levelo://app?vid=336b1a63-3ea7-4e1c-8fe5-6b13ba610617","ios":"levelo://app?vid=336b1a63-3ea7-4e1c-8fe5-6b13ba610617"},"vehicle_type_id":"4","last_reported":1736024819,"current_range_meters":39200,"station_id":"ce4bht12rcd13ifvqi60","pricing_plan_id":"cebpf4jnsgd1na2vs0mg"},{"bike_id":"88669037-81df-439a-afd4-630fcbb5ab4f","system_id":"levelo_inurba_marseille","lat":43.29978,"lon":5.38497,"is_reserved":false,"is_disabled":false,"rental_uris":{"android":"levelo://app?vid=88669037-81df-439a-afd4-630fcbb5ab4f","ios":"levelo://app?vid=88669037-81df-439a-afd4-630fcbb5ab4f"},"vehicle_type_id":"4","last_reported":1736024819,"current_range_meters":39200,"station_id":"ce4bgj92rcd13ifvqbd0","pricing_plan_id":"cebpf4jnsgd1na2vs0mg"},{"bike_id":"e14fc727-e110-4847-a3c5-e82ea6a6fcb8","system_id":"levelo_inurba_marseille","lat":43.28947,"lon":5.39648,"is_reserved":false,"is_disabled":true,"rental_uris":{"android":"levelo://app?vid=e14fc727-e110-4847-a3c5-e82ea6a6fcb8","ios":"levelo://app?vid=e14fc727-e110-4847-a3c5-e82ea6a6fcb8"},"vehicle_type_id":"4","last_reported":1736024819,"current_range_meters":38400,"station_id":"ce4bh3h2rcd13ifvqdn0","pricing_plan_id":"cebpf4jnsgd1na2vs0mg"},{"bike_id":"90082386-cf33-41a2-be84-4f9e667b59c0","system_id":"levelo_inurba_marseille","lat":43.31162,"lon":5.38718,"is_reserved":false,"is_disabled":false,"rental_uris":{"android":"levelo://app?vid=90082386-cf33-41a2-be84-4f9e667b59c0","ios":"levelo://app?vid=90082386-cf33-41a2-be84-4f9e667b59c0"},"vehicle_type_id":"4","last_reported":1736024819,"current_range_meters":18800,"station_id":"ce4bgv12rcd13ifvqcp0","pricing_plan_id":"cebpf4jnsgd1na2vs0mg"},{"bike_id":"78282a58-6cd1-426a-8af7-541c636a4746","system_id":"levelo_inurba_marseille","lat":43.29299,"lon":5.37176,"is_reserved":false,"is_disabled":false,"rental_uris":{"android":"levelo://app?vid=78282a58-6cd1-426a-8af7-541c636a4746","ios":"levelo://app?vid=78282a58-6cd1-426a-8af7-541c636a4746"},"vehicle_type_id":"4","last_reported":1736024819,"current_range_meters":32400,"station_id":"ce4bgh92rcd13ifvqb40","pricing_plan_id":"cebpf4jnsgd1na2vs0mg"},{"bike_id":"5aa10f0c-aa8d-40fb-a2a3-c962ce55191c","system_id":"levelo_inurba_marseille","lat":43.29778,"lon":5.38102,"is_reserved":false,"is_disabled":false,"rental_uris":{"android":"levelo://app?vid=5aa10f0c-aa8d-40fb-a2a3-c962ce55191c","ios":"levelo://app?vid=5aa10f0c-aa8d-40fb-a2a3-c962ce55191c"},"vehicle_type_id":"4","last_reported":1736024819,"current_range_meters":38800,"station_id":"ce4bgip2rcd13ifvqbb0","pricing_plan_id":"cebpf4jnsgd1na2vs0mg"},{"bike_id":"ac6d5a53-df16-4498-98ed-26ca3acb3e9b","system_id":"levelo_inurba_marseille","lat":43.26197,"lon":5.37449,"is_reserved":false,"is_disabled":false,"rental_uris":{"android":"levelo://app?vid=ac6d5a53-df16-4498-98ed-26ca3acb3e9b","ios":"levelo://app?vid=ac6d5a53-df16-4498-98ed-26ca3acb3e9b"},"vehicle_type_id":"4","last_reported":1736024819,"current_range_meters":38400,"station_id":"ce4bhgp2rcd13ifvqfc0","pricing_plan_id":"cebpf4jnsgd1na2vs0mg"},{"bike_id":"223a4990-4e05-4395-8830-aea2c89ecd7a","system_id":"levelo_inurba_marseille","lat":43.29032,"lon":5.38646,"is_reserved":false,"is_disabled":true,"rental_uris":{"android":"levelo://app?vid=223a4990-4e05-4395-8830-aea2c89ecd7a","ios":"levelo://app?vid=223a4990-4e05-4395-8830-aea2c89ecd7a"},"vehicle_type_id":"4","last_reported":1736024819,"current_range_meters":32000,"station_id":"ce4bh4p2rcd13ifvqe0g","pricing_plan_id":"cebpf4jnsgd1na2vs0mg"},{"bike_id":"68b409ba-7a44-42dc-ae3b-6418ba6f5e03","system_id":"levelo_inurba_marseille","lat":43.29927,"lon":5.3746,"is_reserved":false,"is_disabled":false,"rental_uris":{"android":"levelo://app?vid=68b409ba-7a44-42dc-ae3b-6418ba6f5e03","ios":"levelo://app?vid=68b409ba-7a44-42dc-ae3b-6418ba6f5e03"},"vehicle_type_id":"4","last_reported":1736024819,"current_range_meters":38000,"station_id":"ce4bgjh2rcd13ifvqbg0","pricing_plan_id":"cebpf4jnsgd1na2vs0mg"},{"bike_id":"47482a76-601c-4d8d-9a9c-6565b981ebaf","system_id":"levelo_inurba_marseille","lat":43.29855,"lon":5.36272,"is_reserved":false,"is_disabled":false,"rental_uris":{"android":"levelo://app?vid=47482a76-601c-4d8d-9a9c-6565b981ebaf","ios":"levelo://app?vid=47482a76-601c-4d8d-9a9c-6565b981ebaf"},"vehicle_type_id":"4","last_reported":1736024819,"current_range_meters":24800,"station_id":"ce4bgpp2rcd13ifvqc3g","pricing_plan_id":"cebpf4jnsgd1na2vs0mg"},{"bike_id":"d0234cf8-3190-48a6-bab2-6c84efe1b44c","system_id":"levelo_inurba_marseille","lat":43.24804,"lon":5.3745,"is_reserved":false,"is_disabled":false,"rental_uris":{"android":"levelo://app?vid=d0234cf8-3190-48a6-bab2-6c84efe1b44c","ios":"levelo://app?vid=d0234cf8-3190-48a6-bab2-6c84efe1b44c"},"vehicle_type_id":"4","last_reported":1736024819,"current_range_meters":39200,"station_id":"ce4bhgh2rcd13ifvqfb0","pricing_plan_id":"cebpf4jnsgd1na2vs0mg"},{"bike_id":"bbf998ea-d252-4590-8711-16d78ff4b07c","system_id":"levelo_inurba_marseille","lat":43.24614,"lon":5.38891,"is_reserved":false,"is_disabled":false,"rental_uris":{"android":"levelo://app?vid=bbf998ea-d252-4590-8711-16d78ff4b07c","ios":"levelo://app?vid=bbf998ea-d252-4590-8711-16d78ff4b07c"},"vehicle_type_id":"4","last_reported":1736024819,"current_range_meters":37600,"station_id":"ce4bhg12rcd13ifvqf60","pricing_plan_id":"cebpf4jnsgd1na2vs0mg"},{"bike_id":"8a4eb83d-ccac-4c56-adc4-38b6be0f613d","system_id":"levelo_inurba_marseille","lat":43.24396,"lon":5.37058,"is_reserved":false,"is_disabled":false,"rental_uris":{"android":"levelo://app?vid=8a4eb83d-ccac-4c56-adc4-38b6be0f613d","ios":"levelo://app?vid=8a4eb83d-ccac-4c56-adc4-38b6be0f613d"},"vehicle_type_id":"4","last_reported":1736024819,"current_range_meters":30800,"station_id":"ce4bhhh2rcd13ifvqfk0","pricing_plan_id":"cebpf4jnsgd1na2vs0mg"},{"bike_id":"af68d2e6-d7e3-4eb8-9cf5-37ac1985b5a3","system_id":"levelo_inurba_marseille","lat":43.23053,"lon":5.35485,"is_reserved":false,"is_disabled":false,"rental_uris":{"android":"levelo://app?vid=af68d2e6-d7e3-4eb8-9cf5-37ac1985b5a3","ios":"levelo://app?vid=af68d2e6-d7e3-4eb8-9cf5-37ac1985b5a3"},"vehicle_type_id":"4","last_reported":1736024819,"current_range_meters":20800,"station_id":"cpo3342slgdg3j2ifvpg","pricing_plan_id":"cebpf4jnsgd1na2vs0mg"},{"bike_id":"ea712384-6050-4aef-940b-83a621a54903","system_id":"levelo_inurba_marseille","lat":43.30107,"lon":5.39079,"is_reserved":false,"is_disabled":false,"rental_uris":{"android":"levelo://app?vid=ea712384-6050-4aef-940b-83a621a54903","ios":"levelo://app?vid=ea712384-6050-4aef-940b-83a621a54903"},"vehicle_type_id":"4","last_reported":1736024819,"current_range_meters":16400,"station_id":"ce4bh192rcd13ifvqdb0","pricing_plan_id":"cebpf4jnsgd1na2vs0mg"},{"bike_id":"f5a4a49b-f269-4ec2-b80a-e579bf67a966","system_id":"levelo_inurba_marseille","lat":43.30922,"lon":5.36848,"is_reserved":false,"is_disabled":true,"rental_uris":{"android":"levelo://app?vid=f5a4a49b-f269-4ec2-b80a-e579bf67a966","ios":"levelo://app?vid=f5a4a49b-f269-4ec2-b80a-e579bf67a966"},"vehicle_type_id":"4","last_reported":1736024819,"current_range_meters":35200,"station_id":"ce4bgn92rcd13ifvqbvg","pricing_plan_id":"cebpf4jnsgd1na2vs0mg"},{"bike_id":"6f21fba1-6f8e-47c4-a476-286cca5f9cc6","system_id":"levelo_inurba_marseille","lat":43.28271,"lon":5.35073,"is_reserved":false,"is_disabled":true,"rental_uris":{"android":"levelo://app?vid=6f21fba1-6f8e-47c4-a476-286cca5f9cc6","ios":"levelo://app?vid=6f21fba1-6f8e-47c4-a476-286cca5f9cc6"},"vehicle_type_id":"4","last_reported":1736024819,"current_range_meters":1200,"station_id":"ce4bhbp2rcd13ifvqerg","pricing_plan_id":"cebpf4jnsgd1na2vs0mg"},{"bike_id":"21f0e3c2-495a-43ca-b213-21dd4a411241","system_id":"levelo_inurba_marseille","lat":43.28434,"lon":5.39187,"is_reserved":false,"is_disabled":false,"rental_uris":{"android":"levelo://app?vid=21f0e3c2-495a-43ca-b213-21dd4a411241","ios":"levelo://app?vid=21f0e3c2-495a-43ca-b213-21dd4a411241"},"vehicle_type_id":"4","last_reported":1736024819,"current_range_meters":38000,"station_id":"ce4bhoh2rcd13ifvqh5g","pricing_plan_id":"cebpf4jnsgd1na2vs0mg"},{"bike_id":"f9896171-8ba2-44f2-8286-4d3797a7ddc7","system_id":"levelo_inurba_marseille","lat":43.29568,"lon":5.37488,"is_reserved":false,"is_disabled":false,"rental_uris":{"android":"levelo://app?vid=f9896171-8ba2-44f2-8286-4d3797a7ddc7","ios":"levelo://app?vid=f9896171-8ba2-44f2-8286-4d3797a7ddc7"},"vehicle_type_id":"4","last_reported":1736024819,"current_range_meters":38400,"station_id":"ce4bgh92rcd13ifvqb50","pricing_plan_id":"cebpf4jnsgd1na2vs0mg"},{"bike_id":"8a2871f5-9447-484d-9926-098aa750c257","system_id":"levelo_inurba_marseille","lat":43.28399,"lon":5.37483,"is_reserved":false,"is_disabled":false,"rental_uris":{"android":"levelo://app?vid=8a2871f5-9447-484d-9926-098aa750c257","ios":"levelo://app?vid=8a2871f5-9447-484d-9926-098aa750c257"},"vehicle_type_id":"4","last_reported":1736024819,"current_range_meters":30800,"station_id":"ce4bh412rcd13ifvqds0","pricing_plan_id":"cebpf4jnsgd1na2vs0mg"},{"bike_id":"1cc2c131-0d9b-40a7-b56a-fc80d429f186","system_id":"levelo_inurba_marseille","lat":43.29979,"lon":5.37188,"is_reserved":false,"is_disabled":false,"rental_uris":{"android":"levelo://app?vid=1cc2c131-0d9b-40a7-b56a-fc80d429f186","ios":"levelo://app?vid=1cc2c131-0d9b-40a7-b56a-fc80d429f186"},"vehicle_type_id":"4","last_reported":1736024819,"current_range_meters":39200,"station_id":"ce4bgr92rcd13ifvqc7g","pricing_plan_id":"cebpf4jnsgd1na2vs0mg"},{"bike_id":"52ec13a5-d02b-49d9-8b23-6c7d637214b3","system_id":"levelo_inurba_marseille","lat":43.29554,"lon":5.37515,"is_reserved":false,"is_disabled":false,"rental_uris":{"android":"levelo://app?vid=52ec13a5-d02b-49d9-8b23-6c7d637214b3","ios":"levelo://app?vid=52ec13a5-d02b-49d9-8b23-6c7d637214b3"},"vehicle_type_id":"4","last_reported":1736024819,"current_range_meters":35600,"station_id":"ce4bgh92rcd13ifvqb50","pricing_plan_id":"cebpf4jnsgd1na2vs0mg"},{"bike_id":"d30b1091-2e5d-4e8f-bcf0-ff60bbd34c3b","system_id":"levelo_inurba_marseille","lat":43.26535,"lon":5.39524,"is_reserved":false,"is_disabled":false,"rental_uris":{"android":"levelo://app?vid=d30b1091-2e5d-4e8f-bcf0-ff60bbd34c3b","ios":"levelo://app?vid=d30b1091-2e5d-4e8f-bcf0-ff60bbd34c3b"},"vehicle_type_id":"4","last_reported":1736024819,"current_range_meters":24400,"station_id":"ce4bhi12rcd13ifvqfq0","pricing_plan_id":"cebpf4jnsgd1na2vs0mg"},{"bike_id":"e6a7f94b-33a1-439b-afad-60fa2e68a491","system_id":"levelo_inurba_marseille","lat":43.29252,"lon":5.40906,"is_reserved":false,"is_disabled":false,"rental_uris":{"android":"levelo://app?vid=e6a7f94b-33a1-439b-afad-60fa2e68a491","ios":"levelo://app?vid=e6a7f94b-33a1-439b-afad-60fa2e68a491"},"vehicle_type_id":"4","last_reported":1736024819,"current_range_meters":38000,"station_id":"ce4bh192rcd13ifvqdc0","pricing_plan_id":"cebpf4jnsgd1na2vs0mg"},{"bike_id":"622010f3-f2d4-4d1d-9c35-a93082d38040","system_id":"levelo_inurba_marseille","lat":43.29584,"lon":5.37488,"is_reserved":false,"is_disabled":false,"rental_uris":{"android":"levelo://app?vid=622010f3-f2d4-4d1d-9c35-a93082d38040","ios":"levelo://app?vid=622010f3-f2d4-4d1d-9c35-a93082d38040"},"vehicle_type_id":"4","last_reported":1736024819,"current_range_meters":38400,"station_id":"ce4bgh92rcd13ifvqb50","pricing_plan_id":"cebpf4jnsgd1na2vs0mg"},{"bike_id":"85cba0a3-d6ec-4723-83bf-95316674cece","system_id":"levelo_inurba_marseille","lat":43.27552,"lon":5.38436,"is_reserved":false,"is_disabled":true,"rental_uris":{"android":"levelo://app?vid=85cba0a3-d6ec-4723-83bf-95316674cece","ios":"levelo://app?vid=85cba0a3-d6ec-4723-83bf-95316674cece"},"vehicle_type_id":"4","last_reported":1736024819,"current_range_meters":5600,"station_id":"ce4bhh92rcd13ifvqfi0","pricing_plan_id":"cebpf4jnsgd1na2vs0mg"},{"bike_id":"d5355d3d-6620-4d8e-801e-d620f116c682","system_id":"levelo_inurba_marseille","lat":43.23064,"lon":5.35498,"is_reserved":false,"is_disabled":false,"rental_uris":{"android":"levelo://app?vid=d5355d3d-6620-4d8e-801e-d620f116c682","ios":"levelo://app?vid=d5355d3d-6620-4d8e-801e-d620f116c682"},"vehicle_type_id":"4","last_reported":1736024819,"current_range_meters":17600,"station_id":"cpo3342slgdg3j2ifvpg","pricing_plan_id":"cebpf4jnsgd1na2vs0mg"},{"bike_id":"ad35291b-d7c6-4ad4-b02c-5969e2327226","system_id":"levelo_inurba_marseille","lat":43.23058,"lon":5.3549,"is_reserved":false,"is_disabled":false,"rental_uris":{"android":"levelo://app?vid=ad35291b-d7c6-4ad4-b02c-5969e2327226","ios":"levelo://app?vid=ad35291b-d7c6-4ad4-b02c-5969e2327226"},"vehicle_type_id":"4","last_reported":1736024819,"current_range_meters":22000,"station_id":"cpo3342slgdg3j2ifvpg","pricing_plan_id":"cebpf4jnsgd1na2vs0mg"},{"bike_id":"266d97a0-8b6a-4815-8e1e-a29e516886ab","system_id":"levelo_inurba_marseille","lat":43.32362,"lon":5.36722,"is_reserved":false,"is_disabled":false,"rental_uris":{"android":"levelo://app?vid=266d97a0-8b6a-4815-8e1e-a29e516886ab","ios":"levelo://app?vid=266d97a0-8b6a-4815-8e1e-a29e516886ab"},"vehicle_type_id":"4","last_reported":1736024819,"current_range_meters":36000,"station_id":"ce4bhsh2rcd13ifvqi2g","pricing_plan_id":"cebpf4jnsgd1na2vs0mg"},{"bike_id":"a7224998-3cd1-44ad-8892-e18e0ad97675","system_id":"levelo_inurba_marseille","lat":43.24661,"lon":5.38149,"is_reserved":false,"is_disabled":false,"rental_uris":{"android":"levelo://app?vid=a7224998-3cd1-44ad-8892-e18e0ad97675","ios":"levelo://app?vid=a7224998-3cd1-44ad-8892-e18e0ad97675"},"vehicle_type_id":"4","last_reported":1736024819,"current_range_meters":38800,"station_id":"ce4bhih2rcd13ifvqfr0","pricing_plan_id":"cebpf4jnsgd1na2vs0mg"},{"bike_id":"09dbd443-c270-4bc6-8472-abfa6bd4750d","system_id":"levelo_inurba_marseille","lat":43.30247,"lon":5.40053,"is_reserved":false,"is_disabled":false,"rental_uris":{"android":"levelo://app?vid=09dbd443-c270-4bc6-8472-abfa6bd4750d","ios":"levelo://app?vid=09dbd443-c270-4bc6-8472-abfa6bd4750d"},"vehicle_type_id":"4","last_reported":1736024819,"current_range_meters":29600,"station_id":"ce4bgvh2rcd13ifvqcs0","pricing_plan_id":"cebpf4jnsgd1na2vs0mg"},{"bike_id":"44d006be-70be-45b8-b039-62d0905c3f17","system_id":"levelo_inurba_marseille","lat":43.28348,"lon":5.3811,"is_reserved":false,"is_disabled":false,"rental_uris":{"android":"levelo://app?vid=44d006be-70be-45b8-b039-62d0905c3f17","ios":"levelo://app?vid=44d006be-70be-45b8-b039-62d0905c3f17"},"vehicle_type_id":"4","last_reported":1736024819,"current_range_meters":36000,"station_id":"ce4bh412rcd13ifvqdr0","pricing_plan_id":"cebpf4jnsgd1na2vs0mg"},{"bike_id":"379af85d-277e-4e2e-abdb-654a08bac7c6","system_id":"levelo_inurba_marseille","lat":43.26224,"lon":5.37411,"is_reserved":false,"is_disabled":false,"rental_uris":{"android":"levelo://app?vid=379af85d-277e-4e2e-abdb-654a08bac7c6","ios":"levelo://app?vid=379af85d-277e-4e2e-abdb-654a08bac7c6"},"vehicle_type_id":"4","last_reported":1736024819,"current_range_meters":11200,"station_id":"","pricing_plan_id":"cebpf4jnsgd1na2vs0mg"},{"bike_id":"bcde3093-8fa8-43fb-afd1-4a1e2c362068","system_id":"levelo_inurba_marseille","lat":43.31233,"lon":5.36848,"is_reserved":false,"is_disabled":false,"rental_uris":{"android":"levelo://app?vid=bcde3093-8fa8-43fb-afd1-4a1e2c362068","ios":"levelo://app?vid=bcde3093-8fa8-43fb-afd1-4a1e2c362068"},"vehicle_type_id":"4","last_reported":1736024819,"current_range_meters":19600,"station_id":"ce4bgl92rcd13ifvqbq0","pricing_plan_id":"cebpf4jnsgd1na2vs0mg"},{"bike_id":"c5d20e4a-fe1b-4624-a558-6c904cbf43ea","system_id":"levelo_inurba_marseille","lat":43.2933,"lon":5.37455,"is_reserved":false,"is_disabled":false,"rental_uris":{"android":"levelo://app?vid=c5d20e4a-fe1b-4624-a558-6c904cbf43ea","ios":"levelo://app?vid=c5d20e4a-fe1b-4624-a558-6c904cbf43ea"},"vehicle_type_id":"4","last_reported":1736024819,"current_range_meters":37600,"station_id":"ce4bgi12rcd13ifvqb70","pricing_plan_id":"cebpf4jnsgd1na2vs0mg"},{"bike_id":"e39d0247-7aff-4574-9189-84b9f8c10c3e","system_id":"levelo_inurba_marseille","lat":43.29293,"lon":5.371647,"is_reserved":false,"is_disabled":false,"rental_uris":{"android":"levelo://app?vid=e39d0247-7aff-4574-9189-84b9f8c10c3e","ios":"levelo://app?vid=e39d0247-7aff-4574-9189-84b9f8c10c3e"},"vehicle_type_id":"4","last_reported":1736024819,"current_range_meters":24800,"station_id":"ce4bgh92rcd13ifvqb40","pricing_plan_id":"cebpf4jnsgd1na2vs0mg"},{"bike_id":"b3679603-2a66-4256-bc07-60ce508ddd3b","system_id":"levelo_inurba_marseille","lat":43.29032,"lon":5.38631,"is_reserved":false,"is_disabled":false,"rental_uris":{"android":"levelo://app?vid=b3679603-2a66-4256-bc07-60ce508ddd3b","ios":"levelo://app?vid=b3679603-2a66-4256-bc07-60ce508ddd3b"},"vehicle_type_id":"4","last_reported":1736024819,"current_range_meters":17600,"station_id":"ce4bh4p2rcd13ifvqe0g","pricing_plan_id":"cebpf4jnsgd1na2vs0mg"},{"bike_id":"f3de9f01-0329-4e8f-9301-885f78d99f9b","system_id":"levelo_inurba_marseille","lat":43.28005,"lon":5.39998,"is_reserved":false,"is_disabled":true,"rental_uris":{"android":"levelo://app?vid=f3de9f01-0329-4e8f-9301-885f78d99f9b","ios":"levelo://app?vid=f3de9f01-0329-4e8f-9301-885f78d99f9b"},"vehicle_type_id":"4","last_reported":1736024819,"current_range_meters":27600,"station_id":"ce4bho92rcd13ifvqh4g","pricing_plan_id":"cebpf4jnsgd1na2vs0mg"},{"bike_id":"8567d977-7a2f-4d27-9d2e-33986d112c50","system_id":"levelo_inurba_marseille","lat":43.29278,"lon":5.38424,"is_reserved":false,"is_disabled":false,"rental_uris":{"android":"levelo://app?vid=8567d977-7a2f-4d27-9d2e-33986d112c50","ios":"levelo://app?vid=8567d977-7a2f-4d27-9d2e-33986d112c50"},"vehicle_type_id":"4","last_reported":1736024819,"current_range_meters":38400,"station_id":"ce4bh692rcd13ifvqea0","pricing_plan_id":"cebpf4jnsgd1na2vs0mg"},{"bike_id":"d014f699-d84d-436b-b3bf-8c059d18ea89","system_id":"levelo_inurba_marseille","lat":43.22922,"lon":5.35373,"is_reserved":false,"is_disabled":false,"rental_uris":{"android":"levelo://app?vid=d014f699-d84d-436b-b3bf-8c059d18ea89","ios":"levelo://app?vid=d014f699-d84d-436b-b3bf-8c059d18ea89"},"vehicle_type_id":"4","last_reported":1736024819,"current_range_meters":20400,"station_id":"cpo3532slgdg3j2ikp40","pricing_plan_id":"cebpf4jnsgd1na2vs0mg"},{"bike_id":"0342c835-b3c5-4a55-aea6-7790855ef077","system_id":"levelo_inurba_marseille","lat":43.28155,"lon":5.42644,"is_reserved":false,"is_disabled":false,"rental_uris":{"android":"levelo://app?vid=0342c835-b3c5-4a55-aea6-7790855ef077","ios":"levelo://app?vid=0342c835-b3c5-4a55-aea6-7790855ef077"},"vehicle_type_id":"4","last_reported":1736024819,"current_range_meters":34000,"station_id":"ce4bhnh2rcd13ifvqgug","pricing_plan_id":"cebpf4jnsgd1na2vs0mg"},{"bike_id":"df861f19-9b69-431a-bd0d-ebaa33f4e781","system_id":"levelo_inurba_marseille","lat":43.30889,"lon":5.39623,"is_reserved":false,"is_disabled":true,"rental_uris":{"android":"levelo://app?vid=df861f19-9b69-431a-bd0d-ebaa33f4e781","ios":"levelo://app?vid=df861f19-9b69-431a-bd0d-ebaa33f4e781"},"vehicle_type_id":"4","last_reported":1736024819,"current_range_meters":800,"station_id":"ce4bh012rcd13ifvqcv0","pricing_plan_id":"cebpf4jnsgd1na2vs0mg"},{"bike_id":"fc50d5df-b880-46f8-b650-c06d07be96db","system_id":"levelo_inurba_marseille","lat":43.29623,"lon":5.37739,"is_reserved":false,"is_disabled":false,"rental_uris":{"android":"levelo://app?vid=fc50d5df-b880-46f8-b650-c06d07be96db","ios":"levelo://app?vid=fc50d5df-b880-46f8-b650-c06d07be96db"},"vehicle_type_id":"4","last_reported":1736024819,"current_range_meters":34800,"station_id":"ce4bgi92rcd13ifvqb90","pricing_plan_id":"cebpf4jnsgd1na2vs0mg"},{"bike_id":"c420422e-e5ff-46aa-9ade-56c25e82f06d","system_id":"levelo_inurba_marseille","lat":43.23195,"lon":5.35546,"is_reserved":false,"is_disabled":false,"rental_uris":{"android":"levelo://app?vid=c420422e-e5ff-46aa-9ade-56c25e82f06d","ios":"levelo://app?vid=c420422e-e5ff-46aa-9ade-56c25e82f06d"},"vehicle_type_id":"4","last_reported":1736024819,"current_range_meters":39200,"station_id":"ce4bhu92rcd13ifvqi70","pricing_plan_id":"cebpf4jnsgd1na2vs0mg"},{"bike_id":"ef72cdb4-465d-4178-b952-49906f159c48","system_id":"levelo_inurba_marseille","lat":43.28141,"lon":5.42639,"is_reserved":false,"is_disabled":false,"rental_uris":{"android":"levelo://app?vid=ef72cdb4-465d-4178-b952-49906f159c48","ios":"levelo://app?vid=ef72cdb4-465d-4178-b952-49906f159c48"},"vehicle_type_id":"4","last_reported":1736024819,"current_range_meters":14800,"station_id":"ce4bhnh2rcd13ifvqgug","pricing_plan_id":"cebpf4jnsgd1na2vs0mg"},{"bike_id":"050dd0dc-c04f-4629-9426-2f6eb48563ac","system_id":"levelo_inurba_marseille","lat":43.29292,"lon":5.37158,"is_reserved":false,"is_disabled":false,"rental_uris":{"android":"levelo://app?vid=050dd0dc-c04f-4629-9426-2f6eb48563ac","ios":"levelo://app?vid=050dd0dc-c04f-4629-9426-2f6eb48563ac"},"vehicle_type_id":"4","last_reported":1736024819,"current_range_meters":36400,"station_id":"ce4bgh92rcd13ifvqb40","pricing_plan_id":"cebpf4jnsgd1na2vs0mg"},{"bike_id":"c404ff90-e84d-46f3-9e77-29827e5fa7c1","system_id":"levelo_inurba_marseille","lat":43.28409,"lon":5.37505,"is_reserved":false,"is_disabled":false,"rental_uris":{"android":"levelo://app?vid=c404ff90-e84d-46f3-9e77-29827e5fa7c1","ios":"levelo://app?vid=c404ff90-e84d-46f3-9e77-29827e5fa7c1"},"vehicle_type_id":"4","last_reported":1736024819,"current_range_meters":26800,"station_id":"ce4bh412rcd13ifvqds0","pricing_plan_id":"cebpf4jnsgd1na2vs0mg"},{"bike_id":"a2fd8310-05b2-4353-a822-b449cc0178c4","system_id":"levelo_inurba_marseille","lat":43.25488,"lon":5.37648,"is_reserved":false,"is_disabled":false,"rental_uris":{"android":"levelo://app?vid=a2fd8310-05b2-4353-a822-b449cc0178c4","ios":"levelo://app?vid=a2fd8310-05b2-4353-a822-b449cc0178c4"},"vehicle_type_id":"4","last_reported":1736024819,"current_range_meters":6400,"station_id":"ce4bhh12rcd13ifvqff0","pricing_plan_id":"cebpf4jnsgd1na2vs0mg"},{"bike_id":"3244eb82-5b95-415c-b171-26cd3cb15f5a","system_id":"levelo_inurba_marseille","lat":43.30152,"lon":5.3742,"is_reserved":false,"is_disabled":false,"rental_uris":{"android":"levelo://app?vid=3244eb82-5b95-415c-b171-26cd3cb15f5a","ios":"levelo://app?vid=3244eb82-5b95-415c-b171-26cd3cb15f5a"},"vehicle_type_id":"4","last_reported":1736024819,"current_range_meters":39200,"station_id":"ce4bgs92rcd13ifvqcc0","pricing_plan_id":"cebpf4jnsgd1na2vs0mg"},{"bike_id":"7bbed7be-28f4-4cc7-81bb-977c0d79552f","system_id":"levelo_inurba_marseille","lat":43.23063,"lon":5.3549,"is_reserved":false,"is_disabled":false,"rental_uris":{"android":"levelo://app?vid=7bbed7be-28f4-4cc7-81bb-977c0d79552f","ios":"levelo://app?vid=7bbed7be-28f4-4cc7-81bb-977c0d79552f"},"vehicle_type_id":"4","last_reported":1736024819,"current_range_meters":16800,"station_id":"cpo3342slgdg3j2ifvpg","pricing_plan_id":"cebpf4jnsgd1na2vs0mg"},{"bike_id":"27f68928-d67c-4f9f-bdbe-410edcc05ec0","system_id":"levelo_inurba_marseille","lat":43.3054,"lon":5.38422,"is_reserved":false,"is_disabled":false,"rental_uris":{"android":"levelo://app?vid=27f68928-d67c-4f9f-bdbe-410edcc05ec0","ios":"levelo://app?vid=27f68928-d67c-4f9f-bdbe-410edcc05ec0"},"vehicle_type_id":"4","last_reported":1736024819,"current_range_meters":38800,"station_id":"ce4bgg92rcd13ifvqb30","pricing_plan_id":"cebpf4jnsgd1na2vs0mg"},{"bike_id":"ed93d347-bf8c-4a53-a0fb-f2368a092979","system_id":"levelo_inurba_marseille","lat":43.29884,"lon":5.37634,"is_reserved":false,"is_disabled":false,"rental_uris":{"android":"levelo://app?vid=ed93d347-bf8c-4a53-a0fb-f2368a092979","ios":"levelo://app?vid=ed93d347-bf8c-4a53-a0fb-f2368a092979"},"vehicle_type_id":"4","last_reported":1736024819,"current_range_meters":25200,"station_id":"","pricing_plan_id":"cebpf4jnsgd1na2vs0mg"},