{"last_updated":1741414259,"ttl":60,"version":"2.2","data":{"bikes":[{"bike_id":"fc2e01e2-a336-49f9-8a33-0d1f4dfa9e0b","system_id":"levelo_inurba_marseille","lat":43.337444,"lon":5.374475,"is_reserved":false,"is_disabled":true,"rental_uris":{"android":"levelo://app?vid=fc2e01e2-a336-49f9-8a33-0d1f4dfa9e0b","ios":"levelo://app?vid=fc2e01e2-a336-49f9-8a33-0d1f4dfa9e0b"},"vehicle_type_id":"4","last_reported":1741414259,"current_range_meters":0,"station_id":"","pricing_plan_id":"cebpf4jnsgd1na2vs0mg"},{"bike_id":"ee1d2ad1-36ca-49dd-a328-f2a9a9994ecb","system_id":"levelo_inurba_marseille","lat":43.31083,"lon":5.38126,"is_reserved":false,"is_disabled":true,"rental_uris":{"android":"levelo://app?vid=ee1d2ad1-36ca-49dd-a328-f2a9a9994ecb","ios":"levelo://app?vid=ee1d2ad1-36ca-49dd-a328-f2a9a9994ecb"},"vehicle_type_id":"4","last_reported":1741414259,"current_range_meters":0,"station_id":"","pricing_plan_id":"cebpf4jnsgd1na2vs0mg"},{"bike_id":"65389854-95bd-4a9a-a5c3-bebfd3de6e4b","system_id":"levelo_inurba_marseille","lat":43.28121,"lon":5.43996,"is_reserved":false,"is_disabled":true,"rental_uris":{"android":"levelo://app?vid=65389854-95bd-4a9a-a5c3-bebfd3de6e4b","ios":"levelo://app?vid=65389854-95bd-4a9a-a5c3-bebfd3de6e4b"},"vehicle_type_id":"4","last_reported":1741414259,"current_range_meters":0,"station_id":"","pricing_plan_id":"cebpf4jnsgd1na2vs0mg"},{"bike_id":"55f1a346-655d-4ceb-961f-e11c032b07e0","system_id":"levelo_inurba_marseille","lat":43.33773,"lon":5.37441,"is_reserved":false,"is_disabled":true,"rental_uris":{"android":"levelo://app?vid=55f1a346-655d-4ceb-961f-e11c032b07e0","ios":"levelo://app?vid=55f1a346-655d-4ceb-961f-e11c032b07e0"},"vehicle_type_id":"4","last_reported":1741414259,"current_range_meters":0,"station_id":"","pricing_plan_id":"cebpf4jnsgd1na2vs0mg"},{"bike_id":"4a17d1b8-749f-4ead-8e77-3be80208c84b","system_id":"levelo_inurba_marseille","lat":43.28115,"lon":5.39857,"is_reserved":false,"is_disabled":true,"rental_uris":{"android":"levelo://app?vid=4a17d1b8-749f-4ead-8e77-3be80208c84b","ios":"levelo://app?vid=4a17d1b8-749f-4ead-8e77-3be80208c84b"},"vehicle_type_id":"4","last_reported":1741414259,"current_range_meters":0,"station_id":"","pricing_plan_id":"cebpf4jnsgd1na2vs0mg"},{"bike_id":"10ca76ad-b404-4ba8-815a-8c5a62697af1","system_id":"levelo_inurba_marseille","lat":43.31069,"lon":5.38392,"is_reserved":false,"is_disabled":true,"rental_uris":{"android":"levelo://app?vid=10ca76ad-b404-4ba8-815a-8c5a62697af1","ios":"levelo://app?vid=10ca76ad-b404-4ba8-815a-8c5a62697af1"},"vehicle_type_id":"4","last_reported":1741414259,"current_range_meters":0,"station_id":"ce4bgv92rcd13ifvqcr0","pricing_plan_id":"cebpf4jnsgd1na2vs0mg"},{"bike_id":"269affca-6aa5-4f4e-ba3e-128ba1011f42","system_id":"levelo_inurba_marseille","lat":43.28701,"lon":5.39989,"is_reserved":false,"is_disabled":true,"rental_uris":{"android":"levelo://app?vid=269affca-6aa5-4f4e-ba3e-128ba1011f42","ios":"levelo://app?vid=269affca-6aa5-4f4e-ba3e-128ba1011f42"},"vehicle_type_id":"4","last_reported":1741414259,"current_range_meters":0,"station_id":"ce4bho92rcd13ifvqh3g","pricing_plan_id":"cebpf4jnsgd1na2vs0mg"},{"bike_id":"6c3f18ad-4e8f-4578-a676-2e9a1c0e966b","system_id":"levelo_inurba_marseille","lat":43.310769,"lon":5.424375,"is_reserved":false,"is_disabled":true,"rental_uris":{"android":"levelo://app?vid=6c3f18ad-4e8f-4578-a676-2e9a1c0e966b","ios":"levelo://app?vid=6c3f18ad-4e8f-4578-a676-2e9a1c0e966b"},"vehicle_type_id":"4","last_reported":1741414259,"current_range_meters":0,"station_id":"ce4bhp92rcd13ifvqhag","pricing_plan_id":"cebpf4jnsgd1na2vs0mg"},{"bike_id":"84fd8a9d-d33c-4402-bbe4-001e62a7f660","system_id":"levelo_inurba_marseille","lat":43.26662,"lon":5.39851,"is_reserved":false,"is_disabled":true,"rental_uris":{"android":"levelo://app?vid=84fd8a9d-d33c-4402-bbe4-001e62a7f660","ios":"levelo://app?vid=84fd8a9d-d33c-4402-bbe4-001e62a7f660"},"vehicle_type_id":"4","last_reported":1741414259,"current_range_meters":800,"station_id":"","pricing_plan_id":"cebpf4jnsgd1na2vs0mg"},{"bike_id":"3332297b-ddda-468e-86eb-33cdac2c9b94","system_id":"levelo_inurba_marseille","lat":43.304291,"lon":5.412115,"is_reserved":false,"is_disabled":true,"rental_uris":{"android":"levelo://app?vid=3332297b-ddda-468e-86eb-33cdac2c9b94","ios":"levelo://app?vid=3332297b-ddda-468e-86eb-33cdac2c9b94"},"vehicle_type_id":"4","last_reported":1741414259,"current_range_meters":800,"station_id":"ce4bhop2rcd13ifvqh7g","pricing_plan_id":"cebpf4jnsgd1na2vs0mg"},{"bike_id":"1854d5bb-0e30-4ee5-8fd8-11d1aaa7167c","system_id":"levelo_inurba_marseille","lat":43.30925,"lon":5.4015,"is_reserved":false,"is_disabled":true,"rental_uris":{"android":"levelo://app?vid=1854d5bb-0e30-4ee5-8fd8-11d1aaa7167c","ios":"levelo://app?vid=1854d5bb-0e30-4ee5-8fd8-11d1aaa7167c"},"vehicle_type_id":"4","last_reported":1741414259,"current_range_meters":1600,"station_id":"ce4bgvp2rcd13ifvqct0","pricing_plan_id":"cebpf4jnsgd1na2vs0mg"},{"bike_id":"adb82c2b-a001-4bdb-8695-897efc36c7d1","system_id":"levelo_inurba_marseille","lat":43.30783,"lon":5.37654,"is_reserved":false,"is_disabled":true,"rental_uris":{"android":"levelo://app?vid=adb82c2b-a001-4bdb-8695-897efc36c7d1","ios":"levelo://app?vid=adb82c2b-a001-4bdb-8695-897efc36c7d1"},"vehicle_type_id":"4","last_reported":1741414259,"current_range_meters":2000,"station_id":"ce4bgv92rcd13ifvqcq0","pricing_plan_id":"cebpf4jnsgd1na2vs0mg"},{"bike_id":"6a2cba80-c390-45cb-a386-17b5eb2ff411","system_id":"levelo_inurba_marseille","lat":43.23316,"lon":5.36178,"is_reserved":false,"is_disabled":false,"rental_uris":{"android":"levelo://app?vid=6a2cba80-c390-45cb-a386-17b5eb2ff411","ios":"levelo://app?vid=6a2cba80-c390-45cb-a386-17b5eb2ff411"},"vehicle_type_id":"4","last_reported":1741414259,"current_range_meters":2800,"station_id":"","pricing_plan_id":"cebpf4jnsgd1na2vs0mg"},{"bike_id":"ed84b227-569a-4f75-bf8e-6a6e5e9915ae","system_id":"levelo_inurba_marseille","lat":43.3065,"lon":5.40104,"is_reserved":false,"is_disabled":false,"rental_uris":{"android":"levelo://app?vid=ed84b227-569a-4f75-bf8e-6a6e5e9915ae","ios":"levelo://app?vid=ed84b227-569a-4f75-bf8e-6a6e5e9915ae"},"vehicle_type_id":"4","last_reported":1741414259,"current_range_meters":2800,"station_id":"","pricing_plan_id":"cebpf4jnsgd1na2vs0mg"},{"bike_id":"292af357-8e17-46cb-8ee0-ce31eb4e08d4","system_id":"levelo_inurba_marseille","lat":43.23716,"lon":5.38879,"is_reserved":false,"is_disabled":false,"rental_uris":{"android":"levelo://app?vid=292af357-8e17-46cb-8ee0-ce31eb4e08d4","ios":"levelo://app?vid=292af357-8e17-46cb-8ee0-ce31eb4e08d4"},"vehicle_type_id":"4","last_reported":1741414259,"current_range_meters":2800,"station_id":"","pricing_plan_id":"cebpf4jnsgd1na2vs0mg"},{"bike_id":"37c8d2e5-9e0e-4f8e-8d58-fb88864841da","system_id":"levelo_inurba_marseille","lat":43.29585,"lon":5.37169,"is_reserved":false,"is_disabled":false,"rental_uris":{"android":"levelo://app?vid=37c8d2e5-9e0e-4f8e-8d58-fb88864841da","ios":"levelo://app?vid=37c8d2e5-9e0e-4f8e-8d58-fb88864841da"},"vehicle_type_id":"4","last_reported":1741414259,"current_range_meters":2800,"station_id":"ce4bgnh2rcd13ifvqc0g","pricing_plan_id":"cebpf4jnsgd1na2vs0mg"},{"bike_id":"f7a85f1b-5528-4bd4-98d9-a65f1b6b8628","system_id":"levelo_inurba_marseille","lat":43.2891,"lon":5.35445,"is_reserved":false,"is_disabled":false,"rental_uris":{"android":"levelo://app?vid=f7a85f1b-5528-4bd4-98d9-a65f1b6b8628","ios":"levelo://app?vid=f7a85f1b-5528-4bd4-98d9-a65f1b6b8628"},"vehicle_type_id":"4","last_reported":1741414259,"current_range_meters":3600,"station_id":"","pricing_plan_id":"cebpf4jnsgd1na2vs0mg"},{"bike_id":"914bbafb-3768-41ed-9924-1947bd4ab869","system_id":"levelo_inurba_marseille","lat":43.30145,"lon":5.38375,"is_reserved":false,"is_disabled":false,"rental_uris":{"android":"levelo://app?vid=914bbafb-3768-41ed-9924-1947bd4ab869","ios":"levelo://app?vid=914bbafb-3768-41ed-9924-1947bd4ab869"},"vehicle_type_id":"4","last_reported":1741414259,"current_range_meters":3600,"station_id":"","pricing_plan_id":"cebpf4jnsgd1na2vs0mg"},{"bike_id":"24df224d-ffa5-472e-acc0-380979001d96","system_id":"levelo_inurba_marseille","lat":43.257214,"lon":5.411133,"is_reserved":false,"is_disabled":false,"rental_uris":{"android":"levelo://app?vid=24df224d-ffa5-472e-acc0-380979001d96","ios":"levelo://app?vid=24df224d-ffa5-472e-acc0-380979001d96"},"vehicle_type_id":"4","last_reported":1741414259,"current_range_meters":4000,"station_id":"ce4bhkp2rcd13ifvqgd0","pricing_plan_id":"cebpf4jnsgd1na2vs0mg"},{"bike_id":"c5d9a748-fb84-4751-9008-dc4467d9ed9a","system_id":"levelo_inurba_marseille","lat":43.23188,"lon":5.35547,"is_reserved":false,"is_disabled":false,"rental_uris":{"android":"levelo://app?vid=c5d9a748-fb84-4751-9008-dc4467d9ed9a","ios":"levelo://app?vid=c5d9a748-fb84-4751-9008-dc4467d9ed9a"},"vehicle_type_id":"4","last_reported":1741414259,"current_range_meters":4000,"station_id":"ce4bhu92rcd13ifvqi70","pricing_plan_id":"cebpf4jnsgd1na2vs0mg"},{"bike_id":"215a01e2-9c1c-45bf-a69c-7a5458c1fe75","system_id":"levelo_inurba_marseille","lat":43.280768,"lon":5.396605,"is_reserved":false,"is_disabled":false,"rental_uris":{"android":"levelo://app?vid=215a01e2-9c1c-45bf-a69c-7a5458c1fe75","ios":"levelo://app?vid=215a01e2-9c1c-45bf-a69c-7a5458c1fe75"},"vehicle_type_id":"4","last_reported":1741414259,"current_range_meters":4400,"station_id":"ce4bho12rcd13ifvqh2g","pricing_plan_id":"cebpf4jnsgd1na2vs0mg"},{"bike_id":"55993612-dd7a-4524-96a2-fae311f51d5b","system_id":"levelo_inurba_marseille","lat":43.28716,"lon":5.39982,"is_reserved":false,"is_disabled":false,"rental_uris":{"android":"levelo://app?vid=55993612-dd7a-4524-96a2-fae311f51d5b","ios":"levelo://app?vid=55993612-dd7a-4524-96a2-fae311f51d5b"},"vehicle_type_id":"4","last_reported":1741414259,"current_range_meters":4400,"station_id":"ce4bho92rcd13ifvqh3g","pricing_plan_id":"cebpf4jnsgd1na2vs0mg"},{"bike_id":"ca1b5ebb-a98e-491d-bd88-b70456e19fba","system_id":"levelo_inurba_marseille","lat":43.27609,"lon":5.36116,"is_reserved":false,"is_disabled":false,"rental_uris":{"android":"levelo://app?vid=ca1b5ebb-a98e-491d-bd88-b70456e19fba","ios":"levelo://app?vid=ca1b5ebb-a98e-491d-bd88-b70456e19fba"},"vehicle_type_id":"4","last_reported":1741414259,"current_range_meters":4800,"station_id":"ce4bgj92rcd13ifvqbe0","pricing_plan_id":"cebpf4jnsgd1na2vs0mg"},{"bike_id":"5a7dcbc3-86d4-4d96-8819-bfde5635cd39","system_id":"levelo_inurba_marseille","lat":43.3132,"lon":5.39704,"is_reserved":false,"is_disabled":false,"rental_uris":{"android":"levelo://app?vid=5a7dcbc3-86d4-4d96-8819-bfde5635cd39","ios":"levelo://app?vid=5a7dcbc3-86d4-4d96-8819-bfde5635cd39"},"vehicle_type_id":"4","last_reported":1741414259,"current_range_meters":4800,"station_id":"ce4bgvp2rcd13ifvqcu0","pricing_plan_id":"cebpf4jnsgd1na2vs0mg"},{"bike_id":"bb05f23e-14b8-454c-8b5f-3dfc96887b02","system_id":"levelo_inurba_marseille","lat":43.262288,"lon":5.404453,"is_reserved":false,"is_disabled":false,"rental_uris":{"android":"levelo://app?vid=bb05f23e-14b8-454c-8b5f-3dfc96887b02","ios":"levelo://app?vid=bb05f23e-14b8-454c-8b5f-3dfc96887b02"},"vehicle_type_id":"4","last_reported":1741414259,"current_range_meters":4800,"station_id":"ce4bhmh2rcd13ifvqgmg","pricing_plan_id":"cebpf4jnsgd1na2vs0mg"},{"bike_id":"3763ca09-281c-481c-9755-79dce3edd104","system_id":"levelo_inurba_marseille","lat":43.32003,"lon":5.38166,"is_reserved":false,"is_disabled":false,"rental_uris":{"android":"levelo://app?vid=3763ca09-281c-481c-9755-79dce3edd104","ios":"levelo://app?vid=3763ca09-281c-481c-9755-79dce3edd104"},"vehicle_type_id":"4","last_reported":1741414259,"current_range_meters":4800,"station_id":"ce4bhr12rcd13ifvqhpg","pricing_plan_id":"cebpf4jnsgd1na2vs0mg"},{"bike_id":"43bc5e18-7bfb-4e30-b758-942e653f0d5a","system_id":"levelo_inurba_marseille","lat":43.24621,"lon":5.40262,"is_reserved":false,"is_disabled":false,"rental_uris":{"android":"levelo://app?vid=43bc5e18-7bfb-4e30-b758-942e653f0d5a","ios":"levelo://app?vid=43bc5e18-7bfb-4e30-b758-942e653f0d5a"},"vehicle_type_id":"4","last_reported":1741414259,"current_range_meters":5600,"station_id":"","pricing_plan_id":"cebpf4jnsgd1na2vs0mg"},{"bike_id":"73cc5456-8943-4526-8ec4-8dd8434c5e2d","system_id":"levelo_inurba_marseille","lat":43.23964,"lon":5.3663,"is_reserved":false,"is_disabled":false,"rental_uris":{"android":"levelo://app?vid=73cc5456-8943-4526-8ec4-8dd8434c5e2d","ios":"levelo://app?vid=73cc5456-8943-4526-8ec4-8dd8434c5e2d"},"vehicle_type_id":"4","last_reported":1741414259,"current_range_meters":5600,"station_id":"ce4bhi12rcd13ifvqfp0","pricing_plan_id":"cebpf4jnsgd1na2vs0mg"},{"bike_id":"e82b73a7-d1ae-43c3-a107-e0b413d5ff48","system_id":"levelo_inurba_marseille","lat":43.32657,"lon":5.41,"is_reserved":false,"is_disabled":false,"rental_uris":{"android":"levelo://app?vid=e82b73a7-d1ae-43c3-a107-e0b413d5ff48","ios":"levelo://app?vid=e82b73a7-d1ae-43c3-a107-e0b413d5ff48"},"vehicle_type_id":"4","last_reported":1741414259,"current_range_meters":5600,"station_id":"ce4bhpp2rcd13ifvqhgg","pricing_plan_id":"cebpf4jnsgd1na2vs0mg"},{"bike_id":"c7b856f3-5384-43d0-9239-d897a865fee4","system_id":"levelo_inurba_marseille","lat":43.230571,"lon":5.354939,"is_reserved":false,"is_disabled":false,"rental_uris":{"android":"levelo://app?vid=c7b856f3-5384-43d0-9239-d897a865fee4","ios":"levelo://app?vid=c7b856f3-5384-43d0-9239-d897a865fee4"},"vehicle_type_id":"4","last_reported":1741414259,"current_range_meters":5600,"station_id":"cpo3342slgdg3j2ifvpg","pricing_plan_id":"cebpf4jnsgd1na2vs0mg"},{"bike_id":"53ba06d6-3b6c-4f49-bc80-8f7e1937ded3","system_id":"levelo_inurba_marseille","lat":43.27891,"lon":5.41241,"is_reserved":false,"is_disabled":false,"rental_uris":{"android":"levelo://app?vid=53ba06d6-3b6c-4f49-bc80-8f7e1937ded3","ios":"levelo://app?vid=53ba06d6-3b6c-4f49-bc80-8f7e1937ded3"},"vehicle_type_id":"4","last_reported":1741414259,"current_range_meters":6000,"station_id":"","pricing_plan_id":"cebpf4jnsgd1na2vs0mg"},{"bike_id":"d6d8f87b-25ab-4e84-9c2a-1348cf230730","system_id":"levelo_inurba_marseille","lat":43.281538,"lon":5.402184,"is_reserved":false,"is_disabled":false,"rental_uris":{"android":"levelo://app?vid=d6d8f87b-25ab-4e84-9c2a-1348cf230730","ios":"levelo://app?vid=d6d8f87b-25ab-4e84-9c2a-1348cf230730"},"vehicle_type_id":"4","last_reported":1741414259,"current_range_meters":6000,"station_id":"","pricing_plan_id":"cebpf4jnsgd1na2vs0mg"},{"bike_id":"49bb524d-911e-4e57-a25a-4f733aad7f1d","system_id":"levelo_inurba_marseille","lat":43.30392,"lon":5.37091,"is_reserved":false,"is_disabled":false,"rental_uris":{"android":"levelo://app?vid=49bb524d-911e-4e57-a25a-4f733aad7f1d","ios":"levelo://app?vid=49bb524d-911e-4e57-a25a-4f733aad7f1d"},"vehicle_type_id":"4","last_reported":1741414259,"current_range_meters":6000,"station_id":"","pricing_plan_id":"cebpf4jnsgd1na2vs0mg"},{"bike_id":"c9151ceb-fd35-4b40-9877-b7757062111e","system_id":"levelo_inurba_marseille","lat":43.27797,"lon":5.40716,"is_reserved":false,"is_disabled":false,"rental_uris":{"android":"levelo://app?vid=c9151ceb-fd35-4b40-9877-b7757062111e","ios":"levelo://app?vid=c9151ceb-fd35-4b40-9877-b7757062111e"},"vehicle_type_id":"4","last_reported":1741414259,"current_range_meters":6000,"station_id":"ce4bhnh2rcd13ifvqgtg","pricing_plan_id":"cebpf4jnsgd1na2vs0mg"},{"bike_id":"7ece863a-a30e-4b42-8580-f90ca6be0d5c","system_id":"levelo_inurba_marseille","lat":43.33021,"lon":5.39042,"is_reserved":false,"is_disabled":false,"rental_uris":{"android":"levelo://app?vid=7ece863a-a30e-4b42-8580-f90ca6be0d5c","ios":"levelo://app?vid=7ece863a-a30e-4b42-8580-f90ca6be0d5c"},"vehicle_type_id":"4","last_reported":1741414259,"current_range_meters":6000,"station_id":"ce4bhr92rcd13ifvqhrg","pricing_plan_id":"cebpf4jnsgd1na2vs0mg"},{"bike_id":"f59d85d2-8c07-41cb-90bd-9ddecc26ffd7","system_id":"levelo_inurba_marseille","lat":43.304664,"lon":5.367563,"is_reserved":false,"is_disabled":false,"rental_uris":{"android":"levelo://app?vid=f59d85d2-8c07-41cb-90bd-9ddecc26ffd7","ios":"levelo://app?vid=f59d85d2-8c07-41cb-90bd-9ddecc26ffd7"},"vehicle_type_id":"4","last_reported":1741414259,"current_range_meters":6400,"station_id":"","pricing_plan_id":"cebpf4jnsgd1na2vs0mg"},{"bike_id":"35130f87-b313-43ca-86df-0e44026654c1","system_id":"levelo_inurba_marseille","lat":43.30801,"lon":5.38048,"is_reserved":false,"is_disabled":false,"rental_uris":{"android":"levelo://app?vid=35130f87-b313-43ca-86df-0e44026654c1","ios":"levelo://app?vid=35130f87-b313-43ca-86df-0e44026654c1"},"vehicle_type_id":"4","last_reported":1741414259,"current_range_meters":6400,"station_id":"","pricing_plan_id":"cebpf4jnsgd1na2vs0mg"},{"bike_id":"72ad35d5-229e-4395-b775-8a505aad1b5e","system_id":"levelo_inurba_marseille","lat":43.27621,"lon":5.36132,"is_reserved":false,"is_disabled":false,"rental_uris":{"android":"levelo://app?vid=72ad35d5-229e-4395-b775-8a505aad1b5e","ios":"levelo://app?vid=72ad35d5-229e-4395-b775-8a505aad1b5e"},"vehicle_type_id":"4","last_reported":1741414259,"current_range_meters":6400,"station_id":"ce4bgj92rcd13ifvqbe0","pricing_plan_id":"cebpf4jnsgd1na2vs0mg"},{"bike_id":"a45eda30-93db-4cd6-bc29-df6c0e7b5378","system_id":"levelo_inurba_marseille","lat":43.239588,"lon":5.366314,"is_reserved":false,"is_disabled":false,"rental_uris":{"android":"levelo://app?vid=a45eda30-93db-4cd6-bc29-df6c0e7b5378","ios":"levelo://app?vid=a45eda30-93db-4cd6-bc29-df6c0e7b5378"},"vehicle_type_id":"4","last_reported":1741414259,"current_range_meters":6400,"station_id":"ce4bhi12rcd13ifvqfp0","pricing_plan_id":"cebpf4jnsgd1na2vs0mg"},{"bike_id":"159a395a-3ed9-47da-afbb-78774d220122","system_id":"levelo_inurba_marseille","lat":43.29938,"lon":5.36544,"is_reserved":false,"is_disabled":false,"rental_uris":{"android":"levelo://app?vid=159a395a-3ed9-47da-afbb-78774d220122","ios":"levelo://app?vid=159a395a-3ed9-47da-afbb-78774d220122"},"vehicle_type_id":"4","last_reported":1741414259,"current_range_meters":6800,"station_id":"ce4bgm92rcd13ifvqbr0","pricing_plan_id":"cebpf4jnsgd1na2vs0mg"},{"bike_id":"746b23c7-504b-4377-9699-edef3c80e893","system_id":"levelo_inurba_marseille","lat":43.31331,"lon":5.39692,"is_reserved":false,"is_disabled":false,"rental_uris":{"android":"levelo://app?vid=746b23c7-504b-4377-9699-edef3c80e893","ios":"levelo://app?vid=746b23c7-504b-4377-9699-edef3c80e893"},"vehicle_type_id":"4","last_reported":1741414259,"current_range_meters":6800,"station_id":"ce4bgvp2rcd13ifvqcu0","pricing_plan_id":"cebpf4jnsgd1na2vs0mg"},{"bike_id":"7202a711-5bc4-4e0d-8a12-46c161c42844","system_id":"levelo_inurba_marseille","lat":43.30646,"lon":5.40085,"is_reserved":false,"is_disabled":false,"rental_uris":{"android":"levelo://app?vid=7202a711-5bc4-4e0d-8a12-46c161c42844","ios":"levelo://app?vid=7202a711-5bc4-4e0d-8a12-46c161c42844"},"vehicle_type_id":"4","last_reported":1741414259,"current_range_meters":6800,"station_id":"ce4bh112rcd13ifvqda0","pricing_plan_id":"cebpf4jnsgd1na2vs0mg"},{"bike_id":"979987e2-dfc4-42fc-8f32-b517c3f9a62d","system_id":"levelo_inurba_marseille","lat":43.28451,"lon":5.39225,"is_reserved":false,"is_disabled":false,"rental_uris":{"android":"levelo://app?vid=979987e2-dfc4-42fc-8f32-b517c3f9a62d","ios":"levelo://app?vid=979987e2-dfc4-42fc-8f32-b517c3f9a62d"},"vehicle_type_id":"4","last_reported":1741414259,"current_range_meters":6800,"station_id":"ce4bhoh2rcd13ifvqh5g","pricing_plan_id":"cebpf4jnsgd1na2vs0mg"},{"bike_id":"b2cada68-d22d-4962-a15a-eab832155af1","system_id":"levelo_inurba_marseille","lat":43.31327,"lon":5.39719,"is_reserved":false,"is_disabled":false,"rental_uris":{"android":"levelo://app?vid=b2cada68-d22d-4962-a15a-eab832155af1","ios":"levelo://app?vid=b2cada68-d22d-4962-a15a-eab832155af1"},"vehicle_type_id":"4","last_reported":1741414259,"current_range_meters":7200,"station_id":"ce4bgvp2rcd13ifvqcu0","pricing_plan_id":"cebpf4jnsgd1na2vs0mg"},{"bike_id":"9bd27d49-56a4-4102-829e-11060f65857c","system_id":"levelo_inurba_marseille","lat":43.292742,"lon":5.401259,"is_reserved":false,"is_disabled":false,"rental_uris":{"android":"levelo://app?vid=9bd27d49-56a4-4102-829e-11060f65857c","ios":"levelo://app?vid=9bd27d49-56a4-4102-829e-11060f65857c"},"vehicle_type_id":"4","last_reported":1741414259,"current_range_meters":7200,"station_id":"ce4bh312rcd13ifvqdk0","pricing_plan_id":"cebpf4jnsgd1na2vs0mg"},{"bike_id":"1f1b69c5-067d-4677-a02d-6299a5fc1bb9","system_id":"levelo_inurba_marseille","lat":43.239687,"lon":5.366278,"is_reserved":false,"is_disabled":false,"rental_uris":{"android":"levelo://app?vid=1f1b69c5-067d-4677-a02d-6299a5fc1bb9","ios":"levelo://app?vid=1f1b69c5-067d-4677-a02d-6299a5fc1bb9"},"vehicle_type_id":"4","last_reported":1741414259,"current_range_meters":7200,"station_id":"ce4bhi12rcd13ifvqfp0","pricing_plan_id":"cebpf4jnsgd1na2vs0mg"},{"bike_id":"54868156-3501-4485-b64a-600156c1037f","system_id":"levelo_inurba_marseille","lat":43.24664,"lon":5.38166,"is_reserved":false,"is_disabled":false,"rental_uris":{"android":"levelo://app?vid=54868156-3501-4485-b64a-600156c1037f","ios":"levelo://app?vid=54868156-3501-4485-b64a-600156c1037f"},"vehicle_type_id":"4","last_reported":1741414259,"current_range_meters":7200,"station_id":"ce4bhih2rcd13ifvqfr0","pricing_plan_id":"cebpf4jnsgd1na2vs0mg"},{"bike_id":"62391f34-3130-43d3-9ff9-87e80b4db075","system_id":"levelo_inurba_marseille","lat":43.321099,"lon":5.367833,"is_reserved":false,"is_disabled":false,"rental_uris":{"android":"levelo://app?vid=62391f34-3130-43d3-9ff9-87e80b4db075","ios":"levelo://app?vid=62391f34-3130-43d3-9ff9-87e80b4db075"},"vehicle_type_id":"4","last_reported":1741414259,"current_range_meters":7200,"station_id":"ce4bhrh2rcd13ifvqhug","pricing_plan_id":"cebpf4jnsgd1na2vs0mg"},{"bike_id":"51510a95-54e3-4b84-9b22-bfa3391426f3","system_id":"levelo_inurba_marseille","lat":43.231935,"lon":5.355506,"is_reserved":false,"is_disabled":false,"rental_uris":{"android":"levelo://app?vid=51510a95-54e3-4b84-9b22-bfa3391426f3","ios":"levelo://app?vid=51510a95-54e3-4b84-9b22-bfa3391426f3"},"vehicle_type_id":"4","last_reported":1741414259,"current_range_meters":7200,"station_id":"ce4bhu92rcd13ifvqi70","pricing_plan_id":"cebpf4jnsgd1na2vs0mg"},{"bike_id":"5a6842ae-c0b9-41cc-a935-1573a6ab60b1","system_id":"levelo_inurba_marseille","lat":43.2988,"lon":5.36336,"is_reserved":false,"is_disabled":false,"rental_uris":{"android":"levelo://app?vid=5a6842ae-c0b9-41cc-a935-1573a6ab60b1","ios":"levelo://app?vid=5a6842ae-c0b9-41cc-a935-1573a6ab60b1"},"vehicle_type_id":"4","last_reported":1741414259,"current_range_meters":8000,"station_id":"","pricing_plan_id":"cebpf4jnsgd1na2vs0mg"},{"bike_id":"904a8371-ebed-45e5-8cc3-b64b65860481","system_id":"levelo_inurba_marseille","lat":43.31706,"lon":5.37757,"is_reserved":false,"is_disabled":false,"rental_uris":{"android":"levelo://app?vid=904a8371-ebed-45e5-8cc3-b64b65860481","ios":"levelo://app?vid=904a8371-ebed-45e5-8cc3-b64b65860481"},"vehicle_type_id":"4","last_reported":1741414259,"current_range_meters":8000,"station_id":"ce4bgth2rcd13ifvqch0","pricing_plan_id":"cebpf4jnsgd1na2vs0mg"},{"bike_id":"6105c00a-6a00-4712-879c-7310584d8193","system_id":"levelo_inurba_marseille","lat":43.29041,"lon":5.3996,"is_reserved":false,"is_disabled":false,"rental_uris":{"android":"levelo://app?vid=6105c00a-6a00-4712-879c-7310584d8193","ios":"levelo://app?vid=6105c00a-6a00-4712-879c-7310584d8193"},"vehicle_type_id":"4","last_reported":1741414259,"current_range_meters":8000,"station_id":"ce4bh392rcd13ifvqdm0","pricing_plan_id":"cebpf4jnsgd1na2vs0mg"},{"bike_id":"c9723caa-a021-462e-9ea1-3988c00ce85c","system_id":"levelo_inurba_marseille","lat":43.2845,"lon":5.35876,"is_reserved":false,"is_disabled":false,"rental_uris":{"android":"levelo://app?vid=c9723caa-a021-462e-9ea1-3988c00ce85c","ios":"levelo://app?vid=c9723caa-a021-462e-9ea1-3988c00ce85c"},"vehicle_type_id":"4","last_reported":1741414259,"current_range_meters":8000,"station_id":"ce4bhah2rcd13ifvqei0","pricing_plan_id":"cebpf4jnsgd1na2vs0mg"},{"bike_id":"88315901-c9a6-41af-ab68-786f17caae47","system_id":"levelo_inurba_marseille","lat":43.27972,"lon":5.38754,"is_reserved":false,"is_disabled":false,"rental_uris":{"android":"levelo://app?vid=88315901-c9a6-41af-ab68-786f17caae47","ios":"levelo://app?vid=88315901-c9a6-41af-ab68-786f17caae47"},"vehicle_type_id":"4","last_reported":1741414259,"current_range_meters":8000,"station_id":"ce4bhg12rcd13ifvqf80","pricing_plan_id":"cebpf4jnsgd1na2vs0mg"},{"bike_id":"42323b44-4776-4993-88db-08c90d643018","system_id":"levelo_inurba_marseille","lat":43.30068,"lon":5.37643,"is_reserved":false,"is_disabled":false,"rental_uris":{"android":"levelo://app?vid=42323b44-4776-4993-88db-08c90d643018","ios":"levelo://app?vid=42323b44-4776-4993-88db-08c90d643018"},"vehicle_type_id":"4","last_reported":1741414259,"current_range_meters":8400,"station_id":"","pricing_plan_id":"cebpf4jnsgd1na2vs0mg"},{"bike_id":"a6639f99-e13b-44f9-91cd-0038654bbc9d","system_id":"levelo_inurba_marseille","lat":43.30798,"lon":5.38155,"is_reserved":false,"is_disabled":false,"rental_uris":{"android":"levelo://app?vid=a6639f99-e13b-44f9-91cd-0038654bbc9d","ios":"levelo://app?vid=a6639f99-e13b-44f9-91cd-0038654bbc9d"},"vehicle_type_id":"4","last_reported":1741414259,"current_range_meters":8400,"station_id":"ce4bgt12rcd13ifvqce0","pricing_plan_id":"cebpf4jnsgd1na2vs0mg"},{"bike_id":"e88a0cfa-312e-4696-b518-d911ceac0266","system_id":"levelo_inurba_marseille","lat":43.29445,"lon":5.39742,"is_reserved":false,"is_disabled":false,"rental_uris":{"android":"levelo://app?vid=e88a0cfa-312e-4696-b518-d911ceac0266","ios":"levelo://app?vid=e88a0cfa-312e-4696-b518-d911ceac0266"},"vehicle_type_id":"4","last_reported":1741414259,"current_range_meters":8400,"station_id":"ce4bh3h2rcd13ifvqdo0","pricing_plan_id":"cebpf4jnsgd1na2vs0mg"},{"bike_id":"f7e7e1df-9bf7-44f5-aeac-cf59c8f8c68e","system_id":"levelo_inurba_marseille","lat":43.27913,"lon":5.39603,"is_reserved":false,"is_disabled":false,"rental_uris":{"android":"levelo://app?vid=f7e7e1df-9bf7-44f5-aeac-cf59c8f8c68e","ios":"levelo://app?vid=f7e7e1df-9bf7-44f5-aeac-cf59c8f8c68e"},"vehicle_type_id":"4","last_reported":1741414259,"current_range_meters":8400,"station_id":"ce4bhf92rcd13ifvqf40","pricing_plan_id":"cebpf4jnsgd1na2vs0mg"},{"bike_id":"fd582eda-24a3-4848-ba08-84b03aa0724a","system_id":"levelo_inurba_marseille","lat":43.23186,"lon":5.39999,"is_reserved":false,"is_disabled":false,"rental_uris":{"android":"levelo://app?vid=fd582eda-24a3-4848-ba08-84b03aa0724a","ios":"levelo://app?vid=fd582eda-24a3-4848-ba08-84b03aa0724a"},"vehicle_type_id":"4","last_reported":1741414259,"current_range_meters":8400,"station_id":"ce4bhn12rcd13ifvqgqg","pricing_plan_id":"cebpf4jnsgd1na2vs0mg"},{"bike_id":"086d469f-dff5-4ec5-8e53-42a42c799cc9","system_id":"levelo_inurba_marseille","lat":43.29557,"lon":5.42319,"is_reserved":false,"is_disabled":false,"rental_uris":{"android":"levelo://app?vid=086d469f-dff5-4ec5-8e53-42a42c799cc9","ios":"levelo://app?vid=086d469f-dff5-4ec5-8e53-42a42c799cc9"},"vehicle_type_id":"4","last_reported":1741414259,"current_range_meters":8400,"station_id":"ce4bhph2rcd13ifvqhdg","pricing_plan_id":"cebpf4jnsgd1na2vs0mg"},{"bike_id":"59ef7ab1-f072-4315-9e2a-a3482cc569d5","system_id":"levelo_inurba_marseille","lat":43.29892,"lon":5.43648,"is_reserved":false,"is_disabled":false,"rental_uris":{"android":"levelo://app?vid=59ef7ab1-f072-4315-9e2a-a3482cc569d5","ios":"levelo://app?vid=59ef7ab1-f072-4315-9e2a-a3482cc569d5"},"vehicle_type_id":"4","last_reported":1741414259,"current_range_meters":8400,"station_id":"ce4bhpp2rcd13ifvqhfg","pricing_plan_id":"cebpf4jnsgd1na2vs0mg"},{"bike_id":"4f626685-9b06-4879-8c8c-0cb65db40bda","system_id":"levelo_inurba_marseille","lat":43.32345,"lon":5.40597,"is_reserved":false,"is_disabled":false,"rental_uris":{"android":"levelo://app?vid=4f626685-9b06-4879-8c8c-0cb65db40bda","ios":"levelo://app?vid=4f626685-9b06-4879-8c8c-0cb65db40bda"},"vehicle_type_id":"4","last_reported":1741414259,"current_range_meters":8400,"station_id":"ce4bhq92rcd13ifvqhjg","pricing_plan_id":"cebpf4jnsgd1na2vs0mg"},{"bike_id":"bd1ca430-15b2-40f5-ab85-6f767aed8061","system_id":"levelo_inurba_marseille","lat":43.23055,"lon":5.3553,"is_reserved":false,"is_disabled":false,"rental_uris":{"android":"levelo://app?vid=bd1ca430-15b2-40f5-ab85-6f767aed8061","ios":"levelo://app?vid=bd1ca430-15b2-40f5-ab85-6f767aed8061"},"vehicle_type_id":"4","last_reported":1741414259,"current_range_meters":8400,"station_id":"cpo3342slgdg3j2ifvpg","pricing_plan_id":"cebpf4jnsgd1na2vs0mg"},{"bike_id":"3949e300-2dbd-4203-aa58-eef0b1b0c774","system_id":"levelo_inurba_marseille","lat":43.33788,"lon":5.37427,"is_reserved":false,"is_disabled":false,"rental_uris":{"android":"levelo://app?vid=3949e300-2dbd-4203-aa58-eef0b1b0c774","ios":"levelo://app?vid=3949e300-2dbd-4203-aa58-eef0b1b0c774"},"vehicle_type_id":"4","last_reported":1741414259,"current_range_meters":8800,"station_id":"","pricing_plan_id":"cebpf4jnsgd1na2vs0mg"},{"bike_id":"b6865d90-a821-406a-8f81-68a973482a93","system_id":"levelo_inurba_marseille","lat":43.3093,"lon":5.40154,"is_reserved":false,"is_disabled":false,"rental_uris":{"android":"levelo://app?vid=b6865d90-a821-406a-8f81-68a973482a93","ios":"levelo://app?vid=b6865d90-a821-406a-8f81-68a973482a93"},"vehicle_type_id":"4","last_reported":1741414259,"current_range_meters":8800,"station_id":"ce4bgvp2rcd13ifvqct0","pricing_plan_id":"cebpf4jnsgd1na2vs0mg"},{"bike_id":"accdcb62-8c05-4506-9ad4-05b193a7d8c9","system_id":"levelo_inurba_marseille","lat":43.27999,"lon":5.41681,"is_reserved":false,"is_disabled":false,"rental_uris":{"android":"levelo://app?vid=accdcb62-8c05-4506-9ad4-05b193a7d8c9","ios":"levelo://app?vid=accdcb62-8c05-4506-9ad4-05b193a7d8c9"},"vehicle_type_id":"4","last_reported":1741414259,"current_range_meters":8800,"station_id":"ce4bho12rcd13ifvqh1g","pricing_plan_id":"cebpf4jnsgd1na2vs0mg"},{"bike_id":"01a6afe2-d645-4130-8890-22799000c76a","system_id":"levelo_inurba_marseille","lat":43.27995,"lon":5.40013,"is_reserved":false,"is_disabled":false,"rental_uris":{"android":"levelo://app?vid=01a6afe2-d645-4130-8890-22799000c76a","ios":"levelo://app?vid=01a6afe2-d645-4130-8890-22799000c76a"},"vehicle_type_id":"4","last_reported":1741414259,"current_range_meters":8800,"station_id":"ce4bho92rcd13ifvqh4g","pricing_plan_id":"cebpf4jnsgd1na2vs0mg"},{"bike_id":"67a06def-8841-4af6-bc40-592ac0712e97","system_id":"levelo_inurba_marseille","lat":43.31536,"lon":5.38022,"is_reserved":false,"is_disabled":false,"rental_uris":{"android":"levelo://app?vid=67a06def-8841-4af6-bc40-592ac0712e97","ios":"levelo://app?vid=67a06def-8841-4af6-bc40-592ac0712e97"},"vehicle_type_id":"4","last_reported":1741414259,"current_range_meters":8800,"station_id":"ce4bhsp2rcd13ifvqi50","pricing_plan_id":"cebpf4jnsgd1na2vs0mg"},{"bike_id":"daa48c53-c5de-46aa-94fc-655cbd710c8c","system_id":"levelo_inurba_marseille","lat":43.22926,"lon":5.35384,"is_reserved":false,"is_disabled":false,"rental_uris":{"android":"levelo://app?vid=daa48c53-c5de-46aa-94fc-655cbd710c8c","ios":"levelo://app?vid=daa48c53-c5de-46aa-94fc-655cbd710c8c"},"vehicle_type_id":"4","last_reported":1741414259,"current_range_meters":8800,"station_id":"cpo3532slgdg3j2ikp40","pricing_plan_id":"cebpf4jnsgd1na2vs0mg"},{"bike_id":"60fba7df-4520-4d63-9c5b-9a7a002cedfb","system_id":"levelo_inurba_marseille","lat":43.28029,"lon":5.3913,"is_reserved":false,"is_disabled":false,"rental_uris":{"android":"levelo://app?vid=60fba7df-4520-4d63-9c5b-9a7a002cedfb","ios":"levelo://app?vid=60fba7df-4520-4d63-9c5b-9a7a002cedfb"},"vehicle_type_id":"4","last_reported":1741414259,"current_range_meters":9200,"station_id":"","pricing_plan_id":"cebpf4jnsgd1na2vs0mg"},{"bike_id":"6038b7a3-31c8-4f9f-aa7a-4ba551706c29","system_id":"levelo_inurba_marseille","lat":43.29844,"lon":5.36288,"is_reserved":false,"is_disabled":false,"rental_uris":{"android":"levelo://app?vid=6038b7a3-31c8-4f9f-aa7a-4ba551706c29","ios":"levelo://app?vid=6038b7a3-31c8-4f9f-aa7a-4ba551706c29"},"vehicle_type_id":"4","last_reported":1741414259,"current_range_meters":9200,"station_id":"ce4bgpp2rcd13ifvqc3g","pricing_plan_id":"cebpf4jnsgd1na2vs0mg"},{"bike_id":"93ffcf42-62d1-405d-9fbb-65480462b3b0","system_id":"levelo_inurba_marseille","lat":43.30461,"lon":5.37908,"is_reserved":false,"is_disabled":false,"rental_uris":{"android":"levelo://app?vid=93ffcf42-62d1-405d-9fbb-65480462b3b0","ios":"levelo://app?vid=93ffcf42-62d1-405d-9fbb-65480462b3b0"},"vehicle_type_id":"4","last_reported":1741414259,"current_range_meters":9200,"station_id":"ce4bgup2rcd13ifvqcn0","pricing_plan_id":"cebpf4jnsgd1na2vs0mg"},{"bike_id":"6e495f08-0359-415b-a6d0-7827c5b65999","system_id":"levelo_inurba_marseille","lat":43.3107,"lon":5.38354,"is_reserved":false,"is_disabled":false,"rental_uris":{"android":"levelo://app?vid=6e495f08-0359-415b-a6d0-7827c5b65999","ios":"levelo://app?vid=6e495f08-0359-415b-a6d0-7827c5b65999"},"vehicle_type_id":"4","last_reported":1741414259,"current_range_meters":9200,"station_id":"ce4bgv92rcd13ifvqcr0","pricing_plan_id":"cebpf4jnsgd1na2vs0mg"},{"bike_id":"a0b190c2-bf7a-41f9-a812-c90baa4f93d7","system_id":"levelo_inurba_marseille","lat":43.30249,"lon":5.40064,"is_reserved":false,"is_disabled":false,"rental_uris":{"android":"levelo://app?vid=a0b190c2-bf7a-41f9-a812-c90baa4f93d7","ios":"levelo://app?vid=a0b190c2-bf7a-41f9-a812-c90baa4f93d7"},"vehicle_type_id":"4","last_reported":1741414259,"current_range_meters":9200,"station_id":"ce4bh5p2rcd13ifvqe4g","pricing_plan_id":"cebpf4jnsgd1na2vs0mg"},{"bike_id":"1afdf865-9f6c-4bea-99fe-f8f2d36b2395","system_id":"levelo_inurba_marseille","lat":43.26204,"lon":5.379256,"is_reserved":false,"is_disabled":false,"rental_uris":{"android":"levelo://app?vid=1afdf865-9f6c-4bea-99fe-f8f2d36b2395","ios":"levelo://app?vid=1afdf865-9f6c-4bea-99fe-f8f2d36b2395"},"vehicle_type_id":"4","last_reported":1741414259,"current_range_meters":9200,"station_id":"ce4bhjp2rcd13ifvqg90","pricing_plan_id":"cebpf4jnsgd1na2vs0mg"},{"bike_id":"4ce1148f-94dc-4742-8f6c-b798d2b0023b","system_id":"levelo_inurba_marseille","lat":43.279898,"lon":5.41663,"is_reserved":false,"is_disabled":false,"rental_uris":{"android":"levelo://app?vid=4ce1148f-94dc-4742-8f6c-b798d2b0023b","ios":"levelo://app?vid=4ce1148f-94dc-4742-8f6c-b798d2b0023b"},"vehicle_type_id":"4","last_reported":1741414259,"current_range_meters":9200,"station_id":"ce4bho12rcd13ifvqh1g","pricing_plan_id":"cebpf4jnsgd1na2vs0mg"},{"bike_id":"e8d072ea-cbb6-427a-93b4-aaf89ff6d144","system_id":"levelo_inurba_marseille","lat":43.315,"lon":5.37295,"is_reserved":false,"is_disabled":false,"rental_uris":{"android":"levelo://app?vid=e8d072ea-cbb6-427a-93b4-aaf89ff6d144","ios":"levelo://app?vid=e8d072ea-cbb6-427a-93b4-aaf89ff6d144"},"vehicle_type_id":"4","last_reported":1741414259,"current_range_meters":9600,"station_id":"ce4bgt12rcd13ifvqcd0","pricing_plan_id":"cebpf4jnsgd1na2vs0mg"},{"bike_id":"8acc0161-6d56-47de-8e22-73ec3b03dbae","system_id":"levelo_inurba_marseille","lat":43.30926,"lon":5.4017,"is_reserved":false,"is_disabled":false,"rental_uris":{"android":"levelo://app?vid=8acc0161-6d56-47de-8e22-73ec3b03dbae","ios":"levelo://app?vid=8acc0161-6d56-47de-8e22-73ec3b03dbae"},"vehicle_type_id":"4","last_reported":1741414259,"current_range_meters":9600,"station_id":"ce4bgvp2rcd13ifvqct0","pricing_plan_id":"cebpf4jnsgd1na2vs0mg"},{"bike_id":"5349d28d-79ed-4f8e-887e-f3b6e26aeafa","system_id":"levelo_inurba_marseille","lat":43.30327,"lon":5.40455,"is_reserved":false,"is_disabled":false,"rental_uris":{"android":"levelo://app?vid=5349d28d-79ed-4f8e-887e-f3b6e26aeafa","ios":"levelo://app?vid=5349d28d-79ed-4f8e-887e-f3b6e26aeafa"},"vehicle_type_id":"4","last_reported":1741414259,"current_range_meters":9600,"station_id":"ce4bh012rcd13ifvqd10","pricing_plan_id":"cebpf4jnsgd1na2vs0mg"},{"bike_id":"779faa70-1142-43ef-918e-17855754a4fe","system_id":"levelo_inurba_marseille","lat":43.28031,"lon":5.36953,"is_reserved":false,"is_disabled":false,"rental_uris":{"android":"levelo://app?vid=779faa70-1142-43ef-918e-17855754a4fe","ios":"levelo://app?vid=779faa70-1142-43ef-918e-17855754a4fe"},"vehicle_type_id":"4","last_reported":1741414259,"current_range_meters":9600,"station_id":"ce4bha12rcd13ifvqef0","pricing_plan_id":"cebpf4jnsgd1na2vs0mg"},{"bike_id":"d7cfe9af-c3c6-4e9b-afff-ab6e19b29b2a","system_id":"levelo_inurba_marseille","lat":43.2657,"lon":5.39047,"is_reserved":false,"is_disabled":false,"rental_uris":{"android":"levelo://app?vid=d7cfe9af-c3c6-4e9b-afff-ab6e19b29b2a","ios":"levelo://app?vid=d7cfe9af-c3c6-4e9b-afff-ab6e19b29b2a"},"vehicle_type_id":"4","last_reported":1741414259,"current_range_meters":9600,"station_id":"ce4bhe12rcd13ifvqf30","pricing_plan_id":"cebpf4jnsgd1na2vs0mg"},{"bike_id":"db7cd95b-0159-457d-aa08-f78ad0493427","system_id":"levelo_inurba_marseille","lat":43.32375,"lon":5.38895,"is_reserved":false,"is_disabled":false,"rental_uris":{"android":"levelo://app?vid=db7cd95b-0159-457d-aa08-f78ad0493427","ios":"levelo://app?vid=db7cd95b-0159-457d-aa08-f78ad0493427"},"vehicle_type_id":"4","last_reported":1741414259,"current_range_meters":9600,"station_id":"ce4bhqp2rcd13ifvqhog","pricing_plan_id":"cebpf4jnsgd1na2vs0mg"},{"bike_id":"0e674cb4-f37d-4bd5-aaff-7ec953d386c6","system_id":"levelo_inurba_marseille","lat":43.24172,"lon":5.36393,"is_reserved":false,"is_disabled":false,"rental_uris":{"android":"levelo://app?vid=0e674cb4-f37d-4bd5-aaff-7ec953d386c6","ios":"levelo://app?vid=0e674cb4-f37d-4bd5-aaff-7ec953d386c6"},"vehicle_type_id":"4","last_reported":1741414259,"current_range_meters":9600,"station_id":"cpo36qri1sfpv3e86is0","pricing_plan_id":"cebpf4jnsgd1na2vs0mg"},{"bike_id":"eefe66a8-9b10-4ded-8e0a-619e66601e02","system_id":"levelo_inurba_marseille","lat":43.296246,"lon":5.426027,"is_reserved":false,"is_disabled":false,"rental_uris":{"android":"levelo://app?vid=eefe66a8-9b10-4ded-8e0a-619e66601e02","ios":"levelo://app?vid=eefe66a8-9b10-4ded-8e0a-619e66601e02"},"vehicle_type_id":"4","last_reported":1741414259,"current_range_meters":10000,"station_id":"","pricing_plan_id":"cebpf4jnsgd1na2vs0mg"},{"bike_id":"ea270103-c7c1-453b-bf1f-d6fd46da2874","system_id":"levelo_inurba_marseille","lat":43.27833,"lon":5.39207,"is_reserved":false,"is_disabled":false,"rental_uris":{"android":"levelo://app?vid=ea270103-c7c1-453b-bf1f-d6fd46da2874","ios":"levelo://app?vid=ea270103-c7c1-453b-bf1f-d6fd46da2874"},"vehicle_type_id":"4","last_reported":1741414259,"current_range_meters":10000,"station_id":"ce4bhjp2rcd13ifvqga0","pricing_plan_id":"cebpf4jnsgd1na2vs0mg"},{"bike_id":"ae6f6ceb-6daf-46a2-ac8f-71dd310aa775","system_id":"levelo_inurba_marseille","lat":43.257249,"lon":5.411076,"is_reserved":false,"is_disabled":false,"rental_uris":{"android":"levelo://app?vid=ae6f6ceb-6daf-46a2-ac8f-71dd310aa775","ios":"levelo://app?vid=ae6f6ceb-6daf-46a2-ac8f-71dd310aa775"},"vehicle_type_id":"4","last_reported":1741414259,"current_range_meters":10000,"station_id":"ce4bhkp2rcd13ifvqgd0","pricing_plan_id":"cebpf4jnsgd1na2vs0mg"},{"bike_id":"e524bcef-a391-41b2-bad2-673eae53ea51","system_id":"levelo_inurba_marseille","lat":43.31705,"lon":5.43708,"is_reserved":false,"is_disabled":false,"rental_uris":{"android":"levelo://app?vid=e524bcef-a391-41b2-bad2-673eae53ea51","ios":"levelo://app?vid=e524bcef-a391-41b2-bad2-673eae53ea51"},"vehicle_type_id":"4","last_reported":1741414259,"current_range_meters":10000,"station_id":"ce4bhp92rcd13ifvqhcg","pricing_plan_id":"cebpf4jnsgd1na2vs0mg"},{"bike_id":"ae99eef4-0d01-432b-b9f3-30beda5f0e73","system_id":"levelo_inurba_marseille","lat":43.299,"lon":5.43675,"is_reserved":false,"is_disabled":false,"rental_uris":{"android":"levelo://app?vid=ae99eef4-0d01-432b-b9f3-30beda5f0e73","ios":"levelo://app?vid=ae99eef4-0d01-432b-b9f3-30beda5f0e73"},"vehicle_type_id":"4","last_reported":1741414259,"current_range_meters":10000,"station_id":"ce4bhpp2rcd13ifvqhfg","pricing_plan_id":"cebpf4jnsgd1na2vs0mg"},{"bike_id":"7372ba19-4949-453e-a20c-490c28817add","system_id":"levelo_inurba_marseille","lat":43.33782,"lon":5.37435,"is_reserved":false,"is_disabled":false,"rental_uris":{"android":"levelo://app?vid=7372ba19-4949-453e-a20c-490c28817add","ios":"levelo://app?vid=7372ba19-4949-453e-a20c-490c28817add"},"vehicle_type_id":"4","last_reported":1741414259,"current_range_meters":10800,"station_id":"","pricing_plan_id":"cebpf4jnsgd1na2vs0mg"},{"bike_id":"4048f4cb-c79a-4e84-a8e6-068b2a53463d","system_id":"levelo_inurba_marseille","lat":43.29738,"lon":5.39393,"is_reserved":false,"is_disabled":false,"rental_uris":{"android":"levelo://app?vid=4048f4cb-c79a-4e84-a8e6-068b2a53463d","ios":"levelo://app?vid=4048f4cb-c79a-4e84-a8e6-068b2a53463d"},"vehicle_type_id":"4","last_reported":1741414259,"current_range_meters":10800,"station_id":"","pricing_plan_id":"cebpf4jnsgd1na2vs0mg"},{"bike_id":"d19dc49d-d5b2-43dd-8daa-0e29d78ead71","system_id":"levelo_inurba_marseille","lat":43.29276,"lon":5.4013,"is_reserved":false,"is_disabled":false,"rental_uris":{"android":"levelo://app?vid=d19dc49d-d5b2-43dd-8daa-0e29d78ead71","ios":"levelo://app?vid=d19dc49d-d5b2-43dd-8daa-0e29d78ead71"},"vehicle_type_id":"4","last_reported":1741414259,"current_range_meters":10800,"station_id":"ce4bh312rcd13ifvqdk0","pricing_plan_id":"cebpf4jnsgd1na2vs0mg"},{"bike_id":"7e60b09d-959c-4d55-a820-f3270555724f","system_id":"levelo_inurba_marseille","lat":43.28616,"lon":5.35108,"is_reserved":false,"is_disabled":false,"rental_uris":{"android":"levelo://app?vid=7e60b09d-959c-4d55-a820-f3270555724f","ios":"levelo://app?vid=7e60b09d-959c-4d55-a820-f3270555724f"},"vehicle_type_id":"4","last_reported":1741414259,"current_range_meters":10800,"station_id":"ce4bhch2rcd13ifvqeug","pricing_plan_id":"cebpf4jnsgd1na2vs0mg"},{"bike_id":"e31092ac-b6a1-414f-bdb8-1f248314f867","system_id":"levelo_inurba_marseille","lat":43.27566,"lon":5.38422,"is_reserved":false,"is_disabled":false,"rental_uris":{"android":"levelo://app?vid=e31092ac-b6a1-414f-bdb8-1f248314f867","ios":"levelo://app?vid=e31092ac-b6a1-414f-bdb8-1f248314f867"},"vehicle_type_id":"4","last_reported":1741414259,"current_range_meters":10800,"station_id":"ce4bhh92rcd13ifvqfi0","pricing_plan_id":"cebpf4jnsgd1na2vs0mg"},{"bike_id":"bef8b1e1-1f3f-4f03-8b78-608ec9a93267","system_id":"levelo_inurba_marseille","lat":43.239617,"lon":5.366304,"is_reserved":false,"is_disabled":false,"rental_uris":{"android":"levelo://app?vid=bef8b1e1-1f3f-4f03-8b78-608ec9a93267","ios":"levelo://app?vid=bef8b1e1-1f3f-4f03-8b78-608ec9a93267"},"vehicle_type_id":"4","last_reported":1741414259,"current_range_meters":10800,"station_id":"ce4bhi12rcd13ifvqfp0","pricing_plan_id":"cebpf4jnsgd1na2vs0mg"},{"bike_id":"9b8789be-c150-4679-b8ba-e1d5e4639da2","system_id":"levelo_inurba_marseille","lat":43.25735,"lon":5.41117,"is_reserved":false,"is_disabled":false,"rental_uris":{"android":"levelo://app?vid=9b8789be-c150-4679-b8ba-e1d5e4639da2","ios":"levelo://app?vid=9b8789be-c150-4679-b8ba-e1d5e4639da2"},"vehicle_type_id":"4","last_reported":1741414259,"current_range_meters":10800,"station_id":"ce4bhkp2rcd13ifvqgd0","pricing_plan_id":"cebpf4jnsgd1na2vs0mg"},{"bike_id":"ba1993c2-4a65-43bb-a1cc-36e375788125","system_id":"levelo_inurba_marseille","lat":43.27996,"lon":5.400125,"is_reserved":false,"is_disabled":false,"rental_uris":{"android":"levelo://app?vid=ba1993c2-4a65-43bb-a1cc-36e375788125","ios":"levelo://app?vid=ba1993c2-4a65-43bb-a1cc-36e375788125"},"vehicle_type_id":"4","last_reported":1741414259,"current_range_meters":10800,"station_id":"ce4bho92rcd13ifvqh4g","pricing_plan_id":"cebpf4jnsgd1na2vs0mg"},{"bike_id":"3b527087-0e58-4397-a11f-323037dd6298","system_id":"levelo_inurba_marseille","lat":43.31548,"lon":5.38039,"is_reserved":false,"is_disabled":false,"rental_uris":{"android":"levelo://app?vid=3b527087-0e58-4397-a11f-323037dd6298","ios":"levelo://app?vid=3b527087-0e58-4397-a11f-323037dd6298"},"vehicle_type_id":"4","last_reported":1741414259,"current_range_meters":10800,"station_id":"ce4bhsp2rcd13ifvqi50","pricing_plan_id":"cebpf4jnsgd1na2vs0mg"},{"bike_id":"f479a6d1-3cb4-4f96-b97e-51428b8374e3","system_id":"levelo_inurba_marseille","lat":43.28463,"lon":5.35906,"is_reserved":false,"is_disabled":false,"rental_uris":{"android":"levelo://app?vid=f479a6d1-3cb4-4f96-b97e-51428b8374e3","ios":"levelo://app?vid=f479a6d1-3cb4-4f96-b97e-51428b8374e3"},"vehicle_type_id":"4","last_reported":1741414259,"current_range_meters":11200,"station_id":"ce4bhah2rcd13ifvqei0","pricing_plan_id":"cebpf4jnsgd1na2vs0mg"},{"bike_id":"f434f250-6f3b-4f81-87f7-8be1eb48cad2","system_id":"levelo_inurba_marseille","lat":43.257159,"lon":5.411085,"is_reserved":false,"is_disabled":false,"rental_uris":{"android":"levelo://app?vid=f434f250-6f3b-4f81-87f7-8be1eb48cad2","ios":"levelo://app?vid=f434f250-6f3b-4f81-87f7-8be1eb48cad2"},"vehicle_type_id":"4","last_reported":1741414259,"current_range_meters":11200,"station_id":"ce4bhkp2rcd13ifvqgd0","pricing_plan_id":"cebpf4jnsgd1na2vs0mg"},{"bike_id":"117576de-ea7a-4e20-89ce-191a1398e64d","system_id":"levelo_inurba_marseille","lat":43.23185,"lon":5.4001,"is_reserved":false,"is_disabled":false,"rental_uris":{"android":"levelo://app?vid=117576de-ea7a-4e20-89ce-191a1398e64d","ios":"levelo://app?vid=117576de-ea7a-4e20-89ce-191a1398e64d"},"vehicle_type_id":"4","last_reported":1741414259,"current_range_meters":11200,"station_id":"ce4bhn12rcd13ifvqgqg","pricing_plan_id":"cebpf4jnsgd1na2vs0mg"},{"bike_id":"11e7fc3b-ed5a-4401-a0af-6e80583f87e8","system_id":"levelo_inurba_marseille","lat":43.27829,"lon":5.40701,"is_reserved":false,"is_disabled":false,"rental_uris":{"android":"levelo://app?vid=11e7fc3b-ed5a-4401-a0af-6e80583f87e8","ios":"levelo://app?vid=11e7fc3b-ed5a-4401-a0af-6e80583f87e8"},"vehicle_type_id":"4","last_reported":1741414259,"current_range_meters":11200,"station_id":"ce4bhnh2rcd13ifvqgtg","pricing_plan_id":"cebpf4jnsgd1na2vs0mg"},{"bike_id":"ca139617-9374-4268-888c-8db46d229f2d","system_id":"levelo_inurba_marseille","lat":43.3236,"lon":5.38888,"is_reserved":false,"is_disabled":false,"rental_uris":{"android":"levelo://app?vid=ca139617-9374-4268-888c-8db46d229f2d","ios":"levelo://app?vid=ca139617-9374-4268-888c-8db46d229f2d"},"vehicle_type_id":"4","last_reported":1741414259,"current_range_meters":11200,"station_id":"ce4bhqp2rcd13ifvqhog","pricing_plan_id":"cebpf4jnsgd1na2vs0mg"},{"bike_id":"18c87956-4a03-4d84-839a-2da79cfadede","system_id":"levelo_inurba_marseille","lat":43.3303,"lon":5.39061,"is_reserved":false,"is_disabled":false,"rental_uris":{"android":"levelo://app?vid=18c87956-4a03-4d84-839a-2da79cfadede","ios":"levelo://app?vid=18c87956-4a03-4d84-839a-2da79cfadede"},"vehicle_type_id":"4","last_reported":1741414259,"current_range_meters":11200,"station_id":"ce4bhr92rcd13ifvqhrg","pricing_plan_id":"cebpf4jnsgd1na2vs0mg"},{"bike_id":"1fa7f2ee-9d06-4eb8-aadd-d8a021f126ce","system_id":"levelo_inurba_marseille","lat":43.25115,"lon":5.40338,"is_reserved":false,"is_disabled":false,"rental_uris":{"android":"levelo://app?vid=1fa7f2ee-9d06-4eb8-aadd-d8a021f126ce","ios":"levelo://app?vid=1fa7f2ee-9d06-4eb8-aadd-d8a021f126ce"},"vehicle_type_id":"4","last_reported":1741414259,"current_range_meters":11600,"station_id":"ce4bhlh2rcd13ifvqgig","pricing_plan_id":"cebpf4jnsgd1na2vs0mg"},{"bike_id":"7a8959cf-cba4-472b-a67f-21d9d3e5e3a1","system_id":"levelo_inurba_marseille","lat":43.24402,"lon":5.43814,"is_reserved":false,"is_disabled":false,"rental_uris":{"android":"levelo://app?vid=7a8959cf-cba4-472b-a67f-21d9d3e5e3a1","ios":"levelo://app?vid=7a8959cf-cba4-472b-a67f-21d9d3e5e3a1"},"vehicle_type_id":"4","last_reported":1741414259,"current_range_meters":12000,"station_id":"","pricing_plan_id":"cebpf4jnsgd1na2vs0mg"},{"bike_id":"5832083a-af6c-455b-9dbd-d8b68bd79a1e","system_id":"levelo_inurba_marseille","lat":43.29908,"lon":5.43691,"is_reserved":false,"is_disabled":false,"rental_uris":{"android":"levelo://app?vid=5832083a-af6c-455b-9dbd-d8b68bd79a1e","ios":"levelo://app?vid=5832083a-af6c-455b-9dbd-d8b68bd79a1e"},"vehicle_type_id":"4","last_reported":1741414259,"current_range_meters":12000,"station_id":"","pricing_plan_id":"cebpf4jnsgd1na2vs0mg"},{"bike_id":"ecbd3b12-6044-41bf-ba3d-b0f1f7931e95","system_id":"levelo_inurba_marseille","lat":43.29326,"lon":5.42747,"is_reserved":false,"is_disabled":false,"rental_uris":{"android":"levelo://app?vid=ecbd3b12-6044-41bf-ba3d-b0f1f7931e95","ios":"levelo://app?vid=ecbd3b12-6044-41bf-ba3d-b0f1f7931e95"},"vehicle_type_id":"4","last_reported":1741414259,"current_range_meters":12000,"station_id":"","pricing_plan_id":"cebpf4jnsgd1na2vs0mg"},{"bike_id":"4f3fa221-098c-4fe6-b19e-c2f6fa282fe7","system_id":"levelo_inurba_marseille","lat":43.2846,"lon":5.35909,"is_reserved":false,"is_disabled":false,"rental_uris":{"android":"levelo://app?vid=4f3fa221-098c-4fe6-b19e-c2f6fa282fe7","ios":"levelo://app?vid=4f3fa221-098c-4fe6-b19e-c2f6fa282fe7"},"vehicle_type_id":"4","last_reported":1741414259,"current_range_meters":12000,"station_id":"ce4bhah2rcd13ifvqei0","pricing_plan_id":"cebpf4jnsgd1na2vs0mg"},{"bike_id":"9b9912a1-cda6-4b6e-8236-6c79e235b387","system_id":"levelo_inurba_marseille","lat":43.32362,"lon":5.38894,"is_reserved":false,"is_disabled":false,"rental_uris":{"android":"levelo://app?vid=9b9912a1-cda6-4b6e-8236-6c79e235b387","ios":"levelo://app?vid=9b9912a1-cda6-4b6e-8236-6c79e235b387"},"vehicle_type_id":"4","last_reported":1741414259,"current_range_meters":12000,"station_id":"ce4bhqp2rcd13ifvqhog","pricing_plan_id":"cebpf4jnsgd1na2vs0mg"},{"bike_id":"3c7cb629-a989-4010-917f-b6565022dddc","system_id":"levelo_inurba_marseille","lat":43.31332,"lon":5.39727,"is_reserved":false,"is_disabled":false,"rental_uris":{"android":"levelo://app?vid=3c7cb629-a989-4010-917f-b6565022dddc","ios":"levelo://app?vid=3c7cb629-a989-4010-917f-b6565022dddc"},"vehicle_type_id":"4","last_reported":1741414259,"current_range_meters":12400,"station_id":"ce4bgvp2rcd13ifvqcu0","pricing_plan_id":"cebpf4jnsgd1na2vs0mg"},{"bike_id":"b8a91a52-0118-4f28-93d5-cfd162c78271","system_id":"levelo_inurba_marseille","lat":43.24064,"lon":5.37732,"is_reserved":false,"is_disabled":false,"rental_uris":{"android":"levelo://app?vid=b8a91a52-0118-4f28-93d5-cfd162c78271","ios":"levelo://app?vid=b8a91a52-0118-4f28-93d5-cfd162c78271"},"vehicle_type_id":"4","last_reported":1741414259,"current_range_meters":12400,"station_id":"ce4bhnp2rcd13ifvqgvg","pricing_plan_id":"cebpf4jnsgd1na2vs0mg"},{"bike_id":"9073ecd9-bf4b-4fcb-9af2-6eb07a1066f7","system_id":"levelo_inurba_marseille","lat":43.279928,"lon":5.416575,"is_reserved":false,"is_disabled":false,"rental_uris":{"android":"levelo://app?vid=9073ecd9-bf4b-4fcb-9af2-6eb07a1066f7","ios":"levelo://app?vid=9073ecd9-bf4b-4fcb-9af2-6eb07a1066f7"},"vehicle_type_id":"4","last_reported":1741414259,"current_range_meters":12400,"station_id":"ce4bho12rcd13ifvqh1g","pricing_plan_id":"cebpf4jnsgd1na2vs0mg"},{"bike_id":"1ff664cb-f378-4a6c-b3c1-b47ee25a2174","system_id":"levelo_inurba_marseille","lat":43.32358,"lon":5.38882,"is_reserved":false,"is_disabled":false,"rental_uris":{"android":"levelo://app?vid=1ff664cb-f378-4a6c-b3c1-b47ee25a2174","ios":"levelo://app?vid=1ff664cb-f378-4a6c-b3c1-b47ee25a2174"},"vehicle_type_id":"4","last_reported":1741414259,"current_range_meters":12400,"station_id":"ce4bhqp2rcd13ifvqhog","pricing_plan_id":"cebpf4jnsgd1na2vs0mg"},{"bike_id":"b2c2514d-58df-4080-9acc-0a3325c87525","system_id":"levelo_inurba_marseille","lat":43.3236,"lon":5.36756,"is_reserved":false,"is_disabled":false,"rental_uris":{"android":"levelo://app?vid=b2c2514d-58df-4080-9acc-0a3325c87525","ios":"levelo://app?vid=b2c2514d-58df-4080-9acc-0a3325c87525"},"vehicle_type_id":"4","last_reported":1741414259,"current_range_meters":12400,"station_id":"ce4bhsh2rcd13ifvqi2g","pricing_plan_id":"cebpf4jnsgd1na2vs0mg"},{"bike_id":"ca477820-8501-47e8-ad3c-633182f0ae5c","system_id":"levelo_inurba_marseille","lat":43.31526,"lon":5.38035,"is_reserved":false,"is_disabled":false,"rental_uris":{"android":"levelo://app?vid=ca477820-8501-47e8-ad3c-633182f0ae5c","ios":"levelo://app?vid=ca477820-8501-47e8-ad3c-633182f0ae5c"},"vehicle_type_id":"4","last_reported":1741414259,"current_range_meters":12400,"station_id":"ce4bhsp2rcd13ifvqi50","pricing_plan_id":"cebpf4jnsgd1na2vs0mg"},{"bike_id":"06930377-8495-4929-86e9-fa8d9e44ea4f","system_id":"levelo_inurba_marseille","lat":43.29807,"lon":5.40415,"is_reserved":false,"is_disabled":false,"rental_uris":{"android":"levelo://app?vid=06930377-8495-4929-86e9-fa8d9e44ea4f","ios":"levelo://app?vid=06930377-8495-4929-86e9-fa8d9e44ea4f"},"vehicle_type_id":"4","last_reported":1741414259,"current_range_meters":12800,"station_id":"ce4bh112rcd13ifvqd90","pricing_plan_id":"cebpf4jnsgd1na2vs0mg"},{"bike_id":"65d2271a-97b5-4913-95aa-cf77a293f0eb","system_id":"levelo_inurba_marseille","lat":43.26026,"lon":5.3756,"is_reserved":false,"is_disabled":false,"rental_uris":{"android":"levelo://app?vid=65d2271a-97b5-4913-95aa-cf77a293f0eb","ios":"levelo://app?vid=65d2271a-97b5-4913-95aa-cf77a293f0eb"},"vehicle_type_id":"4","last_reported":1741414259,"current_range_meters":12800,"station_id":"ce4bhgh2rcd13ifvqfa0","pricing_plan_id":"cebpf4jnsgd1na2vs0mg"},{"bike_id":"d1af1c64-45b6-4d17-9d6d-0f29e2231eaa","system_id":"levelo_inurba_marseille","lat":43.23957,"lon":5.366347,"is_reserved":false,"is_disabled":false,"rental_uris":{"android":"levelo://app?vid=d1af1c64-45b6-4d17-9d6d-0f29e2231eaa","ios":"levelo://app?vid=d1af1c64-45b6-4d17-9d6d-0f29e2231eaa"},"vehicle_type_id":"4","last_reported":1741414259,"current_range_meters":12800,"station_id":"ce4bhi12rcd13ifvqfp0","pricing_plan_id":"cebpf4jnsgd1na2vs0mg"},{"bike_id":"cf9c8e12-2155-41a7-81b3-8937b5fe01f3","system_id":"levelo_inurba_marseille","lat":43.32102,"lon":5.36799,"is_reserved":false,"is_disabled":false,"rental_uris":{"android":"levelo://app?vid=cf9c8e12-2155-41a7-81b3-8937b5fe01f3","ios":"levelo://app?vid=cf9c8e12-2155-41a7-81b3-8937b5fe01f3"},"vehicle_type_id":"4","last_reported":1741414259,"current_range_meters":12800,"station_id":"ce4bhrh2rcd13ifvqhug","pricing_plan_id":"cebpf4jnsgd1na2vs0mg"},{"bike_id":"69b0e1bf-34e6-4442-b6d4-c85c96eb481e","system_id":"levelo_inurba_marseille","lat":43.3126,"lon":5.40179,"is_reserved":false,"is_disabled":false,"rental_uris":{"android":"levelo://app?vid=69b0e1bf-34e6-4442-b6d4-c85c96eb481e","ios":"levelo://app?vid=69b0e1bf-34e6-4442-b6d4-c85c96eb481e"},"vehicle_type_id":"4","last_reported":1741414259,"current_range_meters":13600,"station_id":"ce4bh092rcd13ifvqd30","pricing_plan_id":"cebpf4jnsgd1na2vs0mg"},{"bike_id":"fbf804d7-6c73-46e9-abdb-acb74deb6dc4","system_id":"levelo_inurba_marseille","lat":43.230656,"lon":5.354906,"is_reserved":false,"is_disabled":false,"rental_uris":{"android":"levelo://app?vid=fbf804d7-6c73-46e9-abdb-acb74deb6dc4","ios":"levelo://app?vid=fbf804d7-6c73-46e9-abdb-acb74deb6dc4"},"vehicle_type_id":"4","last_reported":1741414259,"current_range_meters":13600,"station_id":"cpo3342slgdg3j2ifvpg","pricing_plan_id":"cebpf4jnsgd1na2vs0mg"},{"bike_id":"ca1ac6f9-8304-441d-b17f-201bcc008dae","system_id":"levelo_inurba_marseille","lat":43.34367,"lon":5.39974,"is_reserved":false,"is_disabled":false,"rental_uris":{"android":"levelo://app?vid=ca1ac6f9-8304-441d-b17f-201bcc008dae","ios":"levelo://app?vid=ca1ac6f9-8304-441d-b17f-201bcc008dae"},"vehicle_type_id":"4","last_reported":1741414259,"current_range_meters":14000,"station_id":"","pricing_plan_id":"cebpf4jnsgd1na2vs0mg"},{"bike_id":"635beb12-73ff-4358-ad6f-b104a172d12b","system_id":"levelo_inurba_marseille","lat":43.2771,"lon":5.38928,"is_reserved":false,"is_disabled":false,"rental_uris":{"android":"levelo://app?vid=635beb12-73ff-4358-ad6f-b104a172d12b","ios":"levelo://app?vid=635beb12-73ff-4358-ad6f-b104a172d12b"},"vehicle_type_id":"4","last_reported":1741414259,"current_range_meters":14000,"station_id":"ce4bhi12rcd13ifvqfo0","pricing_plan_id":"cebpf4jnsgd1na2vs0mg"},{"bike_id":"c1c412b3-ae23-45ab-894a-fe5b494cc9e6","system_id":"levelo_inurba_marseille","lat":43.23192,"lon":5.355577,"is_reserved":false,"is_disabled":false,"rental_uris":{"android":"levelo://app?vid=c1c412b3-ae23-45ab-894a-fe5b494cc9e6","ios":"levelo://app?vid=c1c412b3-ae23-45ab-894a-fe5b494cc9e6"},"vehicle_type_id":"4","last_reported":1741414259,"current_range_meters":14000,"station_id":"ce4bhu92rcd13ifvqi70","pricing_plan_id":"cebpf4jnsgd1na2vs0mg"},{"bike_id":"615f5f18-a09d-4e1f-9a8e-586aa1f97ad5","system_id":"levelo_inurba_marseille","lat":43.31126,"lon":5.37659,"is_reserved":false,"is_disabled":false,"rental_uris":{"android":"levelo://app?vid=615f5f18-a09d-4e1f-9a8e-586aa1f97ad5","ios":"levelo://app?vid=615f5f18-a09d-4e1f-9a8e-586aa1f97ad5"},"vehicle_type_id":"4","last_reported":1741414259,"current_range_meters":14400,"station_id":"","pricing_plan_id":"cebpf4jnsgd1na2vs0mg"},{"bike_id":"c51bdd50-b668-4b8e-b8f8-873f4e601316","system_id":"levelo_inurba_marseille","lat":43.316959,"lon":5.377651,"is_reserved":false,"is_disabled":false,"rental_uris":{"android":"levelo://app?vid=c51bdd50-b668-4b8e-b8f8-873f4e601316","ios":"levelo://app?vid=c51bdd50-b668-4b8e-b8f8-873f4e601316"},"vehicle_type_id":"4","last_reported":1741414259,"current_range_meters":14400,"station_id":"ce4bgth2rcd13ifvqch0","pricing_plan_id":"cebpf4jnsgd1na2vs0mg"},{"bike_id":"17d9b208-a6af-4641-b576-5bfe8bdd155e","system_id":"levelo_inurba_marseille","lat":43.28442,"lon":5.39175,"is_reserved":false,"is_disabled":false,"rental_uris":{"android":"levelo://app?vid=17d9b208-a6af-4641-b576-5bfe8bdd155e","ios":"levelo://app?vid=17d9b208-a6af-4641-b576-5bfe8bdd155e"},"vehicle_type_id":"4","last_reported":1741414259,"current_range_meters":14400,"station_id":"ce4bhoh2rcd13ifvqh5g","pricing_plan_id":"cebpf4jnsgd1na2vs0mg"},{"bike_id":"0da4b025-c2c9-4c92-8128-932f98eb7ed9","system_id":"levelo_inurba_marseille","lat":43.32365,"lon":5.388873,"is_reserved":false,"is_disabled":false,"rental_uris":{"android":"levelo://app?vid=0da4b025-c2c9-4c92-8128-932f98eb7ed9","ios":"levelo://app?vid=0da4b025-c2c9-4c92-8128-932f98eb7ed9"},"vehicle_type_id":"4","last_reported":1741414259,"current_range_meters":14400,"station_id":"ce4bhqp2rcd13ifvqhog","pricing_plan_id":"cebpf4jnsgd1na2vs0mg"},{"bike_id":"7a581422-b94e-46eb-a862-23949e47fc63","system_id":"levelo_inurba_marseille","lat":43.31278,"lon":5.40174,"is_reserved":false,"is_disabled":false,"rental_uris":{"android":"levelo://app?vid=7a581422-b94e-46eb-a862-23949e47fc63","ios":"levelo://app?vid=7a581422-b94e-46eb-a862-23949e47fc63"},"vehicle_type_id":"4","last_reported":1741414259,"current_range_meters":14800,"station_id":"ce4bh092rcd13ifvqd30","pricing_plan_id":"cebpf4jnsgd1na2vs0mg"},{"bike_id":"c80cd476-eca8-434e-a1d5-c38ff7870905","system_id":"levelo_inurba_marseille","lat":43.2574,"lon":5.4113,"is_reserved":false,"is_disabled":false,"rental_uris":{"android":"levelo://app?vid=c80cd476-eca8-434e-a1d5-c38ff7870905","ios":"levelo://app?vid=c80cd476-eca8-434e-a1d5-c38ff7870905"},"vehicle_type_id":"4","last_reported":1741414259,"current_range_meters":14800,"station_id":"ce4bhkp2rcd13ifvqgd0","pricing_plan_id":"cebpf4jnsgd1na2vs0mg"},{"bike_id":"19bbe8da-d7df-496e-a677-cbaab925cf5e","system_id":"levelo_inurba_marseille","lat":43.24883,"lon":5.42528,"is_reserved":false,"is_disabled":false,"rental_uris":{"android":"levelo://app?vid=19bbe8da-d7df-496e-a677-cbaab925cf5e","ios":"levelo://app?vid=19bbe8da-d7df-496e-a677-cbaab925cf5e"},"vehicle_type_id":"4","last_reported":1741414259,"current_range_meters":15200,"station_id":"","pricing_plan_id":"cebpf4jnsgd1na2vs0mg"},{"bike_id":"2b2d040d-c06b-49af-9ed5-251b96f30324","system_id":"levelo_inurba_marseille","lat":43.31712,"lon":5.40466,"is_reserved":false,"is_disabled":false,"rental_uris":{"android":"levelo://app?vid=2b2d040d-c06b-49af-9ed5-251b96f30324","ios":"levelo://app?vid=2b2d040d-c06b-49af-9ed5-251b96f30324"},"vehicle_type_id":"4","last_reported":1741414259,"current_range_meters":15200,"station_id":"ce4bh012rcd13ifvqd00","pricing_plan_id":"cebpf4jnsgd1na2vs0mg"},{"bike_id":"6ddcbac4-ccbc-45bd-ad03-0b799322db2a","system_id":"levelo_inurba_marseille","lat":43.30316,"lon":5.40444,"is_reserved":false,"is_disabled":false,"rental_uris":{"android":"levelo://app?vid=6ddcbac4-ccbc-45bd-ad03-0b799322db2a","ios":"levelo://app?vid=6ddcbac4-ccbc-45bd-ad03-0b799322db2a"},"vehicle_type_id":"4","last_reported":1741414259,"current_range_meters":16000,"station_id":"ce4bh012rcd13ifvqd10","pricing_plan_id":"cebpf4jnsgd1na2vs0mg"},{"bike_id":"cc1dad08-5ae7-441b-9724-a80fb596759d","system_id":"levelo_inurba_marseille","lat":43.287073,"lon":5.399728,"is_reserved":false,"is_disabled":false,"rental_uris":{"android":"levelo://app?vid=cc1dad08-5ae7-441b-9724-a80fb596759d","ios":"levelo://app?vid=cc1dad08-5ae7-441b-9724-a80fb596759d"},"vehicle_type_id":"4","last_reported":1741414259,"current_range_meters":16000,"station_id":"ce4bho92rcd13ifvqh3g","pricing_plan_id":"cebpf4jnsgd1na2vs0mg"},{"bike_id":"7470f053-99e0-4222-a436-e5ac7880f722","system_id":"levelo_inurba_marseille","lat":43.22928,"lon":5.35386,"is_reserved":false,"is_disabled":false,"rental_uris":{"android":"levelo://app?vid=7470f053-99e0-4222-a436-e5ac7880f722","ios":"levelo://app?vid=7470f053-99e0-4222-a436-e5ac7880f722"},"vehicle_type_id":"4","last_reported":1741414259,"current_range_meters":16000,"station_id":"cpo3532slgdg3j2ikp40","pricing_plan_id":"cebpf4jnsgd1na2vs0mg"},{"bike_id":"fcdee4e4-775f-40a5-af36-ebe37031a563","system_id":"levelo_inurba_marseille","lat":43.27488,"lon":5.43496,"is_reserved":false,"is_disabled":false,"rental_uris":{"android":"levelo://app?vid=fcdee4e4-775f-40a5-af36-ebe37031a563","ios":"levelo://app?vid=fcdee4e4-775f-40a5-af36-ebe37031a563"},"vehicle_type_id":"4","last_reported":1741414259,"current_range_meters":16400,"station_id":"","pricing_plan_id":"cebpf4jnsgd1na2vs0mg"},{"bike_id":"f5bc50e0-18ac-466f-a238-faccbb25bd95","system_id":"levelo_inurba_marseille","lat":43.30327,"lon":5.404393,"is_reserved":false,"is_disabled":false,"rental_uris":{"android":"levelo://app?vid=f5bc50e0-18ac-466f-a238-faccbb25bd95","ios":"levelo://app?vid=f5bc50e0-18ac-466f-a238-faccbb25bd95"},"vehicle_type_id":"4","last_reported":1741414259,"current_range_meters":16400,"station_id":"ce4bh012rcd13ifvqd10","pricing_plan_id":"cebpf4jnsgd1na2vs0mg"},{"bike_id":"2e5c1cec-0ecb-4ca6-bfe9-51ee9775e0a2","system_id":"levelo_inurba_marseille","lat":43.28669,"lon":5.36353,"is_reserved":false,"is_disabled":false,"rental_uris":{"android":"levelo://app?vid=2e5c1cec-0ecb-4ca6-bfe9-51ee9775e0a2","ios":"levelo://app?vid=2e5c1cec-0ecb-4ca6-bfe9-51ee9775e0a2"},"vehicle_type_id":"4","last_reported":1741414259,"current_range_meters":16400,"station_id":"ce4bhah2rcd13ifvqej0","pricing_plan_id":"cebpf4jnsgd1na2vs0mg"},{"bike_id":"0d00a9c4-65ad-4e6d-9a9b-7a0eb9fbfb0b","system_id":"levelo_inurba_marseille","lat":43.32349,"lon":5.4062,"is_reserved":false,"is_disabled":false,"rental_uris":{"android":"levelo://app?vid=0d00a9c4-65ad-4e6d-9a9b-7a0eb9fbfb0b","ios":"levelo://app?vid=0d00a9c4-65ad-4e6d-9a9b-7a0eb9fbfb0b"},"vehicle_type_id":"4","last_reported":1741414259,"current_range_meters":16400,"station_id":"ce4bhq92rcd13ifvqhjg","pricing_plan_id":"cebpf4jnsgd1na2vs0mg"},{"bike_id":"56d134c9-fe77-4438-ae07-9d31757c45bc","system_id":"levelo_inurba_marseille","lat":43.26948,"lon":5.38661,"is_reserved":false,"is_disabled":false,"rental_uris":{"android":"levelo://app?vid=56d134c9-fe77-4438-ae07-9d31757c45bc","ios":"levelo://app?vid=56d134c9-fe77-4438-ae07-9d31757c45bc"},"vehicle_type_id":"4","last_reported":1741414259,"current_range_meters":16800,"station_id":"ce4bhh92rcd13ifvqfh0","pricing_plan_id":"cebpf4jnsgd1na2vs0mg"},{"bike_id":"30d02fc6-f793-44b9-9991-39bc78d36b19","system_id":"levelo_inurba_marseille","lat":43.27674,"lon":5.38929,"is_reserved":false,"is_disabled":false,"rental_uris":{"android":"levelo://app?vid=30d02fc6-f793-44b9-9991-39bc78d36b19","ios":"levelo://app?vid=30d02fc6-f793-44b9-9991-39bc78d36b19"},"vehicle_type_id":"4","last_reported":1741414259,"current_range_meters":16800,"station_id":"ce4bhi12rcd13ifvqfo0","pricing_plan_id":"cebpf4jnsgd1na2vs0mg"},{"bike_id":"f55ec59f-ae18-4d7f-813b-58d499f3c776","system_id":"levelo_inurba_marseille","lat":43.28704,"lon":5.399746,"is_reserved":false,"is_disabled":false,"rental_uris":{"android":"levelo://app?vid=f55ec59f-ae18-4d7f-813b-58d499f3c776","ios":"levelo://app?vid=f55ec59f-ae18-4d7f-813b-58d499f3c776"},"vehicle_type_id":"4","last_reported":1741414259,"current_range_meters":16800,"station_id":"ce4bho92rcd13ifvqh3g","pricing_plan_id":"cebpf4jnsgd1na2vs0mg"},{"bike_id":"93edefc9-bdcb-4a1c-aa18-6681c4e987ea","system_id":"levelo_inurba_marseille","lat":43.28706,"lon":5.40004,"is_reserved":false,"is_disabled":false,"rental_uris":{"android":"levelo://app?vid=93edefc9-bdcb-4a1c-aa18-6681c4e987ea","ios":"levelo://app?vid=93edefc9-bdcb-4a1c-aa18-6681c4e987ea"},"vehicle_type_id":"4","last_reported":1741414259,"current_range_meters":16800,"station_id":"ce4bho92rcd13ifvqh3g","pricing_plan_id":"cebpf4jnsgd1na2vs0mg"},{"bike_id":"e392d3fd-925c-43ce-bf40-51b5037fd1e5","system_id":"levelo_inurba_marseille","lat":43.323594,"lon":5.388875,"is_reserved":false,"is_disabled":false,"rental_uris":{"android":"levelo://app?vid=e392d3fd-925c-43ce-bf40-51b5037fd1e5","ios":"levelo://app?vid=e392d3fd-925c-43ce-bf40-51b5037fd1e5"},"vehicle_type_id":"4","last_reported":1741414259,"current_range_meters":16800,"station_id":"ce4bhqp2rcd13ifvqhog","pricing_plan_id":"cebpf4jnsgd1na2vs0mg"},{"bike_id":"2d201668-e0ff-4085-9ec0-5c082a94ad30","system_id":"levelo_inurba_marseille","lat":43.33775,"lon":5.37448,"is_reserved":false,"is_disabled":false,"rental_uris":{"android":"levelo://app?vid=2d201668-e0ff-4085-9ec0-5c082a94ad30","ios":"levelo://app?vid=2d201668-e0ff-4085-9ec0-5c082a94ad30"},"vehicle_type_id":"4","last_reported":1741414259,"current_range_meters":17200,"station_id":"","pricing_plan_id":"cebpf4jnsgd1na2vs0mg"},{"bike_id":"adeda56f-14e9-48cf-aa68-626240587e69","system_id":"levelo_inurba_marseille","lat":43.283152,"lon":5.387102,"is_reserved":false,"is_disabled":false,"rental_uris":{"android":"levelo://app?vid=adeda56f-14e9-48cf-aa68-626240587e69","ios":"levelo://app?vid=adeda56f-14e9-48cf-aa68-626240587e69"},"vehicle_type_id":"4","last_reported":1741414259,"current_range_meters":17200,"station_id":"","pricing_plan_id":"cebpf4jnsgd1na2vs0mg"},{"bike_id":"79decf4d-8d5d-42c4-8f07-f50d21315191","system_id":"levelo_inurba_marseille","lat":43.29464,"lon":5.44455,"is_reserved":false,"is_disabled":false,"rental_uris":{"android":"levelo://app?vid=79decf4d-8d5d-42c4-8f07-f50d21315191","ios":"levelo://app?vid=79decf4d-8d5d-42c4-8f07-f50d21315191"},"vehicle_type_id":"4","last_reported":1741414259,"current_range_meters":17200,"station_id":"","pricing_plan_id":"cebpf4jnsgd1na2vs0mg"},{"bike_id":"e864a5f8-5d09-44e4-ac13-510caec44d44","system_id":"levelo_inurba_marseille","lat":43.29843,"lon":5.36276,"is_reserved":false,"is_disabled":false,"rental_uris":{"android":"levelo://app?vid=e864a5f8-5d09-44e4-ac13-510caec44d44","ios":"levelo://app?vid=e864a5f8-5d09-44e4-ac13-510caec44d44"},"vehicle_type_id":"4","last_reported":1741414259,"current_range_meters":17200,"station_id":"ce4bgpp2rcd13ifvqc3g","pricing_plan_id":"cebpf4jnsgd1na2vs0mg"},{"bike_id":"05987704-732d-4ed4-acfe-48daff342779","system_id":"levelo_inurba_marseille","lat":43.31492,"lon":5.3733,"is_reserved":false,"is_disabled":false,"rental_uris":{"android":"levelo://app?vid=05987704-732d-4ed4-acfe-48daff342779","ios":"levelo://app?vid=05987704-732d-4ed4-acfe-48daff342779"},"vehicle_type_id":"4","last_reported":1741414259,"current_range_meters":17200,"station_id":"ce4bgt12rcd13ifvqcd0","pricing_plan_id":"cebpf4jnsgd1na2vs0mg"},{"bike_id":"d10f4563-0230-4e9a-817d-5d1c1f2e8988","system_id":"levelo_inurba_marseille","lat":43.31334,"lon":5.39706,"is_reserved":false,"is_disabled":false,"rental_uris":{"android":"levelo://app?vid=d10f4563-0230-4e9a-817d-5d1c1f2e8988","ios":"levelo://app?vid=d10f4563-0230-4e9a-817d-5d1c1f2e8988"},"vehicle_type_id":"4","last_reported":1741414259,"current_range_meters":17200,"station_id":"ce4bgvp2rcd13ifvqcu0","pricing_plan_id":"cebpf4jnsgd1na2vs0mg"},{"bike_id":"0b6b8dd8-3450-4779-834c-499fd12aab96","system_id":"levelo_inurba_marseille","lat":43.27804,"lon":5.4073,"is_reserved":false,"is_disabled":false,"rental_uris":{"android":"levelo://app?vid=0b6b8dd8-3450-4779-834c-499fd12aab96","ios":"levelo://app?vid=0b6b8dd8-3450-4779-834c-499fd12aab96"},"vehicle_type_id":"4","last_reported":1741414259,"current_range_meters":17200,"station_id":"ce4bhnh2rcd13ifvqgtg","pricing_plan_id":"cebpf4jnsgd1na2vs0mg"},{"bike_id":"641d6941-8dd5-4095-9137-36e2986e38e7","system_id":"levelo_inurba_marseille","lat":43.30779,"lon":5.39284,"is_reserved":false,"is_disabled":false,"rental_uris":{"android":"levelo://app?vid=641d6941-8dd5-4095-9137-36e2986e38e7","ios":"levelo://app?vid=641d6941-8dd5-4095-9137-36e2986e38e7"},"vehicle_type_id":"4","last_reported":1741414259,"current_range_meters":17600,"station_id":"","pricing_plan_id":"cebpf4jnsgd1na2vs0mg"},{"bike_id":"dc404e46-8217-49df-a9f9-0b1fb5b9d87a","system_id":"levelo_inurba_marseille","lat":43.27993,"lon":5.40436,"is_reserved":false,"is_disabled":false,"rental_uris":{"android":"levelo://app?vid=dc404e46-8217-49df-a9f9-0b1fb5b9d87a","ios":"levelo://app?vid=dc404e46-8217-49df-a9f9-0b1fb5b9d87a"},"vehicle_type_id":"4","last_reported":1741414259,"current_range_meters":17600,"station_id":"","pricing_plan_id":"cebpf4jnsgd1na2vs0mg"},{"bike_id":"69052652-a275-4779-b4a0-554abbb6f84d","system_id":"levelo_inurba_marseille","lat":43.23151,"lon":5.43708,"is_reserved":false,"is_disabled":false,"rental_uris":{"android":"levelo://app?vid=69052652-a275-4779-b4a0-554abbb6f84d","ios":"levelo://app?vid=69052652-a275-4779-b4a0-554abbb6f84d"},"vehicle_type_id":"4","last_reported":1741414259,"current_range_meters":17600,"station_id":"ce4bhmp2rcd13ifvqgog","pricing_plan_id":"cebpf4jnsgd1na2vs0mg"},{"bike_id":"89cdc5a5-a744-4269-a86d-3ed5ecc287d5","system_id":"levelo_inurba_marseille","lat":43.24187,"lon":5.39734,"is_reserved":false,"is_disabled":false,"rental_uris":{"android":"levelo://app?vid=89cdc5a5-a744-4269-a86d-3ed5ecc287d5","ios":"levelo://app?vid=89cdc5a5-a744-4269-a86d-3ed5ecc287d5"},"vehicle_type_id":"4","last_reported":1741414259,"current_range_meters":17600,"station_id":"ce4bhn12rcd13ifvqgpg","pricing_plan_id":"cebpf4jnsgd1na2vs0mg"},{"bike_id":"c7698d1d-5cf4-4c5d-9d06-311e4394d263","system_id":"levelo_inurba_marseille","lat":43.3128,"lon":5.4018,"is_reserved":false,"is_disabled":false,"rental_uris":{"android":"levelo://app?vid=c7698d1d-5cf4-4c5d-9d06-311e4394d263","ios":"levelo://app?vid=c7698d1d-5cf4-4c5d-9d06-311e4394d263"},"vehicle_type_id":"4","last_reported":1741414259,"current_range_meters":18000,"station_id":"ce4bh092rcd13ifvqd30","pricing_plan_id":"cebpf4jnsgd1na2vs0mg"},{"bike_id":"d233bae5-fbce-48d0-859c-4c6a493a8da8","system_id":"levelo_inurba_marseille","lat":43.29579,"lon":5.40002,"is_reserved":false,"is_disabled":false,"rental_uris":{"android":"levelo://app?vid=d233bae5-fbce-48d0-859c-4c6a493a8da8","ios":"levelo://app?vid=d233bae5-fbce-48d0-859c-4c6a493a8da8"},"vehicle_type_id":"4","last_reported":1741414259,"current_range_meters":18000,"station_id":"ce4bh312rcd13ifvqdj0","pricing_plan_id":"cebpf4jnsgd1na2vs0mg"},{"bike_id":"d60e34e1-ce35-48d5-bcac-cc2b044aa8d9","system_id":"levelo_inurba_marseille","lat":43.29292,"lon":5.40151,"is_reserved":false,"is_disabled":false,"rental_uris":{"android":"levelo://app?vid=d60e34e1-ce35-48d5-bcac-cc2b044aa8d9","ios":"levelo://app?vid=d60e34e1-ce35-48d5-bcac-cc2b044aa8d9"},"vehicle_type_id":"4","last_reported":1741414259,"current_range_meters":18000,"station_id":"ce4bh312rcd13ifvqdk0","pricing_plan_id":"cebpf4jnsgd1na2vs0mg"},{"bike_id":"c2776722-9161-41be-8e0b-e0e0b53827e0","system_id":"levelo_inurba_marseille","lat":43.29517,"lon":5.3902,"is_reserved":false,"is_disabled":false,"rental_uris":{"android":"levelo://app?vid=c2776722-9161-41be-8e0b-e0e0b53827e0","ios":"levelo://app?vid=c2776722-9161-41be-8e0b-e0e0b53827e0"},"vehicle_type_id":"4","last_reported":1741414259,"current_range_meters":18000,"station_id":"ce4bh3p2rcd13ifvqdp0","pricing_plan_id":"cebpf4jnsgd1na2vs0mg"},{"bike_id":"1c0184c6-72ad-4860-a550-18c4478dfce6","system_id":"levelo_inurba_marseille","lat":43.27942,"lon":5.41051,"is_reserved":false,"is_disabled":false,"rental_uris":{"android":"levelo://app?vid=1c0184c6-72ad-4860-a550-18c4478dfce6","ios":"levelo://app?vid=1c0184c6-72ad-4860-a550-18c4478dfce6"},"vehicle_type_id":"4","last_reported":1741414259,"current_range_meters":18000,"station_id":"ce4bhnp2rcd13ifvqh0g","pricing_plan_id":"cebpf4jnsgd1na2vs0mg"},{"bike_id":"df6f4490-3d0d-4af6-846d-67631c57cf2f","system_id":"levelo_inurba_marseille","lat":43.32356,"lon":5.38889,"is_reserved":false,"is_disabled":false,"rental_uris":{"android":"levelo://app?vid=df6f4490-3d0d-4af6-846d-67631c57cf2f","ios":"levelo://app?vid=df6f4490-3d0d-4af6-846d-67631c57cf2f"},"vehicle_type_id":"4","last_reported":1741414259,"current_range_meters":18000,"station_id":"ce4bhqp2rcd13ifvqhog","pricing_plan_id":"cebpf4jnsgd1na2vs0mg"},{"bike_id":"e9dab2ce-7c7d-40d2-82aa-ed5c703d86fd","system_id":"levelo_inurba_marseille","lat":43.32107,"lon":5.36782,"is_reserved":false,"is_disabled":false,"rental_uris":{"android":"levelo://app?vid=e9dab2ce-7c7d-40d2-82aa-ed5c703d86fd","ios":"levelo://app?vid=e9dab2ce-7c7d-40d2-82aa-ed5c703d86fd"},"vehicle_type_id":"4","last_reported":1741414259,"current_range_meters":18000,"station_id":"ce4bhrh2rcd13ifvqhug","pricing_plan_id":"cebpf4jnsgd1na2vs0mg"},{"bike_id":"deb81f77-c6e9-45d2-b680-8c00a5704cb4","system_id":"levelo_inurba_marseille","lat":43.321081,"lon":5.367749,"is_reserved":false,"is_disabled":false,"rental_uris":{"android":"levelo://app?vid=deb81f77-c6e9-45d2-b680-8c00a5704cb4","ios":"levelo://app?vid=deb81f77-c6e9-45d2-b680-8c00a5704cb4"},"vehicle_type_id":"4","last_reported":1741414259,"current_range_meters":18000,"station_id":"ce4bhrh2rcd13ifvqhug","pricing_plan_id":"cebpf4jnsgd1na2vs0mg"},{"bike_id":"de9161da-4603-4122-876c-63adf821d616","system_id":"levelo_inurba_marseille","lat":43.32111,"lon":5.3679,"is_reserved":false,"is_disabled":false,"rental_uris":{"android":"levelo://app?vid=de9161da-4603-4122-876c-63adf821d616","ios":"levelo://app?vid=de9161da-4603-4122-876c-63adf821d616"},"vehicle_type_id":"4","last_reported":1741414259,"current_range_meters":18000,"station_id":"ce4bhrh2rcd13ifvqhug","pricing_plan_id":"cebpf4jnsgd1na2vs0mg"},{"bike_id":"a71f5391-91f9-4d09-a601-92c62e162a41","system_id":"levelo_inurba_marseille","lat":43.29358,"lon":5.37936,"is_reserved":false,"is_disabled":false,"rental_uris":{"android":"levelo://app?vid=a71f5391-91f9-4d09-a601-92c62e162a41","ios":"levelo://app?vid=a71f5391-91f9-4d09-a601-92c62e162a41"},"vehicle_type_id":"4","last_reported":1741414259,"current_range_meters":18800,"station_id":"","pricing_plan_id":"cebpf4jnsgd1na2vs0mg"},{"bike_id":"314ad92b-893d-46d1-8bd4-e3add17e505e","system_id":"levelo_inurba_marseille","lat":43.30323,"lon":5.40464,"is_reserved":false,"is_disabled":false,"rental_uris":{"android":"levelo://app?vid=314ad92b-893d-46d1-8bd4-e3add17e505e","ios":"levelo://app?vid=314ad92b-893d-46d1-8bd4-e3add17e505e"},"vehicle_type_id":"4","last_reported":1741414259,"current_range_meters":18800,"station_id":"ce4bh012rcd13ifvqd10","pricing_plan_id":"cebpf4jnsgd1na2vs0mg"},{"bike_id":"98bec465-7af5-46cc-b997-64867256a88c","system_id":"levelo_inurba_marseille","lat":43.265526,"lon":5.37287,"is_reserved":false,"is_disabled":false,"rental_uris":{"android":"levelo://app?vid=98bec465-7af5-46cc-b997-64867256a88c","ios":"levelo://app?vid=98bec465-7af5-46cc-b997-64867256a88c"},"vehicle_type_id":"4","last_reported":1741414259,"current_range_meters":18800,"station_id":"ce4bhg12rcd13ifvqf70","pricing_plan_id":"cebpf4jnsgd1na2vs0mg"},{"bike_id":"bbc8be41-b7cc-4851-885a-a199f95526f7","system_id":"levelo_inurba_marseille","lat":43.26821,"lon":5.39446,"is_reserved":false,"is_disabled":false,"rental_uris":{"android":"levelo://app?vid=bbc8be41-b7cc-4851-885a-a199f95526f7","ios":"levelo://app?vid=bbc8be41-b7cc-4851-885a-a199f95526f7"},"vehicle_type_id":"4","last_reported":1741414259,"current_range_meters":18800,"station_id":"ce4bhh12rcd13ifvqfg0","pricing_plan_id":"cebpf4jnsgd1na2vs0mg"},{"bike_id":"7ca91c25-4995-42a7-880a-7d48df7ac3f1","system_id":"levelo_inurba_marseille","lat":43.28422,"lon":5.39218,"is_reserved":false,"is_disabled":false,"rental_uris":{"android":"levelo://app?vid=7ca91c25-4995-42a7-880a-7d48df7ac3f1","ios":"levelo://app?vid=7ca91c25-4995-42a7-880a-7d48df7ac3f1"},"vehicle_type_id":"4","last_reported":1741414259,"current_range_meters":18800,"station_id":"ce4bhoh2rcd13ifvqh5g","pricing_plan_id":"cebpf4jnsgd1na2vs0mg"},{"bike_id":"99e69bf6-dc57-4127-a1aa-9a36825d1a88","system_id":"levelo_inurba_marseille","lat":43.32365,"lon":5.36779,"is_reserved":false,"is_disabled":false,"rental_uris":{"android":"levelo://app?vid=99e69bf6-dc57-4127-a1aa-9a36825d1a88","ios":"levelo://app?vid=99e69bf6-dc57-4127-a1aa-9a36825d1a88"},"vehicle_type_id":"4","last_reported":1741414259,"current_range_meters":18800,"station_id":"ce4bhsh2rcd13ifvqi2g","pricing_plan_id":"cebpf4jnsgd1na2vs0mg"},{"bike_id":"98d6b5e7-ab8a-48b4-a847-7124bae4afc6","system_id":"levelo_inurba_marseille","lat":43.230607,"lon":5.354953,"is_reserved":false,"is_disabled":false,"rental_uris":{"android":"levelo://app?vid=98d6b5e7-ab8a-48b4-a847-7124bae4afc6","ios":"levelo://app?vid=98d6b5e7-ab8a-48b4-a847-7124bae4afc6"},"vehicle_type_id":"4","last_reported":1741414259,"current_range_meters":18800,"station_id":"cpo3342slgdg3j2ifvpg","pricing_plan_id":"cebpf4jnsgd1na2vs0mg"},{"bike_id":"f5e6a268-a2bd-4230-9a5a-74e026d406fb","system_id":"levelo_inurba_marseille","lat":43.308115,"lon":5.375106,"is_reserved":false,"is_disabled":false,"rental_uris":{"android":"levelo://app?vid=f5e6a268-a2bd-4230-9a5a-74e026d406fb","ios":"levelo://app?vid=f5e6a268-a2bd-4230-9a5a-74e026d406fb"},"vehicle_type_id":"4","last_reported":1741414259,"current_range_meters":19200,"station_id":"","pricing_plan_id":"cebpf4jnsgd1na2vs0mg"},{"bike_id":"db9a06c8-bad7-4f40-89d8-40572ef2906f","system_id":"levelo_inurba_marseille","lat":43.31359,"lon":5.38506,"is_reserved":false,"is_disabled":false,"rental_uris":{"android":"levelo://app?vid=db9a06c8-bad7-4f40-89d8-40572ef2906f","ios":"levelo://app?vid=db9a06c8-bad7-4f40-89d8-40572ef2906f"},"vehicle_type_id":"4","last_reported":1741414259,"current_range_meters":19200,"station_id":"ce4bgt92rcd13ifvqcf0","pricing_plan_id":"cebpf4jnsgd1na2vs0mg"},{"bike_id":"b457ae90-869a-4eaa-9027-6c060a1776b3","system_id":"levelo_inurba_marseille","lat":43.28574,"lon":5.39516,"is_reserved":false,"is_disabled":false,"rental_uris":{"android":"levelo://app?vid=b457ae90-869a-4eaa-9027-6c060a1776b3","ios":"levelo://app?vid=b457ae90-869a-4eaa-9027-6c060a1776b3"},"vehicle_type_id":"4","last_reported":1741414259,"current_range_meters":19200,"station_id":"ce4bh292rcd13ifvqdg0","pricing_plan_id":"cebpf4jnsgd1na2vs0mg"},{"bike_id":"06aae4a1-fad8-421c-9b02-56d2c7921668","system_id":"levelo_inurba_marseille","lat":43.29037,"lon":5.39989,"is_reserved":false,"is_disabled":false,"rental_uris":{"android":"levelo://app?vid=06aae4a1-fad8-421c-9b02-56d2c7921668","ios":"levelo://app?vid=06aae4a1-fad8-421c-9b02-56d2c7921668"},"vehicle_type_id":"4","last_reported":1741414259,"current_range_meters":19200,"station_id":"ce4bh392rcd13ifvqdm0","pricing_plan_id":"cebpf4jnsgd1na2vs0mg"},{"bike_id":"3f169315-872d-445e-b0a8-da9eebc3d54a","system_id":"levelo_inurba_marseille","lat":43.2926,"lon":5.36843,"is_reserved":false,"is_disabled":false,"rental_uris":{"android":"levelo://app?vid=3f169315-872d-445e-b0a8-da9eebc3d54a","ios":"levelo://app?vid=3f169315-872d-445e-b0a8-da9eebc3d54a"},"vehicle_type_id":"4","last_reported":1741414259,"current_range_meters":19200,"station_id":"ce4bhbp2rcd13ifvqesg","pricing_plan_id":"cebpf4jnsgd1na2vs0mg"},{"bike_id":"e1a0293b-333d-4a97-9af3-0c51ffe4ad6e","system_id":"levelo_inurba_marseille","lat":43.26687,"lon":5.38268,"is_reserved":false,"is_disabled":false,"rental_uris":{"android":"levelo://app?vid=e1a0293b-333d-4a97-9af3-0c51ffe4ad6e","ios":"levelo://app?vid=e1a0293b-333d-4a97-9af3-0c51ffe4ad6e"},"vehicle_type_id":"4","last_reported":1741414259,"current_range_meters":19200,"station_id":"ce4bhg92rcd13ifvqf90","pricing_plan_id":"cebpf4jnsgd1na2vs0mg"},{"bike_id":"83563c1c-bef7-4eab-bee7-f6756eeed608","system_id":"levelo_inurba_marseille","lat":43.25574,"lon":5.38243,"is_reserved":false,"is_disabled":false,"rental_uris":{"android":"levelo://app?vid=83563c1c-bef7-4eab-bee7-f6756eeed608","ios":"levelo://app?vid=83563c1c-bef7-4eab-bee7-f6756eeed608"},"vehicle_type_id":"4","last_reported":1741414259,"current_range_meters":19200,"station_id":"ce4bhih2rcd13ifvqfs0","pricing_plan_id":"cebpf4jnsgd1na2vs0mg"},{"bike_id":"20e028b8-7ce8-4cb3-a62d-418b33ea3894","system_id":"levelo_inurba_marseille","lat":43.27941,"lon":5.41047,"is_reserved":false,"is_disabled":false,"rental_uris":{"android":"levelo://app?vid=20e028b8-7ce8-4cb3-a62d-418b33ea3894","ios":"levelo://app?vid=20e028b8-7ce8-4cb3-a62d-418b33ea3894"},"vehicle_type_id":"4","last_reported":1741414259,"current_range_meters":19200,"station_id":"ce4bhnp2rcd13ifvqh0g","pricing_plan_id":"cebpf4jnsgd1na2vs0mg"},{"bike_id":"02bf1255-03ed-4dfc-9766-3ec76dd3abcb","system_id":"levelo_inurba_marseille","lat":43.28692,"lon":5.39987,"is_reserved":false,"is_disabled":false,"rental_uris":{"android":"levelo://app?vid=02bf1255-03ed-4dfc-9766-3ec76dd3abcb","ios":"levelo://app?vid=02bf1255-03ed-4dfc-9766-3ec76dd3abcb"},"vehicle_type_id":"4","last_reported":1741414259,"current_range_meters":19200,"station_id":"ce4bho92rcd13ifvqh3g","pricing_plan_id":"cebpf4jnsgd1na2vs0mg"},{"bike_id":"5daf32e0-ab85-45e7-b292-2a0a67920f4b","system_id":"levelo_inurba_marseille","lat":43.26181,"lon":5.3748,"is_reserved":false,"is_disabled":false,"rental_uris":{"android":"levelo://app?vid=5daf32e0-ab85-45e7-b292-2a0a67920f4b","ios":"levelo://app?vid=5daf32e0-ab85-45e7-b292-2a0a67920f4b"},"vehicle_type_id":"4","last_reported":1741414259,"current_range_meters":19600,"station_id":"ce4bhgp2rcd13ifvqfc0","pricing_plan_id":"cebpf4jnsgd1na2vs0mg"},{"bike_id":"8a67dd83-ee35-4daf-910c-c9d28abf3f9b","system_id":"levelo_inurba_marseille","lat":43.30921,"lon":5.40161,"is_reserved":false,"is_disabled":false,"rental_uris":{"android":"levelo://app?vid=8a67dd83-ee35-4daf-910c-c9d28abf3f9b","ios":"levelo://app?vid=8a67dd83-ee35-4daf-910c-c9d28abf3f9b"},"vehicle_type_id":"4","last_reported":1741414259,"current_range_meters":20000,"station_id":"ce4bgvp2rcd13ifvqct0","pricing_plan_id":"cebpf4jnsgd1na2vs0mg"},{"bike_id":"8579e54f-565e-4025-a73c-88723bee831d","system_id":"levelo_inurba_marseille","lat":43.231907,"lon":5.399926,"is_reserved":false,"is_disabled":false,"rental_uris":{"android":"levelo://app?vid=8579e54f-565e-4025-a73c-88723bee831d","ios":"levelo://app?vid=8579e54f-565e-4025-a73c-88723bee831d"},"vehicle_type_id":"4","last_reported":1741414259,"current_range_meters":20000,"station_id":"ce4bhn12rcd13ifvqgqg","pricing_plan_id":"cebpf4jnsgd1na2vs0mg"},{"bike_id":"931fd3db-4767-4222-9848-0306bba9a6b8","system_id":"levelo_inurba_marseille","lat":43.2407,"lon":5.377569,"is_reserved":false,"is_disabled":false,"rental_uris":{"android":"levelo://app?vid=931fd3db-4767-4222-9848-0306bba9a6b8","ios":"levelo://app?vid=931fd3db-4767-4222-9848-0306bba9a6b8"},"vehicle_type_id":"4","last_reported":1741414259,"current_range_meters":20000,"station_id":"ce4bhnp2rcd13ifvqgvg","pricing_plan_id":"cebpf4jnsgd1na2vs0mg"},{"bike_id":"f302ab95-fe98-4ff8-b7ff-ea402135b15b","system_id":"levelo_inurba_marseille","lat":43.31697,"lon":5.37759,"is_reserved":false,"is_disabled":false,"rental_uris":{"android":"levelo://app?vid=f302ab95-fe98-4ff8-b7ff-ea402135b15b","ios":"levelo://app?vid=f302ab95-fe98-4ff8-b7ff-ea402135b15b"},"vehicle_type_id":"4","last_reported":1741414259,"current_range_meters":20400,"station_id":"ce4bgth2rcd13ifvqch0","pricing_plan_id":"cebpf4jnsgd1na2vs0mg"},{"bike_id":"82b665bf-72bf-466d-8c07-5be62a056709","system_id":"levelo_inurba_marseille","lat":43.312684,"lon":5.401722,"is_reserved":false,"is_disabled":false,"rental_uris":{"android":"levelo://app?vid=82b665bf-72bf-466d-8c07-5be62a056709","ios":"levelo://app?vid=82b665bf-72bf-466d-8c07-5be62a056709"},"vehicle_type_id":"4","last_reported":1741414259,"current_range_meters":20400,"station_id":"ce4bh092rcd13ifvqd30","pricing_plan_id":"cebpf4jnsgd1na2vs0mg"},{"bike_id":"3774a1d5-6313-4163-87ee-0bffdfbd52f2","system_id":"levelo_inurba_marseille","lat":43.25104,"lon":5.40332,"is_reserved":false,"is_disabled":false,"rental_uris":{"android":"levelo://app?vid=3774a1d5-6313-4163-87ee-0bffdfbd52f2","ios":"levelo://app?vid=3774a1d5-6313-4163-87ee-0bffdfbd52f2"},"vehicle_type_id":"4","last_reported":1741414259,"current_range_meters":20400,"station_id":"ce4bhlh2rcd13ifvqgig","pricing_plan_id":"cebpf4jnsgd1na2vs0mg"},{"bike_id":"ac1b8d70-0295-4962-b7d2-ca96df9e1bed","system_id":"levelo_inurba_marseille","lat":43.32475,"lon":5.36608,"is_reserved":false,"is_disabled":false,"rental_uris":{"android":"levelo://app?vid=ac1b8d70-0295-4962-b7d2-ca96df9e1bed","ios":"levelo://app?vid=ac1b8d70-0295-4962-b7d2-ca96df9e1bed"},"vehicle_type_id":"4","last_reported":1741414259,"current_range_meters":20400,"station_id":"ce4bhs12rcd13ifvqhvg","pricing_plan_id":"cebpf4jnsgd1na2vs0mg"},{"bike_id":"d65db310-b923-47cc-9428-6da0fa2f82f4","system_id":"levelo_inurba_marseille","lat":43.28705,"lon":5.4,"is_reserved":false,"is_disabled":false,"rental_uris":{"android":"levelo://app?vid=d65db310-b923-47cc-9428-6da0fa2f82f4","ios":"levelo://app?vid=d65db310-b923-47cc-9428-6da0fa2f82f4"},"vehicle_type_id":"4","last_reported":1741414259,"current_range_meters":20800,"station_id":"ce4bho92rcd13ifvqh3g","pricing_plan_id":"cebpf4jnsgd1na2vs0mg"},{"bike_id":"3ed0c8ba-c7f7-40d8-9403-a3f96d6af6b9","system_id":"levelo_inurba_marseille","lat":43.323632,"lon":5.367616,"is_reserved":false,"is_disabled":false,"rental_uris":{"android":"levelo://app?vid=3ed0c8ba-c7f7-40d8-9403-a3f96d6af6b9","ios":"levelo://app?vid=3ed0c8ba-c7f7-40d8-9403-a3f96d6af6b9"},"vehicle_type_id":"4","last_reported":1741414259,"current_range_meters":20800,"station_id":"ce4bhsh2rcd13ifvqi2g","pricing_plan_id":"cebpf4jnsgd1na2vs0mg"},{"bike_id":"7f08542c-3622-4bee-8852-d0974c0ec085","system_id":"levelo_inurba_marseille","lat":43.24168,"lon":5.36416,"is_reserved":false,"is_disabled":false,"rental_uris":{"android":"levelo://app?vid=7f08542c-3622-4bee-8852-d0974c0ec085","ios":"levelo://app?vid=7f08542c-3622-4bee-8852-d0974c0ec085"},"vehicle_type_id":"4","last_reported":1741414259,"current_range_meters":20800,"station_id":"cpo36qri1sfpv3e86is0","pricing_plan_id":"cebpf4jnsgd1na2vs0mg"},{"bike_id":"2f3dee4e-82e8-45f4-8c51-5a4a0c6d582a","system_id":"levelo_inurba_marseille","lat":43.30754,"lon":5.37104,"is_reserved":false,"is_disabled":false,"rental_uris":{"android":"levelo://app?vid=2f3dee4e-82e8-45f4-8c51-5a4a0c6d582a","ios":"levelo://app?vid=2f3dee4e-82e8-45f4-8c51-5a4a0c6d582a"},"vehicle_type_id":"4","last_reported":1741414259,"current_range_meters":21600,"station_id":"","pricing_plan_id":"cebpf4jnsgd1na2vs0mg"},{"bike_id":"b56c1f0f-3789-4ff6-b1b9-35c58d9b5a95","system_id":"levelo_inurba_marseille","lat":43.29278,"lon":5.40111,"is_reserved":false,"is_disabled":false,"rental_uris":{"android":"levelo://app?vid=b56c1f0f-3789-4ff6-b1b9-35c58d9b5a95","ios":"levelo://app?vid=b56c1f0f-3789-4ff6-b1b9-35c58d9b5a95"},"vehicle_type_id":"4","last_reported":1741414259,"current_range_meters":21600,"station_id":"ce4bh312rcd13ifvqdk0","pricing_plan_id":"cebpf4jnsgd1na2vs0mg"},{"bike_id":"fe1a4a20-18a6-47d2-9b14-2bda3a185a29","system_id":"levelo_inurba_marseille","lat":43.29273,"lon":5.40134,"is_reserved":false,"is_disabled":false,"rental_uris":{"android":"levelo://app?vid=fe1a4a20-18a6-47d2-9b14-2bda3a185a29","ios":"levelo://app?vid=fe1a4a20-18a6-47d2-9b14-2bda3a185a29"},"vehicle_type_id":"4","last_reported":1741414259,"current_range_meters":21600,"station_id":"ce4bh312rcd13ifvqdk0","pricing_plan_id":"cebpf4jnsgd1na2vs0mg"},{"bike_id":"7c3db1e2-223a-4bf0-9c84-874eb67e7afd","system_id":"levelo_inurba_marseille","lat":43.26497,"lon":5.39572,"is_reserved":false,"is_disabled":false,"rental_uris":{"android":"levelo://app?vid=7c3db1e2-223a-4bf0-9c84-874eb67e7afd","ios":"levelo://app?vid=7c3db1e2-223a-4bf0-9c84-874eb67e7afd"},"vehicle_type_id":"4","last_reported":1741414259,"current_range_meters":21600,"station_id":"ce4bhi12rcd13ifvqfq0","pricing_plan_id":"cebpf4jnsgd1na2vs0mg"},{"bike_id":"91ce4676-d8b6-4401-a97d-e8ec284f4793","system_id":"levelo_inurba_marseille","lat":43.27995,"lon":5.41663,"is_reserved":false,"is_disabled":false,"rental_uris":{"android":"levelo://app?vid=91ce4676-d8b6-4401-a97d-e8ec284f4793","ios":"levelo://app?vid=91ce4676-d8b6-4401-a97d-e8ec284f4793"},"vehicle_type_id":"4","last_reported":1741414259,"current_range_meters":21600,"station_id":"ce4bho12rcd13ifvqh1g","pricing_plan_id":"cebpf4jnsgd1na2vs0mg"},{"bike_id":"ffc3f79b-8b39-4be3-b9cc-a0195519e5ca","system_id":"levelo_inurba_marseille","lat":43.27994,"lon":5.41667,"is_reserved":false,"is_disabled":false,"rental_uris":{"android":"levelo://app?vid=ffc3f79b-8b39-4be3-b9cc-a0195519e5ca","ios":"levelo://app?vid=ffc3f79b-8b39-4be3-b9cc-a0195519e5ca"},"vehicle_type_id":"4","last_reported":1741414259,"current_range_meters":21600,"station_id":"ce4bho12rcd13ifvqh1g","pricing_plan_id":"cebpf4jnsgd1na2vs0mg"},{"bike_id":"a27f2911-45ea-4f26-91bd-0f671a2be4cc","system_id":"levelo_inurba_marseille","lat":43.33024,"lon":5.39061,"is_reserved":false,"is_disabled":false,"rental_uris":{"android":"levelo://app?vid=a27f2911-45ea-4f26-91bd-0f671a2be4cc","ios":"levelo://app?vid=a27f2911-45ea-4f26-91bd-0f671a2be4cc"},"vehicle_type_id":"4","last_reported":1741414259,"current_range_meters":21600,"station_id":"ce4bhr92rcd13ifvqhrg","pricing_plan_id":"cebpf4jnsgd1na2vs0mg"},{"bike_id":"b98073ec-5e2d-4178-9620-47c51d37e565","system_id":"levelo_inurba_marseille","lat":43.32361,"lon":5.36733,"is_reserved":false,"is_disabled":false,"rental_uris":{"android":"levelo://app?vid=b98073ec-5e2d-4178-9620-47c51d37e565","ios":"levelo://app?vid=b98073ec-5e2d-4178-9620-47c51d37e565"},"vehicle_type_id":"4","last_reported":1741414259,"current_range_meters":21600,"station_id":"ce4bhsh2rcd13ifvqi2g","pricing_plan_id":"cebpf4jnsgd1na2vs0mg"},{"bike_id":"88fd068c-38ee-4a1c-85eb-2829c6e8c2d2","system_id":"levelo_inurba_marseille","lat":43.33777,"lon":5.37439,"is_reserved":false,"is_disabled":false,"rental_uris":{"android":"levelo://app?vid=88fd068c-38ee-4a1c-85eb-2829c6e8c2d2","ios":"levelo://app?vid=88fd068c-38ee-4a1c-85eb-2829c6e8c2d2"},"vehicle_type_id":"4","last_reported":1741414259,"current_range_meters":22000,"station_id":"","pricing_plan_id":"cebpf4jnsgd1na2vs0mg"},{"bike_id":"60079d15-2d0e-418f-be2f-017d46cf5037","system_id":"levelo_inurba_marseille","lat":43.27611,"lon":5.36129,"is_reserved":false,"is_disabled":false,"rental_uris":{"android":"levelo://app?vid=60079d15-2d0e-418f-be2f-017d46cf5037","ios":"levelo://app?vid=60079d15-2d0e-418f-be2f-017d46cf5037"},"vehicle_type_id":"4","last_reported":1741414259,"current_range_meters":22000,"station_id":"ce4bgj92rcd13ifvqbe0","pricing_plan_id":"cebpf4jnsgd1na2vs0mg"},{"bike_id":"d42887dd-a992-4d52-8ea3-c8e87369f633","system_id":"levelo_inurba_marseille","lat":43.30879,"lon":5.37218,"is_reserved":false,"is_disabled":false,"rental_uris":{"android":"levelo://app?vid=d42887dd-a992-4d52-8ea3-c8e87369f633","ios":"levelo://app?vid=d42887dd-a992-4d52-8ea3-c8e87369f633"},"vehicle_type_id":"4","last_reported":1741414259,"current_range_meters":22000,"station_id":"ce4bguh2rcd13ifvqckg","pricing_plan_id":"cebpf4jnsgd1na2vs0mg"},{"bike_id":"b2b0bf04-d00f-4857-b85f-8a0dabceb0b7","system_id":"levelo_inurba_marseille","lat":43.28462,"lon":5.3588,"is_reserved":false,"is_disabled":false,"rental_uris":{"android":"levelo://app?vid=b2b0bf04-d00f-4857-b85f-8a0dabceb0b7","ios":"levelo://app?vid=b2b0bf04-d00f-4857-b85f-8a0dabceb0b7"},"vehicle_type_id":"4","last_reported":1741414259,"current_range_meters":22000,"station_id":"ce4bhah2rcd13ifvqei0","pricing_plan_id":"cebpf4jnsgd1na2vs0mg"},{"bike_id":"d8dd7dcf-a8b0-4ac7-9622-2fe29042df71","system_id":"levelo_inurba_marseille","lat":43.27923,"lon":5.39602,"is_reserved":false,"is_disabled":false,"rental_uris":{"android":"levelo://app?vid=d8dd7dcf-a8b0-4ac7-9622-2fe29042df71","ios":"levelo://app?vid=d8dd7dcf-a8b0-4ac7-9622-2fe29042df71"},"vehicle_type_id":"4","last_reported":1741414259,"current_range_meters":22000,"station_id":"ce4bhf92rcd13ifvqf40","pricing_plan_id":"cebpf4jnsgd1na2vs0mg"},{"bike_id":"fd9487dd-d1ec-4e0e-a1c9-7629a57c3656","system_id":"levelo_inurba_marseille","lat":43.27209,"lon":5.39185,"is_reserved":false,"is_disabled":false,"rental_uris":{"android":"levelo://app?vid=fd9487dd-d1ec-4e0e-a1c9-7629a57c3656","ios":"levelo://app?vid=fd9487dd-d1ec-4e0e-a1c9-7629a57c3656"},"vehicle_type_id":"4","last_reported":1741414259,"current_range_meters":22000,"station_id":"ce4bhhp2rcd13ifvqfm0","pricing_plan_id":"cebpf4jnsgd1na2vs0mg"},{"bike_id":"c8c42f39-d10c-4a0e-a46f-718b39d46be5","system_id":"levelo_inurba_marseille","lat":43.25572,"lon":5.3825,"is_reserved":false,"is_disabled":false,"rental_uris":{"android":"levelo://app?vid=c8c42f39-d10c-4a0e-a46f-718b39d46be5","ios":"levelo://app?vid=c8c42f39-d10c-4a0e-a46f-718b39d46be5"},"vehicle_type_id":"4","last_reported":1741414259,"current_range_meters":22000,"station_id":"ce4bhih2rcd13ifvqfs0","pricing_plan_id":"cebpf4jnsgd1na2vs0mg"},{"bike_id":"40f15c61-3075-442e-8381-c7a78a2f5322","system_id":"levelo_inurba_marseille","lat":43.23193,"lon":5.35565,"is_reserved":false,"is_disabled":false,"rental_uris":{"android":"levelo://app?vid=40f15c61-3075-442e-8381-c7a78a2f5322","ios":"levelo://app?vid=40f15c61-3075-442e-8381-c7a78a2f5322"},"vehicle_type_id":"4","last_reported":1741414259,"current_range_meters":22000,"station_id":"ce4bhu92rcd13ifvqi70","pricing_plan_id":"cebpf4jnsgd1na2vs0mg"},{"bike_id":"ca776a98-d27c-4246-9bab-87bc40a06067","system_id":"levelo_inurba_marseille","lat":43.31329,"lon":5.39719,"is_reserved":false,"is_disabled":false,"rental_uris":{"android":"levelo://app?vid=ca776a98-d27c-4246-9bab-87bc40a06067","ios":"levelo://app?vid=ca776a98-d27c-4246-9bab-87bc40a06067"},"vehicle_type_id":"4","last_reported":1741414259,"current_range_meters":22400,"station_id":"ce4bgvp2rcd13ifvqcu0","pricing_plan_id":"cebpf4jnsgd1na2vs0mg"},{"bike_id":"9afdb3bf-128f-4b48-b3ad-1df8adcd91e1","system_id":"levelo_inurba_marseille","lat":43.250218,"lon":5.375365,"is_reserved":false,"is_disabled":false,"rental_uris":{"android":"levelo://app?vid=9afdb3bf-128f-4b48-b3ad-1df8adcd91e1","ios":"levelo://app?vid=9afdb3bf-128f-4b48-b3ad-1df8adcd91e1"},"vehicle_type_id":"4","last_reported":1741414259,"current_range_meters":22400,"station_id":"ce4bhhh2rcd13ifvqfk0","pricing_plan_id":"cebpf4jnsgd1na2vs0mg"},{"bike_id":"79e726be-47ab-4c47-b9ed-611819679b12","system_id":"levelo_inurba_marseille","lat":43.26815,"lon":5.40262,"is_reserved":false,"is_disabled":false,"rental_uris":{"android":"levelo://app?vid=79e726be-47ab-4c47-b9ed-611819679b12","ios":"levelo://app?vid=79e726be-47ab-4c47-b9ed-611819679b12"},"vehicle_type_id":"4","last_reported":1741414259,"current_range_meters":22400,"station_id":"ce501612rcd8frsf0b60","pricing_plan_id":"cebpf4jnsgd1na2vs0mg"},{"bike_id":"aacce519-54e3-4dd8-a60f-417f7fb7a027","system_id":"levelo_inurba_marseille","lat":43.31336,"lon":5.39708,"is_reserved":false,"is_disabled":false,"rental_uris":{"android":"levelo://app?vid=aacce519-54e3-4dd8-a60f-417f7fb7a027","ios":"levelo://app?vid=aacce519-54e3-4dd8-a60f-417f7fb7a027"},"vehicle_type_id":"4","last_reported":1741414259,"current_range_meters":22800,"station_id":"ce4bgvp2rcd13ifvqcu0","pricing_plan_id":"cebpf4jnsgd1na2vs0mg"},{"bike_id":"ecd7106b-5714-4675-bdff-f8bf89876cb0","system_id":"levelo_inurba_marseille","lat":43.2841,"lon":5.37524,"is_reserved":false,"is_disabled":false,"rental_uris":{"android":"levelo://app?vid=ecd7106b-5714-4675-bdff-f8bf89876cb0","ios":"levelo://app?vid=ecd7106b-5714-4675-bdff-f8bf89876cb0"},"vehicle_type_id":"4","last_reported":1741414259,"current_range_meters":22800,"station_id":"ce4bh412rcd13ifvqds0","pricing_plan_id":"cebpf4jnsgd1na2vs0mg"},{"bike_id":"a3edbd35-b6c1-4f09-afd4-417e5b3d6b7b","system_id":"levelo_inurba_marseille","lat":43.2846,"lon":5.34966,"is_reserved":false,"is_disabled":false,"rental_uris":{"android":"levelo://app?vid=a3edbd35-b6c1-4f09-afd4-417e5b3d6b7b","ios":"levelo://app?vid=a3edbd35-b6c1-4f09-afd4-417e5b3d6b7b"},"vehicle_type_id":"4","last_reported":1741414259,"current_range_meters":22800,"station_id":"ce4bhbh2rcd13ifvqepg","pricing_plan_id":"cebpf4jnsgd1na2vs0mg"},{"bike_id":"ef17aa4d-e682-4b85-ab6d-0cdefd088648","system_id":"levelo_inurba_marseille","lat":43.25001,"lon":5.38936,"is_reserved":false,"is_disabled":false,"rental_uris":{"android":"levelo://app?vid=ef17aa4d-e682-4b85-ab6d-0cdefd088648","ios":"levelo://app?vid=ef17aa4d-e682-4b85-ab6d-0cdefd088648"},"vehicle_type_id":"4","last_reported":1741414259,"current_range_meters":22800,"station_id":"ce4bhgp2rcd13ifvqfd0","pricing_plan_id":"cebpf4jnsgd1na2vs0mg"},{"bike_id":"5da688d2-8e15-4a8a-9d87-a20f25906e55","system_id":"levelo_inurba_marseille","lat":43.24166,"lon":5.39732,"is_reserved":false,"is_disabled":false,"rental_uris":{"android":"levelo://app?vid=5da688d2-8e15-4a8a-9d87-a20f25906e55","ios":"levelo://app?vid=5da688d2-8e15-4a8a-9d87-a20f25906e55"},"vehicle_type_id":"4","last_reported":1741414259,"current_range_meters":22800,"station_id":"ce4bhn12rcd13ifvqgpg","pricing_plan_id":"cebpf4jnsgd1na2vs0mg"},{"bike_id":"e72765df-32b0-43ca-b2de-a29722b94da5","system_id":"levelo_inurba_marseille","lat":43.28698,"lon":5.40033,"is_reserved":false,"is_disabled":false,"rental_uris":{"android":"levelo://app?vid=e72765df-32b0-43ca-b2de-a29722b94da5","ios":"levelo://app?vid=e72765df-32b0-43ca-b2de-a29722b94da5"},"vehicle_type_id":"4","last_reported":1741414259,"current_range_meters":22800,"station_id":"ce4bho92rcd13ifvqh3g","pricing_plan_id":"cebpf4jnsgd1na2vs0mg"},{"bike_id":"a08101ce-6341-4f82-b08d-d6a6a067f002","system_id":"levelo_inurba_marseille","lat":43.33028,"lon":5.39049,"is_reserved":false,"is_disabled":false,"rental_uris":{"android":"levelo://app?vid=a08101ce-6341-4f82-b08d-d6a6a067f002","ios":"levelo://app?vid=a08101ce-6341-4f82-b08d-d6a6a067f002"},"vehicle_type_id":"4","last_reported":1741414259,"current_range_meters":22800,"station_id":"ce4bhr92rcd13ifvqhrg","pricing_plan_id":"cebpf4jnsgd1na2vs0mg"},{"bike_id":"4813ee45-b9ee-4539-b83f-aacd8cee2f9c","system_id":"levelo_inurba_marseille","lat":43.23188,"lon":5.35561,"is_reserved":false,"is_disabled":false,"rental_uris":{"android":"levelo://app?vid=4813ee45-b9ee-4539-b83f-aacd8cee2f9c","ios":"levelo://app?vid=4813ee45-b9ee-4539-b83f-aacd8cee2f9c"},"vehicle_type_id":"4","last_reported":1741414259,"current_range_meters":22800,"station_id":"ce4bhu92rcd13ifvqi70","pricing_plan_id":"cebpf4jnsgd1na2vs0mg"},{"bike_id":"be9eb5cf-2593-4387-a13e-53b3888227c4","system_id":"levelo_inurba_marseille","lat":43.287312,"lon":5.360816,"is_reserved":false,"is_disabled":false,"rental_uris":{"android":"levelo://app?vid=be9eb5cf-2593-4387-a13e-53b3888227c4","ios":"levelo://app?vid=be9eb5cf-2593-4387-a13e-53b3888227c4"},"vehicle_type_id":"4","last_reported":1741414259,"current_range_meters":22800,"station_id":"cki0cbj6b192h4jlfktg","pricing_plan_id":"cebpf4jnsgd1na2vs0mg"},{"bike_id":"45add6bd-af50-4375-9796-e9403a5c27b5","system_id":"levelo_inurba_marseille","lat":43.25336,"lon":5.37657,"is_reserved":false,"is_disabled":false,"rental_uris":{"android":"levelo://app?vid=45add6bd-af50-4375-9796-e9403a5c27b5","ios":"levelo://app?vid=45add6bd-af50-4375-9796-e9403a5c27b5"},"vehicle_type_id":"4","last_reported":1741414259,"current_range_meters":23200,"station_id":"","pricing_plan_id":"cebpf4jnsgd1na2vs0mg"},{"bike_id":"52e07c50-c80a-47ae-9728-517b17ee6688","system_id":"levelo_inurba_marseille","lat":43.28492,"lon":5.38575,"is_reserved":false,"is_disabled":false,"rental_uris":{"android":"levelo://app?vid=52e07c50-c80a-47ae-9728-517b17ee6688","ios":"levelo://app?vid=52e07c50-c80a-47ae-9728-517b17ee6688"},