{"last_updated":1739873423,"ttl":60,"version":"2.2","data":{"bikes":[{"bike_id":"c2e75494-fb9f-4290-94d2-f06158e70ae6","system_id":"levelo_inurba_marseille","lat":43.27678,"lon":5.42454,"is_reserved":false,"is_disabled":false,"rental_uris":{"android":"levelo://app?vid=c2e75494-fb9f-4290-94d2-f06158e70ae6","ios":"levelo://app?vid=c2e75494-fb9f-4290-94d2-f06158e70ae6"},"vehicle_type_id":"4","last_reported":1739873423,"current_range_meters":2800,"station_id":"","pricing_plan_id":"cebpf4jnsgd1na2vs0mg"},{"bike_id":"8a8416dd-813c-46ad-af54-8d0e41d9eb7d","system_id":"levelo_inurba_marseille","lat":43.2927,"lon":5.38449,"is_reserved":false,"is_disabled":false,"rental_uris":{"android":"levelo://app?vid=8a8416dd-813c-46ad-af54-8d0e41d9eb7d","ios":"levelo://app?vid=8a8416dd-813c-46ad-af54-8d0e41d9eb7d"},"vehicle_type_id":"4","last_reported":1739873423,"current_range_meters":2800,"station_id":"","pricing_plan_id":"cebpf4jnsgd1na2vs0mg"},{"bike_id":"1ccb8148-d5a9-45e8-a79b-603264947ba2","system_id":"levelo_inurba_marseille","lat":43.22943,"lon":5.35416,"is_reserved":false,"is_disabled":false,"rental_uris":{"android":"levelo://app?vid=1ccb8148-d5a9-45e8-a79b-603264947ba2","ios":"levelo://app?vid=1ccb8148-d5a9-45e8-a79b-603264947ba2"},"vehicle_type_id":"4","last_reported":1739873423,"current_range_meters":2800,"station_id":"cpo3532slgdg3j2ikp40","pricing_plan_id":"cebpf4jnsgd1na2vs0mg"},{"bike_id":"ce61429a-686f-445d-80d9-4b10876ed4ef","system_id":"levelo_inurba_marseille","lat":43.337444,"lon":5.374475,"is_reserved":false,"is_disabled":true,"rental_uris":{"android":"levelo://app?vid=ce61429a-686f-445d-80d9-4b10876ed4ef","ios":"levelo://app?vid=ce61429a-686f-445d-80d9-4b10876ed4ef"},"vehicle_type_id":"4","last_reported":1739873423,"current_range_meters":3600,"station_id":"","pricing_plan_id":"cebpf4jnsgd1na2vs0mg"},{"bike_id":"54252a7c-5653-43b2-b4f1-43722b1aa404","system_id":"levelo_inurba_marseille","lat":43.256626,"lon":5.382872,"is_reserved":false,"is_disabled":false,"rental_uris":{"android":"levelo://app?vid=54252a7c-5653-43b2-b4f1-43722b1aa404","ios":"levelo://app?vid=54252a7c-5653-43b2-b4f1-43722b1aa404"},"vehicle_type_id":"4","last_reported":1739873423,"current_range_meters":3200,"station_id":"","pricing_plan_id":"cebpf4jnsgd1na2vs0mg"},{"bike_id":"c4916927-7d10-4eb6-bf80-df6fa900d439","system_id":"levelo_inurba_marseille","lat":43.29554,"lon":5.42302,"is_reserved":false,"is_disabled":true,"rental_uris":{"android":"levelo://app?vid=c4916927-7d10-4eb6-bf80-df6fa900d439","ios":"levelo://app?vid=c4916927-7d10-4eb6-bf80-df6fa900d439"},"vehicle_type_id":"4","last_reported":1739873423,"current_range_meters":3600,"station_id":"ce4bhph2rcd13ifvqhdg","pricing_plan_id":"cebpf4jnsgd1na2vs0mg"},{"bike_id":"1d35ae83-3cde-4f52-823c-72bacb62b961","system_id":"levelo_inurba_marseille","lat":43.31729,"lon":5.40433,"is_reserved":false,"is_disabled":false,"rental_uris":{"android":"levelo://app?vid=1d35ae83-3cde-4f52-823c-72bacb62b961","ios":"levelo://app?vid=1d35ae83-3cde-4f52-823c-72bacb62b961"},"vehicle_type_id":"4","last_reported":1739873423,"current_range_meters":3600,"station_id":"ce4bh012rcd13ifvqd00","pricing_plan_id":"cebpf4jnsgd1na2vs0mg"},{"bike_id":"c06aa0e5-9150-47d2-8bae-396b7a393565","system_id":"levelo_inurba_marseille","lat":43.259167,"lon":5.408906,"is_reserved":false,"is_disabled":true,"rental_uris":{"android":"levelo://app?vid=c06aa0e5-9150-47d2-8bae-396b7a393565","ios":"levelo://app?vid=c06aa0e5-9150-47d2-8bae-396b7a393565"},"vehicle_type_id":"4","last_reported":1739873423,"current_range_meters":4000,"station_id":"ce4bhg12rcd13ifvqf60","pricing_plan_id":"cebpf4jnsgd1na2vs0mg"},{"bike_id":"62ca3dd5-376b-4477-b62b-a40f046d2c7f","system_id":"levelo_inurba_marseille","lat":43.30424,"lon":5.38885,"is_reserved":false,"is_disabled":false,"rental_uris":{"android":"levelo://app?vid=62ca3dd5-376b-4477-b62b-a40f046d2c7f","ios":"levelo://app?vid=62ca3dd5-376b-4477-b62b-a40f046d2c7f"},"vehicle_type_id":"4","last_reported":1739873423,"current_range_meters":4000,"station_id":"ce4bgk12rcd13ifvqbi0","pricing_plan_id":"cebpf4jnsgd1na2vs0mg"},{"bike_id":"a324ba45-c6d4-4f73-8626-f700ed96d025","system_id":"levelo_inurba_marseille","lat":43.30469,"lon":5.37904,"is_reserved":false,"is_disabled":false,"rental_uris":{"android":"levelo://app?vid=a324ba45-c6d4-4f73-8626-f700ed96d025","ios":"levelo://app?vid=a324ba45-c6d4-4f73-8626-f700ed96d025"},"vehicle_type_id":"4","last_reported":1739873423,"current_range_meters":4400,"station_id":"ce4bgup2rcd13ifvqcn0","pricing_plan_id":"cebpf4jnsgd1na2vs0mg"},{"bike_id":"4a3367e9-80cf-447d-ae78-02201a45d005","system_id":"levelo_inurba_marseille","lat":43.33728,"lon":5.39176,"is_reserved":false,"is_disabled":false,"rental_uris":{"android":"levelo://app?vid=4a3367e9-80cf-447d-ae78-02201a45d005","ios":"levelo://app?vid=4a3367e9-80cf-447d-ae78-02201a45d005"},"vehicle_type_id":"4","last_reported":1739873423,"current_range_meters":4800,"station_id":"ce4bhr92rcd13ifvqhsg","pricing_plan_id":"cebpf4jnsgd1na2vs0mg"},{"bike_id":"1c53f956-1cfc-4c2b-b74c-ef6d962002c1","system_id":"levelo_inurba_marseille","lat":43.27065,"lon":5.4027,"is_reserved":false,"is_disabled":false,"rental_uris":{"android":"levelo://app?vid=1c53f956-1cfc-4c2b-b74c-ef6d962002c1","ios":"levelo://app?vid=1c53f956-1cfc-4c2b-b74c-ef6d962002c1"},"vehicle_type_id":"4","last_reported":1739873423,"current_range_meters":4800,"station_id":"ce4bhk92rcd13ifvqgc0","pricing_plan_id":"cebpf4jnsgd1na2vs0mg"},{"bike_id":"b6b498c0-7543-4aaf-8981-c12b746797ce","system_id":"levelo_inurba_marseille","lat":43.24071,"lon":5.37732,"is_reserved":false,"is_disabled":false,"rental_uris":{"android":"levelo://app?vid=b6b498c0-7543-4aaf-8981-c12b746797ce","ios":"levelo://app?vid=b6b498c0-7543-4aaf-8981-c12b746797ce"},"vehicle_type_id":"4","last_reported":1739873423,"current_range_meters":6000,"station_id":"","pricing_plan_id":"cebpf4jnsgd1na2vs0mg"},{"bike_id":"63fdc26d-618b-4bf4-92eb-1d379b822335","system_id":"levelo_inurba_marseille","lat":43.30151,"lon":5.39874,"is_reserved":false,"is_disabled":false,"rental_uris":{"android":"levelo://app?vid=63fdc26d-618b-4bf4-92eb-1d379b822335","ios":"levelo://app?vid=63fdc26d-618b-4bf4-92eb-1d379b822335"},"vehicle_type_id":"4","last_reported":1739873423,"current_range_meters":6000,"station_id":"ce4bh0h2rcd13ifvqd40","pricing_plan_id":"cebpf4jnsgd1na2vs0mg"},{"bike_id":"2b278cf2-594f-4230-8154-882e1df047f2","system_id":"levelo_inurba_marseille","lat":43.24076,"lon":5.37762,"is_reserved":false,"is_disabled":false,"rental_uris":{"android":"levelo://app?vid=2b278cf2-594f-4230-8154-882e1df047f2","ios":"levelo://app?vid=2b278cf2-594f-4230-8154-882e1df047f2"},"vehicle_type_id":"4","last_reported":1739873423,"current_range_meters":6000,"station_id":"ce4bhnp2rcd13ifvqgvg","pricing_plan_id":"cebpf4jnsgd1na2vs0mg"},{"bike_id":"1b55f691-c0ea-4cb0-aa3e-869b81c06c45","system_id":"levelo_inurba_marseille","lat":43.313646,"lon":5.385026,"is_reserved":false,"is_disabled":false,"rental_uris":{"android":"levelo://app?vid=1b55f691-c0ea-4cb0-aa3e-869b81c06c45","ios":"levelo://app?vid=1b55f691-c0ea-4cb0-aa3e-869b81c06c45"},"vehicle_type_id":"4","last_reported":1739873423,"current_range_meters":6000,"station_id":"ce4bgjp2rcd13ifvqbh0","pricing_plan_id":"cebpf4jnsgd1na2vs0mg"},{"bike_id":"2c0c5268-adfa-446e-998b-c8f413c72d6b","system_id":"levelo_inurba_marseille","lat":43.28422,"lon":5.35049,"is_reserved":false,"is_disabled":true,"rental_uris":{"android":"levelo://app?vid=2c0c5268-adfa-446e-998b-c8f413c72d6b","ios":"levelo://app?vid=2c0c5268-adfa-446e-998b-c8f413c72d6b"},"vehicle_type_id":"4","last_reported":1739873423,"current_range_meters":6000,"station_id":"ce4bhbh2rcd13ifvqepg","pricing_plan_id":"cebpf4jnsgd1na2vs0mg"},{"bike_id":"5097de71-c396-47e0-82e0-62c878a0e498","system_id":"levelo_inurba_marseille","lat":43.30428,"lon":5.38892,"is_reserved":false,"is_disabled":false,"rental_uris":{"android":"levelo://app?vid=5097de71-c396-47e0-82e0-62c878a0e498","ios":"levelo://app?vid=5097de71-c396-47e0-82e0-62c878a0e498"},"vehicle_type_id":"4","last_reported":1739873423,"current_range_meters":6400,"station_id":"ce4bgk12rcd13ifvqbi0","pricing_plan_id":"cebpf4jnsgd1na2vs0mg"},{"bike_id":"47b43428-baa8-4f17-b113-3f79a1469e0a","system_id":"levelo_inurba_marseille","lat":43.27971,"lon":5.41023,"is_reserved":false,"is_disabled":false,"rental_uris":{"android":"levelo://app?vid=47b43428-baa8-4f17-b113-3f79a1469e0a","ios":"levelo://app?vid=47b43428-baa8-4f17-b113-3f79a1469e0a"},"vehicle_type_id":"4","last_reported":1739873423,"current_range_meters":6400,"station_id":"ce4bhnp2rcd13ifvqh0g","pricing_plan_id":"cebpf4jnsgd1na2vs0mg"},{"bike_id":"a5eb2cb0-6401-405a-8d80-19e0a30f5deb","system_id":"levelo_inurba_marseille","lat":43.3089,"lon":5.37218,"is_reserved":false,"is_disabled":false,"rental_uris":{"android":"levelo://app?vid=a5eb2cb0-6401-405a-8d80-19e0a30f5deb","ios":"levelo://app?vid=a5eb2cb0-6401-405a-8d80-19e0a30f5deb"},"vehicle_type_id":"4","last_reported":1739873423,"current_range_meters":6400,"station_id":"ce4bguh2rcd13ifvqckg","pricing_plan_id":"cebpf4jnsgd1na2vs0mg"},{"bike_id":"dcc5e4d0-d8bc-44ba-96bd-c2009e98dea4","system_id":"levelo_inurba_marseille","lat":43.25932,"lon":5.40914,"is_reserved":false,"is_disabled":false,"rental_uris":{"android":"levelo://app?vid=dcc5e4d0-d8bc-44ba-96bd-c2009e98dea4","ios":"levelo://app?vid=dcc5e4d0-d8bc-44ba-96bd-c2009e98dea4"},"vehicle_type_id":"4","last_reported":1739873423,"current_range_meters":6400,"station_id":"ce4bhm92rcd13ifvqglg","pricing_plan_id":"cebpf4jnsgd1na2vs0mg"},{"bike_id":"11116f31-39de-4122-9f84-04cb02ab68fe","system_id":"levelo_inurba_marseille","lat":43.30433,"lon":5.39762,"is_reserved":false,"is_disabled":false,"rental_uris":{"android":"levelo://app?vid=11116f31-39de-4122-9f84-04cb02ab68fe","ios":"levelo://app?vid=11116f31-39de-4122-9f84-04cb02ab68fe"},"vehicle_type_id":"4","last_reported":1739873423,"current_range_meters":6800,"station_id":"ce4bh092rcd13ifvqd20","pricing_plan_id":"cebpf4jnsgd1na2vs0mg"},{"bike_id":"2e5e89c3-0e0e-4cca-b25a-7707cb6d7c5d","system_id":"levelo_inurba_marseille","lat":43.27665,"lon":5.40833,"is_reserved":false,"is_disabled":false,"rental_uris":{"android":"levelo://app?vid=2e5e89c3-0e0e-4cca-b25a-7707cb6d7c5d","ios":"levelo://app?vid=2e5e89c3-0e0e-4cca-b25a-7707cb6d7c5d"},"vehicle_type_id":"4","last_reported":1739873423,"current_range_meters":6800,"station_id":"","pricing_plan_id":"cebpf4jnsgd1na2vs0mg"},{"bike_id":"3d44f9a9-8470-4c01-974a-625407d54e20","system_id":"levelo_inurba_marseille","lat":43.32474,"lon":5.36578,"is_reserved":false,"is_disabled":false,"rental_uris":{"android":"levelo://app?vid=3d44f9a9-8470-4c01-974a-625407d54e20","ios":"levelo://app?vid=3d44f9a9-8470-4c01-974a-625407d54e20"},"vehicle_type_id":"4","last_reported":1739873423,"current_range_meters":6800,"station_id":"ce4bhs12rcd13ifvqhvg","pricing_plan_id":"cebpf4jnsgd1na2vs0mg"},{"bike_id":"082899f2-db62-443b-9d51-62d93188a678","system_id":"levelo_inurba_marseille","lat":43.27196,"lon":5.40998,"is_reserved":false,"is_disabled":false,"rental_uris":{"android":"levelo://app?vid=082899f2-db62-443b-9d51-62d93188a678","ios":"levelo://app?vid=082899f2-db62-443b-9d51-62d93188a678"},"vehicle_type_id":"4","last_reported":1739873423,"current_range_meters":6800,"station_id":"ce4bhl12rcd13ifvqgf0","pricing_plan_id":"cebpf4jnsgd1na2vs0mg"},{"bike_id":"dae01438-fca8-4b04-aeee-005f5b496866","system_id":"levelo_inurba_marseille","lat":43.26557,"lon":5.3901,"is_reserved":false,"is_disabled":false,"rental_uris":{"android":"levelo://app?vid=dae01438-fca8-4b04-aeee-005f5b496866","ios":"levelo://app?vid=dae01438-fca8-4b04-aeee-005f5b496866"},"vehicle_type_id":"4","last_reported":1739873423,"current_range_meters":6800,"station_id":"ce4bhe12rcd13ifvqf30","pricing_plan_id":"cebpf4jnsgd1na2vs0mg"},{"bike_id":"6f2b3b15-b81d-4b23-9ad9-b54cf1f9c8fc","system_id":"levelo_inurba_marseille","lat":43.32563,"lon":5.4147,"is_reserved":false,"is_disabled":false,"rental_uris":{"android":"levelo://app?vid=6f2b3b15-b81d-4b23-9ad9-b54cf1f9c8fc","ios":"levelo://app?vid=6f2b3b15-b81d-4b23-9ad9-b54cf1f9c8fc"},"vehicle_type_id":"4","last_reported":1739873423,"current_range_meters":6800,"station_id":"ce4bhq12rcd13ifvqhhg","pricing_plan_id":"cebpf4jnsgd1na2vs0mg"},{"bike_id":"fa056054-6f6a-4eb6-a6ed-62516f82ddaf","system_id":"levelo_inurba_marseille","lat":43.247617,"lon":5.374514,"is_reserved":false,"is_disabled":false,"rental_uris":{"android":"levelo://app?vid=fa056054-6f6a-4eb6-a6ed-62516f82ddaf","ios":"levelo://app?vid=fa056054-6f6a-4eb6-a6ed-62516f82ddaf"},"vehicle_type_id":"4","last_reported":1739873423,"current_range_meters":6800,"station_id":"ce4bhgh2rcd13ifvqfb0","pricing_plan_id":"cebpf4jnsgd1na2vs0mg"},{"bike_id":"430110be-e494-4d47-88fd-fb2b33b394ee","system_id":"levelo_inurba_marseille","lat":43.33031,"lon":5.3905,"is_reserved":false,"is_disabled":false,"rental_uris":{"android":"levelo://app?vid=430110be-e494-4d47-88fd-fb2b33b394ee","ios":"levelo://app?vid=430110be-e494-4d47-88fd-fb2b33b394ee"},"vehicle_type_id":"4","last_reported":1739873423,"current_range_meters":7200,"station_id":"ce4bhr92rcd13ifvqhrg","pricing_plan_id":"cebpf4jnsgd1na2vs0mg"},{"bike_id":"34dc1391-a256-4af0-b6fe-18383869ac9a","system_id":"levelo_inurba_marseille","lat":43.24067,"lon":5.37753,"is_reserved":false,"is_disabled":false,"rental_uris":{"android":"levelo://app?vid=34dc1391-a256-4af0-b6fe-18383869ac9a","ios":"levelo://app?vid=34dc1391-a256-4af0-b6fe-18383869ac9a"},"vehicle_type_id":"4","last_reported":1739873423,"current_range_meters":7200,"station_id":"","pricing_plan_id":"cebpf4jnsgd1na2vs0mg"},{"bike_id":"98dafedc-f25b-409d-b3e2-803b47ffb900","system_id":"levelo_inurba_marseille","lat":43.24493,"lon":5.37255,"is_reserved":false,"is_disabled":false,"rental_uris":{"android":"levelo://app?vid=98dafedc-f25b-409d-b3e2-803b47ffb900","ios":"levelo://app?vid=98dafedc-f25b-409d-b3e2-803b47ffb900"},"vehicle_type_id":"4","last_reported":1739873423,"current_range_meters":7200,"station_id":"","pricing_plan_id":"cebpf4jnsgd1na2vs0mg"},{"bike_id":"55eb0a7c-6b29-484f-b637-0634ae3a25c8","system_id":"levelo_inurba_marseille","lat":43.25924,"lon":5.40916,"is_reserved":false,"is_disabled":false,"rental_uris":{"android":"levelo://app?vid=55eb0a7c-6b29-484f-b637-0634ae3a25c8","ios":"levelo://app?vid=55eb0a7c-6b29-484f-b637-0634ae3a25c8"},"vehicle_type_id":"4","last_reported":1739873423,"current_range_meters":8000,"station_id":"","pricing_plan_id":"cebpf4jnsgd1na2vs0mg"},{"bike_id":"1441ab16-218e-4d90-b3a7-621633692bd3","system_id":"levelo_inurba_marseille","lat":43.25719,"lon":5.41122,"is_reserved":false,"is_disabled":false,"rental_uris":{"android":"levelo://app?vid=1441ab16-218e-4d90-b3a7-621633692bd3","ios":"levelo://app?vid=1441ab16-218e-4d90-b3a7-621633692bd3"},"vehicle_type_id":"4","last_reported":1739873423,"current_range_meters":8000,"station_id":"ce4bhkp2rcd13ifvqgd0","pricing_plan_id":"cebpf4jnsgd1na2vs0mg"},{"bike_id":"0b3ecaf0-88a3-4fc7-9e23-d5d2056bbdbe","system_id":"levelo_inurba_marseille","lat":43.30958,"lon":5.39103,"is_reserved":false,"is_disabled":false,"rental_uris":{"android":"levelo://app?vid=0b3ecaf0-88a3-4fc7-9e23-d5d2056bbdbe","ios":"levelo://app?vid=0b3ecaf0-88a3-4fc7-9e23-d5d2056bbdbe"},"vehicle_type_id":"4","last_reported":1739873423,"current_range_meters":8000,"station_id":"ce4bgup2rcd13ifvqco0","pricing_plan_id":"cebpf4jnsgd1na2vs0mg"},{"bike_id":"8dbe617a-73bb-43b1-955a-f0b57c2f6fa2","system_id":"levelo_inurba_marseille","lat":43.27384,"lon":5.36274,"is_reserved":false,"is_disabled":false,"rental_uris":{"android":"levelo://app?vid=8dbe617a-73bb-43b1-955a-f0b57c2f6fa2","ios":"levelo://app?vid=8dbe617a-73bb-43b1-955a-f0b57c2f6fa2"},"vehicle_type_id":"4","last_reported":1739873423,"current_range_meters":8000,"station_id":"ce4bhbh2rcd13ifvqeo0","pricing_plan_id":"cebpf4jnsgd1na2vs0mg"},{"bike_id":"63213ce8-ab3b-490e-8b8e-c1a55a68b2ca","system_id":"levelo_inurba_marseille","lat":43.2951,"lon":5.38198,"is_reserved":false,"is_disabled":true,"rental_uris":{"android":"levelo://app?vid=63213ce8-ab3b-490e-8b8e-c1a55a68b2ca","ios":"levelo://app?vid=63213ce8-ab3b-490e-8b8e-c1a55a68b2ca"},"vehicle_type_id":"4","last_reported":1739873423,"current_range_meters":8000,"station_id":"","pricing_plan_id":"cebpf4jnsgd1na2vs0mg"},{"bike_id":"811901b7-6a39-4b98-9209-f363e05c2482","system_id":"levelo_inurba_marseille","lat":43.28159,"lon":5.42626,"is_reserved":false,"is_disabled":false,"rental_uris":{"android":"levelo://app?vid=811901b7-6a39-4b98-9209-f363e05c2482","ios":"levelo://app?vid=811901b7-6a39-4b98-9209-f363e05c2482"},"vehicle_type_id":"4","last_reported":1739873423,"current_range_meters":8400,"station_id":"ce4bhnh2rcd13ifvqgug","pricing_plan_id":"cebpf4jnsgd1na2vs0mg"},{"bike_id":"a0dfaaa5-2564-40a0-a720-c6022c8dbdf6","system_id":"levelo_inurba_marseille","lat":43.25502,"lon":5.37663,"is_reserved":false,"is_disabled":false,"rental_uris":{"android":"levelo://app?vid=a0dfaaa5-2564-40a0-a720-c6022c8dbdf6","ios":"levelo://app?vid=a0dfaaa5-2564-40a0-a720-c6022c8dbdf6"},"vehicle_type_id":"4","last_reported":1739873423,"current_range_meters":8400,"station_id":"ce4bhh12rcd13ifvqff0","pricing_plan_id":"cebpf4jnsgd1na2vs0mg"},{"bike_id":"8edd2fd8-1293-41ee-8d6f-3b2f2b027eab","system_id":"levelo_inurba_marseille","lat":43.25004,"lon":5.38952,"is_reserved":false,"is_disabled":false,"rental_uris":{"android":"levelo://app?vid=8edd2fd8-1293-41ee-8d6f-3b2f2b027eab","ios":"levelo://app?vid=8edd2fd8-1293-41ee-8d6f-3b2f2b027eab"},"vehicle_type_id":"4","last_reported":1739873423,"current_range_meters":8800,"station_id":"","pricing_plan_id":"cebpf4jnsgd1na2vs0mg"},{"bike_id":"020f9db3-6048-4a83-8c59-4acc533112c8","system_id":"levelo_inurba_marseille","lat":43.28141,"lon":5.42651,"is_reserved":false,"is_disabled":false,"rental_uris":{"android":"levelo://app?vid=020f9db3-6048-4a83-8c59-4acc533112c8","ios":"levelo://app?vid=020f9db3-6048-4a83-8c59-4acc533112c8"},"vehicle_type_id":"4","last_reported":1739873423,"current_range_meters":8800,"station_id":"ce4bhnh2rcd13ifvqgug","pricing_plan_id":"cebpf4jnsgd1na2vs0mg"},{"bike_id":"6528e792-6c2b-41ab-b102-37d30001a0e7","system_id":"levelo_inurba_marseille","lat":43.27247,"lon":5.40045,"is_reserved":false,"is_disabled":false,"rental_uris":{"android":"levelo://app?vid=6528e792-6c2b-41ab-b102-37d30001a0e7","ios":"levelo://app?vid=6528e792-6c2b-41ab-b102-37d30001a0e7"},"vehicle_type_id":"4","last_reported":1739873423,"current_range_meters":9200,"station_id":"","pricing_plan_id":"cebpf4jnsgd1na2vs0mg"},{"bike_id":"a4290ba5-f419-4917-8bc4-95f9f624755c","system_id":"levelo_inurba_marseille","lat":43.3014,"lon":5.37422,"is_reserved":false,"is_disabled":false,"rental_uris":{"android":"levelo://app?vid=a4290ba5-f419-4917-8bc4-95f9f624755c","ios":"levelo://app?vid=a4290ba5-f419-4917-8bc4-95f9f624755c"},"vehicle_type_id":"4","last_reported":1739873423,"current_range_meters":9200,"station_id":"ce4bgs92rcd13ifvqcc0","pricing_plan_id":"cebpf4jnsgd1na2vs0mg"},{"bike_id":"d0b80e7e-1b91-4b9a-b338-8f75dee4790a","system_id":"levelo_inurba_marseille","lat":43.25874,"lon":5.39905,"is_reserved":false,"is_disabled":false,"rental_uris":{"android":"levelo://app?vid=d0b80e7e-1b91-4b9a-b338-8f75dee4790a","ios":"levelo://app?vid=d0b80e7e-1b91-4b9a-b338-8f75dee4790a"},"vehicle_type_id":"4","last_reported":1739873423,"current_range_meters":9200,"station_id":"ce4bhl92rcd13ifvqghg","pricing_plan_id":"cebpf4jnsgd1na2vs0mg"},{"bike_id":"2fa7caa2-4d89-4383-babd-96f44fa588f6","system_id":"levelo_inurba_marseille","lat":43.2315,"lon":5.43725,"is_reserved":false,"is_disabled":false,"rental_uris":{"android":"levelo://app?vid=2fa7caa2-4d89-4383-babd-96f44fa588f6","ios":"levelo://app?vid=2fa7caa2-4d89-4383-babd-96f44fa588f6"},"vehicle_type_id":"4","last_reported":1739873423,"current_range_meters":9200,"station_id":"ce4bhmp2rcd13ifvqgog","pricing_plan_id":"cebpf4jnsgd1na2vs0mg"},{"bike_id":"43e58a6d-2a17-41bb-bd75-661bed22a62b","system_id":"levelo_inurba_marseille","lat":43.31194,"lon":5.38719,"is_reserved":false,"is_disabled":false,"rental_uris":{"android":"levelo://app?vid=43e58a6d-2a17-41bb-bd75-661bed22a62b","ios":"levelo://app?vid=43e58a6d-2a17-41bb-bd75-661bed22a62b"},"vehicle_type_id":"4","last_reported":1739873423,"current_range_meters":9600,"station_id":"","pricing_plan_id":"cebpf4jnsgd1na2vs0mg"},{"bike_id":"e07f02c6-d356-4a79-9ba2-2f819f67912d","system_id":"levelo_inurba_marseille","lat":43.24788,"lon":5.37454,"is_reserved":false,"is_disabled":false,"rental_uris":{"android":"levelo://app?vid=e07f02c6-d356-4a79-9ba2-2f819f67912d","ios":"levelo://app?vid=e07f02c6-d356-4a79-9ba2-2f819f67912d"},"vehicle_type_id":"4","last_reported":1739873423,"current_range_meters":9600,"station_id":"","pricing_plan_id":"cebpf4jnsgd1na2vs0mg"},{"bike_id":"09625a22-d446-4e59-8267-015f8bb79d9d","system_id":"levelo_inurba_marseille","lat":43.2408,"lon":5.37755,"is_reserved":false,"is_disabled":false,"rental_uris":{"android":"levelo://app?vid=09625a22-d446-4e59-8267-015f8bb79d9d","ios":"levelo://app?vid=09625a22-d446-4e59-8267-015f8bb79d9d"},"vehicle_type_id":"4","last_reported":1739873423,"current_range_meters":9600,"station_id":"ce4bhnp2rcd13ifvqgvg","pricing_plan_id":"cebpf4jnsgd1na2vs0mg"},{"bike_id":"6bb7ac37-d16c-4a25-b6eb-1bf8ca1b78d5","system_id":"levelo_inurba_marseille","lat":43.32568,"lon":5.41477,"is_reserved":false,"is_disabled":false,"rental_uris":{"android":"levelo://app?vid=6bb7ac37-d16c-4a25-b6eb-1bf8ca1b78d5","ios":"levelo://app?vid=6bb7ac37-d16c-4a25-b6eb-1bf8ca1b78d5"},"vehicle_type_id":"4","last_reported":1739873423,"current_range_meters":9600,"station_id":"ce4bhq12rcd13ifvqhhg","pricing_plan_id":"cebpf4jnsgd1na2vs0mg"},{"bike_id":"fc9896ce-1f52-403c-86a7-1678079c9523","system_id":"levelo_inurba_marseille","lat":43.2815,"lon":5.44182,"is_reserved":false,"is_disabled":false,"rental_uris":{"android":"levelo://app?vid=fc9896ce-1f52-403c-86a7-1678079c9523","ios":"levelo://app?vid=fc9896ce-1f52-403c-86a7-1678079c9523"},"vehicle_type_id":"4","last_reported":1739873423,"current_range_meters":9600,"station_id":"","pricing_plan_id":"cebpf4jnsgd1na2vs0mg"},{"bike_id":"08bc54c5-26e3-4a90-9b56-3a3eac219ef0","system_id":"levelo_inurba_marseille","lat":43.23341,"lon":5.40301,"is_reserved":false,"is_disabled":false,"rental_uris":{"android":"levelo://app?vid=08bc54c5-26e3-4a90-9b56-3a3eac219ef0","ios":"levelo://app?vid=08bc54c5-26e3-4a90-9b56-3a3eac219ef0"},"vehicle_type_id":"4","last_reported":1739873423,"current_range_meters":10000,"station_id":"ce4bh192rcd13ifvqdd0","pricing_plan_id":"cebpf4jnsgd1na2vs0mg"},{"bike_id":"9084f880-c05c-41d9-962e-1ab7add2848e","system_id":"levelo_inurba_marseille","lat":43.2407,"lon":5.37756,"is_reserved":false,"is_disabled":false,"rental_uris":{"android":"levelo://app?vid=9084f880-c05c-41d9-962e-1ab7add2848e","ios":"levelo://app?vid=9084f880-c05c-41d9-962e-1ab7add2848e"},"vehicle_type_id":"4","last_reported":1739873423,"current_range_meters":10000,"station_id":"ce4bhnp2rcd13ifvqgvg","pricing_plan_id":"cebpf4jnsgd1na2vs0mg"},{"bike_id":"8018eb22-ba1a-4d62-877d-b0737c61e859","system_id":"levelo_inurba_marseille","lat":43.255817,"lon":5.38221,"is_reserved":false,"is_disabled":true,"rental_uris":{"android":"levelo://app?vid=8018eb22-ba1a-4d62-877d-b0737c61e859","ios":"levelo://app?vid=8018eb22-ba1a-4d62-877d-b0737c61e859"},"vehicle_type_id":"4","last_reported":1739873423,"current_range_meters":10800,"station_id":"","pricing_plan_id":"cebpf4jnsgd1na2vs0mg"},{"bike_id":"8c59ab94-f20d-4081-8ac1-5f2160d93892","system_id":"levelo_inurba_marseille","lat":43.30555,"lon":5.36707,"is_reserved":false,"is_disabled":false,"rental_uris":{"android":"levelo://app?vid=8c59ab94-f20d-4081-8ac1-5f2160d93892","ios":"levelo://app?vid=8c59ab94-f20d-4081-8ac1-5f2160d93892"},"vehicle_type_id":"4","last_reported":1739873423,"current_range_meters":10800,"station_id":"ce4bgrp2rcd13ifvqc9g","pricing_plan_id":"cebpf4jnsgd1na2vs0mg"},{"bike_id":"7e1bcd16-719a-4da9-aa93-fa68923adaea","system_id":"levelo_inurba_marseille","lat":43.24074,"lon":5.37755,"is_reserved":false,"is_disabled":false,"rental_uris":{"android":"levelo://app?vid=7e1bcd16-719a-4da9-aa93-fa68923adaea","ios":"levelo://app?vid=7e1bcd16-719a-4da9-aa93-fa68923adaea"},"vehicle_type_id":"4","last_reported":1739873423,"current_range_meters":10800,"station_id":"ce4bhnp2rcd13ifvqgvg","pricing_plan_id":"cebpf4jnsgd1na2vs0mg"},{"bike_id":"fa26596f-385b-467a-983c-09a503967e29","system_id":"levelo_inurba_marseille","lat":43.28276,"lon":5.35083,"is_reserved":false,"is_disabled":false,"rental_uris":{"android":"levelo://app?vid=fa26596f-385b-467a-983c-09a503967e29","ios":"levelo://app?vid=fa26596f-385b-467a-983c-09a503967e29"},"vehicle_type_id":"4","last_reported":1739873423,"current_range_meters":11200,"station_id":"ce4bhbp2rcd13ifvqerg","pricing_plan_id":"cebpf4jnsgd1na2vs0mg"},{"bike_id":"ce273e93-fc8a-4602-8c33-3e23fbda5a1b","system_id":"levelo_inurba_marseille","lat":43.29547,"lon":5.37512,"is_reserved":false,"is_disabled":false,"rental_uris":{"android":"levelo://app?vid=ce273e93-fc8a-4602-8c33-3e23fbda5a1b","ios":"levelo://app?vid=ce273e93-fc8a-4602-8c33-3e23fbda5a1b"},"vehicle_type_id":"4","last_reported":1739873423,"current_range_meters":11200,"station_id":"ce4bgh92rcd13ifvqb50","pricing_plan_id":"cebpf4jnsgd1na2vs0mg"},{"bike_id":"c6d403ef-af42-41ae-9312-3a948449b260","system_id":"levelo_inurba_marseille","lat":43.27615,"lon":5.36102,"is_reserved":false,"is_disabled":false,"rental_uris":{"android":"levelo://app?vid=c6d403ef-af42-41ae-9312-3a948449b260","ios":"levelo://app?vid=c6d403ef-af42-41ae-9312-3a948449b260"},"vehicle_type_id":"4","last_reported":1739873423,"current_range_meters":11200,"station_id":"ce4bgj92rcd13ifvqbe0","pricing_plan_id":"cebpf4jnsgd1na2vs0mg"},{"bike_id":"b4f7951e-a8d9-4f42-b03f-b06ba82daa83","system_id":"levelo_inurba_marseille","lat":43.27185,"lon":5.41023,"is_reserved":false,"is_disabled":false,"rental_uris":{"android":"levelo://app?vid=b4f7951e-a8d9-4f42-b03f-b06ba82daa83","ios":"levelo://app?vid=b4f7951e-a8d9-4f42-b03f-b06ba82daa83"},"vehicle_type_id":"4","last_reported":1739873423,"current_range_meters":11600,"station_id":"ce4bhl12rcd13ifvqgf0","pricing_plan_id":"cebpf4jnsgd1na2vs0mg"},{"bike_id":"e57f9313-8443-49d5-820a-e3f0c205b6f2","system_id":"levelo_inurba_marseille","lat":43.24069,"lon":5.37753,"is_reserved":false,"is_disabled":false,"rental_uris":{"android":"levelo://app?vid=e57f9313-8443-49d5-820a-e3f0c205b6f2","ios":"levelo://app?vid=e57f9313-8443-49d5-820a-e3f0c205b6f2"},"vehicle_type_id":"4","last_reported":1739873423,"current_range_meters":11600,"station_id":"","pricing_plan_id":"cebpf4jnsgd1na2vs0mg"},{"bike_id":"cb8372d6-bad2-4555-89ad-5b495afb0b59","system_id":"levelo_inurba_marseille","lat":43.24822,"lon":5.37459,"is_reserved":false,"is_disabled":false,"rental_uris":{"android":"levelo://app?vid=cb8372d6-bad2-4555-89ad-5b495afb0b59","ios":"levelo://app?vid=cb8372d6-bad2-4555-89ad-5b495afb0b59"},"vehicle_type_id":"4","last_reported":1739873423,"current_range_meters":12000,"station_id":"ce4bhgh2rcd13ifvqfb0","pricing_plan_id":"cebpf4jnsgd1na2vs0mg"},{"bike_id":"5ba20e23-66bf-4a1e-9ae3-1484e4640f26","system_id":"levelo_inurba_marseille","lat":43.29919,"lon":5.3748,"is_reserved":false,"is_disabled":false,"rental_uris":{"android":"levelo://app?vid=5ba20e23-66bf-4a1e-9ae3-1484e4640f26","ios":"levelo://app?vid=5ba20e23-66bf-4a1e-9ae3-1484e4640f26"},"vehicle_type_id":"4","last_reported":1739873423,"current_range_meters":12400,"station_id":"","pricing_plan_id":"cebpf4jnsgd1na2vs0mg"},{"bike_id":"3eccfc18-51b1-4a32-9f00-dbe2668c8e61","system_id":"levelo_inurba_marseille","lat":43.32485,"lon":5.36576,"is_reserved":false,"is_disabled":false,"rental_uris":{"android":"levelo://app?vid=3eccfc18-51b1-4a32-9f00-dbe2668c8e61","ios":"levelo://app?vid=3eccfc18-51b1-4a32-9f00-dbe2668c8e61"},"vehicle_type_id":"4","last_reported":1739873423,"current_range_meters":12400,"station_id":"ce4bhs12rcd13ifvqhvg","pricing_plan_id":"cebpf4jnsgd1na2vs0mg"},{"bike_id":"a69fe923-bbbf-424c-834a-23b10868f7c7","system_id":"levelo_inurba_marseille","lat":43.30297,"lon":5.36883,"is_reserved":false,"is_disabled":false,"rental_uris":{"android":"levelo://app?vid=a69fe923-bbbf-424c-834a-23b10868f7c7","ios":"levelo://app?vid=a69fe923-bbbf-424c-834a-23b10868f7c7"},"vehicle_type_id":"4","last_reported":1739873423,"current_range_meters":12400,"station_id":"ce4bgqh2rcd13ifvqc5g","pricing_plan_id":"cebpf4jnsgd1na2vs0mg"},{"bike_id":"1f73d6b6-e66e-4833-bfa1-148a7786476b","system_id":"levelo_inurba_marseille","lat":43.24164,"lon":5.36398,"is_reserved":false,"is_disabled":false,"rental_uris":{"android":"levelo://app?vid=1f73d6b6-e66e-4833-bfa1-148a7786476b","ios":"levelo://app?vid=1f73d6b6-e66e-4833-bfa1-148a7786476b"},"vehicle_type_id":"4","last_reported":1739873423,"current_range_meters":12400,"station_id":"cpo36qri1sfpv3e86is0","pricing_plan_id":"cebpf4jnsgd1na2vs0mg"},{"bike_id":"ce4d7000-25b5-4b5c-9f16-89bd6e4c9780","system_id":"levelo_inurba_marseille","lat":43.30555,"lon":5.3654,"is_reserved":false,"is_disabled":false,"rental_uris":{"android":"levelo://app?vid=ce4d7000-25b5-4b5c-9f16-89bd6e4c9780","ios":"levelo://app?vid=ce4d7000-25b5-4b5c-9f16-89bd6e4c9780"},"vehicle_type_id":"4","last_reported":1739873423,"current_range_meters":12800,"station_id":"ce4bgs12rcd13ifvqcag","pricing_plan_id":"cebpf4jnsgd1na2vs0mg"},{"bike_id":"694680bb-b90d-4ded-917c-1467bce9ad9a","system_id":"levelo_inurba_marseille","lat":43.25583,"lon":5.38249,"is_reserved":false,"is_disabled":false,"rental_uris":{"android":"levelo://app?vid=694680bb-b90d-4ded-917c-1467bce9ad9a","ios":"levelo://app?vid=694680bb-b90d-4ded-917c-1467bce9ad9a"},"vehicle_type_id":"4","last_reported":1739873423,"current_range_meters":12800,"station_id":"ce4bhih2rcd13ifvqfs0","pricing_plan_id":"cebpf4jnsgd1na2vs0mg"},{"bike_id":"91bf3218-0a05-4226-acc9-b3131b7d5a8d","system_id":"levelo_inurba_marseille","lat":43.23951,"lon":5.36622,"is_reserved":false,"is_disabled":false,"rental_uris":{"android":"levelo://app?vid=91bf3218-0a05-4226-acc9-b3131b7d5a8d","ios":"levelo://app?vid=91bf3218-0a05-4226-acc9-b3131b7d5a8d"},"vehicle_type_id":"4","last_reported":1739873423,"current_range_meters":12800,"station_id":"ce4bhi12rcd13ifvqfp0","pricing_plan_id":"cebpf4jnsgd1na2vs0mg"},{"bike_id":"42c7cfa8-bce6-4834-be4f-e8fd7551245d","system_id":"levelo_inurba_marseille","lat":43.28592,"lon":5.42666,"is_reserved":false,"is_disabled":false,"rental_uris":{"android":"levelo://app?vid=42c7cfa8-bce6-4834-be4f-e8fd7551245d","ios":"levelo://app?vid=42c7cfa8-bce6-4834-be4f-e8fd7551245d"},"vehicle_type_id":"4","last_reported":1739873423,"current_range_meters":12800,"station_id":"","pricing_plan_id":"cebpf4jnsgd1na2vs0mg"},{"bike_id":"72cc0d3e-c2c3-4b8c-8154-405dd09f1fa3","system_id":"levelo_inurba_marseille","lat":43.23755,"lon":5.36436,"is_reserved":false,"is_disabled":false,"rental_uris":{"android":"levelo://app?vid=72cc0d3e-c2c3-4b8c-8154-405dd09f1fa3","ios":"levelo://app?vid=72cc0d3e-c2c3-4b8c-8154-405dd09f1fa3"},"vehicle_type_id":"4","last_reported":1739873423,"current_range_meters":12800,"station_id":"","pricing_plan_id":"cebpf4jnsgd1na2vs0mg"},{"bike_id":"e46ad52b-d861-4d04-a2c4-ea45df01633c","system_id":"levelo_inurba_marseille","lat":43.26802,"lon":5.40271,"is_reserved":false,"is_disabled":true,"rental_uris":{"android":"levelo://app?vid=e46ad52b-d861-4d04-a2c4-ea45df01633c","ios":"levelo://app?vid=e46ad52b-d861-4d04-a2c4-ea45df01633c"},"vehicle_type_id":"4","last_reported":1739873423,"current_range_meters":12800,"station_id":"ce501612rcd8frsf0b60","pricing_plan_id":"cebpf4jnsgd1na2vs0mg"},{"bike_id":"61a09da3-817e-4fdb-bb9e-edd72332690e","system_id":"levelo_inurba_marseille","lat":43.28642,"lon":5.35114,"is_reserved":false,"is_disabled":false,"rental_uris":{"android":"levelo://app?vid=61a09da3-817e-4fdb-bb9e-edd72332690e","ios":"levelo://app?vid=61a09da3-817e-4fdb-bb9e-edd72332690e"},"vehicle_type_id":"4","last_reported":1739873423,"current_range_meters":12800,"station_id":"ce4bhch2rcd13ifvqeug","pricing_plan_id":"cebpf4jnsgd1na2vs0mg"},{"bike_id":"bb4a3648-09cb-4cc2-9947-bf380533d03f","system_id":"levelo_inurba_marseille","lat":43.31693,"lon":5.37248,"is_reserved":false,"is_disabled":true,"rental_uris":{"android":"levelo://app?vid=bb4a3648-09cb-4cc2-9947-bf380533d03f","ios":"levelo://app?vid=bb4a3648-09cb-4cc2-9947-bf380533d03f"},"vehicle_type_id":"4","last_reported":1739873423,"current_range_meters":12800,"station_id":"","pricing_plan_id":"cebpf4jnsgd1na2vs0mg"},{"bike_id":"a9efa8c5-f131-4b25-834b-dd80ec614097","system_id":"levelo_inurba_marseille","lat":43.29155,"lon":5.37172,"is_reserved":false,"is_disabled":false,"rental_uris":{"android":"levelo://app?vid=a9efa8c5-f131-4b25-834b-dd80ec614097","ios":"levelo://app?vid=a9efa8c5-f131-4b25-834b-dd80ec614097"},"vehicle_type_id":"4","last_reported":1739873423,"current_range_meters":12800,"station_id":"ce4bha92rcd13ifvqeh0","pricing_plan_id":"cebpf4jnsgd1na2vs0mg"},{"bike_id":"c0df8803-022b-49d8-8e6e-f8b02cf65ba4","system_id":"levelo_inurba_marseille","lat":43.337444,"lon":5.374475,"is_reserved":false,"is_disabled":false,"rental_uris":{"android":"levelo://app?vid=c0df8803-022b-49d8-8e6e-f8b02cf65ba4","ios":"levelo://app?vid=c0df8803-022b-49d8-8e6e-f8b02cf65ba4"},"vehicle_type_id":"4","last_reported":1739873423,"current_range_meters":13600,"station_id":"","pricing_plan_id":"cebpf4jnsgd1na2vs0mg"},{"bike_id":"9c37e5d8-91f5-4a64-8eca-b67a21a3955b","system_id":"levelo_inurba_marseille","lat":43.30423,"lon":5.41308,"is_reserved":false,"is_disabled":false,"rental_uris":{"android":"levelo://app?vid=9c37e5d8-91f5-4a64-8eca-b67a21a3955b","ios":"levelo://app?vid=9c37e5d8-91f5-4a64-8eca-b67a21a3955b"},"vehicle_type_id":"4","last_reported":1739873423,"current_range_meters":14000,"station_id":"ce4bhop2rcd13ifvqh8g","pricing_plan_id":"cebpf4jnsgd1na2vs0mg"},{"bike_id":"8594b81e-6ce8-4c2f-9c33-0dedd5817a52","system_id":"levelo_inurba_marseille","lat":43.30905,"lon":5.36842,"is_reserved":false,"is_disabled":false,"rental_uris":{"android":"levelo://app?vid=8594b81e-6ce8-4c2f-9c33-0dedd5817a52","ios":"levelo://app?vid=8594b81e-6ce8-4c2f-9c33-0dedd5817a52"},"vehicle_type_id":"4","last_reported":1739873423,"current_range_meters":14000,"station_id":"ce4bgn92rcd13ifvqbvg","pricing_plan_id":"cebpf4jnsgd1na2vs0mg"},{"bike_id":"cfdb3e43-895d-4c60-9220-277ed405b18f","system_id":"levelo_inurba_marseille","lat":43.24173,"lon":5.39729,"is_reserved":false,"is_disabled":false,"rental_uris":{"android":"levelo://app?vid=cfdb3e43-895d-4c60-9220-277ed405b18f","ios":"levelo://app?vid=cfdb3e43-895d-4c60-9220-277ed405b18f"},"vehicle_type_id":"4","last_reported":1739873423,"current_range_meters":14000,"station_id":"","pricing_plan_id":"cebpf4jnsgd1na2vs0mg"},{"bike_id":"31066f7c-cd34-4cda-a3b3-c51cbe7682a1","system_id":"levelo_inurba_marseille","lat":43.28276,"lon":5.35079,"is_reserved":false,"is_disabled":false,"rental_uris":{"android":"levelo://app?vid=31066f7c-cd34-4cda-a3b3-c51cbe7682a1","ios":"levelo://app?vid=31066f7c-cd34-4cda-a3b3-c51cbe7682a1"},"vehicle_type_id":"4","last_reported":1739873423,"current_range_meters":14000,"station_id":"ce4bhbp2rcd13ifvqerg","pricing_plan_id":"cebpf4jnsgd1na2vs0mg"},{"bike_id":"0abc1ab9-ba53-43c5-97f4-7846cddaf2b2","system_id":"levelo_inurba_marseille","lat":43.26216,"lon":5.37442,"is_reserved":false,"is_disabled":false,"rental_uris":{"android":"levelo://app?vid=0abc1ab9-ba53-43c5-97f4-7846cddaf2b2","ios":"levelo://app?vid=0abc1ab9-ba53-43c5-97f4-7846cddaf2b2"},"vehicle_type_id":"4","last_reported":1739873423,"current_range_meters":14000,"station_id":"ce4bhgp2rcd13ifvqfc0","pricing_plan_id":"cebpf4jnsgd1na2vs0mg"},{"bike_id":"a81f047e-2602-4d29-8821-508c11538471","system_id":"levelo_inurba_marseille","lat":43.22922,"lon":5.3538,"is_reserved":false,"is_disabled":false,"rental_uris":{"android":"levelo://app?vid=a81f047e-2602-4d29-8821-508c11538471","ios":"levelo://app?vid=a81f047e-2602-4d29-8821-508c11538471"},"vehicle_type_id":"4","last_reported":1739873423,"current_range_meters":14400,"station_id":"cpo3532slgdg3j2ikp40","pricing_plan_id":"cebpf4jnsgd1na2vs0mg"},{"bike_id":"bcde7e0d-fced-462e-9b1a-48083a55c12e","system_id":"levelo_inurba_marseille","lat":43.309,"lon":5.3685,"is_reserved":false,"is_disabled":false,"rental_uris":{"android":"levelo://app?vid=bcde7e0d-fced-462e-9b1a-48083a55c12e","ios":"levelo://app?vid=bcde7e0d-fced-462e-9b1a-48083a55c12e"},"vehicle_type_id":"4","last_reported":1739873423,"current_range_meters":14400,"station_id":"","pricing_plan_id":"cebpf4jnsgd1na2vs0mg"},{"bike_id":"f2402a66-2842-4cdc-ad6a-1e33487b97fa","system_id":"levelo_inurba_marseille","lat":43.29421,"lon":5.37385,"is_reserved":false,"is_disabled":false,"rental_uris":{"android":"levelo://app?vid=f2402a66-2842-4cdc-ad6a-1e33487b97fa","ios":"levelo://app?vid=f2402a66-2842-4cdc-ad6a-1e33487b97fa"},"vehicle_type_id":"4","last_reported":1739873423,"current_range_meters":14000,"station_id":"ce4bgh92rcd13ifvqb50","pricing_plan_id":"cebpf4jnsgd1na2vs0mg"},{"bike_id":"56fd57aa-2651-432b-bd96-8e7f8f14d865","system_id":"levelo_inurba_marseille","lat":43.33728,"lon":5.39186,"is_reserved":false,"is_disabled":false,"rental_uris":{"android":"levelo://app?vid=56fd57aa-2651-432b-bd96-8e7f8f14d865","ios":"levelo://app?vid=56fd57aa-2651-432b-bd96-8e7f8f14d865"},"vehicle_type_id":"4","last_reported":1739873423,"current_range_meters":14000,"station_id":"ce4bhr92rcd13ifvqhsg","pricing_plan_id":"cebpf4jnsgd1na2vs0mg"},{"bike_id":"6c96a73f-ff01-463f-bd8c-14885ee904b6","system_id":"levelo_inurba_marseille","lat":43.29091,"lon":5.35738,"is_reserved":false,"is_disabled":false,"rental_uris":{"android":"levelo://app?vid=6c96a73f-ff01-463f-bd8c-14885ee904b6","ios":"levelo://app?vid=6c96a73f-ff01-463f-bd8c-14885ee904b6"},"vehicle_type_id":"4","last_reported":1739873423,"current_range_meters":14400,"station_id":"ce4bhb92rcd13ifvqen0","pricing_plan_id":"cebpf4jnsgd1na2vs0mg"},{"bike_id":"1400a585-f1ae-42e3-a2cb-583c89b26ca9","system_id":"levelo_inurba_marseille","lat":43.29276,"lon":5.40153,"is_reserved":false,"is_disabled":false,"rental_uris":{"android":"levelo://app?vid=1400a585-f1ae-42e3-a2cb-583c89b26ca9","ios":"levelo://app?vid=1400a585-f1ae-42e3-a2cb-583c89b26ca9"},"vehicle_type_id":"4","last_reported":1739873423,"current_range_meters":14800,"station_id":"ce4bh312rcd13ifvqdk0","pricing_plan_id":"cebpf4jnsgd1na2vs0mg"},{"bike_id":"eeb0e5c1-4a28-400c-b9c6-9972d89f1911","system_id":"levelo_inurba_marseille","lat":43.29307,"lon":5.3745,"is_reserved":false,"is_disabled":false,"rental_uris":{"android":"levelo://app?vid=eeb0e5c1-4a28-400c-b9c6-9972d89f1911","ios":"levelo://app?vid=eeb0e5c1-4a28-400c-b9c6-9972d89f1911"},"vehicle_type_id":"4","last_reported":1739873423,"current_range_meters":14800,"station_id":"ce4bgi12rcd13ifvqb70","pricing_plan_id":"cebpf4jnsgd1na2vs0mg"},{"bike_id":"d1dec037-ee4c-4db9-a655-1087d8ee1f4f","system_id":"levelo_inurba_marseille","lat":43.2844,"lon":5.39176,"is_reserved":false,"is_disabled":true,"rental_uris":{"android":"levelo://app?vid=d1dec037-ee4c-4db9-a655-1087d8ee1f4f","ios":"levelo://app?vid=d1dec037-ee4c-4db9-a655-1087d8ee1f4f"},"vehicle_type_id":"4","last_reported":1739873423,"current_range_meters":14800,"station_id":"","pricing_plan_id":"cebpf4jnsgd1na2vs0mg"},{"bike_id":"c046719e-1a20-47e5-8cc4-b446b979b3dc","system_id":"levelo_inurba_marseille","lat":43.30417,"lon":5.41295,"is_reserved":false,"is_disabled":false,"rental_uris":{"android":"levelo://app?vid=c046719e-1a20-47e5-8cc4-b446b979b3dc","ios":"levelo://app?vid=c046719e-1a20-47e5-8cc4-b446b979b3dc"},"vehicle_type_id":"4","last_reported":1739873423,"current_range_meters":14800,"station_id":"","pricing_plan_id":"cebpf4jnsgd1na2vs0mg"},{"bike_id":"d4c6584d-44bd-4c47-83b2-1b8d5db3aaa7","system_id":"levelo_inurba_marseille","lat":43.32091,"lon":5.36783,"is_reserved":false,"is_disabled":false,"rental_uris":{"android":"levelo://app?vid=d4c6584d-44bd-4c47-83b2-1b8d5db3aaa7","ios":"levelo://app?vid=d4c6584d-44bd-4c47-83b2-1b8d5db3aaa7"},"vehicle_type_id":"4","last_reported":1739873423,"current_range_meters":14800,"station_id":"ce4bhrh2rcd13ifvqhug","pricing_plan_id":"cebpf4jnsgd1na2vs0mg"},{"bike_id":"407e5944-557a-481f-9c3c-c2024ce7925a","system_id":"levelo_inurba_marseille","lat":43.27573,"lon":5.36092,"is_reserved":false,"is_disabled":false,"rental_uris":{"android":"levelo://app?vid=407e5944-557a-481f-9c3c-c2024ce7925a","ios":"levelo://app?vid=407e5944-557a-481f-9c3c-c2024ce7925a"},"vehicle_type_id":"4","last_reported":1739873423,"current_range_meters":15200,"station_id":"","pricing_plan_id":"cebpf4jnsgd1na2vs0mg"},{"bike_id":"7b2e3333-289d-4c57-a9af-cd5ce3c14ae4","system_id":"levelo_inurba_marseille","lat":43.246526,"lon":5.388954,"is_reserved":false,"is_disabled":false,"rental_uris":{"android":"levelo://app?vid=7b2e3333-289d-4c57-a9af-cd5ce3c14ae4","ios":"levelo://app?vid=7b2e3333-289d-4c57-a9af-cd5ce3c14ae4"},"vehicle_type_id":"4","last_reported":1739873423,"current_range_meters":15200,"station_id":"ce4bhg12rcd13ifvqf60","pricing_plan_id":"cebpf4jnsgd1na2vs0mg"},{"bike_id":"98835c18-668e-41b7-abc2-6cd3b1c42f27","system_id":"levelo_inurba_marseille","lat":43.29624,"lon":5.37736,"is_reserved":false,"is_disabled":false,"rental_uris":{"android":"levelo://app?vid=98835c18-668e-41b7-abc2-6cd3b1c42f27","ios":"levelo://app?vid=98835c18-668e-41b7-abc2-6cd3b1c42f27"},"vehicle_type_id":"4","last_reported":1739873423,"current_range_meters":15200,"station_id":"ce4bgi92rcd13ifvqb90","pricing_plan_id":"cebpf4jnsgd1na2vs0mg"},{"bike_id":"bde4e77f-cf2f-44b8-a37c-dcdd9fd3c032","system_id":"levelo_inurba_marseille","lat":43.29374,"lon":5.37843,"is_reserved":false,"is_disabled":false,"rental_uris":{"android":"levelo://app?vid=bde4e77f-cf2f-44b8-a37c-dcdd9fd3c032","ios":"levelo://app?vid=bde4e77f-cf2f-44b8-a37c-dcdd9fd3c032"},"vehicle_type_id":"4","last_reported":1739873423,"current_range_meters":15200,"station_id":"ce4bgjh2rcd13ifvqbf0","pricing_plan_id":"cebpf4jnsgd1na2vs0mg"},{"bike_id":"87e4e3d9-887e-4f25-bf58-279367bc8327","system_id":"levelo_inurba_marseille","lat":43.30662,"lon":5.40099,"is_reserved":false,"is_disabled":true,"rental_uris":{"android":"levelo://app?vid=87e4e3d9-887e-4f25-bf58-279367bc8327","ios":"levelo://app?vid=87e4e3d9-887e-4f25-bf58-279367bc8327"},"vehicle_type_id":"4","last_reported":1739873423,"current_range_meters":16000,"station_id":"ce4bh112rcd13ifvqda0","pricing_plan_id":"cebpf4jnsgd1na2vs0mg"},{"bike_id":"e5447ae4-2106-44ae-9020-008285d92136","system_id":"levelo_inurba_marseille","lat":43.30147,"lon":5.3742,"is_reserved":false,"is_disabled":false,"rental_uris":{"android":"levelo://app?vid=e5447ae4-2106-44ae-9020-008285d92136","ios":"levelo://app?vid=e5447ae4-2106-44ae-9020-008285d92136"},"vehicle_type_id":"4","last_reported":1739873423,"current_range_meters":16000,"station_id":"ce4bgs92rcd13ifvqcc0","pricing_plan_id":"cebpf4jnsgd1na2vs0mg"},{"bike_id":"60139c6e-741f-4a6d-9d59-db97fac57a92","system_id":"levelo_inurba_marseille","lat":43.32289,"lon":5.38273,"is_reserved":false,"is_disabled":false,"rental_uris":{"android":"levelo://app?vid=60139c6e-741f-4a6d-9d59-db97fac57a92","ios":"levelo://app?vid=60139c6e-741f-4a6d-9d59-db97fac57a92"},"vehicle_type_id":"4","last_reported":1739873423,"current_range_meters":16000,"station_id":"","pricing_plan_id":"cebpf4jnsgd1na2vs0mg"},{"bike_id":"9a5c519a-7b8d-4746-82db-fa931e082a88","system_id":"levelo_inurba_marseille","lat":43.32366,"lon":5.38883,"is_reserved":false,"is_disabled":false,"rental_uris":{"android":"levelo://app?vid=9a5c519a-7b8d-4746-82db-fa931e082a88","ios":"levelo://app?vid=9a5c519a-7b8d-4746-82db-fa931e082a88"},"vehicle_type_id":"4","last_reported":1739873423,"current_range_meters":16000,"station_id":"ce4bhqp2rcd13ifvqhog","pricing_plan_id":"cebpf4jnsgd1na2vs0mg"},{"bike_id":"9259b455-7b33-4ecd-817a-593a1ac7d730","system_id":"levelo_inurba_marseille","lat":43.28472,"lon":5.3842,"is_reserved":false,"is_disabled":false,"rental_uris":{"android":"levelo://app?vid=9259b455-7b33-4ecd-817a-593a1ac7d730","ios":"levelo://app?vid=9259b455-7b33-4ecd-817a-593a1ac7d730"},"vehicle_type_id":"4","last_reported":1739873423,"current_range_meters":16000,"station_id":"ce4bh512rcd13ifvqe3g","pricing_plan_id":"cebpf4jnsgd1na2vs0mg"},{"bike_id":"9444f0b1-ee63-4c08-b4c3-16d111b6017a","system_id":"levelo_inurba_marseille","lat":43.25939,"lon":5.40901,"is_reserved":false,"is_disabled":false,"rental_uris":{"android":"levelo://app?vid=9444f0b1-ee63-4c08-b4c3-16d111b6017a","ios":"levelo://app?vid=9444f0b1-ee63-4c08-b4c3-16d111b6017a"},"vehicle_type_id":"4","last_reported":1739873423,"current_range_meters":16000,"station_id":"ce4bhm92rcd13ifvqglg","pricing_plan_id":"cebpf4jnsgd1na2vs0mg"},{"bike_id":"90017611-e2b1-401c-bcbf-f9d526ffc823","system_id":"levelo_inurba_marseille","lat":43.2936,"lon":5.38332,"is_reserved":false,"is_disabled":false,"rental_uris":{"android":"levelo://app?vid=90017611-e2b1-401c-bcbf-f9d526ffc823","ios":"levelo://app?vid=90017611-e2b1-401c-bcbf-f9d526ffc823"},"vehicle_type_id":"4","last_reported":1739873423,"current_range_meters":16000,"station_id":"","pricing_plan_id":"cebpf4jnsgd1na2vs0mg"},{"bike_id":"fb5d34ef-b93b-40b7-8eaa-8f58d48a435b","system_id":"levelo_inurba_marseille","lat":43.23148,"lon":5.43709,"is_reserved":false,"is_disabled":false,"rental_uris":{"android":"levelo://app?vid=fb5d34ef-b93b-40b7-8eaa-8f58d48a435b","ios":"levelo://app?vid=fb5d34ef-b93b-40b7-8eaa-8f58d48a435b"},"vehicle_type_id":"4","last_reported":1739873423,"current_range_meters":16000,"station_id":"ce4bhmp2rcd13ifvqgog","pricing_plan_id":"cebpf4jnsgd1na2vs0mg"},{"bike_id":"8c1b6425-35d6-48a7-8fa6-960133ec665f","system_id":"levelo_inurba_marseille","lat":43.28161,"lon":5.42637,"is_reserved":false,"is_disabled":false,"rental_uris":{"android":"levelo://app?vid=8c1b6425-35d6-48a7-8fa6-960133ec665f","ios":"levelo://app?vid=8c1b6425-35d6-48a7-8fa6-960133ec665f"},"vehicle_type_id":"4","last_reported":1739873423,"current_range_meters":16400,"station_id":"ce4bhnh2rcd13ifvqgug","pricing_plan_id":"cebpf4jnsgd1na2vs0mg"},{"bike_id":"8e85c58c-42e3-469c-af62-83d570843f32","system_id":"levelo_inurba_marseille","lat":43.269089,"lon":5.402647,"is_reserved":false,"is_disabled":false,"rental_uris":{"android":"levelo://app?vid=8e85c58c-42e3-469c-af62-83d570843f32","ios":"levelo://app?vid=8e85c58c-42e3-469c-af62-83d570843f32"},"vehicle_type_id":"4","last_reported":1739873423,"current_range_meters":16400,"station_id":"cjm6bp8fraef2m0cb0m0","pricing_plan_id":"cebpf4jnsgd1na2vs0mg"},{"bike_id":"a26a99d1-68ce-48da-a3b0-615523c50419","system_id":"levelo_inurba_marseille","lat":43.23144,"lon":5.43708,"is_reserved":false,"is_disabled":false,"rental_uris":{"android":"levelo://app?vid=a26a99d1-68ce-48da-a3b0-615523c50419","ios":"levelo://app?vid=a26a99d1-68ce-48da-a3b0-615523c50419"},"vehicle_type_id":"4","last_reported":1739873423,"current_range_meters":16400,"station_id":"ce4bhmp2rcd13ifvqgog","pricing_plan_id":"cebpf4jnsgd1na2vs0mg"},{"bike_id":"6982932c-8b58-44dc-b527-b718293a6b27","system_id":"levelo_inurba_marseille","lat":43.28181,"lon":5.42656,"is_reserved":false,"is_disabled":true,"rental_uris":{"android":"levelo://app?vid=6982932c-8b58-44dc-b527-b718293a6b27","ios":"levelo://app?vid=6982932c-8b58-44dc-b527-b718293a6b27"},"vehicle_type_id":"4","last_reported":1739873423,"current_range_meters":16400,"station_id":"ce4bhnh2rcd13ifvqgug","pricing_plan_id":"cebpf4jnsgd1na2vs0mg"},{"bike_id":"a5e91aa1-f7c0-459e-be3b-17bc4d5465e5","system_id":"levelo_inurba_marseille","lat":43.26199,"lon":5.37935,"is_reserved":false,"is_disabled":false,"rental_uris":{"android":"levelo://app?vid=a5e91aa1-f7c0-459e-be3b-17bc4d5465e5","ios":"levelo://app?vid=a5e91aa1-f7c0-459e-be3b-17bc4d5465e5"},"vehicle_type_id":"4","last_reported":1739873423,"current_range_meters":16400,"station_id":"ce4bhjp2rcd13ifvqg90","pricing_plan_id":"cebpf4jnsgd1na2vs0mg"},{"bike_id":"7673a878-b9b8-49d5-aad4-4a7f723157bc","system_id":"levelo_inurba_marseille","lat":43.30459,"lon":5.37911,"is_reserved":false,"is_disabled":false,"rental_uris":{"android":"levelo://app?vid=7673a878-b9b8-49d5-aad4-4a7f723157bc","ios":"levelo://app?vid=7673a878-b9b8-49d5-aad4-4a7f723157bc"},"vehicle_type_id":"4","last_reported":1739873423,"current_range_meters":16400,"station_id":"","pricing_plan_id":"cebpf4jnsgd1na2vs0mg"},{"bike_id":"25ea9eec-29d9-4063-8007-929ebb2d1ef2","system_id":"levelo_inurba_marseille","lat":43.25498,"lon":5.37651,"is_reserved":false,"is_disabled":false,"rental_uris":{"android":"levelo://app?vid=25ea9eec-29d9-4063-8007-929ebb2d1ef2","ios":"levelo://app?vid=25ea9eec-29d9-4063-8007-929ebb2d1ef2"},"vehicle_type_id":"4","last_reported":1739873423,"current_range_meters":16400,"station_id":"ce4bhh12rcd13ifvqff0","pricing_plan_id":"cebpf4jnsgd1na2vs0mg"},{"bike_id":"3d9082ec-6735-4465-a722-7e4cdd0ded5c","system_id":"levelo_inurba_marseille","lat":43.29583,"lon":5.37513,"is_reserved":false,"is_disabled":false,"rental_uris":{"android":"levelo://app?vid=3d9082ec-6735-4465-a722-7e4cdd0ded5c","ios":"levelo://app?vid=3d9082ec-6735-4465-a722-7e4cdd0ded5c"},"vehicle_type_id":"4","last_reported":1739873423,"current_range_meters":16400,"station_id":"","pricing_plan_id":"cebpf4jnsgd1na2vs0mg"},{"bike_id":"3cdf23b6-0eff-421e-8521-cecd85649250","system_id":"levelo_inurba_marseille","lat":43.29276,"lon":5.38441,"is_reserved":false,"is_disabled":false,"rental_uris":{"android":"levelo://app?vid=3cdf23b6-0eff-421e-8521-cecd85649250","ios":"levelo://app?vid=3cdf23b6-0eff-421e-8521-cecd85649250"},"vehicle_type_id":"4","last_reported":1739873423,"current_range_meters":16400,"station_id":"ce4bh692rcd13ifvqea0","pricing_plan_id":"cebpf4jnsgd1na2vs0mg"},{"bike_id":"5c3e56f9-b7df-4b47-b1a7-e9fb85099b05","system_id":"levelo_inurba_marseille","lat":43.24553,"lon":5.39525,"is_reserved":false,"is_disabled":false,"rental_uris":{"android":"levelo://app?vid=5c3e56f9-b7df-4b47-b1a7-e9fb85099b05","ios":"levelo://app?vid=5c3e56f9-b7df-4b47-b1a7-e9fb85099b05"},"vehicle_type_id":"4","last_reported":1739873423,"current_range_meters":16800,"station_id":"ce4bhlp2rcd13ifvqgjg","pricing_plan_id":"cebpf4jnsgd1na2vs0mg"},{"bike_id":"7d2c7165-1f04-4bd7-a75e-2609b99ae28c","system_id":"levelo_inurba_marseille","lat":43.29963,"lon":5.37178,"is_reserved":false,"is_disabled":true,"rental_uris":{"android":"levelo://app?vid=7d2c7165-1f04-4bd7-a75e-2609b99ae28c","ios":"levelo://app?vid=7d2c7165-1f04-4bd7-a75e-2609b99ae28c"},"vehicle_type_id":"4","last_reported":1739873423,"current_range_meters":16800,"station_id":"ce4bgr92rcd13ifvqc7g","pricing_plan_id":"cebpf4jnsgd1na2vs0mg"},{"bike_id":"397b80cf-cbf3-4f7e-9d00-ad56509053a2","system_id":"levelo_inurba_marseille","lat":43.29214,"lon":5.39726,"is_reserved":false,"is_disabled":false,"rental_uris":{"android":"levelo://app?vid=397b80cf-cbf3-4f7e-9d00-ad56509053a2","ios":"levelo://app?vid=397b80cf-cbf3-4f7e-9d00-ad56509053a2"},"vehicle_type_id":"4","last_reported":1739873423,"current_range_meters":16800,"station_id":"","pricing_plan_id":"cebpf4jnsgd1na2vs0mg"},{"bike_id":"695e2770-608f-4ea5-b074-b223fb811be9","system_id":"levelo_inurba_marseille","lat":43.3053,"lon":5.36548,"is_reserved":false,"is_disabled":false,"rental_uris":{"android":"levelo://app?vid=695e2770-608f-4ea5-b074-b223fb811be9","ios":"levelo://app?vid=695e2770-608f-4ea5-b074-b223fb811be9"},"vehicle_type_id":"4","last_reported":1739873423,"current_range_meters":16800,"station_id":"ce4bgs12rcd13ifvqcag","pricing_plan_id":"cebpf4jnsgd1na2vs0mg"},{"bike_id":"1d63a175-89ef-49ff-9ead-dfe9ed6c22cf","system_id":"levelo_inurba_marseille","lat":43.24689,"lon":5.39441,"is_reserved":false,"is_disabled":false,"rental_uris":{"android":"levelo://app?vid=1d63a175-89ef-49ff-9ead-dfe9ed6c22cf","ios":"levelo://app?vid=1d63a175-89ef-49ff-9ead-dfe9ed6c22cf"},"vehicle_type_id":"4","last_reported":1739873423,"current_range_meters":17200,"station_id":"","pricing_plan_id":"cebpf4jnsgd1na2vs0mg"},{"bike_id":"cdb027a0-b875-4ada-92c3-2d2168720582","system_id":"levelo_inurba_marseille","lat":43.28275,"lon":5.35077,"is_reserved":false,"is_disabled":true,"rental_uris":{"android":"levelo://app?vid=cdb027a0-b875-4ada-92c3-2d2168720582","ios":"levelo://app?vid=cdb027a0-b875-4ada-92c3-2d2168720582"},"vehicle_type_id":"4","last_reported":1739873423,"current_range_meters":17200,"station_id":"","pricing_plan_id":"cebpf4jnsgd1na2vs0mg"},{"bike_id":"d3c6922c-a871-4458-87f8-8dea8a279cde","system_id":"levelo_inurba_marseille","lat":43.309013,"lon":5.371872,"is_reserved":false,"is_disabled":false,"rental_uris":{"android":"levelo://app?vid=d3c6922c-a871-4458-87f8-8dea8a279cde","ios":"levelo://app?vid=d3c6922c-a871-4458-87f8-8dea8a279cde"},"vehicle_type_id":"4","last_reported":1739873423,"current_range_meters":19200,"station_id":"ce4bguh2rcd13ifvqckg","pricing_plan_id":"cebpf4jnsgd1na2vs0mg"},{"bike_id":"5ef690e9-64d7-44be-ac91-d01a5961d73c","system_id":"levelo_inurba_marseille","lat":43.2656,"lon":5.39012,"is_reserved":false,"is_disabled":false,"rental_uris":{"android":"levelo://app?vid=5ef690e9-64d7-44be-ac91-d01a5961d73c","ios":"levelo://app?vid=5ef690e9-64d7-44be-ac91-d01a5961d73c"},"vehicle_type_id":"4","last_reported":1739873423,"current_range_meters":17600,"station_id":"ce4bhe12rcd13ifvqf30","pricing_plan_id":"cebpf4jnsgd1na2vs0mg"},{"bike_id":"6cbab6ce-f7e6-4d23-9b8d-f692ec02e2de","system_id":"levelo_inurba_marseille","lat":43.29032,"lon":5.4001,"is_reserved":false,"is_disabled":false,"rental_uris":{"android":"levelo://app?vid=6cbab6ce-f7e6-4d23-9b8d-f692ec02e2de","ios":"levelo://app?vid=6cbab6ce-f7e6-4d23-9b8d-f692ec02e2de"},"vehicle_type_id":"4","last_reported":1739873423,"current_range_meters":17600,"station_id":"","pricing_plan_id":"cebpf4jnsgd1na2vs0mg"},{"bike_id":"b7ee7074-0ed1-413c-95bf-29ca1f13818b","system_id":"levelo_inurba_marseille","lat":43.25576,"lon":5.38232,"is_reserved":false,"is_disabled":false,"rental_uris":{"android":"levelo://app?vid=b7ee7074-0ed1-413c-95bf-29ca1f13818b","ios":"levelo://app?vid=b7ee7074-0ed1-413c-95bf-29ca1f13818b"},"vehicle_type_id":"4","last_reported":1739873423,"current_range_meters":18000,"station_id":"ce4bhih2rcd13ifvqfs0","pricing_plan_id":"cebpf4jnsgd1na2vs0mg"},{"bike_id":"b090b887-73e8-41c6-b709-310500e91cbb","system_id":"levelo_inurba_marseille","lat":43.29083,"lon":5.37168,"is_reserved":false,"is_disabled":false,"rental_uris":{"android":"levelo://app?vid=b090b887-73e8-41c6-b709-310500e91cbb","ios":"levelo://app?vid=b090b887-73e8-41c6-b709-310500e91cbb"},"vehicle_type_id":"4","last_reported":1739873423,"current_range_meters":18000,"station_id":"ce4bh5p2rcd13ifvqe4g","pricing_plan_id":"cebpf4jnsgd1na2vs0mg"},{"bike_id":"064a51fa-9b5a-4796-928e-60fc921b552d","system_id":"levelo_inurba_marseille","lat":43.30915,"lon":5.36845,"is_reserved":false,"is_disabled":false,"rental_uris":{"android":"levelo://app?vid=064a51fa-9b5a-4796-928e-60fc921b552d","ios":"levelo://app?vid=064a51fa-9b5a-4796-928e-60fc921b552d"},"vehicle_type_id":"4","last_reported":1739873423,"current_range_meters":18000,"station_id":"ce4bgn92rcd13ifvqbvg","pricing_plan_id":"cebpf4jnsgd1na2vs0mg"},{"bike_id":"6bda16e6-75ce-4a1c-964d-c49f624a26ba","system_id":"levelo_inurba_marseille","lat":43.27373,"lon":5.36265,"is_reserved":false,"is_disabled":false,"rental_uris":{"android":"levelo://app?vid=6bda16e6-75ce-4a1c-964d-c49f624a26ba","ios":"levelo://app?vid=6bda16e6-75ce-4a1c-964d-c49f624a26ba"},"vehicle_type_id":"4","last_reported":1739873423,"current_range_meters":17600,"station_id":"ce4bhbh2rcd13ifvqeo0","pricing_plan_id":"cebpf4jnsgd1na2vs0mg"},{"bike_id":"22c1355e-1039-4fd9-8688-906435e4013c","system_id":"levelo_inurba_marseille","lat":43.23158,"lon":5.43725,"is_reserved":false,"is_disabled":false,"rental_uris":{"android":"levelo://app?vid=22c1355e-1039-4fd9-8688-906435e4013c","ios":"levelo://app?vid=22c1355e-1039-4fd9-8688-906435e4013c"},"vehicle_type_id":"4","last_reported":1739873423,"current_range_meters":18000,"station_id":"ce4bhmp2rcd13ifvqgog","pricing_plan_id":"cebpf4jnsgd1na2vs0mg"},{"bike_id":"baf6d894-ad10-49a9-b91a-24f60ad956f7","system_id":"levelo_inurba_marseille","lat":43.28976,"lon":5.4268,"is_reserved":false,"is_disabled":false,"rental_uris":{"android":"levelo://app?vid=baf6d894-ad10-49a9-b91a-24f60ad956f7","ios":"levelo://app?vid=baf6d894-ad10-49a9-b91a-24f60ad956f7"},"vehicle_type_id":"4","last_reported":1739873423,"current_range_meters":18000,"station_id":"","pricing_plan_id":"cebpf4jnsgd1na2vs0mg"},{"bike_id":"63e8b97d-e65a-4bbb-8d8c-a1407c4b0472","system_id":"levelo_inurba_marseille","lat":43.30427,"lon":5.39746,"is_reserved":false,"is_disabled":false,"rental_uris":{"android":"levelo://app?vid=63e8b97d-e65a-4bbb-8d8c-a1407c4b0472","ios":"levelo://app?vid=63e8b97d-e65a-4bbb-8d8c-a1407c4b0472"},"vehicle_type_id":"4","last_reported":1739873423,"current_range_meters":18000,"station_id":"ce4bh092rcd13ifvqd20","pricing_plan_id":"cebpf4jnsgd1na2vs0mg"},{"bike_id":"3a057b52-4c47-476b-927e-f322b0af127d","system_id":"levelo_inurba_marseille","lat":43.303,"lon":5.36913,"is_reserved":false,"is_disabled":false,"rental_uris":{"android":"levelo://app?vid=3a057b52-4c47-476b-927e-f322b0af127d","ios":"levelo://app?vid=3a057b52-4c47-476b-927e-f322b0af127d"},"vehicle_type_id":"4","last_reported":1739873423,"current_range_meters":18000,"station_id":"ce4bgqh2rcd13ifvqc5g","pricing_plan_id":"cebpf4jnsgd1na2vs0mg"},{"bike_id":"f77eb7d8-9434-4c05-861f-edd4244aaffc","system_id":"levelo_inurba_marseille","lat":43.25505,"lon":5.3765,"is_reserved":false,"is_disabled":false,"rental_uris":{"android":"levelo://app?vid=f77eb7d8-9434-4c05-861f-edd4244aaffc","ios":"levelo://app?vid=f77eb7d8-9434-4c05-861f-edd4244aaffc"},"vehicle_type_id":"4","last_reported":1739873423,"current_range_meters":18800,"station_id":"","pricing_plan_id":"cebpf4jnsgd1na2vs0mg"},{"bike_id":"c22b61bc-db5f-4cf0-a5cc-f88f3d521db5","system_id":"levelo_inurba_marseille","lat":43.2957,"lon":5.39968,"is_reserved":false,"is_disabled":false,"rental_uris":{"android":"levelo://app?vid=c22b61bc-db5f-4cf0-a5cc-f88f3d521db5","ios":"levelo://app?vid=c22b61bc-db5f-4cf0-a5cc-f88f3d521db5"},"vehicle_type_id":"4","last_reported":1739873423,"current_range_meters":18800,"station_id":"ce4bh312rcd13ifvqdj0","pricing_plan_id":"cebpf4jnsgd1na2vs0mg"},{"bike_id":"eb715102-e1b0-444b-990c-d34ec49d64ad","system_id":"levelo_inurba_marseille","lat":43.24183,"lon":5.39795,"is_reserved":false,"is_disabled":false,"rental_uris":{"android":"levelo://app?vid=eb715102-e1b0-444b-990c-d34ec49d64ad","ios":"levelo://app?vid=eb715102-e1b0-444b-990c-d34ec49d64ad"},"vehicle_type_id":"4","last_reported":1739873423,"current_range_meters":18800,"station_id":"ce4bhn12rcd13ifvqgpg","pricing_plan_id":"cebpf4jnsgd1na2vs0mg"},{"bike_id":"38c9f437-02d0-463a-a42d-8bc647a31926","system_id":"levelo_inurba_marseille","lat":43.23153,"lon":5.43727,"is_reserved":false,"is_disabled":false,"rental_uris":{"android":"levelo://app?vid=38c9f437-02d0-463a-a42d-8bc647a31926","ios":"levelo://app?vid=38c9f437-02d0-463a-a42d-8bc647a31926"},"vehicle_type_id":"4","last_reported":1739873423,"current_range_meters":18800,"station_id":"ce4bhmp2rcd13ifvqgog","pricing_plan_id":"cebpf4jnsgd1na2vs0mg"},{"bike_id":"274a1042-42f2-4f79-a3cd-86e29d4e0488","system_id":"levelo_inurba_marseille","lat":43.27459,"lon":5.3942,"is_reserved":false,"is_disabled":false,"rental_uris":{"android":"levelo://app?vid=274a1042-42f2-4f79-a3cd-86e29d4e0488","ios":"levelo://app?vid=274a1042-42f2-4f79-a3cd-86e29d4e0488"},"vehicle_type_id":"4","last_reported":1739873423,"current_range_meters":18800,"station_id":"ce4bhdp2rcd13ifvqf20","pricing_plan_id":"cebpf4jnsgd1na2vs0mg"},{"bike_id":"c67fb496-8441-458a-af2d-8f07c087bdd0","system_id":"levelo_inurba_marseille","lat":43.24172,"lon":5.36426,"is_reserved":false,"is_disabled":true,"rental_uris":{"android":"levelo://app?vid=c67fb496-8441-458a-af2d-8f07c087bdd0","ios":"levelo://app?vid=c67fb496-8441-458a-af2d-8f07c087bdd0"},"vehicle_type_id":"4","last_reported":1739873423,"current_range_meters":18800,"station_id":"","pricing_plan_id":"cebpf4jnsgd1na2vs0mg"},{"bike_id":"db7f2d58-492d-4297-aa78-ce0ad99a0a74","system_id":"levelo_inurba_marseille","lat":43.25915,"lon":5.40882,"is_reserved":false,"is_disabled":false,"rental_uris":{"android":"levelo://app?vid=db7f2d58-492d-4297-aa78-ce0ad99a0a74","ios":"levelo://app?vid=db7f2d58-492d-4297-aa78-ce0ad99a0a74"},"vehicle_type_id":"4","last_reported":1739873423,"current_range_meters":18800,"station_id":"ce4bhb92rcd13ifvqen0","pricing_plan_id":"cebpf4jnsgd1na2vs0mg"},{"bike_id":"572758ce-62f5-4849-b288-fda413023eea","system_id":"levelo_inurba_marseille","lat":43.29786,"lon":5.37114,"is_reserved":false,"is_disabled":false,"rental_uris":{"android":"levelo://app?vid=572758ce-62f5-4849-b288-fda413023eea","ios":"levelo://app?vid=572758ce-62f5-4849-b288-fda413023eea"},"vehicle_type_id":"4","last_reported":1739873423,"current_range_meters":18800,"station_id":"","pricing_plan_id":"cebpf4jnsgd1na2vs0mg"},{"bike_id":"fc971b16-bef3-4b6d-813c-ffc8ffa48842","system_id":"levelo_inurba_marseille","lat":43.2841,"lon":5.34986,"is_reserved":false,"is_disabled":true,"rental_uris":{"android":"levelo://app?vid=fc971b16-bef3-4b6d-813c-ffc8ffa48842","ios":"levelo://app?vid=fc971b16-bef3-4b6d-813c-ffc8ffa48842"},"vehicle_type_id":"4","last_reported":1739873423,"current_range_meters":18800,"station_id":"","pricing_plan_id":"cebpf4jnsgd1na2vs0mg"},{"bike_id":"ac230870-0df3-46a9-8510-62d4cc74a15c","system_id":"levelo_inurba_marseille","lat":43.23173,"lon":5.39989,"is_reserved":false,"is_disabled":false,"rental_uris":{"android":"levelo://app?vid=ac230870-0df3-46a9-8510-62d4cc74a15c","ios":"levelo://app?vid=ac230870-0df3-46a9-8510-62d4cc74a15c"},"vehicle_type_id":"4","last_reported":1739873423,"current_range_meters":18800,"station_id":"ce4bhn12rcd13ifvqgqg","pricing_plan_id":"cebpf4jnsgd1na2vs0mg"},{"bike_id":"3a07f41d-d119-4aee-b84a-c30402f97b40","system_id":"levelo_inurba_marseille","lat":43.32138,"lon":5.37432,"is_reserved":false,"is_disabled":false,"rental_uris":{"android":"levelo://app?vid=3a07f41d-d119-4aee-b84a-c30402f97b40","ios":"levelo://app?vid=3a07f41d-d119-4aee-b84a-c30402f97b40"},"vehicle_type_id":"4","last_reported":1739873423,"current_range_meters":18800,"station_id":"","pricing_plan_id":"cebpf4jnsgd1na2vs0mg"},{"bike_id":"f7d6dff7-c4bb-42b2-841b-f78899b36638","system_id":"levelo_inurba_marseille","lat":43.30966,"lon":5.39028,"is_reserved":false,"is_disabled":false,"rental_uris":{"android":"levelo://app?vid=f7d6dff7-c4bb-42b2-841b-f78899b36638","ios":"levelo://app?vid=f7d6dff7-c4bb-42b2-841b-f78899b36638"},"vehicle_type_id":"4","last_reported":1739873423,"current_range_meters":19200,"station_id":"ce4bgup2rcd13ifvqco0","pricing_plan_id":"cebpf4jnsgd1na2vs0mg"},{"bike_id":"1b9d44f3-da46-4838-80c8-22a5399242db","system_id":"levelo_inurba_marseille","lat":43.2706,"lon":5.40317,"is_reserved":false,"is_disabled":false,"rental_uris":{"android":"levelo://app?vid=1b9d44f3-da46-4838-80c8-22a5399242db","ios":"levelo://app?vid=1b9d44f3-da46-4838-80c8-22a5399242db"},"vehicle_type_id":"4","last_reported":1739873423,"current_range_meters":19200,"station_id":"ce4bhk92rcd13ifvqgc0","pricing_plan_id":"cebpf4jnsgd1na2vs0mg"},{"bike_id":"22196579-be9e-4f2d-b2dd-94d1ef2f58bc","system_id":"levelo_inurba_marseille","lat":43.23165,"lon":5.43734,"is_reserved":false,"is_disabled":false,"rental_uris":{"android":"levelo://app?vid=22196579-be9e-4f2d-b2dd-94d1ef2f58bc","ios":"levelo://app?vid=22196579-be9e-4f2d-b2dd-94d1ef2f58bc"},"vehicle_type_id":"4","last_reported":1739873423,"current_range_meters":19200,"station_id":"ce4bhmp2rcd13ifvqgog","pricing_plan_id":"cebpf4jnsgd1na2vs0mg"},{"bike_id":"24dd12c1-4d8a-40c0-b521-a98d2d462c41","system_id":"levelo_inurba_marseille","lat":43.24178,"lon":5.36403,"is_reserved":false,"is_disabled":false,"rental_uris":{"android":"levelo://app?vid=24dd12c1-4d8a-40c0-b521-a98d2d462c41","ios":"levelo://app?vid=24dd12c1-4d8a-40c0-b521-a98d2d462c41"},"vehicle_type_id":"4","last_reported":1739873423,"current_range_meters":19200,"station_id":"","pricing_plan_id":"cebpf4jnsgd1na2vs0mg"},{"bike_id":"be59961e-616b-4c75-97c4-c082d5d8fd20","system_id":"levelo_inurba_marseille","lat":43.24174,"lon":5.39727,"is_reserved":false,"is_disabled":false,"rental_uris":{"android":"levelo://app?vid=be59961e-616b-4c75-97c4-c082d5d8fd20","ios":"levelo://app?vid=be59961e-616b-4c75-97c4-c082d5d8fd20"},"vehicle_type_id":"4","last_reported":1739873423,"current_range_meters":19200,"station_id":"ce4bhn12rcd13ifvqgpg","pricing_plan_id":"cebpf4jnsgd1na2vs0mg"},{"bike_id":"610d1e2a-4cd6-4dd7-9a69-0477965494b1","system_id":"levelo_inurba_marseille","lat":43.24181,"lon":5.39728,"is_reserved":false,"is_disabled":false,"rental_uris":{"android":"levelo://app?vid=610d1e2a-4cd6-4dd7-9a69-0477965494b1","ios":"levelo://app?vid=610d1e2a-4cd6-4dd7-9a69-0477965494b1"},"vehicle_type_id":"4","last_reported":1739873423,"current_range_meters":19200,"station_id":"ce4bhn12rcd13ifvqgpg","pricing_plan_id":"cebpf4jnsgd1na2vs0mg"},{"bike_id":"aab56d93-547d-40cc-9ff6-b85d4684f798","system_id":"levelo_inurba_marseille","lat":43.23955,"lon":5.36635,"is_reserved":false,"is_disabled":false,"rental_uris":{"android":"levelo://app?vid=aab56d93-547d-40cc-9ff6-b85d4684f798","ios":"levelo://app?vid=aab56d93-547d-40cc-9ff6-b85d4684f798"},"vehicle_type_id":"4","last_reported":1739873423,"current_range_meters":19200,"station_id":"ce4bhi12rcd13ifvqfp0","pricing_plan_id":"cebpf4jnsgd1na2vs0mg"},{"bike_id":"65e130d9-2535-432a-b735-50728de1c01e","system_id":"levelo_inurba_marseille","lat":43.24076,"lon":5.37762,"is_reserved":false,"is_disabled":false,"rental_uris":{"android":"levelo://app?vid=65e130d9-2535-432a-b735-50728de1c01e","ios":"levelo://app?vid=65e130d9-2535-432a-b735-50728de1c01e"},"vehicle_type_id":"4","last_reported":1739873423,"current_range_meters":19600,"station_id":"","pricing_plan_id":"cebpf4jnsgd1na2vs0mg"},{"bike_id":"7b1dd2b3-fb09-4a03-b394-f1a96ddca3b3","system_id":"levelo_inurba_marseille","lat":43.25861,"lon":5.40752,"is_reserved":false,"is_disabled":false,"rental_uris":{"android":"levelo://app?vid=7b1dd2b3-fb09-4a03-b394-f1a96ddca3b3","ios":"levelo://app?vid=7b1dd2b3-fb09-4a03-b394-f1a96ddca3b3"},"vehicle_type_id":"4","last_reported":1739873423,"current_range_meters":19600,"station_id":"","pricing_plan_id":"cebpf4jnsgd1na2vs0mg"},{"bike_id":"4c89d5b5-e069-43a3-a81f-35c46913d280","system_id":"levelo_inurba_marseille","lat":43.30137,"lon":5.37411,"is_reserved":false,"is_disabled":false,"rental_uris":{"android":"levelo://app?vid=4c89d5b5-e069-43a3-a81f-35c46913d280","ios":"levelo://app?vid=4c89d5b5-e069-43a3-a81f-35c46913d280"},"vehicle_type_id":"4","last_reported":1739873423,"current_range_meters":19600,"station_id":"ce4bgs92rcd13ifvqcc0","pricing_plan_id":"cebpf4jnsgd1na2vs0mg"},{"bike_id":"5f9ede52-c720-4107-a864-980fb2608395","system_id":"levelo_inurba_marseille","lat":43.24096,"lon":5.38667,"is_reserved":false,"is_disabled":false,"rental_uris":{"android":"levelo://app?vid=5f9ede52-c720-4107-a864-980fb2608395","ios":"levelo://app?vid=5f9ede52-c720-4107-a864-980fb2608395"},"vehicle_type_id":"4","last_reported":1739873423,"current_range_meters":20000,"station_id":"","pricing_plan_id":"cebpf4jnsgd1na2vs0mg"},{"bike_id":"57428e68-6178-4a63-998d-4f2eb2a0c995","system_id":"levelo_inurba_marseille","lat":43.24165,"lon":5.36399,"is_reserved":false,"is_disabled":false,"rental_uris":{"android":"levelo://app?vid=57428e68-6178-4a63-998d-4f2eb2a0c995","ios":"levelo://app?vid=57428e68-6178-4a63-998d-4f2eb2a0c995"},"vehicle_type_id":"4","last_reported":1739873423,"current_range_meters":20000,"station_id":"cpo36qri1sfpv3e86is0","pricing_plan_id":"cebpf4jnsgd1na2vs0mg"},{"bike_id":"b768b1a6-dfb0-4283-bce3-5f90f2a7562b","system_id":"levelo_inurba_marseille","lat":43.32357,"lon":5.38918,"is_reserved":false,"is_disabled":false,"rental_uris":{"android":"levelo://app?vid=b768b1a6-dfb0-4283-bce3-5f90f2a7562b","ios":"levelo://app?vid=b768b1a6-dfb0-4283-bce3-5f90f2a7562b"},"vehicle_type_id":"4","last_reported":1739873423,"current_range_meters":20000,"station_id":"","pricing_plan_id":"cebpf4jnsgd1na2vs0mg"},{"bike_id":"1f186daf-8b53-4148-8e6f-8a423971e705","system_id":"levelo_inurba_marseille","lat":43.320376,"lon":5.415586,"is_reserved":false,"is_disabled":false,"rental_uris":{"android":"levelo://app?vid=1f186daf-8b53-4148-8e6f-8a423971e705","ios":"levelo://app?vid=1f186daf-8b53-4148-8e6f-8a423971e705"},"vehicle_type_id":"4","last_reported":1739873423,"current_range_meters":20000,"station_id":"ce4bhq92rcd13ifvqhkg","pricing_plan_id":"cebpf4jnsgd1na2vs0mg"},{"bike_id":"68572a5d-6c78-4009-9bdf-f24c5789f01f","system_id":"levelo_inurba_marseille","lat":43.32052,"lon":5.41588,"is_reserved":false,"is_disabled":false,"rental_uris":{"android":"levelo://app?vid=68572a5d-6c78-4009-9bdf-f24c5789f01f","ios":"levelo://app?vid=68572a5d-6c78-4009-9bdf-f24c5789f01f"},"vehicle_type_id":"4","last_reported":1739873423,"current_range_meters":20000,"station_id":"ce4bhq92rcd13ifvqhkg","pricing_plan_id":"cebpf4jnsgd1na2vs0mg"},{"bike_id":"7027e48e-9a77-42f1-aa4b-8acbf3423f84","system_id":"levelo_inurba_marseille","lat":43.29312,"lon":5.37182,"is_reserved":false,"is_disabled":false,"rental_uris":{"android":"levelo://app?vid=7027e48e-9a77-42f1-aa4b-8acbf3423f84","ios":"levelo://app?vid=7027e48e-9a77-42f1-aa4b-8acbf3423f84"},"vehicle_type_id":"4","last_reported":1739873423,"current_range_meters":20000,"station_id":"ce4bgh92rcd13ifvqb40","pricing_plan_id":"cebpf4jnsgd1na2vs0mg"},{"bike_id":"7735fcfe-c4a0-4d97-9990-4c31234fdef1","system_id":"levelo_inurba_marseille","lat":43.28168,"lon":5.36803,"is_reserved":false,"is_disabled":false,"rental_uris":{"android":"levelo://app?vid=7735fcfe-c4a0-4d97-9990-4c31234fdef1","ios":"levelo://app?vid=7735fcfe-c4a0-4d97-9990-4c31234fdef1"},"vehicle_type_id":"4","last_reported":1739873423,"current_range_meters":20400,"station_id":"ce4bhah2rcd13ifvqei0","pricing_plan_id":"cebpf4jnsgd1na2vs0mg"},{"bike_id":"36bb53df-48d0-43af-bc13-3fa74bb7772f","system_id":"levelo_inurba_marseille","lat":43.29274,"lon":5.40126,"is_reserved":false,"is_disabled":false,"rental_uris":{"android":"levelo://app?vid=36bb53df-48d0-43af-bc13-3fa74bb7772f","ios":"levelo://app?vid=36bb53df-48d0-43af-bc13-3fa74bb7772f"},"vehicle_type_id":"4","last_reported":1739873423,"current_range_meters":20400,"station_id":"ce4bh312rcd13ifvqdk0","pricing_plan_id":"cebpf4jnsgd1na2vs0mg"},{"bike_id":"276b8e01-d5da-4d09-b67f-81c5eeedc9cb","system_id":"levelo_inurba_marseille","lat":43.30158,"lon":5.38116,"is_reserved":false,"is_disabled":true,"rental_uris":{"android":"levelo://app?vid=276b8e01-d5da-4d09-b67f-81c5eeedc9cb","ios":"levelo://app?vid=276b8e01-d5da-4d09-b67f-81c5eeedc9cb"},"vehicle_type_id":"4","last_reported":1739873423,"current_range_meters":20400,"station_id":"","pricing_plan_id":"cebpf4jnsgd1na2vs0mg"},{"bike_id":"a0af3547-0f5a-4ee7-a39d-23ed992db956","system_id":"levelo_inurba_marseille","lat":43.23418,"lon":5.40452,"is_reserved":false,"is_disabled":false,"rental_uris":{"android":"levelo://app?vid=a0af3547-0f5a-4ee7-a39d-23ed992db956","ios":"levelo://app?vid=a0af3547-0f5a-4ee7-a39d-23ed992db956"},"vehicle_type_id":"4","last_reported":1739873423,"current_range_meters":20400,"station_id":"","pricing_plan_id":"cebpf4jnsgd1na2vs0mg"},{"bike_id":"7371a458-5614-4c34-a3ee-6e25fcfd9c7b","system_id":"levelo_inurba_marseille","lat":43.24656,"lon":5.38887,"is_reserved":false,"is_disabled":false,"rental_uris":{"android":"levelo://app?vid=7371a458-5614-4c34-a3ee-6e25fcfd9c7b","ios":"levelo://app?vid=7371a458-5614-4c34-a3ee-6e25fcfd9c7b"},"vehicle_type_id":"4","last_reported":1739873423,"current_range_meters":20400,"station_id":"ce4bhg12rcd13ifvqf60","pricing_plan_id":"cebpf4jnsgd1na2vs0mg"},{"bike_id":"30d269d1-4607-415c-8a9f-a9bb730c4ab5","system_id":"levelo_inurba_marseille","lat":43.26067,"lon":5.39384,"is_reserved":false,"is_disabled":false,"rental_uris":{"android":"levelo://app?vid=30d269d1-4607-415c-8a9f-a9bb730c4ab5","ios":"levelo://app?vid=30d269d1-4607-415c-8a9f-a9bb730c4ab5"},"vehicle_type_id":"4","last_reported":1739873423,"current_range_meters":20400,"station_id":"ce4bhh92rcd13ifvqfj0","pricing_plan_id":"cebpf4jnsgd1na2vs0mg"},{"bike_id":"5c068cf1-a900-409e-b766-58a6904ff9c9","system_id":"levelo_inurba_marseille","lat":43.28109,"lon":5.37845,"is_reserved":false,"is_disabled":false,"rental_uris":{"android":"levelo://app?vid=5c068cf1-a900-409e-b766-58a6904ff9c9","ios":"levelo://app?vid=5c068cf1-a900-409e-b766-58a6904ff9c9"},"vehicle_type_id":"4","last_reported":1739873423,"current_range_meters":20800,"station_id":"ce4bha12rcd13ifvqee0","pricing_plan_id":"cebpf4jnsgd1na2vs0mg"},{"bike_id":"5089bb88-a0cd-4434-a1a9-f3d5b67361c6","system_id":"levelo_inurba_marseille","lat":43.2438,"lon":5.38771,"is_reserved":false,"is_disabled":false,"rental_uris":{"android":"levelo://app?vid=5089bb88-a0cd-4434-a1a9-f3d5b67361c6","ios":"levelo://app?vid=5089bb88-a0cd-4434-a1a9-f3d5b67361c6"},"vehicle_type_id":"4","last_reported":1739873423,"current_range_meters":20800,"station_id":"","pricing_plan_id":"cebpf4jnsgd1na2vs0mg"},{"bike_id":"02b03526-eba4-4519-b637-bc9575720221","system_id":"levelo_inurba_marseille","lat":43.26688,"lon":5.38285,"is_reserved":false,"is_disabled":false,"rental_uris":{"android":"levelo://app?vid=02b03526-eba4-4519-b637-bc9575720221","ios":"levelo://app?vid=02b03526-eba4-4519-b637-bc9575720221"},"vehicle_type_id":"4","last_reported":1739873423,"current_range_meters":20800,"station_id":"ce4bhg92rcd13ifvqf90","pricing_plan_id":"cebpf4jnsgd1na2vs0mg"},{"bike_id":"2d5f3d7f-2433-4919-b162-6a3482238380","system_id":"levelo_inurba_marseille","lat":43.29179,"lon":5.37155,"is_reserved":false,"is_disabled":false,"rental_uris":{"android":"levelo://app?vid=2d5f3d7f-2433-4919-b162-6a3482238380","ios":"levelo://app?vid=2d5f3d7f-2433-4919-b162-6a3482238380"},"vehicle_type_id":"4","last_reported":1739873423,"current_range_meters":20400,"station_id":"ce4bha92rcd13ifvqeh0","pricing_plan_id":"cebpf4jnsgd1na2vs0mg"},{"bike_id":"c0e93f24-283c-48fd-9e59-2ccc0efe8854","system_id":"levelo_inurba_marseille","lat":43.3043,"lon":5.38889,"is_reserved":false,"is_disabled":false,"rental_uris":{"android":"levelo://app?vid=c0e93f24-283c-48fd-9e59-2ccc0efe8854","ios":"levelo://app?vid=c0e93f24-283c-48fd-9e59-2ccc0efe8854"},"vehicle_type_id":"4","last_reported":1739873423,"current_range_meters":20800,"station_id":"ce4bgk12rcd13ifvqbi0","pricing_plan_id":"cebpf4jnsgd1na2vs0mg"},{"bike_id":"fde14c94-7512-49db-b46f-7cdf4631cdec","system_id":"levelo_inurba_marseille","lat":43.258862,"lon":5.409912,"is_reserved":false,"is_disabled":false,"rental_uris":{"android":"levelo://app?vid=fde14c94-7512-49db-b46f-7cdf4631cdec","ios":"levelo://app?vid=fde14c94-7512-49db-b46f-7cdf4631cdec"},"vehicle_type_id":"4","last_reported":1739873423,"current_range_meters":20800,"station_id":"ce4bhm92rcd13ifvqglg","pricing_plan_id":"cebpf4jnsgd1na2vs0mg"},{"bike_id":"5a2de8eb-b74c-44fa-85d3-2ed0b540fc52","system_id":"levelo_inurba_marseille","lat":43.28863,"lon":5.35847,"is_reserved":false,"is_disabled":false,"rental_uris":{"android":"levelo://app?vid=5a2de8eb-b74c-44fa-85d3-2ed0b540fc52","ios":"levelo://app?vid=5a2de8eb-b74c-44fa-85d3-2ed0b540fc52"},"vehicle_type_id":"4","last_reported":1739873423,"current_range_meters":20800,"station_id":"ce4bhb12rcd13ifvqem0","pricing_plan_id":"cebpf4jnsgd1na2vs0mg"},{"bike_id":"fb1a365f-292b-45e0-8295-96b46b4c15a8","system_id":"levelo_inurba_marseille","lat":43.24844,"lon":5.41892,"is_reserved":false,"is_disabled":false,"rental_uris":{"android":"levelo://app?vid=fb1a365f-292b-45e0-8295-96b46b4c15a8","ios":"levelo://app?vid=fb1a365f-292b-45e0-8295-96b46b4c15a8"},"vehicle_type_id":"4","last_reported":1739873423,"current_range_meters":21600,"station_id":"","pricing_plan_id":"cebpf4jnsgd1na2vs0mg"},{"bike_id":"5428c4a6-2268-45c5-aff9-a5f8e308d92b","system_id":"levelo_inurba_marseille","lat":43.30912,"lon":5.37315,"is_reserved":false,"is_disabled":false,"rental_uris":{"android":"levelo://app?vid=5428c4a6-2268-45c5-aff9-a5f8e308d92b","ios":"levelo://app?vid=5428c4a6-2268-45c5-aff9-a5f8e308d92b"},"vehicle_type_id":"4","last_reported":1739873423,"current_range_meters":21600,"station_id":"ce4bguh2rcd13ifvqckg","pricing_plan_id":"cebpf4jnsgd1na2vs0mg"},{"bike_id":"3ca880fb-be5d-41b1-9e3c-19b59ea52225","system_id":"levelo_inurba_marseille","lat":43.25499,"lon":5.37673,"is_reserved":false,"is_disabled":false,"rental_uris":{"android":"levelo://app?vid=3ca880fb-be5d-41b1-9e3c-19b59ea52225","ios":"levelo://app?vid=3ca880fb-be5d-41b1-9e3c-19b59ea52225"},"vehicle_type_id":"4","last_reported":1739873423,"current_range_meters":21600,"station_id":"ce4bhh12rcd13ifvqff0","pricing_plan_id":"cebpf4jnsgd1na2vs0mg"},{"bike_id":"48784ffc-2057-4cc8-9c66-08acabd06e07","system_id":"levelo_inurba_marseille","lat":43.27663,"lon":5.38966,"is_reserved":false,"is_disabled":false,"rental_uris":{"android":"levelo://app?vid=48784ffc-2057-4cc8-9c66-08acabd06e07","ios":"levelo://app?vid=48784ffc-2057-4cc8-9c66-08acabd06e07"},"vehicle_type_id":"4","last_reported":1739873423,"current_range_meters":21600,"station_id":"ce4bhi12rcd13ifvqfo0","pricing_plan_id":"cebpf4jnsgd1na2vs0mg"},{"bike_id":"faa5627a-502d-4c4e-88a7-77f9ccde7751","system_id":"levelo_inurba_marseille","lat":43.32485,"lon":5.36575,"is_reserved":false,"is_disabled":false,"rental_uris":{"android":"levelo://app?vid=faa5627a-502d-4c4e-88a7-77f9ccde7751","ios":"levelo://app?vid=faa5627a-502d-4c4e-88a7-77f9ccde7751"},"vehicle_type_id":"4","last_reported":1739873423,"current_range_meters":21600,"station_id":"ce4bhs12rcd13ifvqhvg","pricing_plan_id":"cebpf4jnsgd1na2vs0mg"},{"bike_id":"b2acdc32-bbb5-4945-8264-bee21920a8b8","system_id":"levelo_inurba_marseille","lat":43.29841,"lon":5.36268,"is_reserved":false,"is_disabled":false,"rental_uris":{"android":"levelo://app?vid=b2acdc32-bbb5-4945-8264-bee21920a8b8","ios":"levelo://app?vid=b2acdc32-bbb5-4945-8264-bee21920a8b8"},"vehicle_type_id":"4","last_reported":1739873423,"current_range_meters":21600,"station_id":"ce4bgpp2rcd13ifvqc3g","pricing_plan_id":"cebpf4jnsgd1na2vs0mg"},{"bike_id":"eb502d45-8500-4929-b785-42da26f3aa37","system_id":"levelo_inurba_marseille","lat":43.33744,"lon":5.37454,"is_reserved":false,"is_disabled":true,"rental_uris":{"android":"levelo://app?vid=eb502d45-8500-4929-b785-42da26f3aa37","ios":"levelo://app?vid=eb502d45-8500-4929-b785-42da26f3aa37"},"vehicle_type_id":"4","last_reported":1739873423,"current_range_meters":21600,"station_id":"","pricing_plan_id":"cebpf4jnsgd1na2vs0mg"},{"bike_id":"24ae4e97-e7f0-436f-b21b-3ece91f960bf","system_id":"levelo_inurba_marseille","lat":43.24762,"lon":5.37439,"is_reserved":false,"is_disabled":false,"rental_uris":{"android":"levelo://app?vid=24ae4e97-e7f0-436f-b21b-3ece91f960bf","ios":"levelo://app?vid=24ae4e97-e7f0-436f-b21b-3ece91f960bf"},"vehicle_type_id":"4","last_reported":1739873423,"current_range_meters":21600,"station_id":"","pricing_plan_id":"cebpf4jnsgd1na2vs0mg"},{"bike_id":"d20040a2-1a6e-4cbe-bb03-cd9c03b404f2","system_id":"levelo_inurba_marseille","lat":43.31717,"lon":5.4242,"is_reserved":false,"is_disabled":true,"rental_uris":{"android":"levelo://app?vid=d20040a2-1a6e-4cbe-bb03-cd9c03b404f2","ios":"levelo://app?vid=d20040a2-1a6e-4cbe-bb03-cd9c03b404f2"},"vehicle_type_id":"4","last_reported":1739873423,"current_range_meters":21600,"station_id":"ce4bhp92rcd13ifvqhbg","pricing_plan_id":"cebpf4jnsgd1na2vs0mg"},{"bike_id":"cf133d58-bb40-49fb-98ae-a1a5c9404dba","system_id":"levelo_inurba_marseille","lat":43.25087,"lon":5.39513,"is_reserved":false,"is_disabled":false,"rental_uris":{"android":"levelo://app?vid=cf133d58-bb40-49fb-98ae-a1a5c9404dba","ios":"levelo://app?vid=cf133d58-bb40-49fb-98ae-a1a5c9404dba"},"vehicle_type_id":"4","last_reported":1739873423,"current_range_meters":22000,"station_id":"ce4bhm12rcd13ifvqgkg","pricing_plan_id":"cebpf4jnsgd1na2vs0mg"},{"bike_id":"ecbd6e29-5b86-41d0-a4bd-3518ee3bab53","system_id":"levelo_inurba_marseille","lat":43.24618,"lon":5.38893,"is_reserved":false,"is_disabled":false,"rental_uris":{"android":"levelo://app?vid=ecbd6e29-5b86-41d0-a4bd-3518ee3bab53","ios":"levelo://app?vid=ecbd6e29-5b86-41d0-a4bd-3518ee3bab53"},"vehicle_type_id":"4","last_reported":1739873423,"current_range_meters":22000,"station_id":"ce4bhg12rcd13ifvqf60","pricing_plan_id":"cebpf4jnsgd1na2vs0mg"},{"bike_id":"c67d4339-7474-4877-8c06-48f37f55b196","system_id":"levelo_inurba_marseille","lat":43.32483,"lon":5.3659,"is_reserved":false,"is_disabled":true,"rental_uris":{"android":"levelo://app?vid=c67d4339-7474-4877-8c06-48f37f55b196","ios":"levelo://app?vid=c67d4339-7474-4877-8c06-48f37f55b196"},"vehicle_type_id":"4","last_reported":1739873423,"current_range_meters":22000,"station_id":"","pricing_plan_id":"cebpf4jnsgd1na2vs0mg"},{"bike_id":"c1ddaba9-96e5-4265-b7eb-414248b43c03","system_id":"levelo_inurba_marseille","lat":43.33,"lon":5.39083,"is_reserved":false,"is_disabled":false,"rental_uris":{"android":"levelo://app?vid=c1ddaba9-96e5-4265-b7eb-414248b43c03","ios":"levelo://app?vid=c1ddaba9-96e5-4265-b7eb-414248b43c03"},"vehicle_type_id":"4","last_reported":1739873423,"current_range_meters":22000,"station_id":"ce4bhr92rcd13ifvqhrg","pricing_plan_id":"cebpf4jnsgd1na2vs0mg"},{"bike_id":"b312d147-6bbb-4605-a988-6d69df0c2ebc","system_id":"levelo_inurba_marseille","lat":43.30908,"lon":5.3685,"is_reserved":false,"is_disabled":false,"rental_uris":{"android":"levelo://app?vid=b312d147-6bbb-4605-a988-6d69df0c2ebc","ios":"levelo://app?vid=b312d147-6bbb-4605-a988-6d69df0c2ebc"},"vehicle_type_id":"4","last_reported":1739873423,"current_range_meters":22000,"station_id":"","pricing_plan_id":"cebpf4jnsgd1na2vs0mg"},{"bike_id":"f6602e77-e8fa-47d2-bb90-7755e9fb4975","system_id":"levelo_inurba_marseille","lat":43.270566,"lon":5.402655,"is_reserved":false,"is_disabled":false,"rental_uris":{"android":"levelo://app?vid=f6602e77-e8fa-47d2-bb90-7755e9fb4975","ios":"levelo://app?vid=f6602e77-e8fa-47d2-bb90-7755e9fb4975"},"vehicle_type_id":"4","last_reported":1739873423,"current_range_meters":22000,"station_id":"ce4bhk92rcd13ifvqgc0","pricing_plan_id":"cebpf4jnsgd1na2vs0mg"},{"bike_id":"da9a19f2-2028-4e60-9cce-7752d60ae428","system_id":"levelo_inurba_marseille","lat":43.244,"lon":5.371,"is_reserved":false,"is_disabled":false,"rental_uris":{"android":"levelo://app?vid=da9a19f2-2028-4e60-9cce-7752d60ae428","ios":"levelo://app?vid=da9a19f2-2028-4e60-9cce-7752d60ae428"},"vehicle_type_id":"4","last_reported":1739873423,"current_range_meters":22400,"station_id":"","pricing_plan_id":"cebpf4jnsgd1na2vs0mg"},{"bike_id":"84d13e52-68f9-4dc5-bc1b-afc409821b3d","system_id":"levelo_inurba_marseille","lat":43.26568,"lon":5.37281,"is_reserved":false,"is_disabled":false,"rental_uris":{"android":"levelo://app?vid=84d13e52-68f9-4dc5-bc1b-afc409821b3d","ios":"levelo://app?vid=84d13e52-68f9-4dc5-bc1b-afc409821b3d"},"vehicle_type_id":"4","last_reported":1739873423,"current_range_meters":22400,"station_id":"ce4bhg12rcd13ifvqf70","pricing_plan_id":"cebpf4jnsgd1na2vs0mg"},{"bike_id":"4563a4f6-aa17-4be4-b8f2-01a122027dca","system_id":"levelo_inurba_marseille","lat":43.30268,"lon":5.40081,"is_reserved":false,"is_disabled":false,"rental_uris":{"android":"levelo://app?vid=4563a4f6-aa17-4be4-b8f2-01a122027dca","ios":"levelo://app?vid=4563a4f6-aa17-4be4-b8f2-01a122027dca"},"vehicle_type_id":"4","last_reported":1739873423,"current_range_meters":22000,"station_id":"ce4bgvh2rcd13ifvqcs0","pricing_plan_id":"cebpf4jnsgd1na2vs0mg"},{"bike_id":"0396d488-6aeb-466c-a9c4-e21e0acd72cb","system_id":"levelo_inurba_marseille","lat":43.32328,"lon":5.36727,"is_reserved":false,"is_disabled":false,"rental_uris":{"android":"levelo://app?vid=0396d488-6aeb-466c-a9c4-e21e0acd72cb","ios":"levelo://app?vid=0396d488-6aeb-466c-a9c4-e21e0acd72cb"},"vehicle_type_id":"4","last_reported":1739873423,"current_range_meters":22400,"station_id":"ce4bhsh2rcd13ifvqi2g","pricing_plan_id":"cebpf4jnsgd1na2vs0mg"},{"bike_id":"b4f44304-36d4-4b74-aeb0-5c3d3e09d198","system_id":"levelo_inurba_marseille","lat":43.29076,"lon":5.37161,"is_reserved":false,"is_disabled":false,"rental_uris":{"android":"levelo://app?vid=b4f44304-36d4-4b74-aeb0-5c3d3e09d198","ios":"levelo://app?vid=b4f44304-36d4-4b74-aeb0-5c3d3e09d198"},"vehicle_type_id":"4","last_reported":1739873423,"current_range_meters":22400,"station_id":"ce4bh5p2rcd13ifvqe4g","pricing_plan_id":"cebpf4jnsgd1na2vs0mg"},{"bike_id":"f27d8168-ce97-4050-849c-93fe5508d445","system_id":"levelo_inurba_marseille","lat":43.30955,"lon":5.39622,"is_reserved":false,"is_disabled":false,"rental_uris":{"android":"levelo://app?vid=f27d8168-ce97-4050-849c-93fe5508d445","ios":"levelo://app?vid=f27d8168-ce97-4050-849c-93fe5508d445"},"vehicle_type_id":"4","last_reported":1739873423,"current_range_meters":22800,"station_id":"","pricing_plan_id":"cebpf4jnsgd1na2vs0mg"},{"bike_id":"aa8bd88f-9f59-4974-9e2e-245c73dbbd06","system_id":"levelo_inurba_marseille","lat":43.29224,"lon":5.36061,"is_reserved":false,"is_disabled":true,"rental_uris":{"android":"levelo://app?vid=aa8bd88f-9f59-4974-9e2e-245c73dbbd06","ios":"levelo://app?vid=aa8bd88f-9f59-4974-9e2e-245c73dbbd06"},"vehicle_type_id":"4","last_reported":1739873423,"current_range_meters":22800,"station_id":"","pricing_plan_id":"cebpf4jnsgd1na2vs0mg"},{"bike_id":"94ce4c1f-b676-43e1-9e28-ed9f6f6c8e2b","system_id":"levelo_inurba_marseille","lat":43.23617,"lon":5.39168,"is_reserved":false,"is_disabled":false,"rental_uris":{"android":"levelo://app?vid=94ce4c1f-b676-43e1-9e28-ed9f6f6c8e2b","ios":"levelo://app?vid=94ce4c1f-b676-43e1-9e28-ed9f6f6c8e2b"},"vehicle_type_id":"4","last_reported":1739873423,"current_range_meters":22800,"station_id":"","pricing_plan_id":"cebpf4jnsgd1na2vs0mg"},{"bike_id":"51b12f9b-406e-4397-b54f-e54534eb1b6c","system_id":"levelo_inurba_marseille","lat":43.28153,"lon":5.42647,"is_reserved":false,"is_disabled":false,"rental_uris":{"android":"levelo://app?vid=51b12f9b-406e-4397-b54f-e54534eb1b6c","ios":"levelo://app?vid=51b12f9b-406e-4397-b54f-e54534eb1b6c"},"vehicle_type_id":"4","last_reported":1739873423,"current_range_meters":22800,"station_id":"ce4bhnh2rcd13ifvqgug","pricing_plan_id":"cebpf4jnsgd1na2vs0mg"},{"bike_id":"89b0891e-671e-4b94-b8a0-bc4cd38018bf","system_id":"levelo_inurba_marseille","lat":43.24167,"lon":5.36403,"is_reserved":false,"is_disabled":false,"rental_uris":{"android":"levelo://app?vid=89b0891e-671e-4b94-b8a0-bc4cd38018bf","ios":"levelo://app?vid=89b0891e-671e-4b94-b8a0-bc4cd38018bf"},"vehicle_type_id":"4","last_reported":1739873423,"current_range_meters":22800,"station_id":"","pricing_plan_id":"cebpf4jnsgd1na2vs0mg"},{"bike_id":"53973d76-1956-4dd0-a85e-f656c4866ac3","system_id":"levelo_inurba_marseille","lat":43.30422,"lon":5.41282,"is_reserved":false,"is_disabled":false,"rental_uris":{"android":"levelo://app?vid=53973d76-1956-4dd0-a85e-f656c4866ac3","ios":"levelo://app?vid=53973d76-1956-4dd0-a85e-f656c4866ac3"},"vehicle_type_id":"4","last_reported":1739873423,"current_range_meters":22800,"station_id":"ce4bhop2rcd13ifvqh8g","pricing_plan_id":"cebpf4jnsgd1na2vs0mg"},{"bike_id":"1a54f137-627a-4225-9c70-38b8efd54215","system_id":"levelo_inurba_marseille","lat":43.29042,"lon":5.35927,"is_reserved":false,"is_disabled":false,"rental_uris":{"android":"levelo://app?vid=1a54f137-627a-4225-9c70-38b8efd54215","ios":"levelo://app?vid=1a54f137-627a-4225-9c70-38b8efd54215"},"vehicle_type_id":"4","last_reported":1739873423,"current_range_meters":22800,"station_id":"ce4bha92rcd13ifvqeg0","pricing_plan_id":"cebpf4jnsgd1na2vs0mg"},{"bike_id":"cc4ae614-f122-4bd6-9486-364b87e2775e","system_id":"levelo_inurba_marseille","lat":43.30535,"lon":5.36712,"is_reserved":false,"is_disabled":false,"rental_uris":{"android":"levelo://app?vid=cc4ae614-f122-4bd6-9486-364b87e2775e","ios":"levelo://app?vid=cc4ae614-f122-4bd6-9486-364b87e2775e"},"vehicle_type_id":"4","last_reported":1739873423,"current_range_meters":22800,"station_id":"ce4bgrp2rcd13ifvqc9g","pricing_plan_id":"cebpf4jnsgd1na2vs0mg"},{"bike_id":"5ce01a38-7a09-4e1d-a27d-8bf5fd1f395f","system_id":"levelo_inurba_marseille","lat":43.29628,"lon":5.37717,"is_reserved":false,"is_disabled":false,"rental_uris":{"android":"levelo://app?vid=5ce01a38-7a09-4e1d-a27d-8bf5fd1f395f","ios":"levelo://app?vid=5ce01a38-7a09-4e1d-a27d-8bf5fd1f395f"},"vehicle_type_id":"4","last_reported":1739873423,"current_range_meters":22800,"station_id":"ce4bgi92rcd13ifvqb90","pricing_plan_id":"cebpf4jnsgd1na2vs0mg"},{"bike_id":"bccd2964-359c-4e85-8cd9-35defe4a19d6","system_id":"levelo_inurba_marseille","lat":43.24061,"lon":5.37742,"is_reserved":false,"is_disabled":false,"rental_uris":{"android":"levelo://app?vid=bccd2964-359c-4e85-8cd9-35defe4a19d6","ios":"levelo://app?vid=bccd2964-359c-4e85-8cd9-35defe4a19d6"},"vehicle_type_id":"4","last_reported":1739873423,"current_range_meters":22800,"station_id":"ce4bhnp2rcd13ifvqgvg","pricing_plan_id":"cebpf4jnsgd1na2vs0mg"},{"bike_id":"92ca6206-3909-43fe-b28c-e3228e1a3a45","system_id":"levelo_inurba_marseille","lat":43.25446,"lon":5.38285,"is_reserved":false,"is_disabled":false,"rental_uris":{"android":"levelo://app?vid=92ca6206-3909-43fe-b28c-e3228e1a3a45","ios":"levelo://app?vid=92ca6206-3909-43fe-b28c-e3228e1a3a45"},"vehicle_type_id":"4","last_reported":1739873423,"current_range_meters":22800,"station_id":"","pricing_plan_id":"cebpf4jnsgd1na2vs0mg"},{"bike_id":"d9102e21-6294-472e-8da2-16dfb746ec2b","system_id":"levelo_inurba_marseille","lat":43.28115,"lon":5.44589,"is_reserved":false,"is_disabled":false,"rental_uris":{"android":"levelo://app?vid=d9102e21-6294-472e-8da2-16dfb746ec2b","ios":"levelo://app?vid=d9102e21-6294-472e-8da2-16dfb746ec2b"},"vehicle_type_id":"4","last_reported":1739873423,"current_range_meters":22800,"station_id":"ce4bhnh2rcd13ifvqgtg","pricing_plan_id":"cebpf4jnsgd1na2vs0mg"},{"bike_id":"574fee3f-588e-468d-82de-94207e4c6943","system_id":"levelo_inurba_marseille","lat":43.31235,"lon":5.3687,"is_reserved":false,"is_disabled":false,"rental_uris":{"android":"levelo://app?vid=574fee3f-588e-468d-82de-94207e4c6943","ios":"levelo://app?vid=574fee3f-588e-468d-82de-94207e4c6943"},"vehicle_type_id":"4","last_reported":1739873423,"current_range_meters":22800,"station_id":"ce4bgl92rcd13ifvqbq0","pricing_plan_id":"cebpf4jnsgd1na2vs0mg"},{"bike_id":"e5d5e368-6cf3-49c9-a43e-653a492e9e45","system_id":"levelo_inurba_marseille","lat":43.34204,"lon":5.37291,"is_reserved":false,"is_disabled":false,"rental_uris":{"android":"levelo://app?vid=e5d5e368-6cf3-49c9-a43e-653a492e9e45","ios":"levelo://app?vid=e5d5e368-6cf3-49c9-a43e-653a492e9e45"},"vehicle_type_id":"4","last_reported":1739873423,"current_range_meters":23200,"station_id":"","pricing_plan_id":"cebpf4jnsgd1na2vs0mg"},{"bike_id":"b3d77e87-a272-4116-9fe2-ed878a3c9216","system_id":"levelo_inurba_marseille","lat":43.27754,"lon":5.43358,"is_reserved":false,"is_disabled":false,"rental_uris":{"android":"levelo://app?vid=b3d77e87-a272-4116-9fe2-ed878a3c9216","ios":"levelo://app?vid=b3d77e87-a272-4116-9fe2-ed878a3c9216"},"vehicle_type_id":"4","last_reported":1739873423,"current_range_meters":23200,"station_id":"","pricing_plan_id":"cebpf4jnsgd1na2vs0mg"},{"bike_id":"20d63ce9-1a6b-4b30-ab24-8a2dd5d474e4","system_id":"levelo_inurba_marseille","lat":43.30957,"lon":5.39036,"is_reserved":false,"is_disabled":false,"rental_uris":{"android":"levelo://app?vid=20d63ce9-1a6b-4b30-ab24-8a2dd5d474e4","ios":"levelo://app?vid=20d63ce9-1a6b-4b30-ab24-8a2dd5d474e4"},"vehicle_type_id":"4","last_reported":1739873423,"current_range_meters":23200,"station_id":"ce4bgup2rcd13ifvqco0","pricing_plan_id":"cebpf4jnsgd1na2vs0mg"},{"bike_id":"0d4ff22d-08c9-46ce-a58c-5c077bf08a9e","system_id":"levelo_inurba_marseille","lat":43.30303,"lon":5.36912,"is_reserved":false,"is_disabled":false,"rental_uris":{"android":"levelo://app?vid=0d4ff22d-08c9-46ce-a58c-5c077bf08a9e","ios":"levelo://app?vid=0d4ff22d-08c9-46ce-a58c-5c077bf08a9e"},"vehicle_type_id":"4","last_reported":1739873423,"current_range_meters":23200,"station_id":"ce4bgqh2rcd13ifvqc5g","pricing_plan_id":"cebpf4jnsgd1na2vs0mg"},{"bike_id":"75430720-4fb1-4f48-886b-9bf4dd75fd13","system_id":"levelo_inurba_marseille","lat":43.30965,"lon":5.3903,"is_reserved":false,"is_disabled":false,"rental_uris":{"android":"levelo://app?vid=75430720-4fb1-4f48-886b-9bf4dd75fd13","ios":"levelo://app?vid=75430720-4fb1-4f48-886b-9bf4dd75fd13"},"vehicle_type_id":"4","last_reported":1739873423,"current_range_meters":22800,"station_id":"","pricing_plan_id":"cebpf4jnsgd1na2vs0mg"},{"bike_id":"48593bc2-cf3d-4b39-a035-e1852f330d0e","system_id":"levelo_inurba_marseille","lat":43.30534,"lon":5.36711,"is_reserved":false,"is_disabled":false,"rental_uris":{"android":"levelo://app?vid=48593bc2-cf3d-4b39-a035-e1852f330d0e","ios":"levelo://app?vid=48593bc2-cf3d-4b39-a035-e1852f330d0e"},"vehicle_type_id":"4","last_reported":1739873423,"current_range_meters":23200,"station_id":"ce4bgrp2rcd13ifvqc9g","pricing_plan_id":"cebpf4jnsgd1na2vs0mg"},{"bike_id":"731075f9-9d39-4c76-aeeb-63db11f53970","system_id":"levelo_inurba_marseille","lat":43.30922,"lon":5.4015,"is_reserved":false,"is_disabled":false,"rental_uris":{"android":"levelo://app?vid=731075f9-9d39-4c76-aeeb-63db11f53970","ios":"levelo://app?vid=731075f9-9d39-4c76-aeeb-63db11f53970"},"vehicle_type_id":"4","last_reported":1739873423,"current_range_meters":23200,"station_id":"","pricing_plan_id":"cebpf4jnsgd1na2vs0mg"},{"bike_id":"a0ab87bf-4572-4477-bb77-0112b3dd9175","system_id":"levelo_inurba_marseille","lat":43.3248,"lon":5.36581,"is_reserved":false,"is_disabled":false,"rental_uris":{"android":"levelo://app?vid=a0ab87bf-4572-4477-bb77-0112b3dd9175","ios":"levelo://app?vid=a0ab87bf-4572-4477-bb77-0112b3dd9175"},"vehicle_type_id":"4","last_reported":1739873423,"current_range_meters":23200,"station_id":"ce4bhs12rcd13ifvqhvg","pricing_plan_id":"cebpf4jnsgd1na2vs0mg"},{"bike_id":"c25c8c1f-24c9-44a7-8ed8-d70ccc2169a1","system_id":"levelo_inurba_marseille","lat":43.24028,"lon":5.37735,"is_reserved":false,"is_disabled":false,"rental_uris":{"android":"levelo://app?vid=c25c8c1f-24c9-44a7-8ed8-d70ccc2169a1","ios":"levelo://app?vid=c25c8c1f-24c9-44a7-8ed8-d70ccc2169a1"},"vehicle_type_id":"4","last_reported":1739873423,"current_range_meters":23200,"station_id":"ce4bhnp2rcd13ifvqgvg","pricing_plan_id":"cebpf4jnsgd1na2vs0mg"},{"bike_id":"8becd64c-893d-4a08-8876-b1598e031c70","system_id":"levelo_inurba_marseille","lat":43.27961,"lon":5.38754,"is_reserved":false,"is_disabled":true,"rental_uris":{"android":"levelo://app?vid=8becd64c-893d-4a08-8876-b1598e031c70","ios":"levelo://app?vid=8becd64c-893d-4a08-8876-b1598e031c70"},"vehicle_type_id":"4","last_reported":1739873423,"current_range_meters":24000,"station_id":"","pricing_plan_id":"cebpf4jnsgd1na2vs0mg"},{"bike_id":"b089674d-53e8-473f-980b-abdc917c4bf9","system_id":"levelo_inurba_marseille","lat":43.311715,"lon":5.387198,"is_reserved":false,"is_disabled":false,"rental_uris":{"android":"levelo://app?vid=b089674d-53e8-473f-980b-abdc917c4bf9","ios":"levelo://app?vid=b089674d-53e8-473f-980b-abdc917c4bf9"},"vehicle_type_id":"4","last_reported":1739873423,"current_range_meters":24000,"station_id":"","pricing_plan_id":"cebpf4jnsgd1na2vs0mg"},{"bike_id":"003c44c1-3cd5-48e6-afbd-3e395aa9e710","system_id":"levelo_inurba_marseille","lat":43.29903,"lon":5.43657,"is_reserved":false,"is_disabled":false,"rental_uris":{"android":"levelo://app?vid=003c44c1-3cd5-48e6-afbd-3e395aa9e710","ios":"levelo://app?vid=003c44c1-3cd5-48e6-afbd-3e395aa9e710"},"vehicle_type_id":"4","last_reported":1739873423,"current_range_meters":24000,"station_id":"ce4bhpp2rcd13ifvqhfg","pricing_plan_id":"cebpf4jnsgd1na2vs0mg"},{"bike_id":"ac375cf7-2c4f-4ca0-a538-d4e924f7ea11","system_id":"levelo_inurba_marseille","lat":43.30799,"lon":5.38162,"is_reserved":false,"is_disabled":false,"rental_uris":{"android":"levelo://app?vid=ac375cf7-2c4f-4ca0-a538-d4e924f7ea11","ios":"levelo://app?vid=ac375cf7-2c4f-4ca0-a538-d4e924f7ea11"},"vehicle_type_id":"4","last_reported":1739873423,"current_range_meters":24000,"station_id":"ce4bgt12rcd13ifvqce0","pricing_plan_id":"cebpf4jnsgd1na2vs0mg"},{"bike_id":"64cc0f0e-64ac-40fb-8579-1daae4142fb2","system_id":"levelo_inurba_marseille","lat":43.23962,"lon":5.36625,"is_reserved":false,"is_disabled":false,"rental_uris":{"android":"levelo://app?vid=64cc0f0e-64ac-40fb-8579-1daae4142fb2","ios":"levelo://app?vid=64cc0f0e-64ac-40fb-8579-1daae4142fb2"},"vehicle_type_id":"4","last_reported":1739873423,"current_range_meters":24000,"station_id":"","pricing_plan_id":"cebpf4jnsgd1na2vs0mg"},{"bike_id":"2473f5be-dd85-40bd-a031-741d05a1a075","system_id":"levelo_inurba_marseille","lat":43.3095,"lon":5.39038,"is_reserved":false,"is_disabled":false,"rental_uris":{"android":"levelo://app?vid=2473f5be-dd85-40bd-a031-741d05a1a075","ios":"levelo://app?vid=2473f5be-dd85-40bd-a031-741d05a1a075"},"vehicle_type_id":"4","last_reported":1739873423,"current_range_meters":24000,"station_id":"ce4bgup2rcd13ifvqco0","pricing_plan_id":"cebpf4jnsgd1na2vs0mg"},{"bike_id":"416fccc6-a67b-45c1-b812-5c22f5fed609","system_id":"levelo_inurba_marseille","lat":43.30137,"lon":5.37411,"is_reserved":false,"is_disabled":false,"rental_uris":{"android":"levelo://app?vid=416fccc6-a67b-45c1-b812-5c22f5fed609","ios":"levelo://app?vid=416fccc6-a67b-45c1-b812-5c22f5fed609"},"vehicle_type_id":"4","last_reported":1739873423,"current_range_meters":24000,"station_id":"ce4bgs92rcd13ifvqcc0","pricing_plan_id":"cebpf4jnsgd1na2vs0mg"},{"bike_id":"f7082bf0-291d-4f19-8aea-caa1d9f5d823","system_id":"levelo_inurba_marseille","lat":43.27103,"lon":5.38703,"is_reserved":false,"is_disabled":false,"rental_uris":{"android":"levelo://app?vid=f7082bf0-291d-4f19-8aea-caa1d9f5d823","ios":"levelo://app?vid=f7082bf0-291d-4f19-8aea-caa1d9f5d823"},"vehicle_type_id":"4","last_reported":1739873423,"current_range_meters":24000,"station_id":"","pricing_plan_id":"cebpf4jnsgd1na2vs0mg"},{"bike_id":"0dad2052-0dec-40ad-98e8-244b00af0a54","system_id":"levelo_inurba_marseille","lat":43.2481,"lon":5.37446,"is_reserved":false,"is_disabled":false,"rental_uris":{"android":"levelo://app?vid=0dad2052-0dec-40ad-98e8-244b00af0a54","ios":"levelo://app?vid=0dad2052-0dec-40ad-98e8-244b00af0a54"},"vehicle_type_id":"4","last_reported":1739873423,"current_range_meters":24000,"station_id":"","pricing_plan_id":"cebpf4jnsgd1na2vs0mg"},{"bike_id":"4d992217-9312-4c6e-816c-125bfad16b58","system_id":"levelo_inurba_marseille","lat":43.255,"lon":5.3771,"is_reserved":false,"is_disabled":false,"rental_uris":{"android":"levelo://app?vid=4d992217-9312-4c6e-816c-125bfad16b58","ios":"levelo://app?vid=4d992217-9312-4c6e-816c-125bfad16b58"},"vehicle_type_id":"4","last_reported":1739873423,"current_range_meters":24000,"station_id":"ce4bhg92rcd13ifvqf90","pricing_plan_id":"cebpf4jnsgd1na2vs0mg"},{"bike_id":"52ebe0df-158d-4ab0-8c77-2e547ec0cc49","system_id":"levelo_inurba_marseille","lat":43.29804,"lon":5.40431,"is_reserved":false,"is_disabled":true,"rental_uris":{"android":"levelo://app?vid=52ebe0df-158d-4ab0-8c77-2e547ec0cc49","ios":"levelo://app?vid=52ebe0df-158d-4ab0-8c77-2e547ec0cc49"},"vehicle_type_id":"4","last_reported":1739873423,"current_range_meters":24000,"station_id":"ce4bh112rcd13ifvqd90","pricing_plan_id":"cebpf4jnsgd1na2vs0mg"},{"bike_id":"0b1a3b32-459a-4ff9-a388-d16482304482","system_id":"levelo_inurba_marseille","lat":43.27999,"lon":5.40015,"is_reserved":false,"is_disabled":true,"rental_uris":{"android":"levelo://app?vid=0b1a3b32-459a-4ff9-a388-d16482304482","ios":"levelo://app?vid=0b1a3b32-459a-4ff9-a388-d16482304482"},"vehicle_type_id":"4","last_reported":1739873423,"current_range_meters":24400,"station_id":"","pricing_plan_id":"cebpf4jnsgd1na2vs0mg"},{"bike_id":"43ed5bb7-0746-4957-a509-ad5d8a0a3c87","system_id":"levelo_inurba_marseille","lat":43.29277,"lon":5.36851,"is_reserved":false,"is_disabled":false,"rental_uris":{"android":"levelo://app?vid=43ed5bb7-0746-4957-a509-ad5d8a0a3c87","ios":"levelo://app?vid=43ed5bb7-0746-4957-a509-ad5d8a0a3c87"},