{"last_updated":1744143008,"ttl":60,"version":"2.2","data":{"bikes":[{"bike_id":"f3101396-96fc-4549-b8e9-eb67c8c4bb73","system_id":"levelo_inurba_marseille","lat":43.28459,"lon":5.38488,"is_reserved":false,"is_disabled":false,"rental_uris":{"android":"levelo://app?vid=f3101396-96fc-4549-b8e9-eb67c8c4bb73","ios":"levelo://app?vid=f3101396-96fc-4549-b8e9-eb67c8c4bb73"},"vehicle_type_id":"4","last_reported":1744143008,"current_range_meters":2800,"station_id":"ce4bh8p2rcd13ifvqeb0","pricing_plan_id":"cebpf4jnsgd1na2vs0mg"},{"bike_id":"b41f4dd3-168d-48cc-ab04-55ebc8ba8438","system_id":"levelo_inurba_marseille","lat":43.29525,"lon":5.3904,"is_reserved":false,"is_disabled":false,"rental_uris":{"android":"levelo://app?vid=b41f4dd3-168d-48cc-ab04-55ebc8ba8438","ios":"levelo://app?vid=b41f4dd3-168d-48cc-ab04-55ebc8ba8438"},"vehicle_type_id":"4","last_reported":1744143008,"current_range_meters":2800,"station_id":"ce4bh3p2rcd13ifvqdp0","pricing_plan_id":"cebpf4jnsgd1na2vs0mg"},{"bike_id":"e615de16-bf28-45aa-8c0a-faafe76bdcdc","system_id":"levelo_inurba_marseille","lat":43.313367,"lon":5.396905,"is_reserved":false,"is_disabled":true,"rental_uris":{"android":"levelo://app?vid=e615de16-bf28-45aa-8c0a-faafe76bdcdc","ios":"levelo://app?vid=e615de16-bf28-45aa-8c0a-faafe76bdcdc"},"vehicle_type_id":"4","last_reported":1744143008,"current_range_meters":3200,"station_id":"ce4bgvp2rcd13ifvqcu0","pricing_plan_id":"cebpf4jnsgd1na2vs0mg"},{"bike_id":"67f16b0a-86f9-442c-9174-4829f064ed25","system_id":"levelo_inurba_marseille","lat":43.26685,"lon":5.3827,"is_reserved":false,"is_disabled":false,"rental_uris":{"android":"levelo://app?vid=67f16b0a-86f9-442c-9174-4829f064ed25","ios":"levelo://app?vid=67f16b0a-86f9-442c-9174-4829f064ed25"},"vehicle_type_id":"4","last_reported":1744143008,"current_range_meters":3200,"station_id":"ce4bhg92rcd13ifvqf90","pricing_plan_id":"cebpf4jnsgd1na2vs0mg"},{"bike_id":"6e693f9e-7590-4078-ae6c-e8ab9232d0dd","system_id":"levelo_inurba_marseille","lat":43.26208,"lon":5.37439,"is_reserved":false,"is_disabled":false,"rental_uris":{"android":"levelo://app?vid=6e693f9e-7590-4078-ae6c-e8ab9232d0dd","ios":"levelo://app?vid=6e693f9e-7590-4078-ae6c-e8ab9232d0dd"},"vehicle_type_id":"4","last_reported":1744143008,"current_range_meters":3200,"station_id":"ce4bhgp2rcd13ifvqfc0","pricing_plan_id":"cebpf4jnsgd1na2vs0mg"},{"bike_id":"560e17bf-ac37-4844-88f0-aa3a929cf095","system_id":"levelo_inurba_marseille","lat":43.29411,"lon":5.3862,"is_reserved":false,"is_disabled":true,"rental_uris":{"android":"levelo://app?vid=560e17bf-ac37-4844-88f0-aa3a929cf095","ios":"levelo://app?vid=560e17bf-ac37-4844-88f0-aa3a929cf095"},"vehicle_type_id":"4","last_reported":1744143008,"current_range_meters":3200,"station_id":"ce4bh2h2rcd13ifvqdh0","pricing_plan_id":"cebpf4jnsgd1na2vs0mg"},{"bike_id":"d4b9e28f-8b23-45d6-a69d-67a4751ea178","system_id":"levelo_inurba_marseille","lat":43.29519,"lon":5.38537,"is_reserved":false,"is_disabled":false,"rental_uris":{"android":"levelo://app?vid=d4b9e28f-8b23-45d6-a69d-67a4751ea178","ios":"levelo://app?vid=d4b9e28f-8b23-45d6-a69d-67a4751ea178"},"vehicle_type_id":"4","last_reported":1744143008,"current_range_meters":3200,"station_id":"ce4bgih2rcd13ifvqba0","pricing_plan_id":"cebpf4jnsgd1na2vs0mg"},{"bike_id":"6011ab96-e955-4ca8-95b1-9776ff68c79a","system_id":"levelo_inurba_marseille","lat":43.27374,"lon":5.3625,"is_reserved":false,"is_disabled":true,"rental_uris":{"android":"levelo://app?vid=6011ab96-e955-4ca8-95b1-9776ff68c79a","ios":"levelo://app?vid=6011ab96-e955-4ca8-95b1-9776ff68c79a"},"vehicle_type_id":"4","last_reported":1744143008,"current_range_meters":3200,"station_id":"ce4bhbh2rcd13ifvqeo0","pricing_plan_id":"cebpf4jnsgd1na2vs0mg"},{"bike_id":"6830b8ab-9de6-40c2-8d3b-a3afc208006a","system_id":"levelo_inurba_marseille","lat":43.29602,"lon":5.38111,"is_reserved":false,"is_disabled":false,"rental_uris":{"android":"levelo://app?vid=6830b8ab-9de6-40c2-8d3b-a3afc208006a","ios":"levelo://app?vid=6830b8ab-9de6-40c2-8d3b-a3afc208006a"},"vehicle_type_id":"4","last_reported":1744143008,"current_range_meters":3200,"station_id":"ce4bgl12rcd13ifvqbo0","pricing_plan_id":"cebpf4jnsgd1na2vs0mg"},{"bike_id":"e3badf95-11da-4a5e-a2e4-cd18e578c995","system_id":"levelo_inurba_marseille","lat":43.29566,"lon":5.37516,"is_reserved":false,"is_disabled":false,"rental_uris":{"android":"levelo://app?vid=e3badf95-11da-4a5e-a2e4-cd18e578c995","ios":"levelo://app?vid=e3badf95-11da-4a5e-a2e4-cd18e578c995"},"vehicle_type_id":"4","last_reported":1744143008,"current_range_meters":3200,"station_id":"ce4bgh92rcd13ifvqb50","pricing_plan_id":"cebpf4jnsgd1na2vs0mg"},{"bike_id":"45211039-84ed-480f-8550-7c215573a4f1","system_id":"levelo_inurba_marseille","lat":43.29866,"lon":5.38905,"is_reserved":false,"is_disabled":false,"rental_uris":{"android":"levelo://app?vid=45211039-84ed-480f-8550-7c215573a4f1","ios":"levelo://app?vid=45211039-84ed-480f-8550-7c215573a4f1"},"vehicle_type_id":"4","last_reported":1744143008,"current_range_meters":3600,"station_id":"ce4bh392rcd13ifvqdl0","pricing_plan_id":"cebpf4jnsgd1na2vs0mg"},{"bike_id":"1bbecd22-f0c1-4fc4-a53c-43dca976474d","system_id":"levelo_inurba_marseille","lat":43.304886,"lon":5.379688,"is_reserved":false,"is_disabled":false,"rental_uris":{"android":"levelo://app?vid=1bbecd22-f0c1-4fc4-a53c-43dca976474d","ios":"levelo://app?vid=1bbecd22-f0c1-4fc4-a53c-43dca976474d"},"vehicle_type_id":"4","last_reported":1744143008,"current_range_meters":3600,"station_id":"ce4bgup2rcd13ifvqcn0","pricing_plan_id":"cebpf4jnsgd1na2vs0mg"},{"bike_id":"60917ad7-b9cc-4573-928a-b99386b0d067","system_id":"levelo_inurba_marseille","lat":43.29568,"lon":5.39975,"is_reserved":false,"is_disabled":false,"rental_uris":{"android":"levelo://app?vid=60917ad7-b9cc-4573-928a-b99386b0d067","ios":"levelo://app?vid=60917ad7-b9cc-4573-928a-b99386b0d067"},"vehicle_type_id":"4","last_reported":1744143008,"current_range_meters":3600,"station_id":"ce4bh312rcd13ifvqdj0","pricing_plan_id":"cebpf4jnsgd1na2vs0mg"},{"bike_id":"b9c266c5-0e4e-4aee-9a25-615d37aad284","system_id":"levelo_inurba_marseille","lat":43.2942,"lon":5.3861,"is_reserved":false,"is_disabled":false,"rental_uris":{"android":"levelo://app?vid=b9c266c5-0e4e-4aee-9a25-615d37aad284","ios":"levelo://app?vid=b9c266c5-0e4e-4aee-9a25-615d37aad284"},"vehicle_type_id":"4","last_reported":1744143008,"current_range_meters":3600,"station_id":"ce4bh2h2rcd13ifvqdh0","pricing_plan_id":"cebpf4jnsgd1na2vs0mg"},{"bike_id":"b95f3cd3-0a5b-40e0-b06e-939996ffefa6","system_id":"levelo_inurba_marseille","lat":43.27822,"lon":5.40712,"is_reserved":false,"is_disabled":true,"rental_uris":{"android":"levelo://app?vid=b95f3cd3-0a5b-40e0-b06e-939996ffefa6","ios":"levelo://app?vid=b95f3cd3-0a5b-40e0-b06e-939996ffefa6"},"vehicle_type_id":"4","last_reported":1744143008,"current_range_meters":3600,"station_id":"ce4bhnh2rcd13ifvqgtg","pricing_plan_id":"cebpf4jnsgd1na2vs0mg"},{"bike_id":"658343e5-2aab-4b1d-9834-8dc9a08a70a6","system_id":"levelo_inurba_marseille","lat":43.30304,"lon":5.36882,"is_reserved":false,"is_disabled":false,"rental_uris":{"android":"levelo://app?vid=658343e5-2aab-4b1d-9834-8dc9a08a70a6","ios":"levelo://app?vid=658343e5-2aab-4b1d-9834-8dc9a08a70a6"},"vehicle_type_id":"4","last_reported":1744143008,"current_range_meters":4000,"station_id":"ce4bgqh2rcd13ifvqc5g","pricing_plan_id":"cebpf4jnsgd1na2vs0mg"},{"bike_id":"0c260c3d-5b6f-41f8-b81c-723db8b05654","system_id":"levelo_inurba_marseille","lat":43.29509,"lon":5.39397,"is_reserved":false,"is_disabled":false,"rental_uris":{"android":"levelo://app?vid=0c260c3d-5b6f-41f8-b81c-723db8b05654","ios":"levelo://app?vid=0c260c3d-5b6f-41f8-b81c-723db8b05654"},"vehicle_type_id":"4","last_reported":1744143008,"current_range_meters":3600,"station_id":"ce4bh292rcd13ifvqdf0","pricing_plan_id":"cebpf4jnsgd1na2vs0mg"},{"bike_id":"5b79fd17-71c7-46ba-a08e-72b15d99e820","system_id":"levelo_inurba_marseille","lat":43.22507,"lon":5.34776,"is_reserved":false,"is_disabled":true,"rental_uris":{"android":"levelo://app?vid=5b79fd17-71c7-46ba-a08e-72b15d99e820","ios":"levelo://app?vid=5b79fd17-71c7-46ba-a08e-72b15d99e820"},"vehicle_type_id":"4","last_reported":1744143008,"current_range_meters":4000,"station_id":"st_cvj5dfep6f1abm77gieg","pricing_plan_id":"cebpf4jnsgd1na2vs0mg"},{"bike_id":"b6832462-511f-403a-80b1-2da8097242d3","system_id":"levelo_inurba_marseille","lat":43.28492,"lon":5.38475,"is_reserved":false,"is_disabled":false,"rental_uris":{"android":"levelo://app?vid=b6832462-511f-403a-80b1-2da8097242d3","ios":"levelo://app?vid=b6832462-511f-403a-80b1-2da8097242d3"},"vehicle_type_id":"4","last_reported":1744143008,"current_range_meters":4000,"station_id":"","pricing_plan_id":"cebpf4jnsgd1na2vs0mg"},{"bike_id":"a41ed1c8-66a6-494b-a01d-66f32b31d7cf","system_id":"levelo_inurba_marseille","lat":43.26212,"lon":5.37437,"is_reserved":false,"is_disabled":true,"rental_uris":{"android":"levelo://app?vid=a41ed1c8-66a6-494b-a01d-66f32b31d7cf","ios":"levelo://app?vid=a41ed1c8-66a6-494b-a01d-66f32b31d7cf"},"vehicle_type_id":"4","last_reported":1744143008,"current_range_meters":4400,"station_id":"ce4bhgp2rcd13ifvqfc0","pricing_plan_id":"cebpf4jnsgd1na2vs0mg"},{"bike_id":"6b045946-22e7-486e-bd32-b25f6eb25f9c","system_id":"levelo_inurba_marseille","lat":43.29526,"lon":5.3855,"is_reserved":false,"is_disabled":false,"rental_uris":{"android":"levelo://app?vid=6b045946-22e7-486e-bd32-b25f6eb25f9c","ios":"levelo://app?vid=6b045946-22e7-486e-bd32-b25f6eb25f9c"},"vehicle_type_id":"4","last_reported":1744143008,"current_range_meters":4800,"station_id":"ce4bgih2rcd13ifvqba0","pricing_plan_id":"cebpf4jnsgd1na2vs0mg"},{"bike_id":"3ea3a003-2b79-4394-9296-9c53c80fdbe9","system_id":"levelo_inurba_marseille","lat":43.27904,"lon":5.39557,"is_reserved":false,"is_disabled":false,"rental_uris":{"android":"levelo://app?vid=3ea3a003-2b79-4394-9296-9c53c80fdbe9","ios":"levelo://app?vid=3ea3a003-2b79-4394-9296-9c53c80fdbe9"},"vehicle_type_id":"4","last_reported":1744143008,"current_range_meters":4800,"station_id":"ce4bhf92rcd13ifvqf40","pricing_plan_id":"cebpf4jnsgd1na2vs0mg"},{"bike_id":"f9155b56-65f6-4869-aceb-65901f1d58c2","system_id":"levelo_inurba_marseille","lat":43.29424,"lon":5.3861,"is_reserved":false,"is_disabled":false,"rental_uris":{"android":"levelo://app?vid=f9155b56-65f6-4869-aceb-65901f1d58c2","ios":"levelo://app?vid=f9155b56-65f6-4869-aceb-65901f1d58c2"},"vehicle_type_id":"4","last_reported":1744143008,"current_range_meters":4800,"station_id":"ce4bh2h2rcd13ifvqdh0","pricing_plan_id":"cebpf4jnsgd1na2vs0mg"},{"bike_id":"87bda883-ac94-49fc-94c2-3a86e52b4f97","system_id":"levelo_inurba_marseille","lat":43.30725,"lon":5.38348,"is_reserved":false,"is_disabled":false,"rental_uris":{"android":"levelo://app?vid=87bda883-ac94-49fc-94c2-3a86e52b4f97","ios":"levelo://app?vid=87bda883-ac94-49fc-94c2-3a86e52b4f97"},"vehicle_type_id":"4","last_reported":1744143008,"current_range_meters":4800,"station_id":"","pricing_plan_id":"cebpf4jnsgd1na2vs0mg"},{"bike_id":"cc057f14-b1e1-4dee-b107-8741c01c5964","system_id":"levelo_inurba_marseille","lat":43.32098,"lon":5.36795,"is_reserved":false,"is_disabled":true,"rental_uris":{"android":"levelo://app?vid=cc057f14-b1e1-4dee-b107-8741c01c5964","ios":"levelo://app?vid=cc057f14-b1e1-4dee-b107-8741c01c5964"},"vehicle_type_id":"4","last_reported":1744143008,"current_range_meters":4800,"station_id":"ce4bhrh2rcd13ifvqhug","pricing_plan_id":"cebpf4jnsgd1na2vs0mg"},{"bike_id":"659e2a98-7dd1-4622-88c9-5654ec1cb201","system_id":"levelo_inurba_marseille","lat":43.30551,"lon":5.36526,"is_reserved":false,"is_disabled":false,"rental_uris":{"android":"levelo://app?vid=659e2a98-7dd1-4622-88c9-5654ec1cb201","ios":"levelo://app?vid=659e2a98-7dd1-4622-88c9-5654ec1cb201"},"vehicle_type_id":"4","last_reported":1744143008,"current_range_meters":4800,"station_id":"ce4bgs12rcd13ifvqcag","pricing_plan_id":"cebpf4jnsgd1na2vs0mg"},{"bike_id":"8aaaa93f-8132-4adb-a568-6582ad358043","system_id":"levelo_inurba_marseille","lat":43.24546,"lon":5.39527,"is_reserved":false,"is_disabled":false,"rental_uris":{"android":"levelo://app?vid=8aaaa93f-8132-4adb-a568-6582ad358043","ios":"levelo://app?vid=8aaaa93f-8132-4adb-a568-6582ad358043"},"vehicle_type_id":"4","last_reported":1744143008,"current_range_meters":5600,"station_id":"ce4bhlp2rcd13ifvqgjg","pricing_plan_id":"cebpf4jnsgd1na2vs0mg"},{"bike_id":"6b7f4f91-a9ab-4f17-8958-c0154d023beb","system_id":"levelo_inurba_marseille","lat":43.28725,"lon":5.36075,"is_reserved":false,"is_disabled":false,"rental_uris":{"android":"levelo://app?vid=6b7f4f91-a9ab-4f17-8958-c0154d023beb","ios":"levelo://app?vid=6b7f4f91-a9ab-4f17-8958-c0154d023beb"},"vehicle_type_id":"4","last_reported":1744143008,"current_range_meters":5600,"station_id":"cki0cbj6b192h4jlfktg","pricing_plan_id":"cebpf4jnsgd1na2vs0mg"},{"bike_id":"49dd37a0-6db5-4166-8d6f-8b0071236440","system_id":"levelo_inurba_marseille","lat":43.24794,"lon":5.37465,"is_reserved":false,"is_disabled":false,"rental_uris":{"android":"levelo://app?vid=49dd37a0-6db5-4166-8d6f-8b0071236440","ios":"levelo://app?vid=49dd37a0-6db5-4166-8d6f-8b0071236440"},"vehicle_type_id":"4","last_reported":1744143008,"current_range_meters":5600,"station_id":"ce4bhgh2rcd13ifvqfb0","pricing_plan_id":"cebpf4jnsgd1na2vs0mg"},{"bike_id":"8b4a5c52-3413-49f2-b7f4-7f3508a08342","system_id":"levelo_inurba_marseille","lat":43.3025,"lon":5.40049,"is_reserved":false,"is_disabled":false,"rental_uris":{"android":"levelo://app?vid=8b4a5c52-3413-49f2-b7f4-7f3508a08342","ios":"levelo://app?vid=8b4a5c52-3413-49f2-b7f4-7f3508a08342"},"vehicle_type_id":"4","last_reported":1744143008,"current_range_meters":5600,"station_id":"ce4bgvh2rcd13ifvqcs0","pricing_plan_id":"cebpf4jnsgd1na2vs0mg"},{"bike_id":"3944b4a0-54fb-4d6c-af80-4ca20b89931c","system_id":"levelo_inurba_marseille","lat":43.27993,"lon":5.4165,"is_reserved":false,"is_disabled":false,"rental_uris":{"android":"levelo://app?vid=3944b4a0-54fb-4d6c-af80-4ca20b89931c","ios":"levelo://app?vid=3944b4a0-54fb-4d6c-af80-4ca20b89931c"},"vehicle_type_id":"4","last_reported":1744143008,"current_range_meters":5600,"station_id":"ce4bho12rcd13ifvqh1g","pricing_plan_id":"cebpf4jnsgd1na2vs0mg"},{"bike_id":"acb10782-63b4-477a-a877-f4c1896e056b","system_id":"levelo_inurba_marseille","lat":43.28937,"lon":5.36365,"is_reserved":false,"is_disabled":false,"rental_uris":{"android":"levelo://app?vid=acb10782-63b4-477a-a877-f4c1896e056b","ios":"levelo://app?vid=acb10782-63b4-477a-a877-f4c1896e056b"},"vehicle_type_id":"4","last_reported":1744143008,"current_range_meters":5600,"station_id":"ce4bhc92rcd13ifvqetg","pricing_plan_id":"cebpf4jnsgd1na2vs0mg"},{"bike_id":"a0e61320-600e-47a5-9068-420908f74229","system_id":"levelo_inurba_marseille","lat":43.28397,"lon":5.37513,"is_reserved":false,"is_disabled":false,"rental_uris":{"android":"levelo://app?vid=a0e61320-600e-47a5-9068-420908f74229","ios":"levelo://app?vid=a0e61320-600e-47a5-9068-420908f74229"},"vehicle_type_id":"4","last_reported":1744143008,"current_range_meters":5600,"station_id":"ce4bh412rcd13ifvqds0","pricing_plan_id":"cebpf4jnsgd1na2vs0mg"},{"bike_id":"3a93d873-0da0-46ee-84db-94dc8defaa66","system_id":"levelo_inurba_marseille","lat":43.30098,"lon":5.39079,"is_reserved":false,"is_disabled":false,"rental_uris":{"android":"levelo://app?vid=3a93d873-0da0-46ee-84db-94dc8defaa66","ios":"levelo://app?vid=3a93d873-0da0-46ee-84db-94dc8defaa66"},"vehicle_type_id":"4","last_reported":1744143008,"current_range_meters":6000,"station_id":"ce4bh192rcd13ifvqdb0","pricing_plan_id":"cebpf4jnsgd1na2vs0mg"},{"bike_id":"83048e5e-4a32-4a69-87af-ee93450509d9","system_id":"levelo_inurba_marseille","lat":43.29705,"lon":5.36623,"is_reserved":false,"is_disabled":false,"rental_uris":{"android":"levelo://app?vid=83048e5e-4a32-4a69-87af-ee93450509d9","ios":"levelo://app?vid=83048e5e-4a32-4a69-87af-ee93450509d9"},"vehicle_type_id":"4","last_reported":1744143008,"current_range_meters":6000,"station_id":"ce4bgn12rcd13ifvqbt0","pricing_plan_id":"cebpf4jnsgd1na2vs0mg"},{"bike_id":"a2bc1534-fa4c-44c0-9bf1-e145e671d810","system_id":"levelo_inurba_marseille","lat":43.303425,"lon":5.400835,"is_reserved":false,"is_disabled":false,"rental_uris":{"android":"levelo://app?vid=a2bc1534-fa4c-44c0-9bf1-e145e671d810","ios":"levelo://app?vid=a2bc1534-fa4c-44c0-9bf1-e145e671d810"},"vehicle_type_id":"4","last_reported":1744143008,"current_range_meters":6400,"station_id":"","pricing_plan_id":"cebpf4jnsgd1na2vs0mg"},{"bike_id":"52a3a737-d744-44aa-901d-daf29012d3d4","system_id":"levelo_inurba_marseille","lat":43.30895,"lon":5.37041,"is_reserved":false,"is_disabled":false,"rental_uris":{"android":"levelo://app?vid=52a3a737-d744-44aa-901d-daf29012d3d4","ios":"levelo://app?vid=52a3a737-d744-44aa-901d-daf29012d3d4"},"vehicle_type_id":"4","last_reported":1744143008,"current_range_meters":6400,"station_id":"","pricing_plan_id":"cebpf4jnsgd1na2vs0mg"},{"bike_id":"1f2f6228-74ea-422a-b195-b7d1a28d01fe","system_id":"levelo_inurba_marseille","lat":43.29538,"lon":5.38537,"is_reserved":false,"is_disabled":false,"rental_uris":{"android":"levelo://app?vid=1f2f6228-74ea-422a-b195-b7d1a28d01fe","ios":"levelo://app?vid=1f2f6228-74ea-422a-b195-b7d1a28d01fe"},"vehicle_type_id":"4","last_reported":1744143008,"current_range_meters":6400,"station_id":"ce4bgih2rcd13ifvqba0","pricing_plan_id":"cebpf4jnsgd1na2vs0mg"},{"bike_id":"421c06bb-cbff-4e2b-a83f-8e60ab357e92","system_id":"levelo_inurba_marseille","lat":43.29501,"lon":5.3904,"is_reserved":false,"is_disabled":false,"rental_uris":{"android":"levelo://app?vid=421c06bb-cbff-4e2b-a83f-8e60ab357e92","ios":"levelo://app?vid=421c06bb-cbff-4e2b-a83f-8e60ab357e92"},"vehicle_type_id":"4","last_reported":1744143008,"current_range_meters":6400,"station_id":"ce4bh3p2rcd13ifvqdp0","pricing_plan_id":"cebpf4jnsgd1na2vs0mg"},{"bike_id":"4b8dddbd-4a73-4c7c-a615-40a931cd78e8","system_id":"levelo_inurba_marseille","lat":43.25088,"lon":5.39494,"is_reserved":false,"is_disabled":false,"rental_uris":{"android":"levelo://app?vid=4b8dddbd-4a73-4c7c-a615-40a931cd78e8","ios":"levelo://app?vid=4b8dddbd-4a73-4c7c-a615-40a931cd78e8"},"vehicle_type_id":"4","last_reported":1744143008,"current_range_meters":6800,"station_id":"ce4bhm12rcd13ifvqgkg","pricing_plan_id":"cebpf4jnsgd1na2vs0mg"},{"bike_id":"b4c12dc8-d3ca-4d27-b6fd-9d3a9c9df06a","system_id":"levelo_inurba_marseille","lat":43.29413,"lon":5.38625,"is_reserved":false,"is_disabled":false,"rental_uris":{"android":"levelo://app?vid=b4c12dc8-d3ca-4d27-b6fd-9d3a9c9df06a","ios":"levelo://app?vid=b4c12dc8-d3ca-4d27-b6fd-9d3a9c9df06a"},"vehicle_type_id":"4","last_reported":1744143008,"current_range_meters":6800,"station_id":"ce4bh2h2rcd13ifvqdh0","pricing_plan_id":"cebpf4jnsgd1na2vs0mg"},{"bike_id":"95e4d341-aa1d-45d3-97d4-58ce3861535b","system_id":"levelo_inurba_marseille","lat":43.21199,"lon":5.35066,"is_reserved":false,"is_disabled":true,"rental_uris":{"android":"levelo://app?vid=95e4d341-aa1d-45d3-97d4-58ce3861535b","ios":"levelo://app?vid=95e4d341-aa1d-45d3-97d4-58ce3861535b"},"vehicle_type_id":"4","last_reported":1744143008,"current_range_meters":6800,"station_id":"","pricing_plan_id":"cebpf4jnsgd1na2vs0mg"},{"bike_id":"a2d46cb9-9eeb-44f6-ab18-0e5c210fd7b5","system_id":"levelo_inurba_marseille","lat":43.2894,"lon":5.36611,"is_reserved":false,"is_disabled":true,"rental_uris":{"android":"levelo://app?vid=a2d46cb9-9eeb-44f6-ab18-0e5c210fd7b5","ios":"levelo://app?vid=a2d46cb9-9eeb-44f6-ab18-0e5c210fd7b5"},"vehicle_type_id":"4","last_reported":1744143008,"current_range_meters":6800,"station_id":"ce4bhap2rcd13ifvqek0","pricing_plan_id":"cebpf4jnsgd1na2vs0mg"},{"bike_id":"ae6d5f7e-69ad-463f-860e-9e9919e91ce5","system_id":"levelo_inurba_marseille","lat":43.28932,"lon":5.36636,"is_reserved":false,"is_disabled":false,"rental_uris":{"android":"levelo://app?vid=ae6d5f7e-69ad-463f-860e-9e9919e91ce5","ios":"levelo://app?vid=ae6d5f7e-69ad-463f-860e-9e9919e91ce5"},"vehicle_type_id":"4","last_reported":1744143008,"current_range_meters":6800,"station_id":"ce4bhap2rcd13ifvqek0","pricing_plan_id":"cebpf4jnsgd1na2vs0mg"},{"bike_id":"ef1f030f-84c6-4e39-990c-fd0a32154f00","system_id":"levelo_inurba_marseille","lat":43.23963,"lon":5.36629,"is_reserved":false,"is_disabled":false,"rental_uris":{"android":"levelo://app?vid=ef1f030f-84c6-4e39-990c-fd0a32154f00","ios":"levelo://app?vid=ef1f030f-84c6-4e39-990c-fd0a32154f00"},"vehicle_type_id":"4","last_reported":1744143008,"current_range_meters":7200,"station_id":"ce4bhi12rcd13ifvqfp0","pricing_plan_id":"cebpf4jnsgd1na2vs0mg"},{"bike_id":"73948350-f656-45a4-915d-809cae2ac447","system_id":"levelo_inurba_marseille","lat":43.24791,"lon":5.37465,"is_reserved":false,"is_disabled":false,"rental_uris":{"android":"levelo://app?vid=73948350-f656-45a4-915d-809cae2ac447","ios":"levelo://app?vid=73948350-f656-45a4-915d-809cae2ac447"},"vehicle_type_id":"4","last_reported":1744143008,"current_range_meters":7200,"station_id":"ce4bhgh2rcd13ifvqfb0","pricing_plan_id":"cebpf4jnsgd1na2vs0mg"},{"bike_id":"5cd1fd40-06f1-4a7e-84bc-4417ad88331e","system_id":"levelo_inurba_marseille","lat":43.28102,"lon":5.37842,"is_reserved":false,"is_disabled":false,"rental_uris":{"android":"levelo://app?vid=5cd1fd40-06f1-4a7e-84bc-4417ad88331e","ios":"levelo://app?vid=5cd1fd40-06f1-4a7e-84bc-4417ad88331e"},"vehicle_type_id":"4","last_reported":1744143008,"current_range_meters":7200,"station_id":"ce4bha12rcd13ifvqee0","pricing_plan_id":"cebpf4jnsgd1na2vs0mg"},{"bike_id":"94cc02d0-1cba-4ce3-a6ee-2b2a43266460","system_id":"levelo_inurba_marseille","lat":43.250837,"lon":5.395235,"is_reserved":false,"is_disabled":false,"rental_uris":{"android":"levelo://app?vid=94cc02d0-1cba-4ce3-a6ee-2b2a43266460","ios":"levelo://app?vid=94cc02d0-1cba-4ce3-a6ee-2b2a43266460"},"vehicle_type_id":"4","last_reported":1744143008,"current_range_meters":7200,"station_id":"ce4bhm12rcd13ifvqgkg","pricing_plan_id":"cebpf4jnsgd1na2vs0mg"},{"bike_id":"f3f22a47-cc05-4eae-8c4c-ea9d55eb67d1","system_id":"levelo_inurba_marseille","lat":43.28665,"lon":5.36353,"is_reserved":false,"is_disabled":false,"rental_uris":{"android":"levelo://app?vid=f3f22a47-cc05-4eae-8c4c-ea9d55eb67d1","ios":"levelo://app?vid=f3f22a47-cc05-4eae-8c4c-ea9d55eb67d1"},"vehicle_type_id":"4","last_reported":1744143008,"current_range_meters":7200,"station_id":"ce4bhah2rcd13ifvqej0","pricing_plan_id":"cebpf4jnsgd1na2vs0mg"},{"bike_id":"97bbdcf1-a579-46ff-91f7-55512f75a1db","system_id":"levelo_inurba_marseille","lat":43.29545,"lon":5.39036,"is_reserved":false,"is_disabled":false,"rental_uris":{"android":"levelo://app?vid=97bbdcf1-a579-46ff-91f7-55512f75a1db","ios":"levelo://app?vid=97bbdcf1-a579-46ff-91f7-55512f75a1db"},"vehicle_type_id":"4","last_reported":1744143008,"current_range_meters":7200,"station_id":"ce4bh3p2rcd13ifvqdp0","pricing_plan_id":"cebpf4jnsgd1na2vs0mg"},{"bike_id":"ecef8e9e-03dc-4612-b74e-b978f92e2873","system_id":"levelo_inurba_marseille","lat":43.30109,"lon":5.3908,"is_reserved":false,"is_disabled":true,"rental_uris":{"android":"levelo://app?vid=ecef8e9e-03dc-4612-b74e-b978f92e2873","ios":"levelo://app?vid=ecef8e9e-03dc-4612-b74e-b978f92e2873"},"vehicle_type_id":"4","last_reported":1744143008,"current_range_meters":7200,"station_id":"ce4bh192rcd13ifvqdb0","pricing_plan_id":"cebpf4jnsgd1na2vs0mg"},{"bike_id":"729edbc8-bee8-42d2-a91e-b237ab67d2d3","system_id":"levelo_inurba_marseille","lat":43.27068,"lon":5.42276,"is_reserved":false,"is_disabled":false,"rental_uris":{"android":"levelo://app?vid=729edbc8-bee8-42d2-a91e-b237ab67d2d3","ios":"levelo://app?vid=729edbc8-bee8-42d2-a91e-b237ab67d2d3"},"vehicle_type_id":"4","last_reported":1744143008,"current_range_meters":7200,"station_id":"ce4bhk92rcd13ifvqgb0","pricing_plan_id":"cebpf4jnsgd1na2vs0mg"},{"bike_id":"e7e1ab45-7d32-4b6d-ad17-3b30963cb3b2","system_id":"levelo_inurba_marseille","lat":43.25081,"lon":5.39502,"is_reserved":false,"is_disabled":false,"rental_uris":{"android":"levelo://app?vid=e7e1ab45-7d32-4b6d-ad17-3b30963cb3b2","ios":"levelo://app?vid=e7e1ab45-7d32-4b6d-ad17-3b30963cb3b2"},"vehicle_type_id":"4","last_reported":1744143008,"current_range_meters":7200,"station_id":"ce4bhm12rcd13ifvqgkg","pricing_plan_id":"cebpf4jnsgd1na2vs0mg"},{"bike_id":"f39be6f5-2f69-4c37-b021-559d20b299a4","system_id":"levelo_inurba_marseille","lat":43.30015,"lon":5.37638,"is_reserved":false,"is_disabled":false,"rental_uris":{"android":"levelo://app?vid=f39be6f5-2f69-4c37-b021-559d20b299a4","ios":"levelo://app?vid=f39be6f5-2f69-4c37-b021-559d20b299a4"},"vehicle_type_id":"4","last_reported":1744143008,"current_range_meters":7200,"station_id":"","pricing_plan_id":"cebpf4jnsgd1na2vs0mg"},{"bike_id":"0ffcc7b3-a42c-4164-9232-c9696b5313f1","system_id":"levelo_inurba_marseille","lat":43.279505,"lon":5.410508,"is_reserved":false,"is_disabled":false,"rental_uris":{"android":"levelo://app?vid=0ffcc7b3-a42c-4164-9232-c9696b5313f1","ios":"levelo://app?vid=0ffcc7b3-a42c-4164-9232-c9696b5313f1"},"vehicle_type_id":"4","last_reported":1744143008,"current_range_meters":7200,"station_id":"ce4bhnp2rcd13ifvqh0g","pricing_plan_id":"cebpf4jnsgd1na2vs0mg"},{"bike_id":"af448cb1-f8e5-4bbb-9e39-dc9807878d12","system_id":"levelo_inurba_marseille","lat":43.28482,"lon":5.38417,"is_reserved":false,"is_disabled":false,"rental_uris":{"android":"levelo://app?vid=af448cb1-f8e5-4bbb-9e39-dc9807878d12","ios":"levelo://app?vid=af448cb1-f8e5-4bbb-9e39-dc9807878d12"},"vehicle_type_id":"4","last_reported":1744143008,"current_range_meters":8000,"station_id":"ce4bh512rcd13ifvqe3g","pricing_plan_id":"cebpf4jnsgd1na2vs0mg"},{"bike_id":"1f36a339-4564-479e-92ec-6ec45eee838c","system_id":"levelo_inurba_marseille","lat":43.2953,"lon":5.39035,"is_reserved":false,"is_disabled":false,"rental_uris":{"android":"levelo://app?vid=1f36a339-4564-479e-92ec-6ec45eee838c","ios":"levelo://app?vid=1f36a339-4564-479e-92ec-6ec45eee838c"},"vehicle_type_id":"4","last_reported":1744143008,"current_range_meters":8000,"station_id":"ce4bh3p2rcd13ifvqdp0","pricing_plan_id":"cebpf4jnsgd1na2vs0mg"},{"bike_id":"71bdad87-d08a-411e-a2da-79ee2383adaf","system_id":"levelo_inurba_marseille","lat":43.28662,"lon":5.36353,"is_reserved":false,"is_disabled":false,"rental_uris":{"android":"levelo://app?vid=71bdad87-d08a-411e-a2da-79ee2383adaf","ios":"levelo://app?vid=71bdad87-d08a-411e-a2da-79ee2383adaf"},"vehicle_type_id":"4","last_reported":1744143008,"current_range_meters":8000,"station_id":"ce4bhah2rcd13ifvqej0","pricing_plan_id":"cebpf4jnsgd1na2vs0mg"},{"bike_id":"3576b946-70b3-456f-a60a-d98e227f015c","system_id":"levelo_inurba_marseille","lat":43.30109,"lon":5.38214,"is_reserved":false,"is_disabled":false,"rental_uris":{"android":"levelo://app?vid=3576b946-70b3-456f-a60a-d98e227f015c","ios":"levelo://app?vid=3576b946-70b3-456f-a60a-d98e227f015c"},"vehicle_type_id":"4","last_reported":1744143008,"current_range_meters":8000,"station_id":"ce4bgup2rcd13ifvqcn0","pricing_plan_id":"cebpf4jnsgd1na2vs0mg"},{"bike_id":"02f5f556-9aca-41a9-928c-e217b6392b4b","system_id":"levelo_inurba_marseille","lat":43.31827,"lon":5.43511,"is_reserved":false,"is_disabled":false,"rental_uris":{"android":"levelo://app?vid=02f5f556-9aca-41a9-928c-e217b6392b4b","ios":"levelo://app?vid=02f5f556-9aca-41a9-928c-e217b6392b4b"},"vehicle_type_id":"4","last_reported":1744143008,"current_range_meters":8000,"station_id":"","pricing_plan_id":"cebpf4jnsgd1na2vs0mg"},{"bike_id":"bf8d70f2-d0ee-4178-b954-ebb0604e6c39","system_id":"levelo_inurba_marseille","lat":43.27961,"lon":5.38746,"is_reserved":false,"is_disabled":false,"rental_uris":{"android":"levelo://app?vid=bf8d70f2-d0ee-4178-b954-ebb0604e6c39","ios":"levelo://app?vid=bf8d70f2-d0ee-4178-b954-ebb0604e6c39"},"vehicle_type_id":"4","last_reported":1744143008,"current_range_meters":8000,"station_id":"ce4bhg12rcd13ifvqf80","pricing_plan_id":"cebpf4jnsgd1na2vs0mg"},{"bike_id":"8f18bc82-0b0f-43c1-8fa9-c7537f658727","system_id":"levelo_inurba_marseille","lat":43.26566,"lon":5.39008,"is_reserved":false,"is_disabled":false,"rental_uris":{"android":"levelo://app?vid=8f18bc82-0b0f-43c1-8fa9-c7537f658727","ios":"levelo://app?vid=8f18bc82-0b0f-43c1-8fa9-c7537f658727"},"vehicle_type_id":"4","last_reported":1744143008,"current_range_meters":8000,"station_id":"ce4bhe12rcd13ifvqf30","pricing_plan_id":"cebpf4jnsgd1na2vs0mg"},{"bike_id":"456b79bb-81b6-42d9-a52b-1ca6c839f098","system_id":"levelo_inurba_marseille","lat":43.30401,"lon":5.41295,"is_reserved":false,"is_disabled":true,"rental_uris":{"android":"levelo://app?vid=456b79bb-81b6-42d9-a52b-1ca6c839f098","ios":"levelo://app?vid=456b79bb-81b6-42d9-a52b-1ca6c839f098"},"vehicle_type_id":"4","last_reported":1744143008,"current_range_meters":8000,"station_id":"ce4bhop2rcd13ifvqh8g","pricing_plan_id":"cebpf4jnsgd1na2vs0mg"},{"bike_id":"2e9000dc-6400-4918-a994-dd60039ca96d","system_id":"levelo_inurba_marseille","lat":43.31998,"lon":5.38138,"is_reserved":false,"is_disabled":true,"rental_uris":{"android":"levelo://app?vid=2e9000dc-6400-4918-a994-dd60039ca96d","ios":"levelo://app?vid=2e9000dc-6400-4918-a994-dd60039ca96d"},"vehicle_type_id":"4","last_reported":1744143008,"current_range_meters":8000,"station_id":"ce4bhr12rcd13ifvqhpg","pricing_plan_id":"cebpf4jnsgd1na2vs0mg"},{"bike_id":"82f28cf6-556c-431d-a12b-bd3ce5fc2f28","system_id":"levelo_inurba_marseille","lat":43.27511,"lon":5.37747,"is_reserved":false,"is_disabled":false,"rental_uris":{"android":"levelo://app?vid=82f28cf6-556c-431d-a12b-bd3ce5fc2f28","ios":"levelo://app?vid=82f28cf6-556c-431d-a12b-bd3ce5fc2f28"},"vehicle_type_id":"4","last_reported":1744143008,"current_range_meters":8400,"station_id":"","pricing_plan_id":"cebpf4jnsgd1na2vs0mg"},{"bike_id":"1e2ead91-4bce-48e1-b692-7f070e133905","system_id":"levelo_inurba_marseille","lat":43.295197,"lon":5.390365,"is_reserved":false,"is_disabled":false,"rental_uris":{"android":"levelo://app?vid=1e2ead91-4bce-48e1-b692-7f070e133905","ios":"levelo://app?vid=1e2ead91-4bce-48e1-b692-7f070e133905"},"vehicle_type_id":"4","last_reported":1744143008,"current_range_meters":8400,"station_id":"ce4bh3p2rcd13ifvqdp0","pricing_plan_id":"cebpf4jnsgd1na2vs0mg"},{"bike_id":"f5902e10-3da3-48ea-8c18-2d627088cc97","system_id":"levelo_inurba_marseille","lat":43.28939,"lon":5.36631,"is_reserved":false,"is_disabled":false,"rental_uris":{"android":"levelo://app?vid=f5902e10-3da3-48ea-8c18-2d627088cc97","ios":"levelo://app?vid=f5902e10-3da3-48ea-8c18-2d627088cc97"},"vehicle_type_id":"4","last_reported":1744143008,"current_range_meters":8400,"station_id":"ce4bhap2rcd13ifvqek0","pricing_plan_id":"cebpf4jnsgd1na2vs0mg"},{"bike_id":"ade4f32d-7c6e-4698-af59-be03f5a8ba7c","system_id":"levelo_inurba_marseille","lat":43.27991,"lon":5.4164,"is_reserved":false,"is_disabled":false,"rental_uris":{"android":"levelo://app?vid=ade4f32d-7c6e-4698-af59-be03f5a8ba7c","ios":"levelo://app?vid=ade4f32d-7c6e-4698-af59-be03f5a8ba7c"},"vehicle_type_id":"4","last_reported":1744143008,"current_range_meters":8000,"station_id":"ce4bho12rcd13ifvqh1g","pricing_plan_id":"cebpf4jnsgd1na2vs0mg"},{"bike_id":"f8cd743f-d271-4aa6-abed-3427208e292e","system_id":"levelo_inurba_marseille","lat":43.272034,"lon":5.391836,"is_reserved":false,"is_disabled":false,"rental_uris":{"android":"levelo://app?vid=f8cd743f-d271-4aa6-abed-3427208e292e","ios":"levelo://app?vid=f8cd743f-d271-4aa6-abed-3427208e292e"},"vehicle_type_id":"4","last_reported":1744143008,"current_range_meters":8400,"station_id":"ce4bhg92rcd13ifvqf90","pricing_plan_id":"cebpf4jnsgd1na2vs0mg"},{"bike_id":"d2e37b92-09f3-4680-8cd4-9521f2b1f6a1","system_id":"levelo_inurba_marseille","lat":43.29528,"lon":5.38541,"is_reserved":false,"is_disabled":false,"rental_uris":{"android":"levelo://app?vid=d2e37b92-09f3-4680-8cd4-9521f2b1f6a1","ios":"levelo://app?vid=d2e37b92-09f3-4680-8cd4-9521f2b1f6a1"},"vehicle_type_id":"4","last_reported":1744143008,"current_range_meters":8400,"station_id":"ce4bgih2rcd13ifvqba0","pricing_plan_id":"cebpf4jnsgd1na2vs0mg"},{"bike_id":"c0197bbf-0500-4a10-af50-6f03608be149","system_id":"levelo_inurba_marseille","lat":43.30129,"lon":5.38802,"is_reserved":false,"is_disabled":false,"rental_uris":{"android":"levelo://app?vid=c0197bbf-0500-4a10-af50-6f03608be149","ios":"levelo://app?vid=c0197bbf-0500-4a10-af50-6f03608be149"},"vehicle_type_id":"4","last_reported":1744143008,"current_range_meters":8800,"station_id":"ce4bghh2rcd13ifvqb60","pricing_plan_id":"cebpf4jnsgd1na2vs0mg"},{"bike_id":"f17ce36f-e80a-4732-89e2-7a7dfab19d87","system_id":"levelo_inurba_marseille","lat":43.29895,"lon":5.4366,"is_reserved":false,"is_disabled":false,"rental_uris":{"android":"levelo://app?vid=f17ce36f-e80a-4732-89e2-7a7dfab19d87","ios":"levelo://app?vid=f17ce36f-e80a-4732-89e2-7a7dfab19d87"},"vehicle_type_id":"4","last_reported":1744143008,"current_range_meters":8800,"station_id":"ce4bhpp2rcd13ifvqhfg","pricing_plan_id":"cebpf4jnsgd1na2vs0mg"},{"bike_id":"52acc153-015f-4d2c-b642-620cf77f74fa","system_id":"levelo_inurba_marseille","lat":43.29301,"lon":5.37174,"is_reserved":false,"is_disabled":false,"rental_uris":{"android":"levelo://app?vid=52acc153-015f-4d2c-b642-620cf77f74fa","ios":"levelo://app?vid=52acc153-015f-4d2c-b642-620cf77f74fa"},"vehicle_type_id":"4","last_reported":1744143008,"current_range_meters":8800,"station_id":"ce4bgh92rcd13ifvqb40","pricing_plan_id":"cebpf4jnsgd1na2vs0mg"},{"bike_id":"81b4eeec-d26b-4050-a92d-04743fb93072","system_id":"levelo_inurba_marseille","lat":43.23185,"lon":5.39989,"is_reserved":false,"is_disabled":true,"rental_uris":{"android":"levelo://app?vid=81b4eeec-d26b-4050-a92d-04743fb93072","ios":"levelo://app?vid=81b4eeec-d26b-4050-a92d-04743fb93072"},"vehicle_type_id":"4","last_reported":1744143008,"current_range_meters":8800,"station_id":"ce4bhn12rcd13ifvqgqg","pricing_plan_id":"cebpf4jnsgd1na2vs0mg"},{"bike_id":"70810d3e-9936-4863-b211-84f880613e88","system_id":"levelo_inurba_marseille","lat":43.3129,"lon":5.3732,"is_reserved":false,"is_disabled":false,"rental_uris":{"android":"levelo://app?vid=70810d3e-9936-4863-b211-84f880613e88","ios":"levelo://app?vid=70810d3e-9936-4863-b211-84f880613e88"},"vehicle_type_id":"4","last_reported":1744143008,"current_range_meters":8800,"station_id":"","pricing_plan_id":"cebpf4jnsgd1na2vs0mg"},{"bike_id":"ec41b842-c84f-4ab1-894c-fc6101e00efb","system_id":"levelo_inurba_marseille","lat":43.31706,"lon":5.40261,"is_reserved":false,"is_disabled":false,"rental_uris":{"android":"levelo://app?vid=ec41b842-c84f-4ab1-894c-fc6101e00efb","ios":"levelo://app?vid=ec41b842-c84f-4ab1-894c-fc6101e00efb"},"vehicle_type_id":"4","last_reported":1744143008,"current_range_meters":8800,"station_id":"","pricing_plan_id":"cebpf4jnsgd1na2vs0mg"},{"bike_id":"ad53d0a4-da1a-47ff-a1fe-f15416737e09","system_id":"levelo_inurba_marseille","lat":43.29292,"lon":5.40076,"is_reserved":false,"is_disabled":false,"rental_uris":{"android":"levelo://app?vid=ad53d0a4-da1a-47ff-a1fe-f15416737e09","ios":"levelo://app?vid=ad53d0a4-da1a-47ff-a1fe-f15416737e09"},"vehicle_type_id":"4","last_reported":1744143008,"current_range_meters":8800,"station_id":"ce4bh312rcd13ifvqdk0","pricing_plan_id":"cebpf4jnsgd1na2vs0mg"},{"bike_id":"f748e1ef-310f-4f48-a020-54ccd4691738","system_id":"levelo_inurba_marseille","lat":43.29309,"lon":5.37171,"is_reserved":false,"is_disabled":false,"rental_uris":{"android":"levelo://app?vid=f748e1ef-310f-4f48-a020-54ccd4691738","ios":"levelo://app?vid=f748e1ef-310f-4f48-a020-54ccd4691738"},"vehicle_type_id":"4","last_reported":1744143008,"current_range_meters":8800,"station_id":"ce4bgh92rcd13ifvqb40","pricing_plan_id":"cebpf4jnsgd1na2vs0mg"},{"bike_id":"bc8480bd-fe57-4eb5-b99a-7c3444543476","system_id":"levelo_inurba_marseille","lat":43.29313,"lon":5.37147,"is_reserved":false,"is_disabled":false,"rental_uris":{"android":"levelo://app?vid=bc8480bd-fe57-4eb5-b99a-7c3444543476","ios":"levelo://app?vid=bc8480bd-fe57-4eb5-b99a-7c3444543476"},"vehicle_type_id":"4","last_reported":1744143008,"current_range_meters":8800,"station_id":"ce4bgh92rcd13ifvqb40","pricing_plan_id":"cebpf4jnsgd1na2vs0mg"},{"bike_id":"37b2591d-7265-4820-a87b-554301495f71","system_id":"levelo_inurba_marseille","lat":43.28938,"lon":5.36638,"is_reserved":false,"is_disabled":true,"rental_uris":{"android":"levelo://app?vid=37b2591d-7265-4820-a87b-554301495f71","ios":"levelo://app?vid=37b2591d-7265-4820-a87b-554301495f71"},"vehicle_type_id":"4","last_reported":1744143008,"current_range_meters":9200,"station_id":"ce4bhap2rcd13ifvqek0","pricing_plan_id":"cebpf4jnsgd1na2vs0mg"},{"bike_id":"95689897-fa9d-475d-ba89-a3d96e067c50","system_id":"levelo_inurba_marseille","lat":43.3025,"lon":5.40058,"is_reserved":false,"is_disabled":false,"rental_uris":{"android":"levelo://app?vid=95689897-fa9d-475d-ba89-a3d96e067c50","ios":"levelo://app?vid=95689897-fa9d-475d-ba89-a3d96e067c50"},"vehicle_type_id":"4","last_reported":1744143008,"current_range_meters":9200,"station_id":"ce4bgvh2rcd13ifvqcs0","pricing_plan_id":"cebpf4jnsgd1na2vs0mg"},{"bike_id":"e50f3dc9-8c8f-43c1-9141-0ee8d31a7229","system_id":"levelo_inurba_marseille","lat":43.28035,"lon":5.36949,"is_reserved":false,"is_disabled":false,"rental_uris":{"android":"levelo://app?vid=e50f3dc9-8c8f-43c1-9141-0ee8d31a7229","ios":"levelo://app?vid=e50f3dc9-8c8f-43c1-9141-0ee8d31a7229"},"vehicle_type_id":"4","last_reported":1744143008,"current_range_meters":9200,"station_id":"ce4bha12rcd13ifvqef0","pricing_plan_id":"cebpf4jnsgd1na2vs0mg"},{"bike_id":"50c8eaab-e96c-4f4d-b0e6-87d4de5a0c57","system_id":"levelo_inurba_marseille","lat":43.23149,"lon":5.43709,"is_reserved":false,"is_disabled":false,"rental_uris":{"android":"levelo://app?vid=50c8eaab-e96c-4f4d-b0e6-87d4de5a0c57","ios":"levelo://app?vid=50c8eaab-e96c-4f4d-b0e6-87d4de5a0c57"},"vehicle_type_id":"4","last_reported":1744143008,"current_range_meters":9200,"station_id":"ce4bhmp2rcd13ifvqgog","pricing_plan_id":"cebpf4jnsgd1na2vs0mg"},{"bike_id":"fad4f2c7-66ef-4f9b-9327-a9dfa6cae79d","system_id":"levelo_inurba_marseille","lat":43.30254,"lon":5.40046,"is_reserved":false,"is_disabled":false,"rental_uris":{"android":"levelo://app?vid=fad4f2c7-66ef-4f9b-9327-a9dfa6cae79d","ios":"levelo://app?vid=fad4f2c7-66ef-4f9b-9327-a9dfa6cae79d"},"vehicle_type_id":"4","last_reported":1744143008,"current_range_meters":9200,"station_id":"ce4bgvh2rcd13ifvqcs0","pricing_plan_id":"cebpf4jnsgd1na2vs0mg"},{"bike_id":"d771a180-a7b2-4c46-b14d-589bfb6a7288","system_id":"levelo_inurba_marseille","lat":43.26192,"lon":5.37447,"is_reserved":false,"is_disabled":false,"rental_uris":{"android":"levelo://app?vid=d771a180-a7b2-4c46-b14d-589bfb6a7288","ios":"levelo://app?vid=d771a180-a7b2-4c46-b14d-589bfb6a7288"},"vehicle_type_id":"4","last_reported":1744143008,"current_range_meters":9200,"station_id":"ce4bhgp2rcd13ifvqfc0","pricing_plan_id":"cebpf4jnsgd1na2vs0mg"},{"bike_id":"3d0cae43-5b75-4aac-b7cb-471ce1151dd5","system_id":"levelo_inurba_marseille","lat":43.32993,"lon":5.39676,"is_reserved":false,"is_disabled":false,"rental_uris":{"android":"levelo://app?vid=3d0cae43-5b75-4aac-b7cb-471ce1151dd5","ios":"levelo://app?vid=3d0cae43-5b75-4aac-b7cb-471ce1151dd5"},"vehicle_type_id":"4","last_reported":1744143008,"current_range_meters":9200,"station_id":"","pricing_plan_id":"cebpf4jnsgd1na2vs0mg"},{"bike_id":"9ae6852b-6b22-43ab-9ed3-b9ba4d298e4b","system_id":"levelo_inurba_marseille","lat":43.26223,"lon":5.40457,"is_reserved":false,"is_disabled":false,"rental_uris":{"android":"levelo://app?vid=9ae6852b-6b22-43ab-9ed3-b9ba4d298e4b","ios":"levelo://app?vid=9ae6852b-6b22-43ab-9ed3-b9ba4d298e4b"},"vehicle_type_id":"4","last_reported":1744143008,"current_range_meters":9200,"station_id":"ce4bhmh2rcd13ifvqgmg","pricing_plan_id":"cebpf4jnsgd1na2vs0mg"},{"bike_id":"5fd72ae9-fac4-4080-a700-3b5454e972a9","system_id":"levelo_inurba_marseille","lat":43.28715,"lon":5.37946,"is_reserved":false,"is_disabled":false,"rental_uris":{"android":"levelo://app?vid=5fd72ae9-fac4-4080-a700-3b5454e972a9","ios":"levelo://app?vid=5fd72ae9-fac4-4080-a700-3b5454e972a9"},"vehicle_type_id":"4","last_reported":1744143008,"current_range_meters":9200,"station_id":"ce4bh9p2rcd13ifvqec0","pricing_plan_id":"cebpf4jnsgd1na2vs0mg"},{"bike_id":"40ca292a-76ff-4d5b-8d13-4fd0ee6d51c4","system_id":"levelo_inurba_marseille","lat":43.29617,"lon":5.37635,"is_reserved":false,"is_disabled":false,"rental_uris":{"android":"levelo://app?vid=40ca292a-76ff-4d5b-8d13-4fd0ee6d51c4","ios":"levelo://app?vid=40ca292a-76ff-4d5b-8d13-4fd0ee6d51c4"},"vehicle_type_id":"4","last_reported":1744143008,"current_range_meters":9200,"station_id":"","pricing_plan_id":"cebpf4jnsgd1na2vs0mg"},{"bike_id":"01bf5fe3-be04-4721-ae09-dd954c4bc43d","system_id":"levelo_inurba_marseille","lat":43.28422,"lon":5.34994,"is_reserved":false,"is_disabled":false,"rental_uris":{"android":"levelo://app?vid=01bf5fe3-be04-4721-ae09-dd954c4bc43d","ios":"levelo://app?vid=01bf5fe3-be04-4721-ae09-dd954c4bc43d"},"vehicle_type_id":"4","last_reported":1744143008,"current_range_meters":9200,"station_id":"ce4bhbh2rcd13ifvqepg","pricing_plan_id":"cebpf4jnsgd1na2vs0mg"},{"bike_id":"930f8f1f-9c1c-4d73-8fa0-15b8d8a442fe","system_id":"levelo_inurba_marseille","lat":43.29424,"lon":5.38598,"is_reserved":false,"is_disabled":false,"rental_uris":{"android":"levelo://app?vid=930f8f1f-9c1c-4d73-8fa0-15b8d8a442fe","ios":"levelo://app?vid=930f8f1f-9c1c-4d73-8fa0-15b8d8a442fe"},"vehicle_type_id":"4","last_reported":1744143008,"current_range_meters":9200,"station_id":"ce4bh2h2rcd13ifvqdh0","pricing_plan_id":"cebpf4jnsgd1na2vs0mg"},{"bike_id":"507cd00d-2154-4494-b000-241a78332fc7","system_id":"levelo_inurba_marseille","lat":43.28463,"lon":5.358799,"is_reserved":false,"is_disabled":false,"rental_uris":{"android":"levelo://app?vid=507cd00d-2154-4494-b000-241a78332fc7","ios":"levelo://app?vid=507cd00d-2154-4494-b000-241a78332fc7"},"vehicle_type_id":"4","last_reported":1744143008,"current_range_meters":9600,"station_id":"ce4bhah2rcd13ifvqei0","pricing_plan_id":"cebpf4jnsgd1na2vs0mg"},{"bike_id":"ba31ca11-97eb-4d79-834f-b589c64930f4","system_id":"levelo_inurba_marseille","lat":43.29708,"lon":5.36618,"is_reserved":false,"is_disabled":false,"rental_uris":{"android":"levelo://app?vid=ba31ca11-97eb-4d79-834f-b589c64930f4","ios":"levelo://app?vid=ba31ca11-97eb-4d79-834f-b589c64930f4"},"vehicle_type_id":"4","last_reported":1744143008,"current_range_meters":9600,"station_id":"ce4bgn12rcd13ifvqbt0","pricing_plan_id":"cebpf4jnsgd1na2vs0mg"},{"bike_id":"9ee718c0-ea57-42ff-a704-f0ad84c3a7e6","system_id":"levelo_inurba_marseille","lat":43.29027,"lon":5.38646,"is_reserved":false,"is_disabled":false,"rental_uris":{"android":"levelo://app?vid=9ee718c0-ea57-42ff-a704-f0ad84c3a7e6","ios":"levelo://app?vid=9ee718c0-ea57-42ff-a704-f0ad84c3a7e6"},"vehicle_type_id":"4","last_reported":1744143008,"current_range_meters":9600,"station_id":"ce4bh4p2rcd13ifvqe0g","pricing_plan_id":"cebpf4jnsgd1na2vs0mg"},{"bike_id":"7803967e-00dc-4b00-95c6-c2dea042ade1","system_id":"levelo_inurba_marseille","lat":43.29952,"lon":5.3854,"is_reserved":false,"is_disabled":false,"rental_uris":{"android":"levelo://app?vid=7803967e-00dc-4b00-95c6-c2dea042ade1","ios":"levelo://app?vid=7803967e-00dc-4b00-95c6-c2dea042ade1"},"vehicle_type_id":"4","last_reported":1744143008,"current_range_meters":9600,"station_id":"ce4bgj92rcd13ifvqbd0","pricing_plan_id":"cebpf4jnsgd1na2vs0mg"},{"bike_id":"92e751ad-a6dc-45f0-b006-3bc25d5954a6","system_id":"levelo_inurba_marseille","lat":43.28935,"lon":5.36625,"is_reserved":false,"is_disabled":false,"rental_uris":{"android":"levelo://app?vid=92e751ad-a6dc-45f0-b006-3bc25d5954a6","ios":"levelo://app?vid=92e751ad-a6dc-45f0-b006-3bc25d5954a6"},"vehicle_type_id":"4","last_reported":1744143008,"current_range_meters":9600,"station_id":"ce4bhap2rcd13ifvqek0","pricing_plan_id":"cebpf4jnsgd1na2vs0mg"},{"bike_id":"68d1cc33-0218-451e-8e10-d32225c21263","system_id":"levelo_inurba_marseille","lat":43.2315,"lon":5.43692,"is_reserved":false,"is_disabled":true,"rental_uris":{"android":"levelo://app?vid=68d1cc33-0218-451e-8e10-d32225c21263","ios":"levelo://app?vid=68d1cc33-0218-451e-8e10-d32225c21263"},"vehicle_type_id":"4","last_reported":1744143008,"current_range_meters":9600,"station_id":"ce4bhmp2rcd13ifvqgog","pricing_plan_id":"cebpf4jnsgd1na2vs0mg"},{"bike_id":"098b34c4-10a2-481f-b2a3-61f7a3b8f4ed","system_id":"levelo_inurba_marseille","lat":43.30934,"lon":5.40147,"is_reserved":false,"is_disabled":false,"rental_uris":{"android":"levelo://app?vid=098b34c4-10a2-481f-b2a3-61f7a3b8f4ed","ios":"levelo://app?vid=098b34c4-10a2-481f-b2a3-61f7a3b8f4ed"},"vehicle_type_id":"4","last_reported":1744143008,"current_range_meters":9600,"station_id":"ce4bgvp2rcd13ifvqct0","pricing_plan_id":"cebpf4jnsgd1na2vs0mg"},{"bike_id":"5e6ad826-38da-4531-b4ba-2eda8622ede3","system_id":"levelo_inurba_marseille","lat":43.31088,"lon":5.40454,"is_reserved":false,"is_disabled":false,"rental_uris":{"android":"levelo://app?vid=5e6ad826-38da-4531-b4ba-2eda8622ede3","ios":"levelo://app?vid=5e6ad826-38da-4531-b4ba-2eda8622ede3"},"vehicle_type_id":"4","last_reported":1744143008,"current_range_meters":9600,"station_id":"","pricing_plan_id":"cebpf4jnsgd1na2vs0mg"},{"bike_id":"7ab1cfeb-8935-4bfd-a210-331c212db326","system_id":"levelo_inurba_marseille","lat":43.29513,"lon":5.38535,"is_reserved":false,"is_disabled":false,"rental_uris":{"android":"levelo://app?vid=7ab1cfeb-8935-4bfd-a210-331c212db326","ios":"levelo://app?vid=7ab1cfeb-8935-4bfd-a210-331c212db326"},"vehicle_type_id":"4","last_reported":1744143008,"current_range_meters":9600,"station_id":"ce4bgih2rcd13ifvqba0","pricing_plan_id":"cebpf4jnsgd1na2vs0mg"},{"bike_id":"ff85d859-6e25-4ab6-9dd4-461048d94450","system_id":"levelo_inurba_marseille","lat":43.31173,"lon":5.38713,"is_reserved":false,"is_disabled":false,"rental_uris":{"android":"levelo://app?vid=ff85d859-6e25-4ab6-9dd4-461048d94450","ios":"levelo://app?vid=ff85d859-6e25-4ab6-9dd4-461048d94450"},"vehicle_type_id":"4","last_reported":1744143008,"current_range_meters":10000,"station_id":"ce4bgv12rcd13ifvqcp0","pricing_plan_id":"cebpf4jnsgd1na2vs0mg"},{"bike_id":"6af5c8a6-6e6f-47d5-8681-346a73801d42","system_id":"levelo_inurba_marseille","lat":43.30789,"lon":5.38168,"is_reserved":false,"is_disabled":false,"rental_uris":{"android":"levelo://app?vid=6af5c8a6-6e6f-47d5-8681-346a73801d42","ios":"levelo://app?vid=6af5c8a6-6e6f-47d5-8681-346a73801d42"},"vehicle_type_id":"4","last_reported":1744143008,"current_range_meters":10000,"station_id":"ce4bgt12rcd13ifvqce0","pricing_plan_id":"cebpf4jnsgd1na2vs0mg"},{"bike_id":"a9a51fd8-61e4-48d3-832b-62d65e9e355e","system_id":"levelo_inurba_marseille","lat":43.25117,"lon":5.40317,"is_reserved":false,"is_disabled":false,"rental_uris":{"android":"levelo://app?vid=a9a51fd8-61e4-48d3-832b-62d65e9e355e","ios":"levelo://app?vid=a9a51fd8-61e4-48d3-832b-62d65e9e355e"},"vehicle_type_id":"4","last_reported":1744143008,"current_range_meters":10000,"station_id":"ce4bhlh2rcd13ifvqgig","pricing_plan_id":"cebpf4jnsgd1na2vs0mg"},{"bike_id":"4b2937b2-181e-4485-9356-c12fb210030a","system_id":"levelo_inurba_marseille","lat":43.28399,"lon":5.37521,"is_reserved":false,"is_disabled":false,"rental_uris":{"android":"levelo://app?vid=4b2937b2-181e-4485-9356-c12fb210030a","ios":"levelo://app?vid=4b2937b2-181e-4485-9356-c12fb210030a"},"vehicle_type_id":"4","last_reported":1744143008,"current_range_meters":10000,"station_id":"ce4bh412rcd13ifvqds0","pricing_plan_id":"cebpf4jnsgd1na2vs0mg"},{"bike_id":"0aa02c49-cbb3-4907-a588-f754056f3ba8","system_id":"levelo_inurba_marseille","lat":43.30795,"lon":5.38153,"is_reserved":false,"is_disabled":true,"rental_uris":{"android":"levelo://app?vid=0aa02c49-cbb3-4907-a588-f754056f3ba8","ios":"levelo://app?vid=0aa02c49-cbb3-4907-a588-f754056f3ba8"},"vehicle_type_id":"4","last_reported":1744143008,"current_range_meters":10000,"station_id":"ce4bgt12rcd13ifvqce0","pricing_plan_id":"cebpf4jnsgd1na2vs0mg"},{"bike_id":"ca1cb9af-e981-4da8-ae84-4ca0779eecf9","system_id":"levelo_inurba_marseille","lat":43.31484,"lon":5.37303,"is_reserved":false,"is_disabled":false,"rental_uris":{"android":"levelo://app?vid=ca1cb9af-e981-4da8-ae84-4ca0779eecf9","ios":"levelo://app?vid=ca1cb9af-e981-4da8-ae84-4ca0779eecf9"},"vehicle_type_id":"4","last_reported":1744143008,"current_range_meters":10000,"station_id":"ce4bgt12rcd13ifvqcd0","pricing_plan_id":"cebpf4jnsgd1na2vs0mg"},{"bike_id":"2589b2f1-0657-4c6b-a1b7-3a2d5b6d9810","system_id":"levelo_inurba_marseille","lat":43.29935,"lon":5.36549,"is_reserved":false,"is_disabled":false,"rental_uris":{"android":"levelo://app?vid=2589b2f1-0657-4c6b-a1b7-3a2d5b6d9810","ios":"levelo://app?vid=2589b2f1-0657-4c6b-a1b7-3a2d5b6d9810"},"vehicle_type_id":"4","last_reported":1744143008,"current_range_meters":10000,"station_id":"ce4bgm92rcd13ifvqbr0","pricing_plan_id":"cebpf4jnsgd1na2vs0mg"},{"bike_id":"5cef5330-1ce4-4a84-af6e-c73f86416aa1","system_id":"levelo_inurba_marseille","lat":43.301921,"lon":5.36629,"is_reserved":false,"is_disabled":false,"rental_uris":{"android":"levelo://app?vid=5cef5330-1ce4-4a84-af6e-c73f86416aa1","ios":"levelo://app?vid=5cef5330-1ce4-4a84-af6e-c73f86416aa1"},"vehicle_type_id":"4","last_reported":1744143008,"current_range_meters":10000,"station_id":"ce4bhu92rcd13ifvqi70","pricing_plan_id":"cebpf4jnsgd1na2vs0mg"},{"bike_id":"df136d95-e79c-413e-88c1-df03fad44875","system_id":"levelo_inurba_marseille","lat":43.3107,"lon":5.38354,"is_reserved":false,"is_disabled":false,"rental_uris":{"android":"levelo://app?vid=df136d95-e79c-413e-88c1-df03fad44875","ios":"levelo://app?vid=df136d95-e79c-413e-88c1-df03fad44875"},"vehicle_type_id":"4","last_reported":1744143008,"current_range_meters":10000,"station_id":"ce4bgv92rcd13ifvqcr0","pricing_plan_id":"cebpf4jnsgd1na2vs0mg"},{"bike_id":"6840b194-d99f-42ff-90a2-f12696d02246","system_id":"levelo_inurba_marseille","lat":43.29267,"lon":5.3843,"is_reserved":false,"is_disabled":false,"rental_uris":{"android":"levelo://app?vid=6840b194-d99f-42ff-90a2-f12696d02246","ios":"levelo://app?vid=6840b194-d99f-42ff-90a2-f12696d02246"},"vehicle_type_id":"4","last_reported":1744143008,"current_range_meters":10000,"station_id":"ce4bh692rcd13ifvqea0","pricing_plan_id":"cebpf4jnsgd1na2vs0mg"},{"bike_id":"612731d2-d819-48e3-b425-db5915ef53ee","system_id":"levelo_inurba_marseille","lat":43.28116,"lon":5.37742,"is_reserved":false,"is_disabled":false,"rental_uris":{"android":"levelo://app?vid=612731d2-d819-48e3-b425-db5915ef53ee","ios":"levelo://app?vid=612731d2-d819-48e3-b425-db5915ef53ee"},"vehicle_type_id":"4","last_reported":1744143008,"current_range_meters":10000,"station_id":"ce4bha12rcd13ifvqee0","pricing_plan_id":"cebpf4jnsgd1na2vs0mg"},{"bike_id":"94e58602-967e-42df-ae51-03e72ca997c6","system_id":"levelo_inurba_marseille","lat":43.32358,"lon":5.38898,"is_reserved":false,"is_disabled":false,"rental_uris":{"android":"levelo://app?vid=94e58602-967e-42df-ae51-03e72ca997c6","ios":"levelo://app?vid=94e58602-967e-42df-ae51-03e72ca997c6"},"vehicle_type_id":"4","last_reported":1744143008,"current_range_meters":10800,"station_id":"ce4bhqp2rcd13ifvqhog","pricing_plan_id":"cebpf4jnsgd1na2vs0mg"},{"bike_id":"1ca7d0c4-b7aa-4350-ad9f-4e24c2ba029a","system_id":"levelo_inurba_marseille","lat":43.3039,"lon":5.42476,"is_reserved":false,"is_disabled":true,"rental_uris":{"android":"levelo://app?vid=1ca7d0c4-b7aa-4350-ad9f-4e24c2ba029a","ios":"levelo://app?vid=1ca7d0c4-b7aa-4350-ad9f-4e24c2ba029a"},"vehicle_type_id":"4","last_reported":1744143008,"current_range_meters":10800,"station_id":"ce4bhoh2rcd13ifvqh6g","pricing_plan_id":"cebpf4jnsgd1na2vs0mg"},{"bike_id":"2219d906-d8eb-4861-9914-1da6aead283d","system_id":"levelo_inurba_marseille","lat":43.31071,"lon":5.38351,"is_reserved":false,"is_disabled":false,"rental_uris":{"android":"levelo://app?vid=2219d906-d8eb-4861-9914-1da6aead283d","ios":"levelo://app?vid=2219d906-d8eb-4861-9914-1da6aead283d"},"vehicle_type_id":"4","last_reported":1744143008,"current_range_meters":10800,"station_id":"ce4bgv92rcd13ifvqcr0","pricing_plan_id":"cebpf4jnsgd1na2vs0mg"},{"bike_id":"08f9c0c8-8b33-4578-8a03-20f44d582241","system_id":"levelo_inurba_marseille","lat":43.30596,"lon":5.37151,"is_reserved":false,"is_disabled":false,"rental_uris":{"android":"levelo://app?vid=08f9c0c8-8b33-4578-8a03-20f44d582241","ios":"levelo://app?vid=08f9c0c8-8b33-4578-8a03-20f44d582241"},"vehicle_type_id":"4","last_reported":1744143008,"current_range_meters":10800,"station_id":"","pricing_plan_id":"cebpf4jnsgd1na2vs0mg"},{"bike_id":"5eb25cad-eb8f-4da1-a171-c67b93ea715c","system_id":"levelo_inurba_marseille","lat":43.302118,"lon":5.394778,"is_reserved":false,"is_disabled":false,"rental_uris":{"android":"levelo://app?vid=5eb25cad-eb8f-4da1-a171-c67b93ea715c","ios":"levelo://app?vid=5eb25cad-eb8f-4da1-a171-c67b93ea715c"},"vehicle_type_id":"4","last_reported":1744143008,"current_range_meters":10800,"station_id":"ce4bhp92rcd13ifvqhcg","pricing_plan_id":"cebpf4jnsgd1na2vs0mg"},{"bike_id":"557e216a-f1fd-448c-87dc-bf453f47c735","system_id":"levelo_inurba_marseille","lat":43.29252,"lon":5.40907,"is_reserved":false,"is_disabled":false,"rental_uris":{"android":"levelo://app?vid=557e216a-f1fd-448c-87dc-bf453f47c735","ios":"levelo://app?vid=557e216a-f1fd-448c-87dc-bf453f47c735"},"vehicle_type_id":"4","last_reported":1744143008,"current_range_meters":10800,"station_id":"ce4bh192rcd13ifvqdc0","pricing_plan_id":"cebpf4jnsgd1na2vs0mg"},{"bike_id":"74184857-8efd-4c61-9718-aade9266a715","system_id":"levelo_inurba_marseille","lat":43.23188,"lon":5.39963,"is_reserved":false,"is_disabled":false,"rental_uris":{"android":"levelo://app?vid=74184857-8efd-4c61-9718-aade9266a715","ios":"levelo://app?vid=74184857-8efd-4c61-9718-aade9266a715"},"vehicle_type_id":"4","last_reported":1744143008,"current_range_meters":10800,"station_id":"ce4bhn12rcd13ifvqgqg","pricing_plan_id":"cebpf4jnsgd1na2vs0mg"},{"bike_id":"e34f7c01-c5fa-4cd6-8388-b5cd12b4b9c7","system_id":"levelo_inurba_marseille","lat":43.28633,"lon":5.35079,"is_reserved":false,"is_disabled":true,"rental_uris":{"android":"levelo://app?vid=e34f7c01-c5fa-4cd6-8388-b5cd12b4b9c7","ios":"levelo://app?vid=e34f7c01-c5fa-4cd6-8388-b5cd12b4b9c7"},"vehicle_type_id":"4","last_reported":1744143008,"current_range_meters":10800,"station_id":"ce4bhch2rcd13ifvqeug","pricing_plan_id":"cebpf4jnsgd1na2vs0mg"},{"bike_id":"9fce7fb9-26b6-4832-9f96-ea1b75c489f0","system_id":"levelo_inurba_marseille","lat":43.23214,"lon":5.35562,"is_reserved":false,"is_disabled":false,"rental_uris":{"android":"levelo://app?vid=9fce7fb9-26b6-4832-9f96-ea1b75c489f0","ios":"levelo://app?vid=9fce7fb9-26b6-4832-9f96-ea1b75c489f0"},"vehicle_type_id":"4","last_reported":1744143008,"current_range_meters":11200,"station_id":"ce4bhu92rcd13ifvqi70","pricing_plan_id":"cebpf4jnsgd1na2vs0mg"},{"bike_id":"b397701f-0d3d-44bf-ab3e-3ccc7e74fb2e","system_id":"levelo_inurba_marseille","lat":43.264584,"lon":5.422679,"is_reserved":false,"is_disabled":false,"rental_uris":{"android":"levelo://app?vid=b397701f-0d3d-44bf-ab3e-3ccc7e74fb2e","ios":"levelo://app?vid=b397701f-0d3d-44bf-ab3e-3ccc7e74fb2e"},"vehicle_type_id":"4","last_reported":1744143008,"current_range_meters":11200,"station_id":"","pricing_plan_id":"cebpf4jnsgd1na2vs0mg"},{"bike_id":"546a3976-9f8c-40bf-8a6a-f02c67815294","system_id":"levelo_inurba_marseille","lat":43.28413,"lon":5.39181,"is_reserved":false,"is_disabled":false,"rental_uris":{"android":"levelo://app?vid=546a3976-9f8c-40bf-8a6a-f02c67815294","ios":"levelo://app?vid=546a3976-9f8c-40bf-8a6a-f02c67815294"},"vehicle_type_id":"4","last_reported":1744143008,"current_range_meters":11600,"station_id":"ce4bhoh2rcd13ifvqh5g","pricing_plan_id":"cebpf4jnsgd1na2vs0mg"},{"bike_id":"05ebd012-a397-44d6-8d3a-b4fd8a759a09","system_id":"levelo_inurba_marseille","lat":43.30807,"lon":5.43531,"is_reserved":false,"is_disabled":false,"rental_uris":{"android":"levelo://app?vid=05ebd012-a397-44d6-8d3a-b4fd8a759a09","ios":"levelo://app?vid=05ebd012-a397-44d6-8d3a-b4fd8a759a09"},"vehicle_type_id":"4","last_reported":1744143008,"current_range_meters":11600,"station_id":"ce4bhph2rcd13ifvqheg","pricing_plan_id":"cebpf4jnsgd1na2vs0mg"},{"bike_id":"51439aa7-8d97-4b13-9148-17ecc42b1e3e","system_id":"levelo_inurba_marseille","lat":43.26938,"lon":5.38914,"is_reserved":false,"is_disabled":false,"rental_uris":{"android":"levelo://app?vid=51439aa7-8d97-4b13-9148-17ecc42b1e3e","ios":"levelo://app?vid=51439aa7-8d97-4b13-9148-17ecc42b1e3e"},"vehicle_type_id":"4","last_reported":1744143008,"current_range_meters":11600,"station_id":"ce4bhhh2rcd13ifvqfl0","pricing_plan_id":"cebpf4jnsgd1na2vs0mg"},{"bike_id":"5937f653-3f65-407b-9fe6-74eb6bfaa526","system_id":"levelo_inurba_marseille","lat":43.29813,"lon":5.38095,"is_reserved":false,"is_disabled":false,"rental_uris":{"android":"levelo://app?vid=5937f653-3f65-407b-9fe6-74eb6bfaa526","ios":"levelo://app?vid=5937f653-3f65-407b-9fe6-74eb6bfaa526"},"vehicle_type_id":"4","last_reported":1744143008,"current_range_meters":12000,"station_id":"ce4bgip2rcd13ifvqbb0","pricing_plan_id":"cebpf4jnsgd1na2vs0mg"},{"bike_id":"fe01520c-acce-479f-a077-d9852aa67c19","system_id":"levelo_inurba_marseille","lat":43.28964,"lon":5.37841,"is_reserved":false,"is_disabled":false,"rental_uris":{"android":"levelo://app?vid=fe01520c-acce-479f-a077-d9852aa67c19","ios":"levelo://app?vid=fe01520c-acce-479f-a077-d9852aa67c19"},"vehicle_type_id":"4","last_reported":1744143008,"current_range_meters":12000,"station_id":"ce4bh9p2rcd13ifvqed0","pricing_plan_id":"cebpf4jnsgd1na2vs0mg"},{"bike_id":"d41270f1-fec7-4c37-a954-f4e257bbdc37","system_id":"levelo_inurba_marseille","lat":43.29269,"lon":5.38435,"is_reserved":false,"is_disabled":false,"rental_uris":{"android":"levelo://app?vid=d41270f1-fec7-4c37-a954-f4e257bbdc37","ios":"levelo://app?vid=d41270f1-fec7-4c37-a954-f4e257bbdc37"},"vehicle_type_id":"4","last_reported":1744143008,"current_range_meters":12000,"station_id":"ce4bh692rcd13ifvqea0","pricing_plan_id":"cebpf4jnsgd1na2vs0mg"},{"bike_id":"49b5b449-0414-42f8-89c2-1949e69312b5","system_id":"levelo_inurba_marseille","lat":43.24815,"lon":5.37439,"is_reserved":false,"is_disabled":false,"rental_uris":{"android":"levelo://app?vid=49b5b449-0414-42f8-89c2-1949e69312b5","ios":"levelo://app?vid=49b5b449-0414-42f8-89c2-1949e69312b5"},"vehicle_type_id":"4","last_reported":1744143008,"current_range_meters":12000,"station_id":"ce4bhgh2rcd13ifvqfb0","pricing_plan_id":"cebpf4jnsgd1na2vs0mg"},{"bike_id":"16b1f7e2-9d61-4a84-ad43-cbc8f21d47b2","system_id":"levelo_inurba_marseille","lat":43.29281,"lon":5.38419,"is_reserved":false,"is_disabled":false,"rental_uris":{"android":"levelo://app?vid=16b1f7e2-9d61-4a84-ad43-cbc8f21d47b2","ios":"levelo://app?vid=16b1f7e2-9d61-4a84-ad43-cbc8f21d47b2"},"vehicle_type_id":"4","last_reported":1744143008,"current_range_meters":12000,"station_id":"ce4bh692rcd13ifvqea0","pricing_plan_id":"cebpf4jnsgd1na2vs0mg"},{"bike_id":"90cf09a3-75e7-4e99-becc-392a16a54ee2","system_id":"levelo_inurba_marseille","lat":43.28667,"lon":5.38665,"is_reserved":false,"is_disabled":false,"rental_uris":{"android":"levelo://app?vid=90cf09a3-75e7-4e99-becc-392a16a54ee2","ios":"levelo://app?vid=90cf09a3-75e7-4e99-becc-392a16a54ee2"},"vehicle_type_id":"4","last_reported":1744143008,"current_range_meters":12000,"station_id":"ce4bh492rcd13ifvqdug","pricing_plan_id":"cebpf4jnsgd1na2vs0mg"},{"bike_id":"2f69d31d-1e22-46b5-b363-7e3db009c8ab","system_id":"levelo_inurba_marseille","lat":43.29506,"lon":5.39037,"is_reserved":false,"is_disabled":false,"rental_uris":{"android":"levelo://app?vid=2f69d31d-1e22-46b5-b363-7e3db009c8ab","ios":"levelo://app?vid=2f69d31d-1e22-46b5-b363-7e3db009c8ab"},"vehicle_type_id":"4","last_reported":1744143008,"current_range_meters":12000,"station_id":"ce4bh3p2rcd13ifvqdp0","pricing_plan_id":"cebpf4jnsgd1na2vs0mg"},{"bike_id":"4ee8fd67-7d5f-473e-a6ea-304be67c80a9","system_id":"levelo_inurba_marseille","lat":43.28937,"lon":5.36636,"is_reserved":false,"is_disabled":false,"rental_uris":{"android":"levelo://app?vid=4ee8fd67-7d5f-473e-a6ea-304be67c80a9","ios":"levelo://app?vid=4ee8fd67-7d5f-473e-a6ea-304be67c80a9"},"vehicle_type_id":"4","last_reported":1744143008,"current_range_meters":12400,"station_id":"ce4bhap2rcd13ifvqek0","pricing_plan_id":"cebpf4jnsgd1na2vs0mg"},{"bike_id":"894923f7-24a8-4f05-8d0c-1af4b4d3211a","system_id":"levelo_inurba_marseille","lat":43.30306,"lon":5.392095,"is_reserved":false,"is_disabled":true,"rental_uris":{"android":"levelo://app?vid=894923f7-24a8-4f05-8d0c-1af4b4d3211a","ios":"levelo://app?vid=894923f7-24a8-4f05-8d0c-1af4b4d3211a"},"vehicle_type_id":"4","last_reported":1744143008,"current_range_meters":12400,"station_id":"ce4bgkh2rcd13ifvqbk0","pricing_plan_id":"cebpf4jnsgd1na2vs0mg"},{"bike_id":"b2ab7a9b-ab6f-40c3-9641-ca257733fa28","system_id":"levelo_inurba_marseille","lat":43.30829,"lon":5.38165,"is_reserved":false,"is_disabled":false,"rental_uris":{"android":"levelo://app?vid=b2ab7a9b-ab6f-40c3-9641-ca257733fa28","ios":"levelo://app?vid=b2ab7a9b-ab6f-40c3-9641-ca257733fa28"},"vehicle_type_id":"4","last_reported":1744143008,"current_range_meters":12400,"station_id":"ce4bgt12rcd13ifvqce0","pricing_plan_id":"cebpf4jnsgd1na2vs0mg"},{"bike_id":"8379372e-c06d-426f-85f9-acdc4eafa151","system_id":"levelo_inurba_marseille","lat":43.21755,"lon":5.34596,"is_reserved":false,"is_disabled":true,"rental_uris":{"android":"levelo://app?vid=8379372e-c06d-426f-85f9-acdc4eafa151","ios":"levelo://app?vid=8379372e-c06d-426f-85f9-acdc4eafa151"},"vehicle_type_id":"4","last_reported":1744143008,"current_range_meters":12400,"station_id":"st_cvj6r9ubvosntc0bgbag","pricing_plan_id":"cebpf4jnsgd1na2vs0mg"},{"bike_id":"e2267f0c-d827-414b-b770-932c79aaf9a0","system_id":"levelo_inurba_marseille","lat":43.28434,"lon":5.39187,"is_reserved":false,"is_disabled":false,"rental_uris":{"android":"levelo://app?vid=e2267f0c-d827-414b-b770-932c79aaf9a0","ios":"levelo://app?vid=e2267f0c-d827-414b-b770-932c79aaf9a0"},"vehicle_type_id":"4","last_reported":1744143008,"current_range_meters":12400,"station_id":"ce4bhoh2rcd13ifvqh5g","pricing_plan_id":"cebpf4jnsgd1na2vs0mg"},{"bike_id":"fe554949-79fc-40fb-9308-e13fc7147f59","system_id":"levelo_inurba_marseille","lat":43.31083,"lon":5.42429,"is_reserved":false,"is_disabled":false,"rental_uris":{"android":"levelo://app?vid=fe554949-79fc-40fb-9308-e13fc7147f59","ios":"levelo://app?vid=fe554949-79fc-40fb-9308-e13fc7147f59"},"vehicle_type_id":"4","last_reported":1744143008,"current_range_meters":12400,"station_id":"ce4bhp92rcd13ifvqhag","pricing_plan_id":"cebpf4jnsgd1na2vs0mg"},{"bike_id":"5c54d695-ec88-4b3e-a0a2-0b89b6599b2a","system_id":"levelo_inurba_marseille","lat":43.28446,"lon":5.35895,"is_reserved":false,"is_disabled":false,"rental_uris":{"android":"levelo://app?vid=5c54d695-ec88-4b3e-a0a2-0b89b6599b2a","ios":"levelo://app?vid=5c54d695-ec88-4b3e-a0a2-0b89b6599b2a"},"vehicle_type_id":"4","last_reported":1744143008,"current_range_meters":12800,"station_id":"ce4bhah2rcd13ifvqei0","pricing_plan_id":"cebpf4jnsgd1na2vs0mg"},{"bike_id":"76055e52-9550-430a-942e-266679872c8d","system_id":"levelo_inurba_marseille","lat":43.28664,"lon":5.36352,"is_reserved":false,"is_disabled":false,"rental_uris":{"android":"levelo://app?vid=76055e52-9550-430a-942e-266679872c8d","ios":"levelo://app?vid=76055e52-9550-430a-942e-266679872c8d"},"vehicle_type_id":"4","last_reported":1744143008,"current_range_meters":12800,"station_id":"ce4bhah2rcd13ifvqej0","pricing_plan_id":"cebpf4jnsgd1na2vs0mg"},{"bike_id":"1f6da2f9-30c2-42a9-b92f-0aa777355875","system_id":"levelo_inurba_marseille","lat":43.27173,"lon":5.40993,"is_reserved":false,"is_disabled":false,"rental_uris":{"android":"levelo://app?vid=1f6da2f9-30c2-42a9-b92f-0aa777355875","ios":"levelo://app?vid=1f6da2f9-30c2-42a9-b92f-0aa777355875"},"vehicle_type_id":"4","last_reported":1744143008,"current_range_meters":12800,"station_id":"ce4bhl12rcd13ifvqgf0","pricing_plan_id":"cebpf4jnsgd1na2vs0mg"},{"bike_id":"ae1a4e53-cc8d-4686-833e-275252312cd1","system_id":"levelo_inurba_marseille","lat":43.30548,"lon":5.38421,"is_reserved":false,"is_disabled":false,"rental_uris":{"android":"levelo://app?vid=ae1a4e53-cc8d-4686-833e-275252312cd1","ios":"levelo://app?vid=ae1a4e53-cc8d-4686-833e-275252312cd1"},"vehicle_type_id":"4","last_reported":1744143008,"current_range_meters":14800,"station_id":"ce4bgg92rcd13ifvqb30","pricing_plan_id":"cebpf4jnsgd1na2vs0mg"},{"bike_id":"92b3e8fd-a1ee-4297-8cb6-407591e9cea5","system_id":"levelo_inurba_marseille","lat":43.2986,"lon":5.39716,"is_reserved":false,"is_disabled":false,"rental_uris":{"android":"levelo://app?vid=92b3e8fd-a1ee-4297-8cb6-407591e9cea5","ios":"levelo://app?vid=92b3e8fd-a1ee-4297-8cb6-407591e9cea5"},"vehicle_type_id":"4","last_reported":1744143008,"current_range_meters":12800,"station_id":"ce4bh0h2rcd13ifvqd50","pricing_plan_id":"cebpf4jnsgd1na2vs0mg"},{"bike_id":"a73ae7fa-b644-45ea-b0aa-fd0f0482af2f","system_id":"levelo_inurba_marseille","lat":43.27997,"lon":5.40016,"is_reserved":false,"is_disabled":false,"rental_uris":{"android":"levelo://app?vid=a73ae7fa-b644-45ea-b0aa-fd0f0482af2f","ios":"levelo://app?vid=a73ae7fa-b644-45ea-b0aa-fd0f0482af2f"},"vehicle_type_id":"4","last_reported":1744143008,"current_range_meters":12800,"station_id":"ce4bho92rcd13ifvqh4g","pricing_plan_id":"cebpf4jnsgd1na2vs0mg"},{"bike_id":"f9dc6885-a20a-4330-a857-9be88c7a4c08","system_id":"levelo_inurba_marseille","lat":43.28411,"lon":5.37548,"is_reserved":false,"is_disabled":false,"rental_uris":{"android":"levelo://app?vid=f9dc6885-a20a-4330-a857-9be88c7a4c08","ios":"levelo://app?vid=f9dc6885-a20a-4330-a857-9be88c7a4c08"},"vehicle_type_id":"4","last_reported":1744143008,"current_range_meters":12800,"station_id":"ce4bh412rcd13ifvqds0","pricing_plan_id":"cebpf4jnsgd1na2vs0mg"},{"bike_id":"b42b5c0f-05ea-4d38-937c-818e08e0ea40","system_id":"levelo_inurba_marseille","lat":43.30139,"lon":5.38773,"is_reserved":false,"is_disabled":false,"rental_uris":{"android":"levelo://app?vid=b42b5c0f-05ea-4d38-937c-818e08e0ea40","ios":"levelo://app?vid=b42b5c0f-05ea-4d38-937c-818e08e0ea40"},"vehicle_type_id":"4","last_reported":1744143008,"current_range_meters":12800,"station_id":"ce4bghh2rcd13ifvqb60","pricing_plan_id":"cebpf4jnsgd1na2vs0mg"},{"bike_id":"a5618aef-65c7-4f8f-8645-3f781dc34ea2","system_id":"levelo_inurba_marseille","lat":43.29534,"lon":5.38552,"is_reserved":false,"is_disabled":false,"rental_uris":{"android":"levelo://app?vid=a5618aef-65c7-4f8f-8645-3f781dc34ea2","ios":"levelo://app?vid=a5618aef-65c7-4f8f-8645-3f781dc34ea2"},"vehicle_type_id":"4","last_reported":1744143008,"current_range_meters":13600,"station_id":"ce4bgih2rcd13ifvqba0","pricing_plan_id":"cebpf4jnsgd1na2vs0mg"},{"bike_id":"2b539354-2334-4f2e-883c-1328a00d046f","system_id":"levelo_inurba_marseille","lat":43.27831,"lon":5.39215,"is_reserved":false,"is_disabled":false,"rental_uris":{"android":"levelo://app?vid=2b539354-2334-4f2e-883c-1328a00d046f","ios":"levelo://app?vid=2b539354-2334-4f2e-883c-1328a00d046f"},"vehicle_type_id":"4","last_reported":1744143008,"current_range_meters":13600,"station_id":"ce4bhjp2rcd13ifvqga0","pricing_plan_id":"cebpf4jnsgd1na2vs0mg"},{"bike_id":"f8b33f63-1e1b-4451-853a-d94b01c5064d","system_id":"levelo_inurba_marseille","lat":43.284623,"lon":5.358792,"is_reserved":false,"is_disabled":false,"rental_uris":{"android":"levelo://app?vid=f8b33f63-1e1b-4451-853a-d94b01c5064d","ios":"levelo://app?vid=f8b33f63-1e1b-4451-853a-d94b01c5064d"},"vehicle_type_id":"4","last_reported":1744143008,"current_range_meters":13600,"station_id":"ce4bhah2rcd13ifvqei0","pricing_plan_id":"cebpf4jnsgd1na2vs0mg"},{"bike_id":"623e4034-3b82-496c-a4ed-4212ef9eeb16","system_id":"levelo_inurba_marseille","lat":43.27672,"lon":5.38871,"is_reserved":false,"is_disabled":false,"rental_uris":{"android":"levelo://app?vid=623e4034-3b82-496c-a4ed-4212ef9eeb16","ios":"levelo://app?vid=623e4034-3b82-496c-a4ed-4212ef9eeb16"},"vehicle_type_id":"4","last_reported":1744143008,"current_range_meters":13600,"station_id":"ce4bhi12rcd13ifvqfo0","pricing_plan_id":"cebpf4jnsgd1na2vs0mg"},{"bike_id":"ade69787-42c2-4cfe-9482-18068c5a70e3","system_id":"levelo_inurba_marseille","lat":43.29064,"lon":5.37156,"is_reserved":false,"is_disabled":false,"rental_uris":{"android":"levelo://app?vid=ade69787-42c2-4cfe-9482-18068c5a70e3","ios":"levelo://app?vid=ade69787-42c2-4cfe-9482-18068c5a70e3"},"vehicle_type_id":"4","last_reported":1744143008,"current_range_meters":13600,"station_id":"ce4bh5p2rcd13ifvqe4g","pricing_plan_id":"cebpf4jnsgd1na2vs0mg"},{"bike_id":"7d704dfc-1eb6-49d7-a9df-919a3b5b6c0a","system_id":"levelo_inurba_marseille","lat":43.27838,"lon":5.39206,"is_reserved":false,"is_disabled":false,"rental_uris":{"android":"levelo://app?vid=7d704dfc-1eb6-49d7-a9df-919a3b5b6c0a","ios":"levelo://app?vid=7d704dfc-1eb6-49d7-a9df-919a3b5b6c0a"},"vehicle_type_id":"4","last_reported":1744143008,"current_range_meters":13600,"station_id":"ce4bhjp2rcd13ifvqga0","pricing_plan_id":"cebpf4jnsgd1na2vs0mg"},{"bike_id":"a1214fb6-ec32-4f6d-b480-2c868d210d82","system_id":"levelo_inurba_marseille","lat":43.23191,"lon":5.35579,"is_reserved":false,"is_disabled":false,"rental_uris":{"android":"levelo://app?vid=a1214fb6-ec32-4f6d-b480-2c868d210d82","ios":"levelo://app?vid=a1214fb6-ec32-4f6d-b480-2c868d210d82"},"vehicle_type_id":"4","last_reported":1744143008,"current_range_meters":13600,"station_id":"ce4bhu92rcd13ifvqi70","pricing_plan_id":"cebpf4jnsgd1na2vs0mg"},{"bike_id":"976cec5e-1d70-490b-bdf7-6c40c593f342","system_id":"levelo_inurba_marseille","lat":43.29196,"lon":5.39309,"is_reserved":false,"is_disabled":false,"rental_uris":{"android":"levelo://app?vid=976cec5e-1d70-490b-bdf7-6c40c593f342","ios":"levelo://app?vid=976cec5e-1d70-490b-bdf7-6c40c593f342"},"vehicle_type_id":"4","last_reported":1744143008,"current_range_meters":14000,"station_id":"ce4bh192rcd13ifvqdd0","pricing_plan_id":"cebpf4jnsgd1na2vs0mg"},{"bike_id":"75d9cc88-2117-44c3-9d56-d428c47d1f06","system_id":"levelo_inurba_marseille","lat":43.25105,"lon":5.40346,"is_reserved":false,"is_disabled":false,"rental_uris":{"android":"levelo://app?vid=75d9cc88-2117-44c3-9d56-d428c47d1f06","ios":"levelo://app?vid=75d9cc88-2117-44c3-9d56-d428c47d1f06"},"vehicle_type_id":"4","last_reported":1744143008,"current_range_meters":14000,"station_id":"ce4bhlh2rcd13ifvqgig","pricing_plan_id":"cebpf4jnsgd1na2vs0mg"},{"bike_id":"c3443fc9-12bc-4c51-a6ed-4e8c5cdc0dc2","system_id":"levelo_inurba_marseille","lat":43.25495,"lon":5.37646,"is_reserved":false,"is_disabled":false,"rental_uris":{"android":"levelo://app?vid=c3443fc9-12bc-4c51-a6ed-4e8c5cdc0dc2","ios":"levelo://app?vid=c3443fc9-12bc-4c51-a6ed-4e8c5cdc0dc2"},"vehicle_type_id":"4","last_reported":1744143008,"current_range_meters":14000,"station_id":"ce4bhh12rcd13ifvqff0","pricing_plan_id":"cebpf4jnsgd1na2vs0mg"},{"bike_id":"a80c673f-2f84-4a1d-9b68-5498839ef9b9","system_id":"levelo_inurba_marseille","lat":43.29524,"lon":5.39044,"is_reserved":false,"is_disabled":false,"rental_uris":{"android":"levelo://app?vid=a80c673f-2f84-4a1d-9b68-5498839ef9b9","ios":"levelo://app?vid=a80c673f-2f84-4a1d-9b68-5498839ef9b9"},"vehicle_type_id":"4","last_reported":1744143008,"current_range_meters":14000,"station_id":"ce4bh3p2rcd13ifvqdp0","pricing_plan_id":"cebpf4jnsgd1na2vs0mg"},{"bike_id":"dc92e84f-c532-4ea5-ba73-f4002b6f85aa","system_id":"levelo_inurba_marseille","lat":43.298981,"lon":5.436617,"is_reserved":false,"is_disabled":false,"rental_uris":{"android":"levelo://app?vid=dc92e84f-c532-4ea5-ba73-f4002b6f85aa","ios":"levelo://app?vid=dc92e84f-c532-4ea5-ba73-f4002b6f85aa"},"vehicle_type_id":"4","last_reported":1744143008,"current_range_meters":14000,"station_id":"ce4bhpp2rcd13ifvqhfg","pricing_plan_id":"cebpf4jnsgd1na2vs0mg"},{"bike_id":"d59feb4f-b4fa-4385-a6ef-2964244863c0","system_id":"levelo_inurba_marseille","lat":43.30791,"lon":5.37647,"is_reserved":false,"is_disabled":false,"rental_uris":{"android":"levelo://app?vid=d59feb4f-b4fa-4385-a6ef-2964244863c0","ios":"levelo://app?vid=d59feb4f-b4fa-4385-a6ef-2964244863c0"},"vehicle_type_id":"4","last_reported":1744143008,"current_range_meters":14000,"station_id":"ce4bgv92rcd13ifvqcq0","pricing_plan_id":"cebpf4jnsgd1na2vs0mg"},{"bike_id":"12ae4edb-8afc-46da-b908-e730372891f8","system_id":"levelo_inurba_marseille","lat":43.31723,"lon":5.40442,"is_reserved":false,"is_disabled":false,"rental_uris":{"android":"levelo://app?vid=12ae4edb-8afc-46da-b908-e730372891f8","ios":"levelo://app?vid=12ae4edb-8afc-46da-b908-e730372891f8"},"vehicle_type_id":"4","last_reported":1744143008,"current_range_meters":14400,"station_id":"ce4bh012rcd13ifvqd00","pricing_plan_id":"cebpf4jnsgd1na2vs0mg"},{"bike_id":"4612345c-75a3-4189-8a6d-651578d0ecd4","system_id":"levelo_inurba_marseille","lat":43.24811,"lon":5.3746,"is_reserved":false,"is_disabled":true,"rental_uris":{"android":"levelo://app?vid=4612345c-75a3-4189-8a6d-651578d0ecd4","ios":"levelo://app?vid=4612345c-75a3-4189-8a6d-651578d0ecd4"},"vehicle_type_id":"4","last_reported":1744143008,"current_range_meters":14400,"station_id":"ce4bhgh2rcd13ifvqfb0","pricing_plan_id":"cebpf4jnsgd1na2vs0mg"},{"bike_id":"7f754e4a-077a-469a-a722-7e86af70d5f0","system_id":"levelo_inurba_marseille","lat":43.284169,"lon":5.375048,"is_reserved":false,"is_disabled":false,"rental_uris":{"android":"levelo://app?vid=7f754e4a-077a-469a-a722-7e86af70d5f0","ios":"levelo://app?vid=7f754e4a-077a-469a-a722-7e86af70d5f0"},"vehicle_type_id":"4","last_reported":1744143008,"current_range_meters":14400,"station_id":"ce4bh412rcd13ifvqds0","pricing_plan_id":"cebpf4jnsgd1na2vs0mg"},{"bike_id":"77bf1b8c-314e-4df8-8865-c0b5cdb8fbee","system_id":"levelo_inurba_marseille","lat":43.250861,"lon":5.395217,"is_reserved":false,"is_disabled":false,"rental_uris":{"android":"levelo://app?vid=77bf1b8c-314e-4df8-8865-c0b5cdb8fbee","ios":"levelo://app?vid=77bf1b8c-314e-4df8-8865-c0b5cdb8fbee"},"vehicle_type_id":"4","last_reported":1744143008,"current_range_meters":14400,"station_id":"ce4bhm12rcd13ifvqgkg","pricing_plan_id":"cebpf4jnsgd1na2vs0mg"},{"bike_id":"e24c6fd3-f9cb-40c7-9e57-dd2c20540e9b","system_id":"levelo_inurba_marseille","lat":43.31721,"lon":5.4243,"is_reserved":false,"is_disabled":false,"rental_uris":{"android":"levelo://app?vid=e24c6fd3-f9cb-40c7-9e57-dd2c20540e9b","ios":"levelo://app?vid=e24c6fd3-f9cb-40c7-9e57-dd2c20540e9b"},"vehicle_type_id":"4","last_reported":1744143008,"current_range_meters":14400,"station_id":"ce4bhp92rcd13ifvqhbg","pricing_plan_id":"cebpf4jnsgd1na2vs0mg"},{"bike_id":"e981e9f9-8f71-4093-93f6-be334bd20147","system_id":"levelo_inurba_marseille","lat":43.295362,"lon":5.423014,"is_reserved":false,"is_disabled":false,"rental_uris":{"android":"levelo://app?vid=e981e9f9-8f71-4093-93f6-be334bd20147","ios":"levelo://app?vid=e981e9f9-8f71-4093-93f6-be334bd20147"},"vehicle_type_id":"4","last_reported":1744143008,"current_range_meters":14400,"station_id":"ce4bhph2rcd13ifvqhdg","pricing_plan_id":"cebpf4jnsgd1na2vs0mg"},{"bike_id":"6a58c4b9-5908-4c3e-ba1c-31602d5dfcef","system_id":"levelo_inurba_marseille","lat":43.309253,"lon":5.40144,"is_reserved":false,"is_disabled":false,"rental_uris":{"android":"levelo://app?vid=6a58c4b9-5908-4c3e-ba1c-31602d5dfcef","ios":"levelo://app?vid=6a58c4b9-5908-4c3e-ba1c-31602d5dfcef"},"vehicle_type_id":"4","last_reported":1744143008,"current_range_meters":14800,"station_id":"ce4bgvp2rcd13ifvqct0","pricing_plan_id":"cebpf4jnsgd1na2vs0mg"},{"bike_id":"fc6adbd9-2933-4ce3-9706-d59df17b53d6","system_id":"levelo_inurba_marseille","lat":43.30909,"lon":5.37057,"is_reserved":false,"is_disabled":false,"rental_uris":{"android":"levelo://app?vid=fc6adbd9-2933-4ce3-9706-d59df17b53d6","ios":"levelo://app?vid=fc6adbd9-2933-4ce3-9706-d59df17b53d6"},"vehicle_type_id":"4","last_reported":1744143008,"current_range_meters":14800,"station_id":"","pricing_plan_id":"cebpf4jnsgd1na2vs0mg"},{"bike_id":"ce7fdd3f-a20e-4ec9-9618-33aab453ef43","system_id":"levelo_inurba_marseille","lat":43.28929,"lon":5.38407,"is_reserved":false,"is_disabled":false,"rental_uris":{"android":"levelo://app?vid=ce7fdd3f-a20e-4ec9-9618-33aab453ef43","ios":"levelo://app?vid=ce7fdd3f-a20e-4ec9-9618-33aab453ef43"},"vehicle_type_id":"4","last_reported":1744143008,"current_range_meters":14400,"station_id":"ce4bh612rcd13ifvqe6g","pricing_plan_id":"cebpf4jnsgd1na2vs0mg"},{"bike_id":"7521ffc7-1d89-4ff2-a65e-b5eef6db8441","system_id":"levelo_inurba_marseille","lat":43.276791,"lon":5.388624,"is_reserved":false,"is_disabled":false,"rental_uris":{"android":"levelo://app?vid=7521ffc7-1d89-4ff2-a65e-b5eef6db8441","ios":"levelo://app?vid=7521ffc7-1d89-4ff2-a65e-b5eef6db8441"},"vehicle_type_id":"4","last_reported":1744143008,"current_range_meters":14800,"station_id":"ce4bhi12rcd13ifvqfo0","pricing_plan_id":"cebpf4jnsgd1na2vs0mg"},{"bike_id":"5e84043f-8df0-4b6b-a0d7-581555c0b430","system_id":"levelo_inurba_marseille","lat":43.313273,"lon":5.396859,"is_reserved":false,"is_disabled":false,"rental_uris":{"android":"levelo://app?vid=5e84043f-8df0-4b6b-a0d7-581555c0b430","ios":"levelo://app?vid=5e84043f-8df0-4b6b-a0d7-581555c0b430"},"vehicle_type_id":"4","last_reported":1744143008,"current_range_meters":14800,"station_id":"ce4bgvp2rcd13ifvqcu0","pricing_plan_id":"cebpf4jnsgd1na2vs0mg"},{"bike_id":"cad9f3db-b9af-4905-8fc0-3649c11d0cd6","system_id":"levelo_inurba_marseille","lat":43.29281,"lon":5.401107,"is_reserved":false,"is_disabled":false,"rental_uris":{"android":"levelo://app?vid=cad9f3db-b9af-4905-8fc0-3649c11d0cd6","ios":"levelo://app?vid=cad9f3db-b9af-4905-8fc0-3649c11d0cd6"},"vehicle_type_id":"4","last_reported":1744143008,"current_range_meters":15200,"station_id":"ce4bgt92rcd13ifvqcf0","pricing_plan_id":"cebpf4jnsgd1na2vs0mg"},{"bike_id":"606a193b-cd9c-4902-b91a-b77f6adc5e47","system_id":"levelo_inurba_marseille","lat":43.28436,"lon":5.39194,"is_reserved":false,"is_disabled":false,"rental_uris":{"android":"levelo://app?vid=606a193b-cd9c-4902-b91a-b77f6adc5e47","ios":"levelo://app?vid=606a193b-cd9c-4902-b91a-b77f6adc5e47"},"vehicle_type_id":"4","last_reported":1744143008,"current_range_meters":15200,"station_id":"ce4bhoh2rcd13ifvqh5g","pricing_plan_id":"cebpf4jnsgd1na2vs0mg"},{"bike_id":"387189ff-7f4d-4f0c-82d6-c41186ed7c19","system_id":"levelo_inurba_marseille","lat":43.2836,"lon":5.38101,"is_reserved":false,"is_disabled":false,"rental_uris":{"android":"levelo://app?vid=387189ff-7f4d-4f0c-82d6-c41186ed7c19","ios":"levelo://app?vid=387189ff-7f4d-4f0c-82d6-c41186ed7c19"},"vehicle_type_id":"4","last_reported":1744143008,"current_range_meters":15200,"station_id":"ce4bh412rcd13ifvqdr0","pricing_plan_id":"cebpf4jnsgd1na2vs0mg"},{"bike_id":"46c99737-914c-4908-aeb8-48d54b22c93a","system_id":"levelo_inurba_marseille","lat":43.31711,"lon":5.424,"is_reserved":false,"is_disabled":false,"rental_uris":{"android":"levelo://app?vid=46c99737-914c-4908-aeb8-48d54b22c93a","ios":"levelo://app?vid=46c99737-914c-4908-aeb8-48d54b22c93a"},"vehicle_type_id":"4","last_reported":1744143008,"current_range_meters":15200,"station_id":"ce4bhp92rcd13ifvqhbg","pricing_plan_id":"cebpf4jnsgd1na2vs0mg"},{"bike_id":"56bac84d-bce0-4cbf-a97b-2752c2e2e156","system_id":"levelo_inurba_marseille","lat":43.2903,"lon":5.38653,"is_reserved":false,"is_disabled":false,"rental_uris":{"android":"levelo://app?vid=56bac84d-bce0-4cbf-a97b-2752c2e2e156","ios":"levelo://app?vid=56bac84d-bce0-4cbf-a97b-2752c2e2e156"},"vehicle_type_id":"4","last_reported":1744143008,"current_range_meters":15200,"station_id":"ce4bh4p2rcd13ifvqe0g","pricing_plan_id":"cebpf4jnsgd1na2vs0mg"},{"bike_id":"69987f03-2779-47ec-bdea-cd6547666bf1","system_id":"levelo_inurba_marseille","lat":43.29418,"lon":5.38629,"is_reserved":false,"is_disabled":false,"rental_uris":{"android":"levelo://app?vid=69987f03-2779-47ec-bdea-cd6547666bf1","ios":"levelo://app?vid=69987f03-2779-47ec-bdea-cd6547666bf1"},"vehicle_type_id":"4","last_reported":1744143008,"current_range_meters":15200,"station_id":"ce4bh2h2rcd13ifvqdh0","pricing_plan_id":"cebpf4jnsgd1na2vs0mg"},{"bike_id":"730efbd9-3e82-4f20-a995-7e1dd5610664","system_id":"levelo_inurba_marseille","lat":43.2899,"lon":5.38647,"is_reserved":false,"is_disabled":false,"rental_uris":{"android":"levelo://app?vid=730efbd9-3e82-4f20-a995-7e1dd5610664","ios":"levelo://app?vid=730efbd9-3e82-4f20-a995-7e1dd5610664"},"vehicle_type_id":"4","last_reported":1744143008,"current_range_meters":15200,"station_id":"ce4bh4p2rcd13ifvqe0g","pricing_plan_id":"cebpf4jnsgd1na2vs0mg"},{"bike_id":"1e099cf5-9456-4ac3-8d36-9153ce8a87f2","system_id":"levelo_inurba_marseille","lat":43.29568,"lon":5.39972,"is_reserved":false,"is_disabled":true,"rental_uris":{"android":"levelo://app?vid=1e099cf5-9456-4ac3-8d36-9153ce8a87f2","ios":"levelo://app?vid=1e099cf5-9456-4ac3-8d36-9153ce8a87f2"},"vehicle_type_id":"4","last_reported":1744143008,"current_range_meters":16000,"station_id":"ce4bh312rcd13ifvqdj0","pricing_plan_id":"cebpf4jnsgd1na2vs0mg"},{"bike_id":"eed9a0e7-6b5d-4b2d-9633-826f8e0380be","system_id":"levelo_inurba_marseille","lat":43.29591,"lon":5.38103,"is_reserved":false,"is_disabled":false,"rental_uris":{"android":"levelo://app?vid=eed9a0e7-6b5d-4b2d-9633-826f8e0380be","ios":"levelo://app?vid=eed9a0e7-6b5d-4b2d-9633-826f8e0380be"},"vehicle_type_id":"4","last_reported":1744143008,"current_range_meters":16000,"station_id":"ce4bgl12rcd13ifvqbo0","pricing_plan_id":"cebpf4jnsgd1na2vs0mg"},{"bike_id":"9abd8e33-47bb-4749-ad47-d7393fd0e2aa","system_id":"levelo_inurba_marseille","lat":43.286026,"lon":5.384524,"is_reserved":false,"is_disabled":false,"rental_uris":{"android":"levelo://app?vid=9abd8e33-47bb-4749-ad47-d7393fd0e2aa","ios":"levelo://app?vid=9abd8e33-47bb-4749-ad47-d7393fd0e2aa"},"vehicle_type_id":"4","last_reported":1744143008,"current_range_meters":16000,"station_id":"ce4bh492rcd13ifvqdug","pricing_plan_id":"cebpf4jnsgd1na2vs0mg"},{"bike_id":"0e5a636e-348d-45ef-a577-497af77b86a3","system_id":"levelo_inurba_marseille","lat":43.29908,"lon":5.38136,"is_reserved":false,"is_disabled":false,"rental_uris":{"android":"levelo://app?vid=0e5a636e-348d-45ef-a577-497af77b86a3","ios":"levelo://app?vid=0e5a636e-348d-45ef-a577-497af77b86a3"},"vehicle_type_id":"4","last_reported":1744143008,"current_range_meters":16000,"station_id":"ce4bgj12rcd13ifvqbc0","pricing_plan_id":"cebpf4jnsgd1na2vs0mg"},{"bike_id":"9afbdc94-518e-4e28-bb5d-4ae9f4cbef57","system_id":"levelo_inurba_marseille","lat":43.23196,"lon":5.35553,"is_reserved":false,"is_disabled":false,"rental_uris":{"android":"levelo://app?vid=9afbdc94-518e-4e28-bb5d-4ae9f4cbef57","ios":"levelo://app?vid=9afbdc94-518e-4e28-bb5d-4ae9f4cbef57"},"vehicle_type_id":"4","last_reported":1744143008,"current_range_meters":16000,"station_id":"ce4bhu92rcd13ifvqi70","pricing_plan_id":"cebpf4jnsgd1na2vs0mg"},{"bike_id":"d7e3ff0a-4d76-4471-ae84-b80cdebff9cc","system_id":"levelo_inurba_marseille","lat":43.31081,"lon":5.42428,"is_reserved":false,"is_disabled":false,"rental_uris":{"android":"levelo://app?vid=d7e3ff0a-4d76-4471-ae84-b80cdebff9cc","ios":"levelo://app?vid=d7e3ff0a-4d76-4471-ae84-b80cdebff9cc"},"vehicle_type_id":"4","last_reported":1744143008,"current_range_meters":16000,"station_id":"ce4bhp92rcd13ifvqhag","pricing_plan_id":"cebpf4jnsgd1na2vs0mg"},{"bike_id":"9389fffc-2713-4a3c-88ee-5d81997c68fb","system_id":"levelo_inurba_marseille","lat":43.30139,"lon":5.39859,"is_reserved":false,"is_disabled":false,"rental_uris":{"android":"levelo://app?vid=9389fffc-2713-4a3c-88ee-5d81997c68fb","ios":"levelo://app?vid=9389fffc-2713-4a3c-88ee-5d81997c68fb"},"vehicle_type_id":"4","last_reported":1744143008,"current_range_meters":16000,"station_id":"ce4bh0h2rcd13ifvqd40","pricing_plan_id":"cebpf4jnsgd1na2vs0mg"},{"bike_id":"e82d3cbf-6990-4eca-9743-6a7db542c284","system_id":"levelo_inurba_marseille","lat":43.32339,"lon":5.40619,"is_reserved":false,"is_disabled":false,"rental_uris":{"android":"levelo://app?vid=e82d3cbf-6990-4eca-9743-6a7db542c284","ios":"levelo://app?vid=e82d3cbf-6990-4eca-9743-6a7db542c284"},"vehicle_type_id":"4","last_reported":1744143008,"current_range_meters":16000,"station_id":"ce4bhq92rcd13ifvqhjg","pricing_plan_id":"cebpf4jnsgd1na2vs0mg"},{"bike_id":"7e488337-315e-40a4-a3f1-0d4cba19e8a8","system_id":"levelo_inurba_marseille","lat":43.24659,"lon":5.38158,"is_reserved":false,"is_disabled":false,"rental_uris":{"android":"levelo://app?vid=7e488337-315e-40a4-a3f1-0d4cba19e8a8","ios":"levelo://app?vid=7e488337-315e-40a4-a3f1-0d4cba19e8a8"},"vehicle_type_id":"4","last_reported":1744143008,"current_range_meters":16000,"station_id":"ce4bhih2rcd13ifvqfr0","pricing_plan_id":"cebpf4jnsgd1na2vs0mg"},{"bike_id":"00d68927-02cd-41a3-ad85-7d8a917996e3","system_id":"levelo_inurba_marseille","lat":43.28851,"lon":5.35849,"is_reserved":false,"is_disabled":false,"rental_uris":{"android":"levelo://app?vid=00d68927-02cd-41a3-ad85-7d8a917996e3","ios":"levelo://app?vid=00d68927-02cd-41a3-ad85-7d8a917996e3"},"vehicle_type_id":"4","last_reported":1744143008,"current_range_meters":16000,"station_id":"ce4bhb12rcd13ifvqem0","pricing_plan_id":"cebpf4jnsgd1na2vs0mg"},{"bike_id":"5273534c-3473-4abd-9c4b-e677a5c1499a","system_id":"levelo_inurba_marseille","lat":43.29013,"lon":5.36971,"is_reserved":false,"is_disabled":false,"rental_uris":{"android":"levelo://app?vid=5273534c-3473-4abd-9c4b-e677a5c1499a","ios":"levelo://app?vid=5273534c-3473-4abd-9c4b-e677a5c1499a"},"vehicle_type_id":"4","last_reported":1744143008,"current_range_meters":16000,"station_id":"","pricing_plan_id":"cebpf4jnsgd1na2vs0mg"},{"bike_id":"8c197d49-c36e-4edb-a434-a1b7362add44","system_id":"levelo_inurba_marseille","lat":43.30458,"lon":5.37906,"is_reserved":false,"is_disabled":false,"rental_uris":{"android":"levelo://app?vid=8c197d49-c36e-4edb-a434-a1b7362add44","ios":"levelo://app?vid=8c197d49-c36e-4edb-a434-a1b7362add44"},"vehicle_type_id":"4","last_reported":1744143008,"current_range_meters":16400,"station_id":"ce4bgup2rcd13ifvqcn0","pricing_plan_id":"cebpf4jnsgd1na2vs0mg"},{"bike_id":"103a5395-1e8e-4c65-9c4c-01fdb44b5112","system_id":"levelo_inurba_marseille","lat":43.29965,"lon":5.38515,"is_reserved":false,"is_disabled":false,"rental_uris":{"android":"levelo://app?vid=103a5395-1e8e-4c65-9c4c-01fdb44b5112","ios":"levelo://app?vid=103a5395-1e8e-4c65-9c4c-01fdb44b5112"},"vehicle_type_id":"4","last_reported":1744143008,"current_range_meters":16400,"station_id":"ce4bgj92rcd13ifvqbd0","pricing_plan_id":"cebpf4jnsgd1na2vs0mg"},{"bike_id":"8006fe9a-c632-431f-91f5-8f2d4ff4ed2a","system_id":"levelo_inurba_marseille","lat":43.28431,"lon":5.34971,"is_reserved":false,"is_disabled":false,"rental_uris":{"android":"levelo://app?vid=8006fe9a-c632-431f-91f5-8f2d4ff4ed2a","ios":"levelo://app?vid=8006fe9a-c632-431f-91f5-8f2d4ff4ed2a"},"vehicle_type_id":"4","last_reported":1744143008,"current_range_meters":16400,"station_id":"ce4bhbh2rcd13ifvqepg","pricing_plan_id":"cebpf4jnsgd1na2vs0mg"},{"bike_id":"7a698e16-5d39-48f3-8783-1fccc510a2bc","system_id":"levelo_inurba_marseille","lat":43.29978,"lon":5.38539,"is_reserved":false,"is_disabled":false,"rental_uris":{"android":"levelo://app?vid=7a698e16-5d39-48f3-8783-1fccc510a2bc","ios":"levelo://app?vid=7a698e16-5d39-48f3-8783-1fccc510a2bc"},"vehicle_type_id":"4","last_reported":1744143008,"current_range_meters":16400,"station_id":"ce4bgj92rcd13ifvqbd0","pricing_plan_id":"cebpf4jnsgd1na2vs0mg"},{"bike_id":"8608fed8-5511-445a-b382-7039018c22a6","system_id":"levelo_inurba_marseille","lat":43.27067,"lon":5.42266,"is_reserved":false,"is_disabled":false,"rental_uris":{"android":"levelo://app?vid=8608fed8-5511-445a-b382-7039018c22a6","ios":"levelo://app?vid=8608fed8-5511-445a-b382-7039018c22a6"},"vehicle_type_id":"4","last_reported":1744143008,"current_range_meters":16400,"station_id":"ce4bhk92rcd13ifvqgb0","pricing_plan_id":"cebpf4jnsgd1na2vs0mg"},{"bike_id":"883c8d90-abeb-4704-9c82-a9172c11ee9f","system_id":"levelo_inurba_marseille","lat":43.2953,"lon":5.3854,"is_reserved":false,"is_disabled":false,"rental_uris":{"android":"levelo://app?vid=883c8d90-abeb-4704-9c82-a9172c11ee9f","ios":"levelo://app?vid=883c8d90-abeb-4704-9c82-a9172c11ee9f"},"vehicle_type_id":"4","last_reported":1744143008,"current_range_meters":16400,"station_id":"ce4bgih2rcd13ifvqba0","pricing_plan_id":"cebpf4jnsgd1na2vs0mg"},{"bike_id":"7c61c4ec-e12c-4c03-a07d-21dbde4a9c42","system_id":"levelo_inurba_marseille","lat":43.29918,"lon":5.38139,"is_reserved":false,"is_disabled":false,"rental_uris":{"android":"levelo://app?vid=7c61c4ec-e12c-4c03-a07d-21dbde4a9c42","ios":"levelo://app?vid=7c61c4ec-e12c-4c03-a07d-21dbde4a9c42"},"vehicle_type_id":"4","last_reported":1744143008,"current_range_meters":16400,"station_id":"ce4bgj12rcd13ifvqbc0","pricing_plan_id":"cebpf4jnsgd1na2vs0mg"},{"bike_id":"e2b59902-6359-4dca-bc19-3e3e3e41aed4","system_id":"levelo_inurba_marseille","lat":43.24805,"lon":5.37454,"is_reserved":false,"is_disabled":true,"rental_uris":{"android":"levelo://app?vid=e2b59902-6359-4dca-bc19-3e3e3e41aed4","ios":"levelo://app?vid=e2b59902-6359-4dca-bc19-3e3e3e41aed4"},"vehicle_type_id":"4","last_reported":1744143008,"current_range_meters":16800,"station_id":"ce4bhgh2rcd13ifvqfb0","pricing_plan_id":"cebpf4jnsgd1na2vs0mg"},{"bike_id":"f8fd05f6-b019-4162-a9df-dc82b614e530","system_id":"levelo_inurba_marseille","lat":43.28441,"lon":5.39204,"is_reserved":false,"is_disabled":false,"rental_uris":{"android":"levelo://app?vid=f8fd05f6-b019-4162-a9df-dc82b614e530","ios":"levelo://app?vid=f8fd05f6-b019-4162-a9df-dc82b614e530"},"vehicle_type_id":"4","last_reported":1744143008,"current_range_meters":16800,"station_id":"ce4bhoh2rcd13ifvqh5g","pricing_plan_id":"cebpf4jnsgd1na2vs0mg"},{"bike_id":"50db4b0f-056b-4066-ae91-47ae9dd33202","system_id":"levelo_inurba_marseille","lat":43.29526,"lon":5.38542,"is_reserved":false,"is_disabled":false,"rental_uris":{"android":"levelo://app?vid=50db4b0f-056b-4066-ae91-47ae9dd33202","ios":"levelo://app?vid=50db4b0f-056b-4066-ae91-47ae9dd33202"},"vehicle_type_id":"4","last_reported":1744143008,"current_range_meters":16800,"station_id":"ce4bgih2rcd13ifvqba0","pricing_plan_id":"cebpf4jnsgd1na2vs0mg"},{"bike_id":"4f372c5e-1604-49ea-b823-35f44d971958","system_id":"levelo_inurba_marseille","lat":43.29863,"lon":5.39738,"is_reserved":false,"is_disabled":false,"rental_uris":{"android":"levelo://app?vid=4f372c5e-1604-49ea-b823-35f44d971958","ios":"levelo://app?vid=4f372c5e-1604-49ea-b823-35f44d971958"},"vehicle_type_id":"4","last_reported":1744143008,"current_range_meters":16800,"station_id":"ce4bh0h2rcd13ifvqd50","pricing_plan_id":"cebpf4jnsgd1na2vs0mg"},{"bike_id":"0eb8309d-11bc-49a9-ab8f-d00241e6b8fe","system_id":"levelo_inurba_marseille","lat":43.30299,"lon":5.39225,"is_reserved":false,"is_disabled":false,"rental_uris":{"android":"levelo://app?vid=0eb8309d-11bc-49a9-ab8f-d00241e6b8fe","ios":"levelo://app?vid=0eb8309d-11bc-49a9-ab8f-d00241e6b8fe"},"vehicle_type_id":"4","last_reported":1744143008,"current_range_meters":16800,"station_id":"ce4bgkh2rcd13ifvqbk0","pricing_plan_id":"cebpf4jnsgd1na2vs0mg"},{"bike_id":"def16230-6839-41bc-97e8-197ff2eb3975","system_id":"levelo_inurba_marseille","lat":43.29525,"lon":5.38534,"is_reserved":false,"is_disabled":false,"rental_uris":{"android":"levelo://app?vid=def16230-6839-41bc-97e8-197ff2eb3975","ios":"levelo://app?vid=def16230-6839-41bc-97e8-197ff2eb3975"},"vehicle_type_id":"4","last_reported":1744143008,"current_range_meters":16800,"station_id":"ce4bgih2rcd13ifvqba0","pricing_plan_id":"cebpf4jnsgd1na2vs0mg"},{"bike_id":"bb8c20fc-e5c2-49eb-89e1-be1bff38b1bc","system_id":"levelo_inurba_marseille","lat":43.29523,"lon":5.38544,"is_reserved":false,"is_disabled":false,"rental_uris":{"android":"levelo://app?vid=bb8c20fc-e5c2-49eb-89e1-be1bff38b1bc","ios":"levelo://app?vid=bb8c20fc-e5c2-49eb-89e1-be1bff38b1bc"},"vehicle_type_id":"4","last_reported":1744143008,"current_range_meters":16800,"station_id":"ce4bgih2rcd13ifvqba0","pricing_plan_id":"cebpf4jnsgd1na2vs0mg"},{"bike_id":"cfa10923-000d-4d6c-a18c-69dd84627bc9","system_id":"levelo_inurba_marseille","lat":43.302014,"lon":5.388131,"is_reserved":false,"is_disabled":false,"rental_uris":{"android":"levelo://app?vid=cfa10923-000d-4d6c-a18c-69dd84627bc9","ios":"levelo://app?vid=cfa10923-000d-4d6c-a18c-69dd84627bc9"},"vehicle_type_id":"4","last_reported":1744143008,"current_range_meters":16800,"station_id":"ce4bgv92rcd13ifvqcr0","pricing_plan_id":"cebpf4jnsgd1na2vs0mg"},{"bike_id":"f59c962d-e3aa-411f-b6eb-24802869fd2c","system_id":"levelo_inurba_marseille","lat":43.21759,"lon":5.34588,"is_reserved":false,"is_disabled":false,"rental_uris":{"android":"levelo://app?vid=f59c962d-e3aa-411f-b6eb-24802869fd2c","ios":"levelo://app?vid=f59c962d-e3aa-411f-b6eb-24802869fd2c"},"vehicle_type_id":"4","last_reported":1744143008,"current_range_meters":16800,"station_id":"st_cvj6r9ubvosntc0bgbag","pricing_plan_id":"cebpf4jnsgd1na2vs0mg"},{"bike_id":"b37944fb-f9c1-4c8e-ac3a-9da227afb433","system_id":"levelo_inurba_marseille","lat":43.30799,"lon":5.38154,"is_reserved":false,"is_disabled":true,"rental_uris":{"android":"levelo://app?vid=b37944fb-f9c1-4c8e-ac3a-9da227afb433","ios":"levelo://app?vid=b37944fb-f9c1-4c8e-ac3a-9da227afb433"},"vehicle_type_id":"4","last_reported":1744143008,"current_range_meters":16800,"station_id":"ce4bgt12rcd13ifvqce0","pricing_plan_id":"cebpf4jnsgd1na2vs0mg"},{"bike_id":"4d213367-ff85-4d7b-b918-df2c932cc61f","system_id":"levelo_inurba_marseille","lat":43.29706,"lon":5.36617,"is_reserved":false,"is_disabled":false,"rental_uris":{"android":"levelo://app?vid=4d213367-ff85-4d7b-b918-df2c932cc61f","ios":"levelo://app?vid=4d213367-ff85-4d7b-b918-df2c932cc61f"},"vehicle_type_id":"4","last_reported":1744143008,"current_range_meters":16800,"station_id":"ce4bgn12rcd13ifvqbt0","pricing_plan_id":"cebpf4jnsgd1na2vs0mg"},{"bike_id":"500b552f-56b8-4b4a-939e-43e5a1336a03","system_id":"levelo_inurba_marseille","lat":43.24686,"lon":5.38157,"is_reserved":false,"is_disabled":false,"rental_uris":{"android":"levelo://app?vid=500b552f-56b8-4b4a-939e-43e5a1336a03","ios":"levelo://app?vid=500b552f-56b8-4b4a-939e-43e5a1336a03"},"vehicle_type_id":"4","last_reported":1744143008,"current_range_meters":16800,"station_id":"ce4bhih2rcd13ifvqfr0","pricing_plan_id":"cebpf4jnsgd1na2vs0mg"},{"bike_id":"edf92683-0c32-4b77-9509-d6f3456c71e1","system_id":"levelo_inurba_marseille","lat":43.305993,"lon":5.39359,"is_reserved":false,"is_disabled":true,"rental_uris":{"android":"levelo://app?vid=edf92683-0c32-4b77-9509-d6f3456c71e1","ios":"levelo://app?vid=edf92683-0c32-4b77-9509-d6f3456c71e1"},"vehicle_type_id":"4","last_reported":1744143008,"current_range_meters":17200,"station_id":"ce4bh0p2rcd13ifvqd80","pricing_plan_id":"cebpf4jnsgd1na2vs0mg"},{"bike_id":"52dfef30-eef0-4dd6-a138-a48c8dcc2c3a","system_id":"levelo_inurba_marseille","lat":43.30408,"lon":5.42766,"is_reserved":false,"is_disabled":true,"rental_uris":{"android":"levelo://app?vid=52dfef30-eef0-4dd6-a138-a48c8dcc2c3a","ios":"levelo://app?vid=52dfef30-eef0-4dd6-a138-a48c8dcc2c3a"},"vehicle_type_id":"4","last_reported":1744143008,"current_range_meters":17200,"station_id":"","pricing_plan_id":"cebpf4jnsgd1na2vs0mg"},{"bike_id":"e8daa4ef-7f72-4799-989a-866e36d23f60","system_id":"levelo_inurba_marseille","lat":43.29903,"lon":5.38142,"is_reserved":false,"is_disabled":false,"rental_uris":{"android":"levelo://app?vid=e8daa4ef-7f72-4799-989a-866e36d23f60","ios":"levelo://app?vid=e8daa4ef-7f72-4799-989a-866e36d23f60"},"vehicle_type_id":"4","last_reported":1744143008,"current_range_meters":17200,"station_id":"ce4bgj12rcd13ifvqbc0","pricing_plan_id":"cebpf4jnsgd1na2vs0mg"},{"bike_id":"f3c6787c-000a-4d3a-b7fc-3c7fa2a21265","system_id":"levelo_inurba_marseille","lat":43.30798,"lon":5.3816,"is_reserved":false,"is_disabled":false,"rental_uris":{"android":"levelo://app?vid=f3c6787c-000a-4d3a-b7fc-3c7fa2a21265","ios":"levelo://app?vid=f3c6787c-000a-4d3a-b7fc-3c7fa2a21265"},"vehicle_type_id":"4","last_reported":1744143008,"current_range_meters":17200,"station_id":"ce4bgt12rcd13ifvqce0","pricing_plan_id":"cebpf4jnsgd1na2vs0mg"},{"bike_id":"b3014d67-1beb-4a0f-a0f5-829e0d2a4492","system_id":"levelo_inurba_marseille","lat":43.21752,"lon":5.34599,"is_reserved":false,"is_disabled":false,"rental_uris":{"android":"levelo://app?vid=b3014d67-1beb-4a0f-a0f5-829e0d2a4492","ios":"levelo://app?vid=b3014d67-1beb-4a0f-a0f5-829e0d2a4492"},"vehicle_type_id":"4","last_reported":1744143008,"current_range_meters":17200,"station_id":"ce4bhu92rcd13ifvqi70","pricing_plan_id":"cebpf4jnsgd1na2vs0mg"},{"bike_id":"020572ba-a5aa-440a-b36f-c17175204926","system_id":"levelo_inurba_marseille","lat":43.29525,"lon":5.38533,"is_reserved":false,"is_disabled":false,"rental_uris":{"android":"levelo://app?vid=020572ba-a5aa-440a-b36f-c17175204926","ios":"levelo://app?vid=020572ba-a5aa-440a-b36f-c17175204926"},"vehicle_type_id":"4","last_reported":1744143008,"current_range_meters":17200,"station_id":"ce4bgih2rcd13ifvqba0","pricing_plan_id":"cebpf4jnsgd1na2vs0mg"},{"bike_id":"85daecf8-9f8b-411c-9d45-97b933bebeb7","system_id":"levelo_inurba_marseille","lat":43.28414,"lon":5.34986,"is_reserved":false,"is_disabled":true,"rental_uris":{"android":"levelo://app?vid=85daecf8-9f8b-411c-9d45-97b933bebeb7","ios":"levelo://app?vid=85daecf8-9f8b-411c-9d45-97b933bebeb7"},"vehicle_type_id":"4","last_reported":1744143008,"current_range_meters":17200,"station_id":"ce4bhbh2rcd13ifvqepg","pricing_plan_id":"cebpf4jnsgd1na2vs0mg"},{"bike_id":"6db24fd0-98ac-466b-936a-9880ef510afb","system_id":"levelo_inurba_marseille","lat":43.30764,"lon":5.37653,"is_reserved":false,"is_disabled":false,"rental_uris":{"android":"levelo://app?vid=6db24fd0-98ac-466b-936a-9880ef510afb","ios":"levelo://app?vid=6db24fd0-98ac-466b-936a-9880ef510afb"},"vehicle_type_id":"4","last_reported":1744143008,"current_range_meters":17200,"station_id":"ce4bgv92rcd13ifvqcq0","pricing_plan_id":"cebpf4jnsgd1na2vs0mg"},{"bike_id":"676ca70f-1aca-4472-ac48-c0a4634213c4","system_id":"levelo_inurba_marseille","lat":43.29251,"lon":5.40899,"is_reserved":false,"is_disabled":false,"rental_uris":{"android":"levelo://app?vid=676ca70f-1aca-4472-ac48-c0a4634213c4","ios":"levelo://app?vid=676ca70f-1aca-4472-ac48-c0a4634213c4"},"vehicle_type_id":"4","last_reported":1744143008,"current_range_meters":17600,"station_id":"ce4bh192rcd13ifvqdc0","pricing_plan_id":"cebpf4jnsgd1na2vs0mg"},{"bike_id":"42a8b2fe-4f73-4614-977b-e86e15829374","system_id":"levelo_inurba_marseille","lat":43.28844,"lon":5.39308,"is_reserved":false,"is_disabled":false,"rental_uris":{"android":"levelo://app?vid=42a8b2fe-4f73-4614-977b-e86e15829374","ios":"levelo://app?vid=42a8b2fe-4f73-4614-977b-e86e15829374"},"vehicle_type_id":"4","last_reported":1744143008,"current_range_meters":17600,"station_id":"ce4bh2p2rcd13ifvqdi0","pricing_plan_id":"cebpf4jnsgd1na2vs0mg"},{"bike_id":"dd42376e-7dab-4ff8-8935-c2f8547939ee","system_id":"levelo_inurba_marseille","lat":43.29892,"lon":5.38901,"is_reserved":false,"is_disabled":false,"rental_uris":{"android":"levelo://app?vid=dd42376e-7dab-4ff8-8935-c2f8547939ee","ios":"levelo://app?vid=dd42376e-7dab-4ff8-8935-c2f8547939ee"},"vehicle_type_id":"4","last_reported":1744143008,"current_range_meters":17600,"station_id":"ce4bh392rcd13ifvqdl0","pricing_plan_id":"cebpf4jnsgd1na2vs0mg"},{"bike_id":"a3901e92-b4d1-4fe1-967b-c8664dd78f5a","system_id":"levelo_inurba_marseille","lat":43.29907,"lon":5.38134,"is_reserved":false,"is_disabled":false,"rental_uris":{"android":"levelo://app?vid=a3901e92-b4d1-4fe1-967b-c8664dd78f5a","ios":"levelo://app?vid=a3901e92-b4d1-4fe1-967b-c8664dd78f5a"},"vehicle_type_id":"4","last_reported":1744143008,"current_range_meters":17600,"station_id":"ce4bgj12rcd13ifvqbc0","pricing_plan_id":"cebpf4jnsgd1na2vs0mg"},{"bike_id":"2a0fa325-1067-4666-9e28-7c5a9ab1a197","system_id":"levelo_inurba_marseille","lat":43.30544,"lon":5.3671,"is_reserved":false,"is_disabled":false,"rental_uris":{"android":"levelo://app?vid=2a0fa325-1067-4666-9e28-7c5a9ab1a197","ios":"levelo://app?vid=2a0fa325-1067-4666-9e28-7c5a9ab1a197"},"vehicle_type_id":"4","last_reported":1744143008,"current_range_meters":17600,"station_id":"ce4bgrp2rcd13ifvqc9g","pricing_plan_id":"cebpf4jnsgd1na2vs0mg"},{"bike_id":"d7b2134e-575c-40f1-9b3b-0ad40ab4b220","system_id":"levelo_inurba_marseille","lat":43.2986,"lon":5.43659,"is_reserved":false,"is_disabled":false,"rental_uris":{"android":"levelo://app?vid=d7b2134e-575c-40f1-9b3b-0ad40ab4b220","ios":"levelo://app?vid=d7b2134e-575c-40f1-9b3b-0ad40ab4b220"},