{"last_updated":1684166907,"ttl":30,"version":"2.2","data":{"bikes":[{"bike_id":"3f644aa0-a82f-4c5d-ac9e-f15e59feab3c","system_id":"levelo_inurba_marseille","lat":43.312239,"lon":5.368562,"is_reserved":false,"is_disabled":false,"rental_uris":{"android":"levelo://app?vid=3f644aa0-a82f-4c5d-ac9e-f15e59feab3c","ios":"levelo://app?vid=3f644aa0-a82f-4c5d-ac9e-f15e59feab3c"},"vehicle_type_id":"4","last_reported":1684166907,"current_range_meters":18800,"station_id":"ce4bgl92rcd13ifvqbq0","pricing_plan_id":"free"},{"bike_id":"12206075-b0b9-41ff-8684-941bf7498ff8","system_id":"levelo_inurba_marseille","lat":43.314811,"lon":5.373104,"is_reserved":false,"is_disabled":false,"rental_uris":{"android":"levelo://app?vid=12206075-b0b9-41ff-8684-941bf7498ff8","ios":"levelo://app?vid=12206075-b0b9-41ff-8684-941bf7498ff8"},"vehicle_type_id":"4","last_reported":1684166907,"current_range_meters":26400,"station_id":"ce4bgt12rcd13ifvqcd0","pricing_plan_id":"free"},{"bike_id":"2f11cd2c-4d01-4456-b483-9c5ecce10f33","system_id":"levelo_inurba_marseille","lat":43.30882,"lon":5.3719,"is_reserved":false,"is_disabled":false,"rental_uris":{"android":"levelo://app?vid=2f11cd2c-4d01-4456-b483-9c5ecce10f33","ios":"levelo://app?vid=2f11cd2c-4d01-4456-b483-9c5ecce10f33"},"vehicle_type_id":"4","last_reported":1684166907,"current_range_meters":0,"station_id":"","pricing_plan_id":"free"},{"bike_id":"f560fd9d-9152-48da-b6b7-132a7a4e1e57","system_id":"levelo_inurba_marseille","lat":43.30588,"lon":5.36563,"is_reserved":false,"is_disabled":false,"rental_uris":{"android":"levelo://app?vid=f560fd9d-9152-48da-b6b7-132a7a4e1e57","ios":"levelo://app?vid=f560fd9d-9152-48da-b6b7-132a7a4e1e57"},"vehicle_type_id":"4","last_reported":1684166907,"current_range_meters":6800,"station_id":"","pricing_plan_id":"free"},{"bike_id":"338ec2f4-ee93-494e-b1c7-28496668b625","system_id":"levelo_inurba_marseille","lat":43.305989,"lon":5.37225,"is_reserved":false,"is_disabled":false,"rental_uris":{"android":"levelo://app?vid=338ec2f4-ee93-494e-b1c7-28496668b625","ios":"levelo://app?vid=338ec2f4-ee93-494e-b1c7-28496668b625"},"vehicle_type_id":"4","last_reported":1684166907,"current_range_meters":14000,"station_id":"ce4bgqh2rcd13ifvqc4g","pricing_plan_id":"free"},{"bike_id":"50838f05-89de-40df-98db-2558c74d20f3","system_id":"levelo_inurba_marseille","lat":43.305989,"lon":5.37225,"is_reserved":false,"is_disabled":false,"rental_uris":{"android":"levelo://app?vid=50838f05-89de-40df-98db-2558c74d20f3","ios":"levelo://app?vid=50838f05-89de-40df-98db-2558c74d20f3"},"vehicle_type_id":"4","last_reported":1684166907,"current_range_meters":2400,"station_id":"ce4bgqh2rcd13ifvqc4g","pricing_plan_id":"free"},{"bike_id":"9ba1017b-8300-474a-91db-41b862a76e96","system_id":"levelo_inurba_marseille","lat":43.311125,"lon":5.377624,"is_reserved":false,"is_disabled":false,"rental_uris":{"android":"levelo://app?vid=9ba1017b-8300-474a-91db-41b862a76e96","ios":"levelo://app?vid=9ba1017b-8300-474a-91db-41b862a76e96"},"vehicle_type_id":"4","last_reported":1684166907,"current_range_meters":8400,"station_id":"ce4bgt92rcd13ifvqcg0","pricing_plan_id":"free"},{"bike_id":"2d17861b-8019-451e-b70c-282f6639dda0","system_id":"levelo_inurba_marseille","lat":43.311125,"lon":5.377624,"is_reserved":false,"is_disabled":false,"rental_uris":{"android":"levelo://app?vid=2d17861b-8019-451e-b70c-282f6639dda0","ios":"levelo://app?vid=2d17861b-8019-451e-b70c-282f6639dda0"},"vehicle_type_id":"4","last_reported":1684166907,"current_range_meters":5600,"station_id":"ce4bgt92rcd13ifvqcg0","pricing_plan_id":"free"},{"bike_id":"a85c9625-11d8-4370-9e59-c2a942955eb3","system_id":"levelo_inurba_marseille","lat":43.311125,"lon":5.377624,"is_reserved":false,"is_disabled":false,"rental_uris":{"android":"levelo://app?vid=a85c9625-11d8-4370-9e59-c2a942955eb3","ios":"levelo://app?vid=a85c9625-11d8-4370-9e59-c2a942955eb3"},"vehicle_type_id":"4","last_reported":1684166907,"current_range_meters":26800,"station_id":"ce4bgt92rcd13ifvqcg0","pricing_plan_id":"free"},{"bike_id":"dea2acef-96b4-4420-91a3-c4b1da983cb8","system_id":"levelo_inurba_marseille","lat":43.315289,"lon":5.380349,"is_reserved":false,"is_disabled":false,"rental_uris":{"android":"levelo://app?vid=dea2acef-96b4-4420-91a3-c4b1da983cb8","ios":"levelo://app?vid=dea2acef-96b4-4420-91a3-c4b1da983cb8"},"vehicle_type_id":"4","last_reported":1684166907,"current_range_meters":26800,"station_id":"ce4bhsp2rcd13ifvqi50","pricing_plan_id":"free"},{"bike_id":"6bade686-f58d-4e48-add8-ce22047bc04d","system_id":"levelo_inurba_marseille","lat":43.301939,"lon":5.366286,"is_reserved":false,"is_disabled":false,"rental_uris":{"android":"levelo://app?vid=6bade686-f58d-4e48-add8-ce22047bc04d","ios":"levelo://app?vid=6bade686-f58d-4e48-add8-ce22047bc04d"},"vehicle_type_id":"4","last_reported":1684166907,"current_range_meters":400,"station_id":"ce4bgrh2rcd13ifvqc8g","pricing_plan_id":"free"},{"bike_id":"1076e85a-cbfa-44e5-ab20-3eef4e2d3db7","system_id":"levelo_inurba_marseille","lat":43.319935,"lon":5.381699,"is_reserved":false,"is_disabled":false,"rental_uris":{"android":"levelo://app?vid=1076e85a-cbfa-44e5-ab20-3eef4e2d3db7","ios":"levelo://app?vid=1076e85a-cbfa-44e5-ab20-3eef4e2d3db7"},"vehicle_type_id":"4","last_reported":1684166907,"current_range_meters":16000,"station_id":"ce4bhr12rcd13ifvqhpg","pricing_plan_id":"free"},{"bike_id":"77356d28-3dad-4b14-a737-190bd3b8267a","system_id":"levelo_inurba_marseille","lat":43.32,"lon":5.38166,"is_reserved":false,"is_disabled":false,"rental_uris":{"android":"levelo://app?vid=77356d28-3dad-4b14-a737-190bd3b8267a","ios":"levelo://app?vid=77356d28-3dad-4b14-a737-190bd3b8267a"},"vehicle_type_id":"4","last_reported":1684166907,"current_range_meters":20000,"station_id":"ce4bhr12rcd13ifvqhpg","pricing_plan_id":"free"},{"bike_id":"b0dbb0e5-4393-44f3-b272-c9e2271ac185","system_id":"levelo_inurba_marseille","lat":43.313571,"lon":5.384829,"is_reserved":false,"is_disabled":false,"rental_uris":{"android":"levelo://app?vid=b0dbb0e5-4393-44f3-b272-c9e2271ac185","ios":"levelo://app?vid=b0dbb0e5-4393-44f3-b272-c9e2271ac185"},"vehicle_type_id":"4","last_reported":1684166907,"current_range_meters":19600,"station_id":"ce4bgt92rcd13ifvqcf0","pricing_plan_id":"free"},{"bike_id":"54ab376e-026c-4219-8be0-1df143ea89ea","system_id":"levelo_inurba_marseille","lat":43.31356,"lon":5.38495,"is_reserved":false,"is_disabled":false,"rental_uris":{"android":"levelo://app?vid=54ab376e-026c-4219-8be0-1df143ea89ea","ios":"levelo://app?vid=54ab376e-026c-4219-8be0-1df143ea89ea"},"vehicle_type_id":"4","last_reported":1684166907,"current_range_meters":2400,"station_id":"ce4bgt92rcd13ifvqcf0","pricing_plan_id":"free"},{"bike_id":"bdf0dcda-580a-4844-a395-2c3106ab86f2","system_id":"levelo_inurba_marseille","lat":43.31357,"lon":5.38498,"is_reserved":false,"is_disabled":false,"rental_uris":{"android":"levelo://app?vid=bdf0dcda-580a-4844-a395-2c3106ab86f2","ios":"levelo://app?vid=bdf0dcda-580a-4844-a395-2c3106ab86f2"},"vehicle_type_id":"4","last_reported":1684166907,"current_range_meters":8000,"station_id":"ce4bgt92rcd13ifvqcf0","pricing_plan_id":"free"},{"bike_id":"21cd4d71-9d35-49ae-ada7-38a67a52f2e5","system_id":"levelo_inurba_marseille","lat":43.31361,"lon":5.38498,"is_reserved":false,"is_disabled":false,"rental_uris":{"android":"levelo://app?vid=21cd4d71-9d35-49ae-ada7-38a67a52f2e5","ios":"levelo://app?vid=21cd4d71-9d35-49ae-ada7-38a67a52f2e5"},"vehicle_type_id":"4","last_reported":1684166907,"current_range_meters":31200,"station_id":"ce4bgt92rcd13ifvqcf0","pricing_plan_id":"free"},{"bike_id":"4b378660-81e2-41e8-b289-78cf8da67388","system_id":"levelo_inurba_marseille","lat":43.31364,"lon":5.38501,"is_reserved":false,"is_disabled":false,"rental_uris":{"android":"levelo://app?vid=4b378660-81e2-41e8-b289-78cf8da67388","ios":"levelo://app?vid=4b378660-81e2-41e8-b289-78cf8da67388"},"vehicle_type_id":"4","last_reported":1684166907,"current_range_meters":12000,"station_id":"ce4bgt92rcd13ifvqcf0","pricing_plan_id":"free"},{"bike_id":"df693966-f2f1-4c19-be4e-9e320f541778","system_id":"levelo_inurba_marseille","lat":43.305364,"lon":5.384119,"is_reserved":false,"is_disabled":false,"rental_uris":{"android":"levelo://app?vid=df693966-f2f1-4c19-be4e-9e320f541778","ios":"levelo://app?vid=df693966-f2f1-4c19-be4e-9e320f541778"},"vehicle_type_id":"4","last_reported":1684166907,"current_range_meters":11600,"station_id":"ce4bgg92rcd13ifvqb30","pricing_plan_id":"free"},{"bike_id":"874a8500-1e33-4f41-bc04-5528f98d4c21","system_id":"levelo_inurba_marseille","lat":43.298433,"lon":5.362774,"is_reserved":false,"is_disabled":false,"rental_uris":{"android":"levelo://app?vid=874a8500-1e33-4f41-bc04-5528f98d4c21","ios":"levelo://app?vid=874a8500-1e33-4f41-bc04-5528f98d4c21"},"vehicle_type_id":"4","last_reported":1684166907,"current_range_meters":31200,"station_id":"ce4bgpp2rcd13ifvqc3g","pricing_plan_id":"free"},{"bike_id":"a46365c4-12ea-4d31-ba2b-289293c8ca1e","system_id":"levelo_inurba_marseille","lat":43.298433,"lon":5.362774,"is_reserved":false,"is_disabled":false,"rental_uris":{"android":"levelo://app?vid=a46365c4-12ea-4d31-ba2b-289293c8ca1e","ios":"levelo://app?vid=a46365c4-12ea-4d31-ba2b-289293c8ca1e"},"vehicle_type_id":"4","last_reported":1684166907,"current_range_meters":31200,"station_id":"ce4bgpp2rcd13ifvqc3g","pricing_plan_id":"free"},{"bike_id":"6c0ad273-2781-4117-b002-c7c6ee4947bc","system_id":"levelo_inurba_marseille","lat":43.311722,"lon":5.387247,"is_reserved":false,"is_disabled":false,"rental_uris":{"android":"levelo://app?vid=6c0ad273-2781-4117-b002-c7c6ee4947bc","ios":"levelo://app?vid=6c0ad273-2781-4117-b002-c7c6ee4947bc"},"vehicle_type_id":"4","last_reported":1684166907,"current_range_meters":22400,"station_id":"ce4bgv12rcd13ifvqcp0","pricing_plan_id":"free"},{"bike_id":"be840c93-0dae-4113-b065-6e63692db62c","system_id":"levelo_inurba_marseille","lat":43.32758,"lon":5.36701,"is_reserved":false,"is_disabled":false,"rental_uris":{"android":"levelo://app?vid=be840c93-0dae-4113-b065-6e63692db62c","ios":"levelo://app?vid=be840c93-0dae-4113-b065-6e63692db62c"},"vehicle_type_id":"4","last_reported":1684166907,"current_range_meters":2800,"station_id":"","pricing_plan_id":"free"},{"bike_id":"223a3942-eae0-44ef-a497-aa5c208469bf","system_id":"levelo_inurba_marseille","lat":43.32819,"lon":5.3668,"is_reserved":false,"is_disabled":false,"rental_uris":{"android":"levelo://app?vid=223a3942-eae0-44ef-a497-aa5c208469bf","ios":"levelo://app?vid=223a3942-eae0-44ef-a497-aa5c208469bf"},"vehicle_type_id":"4","last_reported":1684166907,"current_range_meters":15600,"station_id":"ce4bhs92rcd13ifvqi0g","pricing_plan_id":"free"},{"bike_id":"14b6bcff-37dd-4d87-9f56-f9f851b88984","system_id":"levelo_inurba_marseille","lat":43.328371,"lon":5.366909,"is_reserved":false,"is_disabled":false,"rental_uris":{"android":"levelo://app?vid=14b6bcff-37dd-4d87-9f56-f9f851b88984","ios":"levelo://app?vid=14b6bcff-37dd-4d87-9f56-f9f851b88984"},"vehicle_type_id":"4","last_reported":1684166907,"current_range_meters":20400,"station_id":"ce4bhs92rcd13ifvqi0g","pricing_plan_id":"free"},{"bike_id":"1b448613-613a-40d5-8c09-58c4ba87a63c","system_id":"levelo_inurba_marseille","lat":43.328371,"lon":5.366909,"is_reserved":false,"is_disabled":false,"rental_uris":{"android":"levelo://app?vid=1b448613-613a-40d5-8c09-58c4ba87a63c","ios":"levelo://app?vid=1b448613-613a-40d5-8c09-58c4ba87a63c"},"vehicle_type_id":"4","last_reported":1684166907,"current_range_meters":13200,"station_id":"ce4bhs92rcd13ifvqi0g","pricing_plan_id":"free"},{"bike_id":"c63852da-5f0e-4508-a2f6-b6a25d66b0c6","system_id":"levelo_inurba_marseille","lat":43.32828,"lon":5.36687,"is_reserved":false,"is_disabled":false,"rental_uris":{"android":"levelo://app?vid=c63852da-5f0e-4508-a2f6-b6a25d66b0c6","ios":"levelo://app?vid=c63852da-5f0e-4508-a2f6-b6a25d66b0c6"},"vehicle_type_id":"4","last_reported":1684166907,"current_range_meters":5200,"station_id":"ce4bhs92rcd13ifvqi0g","pricing_plan_id":"free"},{"bike_id":"e7f2b6eb-fd3e-4f84-a542-cc68dc37093a","system_id":"levelo_inurba_marseille","lat":43.32829,"lon":5.36692,"is_reserved":false,"is_disabled":false,"rental_uris":{"android":"levelo://app?vid=e7f2b6eb-fd3e-4f84-a542-cc68dc37093a","ios":"levelo://app?vid=e7f2b6eb-fd3e-4f84-a542-cc68dc37093a"},"vehicle_type_id":"4","last_reported":1684166907,"current_range_meters":21200,"station_id":"ce4bhs92rcd13ifvqi0g","pricing_plan_id":"free"},{"bike_id":"c3a65bde-22f0-4855-b7ef-bf12dd2073e1","system_id":"levelo_inurba_marseille","lat":43.328371,"lon":5.366912,"is_reserved":false,"is_disabled":false,"rental_uris":{"android":"levelo://app?vid=c3a65bde-22f0-4855-b7ef-bf12dd2073e1","ios":"levelo://app?vid=c3a65bde-22f0-4855-b7ef-bf12dd2073e1"},"vehicle_type_id":"4","last_reported":1684166907,"current_range_meters":800,"station_id":"ce4bhs92rcd13ifvqi0g","pricing_plan_id":"free"},{"bike_id":"ce99431c-8377-4512-9962-530c9a4ca775","system_id":"levelo_inurba_marseille","lat":43.3283,"lon":5.36691,"is_reserved":false,"is_disabled":false,"rental_uris":{"android":"levelo://app?vid=ce99431c-8377-4512-9962-530c9a4ca775","ios":"levelo://app?vid=ce99431c-8377-4512-9962-530c9a4ca775"},"vehicle_type_id":"4","last_reported":1684166907,"current_range_meters":20400,"station_id":"ce4bhs92rcd13ifvqi0g","pricing_plan_id":"free"},{"bike_id":"cebfd530-a02d-478c-85d9-311f0586ed6e","system_id":"levelo_inurba_marseille","lat":43.29717,"lon":5.36604,"is_reserved":false,"is_disabled":false,"rental_uris":{"android":"levelo://app?vid=cebfd530-a02d-478c-85d9-311f0586ed6e","ios":"levelo://app?vid=cebfd530-a02d-478c-85d9-311f0586ed6e"},"vehicle_type_id":"4","last_reported":1684166907,"current_range_meters":2400,"station_id":"ce4bgn12rcd13ifvqbt0","pricing_plan_id":"free"},{"bike_id":"f7f5e7cd-f784-4de0-9ab3-dfe3cf921004","system_id":"levelo_inurba_marseille","lat":43.32833,"lon":5.36691,"is_reserved":false,"is_disabled":false,"rental_uris":{"android":"levelo://app?vid=f7f5e7cd-f784-4de0-9ab3-dfe3cf921004","ios":"levelo://app?vid=f7f5e7cd-f784-4de0-9ab3-dfe3cf921004"},"vehicle_type_id":"4","last_reported":1684166907,"current_range_meters":5600,"station_id":"ce4bhs92rcd13ifvqi0g","pricing_plan_id":"free"},{"bike_id":"d65e3504-e852-446c-b998-21e150a744c8","system_id":"levelo_inurba_marseille","lat":43.32834,"lon":5.36693,"is_reserved":false,"is_disabled":false,"rental_uris":{"android":"levelo://app?vid=d65e3504-e852-446c-b998-21e150a744c8","ios":"levelo://app?vid=d65e3504-e852-446c-b998-21e150a744c8"},"vehicle_type_id":"4","last_reported":1684166907,"current_range_meters":10400,"station_id":"ce4bhs92rcd13ifvqi0g","pricing_plan_id":"free"},{"bike_id":"2e3b9d51-8c66-4a9a-8612-ff9a723ae0cb","system_id":"levelo_inurba_marseille","lat":43.29714,"lon":5.36647,"is_reserved":false,"is_disabled":false,"rental_uris":{"android":"levelo://app?vid=2e3b9d51-8c66-4a9a-8612-ff9a723ae0cb","ios":"levelo://app?vid=2e3b9d51-8c66-4a9a-8612-ff9a723ae0cb"},"vehicle_type_id":"4","last_reported":1684166907,"current_range_meters":1200,"station_id":"","pricing_plan_id":"free"},{"bike_id":"f90862a3-9f39-413f-ab80-01274e6c02bc","system_id":"levelo_inurba_marseille","lat":43.29573,"lon":5.367355,"is_reserved":false,"is_disabled":false,"rental_uris":{"android":"levelo://app?vid=f90862a3-9f39-413f-ab80-01274e6c02bc","ios":"levelo://app?vid=f90862a3-9f39-413f-ab80-01274e6c02bc"},"vehicle_type_id":"4","last_reported":1684166907,"current_range_meters":20400,"station_id":"ce4bgph2rcd13ifvqc2g","pricing_plan_id":"free"},{"bike_id":"bbffb05e-70aa-48b9-b955-33a551c94735","system_id":"levelo_inurba_marseille","lat":43.29573,"lon":5.367355,"is_reserved":false,"is_disabled":false,"rental_uris":{"android":"levelo://app?vid=bbffb05e-70aa-48b9-b955-33a551c94735","ios":"levelo://app?vid=bbffb05e-70aa-48b9-b955-33a551c94735"},"vehicle_type_id":"4","last_reported":1684166907,"current_range_meters":29600,"station_id":"ce4bgph2rcd13ifvqc2g","pricing_plan_id":"free"},{"bike_id":"5b61ddd4-4836-4595-82a6-c03d08e4298b","system_id":"levelo_inurba_marseille","lat":43.298037,"lon":5.381066,"is_reserved":false,"is_disabled":false,"rental_uris":{"android":"levelo://app?vid=5b61ddd4-4836-4595-82a6-c03d08e4298b","ios":"levelo://app?vid=5b61ddd4-4836-4595-82a6-c03d08e4298b"},"vehicle_type_id":"4","last_reported":1684166907,"current_range_meters":30400,"station_id":"ce4bgip2rcd13ifvqbb0","pricing_plan_id":"free"},{"bike_id":"8fd839ac-afa2-4566-8988-b2c92b259dcb","system_id":"levelo_inurba_marseille","lat":43.29976,"lon":5.38484,"is_reserved":false,"is_disabled":false,"rental_uris":{"android":"levelo://app?vid=8fd839ac-afa2-4566-8988-b2c92b259dcb","ios":"levelo://app?vid=8fd839ac-afa2-4566-8988-b2c92b259dcb"},"vehicle_type_id":"4","last_reported":1684166907,"current_range_meters":0,"station_id":"ce4bgj92rcd13ifvqbd0","pricing_plan_id":"free"},{"bike_id":"57788115-387d-40a2-a807-a902fa910e3a","system_id":"levelo_inurba_marseille","lat":43.32367,"lon":5.38876,"is_reserved":false,"is_disabled":false,"rental_uris":{"android":"levelo://app?vid=57788115-387d-40a2-a807-a902fa910e3a","ios":"levelo://app?vid=57788115-387d-40a2-a807-a902fa910e3a"},"vehicle_type_id":"4","last_reported":1684166907,"current_range_meters":13200,"station_id":"ce4bhqp2rcd13ifvqhog","pricing_plan_id":"free"},{"bike_id":"1a705e8e-b254-4ef5-ac1a-3b23d1742151","system_id":"levelo_inurba_marseille","lat":43.32365,"lon":5.3888,"is_reserved":false,"is_disabled":false,"rental_uris":{"android":"levelo://app?vid=1a705e8e-b254-4ef5-ac1a-3b23d1742151","ios":"levelo://app?vid=1a705e8e-b254-4ef5-ac1a-3b23d1742151"},"vehicle_type_id":"4","last_reported":1684166907,"current_range_meters":28000,"station_id":"","pricing_plan_id":"free"},{"bike_id":"8c83af73-e52b-455d-a488-2dcd7b769ae0","system_id":"levelo_inurba_marseille","lat":43.32367,"lon":5.38879,"is_reserved":false,"is_disabled":false,"rental_uris":{"android":"levelo://app?vid=8c83af73-e52b-455d-a488-2dcd7b769ae0","ios":"levelo://app?vid=8c83af73-e52b-455d-a488-2dcd7b769ae0"},"vehicle_type_id":"4","last_reported":1684166907,"current_range_meters":7600,"station_id":"ce4bhqp2rcd13ifvqhog","pricing_plan_id":"free"},{"bike_id":"9ec1a55f-8c74-4a8f-b32c-0166f897593e","system_id":"levelo_inurba_marseille","lat":43.32365,"lon":5.38881,"is_reserved":false,"is_disabled":false,"rental_uris":{"android":"levelo://app?vid=9ec1a55f-8c74-4a8f-b32c-0166f897593e","ios":"levelo://app?vid=9ec1a55f-8c74-4a8f-b32c-0166f897593e"},"vehicle_type_id":"4","last_reported":1684166907,"current_range_meters":0,"station_id":"","pricing_plan_id":"free"},{"bike_id":"cb01f50f-7c0e-45d3-b481-59bc943ee22f","system_id":"levelo_inurba_marseille","lat":43.32366,"lon":5.38881,"is_reserved":false,"is_disabled":false,"rental_uris":{"android":"levelo://app?vid=cb01f50f-7c0e-45d3-b481-59bc943ee22f","ios":"levelo://app?vid=cb01f50f-7c0e-45d3-b481-59bc943ee22f"},"vehicle_type_id":"4","last_reported":1684166907,"current_range_meters":18800,"station_id":"ce4bhqp2rcd13ifvqhog","pricing_plan_id":"free"},{"bike_id":"1dfa9dcc-ad43-4366-80ee-5c7f154611fc","system_id":"levelo_inurba_marseille","lat":43.32367,"lon":5.38881,"is_reserved":false,"is_disabled":false,"rental_uris":{"android":"levelo://app?vid=1dfa9dcc-ad43-4366-80ee-5c7f154611fc","ios":"levelo://app?vid=1dfa9dcc-ad43-4366-80ee-5c7f154611fc"},"vehicle_type_id":"4","last_reported":1684166907,"current_range_meters":26000,"station_id":"ce4bhqp2rcd13ifvqhog","pricing_plan_id":"free"},{"bike_id":"368dad79-014b-46e3-b946-93453ee151a4","system_id":"levelo_inurba_marseille","lat":43.32363,"lon":5.38885,"is_reserved":false,"is_disabled":false,"rental_uris":{"android":"levelo://app?vid=368dad79-014b-46e3-b946-93453ee151a4","ios":"levelo://app?vid=368dad79-014b-46e3-b946-93453ee151a4"},"vehicle_type_id":"4","last_reported":1684166907,"current_range_meters":0,"station_id":"ce4bhqp2rcd13ifvqhog","pricing_plan_id":"free"},{"bike_id":"cc25496d-8593-433d-a9e2-a643a228371f","system_id":"levelo_inurba_marseille","lat":43.32367,"lon":5.38888,"is_reserved":false,"is_disabled":false,"rental_uris":{"android":"levelo://app?vid=cc25496d-8593-433d-a9e2-a643a228371f","ios":"levelo://app?vid=cc25496d-8593-433d-a9e2-a643a228371f"},"vehicle_type_id":"4","last_reported":1684166907,"current_range_meters":30800,"station_id":"ce4bhqp2rcd13ifvqhog","pricing_plan_id":"free"},{"bike_id":"667ec78a-9b3b-4d30-98c1-65ea860c0564","system_id":"levelo_inurba_marseille","lat":43.29601,"lon":5.381084,"is_reserved":false,"is_disabled":false,"rental_uris":{"android":"levelo://app?vid=667ec78a-9b3b-4d30-98c1-65ea860c0564","ios":"levelo://app?vid=667ec78a-9b3b-4d30-98c1-65ea860c0564"},"vehicle_type_id":"4","last_reported":1684166907,"current_range_meters":16400,"station_id":"ce4bgl12rcd13ifvqbo0","pricing_plan_id":"free"},{"bike_id":"69f729e4-b278-4ba2-9773-5e6b4d4f8501","system_id":"levelo_inurba_marseille","lat":43.29602,"lon":5.381084,"is_reserved":false,"is_disabled":false,"rental_uris":{"android":"levelo://app?vid=69f729e4-b278-4ba2-9773-5e6b4d4f8501","ios":"levelo://app?vid=69f729e4-b278-4ba2-9773-5e6b4d4f8501"},"vehicle_type_id":"4","last_reported":1684166907,"current_range_meters":29200,"station_id":"ce4bgl12rcd13ifvqbo0","pricing_plan_id":"free"},{"bike_id":"f65fb243-8828-4448-9cea-9c16542d6de4","system_id":"levelo_inurba_marseille","lat":43.302992,"lon":5.392136,"is_reserved":false,"is_disabled":false,"rental_uris":{"android":"levelo://app?vid=f65fb243-8828-4448-9cea-9c16542d6de4","ios":"levelo://app?vid=f65fb243-8828-4448-9cea-9c16542d6de4"},"vehicle_type_id":"4","last_reported":1684166907,"current_range_meters":25600,"station_id":"ce4bgkh2rcd13ifvqbk0","pricing_plan_id":"free"},{"bike_id":"42e24c6d-4e14-41f0-9ca6-d6a1145d61c2","system_id":"levelo_inurba_marseille","lat":43.309038,"lon":5.396546,"is_reserved":false,"is_disabled":false,"rental_uris":{"android":"levelo://app?vid=42e24c6d-4e14-41f0-9ca6-d6a1145d61c2","ios":"levelo://app?vid=42e24c6d-4e14-41f0-9ca6-d6a1145d61c2"},"vehicle_type_id":"4","last_reported":1684166907,"current_range_meters":16000,"station_id":"ce4bh012rcd13ifvqcv0","pricing_plan_id":"free"},{"bike_id":"821d5051-b7eb-47f6-a15b-c6a4f07b0760","system_id":"levelo_inurba_marseille","lat":43.309038,"lon":5.396546,"is_reserved":false,"is_disabled":false,"rental_uris":{"android":"levelo://app?vid=821d5051-b7eb-47f6-a15b-c6a4f07b0760","ios":"levelo://app?vid=821d5051-b7eb-47f6-a15b-c6a4f07b0760"},"vehicle_type_id":"4","last_reported":1684166907,"current_range_meters":22800,"station_id":"ce4bh012rcd13ifvqcv0","pricing_plan_id":"free"},{"bike_id":"74b2d686-a6d6-4dcb-b1d7-66fe6357957d","system_id":"levelo_inurba_marseille","lat":43.313291,"lon":5.396838,"is_reserved":false,"is_disabled":false,"rental_uris":{"android":"levelo://app?vid=74b2d686-a6d6-4dcb-b1d7-66fe6357957d","ios":"levelo://app?vid=74b2d686-a6d6-4dcb-b1d7-66fe6357957d"},"vehicle_type_id":"4","last_reported":1684166907,"current_range_meters":6800,"station_id":"ce4bgvp2rcd13ifvqcu0","pricing_plan_id":"free"},{"bike_id":"f732d9a4-2e98-4ae2-ad41-ac892c11ff42","system_id":"levelo_inurba_marseille","lat":43.313291,"lon":5.396838,"is_reserved":false,"is_disabled":false,"rental_uris":{"android":"levelo://app?vid=f732d9a4-2e98-4ae2-ad41-ac892c11ff42","ios":"levelo://app?vid=f732d9a4-2e98-4ae2-ad41-ac892c11ff42"},"vehicle_type_id":"4","last_reported":1684166907,"current_range_meters":12400,"station_id":"ce4bgvp2rcd13ifvqcu0","pricing_plan_id":"free"},{"bike_id":"6d2bb92d-58a4-4619-9e46-f46813fb14a3","system_id":"levelo_inurba_marseille","lat":43.313291,"lon":5.396838,"is_reserved":false,"is_disabled":false,"rental_uris":{"android":"levelo://app?vid=6d2bb92d-58a4-4619-9e46-f46813fb14a3","ios":"levelo://app?vid=6d2bb92d-58a4-4619-9e46-f46813fb14a3"},"vehicle_type_id":"4","last_reported":1684166907,"current_range_meters":12400,"station_id":"ce4bgvp2rcd13ifvqcu0","pricing_plan_id":"free"},{"bike_id":"3bbf8571-c3ca-4f06-baee-bc5cd88e056a","system_id":"levelo_inurba_marseille","lat":43.313291,"lon":5.396838,"is_reserved":false,"is_disabled":false,"rental_uris":{"android":"levelo://app?vid=3bbf8571-c3ca-4f06-baee-bc5cd88e056a","ios":"levelo://app?vid=3bbf8571-c3ca-4f06-baee-bc5cd88e056a"},"vehicle_type_id":"4","last_reported":1684166907,"current_range_meters":10000,"station_id":"ce4bgvp2rcd13ifvqcu0","pricing_plan_id":"free"},{"bike_id":"8c331635-570f-4fea-a291-134922223915","system_id":"levelo_inurba_marseille","lat":43.313291,"lon":5.396838,"is_reserved":false,"is_disabled":false,"rental_uris":{"android":"levelo://app?vid=8c331635-570f-4fea-a291-134922223915","ios":"levelo://app?vid=8c331635-570f-4fea-a291-134922223915"},"vehicle_type_id":"4","last_reported":1684166907,"current_range_meters":7600,"station_id":"ce4bgvp2rcd13ifvqcu0","pricing_plan_id":"free"},{"bike_id":"0104fbfb-1b85-4934-be08-54d995ab8365","system_id":"levelo_inurba_marseille","lat":43.302008,"lon":5.394694,"is_reserved":false,"is_disabled":false,"rental_uris":{"android":"levelo://app?vid=0104fbfb-1b85-4934-be08-54d995ab8365","ios":"levelo://app?vid=0104fbfb-1b85-4934-be08-54d995ab8365"},"vehicle_type_id":"4","last_reported":1684166907,"current_range_meters":14400,"station_id":"ce4bh0p2rcd13ifvqd70","pricing_plan_id":"free"},{"bike_id":"1dd87398-3d3a-44a7-8edc-678e8dd43cf6","system_id":"levelo_inurba_marseille","lat":43.302008,"lon":5.394694,"is_reserved":false,"is_disabled":false,"rental_uris":{"android":"levelo://app?vid=1dd87398-3d3a-44a7-8edc-678e8dd43cf6","ios":"levelo://app?vid=1dd87398-3d3a-44a7-8edc-678e8dd43cf6"},"vehicle_type_id":"4","last_reported":1684166907,"current_range_meters":23200,"station_id":"ce4bh0p2rcd13ifvqd70","pricing_plan_id":"free"},{"bike_id":"89201497-df5c-484f-86f4-ecdcaddc080d","system_id":"levelo_inurba_marseille","lat":43.292644,"lon":5.384257,"is_reserved":false,"is_disabled":false,"rental_uris":{"android":"levelo://app?vid=89201497-df5c-484f-86f4-ecdcaddc080d","ios":"levelo://app?vid=89201497-df5c-484f-86f4-ecdcaddc080d"},"vehicle_type_id":"4","last_reported":1684166907,"current_range_meters":21200,"station_id":"ce4bh692rcd13ifvqea0","pricing_plan_id":"free"},{"bike_id":"7cc1b046-1089-459a-99cc-f4ead5bfe404","system_id":"levelo_inurba_marseille","lat":43.3269,"lon":5.39195,"is_reserved":false,"is_disabled":false,"rental_uris":{"android":"levelo://app?vid=7cc1b046-1089-459a-99cc-f4ead5bfe404","ios":"levelo://app?vid=7cc1b046-1089-459a-99cc-f4ead5bfe404"},"vehicle_type_id":"4","last_reported":1684166907,"current_range_meters":7600,"station_id":"","pricing_plan_id":"free"},{"bike_id":"bc5930af-ded3-43b6-9b35-7e4769b97132","system_id":"levelo_inurba_marseille","lat":43.294162,"lon":5.386292,"is_reserved":false,"is_disabled":false,"rental_uris":{"android":"levelo://app?vid=bc5930af-ded3-43b6-9b35-7e4769b97132","ios":"levelo://app?vid=bc5930af-ded3-43b6-9b35-7e4769b97132"},"vehicle_type_id":"4","last_reported":1684166907,"current_range_meters":21200,"station_id":"ce4bh2h2rcd13ifvqdh0","pricing_plan_id":"free"},{"bike_id":"2f9ff7fa-ccf4-4c1a-8a95-6fdc0b4d9add","system_id":"levelo_inurba_marseille","lat":43.294162,"lon":5.386292,"is_reserved":false,"is_disabled":false,"rental_uris":{"android":"levelo://app?vid=2f9ff7fa-ccf4-4c1a-8a95-6fdc0b4d9add","ios":"levelo://app?vid=2f9ff7fa-ccf4-4c1a-8a95-6fdc0b4d9add"},"vehicle_type_id":"4","last_reported":1684166907,"current_range_meters":20000,"station_id":"ce4bh2h2rcd13ifvqdh0","pricing_plan_id":"free"},{"bike_id":"9de04a20-cd3e-4316-bc48-9cbaa5ca201e","system_id":"levelo_inurba_marseille","lat":43.289468,"lon":5.363719,"is_reserved":false,"is_disabled":false,"rental_uris":{"android":"levelo://app?vid=9de04a20-cd3e-4316-bc48-9cbaa5ca201e","ios":"levelo://app?vid=9de04a20-cd3e-4316-bc48-9cbaa5ca201e"},"vehicle_type_id":"4","last_reported":1684166907,"current_range_meters":2800,"station_id":"ce4bhc92rcd13ifvqetg","pricing_plan_id":"free"},{"bike_id":"e16110d9-e5a7-494d-9c60-05713291fa21","system_id":"levelo_inurba_marseille","lat":43.29267,"lon":5.38432,"is_reserved":false,"is_disabled":false,"rental_uris":{"android":"levelo://app?vid=e16110d9-e5a7-494d-9c60-05713291fa21","ios":"levelo://app?vid=e16110d9-e5a7-494d-9c60-05713291fa21"},"vehicle_type_id":"4","last_reported":1684166907,"current_range_meters":27200,"station_id":"ce4bh692rcd13ifvqea0","pricing_plan_id":"free"},{"bike_id":"8aae30e0-4923-4b94-8403-b8500580e924","system_id":"levelo_inurba_marseille","lat":43.292644,"lon":5.384257,"is_reserved":false,"is_disabled":false,"rental_uris":{"android":"levelo://app?vid=8aae30e0-4923-4b94-8403-b8500580e924","ios":"levelo://app?vid=8aae30e0-4923-4b94-8403-b8500580e924"},"vehicle_type_id":"4","last_reported":1684166907,"current_range_meters":20400,"station_id":"ce4bh692rcd13ifvqea0","pricing_plan_id":"free"},{"bike_id":"6bbeb40d-f6f7-4173-bb2a-d7fa0a2ab7e9","system_id":"levelo_inurba_marseille","lat":43.29266,"lon":5.38436,"is_reserved":false,"is_disabled":false,"rental_uris":{"android":"levelo://app?vid=6bbeb40d-f6f7-4173-bb2a-d7fa0a2ab7e9","ios":"levelo://app?vid=6bbeb40d-f6f7-4173-bb2a-d7fa0a2ab7e9"},"vehicle_type_id":"4","last_reported":1684166907,"current_range_meters":6000,"station_id":"ce4bh692rcd13ifvqea0","pricing_plan_id":"free"},{"bike_id":"b0520325-43ef-489a-9062-089c4485a2ed","system_id":"levelo_inurba_marseille","lat":43.304296,"lon":5.397513,"is_reserved":false,"is_disabled":false,"rental_uris":{"android":"levelo://app?vid=b0520325-43ef-489a-9062-089c4485a2ed","ios":"levelo://app?vid=b0520325-43ef-489a-9062-089c4485a2ed"},"vehicle_type_id":"4","last_reported":1684166907,"current_range_meters":0,"station_id":"ce4bh092rcd13ifvqd20","pricing_plan_id":"free"},{"bike_id":"71b73c72-096d-4aff-9af4-3c9ea9324ab8","system_id":"levelo_inurba_marseille","lat":43.304274,"lon":5.397513,"is_reserved":false,"is_disabled":false,"rental_uris":{"android":"levelo://app?vid=71b73c72-096d-4aff-9af4-3c9ea9324ab8","ios":"levelo://app?vid=71b73c72-096d-4aff-9af4-3c9ea9324ab8"},"vehicle_type_id":"4","last_reported":1684166907,"current_range_meters":22000,"station_id":"ce4bh092rcd13ifvqd20","pricing_plan_id":"free"},{"bike_id":"030b9231-c3b2-411e-ae6d-e65516608c7a","system_id":"levelo_inurba_marseille","lat":43.33041,"lon":5.38916,"is_reserved":false,"is_disabled":false,"rental_uris":{"android":"levelo://app?vid=030b9231-c3b2-411e-ae6d-e65516608c7a","ios":"levelo://app?vid=030b9231-c3b2-411e-ae6d-e65516608c7a"},"vehicle_type_id":"4","last_reported":1684166907,"current_range_meters":20400,"station_id":"ce4bhr92rcd13ifvqhrg","pricing_plan_id":"free"},{"bike_id":"50ccc432-2b57-4a34-9401-974c4e6f8c6c","system_id":"levelo_inurba_marseille","lat":43.2901,"lon":5.35613,"is_reserved":false,"is_disabled":false,"rental_uris":{"android":"levelo://app?vid=50ccc432-2b57-4a34-9401-974c4e6f8c6c","ios":"levelo://app?vid=50ccc432-2b57-4a34-9401-974c4e6f8c6c"},"vehicle_type_id":"4","last_reported":1684166907,"current_range_meters":18000,"station_id":"ce4bhb92rcd13ifvqen0","pricing_plan_id":"free"},{"bike_id":"8fed593d-e041-48a5-97b4-87fa0bd07169","system_id":"levelo_inurba_marseille","lat":43.3304,"lon":5.3892,"is_reserved":false,"is_disabled":false,"rental_uris":{"android":"levelo://app?vid=8fed593d-e041-48a5-97b4-87fa0bd07169","ios":"levelo://app?vid=8fed593d-e041-48a5-97b4-87fa0bd07169"},"vehicle_type_id":"4","last_reported":1684166907,"current_range_meters":29200,"station_id":"ce4bhr92rcd13ifvqhrg","pricing_plan_id":"free"},{"bike_id":"f7511243-15c9-4dfd-8620-cc9b9d0d5dc6","system_id":"levelo_inurba_marseille","lat":43.33044,"lon":5.38915,"is_reserved":false,"is_disabled":false,"rental_uris":{"android":"levelo://app?vid=f7511243-15c9-4dfd-8620-cc9b9d0d5dc6","ios":"levelo://app?vid=f7511243-15c9-4dfd-8620-cc9b9d0d5dc6"},"vehicle_type_id":"4","last_reported":1684166907,"current_range_meters":8800,"station_id":"ce4bhr92rcd13ifvqhrg","pricing_plan_id":"free"},{"bike_id":"fa6ae152-a9bc-4457-9c02-27faa676bee8","system_id":"levelo_inurba_marseille","lat":43.33044,"lon":5.38917,"is_reserved":false,"is_disabled":false,"rental_uris":{"android":"levelo://app?vid=fa6ae152-a9bc-4457-9c02-27faa676bee8","ios":"levelo://app?vid=fa6ae152-a9bc-4457-9c02-27faa676bee8"},"vehicle_type_id":"4","last_reported":1684166907,"current_range_meters":12800,"station_id":"ce4bhr92rcd13ifvqhrg","pricing_plan_id":"free"},{"bike_id":"dc811be1-f27e-44b8-a981-b26decf78c4c","system_id":"levelo_inurba_marseille","lat":43.33046,"lon":5.38915,"is_reserved":false,"is_disabled":false,"rental_uris":{"android":"levelo://app?vid=dc811be1-f27e-44b8-a981-b26decf78c4c","ios":"levelo://app?vid=dc811be1-f27e-44b8-a981-b26decf78c4c"},"vehicle_type_id":"4","last_reported":1684166907,"current_range_meters":5600,"station_id":"ce4bhr92rcd13ifvqhrg","pricing_plan_id":"free"},{"bike_id":"d1207b2e-3cb5-421b-ba98-79f633aa28c4","system_id":"levelo_inurba_marseille","lat":43.33041,"lon":5.38923,"is_reserved":false,"is_disabled":false,"rental_uris":{"android":"levelo://app?vid=d1207b2e-3cb5-421b-ba98-79f633aa28c4","ios":"levelo://app?vid=d1207b2e-3cb5-421b-ba98-79f633aa28c4"},"vehicle_type_id":"4","last_reported":1684166907,"current_range_meters":29200,"station_id":"ce4bhr92rcd13ifvqhrg","pricing_plan_id":"free"},{"bike_id":"7c9f71ef-b77f-4c03-9f45-a7decfddcc77","system_id":"levelo_inurba_marseille","lat":43.33042,"lon":5.38923,"is_reserved":false,"is_disabled":false,"rental_uris":{"android":"levelo://app?vid=7c9f71ef-b77f-4c03-9f45-a7decfddcc77","ios":"levelo://app?vid=7c9f71ef-b77f-4c03-9f45-a7decfddcc77"},"vehicle_type_id":"4","last_reported":1684166907,"current_range_meters":30800,"station_id":"ce4bhr92rcd13ifvqhrg","pricing_plan_id":"free"},{"bike_id":"06568df2-cfe7-49f3-951c-2d76869b4511","system_id":"levelo_inurba_marseille","lat":43.3304,"lon":5.38927,"is_reserved":false,"is_disabled":false,"rental_uris":{"android":"levelo://app?vid=06568df2-cfe7-49f3-951c-2d76869b4511","ios":"levelo://app?vid=06568df2-cfe7-49f3-951c-2d76869b4511"},"vehicle_type_id":"4","last_reported":1684166907,"current_range_meters":29600,"station_id":"ce4bhr92rcd13ifvqhrg","pricing_plan_id":"free"},{"bike_id":"f15b8ec5-a8e6-4348-a1eb-778755db2a4a","system_id":"levelo_inurba_marseille","lat":43.295169,"lon":5.390426,"is_reserved":false,"is_disabled":false,"rental_uris":{"android":"levelo://app?vid=f15b8ec5-a8e6-4348-a1eb-778755db2a4a","ios":"levelo://app?vid=f15b8ec5-a8e6-4348-a1eb-778755db2a4a"},"vehicle_type_id":"4","last_reported":1684166907,"current_range_meters":20000,"station_id":"ce4bh3p2rcd13ifvqdp0","pricing_plan_id":"free"},{"bike_id":"7122febf-4b45-4be6-b4d0-48cb5d18358c","system_id":"levelo_inurba_marseille","lat":43.295169,"lon":5.390426,"is_reserved":false,"is_disabled":false,"rental_uris":{"android":"levelo://app?vid=7122febf-4b45-4be6-b4d0-48cb5d18358c","ios":"levelo://app?vid=7122febf-4b45-4be6-b4d0-48cb5d18358c"},"vehicle_type_id":"4","last_reported":1684166907,"current_range_meters":8800,"station_id":"ce4bh3p2rcd13ifvqdp0","pricing_plan_id":"free"},{"bike_id":"b16bdf69-75fb-43fd-843b-1e8840de06b6","system_id":"levelo_inurba_marseille","lat":43.290136,"lon":5.381171,"is_reserved":false,"is_disabled":false,"rental_uris":{"android":"levelo://app?vid=b16bdf69-75fb-43fd-843b-1e8840de06b6","ios":"levelo://app?vid=b16bdf69-75fb-43fd-843b-1e8840de06b6"},"vehicle_type_id":"4","last_reported":1684166907,"current_range_meters":4800,"station_id":"","pricing_plan_id":"free"},{"bike_id":"d5a23dae-226b-4cc4-b758-5d96231af204","system_id":"levelo_inurba_marseille","lat":43.28856,"lon":5.358371,"is_reserved":false,"is_disabled":false,"rental_uris":{"android":"levelo://app?vid=d5a23dae-226b-4cc4-b758-5d96231af204","ios":"levelo://app?vid=d5a23dae-226b-4cc4-b758-5d96231af204"},"vehicle_type_id":"4","last_reported":1684166907,"current_range_meters":6000,"station_id":"ce4bhb12rcd13ifvqem0","pricing_plan_id":"free"},{"bike_id":"a644ae46-7eab-4ece-b842-a78fc03eaa6b","system_id":"levelo_inurba_marseille","lat":43.337328,"lon":5.374538,"is_reserved":false,"is_disabled":false,"rental_uris":{"android":"levelo://app?vid=a644ae46-7eab-4ece-b842-a78fc03eaa6b","ios":"levelo://app?vid=a644ae46-7eab-4ece-b842-a78fc03eaa6b"},"vehicle_type_id":"4","last_reported":1684166907,"current_range_meters":23200,"station_id":"ce4bhah2rcd13ifvqei0","pricing_plan_id":"free"},{"bike_id":"1fc9d7c3-eed4-443a-a55f-fb5a39f1dbf8","system_id":"levelo_inurba_marseille","lat":43.28842,"lon":5.37653,"is_reserved":false,"is_disabled":false,"rental_uris":{"android":"levelo://app?vid=1fc9d7c3-eed4-443a-a55f-fb5a39f1dbf8","ios":"levelo://app?vid=1fc9d7c3-eed4-443a-a55f-fb5a39f1dbf8"},"vehicle_type_id":"4","last_reported":1684166907,"current_range_meters":10400,"station_id":"","pricing_plan_id":"free"},{"bike_id":"0aaf129a-7f4a-4b0c-837f-833be83b7a49","system_id":"levelo_inurba_marseille","lat":43.337436,"lon":5.374627,"is_reserved":false,"is_disabled":false,"rental_uris":{"android":"levelo://app?vid=0aaf129a-7f4a-4b0c-837f-833be83b7a49","ios":"levelo://app?vid=0aaf129a-7f4a-4b0c-837f-833be83b7a49"},"vehicle_type_id":"4","last_reported":1684166907,"current_range_meters":23600,"station_id":"ce4bhnp2rcd13ifvqgvg","pricing_plan_id":"free"},{"bike_id":"813d4a8b-9ad8-4d3a-8b70-7af3f4d37c5c","system_id":"levelo_inurba_marseille","lat":43.33761,"lon":5.37419,"is_reserved":false,"is_disabled":false,"rental_uris":{"android":"levelo://app?vid=813d4a8b-9ad8-4d3a-8b70-7af3f4d37c5c","ios":"levelo://app?vid=813d4a8b-9ad8-4d3a-8b70-7af3f4d37c5c"},"vehicle_type_id":"4","last_reported":1684166907,"current_range_meters":28800,"station_id":"ce4rr2p2rcd13i802rgg","pricing_plan_id":"free"},{"bike_id":"81caea65-471a-4086-91fc-f53390493f4e","system_id":"levelo_inurba_marseille","lat":43.30642,"lon":5.401031,"is_reserved":false,"is_disabled":false,"rental_uris":{"android":"levelo://app?vid=81caea65-471a-4086-91fc-f53390493f4e","ios":"levelo://app?vid=81caea65-471a-4086-91fc-f53390493f4e"},"vehicle_type_id":"4","last_reported":1684166907,"current_range_meters":30800,"station_id":"ce4bh112rcd13ifvqda0","pricing_plan_id":"free"},{"bike_id":"15fafd89-e6ef-411a-b60a-9a6c7b3f0244","system_id":"levelo_inurba_marseille","lat":43.30642,"lon":5.40088,"is_reserved":false,"is_disabled":false,"rental_uris":{"android":"levelo://app?vid=15fafd89-e6ef-411a-b60a-9a6c7b3f0244","ios":"levelo://app?vid=15fafd89-e6ef-411a-b60a-9a6c7b3f0244"},"vehicle_type_id":"4","last_reported":1684166907,"current_range_meters":14000,"station_id":"ce4bh112rcd13ifvqda0","pricing_plan_id":"free"},{"bike_id":"2f47d477-9716-4b9a-878c-c679f7f1c130","system_id":"levelo_inurba_marseille","lat":43.30642,"lon":5.40088,"is_reserved":false,"is_disabled":false,"rental_uris":{"android":"levelo://app?vid=2f47d477-9716-4b9a-878c-c679f7f1c130","ios":"levelo://app?vid=2f47d477-9716-4b9a-878c-c679f7f1c130"},"vehicle_type_id":"4","last_reported":1684166907,"current_range_meters":4000,"station_id":"ce4bh112rcd13ifvqda0","pricing_plan_id":"free"},{"bike_id":"dae1c7d3-c7df-40d5-8e23-dcd6246ff880","system_id":"levelo_inurba_marseille","lat":43.30641,"lon":5.40091,"is_reserved":false,"is_disabled":false,"rental_uris":{"android":"levelo://app?vid=dae1c7d3-c7df-40d5-8e23-dcd6246ff880","ios":"levelo://app?vid=dae1c7d3-c7df-40d5-8e23-dcd6246ff880"},"vehicle_type_id":"4","last_reported":1684166907,"current_range_meters":4800,"station_id":"ce4bh112rcd13ifvqda0","pricing_plan_id":"free"},{"bike_id":"00b8ce50-d139-48fd-a604-58c337da42ea","system_id":"levelo_inurba_marseille","lat":43.30651,"lon":5.401,"is_reserved":false,"is_disabled":false,"rental_uris":{"android":"levelo://app?vid=00b8ce50-d139-48fd-a604-58c337da42ea","ios":"levelo://app?vid=00b8ce50-d139-48fd-a604-58c337da42ea"},"vehicle_type_id":"4","last_reported":1684166907,"current_range_meters":1600,"station_id":"ce4bh112rcd13ifvqda0","pricing_plan_id":"free"},{"bike_id":"c9d7a4db-6f7c-4ad4-b795-2287614676b8","system_id":"levelo_inurba_marseille","lat":43.298681,"lon":5.397225,"is_reserved":false,"is_disabled":false,"rental_uris":{"android":"levelo://app?vid=c9d7a4db-6f7c-4ad4-b795-2287614676b8","ios":"levelo://app?vid=c9d7a4db-6f7c-4ad4-b795-2287614676b8"},"vehicle_type_id":"4","last_reported":1684166907,"current_range_meters":24000,"station_id":"ce4bh0h2rcd13ifvqd50","pricing_plan_id":"free"},{"bike_id":"6d6f153e-e929-4869-a893-7e7175ab9e60","system_id":"levelo_inurba_marseille","lat":43.286593,"lon":5.363346,"is_reserved":false,"is_disabled":false,"rental_uris":{"android":"levelo://app?vid=6d6f153e-e929-4869-a893-7e7175ab9e60","ios":"levelo://app?vid=6d6f153e-e929-4869-a893-7e7175ab9e60"},"vehicle_type_id":"4","last_reported":1684166907,"current_range_meters":0,"station_id":"ce4bhah2rcd13ifvqej0","pricing_plan_id":"free"},{"bike_id":"211b1f2f-fca9-4255-93fb-9e80e3e36448","system_id":"levelo_inurba_marseille","lat":43.29025,"lon":5.38644,"is_reserved":false,"is_disabled":false,"rental_uris":{"android":"levelo://app?vid=211b1f2f-fca9-4255-93fb-9e80e3e36448","ios":"levelo://app?vid=211b1f2f-fca9-4255-93fb-9e80e3e36448"},"vehicle_type_id":"4","last_reported":1684166907,"current_range_meters":0,"station_id":"ce4bh4p2rcd13ifvqe0g","pricing_plan_id":"free"},{"bike_id":"429a4f73-035b-4a86-bc9e-899e75d49686","system_id":"levelo_inurba_marseille","lat":43.290336,"lon":5.386425,"is_reserved":false,"is_disabled":false,"rental_uris":{"android":"levelo://app?vid=429a4f73-035b-4a86-bc9e-899e75d49686","ios":"levelo://app?vid=429a4f73-035b-4a86-bc9e-899e75d49686"},"vehicle_type_id":"4","last_reported":1684166907,"current_range_meters":400,"station_id":"ce4bh4p2rcd13ifvqe0g","pricing_plan_id":"free"},{"bike_id":"98959821-6cca-40de-b934-06ebf3f78194","system_id":"levelo_inurba_marseille","lat":43.286039,"lon":5.370681,"is_reserved":false,"is_disabled":false,"rental_uris":{"android":"levelo://app?vid=98959821-6cca-40de-b934-06ebf3f78194","ios":"levelo://app?vid=98959821-6cca-40de-b934-06ebf3f78194"},"vehicle_type_id":"4","last_reported":1684166907,"current_range_meters":10000,"station_id":"ce4bht12rcd13ifvqi60","pricing_plan_id":"free"},{"bike_id":"1670d814-8e93-4cb1-b195-0e9c5888ccc2","system_id":"levelo_inurba_marseille","lat":43.286039,"lon":5.370681,"is_reserved":false,"is_disabled":false,"rental_uris":{"android":"levelo://app?vid=1670d814-8e93-4cb1-b195-0e9c5888ccc2","ios":"levelo://app?vid=1670d814-8e93-4cb1-b195-0e9c5888ccc2"},"vehicle_type_id":"4","last_reported":1684166907,"current_range_meters":31200,"station_id":"ce4bht12rcd13ifvqi60","pricing_plan_id":"free"},{"bike_id":"01ad515f-4806-4939-a8d9-31b1256688c9","system_id":"levelo_inurba_marseille","lat":43.316447,"lon":5.404321,"is_reserved":false,"is_disabled":false,"rental_uris":{"android":"levelo://app?vid=01ad515f-4806-4939-a8d9-31b1256688c9","ios":"levelo://app?vid=01ad515f-4806-4939-a8d9-31b1256688c9"},"vehicle_type_id":"4","last_reported":1684166907,"current_range_meters":16400,"station_id":"ce4bhbp2rcd13ifvqerg","pricing_plan_id":"free"},{"bike_id":"0f62fdac-9d09-453d-9744-9b651d574b08","system_id":"levelo_inurba_marseille","lat":43.316517,"lon":5.404375,"is_reserved":false,"is_disabled":false,"rental_uris":{"android":"levelo://app?vid=0f62fdac-9d09-453d-9744-9b651d574b08","ios":"levelo://app?vid=0f62fdac-9d09-453d-9744-9b651d574b08"},"vehicle_type_id":"4","last_reported":1684166907,"current_range_meters":30800,"station_id":"ce4bh012rcd13ifvqd00","pricing_plan_id":"free"},{"bike_id":"8c6a736b-776c-4c2f-a895-c3974172fa11","system_id":"levelo_inurba_marseille","lat":43.316517,"lon":5.404375,"is_reserved":false,"is_disabled":false,"rental_uris":{"android":"levelo://app?vid=8c6a736b-776c-4c2f-a895-c3974172fa11","ios":"levelo://app?vid=8c6a736b-776c-4c2f-a895-c3974172fa11"},"vehicle_type_id":"4","last_reported":1684166907,"current_range_meters":21200,"station_id":"ce4bh012rcd13ifvqd00","pricing_plan_id":"free"},{"bike_id":"f4ac3668-7ceb-4b6a-889a-05dd8a6406ad","system_id":"levelo_inurba_marseille","lat":43.284534,"lon":5.358662,"is_reserved":false,"is_disabled":false,"rental_uris":{"android":"levelo://app?vid=f4ac3668-7ceb-4b6a-889a-05dd8a6406ad","ios":"levelo://app?vid=f4ac3668-7ceb-4b6a-889a-05dd8a6406ad"},"vehicle_type_id":"4","last_reported":1684166907,"current_range_meters":8400,"station_id":"ce4bhah2rcd13ifvqei0","pricing_plan_id":"free"},{"bike_id":"90016cb9-3e6a-4f68-820b-7be7a3092e92","system_id":"levelo_inurba_marseille","lat":43.284534,"lon":5.358662,"is_reserved":false,"is_disabled":false,"rental_uris":{"android":"levelo://app?vid=90016cb9-3e6a-4f68-820b-7be7a3092e92","ios":"levelo://app?vid=90016cb9-3e6a-4f68-820b-7be7a3092e92"},"vehicle_type_id":"4","last_reported":1684166907,"current_range_meters":26800,"station_id":"ce4bhah2rcd13ifvqei0","pricing_plan_id":"free"},{"bike_id":"fe0a48d0-5cfb-41dc-9318-dde0d3a6a311","system_id":"levelo_inurba_marseille","lat":43.284534,"lon":5.358662,"is_reserved":false,"is_disabled":false,"rental_uris":{"android":"levelo://app?vid=fe0a48d0-5cfb-41dc-9318-dde0d3a6a311","ios":"levelo://app?vid=fe0a48d0-5cfb-41dc-9318-dde0d3a6a311"},"vehicle_type_id":"4","last_reported":1684166907,"current_range_meters":10000,"station_id":"ce4bhah2rcd13ifvqei0","pricing_plan_id":"free"},{"bike_id":"aff7f13f-a267-40f9-b09e-52489c0aa8a8","system_id":"levelo_inurba_marseille","lat":43.284534,"lon":5.358662,"is_reserved":false,"is_disabled":false,"rental_uris":{"android":"levelo://app?vid=aff7f13f-a267-40f9-b09e-52489c0aa8a8","ios":"levelo://app?vid=aff7f13f-a267-40f9-b09e-52489c0aa8a8"},"vehicle_type_id":"4","last_reported":1684166907,"current_range_meters":16800,"station_id":"ce4bhah2rcd13ifvqei0","pricing_plan_id":"free"},{"bike_id":"1a1fedfb-bc1b-4438-8983-b7abc439a0a2","system_id":"levelo_inurba_marseille","lat":43.284534,"lon":5.358662,"is_reserved":false,"is_disabled":false,"rental_uris":{"android":"levelo://app?vid=1a1fedfb-bc1b-4438-8983-b7abc439a0a2","ios":"levelo://app?vid=1a1fedfb-bc1b-4438-8983-b7abc439a0a2"},"vehicle_type_id":"4","last_reported":1684166907,"current_range_meters":3200,"station_id":"ce4bhah2rcd13ifvqei0","pricing_plan_id":"free"},{"bike_id":"f5db6993-8753-42ea-a5cf-414f4b2bfce5","system_id":"levelo_inurba_marseille","lat":43.284534,"lon":5.358662,"is_reserved":false,"is_disabled":false,"rental_uris":{"android":"levelo://app?vid=f5db6993-8753-42ea-a5cf-414f4b2bfce5","ios":"levelo://app?vid=f5db6993-8753-42ea-a5cf-414f4b2bfce5"},"vehicle_type_id":"4","last_reported":1684166907,"current_range_meters":19600,"station_id":"ce4bhah2rcd13ifvqei0","pricing_plan_id":"free"},{"bike_id":"2cf4b41e-bedc-4825-a7da-3cbde0c261d8","system_id":"levelo_inurba_marseille","lat":43.284534,"lon":5.358662,"is_reserved":false,"is_disabled":false,"rental_uris":{"android":"levelo://app?vid=2cf4b41e-bedc-4825-a7da-3cbde0c261d8","ios":"levelo://app?vid=2cf4b41e-bedc-4825-a7da-3cbde0c261d8"},"vehicle_type_id":"4","last_reported":1684166907,"current_range_meters":27600,"station_id":"ce4bhah2rcd13ifvqei0","pricing_plan_id":"free"},{"bike_id":"ab71db90-45eb-45c9-b4e0-ae6149c1fd53","system_id":"levelo_inurba_marseille","lat":43.284534,"lon":5.358662,"is_reserved":false,"is_disabled":false,"rental_uris":{"android":"levelo://app?vid=ab71db90-45eb-45c9-b4e0-ae6149c1fd53","ios":"levelo://app?vid=ab71db90-45eb-45c9-b4e0-ae6149c1fd53"},"vehicle_type_id":"4","last_reported":1684166907,"current_range_meters":4800,"station_id":"ce4bhah2rcd13ifvqei0","pricing_plan_id":"free"},{"bike_id":"8830da87-e836-4c5e-84c3-37939b94939e","system_id":"levelo_inurba_marseille","lat":43.284534,"lon":5.358662,"is_reserved":false,"is_disabled":false,"rental_uris":{"android":"levelo://app?vid=8830da87-e836-4c5e-84c3-37939b94939e","ios":"levelo://app?vid=8830da87-e836-4c5e-84c3-37939b94939e"},"vehicle_type_id":"4","last_reported":1684166907,"current_range_meters":23200,"station_id":"ce4bhah2rcd13ifvqei0","pricing_plan_id":"free"},{"bike_id":"98eadbde-d5ff-4b7d-a2f2-f073c9242783","system_id":"levelo_inurba_marseille","lat":43.28624,"lon":5.35105,"is_reserved":false,"is_disabled":false,"rental_uris":{"android":"levelo://app?vid=98eadbde-d5ff-4b7d-a2f2-f073c9242783","ios":"levelo://app?vid=98eadbde-d5ff-4b7d-a2f2-f073c9242783"},"vehicle_type_id":"4","last_reported":1684166907,"current_range_meters":25600,"station_id":"","pricing_plan_id":"free"},{"bike_id":"2c3800e5-4408-40c9-91ce-a829f186666e","system_id":"levelo_inurba_marseille","lat":43.285848,"lon":5.350787,"is_reserved":false,"is_disabled":false,"rental_uris":{"android":"levelo://app?vid=2c3800e5-4408-40c9-91ce-a829f186666e","ios":"levelo://app?vid=2c3800e5-4408-40c9-91ce-a829f186666e"},"vehicle_type_id":"4","last_reported":1684166907,"current_range_meters":28000,"station_id":"ce4bhch2rcd13ifvqeug","pricing_plan_id":"free"},{"bike_id":"4da944e7-4bf8-4a1f-a9fe-9a3bde81f918","system_id":"levelo_inurba_marseille","lat":43.285856,"lon":5.350771,"is_reserved":false,"is_disabled":false,"rental_uris":{"android":"levelo://app?vid=4da944e7-4bf8-4a1f-a9fe-9a3bde81f918","ios":"levelo://app?vid=4da944e7-4bf8-4a1f-a9fe-9a3bde81f918"},"vehicle_type_id":"4","last_reported":1684166907,"current_range_meters":21200,"station_id":"ce4bhch2rcd13ifvqeug","pricing_plan_id":"free"},{"bike_id":"fef8b3d8-232e-4c0b-beda-7ba0ac79893c","system_id":"levelo_inurba_marseille","lat":43.2862,"lon":5.35105,"is_reserved":false,"is_disabled":false,"rental_uris":{"android":"levelo://app?vid=fef8b3d8-232e-4c0b-beda-7ba0ac79893c","ios":"levelo://app?vid=fef8b3d8-232e-4c0b-beda-7ba0ac79893c"},"vehicle_type_id":"4","last_reported":1684166907,"current_range_meters":31200,"station_id":"","pricing_plan_id":"free"},{"bike_id":"13097756-b7e8-4515-8c93-eed717af7a29","system_id":"levelo_inurba_marseille","lat":43.2862,"lon":5.35101,"is_reserved":false,"is_disabled":false,"rental_uris":{"android":"levelo://app?vid=13097756-b7e8-4515-8c93-eed717af7a29","ios":"levelo://app?vid=13097756-b7e8-4515-8c93-eed717af7a29"},"vehicle_type_id":"4","last_reported":1684166907,"current_range_meters":30800,"station_id":"","pricing_plan_id":"free"},{"bike_id":"c8d10fac-b0cb-4047-a891-7a0e801041f4","system_id":"levelo_inurba_marseille","lat":43.28619,"lon":5.35103,"is_reserved":false,"is_disabled":false,"rental_uris":{"android":"levelo://app?vid=c8d10fac-b0cb-4047-a891-7a0e801041f4","ios":"levelo://app?vid=c8d10fac-b0cb-4047-a891-7a0e801041f4"},"vehicle_type_id":"4","last_reported":1684166907,"current_range_meters":17200,"station_id":"","pricing_plan_id":"free"},{"bike_id":"5a64992d-4f81-4576-9167-4fdf51d97a63","system_id":"levelo_inurba_marseille","lat":43.28619,"lon":5.35103,"is_reserved":false,"is_disabled":false,"rental_uris":{"android":"levelo://app?vid=5a64992d-4f81-4576-9167-4fdf51d97a63","ios":"levelo://app?vid=5a64992d-4f81-4576-9167-4fdf51d97a63"},"vehicle_type_id":"4","last_reported":1684166907,"current_range_meters":30800,"station_id":"","pricing_plan_id":"free"},{"bike_id":"d4621018-2178-48e1-8a34-912b4ef39e7e","system_id":"levelo_inurba_marseille","lat":43.28619,"lon":5.35102,"is_reserved":false,"is_disabled":false,"rental_uris":{"android":"levelo://app?vid=d4621018-2178-48e1-8a34-912b4ef39e7e","ios":"levelo://app?vid=d4621018-2178-48e1-8a34-912b4ef39e7e"},"vehicle_type_id":"4","last_reported":1684166907,"current_range_meters":31200,"station_id":"","pricing_plan_id":"free"},{"bike_id":"f4f67a93-4410-45b2-be58-1107fe3e2183","system_id":"levelo_inurba_marseille","lat":43.28616,"lon":5.35111,"is_reserved":false,"is_disabled":false,"rental_uris":{"android":"levelo://app?vid=f4f67a93-4410-45b2-be58-1107fe3e2183","ios":"levelo://app?vid=f4f67a93-4410-45b2-be58-1107fe3e2183"},"vehicle_type_id":"4","last_reported":1684166907,"current_range_meters":16800,"station_id":"","pricing_plan_id":"free"},{"bike_id":"0da6cca6-68f9-432e-93b1-a08a82d048e3","system_id":"levelo_inurba_marseille","lat":43.28617,"lon":5.35106,"is_reserved":false,"is_disabled":false,"rental_uris":{"android":"levelo://app?vid=0da6cca6-68f9-432e-93b1-a08a82d048e3","ios":"levelo://app?vid=0da6cca6-68f9-432e-93b1-a08a82d048e3"},"vehicle_type_id":"4","last_reported":1684166907,"current_range_meters":9600,"station_id":"","pricing_plan_id":"free"},{"bike_id":"2d283eda-870b-4f4f-9675-155d89358bfb","system_id":"levelo_inurba_marseille","lat":43.28618,"lon":5.35101,"is_reserved":false,"is_disabled":false,"rental_uris":{"android":"levelo://app?vid=2d283eda-870b-4f4f-9675-155d89358bfb","ios":"levelo://app?vid=2d283eda-870b-4f4f-9675-155d89358bfb"},"vehicle_type_id":"4","last_reported":1684166907,"current_range_meters":31200,"station_id":"","pricing_plan_id":"free"},{"bike_id":"bbd7436b-1f5c-4d85-a8ea-79bcb268f93e","system_id":"levelo_inurba_marseille","lat":43.285856,"lon":5.350771,"is_reserved":false,"is_disabled":false,"rental_uris":{"android":"levelo://app?vid=bbd7436b-1f5c-4d85-a8ea-79bcb268f93e","ios":"levelo://app?vid=bbd7436b-1f5c-4d85-a8ea-79bcb268f93e"},"vehicle_type_id":"4","last_reported":1684166907,"current_range_meters":31200,"station_id":"ce4bhch2rcd13ifvqeug","pricing_plan_id":"free"},{"bike_id":"3a242261-0216-45db-a1b0-f80d4648ccbb","system_id":"levelo_inurba_marseille","lat":43.28618,"lon":5.35094,"is_reserved":false,"is_disabled":false,"rental_uris":{"android":"levelo://app?vid=3a242261-0216-45db-a1b0-f80d4648ccbb","ios":"levelo://app?vid=3a242261-0216-45db-a1b0-f80d4648ccbb"},"vehicle_type_id":"4","last_reported":1684166907,"current_range_meters":28000,"station_id":"","pricing_plan_id":"free"},{"bike_id":"7c84b1e2-8962-4679-a840-ae274eec1961","system_id":"levelo_inurba_marseille","lat":43.28617,"lon":5.35097,"is_reserved":false,"is_disabled":false,"rental_uris":{"android":"levelo://app?vid=7c84b1e2-8962-4679-a840-ae274eec1961","ios":"levelo://app?vid=7c84b1e2-8962-4679-a840-ae274eec1961"},"vehicle_type_id":"4","last_reported":1684166907,"current_range_meters":20800,"station_id":"","pricing_plan_id":"free"},{"bike_id":"dd68f687-2789-4457-9c60-33d549f3545f","system_id":"levelo_inurba_marseille","lat":43.28615,"lon":5.35103,"is_reserved":false,"is_disabled":false,"rental_uris":{"android":"levelo://app?vid=dd68f687-2789-4457-9c60-33d549f3545f","ios":"levelo://app?vid=dd68f687-2789-4457-9c60-33d549f3545f"},"vehicle_type_id":"4","last_reported":1684166907,"current_range_meters":22400,"station_id":"","pricing_plan_id":"free"},{"bike_id":"8dd6de62-8b81-4c0f-99aa-5b6ffc0f7c6f","system_id":"levelo_inurba_marseille","lat":43.286151,"lon":5.351006,"is_reserved":false,"is_disabled":false,"rental_uris":{"android":"levelo://app?vid=8dd6de62-8b81-4c0f-99aa-5b6ffc0f7c6f","ios":"levelo://app?vid=8dd6de62-8b81-4c0f-99aa-5b6ffc0f7c6f"},"vehicle_type_id":"4","last_reported":1684166907,"current_range_meters":10400,"station_id":"ce4bhbp2rcd13ifvqerg","pricing_plan_id":"free"},{"bike_id":"3c34687f-2d3a-4ab9-ad4a-f37f3ffd4f2d","system_id":"levelo_inurba_marseille","lat":43.28611,"lon":5.351,"is_reserved":false,"is_disabled":false,"rental_uris":{"android":"levelo://app?vid=3c34687f-2d3a-4ab9-ad4a-f37f3ffd4f2d","ios":"levelo://app?vid=3c34687f-2d3a-4ab9-ad4a-f37f3ffd4f2d"},"vehicle_type_id":"4","last_reported":1684166907,"current_range_meters":26400,"station_id":"","pricing_plan_id":"free"},{"bike_id":"c10d0838-8a1a-4c37-a0ae-6223c6bc7765","system_id":"levelo_inurba_marseille","lat":43.304296,"lon":5.397513,"is_reserved":false,"is_disabled":false,"rental_uris":{"android":"levelo://app?vid=c10d0838-8a1a-4c37-a0ae-6223c6bc7765","ios":"levelo://app?vid=c10d0838-8a1a-4c37-a0ae-6223c6bc7765"},"vehicle_type_id":"4","last_reported":1684166907,"current_range_meters":8400,"station_id":"ce4bh092rcd13ifvqd20","pricing_plan_id":"free"},{"bike_id":"9013fe70-411f-403a-b64d-f5d3f43fbc5d","system_id":"levelo_inurba_marseille","lat":43.295713,"lon":5.399639,"is_reserved":false,"is_disabled":false,"rental_uris":{"android":"levelo://app?vid=9013fe70-411f-403a-b64d-f5d3f43fbc5d","ios":"levelo://app?vid=9013fe70-411f-403a-b64d-f5d3f43fbc5d"},"vehicle_type_id":"4","last_reported":1684166907,"current_range_meters":0,"station_id":"ce4bh312rcd13ifvqdj0","pricing_plan_id":"free"},{"bike_id":"ba7bc572-9721-4185-bcc4-8c49d95004cc","system_id":"levelo_inurba_marseille","lat":43.28677,"lon":5.38661,"is_reserved":false,"is_disabled":false,"rental_uris":{"android":"levelo://app?vid=ba7bc572-9721-4185-bcc4-8c49d95004cc","ios":"levelo://app?vid=ba7bc572-9721-4185-bcc4-8c49d95004cc"},"vehicle_type_id":"4","last_reported":1684166907,"current_range_meters":19200,"station_id":"ce4bh492rcd13ifvqdug","pricing_plan_id":"free"},{"bike_id":"357b9f0d-6971-49cc-a3b8-a0148256825e","system_id":"levelo_inurba_marseille","lat":43.286595,"lon":5.386795,"is_reserved":false,"is_disabled":false,"rental_uris":{"android":"levelo://app?vid=357b9f0d-6971-49cc-a3b8-a0148256825e","ios":"levelo://app?vid=357b9f0d-6971-49cc-a3b8-a0148256825e"},"vehicle_type_id":"4","last_reported":1684166907,"current_range_meters":20800,"station_id":"ce4bh492rcd13ifvqdug","pricing_plan_id":"free"},{"bike_id":"4efe6c87-b07d-459f-a695-c3f5b9fbaa22","system_id":"levelo_inurba_marseille","lat":43.286595,"lon":5.386795,"is_reserved":false,"is_disabled":false,"rental_uris":{"android":"levelo://app?vid=4efe6c87-b07d-459f-a695-c3f5b9fbaa22","ios":"levelo://app?vid=4efe6c87-b07d-459f-a695-c3f5b9fbaa22"},"vehicle_type_id":"4","last_reported":1684166907,"current_range_meters":30400,"station_id":"ce4bh492rcd13ifvqdug","pricing_plan_id":"free"},{"bike_id":"4ebb2e52-c3e8-491b-8de7-0e73e8acbd1d","system_id":"levelo_inurba_marseille","lat":43.323464,"lon":5.406297,"is_reserved":false,"is_disabled":false,"rental_uris":{"android":"levelo://app?vid=4ebb2e52-c3e8-491b-8de7-0e73e8acbd1d","ios":"levelo://app?vid=4ebb2e52-c3e8-491b-8de7-0e73e8acbd1d"},"vehicle_type_id":"4","last_reported":1684166907,"current_range_meters":31600,"station_id":"ce4bhq92rcd13ifvqhjg","pricing_plan_id":"free"},{"bike_id":"f38664cb-2587-4e95-98f6-d6b9ba4ca768","system_id":"levelo_inurba_marseille","lat":43.323464,"lon":5.406297,"is_reserved":false,"is_disabled":false,"rental_uris":{"android":"levelo://app?vid=f38664cb-2587-4e95-98f6-d6b9ba4ca768","ios":"levelo://app?vid=f38664cb-2587-4e95-98f6-d6b9ba4ca768"},"vehicle_type_id":"4","last_reported":1684166907,"current_range_meters":24400,"station_id":"ce4bhq92rcd13ifvqhjg","pricing_plan_id":"free"},{"bike_id":"6a74fbc9-5801-4bc5-ac42-d69bb46ab8e2","system_id":"levelo_inurba_marseille","lat":43.284787,"lon":5.384116,"is_reserved":false,"is_disabled":false,"rental_uris":{"android":"levelo://app?vid=6a74fbc9-5801-4bc5-ac42-d69bb46ab8e2","ios":"levelo://app?vid=6a74fbc9-5801-4bc5-ac42-d69bb46ab8e2"},"vehicle_type_id":"4","last_reported":1684166907,"current_range_meters":2800,"station_id":"ce4bh512rcd13ifvqe3g","pricing_plan_id":"free"},{"bike_id":"dc145352-7428-4d1f-8bf5-bcb3d1261749","system_id":"levelo_inurba_marseille","lat":43.284793,"lon":5.384119,"is_reserved":false,"is_disabled":false,"rental_uris":{"android":"levelo://app?vid=dc145352-7428-4d1f-8bf5-bcb3d1261749","ios":"levelo://app?vid=dc145352-7428-4d1f-8bf5-bcb3d1261749"},"vehicle_type_id":"4","last_reported":1684166907,"current_range_meters":24000,"station_id":"ce4bh512rcd13ifvqe3g","pricing_plan_id":"free"},{"bike_id":"36ca0545-9996-4c3c-8d54-cbf01d4a82b9","system_id":"levelo_inurba_marseille","lat":43.288497,"lon":5.393089,"is_reserved":false,"is_disabled":false,"rental_uris":{"android":"levelo://app?vid=36ca0545-9996-4c3c-8d54-cbf01d4a82b9","ios":"levelo://app?vid=36ca0545-9996-4c3c-8d54-cbf01d4a82b9"},"vehicle_type_id":"4","last_reported":1684166907,"current_range_meters":8800,"station_id":"ce4bh2p2rcd13ifvqdi0","pricing_plan_id":"free"},{"bike_id":"9854ea48-0d6e-4727-b4e9-10e069d0949c","system_id":"levelo_inurba_marseille","lat":43.28356,"lon":5.38102,"is_reserved":false,"is_disabled":false,"rental_uris":{"android":"levelo://app?vid=9854ea48-0d6e-4727-b4e9-10e069d0949c","ios":"levelo://app?vid=9854ea48-0d6e-4727-b4e9-10e069d0949c"},"vehicle_type_id":"4","last_reported":1684166907,"current_range_meters":20400,"station_id":"ce4bh412rcd13ifvqdr0","pricing_plan_id":"free"},{"bike_id":"df7de2f6-a6f6-4c34-96f2-f1a8e36d1aea","system_id":"levelo_inurba_marseille","lat":43.284219,"lon":5.3497,"is_reserved":false,"is_disabled":false,"rental_uris":{"android":"levelo://app?vid=df7de2f6-a6f6-4c34-96f2-f1a8e36d1aea","ios":"levelo://app?vid=df7de2f6-a6f6-4c34-96f2-f1a8e36d1aea"},"vehicle_type_id":"4","last_reported":1684166907,"current_range_meters":31200,"station_id":"ce4bhbh2rcd13ifvqepg","pricing_plan_id":"free"},{"bike_id":"422e969b-de68-4e39-b3ca-0164d4efd97f","system_id":"levelo_inurba_marseille","lat":43.284219,"lon":5.3497,"is_reserved":false,"is_disabled":false,"rental_uris":{"android":"levelo://app?vid=422e969b-de68-4e39-b3ca-0164d4efd97f","ios":"levelo://app?vid=422e969b-de68-4e39-b3ca-0164d4efd97f"},"vehicle_type_id":"4","last_reported":1684166907,"current_range_meters":30800,"station_id":"ce4bhbh2rcd13ifvqepg","pricing_plan_id":"free"},{"bike_id":"62eb235e-5f9c-4982-a521-06ac25edfd39","system_id":"levelo_inurba_marseille","lat":43.28423,"lon":5.34991,"is_reserved":false,"is_disabled":false,"rental_uris":{"android":"levelo://app?vid=62eb235e-5f9c-4982-a521-06ac25edfd39","ios":"levelo://app?vid=62eb235e-5f9c-4982-a521-06ac25edfd39"},"vehicle_type_id":"4","last_reported":1684166907,"current_range_meters":20800,"station_id":"ce4bhbh2rcd13ifvqepg","pricing_plan_id":"free"},{"bike_id":"25d3f0c2-a677-47ae-8627-c6a36dd0e124","system_id":"levelo_inurba_marseille","lat":43.284219,"lon":5.3497,"is_reserved":false,"is_disabled":false,"rental_uris":{"android":"levelo://app?vid=25d3f0c2-a677-47ae-8627-c6a36dd0e124","ios":"levelo://app?vid=25d3f0c2-a677-47ae-8627-c6a36dd0e124"},"vehicle_type_id":"4","last_reported":1684166907,"current_range_meters":28800,"station_id":"ce4bhbh2rcd13ifvqepg","pricing_plan_id":"free"},{"bike_id":"b557dae2-3d4d-44b6-a788-6ef45dc42c42","system_id":"levelo_inurba_marseille","lat":43.284219,"lon":5.3497,"is_reserved":false,"is_disabled":false,"rental_uris":{"android":"levelo://app?vid=b557dae2-3d4d-44b6-a788-6ef45dc42c42","ios":"levelo://app?vid=b557dae2-3d4d-44b6-a788-6ef45dc42c42"},"vehicle_type_id":"4","last_reported":1684166907,"current_range_meters":17600,"station_id":"ce4bhbh2rcd13ifvqepg","pricing_plan_id":"free"},{"bike_id":"b90abf6e-4f78-4341-8547-efb6d0281c25","system_id":"levelo_inurba_marseille","lat":43.284217,"lon":5.349697,"is_reserved":false,"is_disabled":false,"rental_uris":{"android":"levelo://app?vid=b90abf6e-4f78-4341-8547-efb6d0281c25","ios":"levelo://app?vid=b90abf6e-4f78-4341-8547-efb6d0281c25"},"vehicle_type_id":"4","last_reported":1684166907,"current_range_meters":31200,"station_id":"ce4bhbh2rcd13ifvqepg","pricing_plan_id":"free"},{"bike_id":"88dde1fc-4a7b-453b-b569-c51ef30cf14c","system_id":"levelo_inurba_marseille","lat":43.284217,"lon":5.349697,"is_reserved":false,"is_disabled":false,"rental_uris":{"android":"levelo://app?vid=88dde1fc-4a7b-453b-b569-c51ef30cf14c","ios":"levelo://app?vid=88dde1fc-4a7b-453b-b569-c51ef30cf14c"},"vehicle_type_id":"4","last_reported":1684166907,"current_range_meters":29600,"station_id":"ce4bhbh2rcd13ifvqepg","pricing_plan_id":"free"},{"bike_id":"7190936f-21fa-4572-8c41-d5666c95f87b","system_id":"levelo_inurba_marseille","lat":43.284253,"lon":5.349762,"is_reserved":false,"is_disabled":false,"rental_uris":{"android":"levelo://app?vid=7190936f-21fa-4572-8c41-d5666c95f87b","ios":"levelo://app?vid=7190936f-21fa-4572-8c41-d5666c95f87b"},"vehicle_type_id":"4","last_reported":1684166907,"current_range_meters":19600,"station_id":"ce4bhbh2rcd13ifvqepg","pricing_plan_id":"free"},{"bike_id":"1a659d39-fd01-4844-8bc6-e41d5c7e6deb","system_id":"levelo_inurba_marseille","lat":43.284219,"lon":5.3497,"is_reserved":false,"is_disabled":false,"rental_uris":{"android":"levelo://app?vid=1a659d39-fd01-4844-8bc6-e41d5c7e6deb","ios":"levelo://app?vid=1a659d39-fd01-4844-8bc6-e41d5c7e6deb"},"vehicle_type_id":"4","last_reported":1684166907,"current_range_meters":0,"station_id":"ce4bhbh2rcd13ifvqepg","pricing_plan_id":"free"},{"bike_id":"2d5de33f-8a72-4225-aa5b-0b90e4e03758","system_id":"levelo_inurba_marseille","lat":43.284217,"lon":5.349697,"is_reserved":false,"is_disabled":false,"rental_uris":{"android":"levelo://app?vid=2d5de33f-8a72-4225-aa5b-0b90e4e03758","ios":"levelo://app?vid=2d5de33f-8a72-4225-aa5b-0b90e4e03758"},"vehicle_type_id":"4","last_reported":1684166907,"current_range_meters":31600,"station_id":"ce4bhbh2rcd13ifvqepg","pricing_plan_id":"free"},{"bike_id":"3b300651-be76-4054-b6e5-2981d85f0620","system_id":"levelo_inurba_marseille","lat":43.284217,"lon":5.349697,"is_reserved":false,"is_disabled":false,"rental_uris":{"android":"levelo://app?vid=3b300651-be76-4054-b6e5-2981d85f0620","ios":"levelo://app?vid=3b300651-be76-4054-b6e5-2981d85f0620"},"vehicle_type_id":"4","last_reported":1684166907,"current_range_meters":27600,"station_id":"ce4bhbh2rcd13ifvqepg","pricing_plan_id":"free"},{"bike_id":"4f4af6fe-dc18-4dca-b938-c12f44d9f3ae","system_id":"levelo_inurba_marseille","lat":43.284219,"lon":5.3497,"is_reserved":false,"is_disabled":false,"rental_uris":{"android":"levelo://app?vid=4f4af6fe-dc18-4dca-b938-c12f44d9f3ae","ios":"levelo://app?vid=4f4af6fe-dc18-4dca-b938-c12f44d9f3ae"},"vehicle_type_id":"4","last_reported":1684166907,"current_range_meters":18400,"station_id":"ce4bhbh2rcd13ifvqepg","pricing_plan_id":"free"},{"bike_id":"10aa68ad-7c1c-4fe7-bddb-c5ea35921629","system_id":"levelo_inurba_marseille","lat":43.284219,"lon":5.3497,"is_reserved":false,"is_disabled":false,"rental_uris":{"android":"levelo://app?vid=10aa68ad-7c1c-4fe7-bddb-c5ea35921629","ios":"levelo://app?vid=10aa68ad-7c1c-4fe7-bddb-c5ea35921629"},"vehicle_type_id":"4","last_reported":1684166907,"current_range_meters":12800,"station_id":"ce4bhbh2rcd13ifvqepg","pricing_plan_id":"free"},{"bike_id":"49984c63-36f2-4ae5-b0ba-884c5552bcb3","system_id":"levelo_inurba_marseille","lat":43.2842,"lon":5.34983,"is_reserved":false,"is_disabled":false,"rental_uris":{"android":"levelo://app?vid=49984c63-36f2-4ae5-b0ba-884c5552bcb3","ios":"levelo://app?vid=49984c63-36f2-4ae5-b0ba-884c5552bcb3"},"vehicle_type_id":"4","last_reported":1684166907,"current_range_meters":24400,"station_id":"ce4bhbh2rcd13ifvqepg","pricing_plan_id":"free"},{"bike_id":"72cbb59e-93ed-48a8-9b5c-762f32e3ae96","system_id":"levelo_inurba_marseille","lat":43.284219,"lon":5.3497,"is_reserved":false,"is_disabled":false,"rental_uris":{"android":"levelo://app?vid=72cbb59e-93ed-48a8-9b5c-762f32e3ae96","ios":"levelo://app?vid=72cbb59e-93ed-48a8-9b5c-762f32e3ae96"},"vehicle_type_id":"4","last_reported":1684166907,"current_range_meters":31200,"station_id":"ce4bhbh2rcd13ifvqepg","pricing_plan_id":"free"},{"bike_id":"d10b1c59-a278-44a7-994f-61b6779e4d5d","system_id":"levelo_inurba_marseille","lat":43.284217,"lon":5.349697,"is_reserved":false,"is_disabled":false,"rental_uris":{"android":"levelo://app?vid=d10b1c59-a278-44a7-994f-61b6779e4d5d","ios":"levelo://app?vid=d10b1c59-a278-44a7-994f-61b6779e4d5d"},"vehicle_type_id":"4","last_reported":1684166907,"current_range_meters":30400,"station_id":"ce4bhbh2rcd13ifvqepg","pricing_plan_id":"free"},{"bike_id":"c07c3e35-d52d-4b10-9a22-49a78bfbbfb8","system_id":"levelo_inurba_marseille","lat":43.284217,"lon":5.349697,"is_reserved":false,"is_disabled":false,"rental_uris":{"android":"levelo://app?vid=c07c3e35-d52d-4b10-9a22-49a78bfbbfb8","ios":"levelo://app?vid=c07c3e35-d52d-4b10-9a22-49a78bfbbfb8"},"vehicle_type_id":"4","last_reported":1684166907,"current_range_meters":29200,"station_id":"ce4bhbh2rcd13ifvqepg","pricing_plan_id":"free"},{"bike_id":"d22d17bc-478f-4089-a70b-63a31a6423c6","system_id":"levelo_inurba_marseille","lat":43.284219,"lon":5.3497,"is_reserved":false,"is_disabled":false,"rental_uris":{"android":"levelo://app?vid=d22d17bc-478f-4089-a70b-63a31a6423c6","ios":"levelo://app?vid=d22d17bc-478f-4089-a70b-63a31a6423c6"},"vehicle_type_id":"4","last_reported":1684166907,"current_range_meters":10000,"station_id":"ce4bhbh2rcd13ifvqepg","pricing_plan_id":"free"},{"bike_id":"e50ecd6f-e855-496f-8a8e-f94ead1768c9","system_id":"levelo_inurba_marseille","lat":43.284217,"lon":5.349697,"is_reserved":false,"is_disabled":false,"rental_uris":{"android":"levelo://app?vid=e50ecd6f-e855-496f-8a8e-f94ead1768c9","ios":"levelo://app?vid=e50ecd6f-e855-496f-8a8e-f94ead1768c9"},"vehicle_type_id":"4","last_reported":1684166907,"current_range_meters":21200,"station_id":"ce4bhbh2rcd13ifvqepg","pricing_plan_id":"free"},{"bike_id":"0807e324-220f-4e7d-9d4d-aa719ff627e9","system_id":"levelo_inurba_marseille","lat":43.284217,"lon":5.349697,"is_reserved":false,"is_disabled":false,"rental_uris":{"android":"levelo://app?vid=0807e324-220f-4e7d-9d4d-aa719ff627e9","ios":"levelo://app?vid=0807e324-220f-4e7d-9d4d-aa719ff627e9"},"vehicle_type_id":"4","last_reported":1684166907,"current_range_meters":31200,"station_id":"ce4bhbh2rcd13ifvqepg","pricing_plan_id":"free"},{"bike_id":"9e669dce-c083-4c21-bca9-c56f1097660d","system_id":"levelo_inurba_marseille","lat":43.284171,"lon":5.349769,"is_reserved":false,"is_disabled":false,"rental_uris":{"android":"levelo://app?vid=9e669dce-c083-4c21-bca9-c56f1097660d","ios":"levelo://app?vid=9e669dce-c083-4c21-bca9-c56f1097660d"},"vehicle_type_id":"4","last_reported":1684166907,"current_range_meters":29200,"station_id":"ce4bhbh2rcd13ifvqepg","pricing_plan_id":"free"},{"bike_id":"8265ffbd-3992-4cab-aa87-1b3a4cc336ba","system_id":"levelo_inurba_marseille","lat":43.284217,"lon":5.349697,"is_reserved":false,"is_disabled":false,"rental_uris":{"android":"levelo://app?vid=8265ffbd-3992-4cab-aa87-1b3a4cc336ba","ios":"levelo://app?vid=8265ffbd-3992-4cab-aa87-1b3a4cc336ba"},"vehicle_type_id":"4","last_reported":1684166907,"current_range_meters":31200,"station_id":"ce4bhbh2rcd13ifvqepg","pricing_plan_id":"free"},{"bike_id":"4308e5dd-65b5-4891-bed5-2457cf84e029","system_id":"levelo_inurba_marseille","lat":43.284217,"lon":5.349697,"is_reserved":false,"is_disabled":false,"rental_uris":{"android":"levelo://app?vid=4308e5dd-65b5-4891-bed5-2457cf84e029","ios":"levelo://app?vid=4308e5dd-65b5-4891-bed5-2457cf84e029"},"vehicle_type_id":"4","last_reported":1684166907,"current_range_meters":19200,"station_id":"ce4bhbh2rcd13ifvqepg","pricing_plan_id":"free"},{"bike_id":"8b7bb9fd-73fb-41be-868a-86b4fd445df3","system_id":"levelo_inurba_marseille","lat":43.284217,"lon":5.349697,"is_reserved":false,"is_disabled":false,"rental_uris":{"android":"levelo://app?vid=8b7bb9fd-73fb-41be-868a-86b4fd445df3","ios":"levelo://app?vid=8b7bb9fd-73fb-41be-868a-86b4fd445df3"},"vehicle_type_id":"4","last_reported":1684166907,"current_range_meters":31600,"station_id":"ce4bhbh2rcd13ifvqepg","pricing_plan_id":"free"},{"bike_id":"858374cb-cfee-4f68-a770-bd6e01270211","system_id":"levelo_inurba_marseille","lat":43.284219,"lon":5.3497,"is_reserved":false,"is_disabled":false,"rental_uris":{"android":"levelo://app?vid=858374cb-cfee-4f68-a770-bd6e01270211","ios":"levelo://app?vid=858374cb-cfee-4f68-a770-bd6e01270211"},"vehicle_type_id":"4","last_reported":1684166907,"current_range_meters":30800,"station_id":"ce4bhbh2rcd13ifvqepg","pricing_plan_id":"free"},{"bike_id":"6de6c457-3253-435e-bec7-8bc0ac720dd8","system_id":"levelo_inurba_marseille","lat":43.289363,"lon":5.396322,"is_reserved":false,"is_disabled":false,"rental_uris":{"android":"levelo://app?vid=6de6c457-3253-435e-bec7-8bc0ac720dd8","ios":"levelo://app?vid=6de6c457-3253-435e-bec7-8bc0ac720dd8"},"vehicle_type_id":"4","last_reported":1684166907,"current_range_meters":1600,"station_id":"ce4bh3h2rcd13ifvqdn0","pricing_plan_id":"free"},{"bike_id":"ebeb7cf7-3374-4c9d-a161-3426b9c4da55","system_id":"levelo_inurba_marseille","lat":43.28273,"lon":5.35071,"is_reserved":false,"is_disabled":false,"rental_uris":{"android":"levelo://app?vid=ebeb7cf7-3374-4c9d-a161-3426b9c4da55","ios":"levelo://app?vid=ebeb7cf7-3374-4c9d-a161-3426b9c4da55"},"vehicle_type_id":"4","last_reported":1684166907,"current_range_meters":13600,"station_id":"ce4bhbp2rcd13ifvqerg","pricing_plan_id":"free"},{"bike_id":"d6758c67-84d7-455b-bc76-5b48bdc9ec68","system_id":"levelo_inurba_marseille","lat":43.282754,"lon":5.350519,"is_reserved":false,"is_disabled":false,"rental_uris":{"android":"levelo://app?vid=d6758c67-84d7-455b-bc76-5b48bdc9ec68","ios":"levelo://app?vid=d6758c67-84d7-455b-bc76-5b48bdc9ec68"},"vehicle_type_id":"4","last_reported":1684166907,"current_range_meters":28400,"station_id":"ce4bhbp2rcd13ifvqerg","pricing_plan_id":"free"},{"bike_id":"034a1665-76a5-47f0-8028-1456b57797db","system_id":"levelo_inurba_marseille","lat":43.282754,"lon":5.350519,"is_reserved":false,"is_disabled":false,"rental_uris":{"android":"levelo://app?vid=034a1665-76a5-47f0-8028-1456b57797db","ios":"levelo://app?vid=034a1665-76a5-47f0-8028-1456b57797db"},"vehicle_type_id":"4","last_reported":1684166907,"current_range_meters":27600,"station_id":"ce4bhbp2rcd13ifvqerg","pricing_plan_id":"free"},{"bike_id":"1f0ddf90-2e10-4041-be36-26b04f0f8a69","system_id":"levelo_inurba_marseille","lat":43.28039,"lon":5.369297,"is_reserved":false,"is_disabled":false,"rental_uris":{"android":"levelo://app?vid=1f0ddf90-2e10-4041-be36-26b04f0f8a69","ios":"levelo://app?vid=1f0ddf90-2e10-4041-be36-26b04f0f8a69"},"vehicle_type_id":"4","last_reported":1684166907,"current_range_meters":0,"station_id":"ce4bha12rcd13ifvqef0","pricing_plan_id":"free"},{"bike_id":"8ad4500f-4799-4f38-94d4-36fc782ad132","system_id":"levelo_inurba_marseille","lat":43.280382,"lon":5.369291,"is_reserved":false,"is_disabled":false,"rental_uris":{"android":"levelo://app?vid=8ad4500f-4799-4f38-94d4-36fc782ad132","ios":"levelo://app?vid=8ad4500f-4799-4f38-94d4-36fc782ad132"},"vehicle_type_id":"4","last_reported":1684166907,"current_range_meters":31200,"station_id":"ce4bha12rcd13ifvqef0","pricing_plan_id":"free"},{"bike_id":"3721e931-de6f-40d8-996b-7b33d16b10ba","system_id":"levelo_inurba_marseille","lat":43.281044,"lon":5.378308,"is_reserved":false,"is_disabled":false,"rental_uris":{"android":"levelo://app?vid=3721e931-de6f-40d8-996b-7b33d16b10ba","ios":"levelo://app?vid=3721e931-de6f-40d8-996b-7b33d16b10ba"},"vehicle_type_id":"4","last_reported":1684166907,"current_range_meters":12000,"station_id":"ce4bha12rcd13ifvqee0","pricing_plan_id":"free"},{"bike_id":"f203712b-d09c-4b12-b123-de07fa1125e3","system_id":"levelo_inurba_marseille","lat":43.296263,"lon":5.40601,"is_reserved":false,"is_disabled":false,"rental_uris":{"android":"levelo://app?vid=f203712b-d09c-4b12-b123-de07fa1125e3","ios":"levelo://app?vid=f203712b-d09c-4b12-b123-de07fa1125e3"},"vehicle_type_id":"4","last_reported":1684166907,"current_range_meters":0,"station_id":"ce4bh0h2rcd13ifvqd60","pricing_plan_id":"free"},{"bike_id":"95b21f4c-b754-4afb-8476-7c12a3e69f15","system_id":"levelo_inurba_marseille","lat":43.284462,"lon":5.392121,"is_reserved":false,"is_disabled":false,"rental_uris":{"android":"levelo://app?vid=95b21f4c-b754-4afb-8476-7c12a3e69f15","ios":"levelo://app?vid=95b21f4c-b754-4afb-8476-7c12a3e69f15"},"vehicle_type_id":"4","last_reported":1684166907,"current_range_meters":28400,"station_id":"ce4bhoh2rcd13ifvqh5g","pricing_plan_id":"free"},{"bike_id":"2b0df435-369f-4c19-8f54-c18c59e89ab4","system_id":"levelo_inurba_marseille","lat":43.284462,"lon":5.392121,"is_reserved":false,"is_disabled":false,"rental_uris":{"android":"levelo://app?vid=2b0df435-369f-4c19-8f54-c18c59e89ab4","ios":"levelo://app?vid=2b0df435-369f-4c19-8f54-c18c59e89ab4"},"vehicle_type_id":"4","last_reported":1684166907,"current_range_meters":28000,"station_id":"ce4bhoh2rcd13ifvqh5g","pricing_plan_id":"free"},{"bike_id":"9d031b55-29e3-4ed6-9856-17354d3b37f2","system_id":"levelo_inurba_marseille","lat":43.284462,"lon":5.392121,"is_reserved":false,"is_disabled":false,"rental_uris":{"android":"levelo://app?vid=9d031b55-29e3-4ed6-9856-17354d3b37f2","ios":"levelo://app?vid=9d031b55-29e3-4ed6-9856-17354d3b37f2"},"vehicle_type_id":"4","last_reported":1684166907,"current_range_meters":31200,"station_id":"ce4bhoh2rcd13ifvqh5g","pricing_plan_id":"free"},{"bike_id":"489c144c-715f-4033-aed9-ae752591a355","system_id":"levelo_inurba_marseille","lat":43.284462,"lon":5.392121,"is_reserved":false,"is_disabled":false,"rental_uris":{"android":"levelo://app?vid=489c144c-715f-4033-aed9-ae752591a355","ios":"levelo://app?vid=489c144c-715f-4033-aed9-ae752591a355"},"vehicle_type_id":"4","last_reported":1684166907,"current_range_meters":31200,"station_id":"ce4bhoh2rcd13ifvqh5g","pricing_plan_id":"free"},{"bike_id":"9e014992-83d4-4773-b691-7d2fb21afecf","system_id":"levelo_inurba_marseille","lat":43.284462,"lon":5.392121,"is_reserved":false,"is_disabled":false,"rental_uris":{"android":"levelo://app?vid=9e014992-83d4-4773-b691-7d2fb21afecf","ios":"levelo://app?vid=9e014992-83d4-4773-b691-7d2fb21afecf"},"vehicle_type_id":"4","last_reported":1684166907,"current_range_meters":24000,"station_id":"ce4bhoh2rcd13ifvqh5g","pricing_plan_id":"free"},{"bike_id":"eafed224-e57c-4552-9c7e-1447ee5dc630","system_id":"levelo_inurba_marseille","lat":43.279742,"lon":5.38744,"is_reserved":false,"is_disabled":false,"rental_uris":{"android":"levelo://app?vid=eafed224-e57c-4552-9c7e-1447ee5dc630","ios":"levelo://app?vid=eafed224-e57c-4552-9c7e-1447ee5dc630"},"vehicle_type_id":"4","last_reported":1684166907,"current_range_meters":10800,"station_id":"ce4bhg12rcd13ifvqf80","pricing_plan_id":"free"},{"bike_id":"b2bbe2ce-ffb8-4bf6-860b-6b4f29393d44","system_id":"levelo_inurba_marseille","lat":43.27618,"lon":5.361009,"is_reserved":false,"is_disabled":false,"rental_uris":{"android":"levelo://app?vid=b2bbe2ce-ffb8-4bf6-860b-6b4f29393d44","ios":"levelo://app?vid=b2bbe2ce-ffb8-4bf6-860b-6b4f29393d44"},"vehicle_type_id":"4","last_reported":1684166907,"current_range_meters":30400,"station_id":"ce4bgj92rcd13ifvqbe0","pricing_plan_id":"free"},{"bike_id":"5064572f-029e-4058-af9a-d0b946a81dc1","system_id":"levelo_inurba_marseille","lat":43.27618,"lon":5.361009,"is_reserved":false,"is_disabled":false,"rental_uris":{"android":"levelo://app?vid=5064572f-029e-4058-af9a-d0b946a81dc1","ios":"levelo://app?vid=5064572f-029e-4058-af9a-d0b946a81dc1"},"vehicle_type_id":"4","last_reported":1684166907,"current_range_meters":0,"station_id":"ce4bgj92rcd13ifvqbe0","pricing_plan_id":"free"},{"bike_id":"bcd8eec6-fcaa-4636-9f59-0453c7ea2936","system_id":"levelo_inurba_marseille","lat":43.27618,"lon":5.361009,"is_reserved":false,"is_disabled":false,"rental_uris":{"android":"levelo://app?vid=bcd8eec6-fcaa-4636-9f59-0453c7ea2936","ios":"levelo://app?vid=bcd8eec6-fcaa-4636-9f59-0453c7ea2936"},"vehicle_type_id":"4","last_reported":1684166907,"current_range_meters":13600,"station_id":"ce4bgj92rcd13ifvqbe0","pricing_plan_id":"free"},{"bike_id":"0ae5eb2b-f118-4896-953c-5c6d4d7757e1","system_id":"levelo_inurba_marseille","lat":43.33169,"lon":5.41035,"is_reserved":false,"is_disabled":false,"rental_uris":{"android":"levelo://app?vid=0ae5eb2b-f118-4896-953c-5c6d4d7757e1","ios":"levelo://app?vid=0ae5eb2b-f118-4896-953c-5c6d4d7757e1"},"vehicle_type_id":"4","last_reported":1684166907,"current_range_meters":6800,"station_id":"","pricing_plan_id":"free"},{"bike_id":"08fcd11b-ba5b-4d2d-bda6-7389787be632","system_id":"levelo_inurba_marseille","lat":43.33372,"lon":5.40908,"is_reserved":false,"is_disabled":false,"rental_uris":{"android":"levelo://app?vid=08fcd11b-ba5b-4d2d-bda6-7389787be632","ios":"levelo://app?vid=08fcd11b-ba5b-4d2d-bda6-7389787be632"},"vehicle_type_id":"4","last_reported":1684166907,"current_range_meters":12400,"station_id":"","pricing_plan_id":"free"},{"bike_id":"7dc4cc93-a65d-436e-af70-6f7e5b88c44e","system_id":"levelo_inurba_marseille","lat":43.280784,"lon":5.396622,"is_reserved":false,"is_disabled":false,"rental_uris":{"android":"levelo://app?vid=7dc4cc93-a65d-436e-af70-6f7e5b88c44e","ios":"levelo://app?vid=7dc4cc93-a65d-436e-af70-6f7e5b88c44e"},"vehicle_type_id":"4","last_reported":1684166907,"current_range_meters":27600,"station_id":"ce4bho12rcd13ifvqh2g","pricing_plan_id":"free"},{"bike_id":"5b2bd78c-03e5-4496-8c3e-46f36538af3c","system_id":"levelo_inurba_marseille","lat":43.280784,"lon":5.396622,"is_reserved":false,"is_disabled":false,"rental_uris":{"android":"levelo://app?vid=5b2bd78c-03e5-4496-8c3e-46f36538af3c","ios":"levelo://app?vid=5b2bd78c-03e5-4496-8c3e-46f36538af3c"},"vehicle_type_id":"4","last_reported":1684166907,"current_range_meters":24800,"station_id":"ce4bho12rcd13ifvqh2g","pricing_plan_id":"free"},{"bike_id":"cd4bb653-0007-4d2e-b009-c0d4df75ea35","system_id":"levelo_inurba_marseille","lat":43.280784,"lon":5.396622,"is_reserved":false,"is_disabled":false,"rental_uris":{"android":"levelo://app?vid=cd4bb653-0007-4d2e-b009-c0d4df75ea35","ios":"levelo://app?vid=cd4bb653-0007-4d2e-b009-c0d4df75ea35"},"vehicle_type_id":"4","last_reported":1684166907,"current_range_meters":21600,"station_id":"ce4bho12rcd13ifvqh2g","pricing_plan_id":"free"},{"bike_id":"e3a3079c-d80d-4d84-b83a-e2568879127e","system_id":"levelo_inurba_marseille","lat":43.278399,"lon":5.392139,"is_reserved":false,"is_disabled":false,"rental_uris":{"android":"levelo://app?vid=e3a3079c-d80d-4d84-b83a-e2568879127e","ios":"levelo://app?vid=e3a3079c-d80d-4d84-b83a-e2568879127e"},"vehicle_type_id":"4","last_reported":1684166907,"current_range_meters":4800,"station_id":"ce4bhjp2rcd13ifvqga0","pricing_plan_id":"free"},{"bike_id":"87d88b51-ed9b-40c8-b2e8-dc7109c87aa1","system_id":"levelo_inurba_marseille","lat":43.27841,"lon":5.39202,"is_reserved":false,"is_disabled":false,"rental_uris":{"android":"levelo://app?vid=87d88b51-ed9b-40c8-b2e8-dc7109c87aa1","ios":"levelo://app?vid=87d88b51-ed9b-40c8-b2e8-dc7109c87aa1"},"vehicle_type_id":"4","last_reported":1684166907,"current_range_meters":0,"station_id":"ce4bhjp2rcd13ifvqga0","pricing_plan_id":"free"},{"bike_id":"547f9960-714c-4118-9f70-0aa98accf4c1","system_id":"levelo_inurba_marseille","lat":43.278399,"lon":5.392139,"is_reserved":false,"is_disabled":false,"rental_uris":{"android":"levelo://app?vid=547f9960-714c-4118-9f70-0aa98accf4c1","ios":"levelo://app?vid=547f9960-714c-4118-9f70-0aa98accf4c1"},"vehicle_type_id":"4","last_reported":1684166907,"current_range_meters":26000,"station_id":"ce4bhjp2rcd13ifvqga0","pricing_plan_id":"free"},{"bike_id":"61d8c3c9-9392-4700-bba8-859b4412dcb3","system_id":"levelo_inurba_marseille","lat":43.27381,"lon":5.36249,"is_reserved":false,"is_disabled":false,"rental_uris":{"android":"levelo://app?vid=61d8c3c9-9392-4700-bba8-859b4412dcb3","ios":"levelo://app?vid=61d8c3c9-9392-4700-bba8-859b4412dcb3"},"vehicle_type_id":"4","last_reported":1684166907,"current_range_meters":11600,"station_id":"","pricing_plan_id":"free"},{"bike_id":"bafc6135-ccb8-42a4-b4b6-6232fb481126","system_id":"levelo_inurba_marseille","lat":43.273613,"lon":5.362705,"is_reserved":false,"is_disabled":false,"rental_uris":{"android":"levelo://app?vid=bafc6135-ccb8-42a4-b4b6-6232fb481126","ios":"levelo://app?vid=bafc6135-ccb8-42a4-b4b6-6232fb481126"},"vehicle_type_id":"4","last_reported":1684166907,"current_range_meters":30800,"station_id":"ce4bhbh2rcd13ifvqeo0","pricing_plan_id":"free"},{"bike_id":"0c08dd19-859b-4be9-96a8-340acb0425e7","system_id":"levelo_inurba_marseille","lat":43.273613,"lon":5.362705,"is_reserved":false,"is_disabled":false,"rental_uris":{"android":"levelo://app?vid=0c08dd19-859b-4be9-96a8-340acb0425e7","ios":"levelo://app?vid=0c08dd19-859b-4be9-96a8-340acb0425e7"},"vehicle_type_id":"4","last_reported":1684166907,"current_range_meters":31200,"station_id":"ce4bhbh2rcd13ifvqeo0","pricing_plan_id":"free"},{"bike_id":"d6116e44-0045-44e7-9474-882171a961e4","system_id":"levelo_inurba_marseille","lat":43.27379,"lon":5.36244,"is_reserved":false,"is_disabled":false,"rental_uris":{"android":"levelo://app?vid=d6116e44-0045-44e7-9474-882171a961e4","ios":"levelo://app?vid=d6116e44-0045-44e7-9474-882171a961e4"},"vehicle_type_id":"4","last_reported":1684166907,"current_range_meters":20800,"station_id":"","pricing_plan_id":"free"},{"bike_id":"600cef59-bd09-480f-bbb3-b5488466e008","system_id":"levelo_inurba_marseille","lat":43.273609,"lon":5.362708,"is_reserved":false,"is_disabled":false,"rental_uris":{"android":"levelo://app?vid=600cef59-bd09-480f-bbb3-b5488466e008","ios":"levelo://app?vid=600cef59-bd09-480f-bbb3-b5488466e008"},"vehicle_type_id":"4","last_reported":1684166907,"current_range_meters":22800,"station_id":"ce4bhbh2rcd13ifvqeo0","pricing_plan_id":"free"},{"bike_id":"5cb4bc8a-9e90-452f-81fc-e78d1962b7d1","system_id":"levelo_inurba_marseille","lat":43.273613,"lon":5.362705,"is_reserved":false,"is_disabled":false,"rental_uris":{"android":"levelo://app?vid=5cb4bc8a-9e90-452f-81fc-e78d1962b7d1","ios":"levelo://app?vid=5cb4bc8a-9e90-452f-81fc-e78d1962b7d1"},"vehicle_type_id":"4","last_reported":1684166907,"current_range_meters":28400,"station_id":"ce4bhbh2rcd13ifvqeo0","pricing_plan_id":"free"},{"bike_id":"71251e0e-c29e-4767-83bf-0fdf2462e67f","system_id":"levelo_inurba_marseille","lat":43.273613,"lon":5.362705,"is_reserved":false,"is_disabled":false,"rental_uris":{"android":"levelo://app?vid=71251e0e-c29e-4767-83bf-0fdf2462e67f","ios":"levelo://app?vid=71251e0e-c29e-4767-83bf-0fdf2462e67f"},"vehicle_type_id":"4","last_reported":1684166907,"current_range_meters":31600,"station_id":"ce4bhbh2rcd13ifvqeo0","pricing_plan_id":"free"},{"bike_id":"459002be-064e-45b6-b848-7c0f6c4b01c4","system_id":"levelo_inurba_marseille","lat":43.273613,"lon":5.362705,"is_reserved":false,"is_disabled":false,"rental_uris":{"android":"levelo://app?vid=459002be-064e-45b6-b848-7c0f6c4b01c4","ios":"levelo://app?vid=459002be-064e-45b6-b848-7c0f6c4b01c4"},"vehicle_type_id":"4","last_reported":1684166907,"current_range_meters":31600,"station_id":"ce4bhbh2rcd13ifvqeo0","pricing_plan_id":"free"},{"bike_id":"a97818ee-38a1-439f-9e07-1df3b52e11b2","system_id":"levelo_inurba_marseille","lat":43.273613,"lon":5.362705,"is_reserved":false,"is_disabled":false,"rental_uris":{"android":"levelo://app?vid=a97818ee-38a1-439f-9e07-1df3b52e11b2","ios":"levelo://app?vid=a97818ee-38a1-439f-9e07-1df3b52e11b2"},"vehicle_type_id":"4","last_reported":1684166907,"current_range_meters":10800,"station_id":"ce4bhbh2rcd13ifvqeo0","pricing_plan_id":"free"},{"bike_id":"2726099a-6393-4ed0-989b-5df2c9a8874d","system_id":"levelo_inurba_marseille","lat":43.273613,"lon":5.362705,"is_reserved":false,"is_disabled":false,"rental_uris":{"android":"levelo://app?vid=2726099a-6393-4ed0-989b-5df2c9a8874d","ios":"levelo://app?vid=2726099a-6393-4ed0-989b-5df2c9a8874d"},"vehicle_type_id":"4","last_reported":1684166907,"current_range_meters":30400,"station_id":"ce4bhbh2rcd13ifvqeo0","pricing_plan_id":"free"},{"bike_id":"f87ffc7f-7080-4520-930e-283f817fd7ba","system_id":"levelo_inurba_marseille","lat":43.273613,"lon":5.362705,"is_reserved":false,"is_disabled":false,"rental_uris":{"android":"levelo://app?vid=f87ffc7f-7080-4520-930e-283f817fd7ba","ios":"levelo://app?vid=f87ffc7f-7080-4520-930e-283f817fd7ba"},"vehicle_type_id":"4","last_reported":1684166907,"current_range_meters":13600,"station_id":"ce4bhbh2rcd13ifvqeo0","pricing_plan_id":"free"},{"bike_id":"150f70bf-a7cc-43b8-89e4-9ba1503b0ce4","system_id":"levelo_inurba_marseille","lat":43.273613,"lon":5.362705,"is_reserved":false,"is_disabled":false,"rental_uris":{"android":"levelo://app?vid=150f70bf-a7cc-43b8-89e4-9ba1503b0ce4","ios":"levelo://app?vid=150f70bf-a7cc-43b8-89e4-9ba1503b0ce4"},"vehicle_type_id":"4","last_reported":1684166907,"current_range_meters":31200,"station_id":"ce4bhbh2rcd13ifvqeo0","pricing_plan_id":"free"},{"bike_id":"028680f8-06b9-4b4c-a9f6-c5e8def6b864","system_id":"levelo_inurba_marseille","lat":43.273609,"lon":5.362708,"is_reserved":false,"is_disabled":false,"rental_uris":{"android":"levelo://app?vid=028680f8-06b9-4b4c-a9f6-c5e8def6b864","ios":"levelo://app?vid=028680f8-06b9-4b4c-a9f6-c5e8def6b864"},"vehicle_type_id":"4","last_reported":1684166907,"current_range_meters":31600,"station_id":"ce4bhbh2rcd13ifvqeo0","pricing_plan_id":"free"},{"bike_id":"e998a03b-7fa3-4c00-81c0-1ca8f3c93dad","system_id":"levelo_inurba_marseille","lat":43.273613,"lon":5.362705,"is_reserved":false,"is_disabled":false,"rental_uris":{"android":"levelo://app?vid=e998a03b-7fa3-4c00-81c0-1ca8f3c93dad","ios":"levelo://app?vid=e998a03b-7fa3-4c00-81c0-1ca8f3c93dad"},"vehicle_type_id":"4","last_reported":1684166907,"current_range_meters":31600,"station_id":"ce4bhbh2rcd13ifvqeo0","pricing_plan_id":"free"},{"bike_id":"6b513cce-07b8-4545-b192-27f6f0112fe9","system_id":"levelo_inurba_marseille","lat":43.273609,"lon":5.362708,"is_reserved":false,"is_disabled":false,"rental_uris":{"android":"levelo://app?vid=6b513cce-07b8-4545-b192-27f6f0112fe9","ios":"levelo://app?vid=6b513cce-07b8-4545-b192-27f6f0112fe9"},"vehicle_type_id":"4","last_reported":1684166907,"current_range_meters":17600,"station_id":"ce4bhbh2rcd13ifvqeo0","pricing_plan_id":"free"},{"bike_id":"ec2dc0ee-c668-4dde-bdf9-64fba7e99196","system_id":"levelo_inurba_marseille","lat":43.273613,"lon":5.362705,"is_reserved":false,"is_disabled":false,"rental_uris":{"android":"levelo://app?vid=ec2dc0ee-c668-4dde-bdf9-64fba7e99196","ios":"levelo://app?vid=ec2dc0ee-c668-4dde-bdf9-64fba7e99196"},"vehicle_type_id":"4","last_reported":1684166907,"current_range_meters":31200,"station_id":"ce4bhbh2rcd13ifvqeo0","pricing_plan_id":"free"},{"bike_id":"81011840-3ca6-4505-bc1d-355efa88afdf","system_id":"levelo_inurba_marseille","lat":43.273613,"lon":5.362705,"is_reserved":false,"is_disabled":false,"rental_uris":{"android":"levelo://app?vid=81011840-3ca6-4505-bc1d-355efa88afdf","ios":"levelo://app?vid=81011840-3ca6-4505-bc1d-355efa88afdf"},"vehicle_type_id":"4","last_reported":1684166907,"current_range_meters":31200,"station_id":"ce4bhbh2rcd13ifvqeo0","pricing_plan_id":"free"},{"bike_id":"a07d22d2-aed7-4e21-9025-cd417aa58956","system_id":"levelo_inurba_marseille","lat":43.273613,"lon":5.362705,"is_reserved":false,"is_disabled":false,"rental_uris":{"android":"levelo://app?vid=a07d22d2-aed7-4e21-9025-cd417aa58956","ios":"levelo://app?vid=a07d22d2-aed7-4e21-9025-cd417aa58956"},"vehicle_type_id":"4","last_reported":1684166907,"current_range_meters":22400,"station_id":"ce4bhbh2rcd13ifvqeo0","pricing_plan_id":"free"},{"bike_id":"1078d127-33e4-4136-a154-fd959b052636","system_id":"levelo_inurba_marseille","lat":43.273613,"lon":5.362705,"is_reserved":false,"is_disabled":false,"rental_uris":{"android":"levelo://app?vid=1078d127-33e4-4136-a154-fd959b052636","ios":"levelo://app?vid=1078d127-33e4-4136-a154-fd959b052636"},"vehicle_type_id":"4","last_reported":1684166907,"current_range_meters":31200,"station_id":"ce4bhbh2rcd13ifvqeo0","pricing_plan_id":"free"},{"bike_id":"3da1b092-0f28-4251-a668-5044c8fe179b","system_id":"levelo_inurba_marseille","lat":43.273609,"lon":5.362708,"is_reserved":false,"is_disabled":false,"rental_uris":{"android":"levelo://app?vid=3da1b092-0f28-4251-a668-5044c8fe179b","ios":"levelo://app?vid=3da1b092-0f28-4251-a668-5044c8fe179b"},"vehicle_type_id":"4","last_reported":1684166907,"current_range_meters":11200,"station_id":"ce4bhbh2rcd13ifvqeo0","pricing_plan_id":"free"},{"bike_id":"9b9ecc12-15a0-47c8-8232-1b63f0c49342","system_id":"levelo_inurba_marseille","lat":43.273609,"lon":5.362708,"is_reserved":false,"is_disabled":false,"rental_uris":{"android":"levelo://app?vid=9b9ecc12-15a0-47c8-8232-1b63f0c49342","ios":"levelo://app?vid=9b9ecc12-15a0-47c8-8232-1b63f0c49342"},"vehicle_type_id":"4","last_reported":1684166907,"current_range_meters":29600,"station_id":"ce4bhbh2rcd13ifvqeo0","pricing_plan_id":"free"},{"bike_id":"a5017e45-143e-430f-94ba-bc65801cb2bc","system_id":"levelo_inurba_marseille","lat":43.273609,"lon":5.362708,"is_reserved":false,"is_disabled":false,"rental_uris":{"android":"levelo://app?vid=a5017e45-143e-430f-94ba-bc65801cb2bc","ios":"levelo://app?vid=a5017e45-143e-430f-94ba-bc65801cb2bc"},"vehicle_type_id":"4","last_reported":1684166907,"current_range_meters":11600,"station_id":"ce4bhbh2rcd13ifvqeo0","pricing_plan_id":"free"},{"bike_id":"c7b7140b-9427-4296-819f-06bfc3617a9a","system_id":"levelo_inurba_marseille","lat":43.273609,"lon":5.362708,"is_reserved":false,"is_disabled":false,"rental_uris":{"android":"levelo://app?vid=c7b7140b-9427-4296-819f-06bfc3617a9a","ios":"levelo://app?vid=c7b7140b-9427-4296-819f-06bfc3617a9a"},"vehicle_type_id":"4","last_reported":1684166907,"current_range_meters":31600,"station_id":"ce4bhbh2rcd13ifvqeo0","pricing_plan_id":"free"},{"bike_id":"99dfaf32-5411-4eea-9a24-84c455ec94d3","system_id":"levelo_inurba_marseille","lat":43.273609,"lon":5.362708,"is_reserved":false,"is_disabled":false,"rental_uris":{"android":"levelo://app?vid=99dfaf32-5411-4eea-9a24-84c455ec94d3","ios":"levelo://app?vid=99dfaf32-5411-4eea-9a24-84c455ec94d3"},"vehicle_type_id":"4","last_reported":1684166907,"current_range_meters":4000,"station_id":"ce4bhbh2rcd13ifvqeo0","pricing_plan_id":"free"},{"bike_id":"0ff95b6e-3be4-4bb5-8f93-a6873f20da65","system_id":"levelo_inurba_marseille","lat":43.273609,"lon":5.362708,"is_reserved":false,"is_disabled":false,"rental_uris":{"android":"levelo://app?vid=0ff95b6e-3be4-4bb5-8f93-a6873f20da65","ios":"levelo://app?vid=0ff95b6e-3be4-4bb5-8f93-a6873f20da65"},"vehicle_type_id":"4","last_reported":1684166907,"current_range_meters":31600,"station_id":"ce4bhbh2rcd13ifvqeo0","pricing_plan_id":"free"},{"bike_id":"0a78ba09-eaeb-4491-b6f7-617689f014de","system_id":"levelo_inurba_marseille","lat":43.273609,"lon":5.362708,"is_reserved":false,"is_disabled":false,"rental_uris":{"android":"levelo://app?vid=0a78ba09-eaeb-4491-b6f7-617689f014de","ios":"levelo://app?vid=0a78ba09-eaeb-4491-b6f7-617689f014de"},"vehicle_type_id":"4","last_reported":1684166907,"current_range_meters":29600,"station_id":"ce4bhbh2rcd13ifvqeo0","pricing_plan_id":"free"},{"bike_id":"c2150365-c3c9-49dd-ab59-21860ce29eb9","system_id":"levelo_inurba_marseille","lat":43.273609,"lon":5.362708,"is_reserved":false,"is_disabled":false,"rental_uris":{"android":"levelo://app?vid=c2150365-c3c9-49dd-ab59-21860ce29eb9","ios":"levelo://app?vid=c2150365-c3c9-49dd-ab59-21860ce29eb9"},"vehicle_type_id":"4","last_reported":1684166907,"current_range_meters":31200,"station_id":"ce4bhbh2rcd13ifvqeo0","pricing_plan_id":"free"},{"bike_id":"11ae1453-51eb-448d-9331-20e4e43cd28d","system_id":"levelo_inurba_marseille","lat":43.273609,"lon":5.362708,"is_reserved":false,"is_disabled":false,"rental_uris":{"android":"levelo://app?vid=11ae1453-51eb-448d-9331-20e4e43cd28d","ios":"levelo://app?vid=11ae1453-51eb-448d-9331-20e4e43cd28d"},"vehicle_type_id":"4","last_reported":1684166907,"current_range_meters":28400,"station_id":"ce4bhbh2rcd13ifvqeo0","pricing_plan_id":"free"},{"bike_id":"1d45b166-b528-45ba-a743-5a625b4bc5ec","system_id":"levelo_inurba_marseille","lat":43.276771,"lon":5.388799,"is_reserved":false,"is_disabled":false,"rental_uris":{"android":"levelo://app?vid=1d45b166-b528-45ba-a743-5a625b4bc5ec","ios":"levelo://app?vid=1d45b166-b528-45ba-a743-5a625b4bc5ec"},"vehicle_type_id":"4","last_reported":1684166907,"current_range_meters":0,"station_id":"ce4bhi12rcd13ifvqfo0","pricing_plan_id":"free"},{"bike_id":"654688de-d7eb-46d6-a435-283ac64ab149","system_id":"levelo_inurba_marseille","lat":43.31089,"lon":5.42424,"is_reserved":false,"is_disabled":false,"rental_uris":{"android":"levelo://app?vid=654688de-d7eb-46d6-a435-283ac64ab149","ios":"levelo://app?vid=654688de-d7eb-46d6-a435-283ac64ab149"},"vehicle_type_id":"4","last_reported":1684166907,"current_range_meters":12800,"station_id":"ce4bhp92rcd13ifvqhag","pricing_plan_id":"free"},{"bike_id":"f7b5afdb-3a08-4830-9f50-4dd8a49069b8","system_id":"levelo_inurba_marseille","lat":43.27625,"lon":5.39502,"is_reserved":false,"is_disabled":false,"rental_uris":{"android":"levelo://app?vid=f7b5afdb-3a08-4830-9f50-4dd8a49069b8","ios":"levelo://app?vid=f7b5afdb-3a08-4830-9f50-4dd8a49069b8"},"vehicle_type_id":"4","last_reported":1684166907,"current_range_meters":22000,"station_id":"","pricing_plan_id":"free"},{"bike_id":"b761e1d8-e9c9-40b8-8e90-78b56cd84dd2","system_id":"levelo_inurba_marseille","lat":43.317121,"lon":5.423936,"is_reserved":false,"is_disabled":false,"rental_uris":{"android":"levelo://app?vid=b761e1d8-e9c9-40b8-8e90-78b56cd84dd2","ios":"levelo://app?vid=b761e1d8-e9c9-40b8-8e90-78b56cd84dd2"},"vehicle_type_id":"4","last_reported":1684166907,"current_range_meters":24000,"station_id":"ce4bhp92rcd13ifvqhbg","pricing_plan_id":"free"},{"bike_id":"3ee8b4b8-8b4b-4108-8edf-e6fc21d1126f","system_id":"levelo_inurba_marseille","lat":43.27316,"lon":5.39054,"is_reserved":false,"is_disabled":false,"rental_uris":{"android":"levelo://app?vid=3ee8b4b8-8b4b-4108-8edf-e6fc21d1126f","ios":"levelo://app?vid=3ee8b4b8-8b4b-4108-8edf-e6fc21d1126f"},"vehicle_type_id":"4","last_reported":1684166907,"current_range_meters":23200,"station_id":"ce4bhgp2rcd13ifvqfe0","pricing_plan_id":"free"},{"bike_id":"ad84e4cd-b7aa-42ae-937b-d9ed54bd53c2","system_id":"levelo_inurba_marseille","lat":43.273125,"lon":5.390731,"is_reserved":false,"is_disabled":false,"rental_uris":{"android":"levelo://app?vid=ad84e4cd-b7aa-42ae-937b-d9ed54bd53c2","ios":"levelo://app?vid=ad84e4cd-b7aa-42ae-937b-d9ed54bd53c2"},"vehicle_type_id":"4","last_reported":1684166907,"current_range_meters":24400,"station_id":"ce4bhgp2rcd13ifvqfe0","pricing_plan_id":"free"},{"bike_id":"1b4316c6-0982-4c38-8ce6-df04b9c813b9","system_id":"levelo_inurba_marseille","lat":43.273125,"lon":5.390731,"is_reserved":false,"is_disabled":false,"rental_uris":{"android":"levelo://app?vid=1b4316c6-0982-4c38-8ce6-df04b9c813b9","ios":"levelo://app?vid=1b4316c6-0982-4c38-8ce6-df04b9c813b9"},"vehicle_type_id":"4","last_reported":1684166907,"current_range_meters":4000,"station_id":"ce4bhgp2rcd13ifvqfe0","pricing_plan_id":"free"},{"bike_id":"51106f84-d522-4aec-8c13-2b3437f91eb7","system_id":"levelo_inurba_marseille","lat":43.273125,"lon":5.390731,"is_reserved":false,"is_disabled":false,"rental_uris":{"android":"levelo://app?vid=51106f84-d522-4aec-8c13-2b3437f91eb7","ios":"levelo://app?vid=51106f84-d522-4aec-8c13-2b3437f91eb7"},"vehicle_type_id":"4","last_reported":1684166907,"current_range_meters":5600,"station_id":"ce4bhgp2rcd13ifvqfe0","pricing_plan_id":"free"},{"bike_id":"2f9e6b89-6f96-4e32-b014-4466a785e10e","system_id":"levelo_inurba_marseille","lat":43.274103,"lon":5.394016,"is_reserved":false,"is_disabled":false,"rental_uris":{"android":"levelo://app?vid=2f9e6b89-6f96-4e32-b014-4466a785e10e","ios":"levelo://app?vid=2f9e6b89-6f96-4e32-b014-4466a785e10e"},"vehicle_type_id":"4","last_reported":1684166907,"current_range_meters":29200,"station_id":"ce4bhdp2rcd13ifvqf20","pricing_plan_id":"free"},{"bike_id":"3e349139-efa5-4b24-8d51-193113839879","system_id":"levelo_inurba_marseille","lat":43.273125,"lon":5.390731,"is_reserved":false,"is_disabled":false,"rental_uris":{"android":"levelo://app?vid=3e349139-efa5-4b24-8d51-193113839879","ios":"levelo://app?vid=3e349139-efa5-4b24-8d51-193113839879"},"vehicle_type_id":"4","last_reported":1684166907,"current_range_meters":0,"station_id":"ce4bhgp2rcd13ifvqfe0","pricing_plan_id":"free"},{"bike_id":"55e77ba9-985d-4929-ae9c-859d86fe4c7d","system_id":"levelo_inurba_marseille","lat":43.274103,"lon":5.394016,"is_reserved":false,"is_disabled":false,"rental_uris":{"android":"levelo://app?vid=55e77ba9-985d-4929-ae9c-859d86fe4c7d","ios":"levelo://app?vid=55e77ba9-985d-4929-ae9c-859d86fe4c7d"},"vehicle_type_id":"4","last_reported":1684166907,"current_range_meters":26000,"station_id":"ce4bhdp2rcd13ifvqf20","pricing_plan_id":"free"},{"bike_id":"8286eca7-70f1-4267-87f5-8f64afb17c3c","system_id":"levelo_inurba_marseille","lat":43.274103,"lon":5.394016,"is_reserved":false,"is_disabled":false,"rental_uris":{"android":"levelo://app?vid=8286eca7-70f1-4267-87f5-8f64afb17c3c","ios":"levelo://app?vid=8286eca7-70f1-4267-87f5-8f64afb17c3c"},"vehicle_type_id":"4","last_reported":1684166907,"current_range_meters":21600,"station_id":"ce4bhdp2rcd13ifvqf20","pricing_plan_id":"free"},{"bike_id":"167d6337-05e7-4bde-b557-5bbba0753ef8","system_id":"levelo_inurba_marseille","lat":43.27419,"lon":5.39407,"is_reserved":false,"is_disabled":false,"rental_uris":{"android":"levelo://app?vid=167d6337-05e7-4bde-b557-5bbba0753ef8","ios":"levelo://app?vid=167d6337-05e7-4bde-b557-5bbba0753ef8"},"vehicle_type_id":"4","last_reported":1684166907,"current_range_meters":0,"station_id":"ce4bhdp2rcd13ifvqf20","pricing_plan_id":"free"},