{"last_updated":1746904063,"ttl":60,"version":"2.2","data":{"bikes":[{"bike_id":"40b7bec5-b3e7-49d8-b462-a1f2e2c39d27","system_id":"levelo_inurba_marseille","lat":43.28935,"lon":5.36637,"is_reserved":false,"is_disabled":false,"rental_uris":{"android":"levelo://app?vid=40b7bec5-b3e7-49d8-b462-a1f2e2c39d27","ios":"levelo://app?vid=40b7bec5-b3e7-49d8-b462-a1f2e2c39d27"},"vehicle_type_id":"4","last_reported":1746904063,"current_range_meters":2800,"station_id":"ce4bhap2rcd13ifvqek0","pricing_plan_id":"cebpf4jnsgd1na2vs0mg"},{"bike_id":"7f11480a-3659-4fdb-b780-a4e058b0c4cb","system_id":"levelo_inurba_marseille","lat":43.217425,"lon":5.346018,"is_reserved":false,"is_disabled":false,"rental_uris":{"android":"levelo://app?vid=7f11480a-3659-4fdb-b780-a4e058b0c4cb","ios":"levelo://app?vid=7f11480a-3659-4fdb-b780-a4e058b0c4cb"},"vehicle_type_id":"4","last_reported":1746904063,"current_range_meters":2800,"station_id":"st_cvj6r9ubvosntc0bgbag","pricing_plan_id":"cebpf4jnsgd1na2vs0mg"},{"bike_id":"19c650fd-4372-4413-81b4-b9649bfa19f1","system_id":"levelo_inurba_marseille","lat":43.24351,"lon":5.38512,"is_reserved":false,"is_disabled":false,"rental_uris":{"android":"levelo://app?vid=19c650fd-4372-4413-81b4-b9649bfa19f1","ios":"levelo://app?vid=19c650fd-4372-4413-81b4-b9649bfa19f1"},"vehicle_type_id":"4","last_reported":1746904063,"current_range_meters":2800,"station_id":"","pricing_plan_id":"cebpf4jnsgd1na2vs0mg"},{"bike_id":"23641817-c01f-4ffd-9aba-7791a8835be0","system_id":"levelo_inurba_marseille","lat":43.22527,"lon":5.34782,"is_reserved":false,"is_disabled":true,"rental_uris":{"android":"levelo://app?vid=23641817-c01f-4ffd-9aba-7791a8835be0","ios":"levelo://app?vid=23641817-c01f-4ffd-9aba-7791a8835be0"},"vehicle_type_id":"4","last_reported":1746904063,"current_range_meters":2800,"station_id":"st_cvj5dfep6f1abm77gieg","pricing_plan_id":"cebpf4jnsgd1na2vs0mg"},{"bike_id":"0b3cea72-0137-4e91-bb7a-e409ba7dbe72","system_id":"levelo_inurba_marseille","lat":43.24163,"lon":5.36395,"is_reserved":false,"is_disabled":false,"rental_uris":{"android":"levelo://app?vid=0b3cea72-0137-4e91-bb7a-e409ba7dbe72","ios":"levelo://app?vid=0b3cea72-0137-4e91-bb7a-e409ba7dbe72"},"vehicle_type_id":"4","last_reported":1746904063,"current_range_meters":2800,"station_id":"cpo36qri1sfpv3e86is0","pricing_plan_id":"cebpf4jnsgd1na2vs0mg"},{"bike_id":"8c4ec387-81c0-482b-b5d5-d1a206019cbd","system_id":"levelo_inurba_marseille","lat":43.30374,"lon":5.42487,"is_reserved":false,"is_disabled":false,"rental_uris":{"android":"levelo://app?vid=8c4ec387-81c0-482b-b5d5-d1a206019cbd","ios":"levelo://app?vid=8c4ec387-81c0-482b-b5d5-d1a206019cbd"},"vehicle_type_id":"4","last_reported":1746904063,"current_range_meters":3200,"station_id":"ce4bhoh2rcd13ifvqh6g","pricing_plan_id":"cebpf4jnsgd1na2vs0mg"},{"bike_id":"5f9d3696-5eb7-462c-ba34-63e4db25308a","system_id":"levelo_inurba_marseille","lat":43.27202,"lon":5.39194,"is_reserved":false,"is_disabled":false,"rental_uris":{"android":"levelo://app?vid=5f9d3696-5eb7-462c-ba34-63e4db25308a","ios":"levelo://app?vid=5f9d3696-5eb7-462c-ba34-63e4db25308a"},"vehicle_type_id":"4","last_reported":1746904063,"current_range_meters":3200,"station_id":"ce4bhhp2rcd13ifvqfm0","pricing_plan_id":"cebpf4jnsgd1na2vs0mg"},{"bike_id":"0a131461-d58d-49c5-b210-5f0eb20a61a1","system_id":"levelo_inurba_marseille","lat":43.299205,"lon":5.375071,"is_reserved":false,"is_disabled":false,"rental_uris":{"android":"levelo://app?vid=0a131461-d58d-49c5-b210-5f0eb20a61a1","ios":"levelo://app?vid=0a131461-d58d-49c5-b210-5f0eb20a61a1"},"vehicle_type_id":"4","last_reported":1746904063,"current_range_meters":3600,"station_id":"","pricing_plan_id":"cebpf4jnsgd1na2vs0mg"},{"bike_id":"a93b71d6-69cd-4497-99ab-ca9ffebbe279","system_id":"levelo_inurba_marseille","lat":43.27652,"lon":5.38907,"is_reserved":false,"is_disabled":false,"rental_uris":{"android":"levelo://app?vid=a93b71d6-69cd-4497-99ab-ca9ffebbe279","ios":"levelo://app?vid=a93b71d6-69cd-4497-99ab-ca9ffebbe279"},"vehicle_type_id":"4","last_reported":1746904063,"current_range_meters":3600,"station_id":"ce4bhi12rcd13ifvqfo0","pricing_plan_id":"cebpf4jnsgd1na2vs0mg"},{"bike_id":"caf9033d-5f00-49c3-b1ee-1328b62008dc","system_id":"levelo_inurba_marseille","lat":43.33571,"lon":5.42827,"is_reserved":false,"is_disabled":false,"rental_uris":{"android":"levelo://app?vid=caf9033d-5f00-49c3-b1ee-1328b62008dc","ios":"levelo://app?vid=caf9033d-5f00-49c3-b1ee-1328b62008dc"},"vehicle_type_id":"4","last_reported":1746904063,"current_range_meters":3600,"station_id":"","pricing_plan_id":"cebpf4jnsgd1na2vs0mg"},{"bike_id":"53d785f4-0015-4a1f-aa58-b24f111c1190","system_id":"levelo_inurba_marseille","lat":43.265723,"lon":5.390193,"is_reserved":false,"is_disabled":false,"rental_uris":{"android":"levelo://app?vid=53d785f4-0015-4a1f-aa58-b24f111c1190","ios":"levelo://app?vid=53d785f4-0015-4a1f-aa58-b24f111c1190"},"vehicle_type_id":"4","last_reported":1746904063,"current_range_meters":3600,"station_id":"ce4bhe12rcd13ifvqf30","pricing_plan_id":"cebpf4jnsgd1na2vs0mg"},{"bike_id":"95205d68-325c-4ca9-bbcb-e289596f5bc9","system_id":"levelo_inurba_marseille","lat":43.292665,"lon":5.376195,"is_reserved":false,"is_disabled":false,"rental_uris":{"android":"levelo://app?vid=95205d68-325c-4ca9-bbcb-e289596f5bc9","ios":"levelo://app?vid=95205d68-325c-4ca9-bbcb-e289596f5bc9"},"vehicle_type_id":"4","last_reported":1746904063,"current_range_meters":4000,"station_id":"ce4bgi12rcd13ifvqb80","pricing_plan_id":"cebpf4jnsgd1na2vs0mg"},{"bike_id":"aa3e92f9-58ca-4f07-8931-9625602c2684","system_id":"levelo_inurba_marseille","lat":43.29017,"lon":5.38134,"is_reserved":false,"is_disabled":false,"rental_uris":{"android":"levelo://app?vid=aa3e92f9-58ca-4f07-8931-9625602c2684","ios":"levelo://app?vid=aa3e92f9-58ca-4f07-8931-9625602c2684"},"vehicle_type_id":"4","last_reported":1746904063,"current_range_meters":4000,"station_id":"ce4bh4p2rcd13ifvqe1g","pricing_plan_id":"cebpf4jnsgd1na2vs0mg"},{"bike_id":"57479cb1-a6ba-40ce-9ec4-257c19f23159","system_id":"levelo_inurba_marseille","lat":43.29278,"lon":5.40124,"is_reserved":false,"is_disabled":false,"rental_uris":{"android":"levelo://app?vid=57479cb1-a6ba-40ce-9ec4-257c19f23159","ios":"levelo://app?vid=57479cb1-a6ba-40ce-9ec4-257c19f23159"},"vehicle_type_id":"4","last_reported":1746904063,"current_range_meters":4000,"station_id":"ce4bh312rcd13ifvqdk0","pricing_plan_id":"cebpf4jnsgd1na2vs0mg"},{"bike_id":"3b48abe9-5663-44e4-bddd-17a724e0a479","system_id":"levelo_inurba_marseille","lat":43.27311,"lon":5.39088,"is_reserved":false,"is_disabled":false,"rental_uris":{"android":"levelo://app?vid=3b48abe9-5663-44e4-bddd-17a724e0a479","ios":"levelo://app?vid=3b48abe9-5663-44e4-bddd-17a724e0a479"},"vehicle_type_id":"4","last_reported":1746904063,"current_range_meters":4400,"station_id":"ce4bhgp2rcd13ifvqfe0","pricing_plan_id":"cebpf4jnsgd1na2vs0mg"},{"bike_id":"cdb2c243-fbdb-4b62-a933-f403dfb8a580","system_id":"levelo_inurba_marseille","lat":43.27882,"lon":5.38791,"is_reserved":false,"is_disabled":false,"rental_uris":{"android":"levelo://app?vid=cdb2c243-fbdb-4b62-a933-f403dfb8a580","ios":"levelo://app?vid=cdb2c243-fbdb-4b62-a933-f403dfb8a580"},"vehicle_type_id":"4","last_reported":1746904063,"current_range_meters":4400,"station_id":"","pricing_plan_id":"cebpf4jnsgd1na2vs0mg"},{"bike_id":"a3ccca99-1fdb-4331-8525-de051e28181f","system_id":"levelo_inurba_marseille","lat":43.28943,"lon":5.36631,"is_reserved":false,"is_disabled":true,"rental_uris":{"android":"levelo://app?vid=a3ccca99-1fdb-4331-8525-de051e28181f","ios":"levelo://app?vid=a3ccca99-1fdb-4331-8525-de051e28181f"},"vehicle_type_id":"4","last_reported":1746904063,"current_range_meters":4400,"station_id":"ce4bhap2rcd13ifvqek0","pricing_plan_id":"cebpf4jnsgd1na2vs0mg"},{"bike_id":"d0958304-33d1-4b4f-81f9-03078b9d6ea8","system_id":"levelo_inurba_marseille","lat":43.28018,"lon":5.36966,"is_reserved":false,"is_disabled":false,"rental_uris":{"android":"levelo://app?vid=d0958304-33d1-4b4f-81f9-03078b9d6ea8","ios":"levelo://app?vid=d0958304-33d1-4b4f-81f9-03078b9d6ea8"},"vehicle_type_id":"4","last_reported":1746904063,"current_range_meters":4800,"station_id":"ce4bha12rcd13ifvqef0","pricing_plan_id":"cebpf4jnsgd1na2vs0mg"},{"bike_id":"2e154676-a887-4401-a4ba-b07c65fe91ea","system_id":"levelo_inurba_marseille","lat":43.3094,"lon":5.40145,"is_reserved":false,"is_disabled":false,"rental_uris":{"android":"levelo://app?vid=2e154676-a887-4401-a4ba-b07c65fe91ea","ios":"levelo://app?vid=2e154676-a887-4401-a4ba-b07c65fe91ea"},"vehicle_type_id":"4","last_reported":1746904063,"current_range_meters":4800,"station_id":"ce4bgvp2rcd13ifvqct0","pricing_plan_id":"cebpf4jnsgd1na2vs0mg"},{"bike_id":"fb4fba30-dd71-423a-8db7-23241b4f91bc","system_id":"levelo_inurba_marseille","lat":43.25557,"lon":5.38253,"is_reserved":false,"is_disabled":false,"rental_uris":{"android":"levelo://app?vid=fb4fba30-dd71-423a-8db7-23241b4f91bc","ios":"levelo://app?vid=fb4fba30-dd71-423a-8db7-23241b4f91bc"},"vehicle_type_id":"4","last_reported":1746904063,"current_range_meters":4800,"station_id":"ce4bhih2rcd13ifvqfs0","pricing_plan_id":"cebpf4jnsgd1na2vs0mg"},{"bike_id":"999dc095-015f-4c24-bd5e-a3faddcba911","system_id":"levelo_inurba_marseille","lat":43.313637,"lon":5.38494,"is_reserved":false,"is_disabled":true,"rental_uris":{"android":"levelo://app?vid=999dc095-015f-4c24-bd5e-a3faddcba911","ios":"levelo://app?vid=999dc095-015f-4c24-bd5e-a3faddcba911"},"vehicle_type_id":"4","last_reported":1746904063,"current_range_meters":4800,"station_id":"ce4bgt92rcd13ifvqcf0","pricing_plan_id":"cebpf4jnsgd1na2vs0mg"},{"bike_id":"ff8f333f-5762-4c65-80b8-5b6f09bbd3a3","system_id":"levelo_inurba_marseille","lat":43.29412,"lon":5.38628,"is_reserved":false,"is_disabled":false,"rental_uris":{"android":"levelo://app?vid=ff8f333f-5762-4c65-80b8-5b6f09bbd3a3","ios":"levelo://app?vid=ff8f333f-5762-4c65-80b8-5b6f09bbd3a3"},"vehicle_type_id":"4","last_reported":1746904063,"current_range_meters":4800,"station_id":"ce4bh2h2rcd13ifvqdh0","pricing_plan_id":"cebpf4jnsgd1na2vs0mg"},{"bike_id":"fa47f1bf-d293-4bca-acd1-3ba62fe98139","system_id":"levelo_inurba_marseille","lat":43.26801,"lon":5.40258,"is_reserved":false,"is_disabled":false,"rental_uris":{"android":"levelo://app?vid=fa47f1bf-d293-4bca-acd1-3ba62fe98139","ios":"levelo://app?vid=fa47f1bf-d293-4bca-acd1-3ba62fe98139"},"vehicle_type_id":"4","last_reported":1746904063,"current_range_meters":4800,"station_id":"ce501612rcd8frsf0b60","pricing_plan_id":"cebpf4jnsgd1na2vs0mg"},{"bike_id":"6014b758-e63d-4f1b-8c0a-74b4f5ed9e0e","system_id":"levelo_inurba_marseille","lat":43.28072,"lon":5.39671,"is_reserved":false,"is_disabled":false,"rental_uris":{"android":"levelo://app?vid=6014b758-e63d-4f1b-8c0a-74b4f5ed9e0e","ios":"levelo://app?vid=6014b758-e63d-4f1b-8c0a-74b4f5ed9e0e"},"vehicle_type_id":"4","last_reported":1746904063,"current_range_meters":4800,"station_id":"ce4bho12rcd13ifvqh2g","pricing_plan_id":"cebpf4jnsgd1na2vs0mg"},{"bike_id":"4d188fa6-c1a5-4990-9380-b4e770526426","system_id":"levelo_inurba_marseille","lat":43.27614,"lon":5.36103,"is_reserved":false,"is_disabled":false,"rental_uris":{"android":"levelo://app?vid=4d188fa6-c1a5-4990-9380-b4e770526426","ios":"levelo://app?vid=4d188fa6-c1a5-4990-9380-b4e770526426"},"vehicle_type_id":"4","last_reported":1746904063,"current_range_meters":4800,"station_id":"ce4bgj92rcd13ifvqbe0","pricing_plan_id":"cebpf4jnsgd1na2vs0mg"},{"bike_id":"e3ac0f0e-c669-49f6-ad81-86724d2fd5dc","system_id":"levelo_inurba_marseille","lat":43.29225,"lon":5.36077,"is_reserved":false,"is_disabled":false,"rental_uris":{"android":"levelo://app?vid=e3ac0f0e-c669-49f6-ad81-86724d2fd5dc","ios":"levelo://app?vid=e3ac0f0e-c669-49f6-ad81-86724d2fd5dc"},"vehicle_type_id":"4","last_reported":1746904063,"current_range_meters":5600,"station_id":"ce4bhbh2rcd13ifvqeqg","pricing_plan_id":"cebpf4jnsgd1na2vs0mg"},{"bike_id":"951d8b2d-18f3-4958-9c65-c8b4eb2792d3","system_id":"levelo_inurba_marseille","lat":43.2903,"lon":5.3864,"is_reserved":false,"is_disabled":false,"rental_uris":{"android":"levelo://app?vid=951d8b2d-18f3-4958-9c65-c8b4eb2792d3","ios":"levelo://app?vid=951d8b2d-18f3-4958-9c65-c8b4eb2792d3"},"vehicle_type_id":"4","last_reported":1746904063,"current_range_meters":5600,"station_id":"ce4bh4p2rcd13ifvqe0g","pricing_plan_id":"cebpf4jnsgd1na2vs0mg"},{"bike_id":"22dac158-9bc7-49ad-a057-3f1f661d5b1c","system_id":"levelo_inurba_marseille","lat":43.29254,"lon":5.38439,"is_reserved":false,"is_disabled":false,"rental_uris":{"android":"levelo://app?vid=22dac158-9bc7-49ad-a057-3f1f661d5b1c","ios":"levelo://app?vid=22dac158-9bc7-49ad-a057-3f1f661d5b1c"},"vehicle_type_id":"4","last_reported":1746904063,"current_range_meters":6000,"station_id":"ce4bh692rcd13ifvqea0","pricing_plan_id":"cebpf4jnsgd1na2vs0mg"},{"bike_id":"fa522aa8-fb49-4900-9d52-704430a54c9c","system_id":"levelo_inurba_marseille","lat":43.30145,"lon":5.37422,"is_reserved":false,"is_disabled":false,"rental_uris":{"android":"levelo://app?vid=fa522aa8-fb49-4900-9d52-704430a54c9c","ios":"levelo://app?vid=fa522aa8-fb49-4900-9d52-704430a54c9c"},"vehicle_type_id":"4","last_reported":1746904063,"current_range_meters":6000,"station_id":"ce4bgs92rcd13ifvqcc0","pricing_plan_id":"cebpf4jnsgd1na2vs0mg"},{"bike_id":"0e505cb2-8011-421f-b0af-91dd43de8d84","system_id":"levelo_inurba_marseille","lat":43.2991,"lon":5.37485,"is_reserved":false,"is_disabled":false,"rental_uris":{"android":"levelo://app?vid=0e505cb2-8011-421f-b0af-91dd43de8d84","ios":"levelo://app?vid=0e505cb2-8011-421f-b0af-91dd43de8d84"},"vehicle_type_id":"4","last_reported":1746904063,"current_range_meters":6000,"station_id":"ce4bgjh2rcd13ifvqbg0","pricing_plan_id":"cebpf4jnsgd1na2vs0mg"},{"bike_id":"c832ec6f-1d9d-4c1b-89b3-820550f03458","system_id":"levelo_inurba_marseille","lat":43.27424,"lon":5.39406,"is_reserved":false,"is_disabled":false,"rental_uris":{"android":"levelo://app?vid=c832ec6f-1d9d-4c1b-89b3-820550f03458","ios":"levelo://app?vid=c832ec6f-1d9d-4c1b-89b3-820550f03458"},"vehicle_type_id":"4","last_reported":1746904063,"current_range_meters":6000,"station_id":"ce4bhdp2rcd13ifvqf20","pricing_plan_id":"cebpf4jnsgd1na2vs0mg"},{"bike_id":"1a008502-9d73-4ac6-8716-d548c9aa1f81","system_id":"levelo_inurba_marseille","lat":43.24185,"lon":5.39735,"is_reserved":false,"is_disabled":false,"rental_uris":{"android":"levelo://app?vid=1a008502-9d73-4ac6-8716-d548c9aa1f81","ios":"levelo://app?vid=1a008502-9d73-4ac6-8716-d548c9aa1f81"},"vehicle_type_id":"4","last_reported":1746904063,"current_range_meters":6000,"station_id":"ce4bhn12rcd13ifvqgpg","pricing_plan_id":"cebpf4jnsgd1na2vs0mg"},{"bike_id":"deaae3a1-78a2-4fb4-bc8e-1c20a92c730a","system_id":"levelo_inurba_marseille","lat":43.2455,"lon":5.39528,"is_reserved":false,"is_disabled":false,"rental_uris":{"android":"levelo://app?vid=deaae3a1-78a2-4fb4-bc8e-1c20a92c730a","ios":"levelo://app?vid=deaae3a1-78a2-4fb4-bc8e-1c20a92c730a"},"vehicle_type_id":"4","last_reported":1746904063,"current_range_meters":5600,"station_id":"ce4bhlp2rcd13ifvqgjg","pricing_plan_id":"cebpf4jnsgd1na2vs0mg"},{"bike_id":"e8e0d30b-2e74-4efa-8543-e0d5ac1a1648","system_id":"levelo_inurba_marseille","lat":43.27208,"lon":5.39172,"is_reserved":false,"is_disabled":false,"rental_uris":{"android":"levelo://app?vid=e8e0d30b-2e74-4efa-8543-e0d5ac1a1648","ios":"levelo://app?vid=e8e0d30b-2e74-4efa-8543-e0d5ac1a1648"},"vehicle_type_id":"4","last_reported":1746904063,"current_range_meters":6000,"station_id":"ce4bhhp2rcd13ifvqfm0","pricing_plan_id":"cebpf4jnsgd1na2vs0mg"},{"bike_id":"59854432-542a-4c4b-9c73-b760ede54b15","system_id":"levelo_inurba_marseille","lat":43.23187,"lon":5.39982,"is_reserved":false,"is_disabled":false,"rental_uris":{"android":"levelo://app?vid=59854432-542a-4c4b-9c73-b760ede54b15","ios":"levelo://app?vid=59854432-542a-4c4b-9c73-b760ede54b15"},"vehicle_type_id":"4","last_reported":1746904063,"current_range_meters":6400,"station_id":"ce4bhn12rcd13ifvqgqg","pricing_plan_id":"cebpf4jnsgd1na2vs0mg"},{"bike_id":"d6705564-6eb0-4b66-97d5-1e8f47ef4689","system_id":"levelo_inurba_marseille","lat":43.30124,"lon":5.39861,"is_reserved":false,"is_disabled":false,"rental_uris":{"android":"levelo://app?vid=d6705564-6eb0-4b66-97d5-1e8f47ef4689","ios":"levelo://app?vid=d6705564-6eb0-4b66-97d5-1e8f47ef4689"},"vehicle_type_id":"4","last_reported":1746904063,"current_range_meters":6400,"station_id":"ce4bh0h2rcd13ifvqd40","pricing_plan_id":"cebpf4jnsgd1na2vs0mg"},{"bike_id":"f1d0fb5d-400d-4efb-b985-f0e7805c2c06","system_id":"levelo_inurba_marseille","lat":43.2987,"lon":5.39723,"is_reserved":false,"is_disabled":false,"rental_uris":{"android":"levelo://app?vid=f1d0fb5d-400d-4efb-b985-f0e7805c2c06","ios":"levelo://app?vid=f1d0fb5d-400d-4efb-b985-f0e7805c2c06"},"vehicle_type_id":"4","last_reported":1746904063,"current_range_meters":6400,"station_id":"ce4bh0h2rcd13ifvqd50","pricing_plan_id":"cebpf4jnsgd1na2vs0mg"},{"bike_id":"b267e857-efb8-423a-86c1-709a2d8b7be7","system_id":"levelo_inurba_marseille","lat":43.29781,"lon":5.38122,"is_reserved":false,"is_disabled":false,"rental_uris":{"android":"levelo://app?vid=b267e857-efb8-423a-86c1-709a2d8b7be7","ios":"levelo://app?vid=b267e857-efb8-423a-86c1-709a2d8b7be7"},"vehicle_type_id":"4","last_reported":1746904063,"current_range_meters":6400,"station_id":"ce4bgip2rcd13ifvqbb0","pricing_plan_id":"cebpf4jnsgd1na2vs0mg"},{"bike_id":"f4ff6dc3-8ecf-4771-a830-78a297701627","system_id":"levelo_inurba_marseille","lat":43.29908,"lon":5.38132,"is_reserved":false,"is_disabled":false,"rental_uris":{"android":"levelo://app?vid=f4ff6dc3-8ecf-4771-a830-78a297701627","ios":"levelo://app?vid=f4ff6dc3-8ecf-4771-a830-78a297701627"},"vehicle_type_id":"4","last_reported":1746904063,"current_range_meters":11200,"station_id":"ce4bgj12rcd13ifvqbc0","pricing_plan_id":"cebpf4jnsgd1na2vs0mg"},{"bike_id":"1b8c5301-40be-4e98-8d75-da3fbaf24075","system_id":"levelo_inurba_marseille","lat":43.28847,"lon":5.39294,"is_reserved":false,"is_disabled":false,"rental_uris":{"android":"levelo://app?vid=1b8c5301-40be-4e98-8d75-da3fbaf24075","ios":"levelo://app?vid=1b8c5301-40be-4e98-8d75-da3fbaf24075"},"vehicle_type_id":"4","last_reported":1746904063,"current_range_meters":6800,"station_id":"ce4bh2p2rcd13ifvqdi0","pricing_plan_id":"cebpf4jnsgd1na2vs0mg"},{"bike_id":"56a9fba7-3eb6-4779-8d1d-aaf592b3a7b4","system_id":"levelo_inurba_marseille","lat":43.26679,"lon":5.38271,"is_reserved":false,"is_disabled":false,"rental_uris":{"android":"levelo://app?vid=56a9fba7-3eb6-4779-8d1d-aaf592b3a7b4","ios":"levelo://app?vid=56a9fba7-3eb6-4779-8d1d-aaf592b3a7b4"},"vehicle_type_id":"4","last_reported":1746904063,"current_range_meters":6800,"station_id":"ce4bhg92rcd13ifvqf90","pricing_plan_id":"cebpf4jnsgd1na2vs0mg"},{"bike_id":"148ecf42-d74a-4908-b803-c9ede154a66d","system_id":"levelo_inurba_marseille","lat":43.27973,"lon":5.3873,"is_reserved":false,"is_disabled":false,"rental_uris":{"android":"levelo://app?vid=148ecf42-d74a-4908-b803-c9ede154a66d","ios":"levelo://app?vid=148ecf42-d74a-4908-b803-c9ede154a66d"},"vehicle_type_id":"4","last_reported":1746904063,"current_range_meters":6800,"station_id":"ce4bhg12rcd13ifvqf80","pricing_plan_id":"cebpf4jnsgd1na2vs0mg"},{"bike_id":"cd94eec6-541b-4a78-a8b4-d063b8ee0e1c","system_id":"levelo_inurba_marseille","lat":43.29256,"lon":5.38441,"is_reserved":false,"is_disabled":false,"rental_uris":{"android":"levelo://app?vid=cd94eec6-541b-4a78-a8b4-d063b8ee0e1c","ios":"levelo://app?vid=cd94eec6-541b-4a78-a8b4-d063b8ee0e1c"},"vehicle_type_id":"4","last_reported":1746904063,"current_range_meters":6800,"station_id":"ce4bh692rcd13ifvqea0","pricing_plan_id":"cebpf4jnsgd1na2vs0mg"},{"bike_id":"636ffb93-3665-4662-8f3f-61644e5691e2","system_id":"levelo_inurba_marseille","lat":43.27449,"lon":5.39388,"is_reserved":false,"is_disabled":false,"rental_uris":{"android":"levelo://app?vid=636ffb93-3665-4662-8f3f-61644e5691e2","ios":"levelo://app?vid=636ffb93-3665-4662-8f3f-61644e5691e2"},"vehicle_type_id":"4","last_reported":1746904063,"current_range_meters":6800,"station_id":"ce4bhdp2rcd13ifvqf20","pricing_plan_id":"cebpf4jnsgd1na2vs0mg"},{"bike_id":"d69c80ad-b04f-4021-9556-16e53a21adda","system_id":"levelo_inurba_marseille","lat":43.29844,"lon":5.36258,"is_reserved":false,"is_disabled":false,"rental_uris":{"android":"levelo://app?vid=d69c80ad-b04f-4021-9556-16e53a21adda","ios":"levelo://app?vid=d69c80ad-b04f-4021-9556-16e53a21adda"},"vehicle_type_id":"4","last_reported":1746904063,"current_range_meters":6800,"station_id":"ce4bgpp2rcd13ifvqc3g","pricing_plan_id":"cebpf4jnsgd1na2vs0mg"},{"bike_id":"309ac268-e049-43e6-a19a-554a7d665520","system_id":"levelo_inurba_marseille","lat":43.29712,"lon":5.36599,"is_reserved":false,"is_disabled":false,"rental_uris":{"android":"levelo://app?vid=309ac268-e049-43e6-a19a-554a7d665520","ios":"levelo://app?vid=309ac268-e049-43e6-a19a-554a7d665520"},"vehicle_type_id":"4","last_reported":1746904063,"current_range_meters":7200,"station_id":"ce4bgn12rcd13ifvqbt0","pricing_plan_id":"cebpf4jnsgd1na2vs0mg"},{"bike_id":"41294e27-f6fe-4f58-9def-6afe3f8cac76","system_id":"levelo_inurba_marseille","lat":43.288959,"lon":5.395041,"is_reserved":false,"is_disabled":false,"rental_uris":{"android":"levelo://app?vid=41294e27-f6fe-4f58-9def-6afe3f8cac76","ios":"levelo://app?vid=41294e27-f6fe-4f58-9def-6afe3f8cac76"},"vehicle_type_id":"4","last_reported":1746904063,"current_range_meters":7200,"station_id":"ce4bh392rcd13ifvqdm0","pricing_plan_id":"cebpf4jnsgd1na2vs0mg"},{"bike_id":"4e622be4-c6e4-4dc6-a944-5d8c6edfef44","system_id":"levelo_inurba_marseille","lat":43.27051,"lon":5.40258,"is_reserved":false,"is_disabled":false,"rental_uris":{"android":"levelo://app?vid=4e622be4-c6e4-4dc6-a944-5d8c6edfef44","ios":"levelo://app?vid=4e622be4-c6e4-4dc6-a944-5d8c6edfef44"},"vehicle_type_id":"4","last_reported":1746904063,"current_range_meters":8000,"station_id":"ce4bhk92rcd13ifvqgc0","pricing_plan_id":"cebpf4jnsgd1na2vs0mg"},{"bike_id":"b95bc047-f3eb-4d71-a095-b655ce1a13c6","system_id":"levelo_inurba_marseille","lat":43.24166,"lon":5.36396,"is_reserved":false,"is_disabled":false,"rental_uris":{"android":"levelo://app?vid=b95bc047-f3eb-4d71-a095-b655ce1a13c6","ios":"levelo://app?vid=b95bc047-f3eb-4d71-a095-b655ce1a13c6"},"vehicle_type_id":"4","last_reported":1746904063,"current_range_meters":7200,"station_id":"","pricing_plan_id":"cebpf4jnsgd1na2vs0mg"},{"bike_id":"19120be6-b25e-470b-a71d-1505d92c906e","system_id":"levelo_inurba_marseille","lat":43.280757,"lon":5.396643,"is_reserved":false,"is_disabled":false,"rental_uris":{"android":"levelo://app?vid=19120be6-b25e-470b-a71d-1505d92c906e","ios":"levelo://app?vid=19120be6-b25e-470b-a71d-1505d92c906e"},"vehicle_type_id":"4","last_reported":1746904063,"current_range_meters":6800,"station_id":"ce4bho12rcd13ifvqh2g","pricing_plan_id":"cebpf4jnsgd1na2vs0mg"},{"bike_id":"ee517635-4717-430d-bc6f-7a42a3c83fdc","system_id":"levelo_inurba_marseille","lat":43.262104,"lon":5.374423,"is_reserved":false,"is_disabled":false,"rental_uris":{"android":"levelo://app?vid=ee517635-4717-430d-bc6f-7a42a3c83fdc","ios":"levelo://app?vid=ee517635-4717-430d-bc6f-7a42a3c83fdc"},"vehicle_type_id":"4","last_reported":1746904063,"current_range_meters":7200,"station_id":"ce4bgj92rcd13ifvqbd0","pricing_plan_id":"cebpf4jnsgd1na2vs0mg"},{"bike_id":"20d62d3a-f9ce-444c-ad20-a24efcb0537e","system_id":"levelo_inurba_marseille","lat":43.31963,"lon":5.38239,"is_reserved":false,"is_disabled":true,"rental_uris":{"android":"levelo://app?vid=20d62d3a-f9ce-444c-ad20-a24efcb0537e","ios":"levelo://app?vid=20d62d3a-f9ce-444c-ad20-a24efcb0537e"},"vehicle_type_id":"4","last_reported":1746904063,"current_range_meters":7200,"station_id":"","pricing_plan_id":"cebpf4jnsgd1na2vs0mg"},{"bike_id":"2ed22dc8-67fa-4f05-977e-0f379aba60d6","system_id":"levelo_inurba_marseille","lat":43.26956,"lon":5.38632,"is_reserved":false,"is_disabled":false,"rental_uris":{"android":"levelo://app?vid=2ed22dc8-67fa-4f05-977e-0f379aba60d6","ios":"levelo://app?vid=2ed22dc8-67fa-4f05-977e-0f379aba60d6"},"vehicle_type_id":"4","last_reported":1746904063,"current_range_meters":8000,"station_id":"ce4bhh92rcd13ifvqfh0","pricing_plan_id":"cebpf4jnsgd1na2vs0mg"},{"bike_id":"076004b2-ac04-4803-b3fe-8c4aca28f307","system_id":"levelo_inurba_marseille","lat":43.30455,"lon":5.37908,"is_reserved":false,"is_disabled":false,"rental_uris":{"android":"levelo://app?vid=076004b2-ac04-4803-b3fe-8c4aca28f307","ios":"levelo://app?vid=076004b2-ac04-4803-b3fe-8c4aca28f307"},"vehicle_type_id":"4","last_reported":1746904063,"current_range_meters":8000,"station_id":"ce4bgup2rcd13ifvqcn0","pricing_plan_id":"cebpf4jnsgd1na2vs0mg"},{"bike_id":"e06e668d-c803-40e3-b984-5f5be568de8e","system_id":"levelo_inurba_marseille","lat":43.29203,"lon":5.39316,"is_reserved":false,"is_disabled":false,"rental_uris":{"android":"levelo://app?vid=e06e668d-c803-40e3-b984-5f5be568de8e","ios":"levelo://app?vid=e06e668d-c803-40e3-b984-5f5be568de8e"},"vehicle_type_id":"4","last_reported":1746904063,"current_range_meters":11200,"station_id":"ce4bh192rcd13ifvqdd0","pricing_plan_id":"cebpf4jnsgd1na2vs0mg"},{"bike_id":"0c17a298-e7b1-4bfd-9e97-d46f58d52b1f","system_id":"levelo_inurba_marseille","lat":43.29873,"lon":5.39744,"is_reserved":false,"is_disabled":false,"rental_uris":{"android":"levelo://app?vid=0c17a298-e7b1-4bfd-9e97-d46f58d52b1f","ios":"levelo://app?vid=0c17a298-e7b1-4bfd-9e97-d46f58d52b1f"},"vehicle_type_id":"4","last_reported":1746904063,"current_range_meters":8000,"station_id":"ce4bh0h2rcd13ifvqd50","pricing_plan_id":"cebpf4jnsgd1na2vs0mg"},{"bike_id":"43306e97-f2e3-4450-8fe4-76807f46c929","system_id":"levelo_inurba_marseille","lat":43.27965,"lon":5.38729,"is_reserved":false,"is_disabled":false,"rental_uris":{"android":"levelo://app?vid=43306e97-f2e3-4450-8fe4-76807f46c929","ios":"levelo://app?vid=43306e97-f2e3-4450-8fe4-76807f46c929"},"vehicle_type_id":"4","last_reported":1746904063,"current_range_meters":8400,"station_id":"ce4bhg12rcd13ifvqf80","pricing_plan_id":"cebpf4jnsgd1na2vs0mg"},{"bike_id":"98fe1777-8feb-4e35-91a7-dd2ea0b16538","system_id":"levelo_inurba_marseille","lat":43.28597,"lon":5.37097,"is_reserved":false,"is_disabled":false,"rental_uris":{"android":"levelo://app?vid=98fe1777-8feb-4e35-91a7-dd2ea0b16538","ios":"levelo://app?vid=98fe1777-8feb-4e35-91a7-dd2ea0b16538"},"vehicle_type_id":"4","last_reported":1746904063,"current_range_meters":8400,"station_id":"ce4bht12rcd13ifvqi60","pricing_plan_id":"cebpf4jnsgd1na2vs0mg"},{"bike_id":"e551c910-f279-4345-983b-35636ebdf060","system_id":"levelo_inurba_marseille","lat":43.29091,"lon":5.38111,"is_reserved":false,"is_disabled":false,"rental_uris":{"android":"levelo://app?vid=e551c910-f279-4345-983b-35636ebdf060","ios":"levelo://app?vid=e551c910-f279-4345-983b-35636ebdf060"},"vehicle_type_id":"4","last_reported":1746904063,"current_range_meters":8400,"station_id":"ce4bh512rcd13ifvqe2g","pricing_plan_id":"cebpf4jnsgd1na2vs0mg"},{"bike_id":"9c5d4d0c-48c5-44f8-8307-453d083be1f0","system_id":"levelo_inurba_marseille","lat":43.25823,"lon":5.39435,"is_reserved":false,"is_disabled":false,"rental_uris":{"android":"levelo://app?vid=9c5d4d0c-48c5-44f8-8307-453d083be1f0","ios":"levelo://app?vid=9c5d4d0c-48c5-44f8-8307-453d083be1f0"},"vehicle_type_id":"4","last_reported":1746904063,"current_range_meters":8400,"station_id":"ce4bhip2rcd13ifvqft0","pricing_plan_id":"cebpf4jnsgd1na2vs0mg"},{"bike_id":"6d24e392-46d1-4d72-84a5-5d205b606b14","system_id":"levelo_inurba_marseille","lat":43.28163,"lon":5.42637,"is_reserved":false,"is_disabled":false,"rental_uris":{"android":"levelo://app?vid=6d24e392-46d1-4d72-84a5-5d205b606b14","ios":"levelo://app?vid=6d24e392-46d1-4d72-84a5-5d205b606b14"},"vehicle_type_id":"4","last_reported":1746904063,"current_range_meters":8400,"station_id":"ce4bhnh2rcd13ifvqgug","pricing_plan_id":"cebpf4jnsgd1na2vs0mg"},{"bike_id":"5e5bc86c-17c7-4793-a6fb-e3538f2be75f","system_id":"levelo_inurba_marseille","lat":43.29162,"lon":5.37165,"is_reserved":false,"is_disabled":false,"rental_uris":{"android":"levelo://app?vid=5e5bc86c-17c7-4793-a6fb-e3538f2be75f","ios":"levelo://app?vid=5e5bc86c-17c7-4793-a6fb-e3538f2be75f"},"vehicle_type_id":"4","last_reported":1746904063,"current_range_meters":8400,"station_id":"","pricing_plan_id":"cebpf4jnsgd1na2vs0mg"},{"bike_id":"d688b308-5508-4b33-9263-3baab57e30a2","system_id":"levelo_inurba_marseille","lat":43.27294,"lon":5.39083,"is_reserved":false,"is_disabled":false,"rental_uris":{"android":"levelo://app?vid=d688b308-5508-4b33-9263-3baab57e30a2","ios":"levelo://app?vid=d688b308-5508-4b33-9263-3baab57e30a2"},"vehicle_type_id":"4","last_reported":1746904063,"current_range_meters":8400,"station_id":"ce4bhgp2rcd13ifvqfe0","pricing_plan_id":"cebpf4jnsgd1na2vs0mg"},{"bike_id":"f30700cd-2b15-4379-bae3-a617af060209","system_id":"levelo_inurba_marseille","lat":43.21745,"lon":5.34593,"is_reserved":false,"is_disabled":true,"rental_uris":{"android":"levelo://app?vid=f30700cd-2b15-4379-bae3-a617af060209","ios":"levelo://app?vid=f30700cd-2b15-4379-bae3-a617af060209"},"vehicle_type_id":"4","last_reported":1746904063,"current_range_meters":8400,"station_id":"st_cvj6r9ubvosntc0bgbag","pricing_plan_id":"cebpf4jnsgd1na2vs0mg"},{"bike_id":"cba9d3ce-87f1-4ca6-82cb-09297f06a558","system_id":"levelo_inurba_marseille","lat":43.23964,"lon":5.36627,"is_reserved":false,"is_disabled":false,"rental_uris":{"android":"levelo://app?vid=cba9d3ce-87f1-4ca6-82cb-09297f06a558","ios":"levelo://app?vid=cba9d3ce-87f1-4ca6-82cb-09297f06a558"},"vehicle_type_id":"4","last_reported":1746904063,"current_range_meters":8000,"station_id":"ce4bhi12rcd13ifvqfp0","pricing_plan_id":"cebpf4jnsgd1na2vs0mg"},{"bike_id":"c13f6770-edfc-46b5-bb2d-9740a2cce6d4","system_id":"levelo_inurba_marseille","lat":43.2549,"lon":5.37627,"is_reserved":false,"is_disabled":true,"rental_uris":{"android":"levelo://app?vid=c13f6770-edfc-46b5-bb2d-9740a2cce6d4","ios":"levelo://app?vid=c13f6770-edfc-46b5-bb2d-9740a2cce6d4"},"vehicle_type_id":"4","last_reported":1746904063,"current_range_meters":8400,"station_id":"ce4bhh12rcd13ifvqff0","pricing_plan_id":"cebpf4jnsgd1na2vs0mg"},{"bike_id":"76eb38bb-f6fa-4460-ae23-f70420b766e9","system_id":"levelo_inurba_marseille","lat":43.25105,"lon":5.40321,"is_reserved":false,"is_disabled":false,"rental_uris":{"android":"levelo://app?vid=76eb38bb-f6fa-4460-ae23-f70420b766e9","ios":"levelo://app?vid=76eb38bb-f6fa-4460-ae23-f70420b766e9"},"vehicle_type_id":"4","last_reported":1746904063,"current_range_meters":8800,"station_id":"ce4bhlh2rcd13ifvqgig","pricing_plan_id":"cebpf4jnsgd1na2vs0mg"},{"bike_id":"2fa7d612-3e4e-4e8a-90aa-09948b5b961a","system_id":"levelo_inurba_marseille","lat":43.29533,"lon":5.38545,"is_reserved":false,"is_disabled":false,"rental_uris":{"android":"levelo://app?vid=2fa7d612-3e4e-4e8a-90aa-09948b5b961a","ios":"levelo://app?vid=2fa7d612-3e4e-4e8a-90aa-09948b5b961a"},"vehicle_type_id":"4","last_reported":1746904063,"current_range_meters":8800,"station_id":"ce4bgih2rcd13ifvqba0","pricing_plan_id":"cebpf4jnsgd1na2vs0mg"},{"bike_id":"97a0f559-bc2b-4566-abf6-22339ed2ce55","system_id":"levelo_inurba_marseille","lat":43.3054,"lon":5.367318,"is_reserved":false,"is_disabled":false,"rental_uris":{"android":"levelo://app?vid=97a0f559-bc2b-4566-abf6-22339ed2ce55","ios":"levelo://app?vid=97a0f559-bc2b-4566-abf6-22339ed2ce55"},"vehicle_type_id":"4","last_reported":1746904063,"current_range_meters":8800,"station_id":"ce4bgrp2rcd13ifvqc9g","pricing_plan_id":"cebpf4jnsgd1na2vs0mg"},{"bike_id":"97d2ba6f-fb48-47b1-b244-bc53d1a2dd9a","system_id":"levelo_inurba_marseille","lat":43.25867,"lon":5.39892,"is_reserved":false,"is_disabled":false,"rental_uris":{"android":"levelo://app?vid=97d2ba6f-fb48-47b1-b244-bc53d1a2dd9a","ios":"levelo://app?vid=97d2ba6f-fb48-47b1-b244-bc53d1a2dd9a"},"vehicle_type_id":"4","last_reported":1746904063,"current_range_meters":8800,"station_id":"ce4bhl92rcd13ifvqghg","pricing_plan_id":"cebpf4jnsgd1na2vs0mg"},{"bike_id":"67a378e1-7e89-41ff-a0bc-e22ce5b10084","system_id":"levelo_inurba_marseille","lat":43.31378,"lon":5.38488,"is_reserved":false,"is_disabled":false,"rental_uris":{"android":"levelo://app?vid=67a378e1-7e89-41ff-a0bc-e22ce5b10084","ios":"levelo://app?vid=67a378e1-7e89-41ff-a0bc-e22ce5b10084"},"vehicle_type_id":"4","last_reported":1746904063,"current_range_meters":8800,"station_id":"ce4bgt92rcd13ifvqcf0","pricing_plan_id":"cebpf4jnsgd1na2vs0mg"},{"bike_id":"7c6623c6-a687-4cf3-bed7-445dbc4db3a6","system_id":"levelo_inurba_marseille","lat":43.29974,"lon":5.38492,"is_reserved":false,"is_disabled":true,"rental_uris":{"android":"levelo://app?vid=7c6623c6-a687-4cf3-bed7-445dbc4db3a6","ios":"levelo://app?vid=7c6623c6-a687-4cf3-bed7-445dbc4db3a6"},"vehicle_type_id":"4","last_reported":1746904063,"current_range_meters":8800,"station_id":"ce4bgj92rcd13ifvqbd0","pricing_plan_id":"cebpf4jnsgd1na2vs0mg"},{"bike_id":"c8871d60-de65-4dc9-8457-ca42730446e7","system_id":"levelo_inurba_marseille","lat":43.31768,"lon":5.387887,"is_reserved":false,"is_disabled":false,"rental_uris":{"android":"levelo://app?vid=c8871d60-de65-4dc9-8457-ca42730446e7","ios":"levelo://app?vid=c8871d60-de65-4dc9-8457-ca42730446e7"},"vehicle_type_id":"4","last_reported":1746904063,"current_range_meters":8800,"station_id":"","pricing_plan_id":"cebpf4jnsgd1na2vs0mg"},{"bike_id":"075979de-4a30-43d9-9e11-c9183ef3a80b","system_id":"levelo_inurba_marseille","lat":43.29209,"lon":5.39331,"is_reserved":false,"is_disabled":false,"rental_uris":{"android":"levelo://app?vid=075979de-4a30-43d9-9e11-c9183ef3a80b","ios":"levelo://app?vid=075979de-4a30-43d9-9e11-c9183ef3a80b"},"vehicle_type_id":"4","last_reported":1746904063,"current_range_meters":8800,"station_id":"ce4bh192rcd13ifvqdd0","pricing_plan_id":"cebpf4jnsgd1na2vs0mg"},{"bike_id":"1ffd911c-b79d-4573-be11-c1f9a8ff98b3","system_id":"levelo_inurba_marseille","lat":43.265603,"lon":5.37271,"is_reserved":false,"is_disabled":false,"rental_uris":{"android":"levelo://app?vid=1ffd911c-b79d-4573-be11-c1f9a8ff98b3","ios":"levelo://app?vid=1ffd911c-b79d-4573-be11-c1f9a8ff98b3"},"vehicle_type_id":"4","last_reported":1746904063,"current_range_meters":9200,"station_id":"ce4bhg12rcd13ifvqf70","pricing_plan_id":"cebpf4jnsgd1na2vs0mg"},{"bike_id":"aedac110-9a80-4055-b3bc-6fbbff4ed0bc","system_id":"levelo_inurba_marseille","lat":43.31729,"lon":5.37204,"is_reserved":false,"is_disabled":false,"rental_uris":{"android":"levelo://app?vid=aedac110-9a80-4055-b3bc-6fbbff4ed0bc","ios":"levelo://app?vid=aedac110-9a80-4055-b3bc-6fbbff4ed0bc"},"vehicle_type_id":"4","last_reported":1746904063,"current_range_meters":9200,"station_id":"","pricing_plan_id":"cebpf4jnsgd1na2vs0mg"},{"bike_id":"814c300d-d261-4866-b022-44e7c5159380","system_id":"levelo_inurba_marseille","lat":43.24167,"lon":5.36397,"is_reserved":false,"is_disabled":true,"rental_uris":{"android":"levelo://app?vid=814c300d-d261-4866-b022-44e7c5159380","ios":"levelo://app?vid=814c300d-d261-4866-b022-44e7c5159380"},"vehicle_type_id":"4","last_reported":1746904063,"current_range_meters":9200,"station_id":"cpo36qri1sfpv3e86is0","pricing_plan_id":"cebpf4jnsgd1na2vs0mg"},{"bike_id":"7d133824-1f9a-4c15-a32e-419ca57eeea8","system_id":"levelo_inurba_marseille","lat":43.29584,"lon":5.36757,"is_reserved":false,"is_disabled":true,"rental_uris":{"android":"levelo://app?vid=7d133824-1f9a-4c15-a32e-419ca57eeea8","ios":"levelo://app?vid=7d133824-1f9a-4c15-a32e-419ca57eeea8"},"vehicle_type_id":"4","last_reported":1746904063,"current_range_meters":9200,"station_id":"ce4bgph2rcd13ifvqc2g","pricing_plan_id":"cebpf4jnsgd1na2vs0mg"},{"bike_id":"e853834f-1da1-4382-b8ae-eca334bd6581","system_id":"levelo_inurba_marseille","lat":43.292746,"lon":5.368407,"is_reserved":false,"is_disabled":false,"rental_uris":{"android":"levelo://app?vid=e853834f-1da1-4382-b8ae-eca334bd6581","ios":"levelo://app?vid=e853834f-1da1-4382-b8ae-eca334bd6581"},"vehicle_type_id":"4","last_reported":1746904063,"current_range_meters":9200,"station_id":"","pricing_plan_id":"cebpf4jnsgd1na2vs0mg"},{"bike_id":"86b478b2-1cf2-4e07-8a5c-76710e912a41","system_id":"levelo_inurba_marseille","lat":43.291279,"lon":5.366863,"is_reserved":false,"is_disabled":false,"rental_uris":{"android":"levelo://app?vid=86b478b2-1cf2-4e07-8a5c-76710e912a41","ios":"levelo://app?vid=86b478b2-1cf2-4e07-8a5c-76710e912a41"},"vehicle_type_id":"4","last_reported":1746904063,"current_range_meters":9200,"station_id":"","pricing_plan_id":"cebpf4jnsgd1na2vs0mg"},{"bike_id":"99fb9985-2088-4a48-ae83-62aca3ba1639","system_id":"levelo_inurba_marseille","lat":43.31509,"lon":5.37324,"is_reserved":false,"is_disabled":true,"rental_uris":{"android":"levelo://app?vid=99fb9985-2088-4a48-ae83-62aca3ba1639","ios":"levelo://app?vid=99fb9985-2088-4a48-ae83-62aca3ba1639"},"vehicle_type_id":"4","last_reported":1746904063,"current_range_meters":9200,"station_id":"ce4bgt12rcd13ifvqcd0","pricing_plan_id":"cebpf4jnsgd1na2vs0mg"},{"bike_id":"91796c4b-8fa9-45d9-85a2-800661468ade","system_id":"levelo_inurba_marseille","lat":43.29032,"lon":5.39966,"is_reserved":false,"is_disabled":false,"rental_uris":{"android":"levelo://app?vid=91796c4b-8fa9-45d9-85a2-800661468ade","ios":"levelo://app?vid=91796c4b-8fa9-45d9-85a2-800661468ade"},"vehicle_type_id":"4","last_reported":1746904063,"current_range_meters":8800,"station_id":"ce4bh392rcd13ifvqdm0","pricing_plan_id":"cebpf4jnsgd1na2vs0mg"},{"bike_id":"926b8d2a-fc20-48c9-86b6-53b90e000a76","system_id":"levelo_inurba_marseille","lat":43.27227,"lon":5.3918,"is_reserved":false,"is_disabled":false,"rental_uris":{"android":"levelo://app?vid=926b8d2a-fc20-48c9-86b6-53b90e000a76","ios":"levelo://app?vid=926b8d2a-fc20-48c9-86b6-53b90e000a76"},"vehicle_type_id":"4","last_reported":1746904063,"current_range_meters":9200,"station_id":"ce4bhhp2rcd13ifvqfm0","pricing_plan_id":"cebpf4jnsgd1na2vs0mg"},{"bike_id":"1a58a871-1283-4a55-8b2e-e35764af3337","system_id":"levelo_inurba_marseille","lat":43.27814,"lon":5.4071,"is_reserved":false,"is_disabled":false,"rental_uris":{"android":"levelo://app?vid=1a58a871-1283-4a55-8b2e-e35764af3337","ios":"levelo://app?vid=1a58a871-1283-4a55-8b2e-e35764af3337"},"vehicle_type_id":"4","last_reported":1746904063,"current_range_meters":9200,"station_id":"ce4bhnh2rcd13ifvqgtg","pricing_plan_id":"cebpf4jnsgd1na2vs0mg"},{"bike_id":"552a1969-8340-490a-8ba9-7f42d5c36e7b","system_id":"levelo_inurba_marseille","lat":43.29759,"lon":5.37072,"is_reserved":false,"is_disabled":false,"rental_uris":{"android":"levelo://app?vid=552a1969-8340-490a-8ba9-7f42d5c36e7b","ios":"levelo://app?vid=552a1969-8340-490a-8ba9-7f42d5c36e7b"},"vehicle_type_id":"4","last_reported":1746904063,"current_range_meters":9200,"station_id":"ce4bgop2rcd13ifvqc1g","pricing_plan_id":"cebpf4jnsgd1na2vs0mg"},{"bike_id":"e4350ab3-5a88-47ac-8937-7c6355becc7f","system_id":"levelo_inurba_marseille","lat":43.29014,"lon":5.38142,"is_reserved":false,"is_disabled":false,"rental_uris":{"android":"levelo://app?vid=e4350ab3-5a88-47ac-8937-7c6355becc7f","ios":"levelo://app?vid=e4350ab3-5a88-47ac-8937-7c6355becc7f"},"vehicle_type_id":"4","last_reported":1746904063,"current_range_meters":9600,"station_id":"ce4bh4p2rcd13ifvqe1g","pricing_plan_id":"cebpf4jnsgd1na2vs0mg"},{"bike_id":"40226800-a1dc-4aa5-a664-8f301d7ee6f6","system_id":"levelo_inurba_marseille","lat":43.297,"lon":5.36603,"is_reserved":false,"is_disabled":false,"rental_uris":{"android":"levelo://app?vid=40226800-a1dc-4aa5-a664-8f301d7ee6f6","ios":"levelo://app?vid=40226800-a1dc-4aa5-a664-8f301d7ee6f6"},"vehicle_type_id":"4","last_reported":1746904063,"current_range_meters":9600,"station_id":"ce4bgn12rcd13ifvqbt0","pricing_plan_id":"cebpf4jnsgd1na2vs0mg"},{"bike_id":"20a8c5ec-8dc1-4fc6-93e5-7e8979dfdfa4","system_id":"levelo_inurba_marseille","lat":43.258253,"lon":5.394442,"is_reserved":false,"is_disabled":false,"rental_uris":{"android":"levelo://app?vid=20a8c5ec-8dc1-4fc6-93e5-7e8979dfdfa4","ios":"levelo://app?vid=20a8c5ec-8dc1-4fc6-93e5-7e8979dfdfa4"},"vehicle_type_id":"4","last_reported":1746904063,"current_range_meters":9600,"station_id":"ce4bhip2rcd13ifvqft0","pricing_plan_id":"cebpf4jnsgd1na2vs0mg"},{"bike_id":"a5ee6ac6-b813-4a1f-bed9-da8cc5453ea1","system_id":"levelo_inurba_marseille","lat":43.29351,"lon":5.42821,"is_reserved":false,"is_disabled":false,"rental_uris":{"android":"levelo://app?vid=a5ee6ac6-b813-4a1f-bed9-da8cc5453ea1","ios":"levelo://app?vid=a5ee6ac6-b813-4a1f-bed9-da8cc5453ea1"},"vehicle_type_id":"4","last_reported":1746904063,"current_range_meters":9600,"station_id":"","pricing_plan_id":"cebpf4jnsgd1na2vs0mg"},{"bike_id":"10ee2d0e-ca01-4e83-bbdf-6c08178a202f","system_id":"levelo_inurba_marseille","lat":43.28577,"lon":5.41291,"is_reserved":false,"is_disabled":false,"rental_uris":{"android":"levelo://app?vid=10ee2d0e-ca01-4e83-bbdf-6c08178a202f","ios":"levelo://app?vid=10ee2d0e-ca01-4e83-bbdf-6c08178a202f"},"vehicle_type_id":"4","last_reported":1746904063,"current_range_meters":9600,"station_id":"","pricing_plan_id":"cebpf4jnsgd1na2vs0mg"},{"bike_id":"4f06fe77-36d3-4b35-b181-29f8e04116b1","system_id":"levelo_inurba_marseille","lat":43.30738,"lon":5.42445,"is_reserved":false,"is_disabled":false,"rental_uris":{"android":"levelo://app?vid=4f06fe77-36d3-4b35-b181-29f8e04116b1","ios":"levelo://app?vid=4f06fe77-36d3-4b35-b181-29f8e04116b1"},"vehicle_type_id":"4","last_reported":1746904063,"current_range_meters":9600,"station_id":"st_cvj6ca6bvosntc0bfgr0","pricing_plan_id":"cebpf4jnsgd1na2vs0mg"},{"bike_id":"44e88eeb-5d69-44d1-ad07-bcaf5276d14e","system_id":"levelo_inurba_marseille","lat":43.2622,"lon":5.40436,"is_reserved":false,"is_disabled":false,"rental_uris":{"android":"levelo://app?vid=44e88eeb-5d69-44d1-ad07-bcaf5276d14e","ios":"levelo://app?vid=44e88eeb-5d69-44d1-ad07-bcaf5276d14e"},"vehicle_type_id":"4","last_reported":1746904063,"current_range_meters":9600,"station_id":"ce4bhmh2rcd13ifvqgmg","pricing_plan_id":"cebpf4jnsgd1na2vs0mg"},{"bike_id":"851a8b9a-ea3e-45eb-979c-3a974967007d","system_id":"levelo_inurba_marseille","lat":43.27313,"lon":5.39082,"is_reserved":false,"is_disabled":false,"rental_uris":{"android":"levelo://app?vid=851a8b9a-ea3e-45eb-979c-3a974967007d","ios":"levelo://app?vid=851a8b9a-ea3e-45eb-979c-3a974967007d"},"vehicle_type_id":"4","last_reported":1746904063,"current_range_meters":9600,"station_id":"ce4bhgp2rcd13ifvqfe0","pricing_plan_id":"cebpf4jnsgd1na2vs0mg"},{"bike_id":"6c14804d-e9d1-49c6-bf59-01a6e0300dce","system_id":"levelo_inurba_marseille","lat":43.27557,"lon":5.38431,"is_reserved":false,"is_disabled":false,"rental_uris":{"android":"levelo://app?vid=6c14804d-e9d1-49c6-bf59-01a6e0300dce","ios":"levelo://app?vid=6c14804d-e9d1-49c6-bf59-01a6e0300dce"},"vehicle_type_id":"4","last_reported":1746904063,"current_range_meters":9600,"station_id":"ce4bhh92rcd13ifvqfi0","pricing_plan_id":"cebpf4jnsgd1na2vs0mg"},{"bike_id":"60d80295-d597-4c93-af78-6f195131e72f","system_id":"levelo_inurba_marseille","lat":43.24162,"lon":5.36394,"is_reserved":false,"is_disabled":false,"rental_uris":{"android":"levelo://app?vid=60d80295-d597-4c93-af78-6f195131e72f","ios":"levelo://app?vid=60d80295-d597-4c93-af78-6f195131e72f"},"vehicle_type_id":"4","last_reported":1746904063,"current_range_meters":10000,"station_id":"cpo36qri1sfpv3e86is0","pricing_plan_id":"cebpf4jnsgd1na2vs0mg"},{"bike_id":"7835d644-e3b6-49b9-9497-46cf4cea6e44","system_id":"levelo_inurba_marseille","lat":43.26021,"lon":5.37549,"is_reserved":false,"is_disabled":false,"rental_uris":{"android":"levelo://app?vid=7835d644-e3b6-49b9-9497-46cf4cea6e44","ios":"levelo://app?vid=7835d644-e3b6-49b9-9497-46cf4cea6e44"},"vehicle_type_id":"4","last_reported":1746904063,"current_range_meters":10000,"station_id":"ce4bhgh2rcd13ifvqfa0","pricing_plan_id":"cebpf4jnsgd1na2vs0mg"},{"bike_id":"0dc52e4a-27c8-46bc-ac74-d0914cdf2355","system_id":"levelo_inurba_marseille","lat":43.28038,"lon":5.36942,"is_reserved":false,"is_disabled":false,"rental_uris":{"android":"levelo://app?vid=0dc52e4a-27c8-46bc-ac74-d0914cdf2355","ios":"levelo://app?vid=0dc52e4a-27c8-46bc-ac74-d0914cdf2355"},"vehicle_type_id":"4","last_reported":1746904063,"current_range_meters":10000,"station_id":"ce4bha12rcd13ifvqef0","pricing_plan_id":"cebpf4jnsgd1na2vs0mg"},{"bike_id":"d45bea92-f36f-48d0-8278-4820575fe9db","system_id":"levelo_inurba_marseille","lat":43.26678,"lon":5.3827,"is_reserved":false,"is_disabled":false,"rental_uris":{"android":"levelo://app?vid=d45bea92-f36f-48d0-8278-4820575fe9db","ios":"levelo://app?vid=d45bea92-f36f-48d0-8278-4820575fe9db"},"vehicle_type_id":"4","last_reported":1746904063,"current_range_meters":10000,"station_id":"ce4bhg92rcd13ifvqf90","pricing_plan_id":"cebpf4jnsgd1na2vs0mg"},{"bike_id":"dab3768c-66f6-451d-ae35-ab53fa323682","system_id":"levelo_inurba_marseille","lat":43.29305,"lon":5.3717,"is_reserved":false,"is_disabled":false,"rental_uris":{"android":"levelo://app?vid=dab3768c-66f6-451d-ae35-ab53fa323682","ios":"levelo://app?vid=dab3768c-66f6-451d-ae35-ab53fa323682"},"vehicle_type_id":"4","last_reported":1746904063,"current_range_meters":10000,"station_id":"ce4bgh92rcd13ifvqb40","pricing_plan_id":"cebpf4jnsgd1na2vs0mg"},{"bike_id":"351ef218-24e5-4670-825d-fc1ac5cd3c19","system_id":"levelo_inurba_marseille","lat":43.31808,"lon":5.36798,"is_reserved":false,"is_disabled":false,"rental_uris":{"android":"levelo://app?vid=351ef218-24e5-4670-825d-fc1ac5cd3c19","ios":"levelo://app?vid=351ef218-24e5-4670-825d-fc1ac5cd3c19"},"vehicle_type_id":"4","last_reported":1746904063,"current_range_meters":10000,"station_id":"","pricing_plan_id":"cebpf4jnsgd1na2vs0mg"},{"bike_id":"e6342bb4-1666-4c11-b17f-55c688b658e1","system_id":"levelo_inurba_marseille","lat":43.26025,"lon":5.37548,"is_reserved":false,"is_disabled":false,"rental_uris":{"android":"levelo://app?vid=e6342bb4-1666-4c11-b17f-55c688b658e1","ios":"levelo://app?vid=e6342bb4-1666-4c11-b17f-55c688b658e1"},"vehicle_type_id":"4","last_reported":1746904063,"current_range_meters":10000,"station_id":"ce4bhgh2rcd13ifvqfa0","pricing_plan_id":"cebpf4jnsgd1na2vs0mg"},{"bike_id":"fa39bbb3-f357-4467-9b28-d9b8728dc46f","system_id":"levelo_inurba_marseille","lat":43.288306,"lon":5.37063,"is_reserved":false,"is_disabled":false,"rental_uris":{"android":"levelo://app?vid=fa39bbb3-f357-4467-9b28-d9b8728dc46f","ios":"levelo://app?vid=fa39bbb3-f357-4467-9b28-d9b8728dc46f"},"vehicle_type_id":"4","last_reported":1746904063,"current_range_meters":10800,"station_id":"ce4bh512rcd13ifvqe2g","pricing_plan_id":"cebpf4jnsgd1na2vs0mg"},{"bike_id":"2223b331-3d25-4182-9d09-0f6e30c5236f","system_id":"levelo_inurba_marseille","lat":43.29773,"lon":5.39351,"is_reserved":false,"is_disabled":false,"rental_uris":{"android":"levelo://app?vid=2223b331-3d25-4182-9d09-0f6e30c5236f","ios":"levelo://app?vid=2223b331-3d25-4182-9d09-0f6e30c5236f"},"vehicle_type_id":"4","last_reported":1746904063,"current_range_meters":10800,"station_id":"chh1huq6cuj3fo74tm60","pricing_plan_id":"cebpf4jnsgd1na2vs0mg"},{"bike_id":"e6be88ab-5318-4631-933a-74c69ca8f743","system_id":"levelo_inurba_marseille","lat":43.29264,"lon":5.38448,"is_reserved":false,"is_disabled":false,"rental_uris":{"android":"levelo://app?vid=e6be88ab-5318-4631-933a-74c69ca8f743","ios":"levelo://app?vid=e6be88ab-5318-4631-933a-74c69ca8f743"},"vehicle_type_id":"4","last_reported":1746904063,"current_range_meters":10800,"station_id":"ce4bh692rcd13ifvqea0","pricing_plan_id":"cebpf4jnsgd1na2vs0mg"},{"bike_id":"25aa4109-15ed-42ed-a09a-04528a766616","system_id":"levelo_inurba_marseille","lat":43.28922,"lon":5.38396,"is_reserved":false,"is_disabled":false,"rental_uris":{"android":"levelo://app?vid=25aa4109-15ed-42ed-a09a-04528a766616","ios":"levelo://app?vid=25aa4109-15ed-42ed-a09a-04528a766616"},"vehicle_type_id":"4","last_reported":1746904063,"current_range_meters":11200,"station_id":"ce4bh612rcd13ifvqe6g","pricing_plan_id":"cebpf4jnsgd1na2vs0mg"},{"bike_id":"6a7f53dd-a4ca-421d-9e90-7e7f6eac2407","system_id":"levelo_inurba_marseille","lat":43.30459,"lon":5.37902,"is_reserved":false,"is_disabled":false,"rental_uris":{"android":"levelo://app?vid=6a7f53dd-a4ca-421d-9e90-7e7f6eac2407","ios":"levelo://app?vid=6a7f53dd-a4ca-421d-9e90-7e7f6eac2407"},"vehicle_type_id":"4","last_reported":1746904063,"current_range_meters":11200,"station_id":"ce4bgup2rcd13ifvqcn0","pricing_plan_id":"cebpf4jnsgd1na2vs0mg"},{"bike_id":"40dc7fa9-a027-41bc-9f64-d8a2ecd4bb9b","system_id":"levelo_inurba_marseille","lat":43.28031,"lon":5.36949,"is_reserved":false,"is_disabled":false,"rental_uris":{"android":"levelo://app?vid=40dc7fa9-a027-41bc-9f64-d8a2ecd4bb9b","ios":"levelo://app?vid=40dc7fa9-a027-41bc-9f64-d8a2ecd4bb9b"},"vehicle_type_id":"4","last_reported":1746904063,"current_range_meters":11200,"station_id":"ce4bha12rcd13ifvqef0","pricing_plan_id":"cebpf4jnsgd1na2vs0mg"},{"bike_id":"7f4d5b6c-651a-4f89-b91f-abf16983ec8c","system_id":"levelo_inurba_marseille","lat":43.2971,"lon":5.36607,"is_reserved":false,"is_disabled":false,"rental_uris":{"android":"levelo://app?vid=7f4d5b6c-651a-4f89-b91f-abf16983ec8c","ios":"levelo://app?vid=7f4d5b6c-651a-4f89-b91f-abf16983ec8c"},"vehicle_type_id":"4","last_reported":1746904063,"current_range_meters":10800,"station_id":"ce4bgn12rcd13ifvqbt0","pricing_plan_id":"cebpf4jnsgd1na2vs0mg"},{"bike_id":"3d57b766-d342-4680-b3d2-73bb782a19be","system_id":"levelo_inurba_marseille","lat":43.26492,"lon":5.39538,"is_reserved":false,"is_disabled":false,"rental_uris":{"android":"levelo://app?vid=3d57b766-d342-4680-b3d2-73bb782a19be","ios":"levelo://app?vid=3d57b766-d342-4680-b3d2-73bb782a19be"},"vehicle_type_id":"4","last_reported":1746904063,"current_range_meters":11200,"station_id":"ce4bhi12rcd13ifvqfq0","pricing_plan_id":"cebpf4jnsgd1na2vs0mg"},{"bike_id":"0e8a0dae-7571-4a83-a917-82c1781a9d53","system_id":"levelo_inurba_marseille","lat":43.31711,"lon":5.37741,"is_reserved":false,"is_disabled":false,"rental_uris":{"android":"levelo://app?vid=0e8a0dae-7571-4a83-a917-82c1781a9d53","ios":"levelo://app?vid=0e8a0dae-7571-4a83-a917-82c1781a9d53"},"vehicle_type_id":"4","last_reported":1746904063,"current_range_meters":11600,"station_id":"ce4bgth2rcd13ifvqch0","pricing_plan_id":"cebpf4jnsgd1na2vs0mg"},{"bike_id":"69458333-e1a2-42ed-9c21-e5ae1dede817","system_id":"levelo_inurba_marseille","lat":43.275,"lon":5.42448,"is_reserved":false,"is_disabled":false,"rental_uris":{"android":"levelo://app?vid=69458333-e1a2-42ed-9c21-e5ae1dede817","ios":"levelo://app?vid=69458333-e1a2-42ed-9c21-e5ae1dede817"},"vehicle_type_id":"4","last_reported":1746904063,"current_range_meters":12000,"station_id":"ce4bhn92rcd13ifvqgrg","pricing_plan_id":"cebpf4jnsgd1na2vs0mg"},{"bike_id":"9c875cf8-c7b0-4ffc-8f74-57e1d50e1b9a","system_id":"levelo_inurba_marseille","lat":43.28697,"lon":5.39983,"is_reserved":false,"is_disabled":false,"rental_uris":{"android":"levelo://app?vid=9c875cf8-c7b0-4ffc-8f74-57e1d50e1b9a","ios":"levelo://app?vid=9c875cf8-c7b0-4ffc-8f74-57e1d50e1b9a"},"vehicle_type_id":"4","last_reported":1746904063,"current_range_meters":12000,"station_id":"ce4bho92rcd13ifvqh3g","pricing_plan_id":"cebpf4jnsgd1na2vs0mg"},{"bike_id":"733004fb-6040-48ee-a055-0030e2dc6ad0","system_id":"levelo_inurba_marseille","lat":43.27177,"lon":5.40981,"is_reserved":false,"is_disabled":false,"rental_uris":{"android":"levelo://app?vid=733004fb-6040-48ee-a055-0030e2dc6ad0","ios":"levelo://app?vid=733004fb-6040-48ee-a055-0030e2dc6ad0"},"vehicle_type_id":"4","last_reported":1746904063,"current_range_meters":12000,"station_id":"ce4bhl12rcd13ifvqgf0","pricing_plan_id":"cebpf4jnsgd1na2vs0mg"},{"bike_id":"b59fd462-0fa0-468e-bc43-f520ecbd6b50","system_id":"levelo_inurba_marseille","lat":43.28563,"lon":5.39502,"is_reserved":false,"is_disabled":false,"rental_uris":{"android":"levelo://app?vid=b59fd462-0fa0-468e-bc43-f520ecbd6b50","ios":"levelo://app?vid=b59fd462-0fa0-468e-bc43-f520ecbd6b50"},"vehicle_type_id":"4","last_reported":1746904063,"current_range_meters":12000,"station_id":"ce4bh292rcd13ifvqdg0","pricing_plan_id":"cebpf4jnsgd1na2vs0mg"},{"bike_id":"c15c1e45-e3f2-4b16-853f-a42e6c07b902","system_id":"levelo_inurba_marseille","lat":43.29285,"lon":5.40125,"is_reserved":false,"is_disabled":false,"rental_uris":{"android":"levelo://app?vid=c15c1e45-e3f2-4b16-853f-a42e6c07b902","ios":"levelo://app?vid=c15c1e45-e3f2-4b16-853f-a42e6c07b902"},"vehicle_type_id":"4","last_reported":1746904063,"current_range_meters":11600,"station_id":"ce4bh312rcd13ifvqdk0","pricing_plan_id":"cebpf4jnsgd1na2vs0mg"},{"bike_id":"1d83476a-9395-4e91-90b3-3098d854b2b3","system_id":"levelo_inurba_marseille","lat":43.29245,"lon":5.38449,"is_reserved":false,"is_disabled":true,"rental_uris":{"android":"levelo://app?vid=1d83476a-9395-4e91-90b3-3098d854b2b3","ios":"levelo://app?vid=1d83476a-9395-4e91-90b3-3098d854b2b3"},"vehicle_type_id":"4","last_reported":1746904063,"current_range_meters":12000,"station_id":"ce4bh692rcd13ifvqea0","pricing_plan_id":"cebpf4jnsgd1na2vs0mg"},{"bike_id":"48f7a813-470b-434d-8825-9e00bb9e5657","system_id":"levelo_inurba_marseille","lat":43.28342,"lon":5.3809,"is_reserved":false,"is_disabled":false,"rental_uris":{"android":"levelo://app?vid=48f7a813-470b-434d-8825-9e00bb9e5657","ios":"levelo://app?vid=48f7a813-470b-434d-8825-9e00bb9e5657"},"vehicle_type_id":"4","last_reported":1746904063,"current_range_meters":12000,"station_id":"ce4bh412rcd13ifvqdr0","pricing_plan_id":"cebpf4jnsgd1na2vs0mg"},{"bike_id":"6ef17d4a-3acf-4136-a3aa-30df54bf330a","system_id":"levelo_inurba_marseille","lat":43.30682,"lon":5.36779,"is_reserved":false,"is_disabled":false,"rental_uris":{"android":"levelo://app?vid=6ef17d4a-3acf-4136-a3aa-30df54bf330a","ios":"levelo://app?vid=6ef17d4a-3acf-4136-a3aa-30df54bf330a"},"vehicle_type_id":"4","last_reported":1746904063,"current_range_meters":12000,"station_id":"","pricing_plan_id":"cebpf4jnsgd1na2vs0mg"},{"bike_id":"7829d0d1-7925-4782-a39f-d64189d89000","system_id":"levelo_inurba_marseille","lat":43.29091,"lon":5.38129,"is_reserved":false,"is_disabled":false,"rental_uris":{"android":"levelo://app?vid=7829d0d1-7925-4782-a39f-d64189d89000","ios":"levelo://app?vid=7829d0d1-7925-4782-a39f-d64189d89000"},"vehicle_type_id":"4","last_reported":1746904063,"current_range_meters":12000,"station_id":"ce4bh512rcd13ifvqe2g","pricing_plan_id":"cebpf4jnsgd1na2vs0mg"},{"bike_id":"6c18be5b-b6c3-4f8a-8e99-a327b208a464","system_id":"levelo_inurba_marseille","lat":43.27665,"lon":5.38935,"is_reserved":false,"is_disabled":false,"rental_uris":{"android":"levelo://app?vid=6c18be5b-b6c3-4f8a-8e99-a327b208a464","ios":"levelo://app?vid=6c18be5b-b6c3-4f8a-8e99-a327b208a464"},"vehicle_type_id":"4","last_reported":1746904063,"current_range_meters":12000,"station_id":"ce4bhi12rcd13ifvqfo0","pricing_plan_id":"cebpf4jnsgd1na2vs0mg"},{"bike_id":"2dd3a73c-c0bd-4ec9-ac83-398f9678a043","system_id":"levelo_inurba_marseille","lat":43.28086,"lon":5.39645,"is_reserved":false,"is_disabled":false,"rental_uris":{"android":"levelo://app?vid=2dd3a73c-c0bd-4ec9-ac83-398f9678a043","ios":"levelo://app?vid=2dd3a73c-c0bd-4ec9-ac83-398f9678a043"},"vehicle_type_id":"4","last_reported":1746904063,"current_range_meters":12000,"station_id":"ce4bho12rcd13ifvqh2g","pricing_plan_id":"cebpf4jnsgd1na2vs0mg"},{"bike_id":"08eb142c-ea6d-4b4c-8e36-098750e6908f","system_id":"levelo_inurba_marseille","lat":43.2995,"lon":5.3655,"is_reserved":false,"is_disabled":false,"rental_uris":{"android":"levelo://app?vid=08eb142c-ea6d-4b4c-8e36-098750e6908f","ios":"levelo://app?vid=08eb142c-ea6d-4b4c-8e36-098750e6908f"},"vehicle_type_id":"4","last_reported":1746904063,"current_range_meters":12400,"station_id":"ce4bgm92rcd13ifvqbr0","pricing_plan_id":"cebpf4jnsgd1na2vs0mg"},{"bike_id":"4370d2c2-9089-4d31-8def-37224592d420","system_id":"levelo_inurba_marseille","lat":43.29621,"lon":5.37159,"is_reserved":false,"is_disabled":false,"rental_uris":{"android":"levelo://app?vid=4370d2c2-9089-4d31-8def-37224592d420","ios":"levelo://app?vid=4370d2c2-9089-4d31-8def-37224592d420"},"vehicle_type_id":"4","last_reported":1746904063,"current_range_meters":12400,"station_id":"ce4bgnh2rcd13ifvqc0g","pricing_plan_id":"cebpf4jnsgd1na2vs0mg"},{"bike_id":"d381525b-3c1a-40b2-95c6-6d6dde4e7bd2","system_id":"levelo_inurba_marseille","lat":43.2954,"lon":5.38543,"is_reserved":false,"is_disabled":false,"rental_uris":{"android":"levelo://app?vid=d381525b-3c1a-40b2-95c6-6d6dde4e7bd2","ios":"levelo://app?vid=d381525b-3c1a-40b2-95c6-6d6dde4e7bd2"},"vehicle_type_id":"4","last_reported":1746904063,"current_range_meters":12800,"station_id":"ce4bgih2rcd13ifvqba0","pricing_plan_id":"cebpf4jnsgd1na2vs0mg"},{"bike_id":"08ac1692-3fa1-4274-8d26-1e14be1a3945","system_id":"levelo_inurba_marseille","lat":43.28445,"lon":5.39205,"is_reserved":false,"is_disabled":false,"rental_uris":{"android":"levelo://app?vid=08ac1692-3fa1-4274-8d26-1e14be1a3945","ios":"levelo://app?vid=08ac1692-3fa1-4274-8d26-1e14be1a3945"},"vehicle_type_id":"4","last_reported":1746904063,"current_range_meters":12800,"station_id":"ce4bhoh2rcd13ifvqh5g","pricing_plan_id":"cebpf4jnsgd1na2vs0mg"},{"bike_id":"a62642d9-4ded-4dc7-a5a5-a8f2d1bc81a8","system_id":"levelo_inurba_marseille","lat":43.30786,"lon":5.37648,"is_reserved":false,"is_disabled":false,"rental_uris":{"android":"levelo://app?vid=a62642d9-4ded-4dc7-a5a5-a8f2d1bc81a8","ios":"levelo://app?vid=a62642d9-4ded-4dc7-a5a5-a8f2d1bc81a8"},"vehicle_type_id":"4","last_reported":1746904063,"current_range_meters":12800,"station_id":"ce4bgv92rcd13ifvqcq0","pricing_plan_id":"cebpf4jnsgd1na2vs0mg"},{"bike_id":"b5ca2273-87de-44b9-8ee0-72141837d24d","system_id":"levelo_inurba_marseille","lat":43.305359,"lon":5.365586,"is_reserved":false,"is_disabled":false,"rental_uris":{"android":"levelo://app?vid=b5ca2273-87de-44b9-8ee0-72141837d24d","ios":"levelo://app?vid=b5ca2273-87de-44b9-8ee0-72141837d24d"},"vehicle_type_id":"4","last_reported":1746904063,"current_range_meters":11200,"station_id":"","pricing_plan_id":"cebpf4jnsgd1na2vs0mg"},{"bike_id":"7b1a19d4-5ed3-40d5-98f4-94cde2e26552","system_id":"levelo_inurba_marseille","lat":43.29025,"lon":5.38627,"is_reserved":false,"is_disabled":false,"rental_uris":{"android":"levelo://app?vid=7b1a19d4-5ed3-40d5-98f4-94cde2e26552","ios":"levelo://app?vid=7b1a19d4-5ed3-40d5-98f4-94cde2e26552"},"vehicle_type_id":"4","last_reported":1746904063,"current_range_meters":12800,"station_id":"ce4bh4p2rcd13ifvqe0g","pricing_plan_id":"cebpf4jnsgd1na2vs0mg"},{"bike_id":"fc2577e7-1497-425b-9d4f-ab8d7dc843c6","system_id":"levelo_inurba_marseille","lat":43.33771,"lon":5.37485,"is_reserved":false,"is_disabled":false,"rental_uris":{"android":"levelo://app?vid=fc2577e7-1497-425b-9d4f-ab8d7dc843c6","ios":"levelo://app?vid=fc2577e7-1497-425b-9d4f-ab8d7dc843c6"},"vehicle_type_id":"4","last_reported":1746904063,"current_range_meters":13600,"station_id":"","pricing_plan_id":"cebpf4jnsgd1na2vs0mg"},{"bike_id":"cf06a58c-6b90-4ee6-b7ff-5b33ec523703","system_id":"levelo_inurba_marseille","lat":43.286,"lon":5.41271,"is_reserved":false,"is_disabled":false,"rental_uris":{"android":"levelo://app?vid=cf06a58c-6b90-4ee6-b7ff-5b33ec523703","ios":"levelo://app?vid=cf06a58c-6b90-4ee6-b7ff-5b33ec523703"},"vehicle_type_id":"4","last_reported":1746904063,"current_range_meters":13600,"station_id":"","pricing_plan_id":"cebpf4jnsgd1na2vs0mg"},{"bike_id":"1139af0c-b31d-4f8c-8bce-4e3cbe8e5101","system_id":"levelo_inurba_marseille","lat":43.291615,"lon":5.371556,"is_reserved":false,"is_disabled":false,"rental_uris":{"android":"levelo://app?vid=1139af0c-b31d-4f8c-8bce-4e3cbe8e5101","ios":"levelo://app?vid=1139af0c-b31d-4f8c-8bce-4e3cbe8e5101"},"vehicle_type_id":"4","last_reported":1746904063,"current_range_meters":13600,"station_id":"ce4bha92rcd13ifvqeh0","pricing_plan_id":"cebpf4jnsgd1na2vs0mg"},{"bike_id":"ea1862f6-7492-403f-99d4-9b69c5a5fea8","system_id":"levelo_inurba_marseille","lat":43.313282,"lon":5.396896,"is_reserved":false,"is_disabled":false,"rental_uris":{"android":"levelo://app?vid=ea1862f6-7492-403f-99d4-9b69c5a5fea8","ios":"levelo://app?vid=ea1862f6-7492-403f-99d4-9b69c5a5fea8"},"vehicle_type_id":"4","last_reported":1746904063,"current_range_meters":13600,"station_id":"","pricing_plan_id":"cebpf4jnsgd1na2vs0mg"},{"bike_id":"82e7e7d3-89cd-48b8-9813-75f25efdf337","system_id":"levelo_inurba_marseille","lat":43.31688,"lon":5.40473,"is_reserved":false,"is_disabled":false,"rental_uris":{"android":"levelo://app?vid=82e7e7d3-89cd-48b8-9813-75f25efdf337","ios":"levelo://app?vid=82e7e7d3-89cd-48b8-9813-75f25efdf337"},"vehicle_type_id":"4","last_reported":1746904063,"current_range_meters":13600,"station_id":"ce4bh012rcd13ifvqd00","pricing_plan_id":"cebpf4jnsgd1na2vs0mg"},{"bike_id":"9cf7e26f-7f8a-48e5-9831-1ca4909a0e3a","system_id":"levelo_inurba_marseille","lat":43.31361,"lon":5.3673,"is_reserved":false,"is_disabled":false,"rental_uris":{"android":"levelo://app?vid=9cf7e26f-7f8a-48e5-9831-1ca4909a0e3a","ios":"levelo://app?vid=9cf7e26f-7f8a-48e5-9831-1ca4909a0e3a"},"vehicle_type_id":"4","last_reported":1746904063,"current_range_meters":13600,"station_id":"ce4bgr92rcd13ifvqc6g","pricing_plan_id":"cebpf4jnsgd1na2vs0mg"},{"bike_id":"c26bbc1e-385c-453e-962a-970224af53c5","system_id":"levelo_inurba_marseille","lat":43.286094,"lon":5.370601,"is_reserved":false,"is_disabled":false,"rental_uris":{"android":"levelo://app?vid=c26bbc1e-385c-453e-962a-970224af53c5","ios":"levelo://app?vid=c26bbc1e-385c-453e-962a-970224af53c5"},"vehicle_type_id":"4","last_reported":1746904063,"current_range_meters":14000,"station_id":"","pricing_plan_id":"cebpf4jnsgd1na2vs0mg"},{"bike_id":"87791b38-7ce7-4a82-bcee-0ddbcf0944bb","system_id":"levelo_inurba_marseille","lat":43.2318,"lon":5.39976,"is_reserved":false,"is_disabled":false,"rental_uris":{"android":"levelo://app?vid=87791b38-7ce7-4a82-bcee-0ddbcf0944bb","ios":"levelo://app?vid=87791b38-7ce7-4a82-bcee-0ddbcf0944bb"},"vehicle_type_id":"4","last_reported":1746904063,"current_range_meters":14000,"station_id":"ce4bhn12rcd13ifvqgqg","pricing_plan_id":"cebpf4jnsgd1na2vs0mg"},{"bike_id":"7f5db29b-b65f-4785-a7e0-5fa600da4b18","system_id":"levelo_inurba_marseille","lat":43.26498,"lon":5.39536,"is_reserved":false,"is_disabled":false,"rental_uris":{"android":"levelo://app?vid=7f5db29b-b65f-4785-a7e0-5fa600da4b18","ios":"levelo://app?vid=7f5db29b-b65f-4785-a7e0-5fa600da4b18"},"vehicle_type_id":"4","last_reported":1746904063,"current_range_meters":14000,"station_id":"ce4bhi12rcd13ifvqfq0","pricing_plan_id":"cebpf4jnsgd1na2vs0mg"},{"bike_id":"990a0884-9886-4fc4-82cd-d5d184c7ebb4","system_id":"levelo_inurba_marseille","lat":43.24167,"lon":5.36395,"is_reserved":false,"is_disabled":false,"rental_uris":{"android":"levelo://app?vid=990a0884-9886-4fc4-82cd-d5d184c7ebb4","ios":"levelo://app?vid=990a0884-9886-4fc4-82cd-d5d184c7ebb4"},"vehicle_type_id":"4","last_reported":1746904063,"current_range_meters":14400,"station_id":"cpo36qri1sfpv3e86is0","pricing_plan_id":"cebpf4jnsgd1na2vs0mg"},{"bike_id":"aedf6010-b688-4817-9327-68b401cb1f49","system_id":"levelo_inurba_marseille","lat":43.2319,"lon":5.3997,"is_reserved":false,"is_disabled":false,"rental_uris":{"android":"levelo://app?vid=aedf6010-b688-4817-9327-68b401cb1f49","ios":"levelo://app?vid=aedf6010-b688-4817-9327-68b401cb1f49"},"vehicle_type_id":"4","last_reported":1746904063,"current_range_meters":14400,"station_id":"ce4bhn12rcd13ifvqgqg","pricing_plan_id":"cebpf4jnsgd1na2vs0mg"},{"bike_id":"7df22158-3036-459a-aafc-93dd23ca51ed","system_id":"levelo_inurba_marseille","lat":43.30145,"lon":5.37416,"is_reserved":false,"is_disabled":false,"rental_uris":{"android":"levelo://app?vid=7df22158-3036-459a-aafc-93dd23ca51ed","ios":"levelo://app?vid=7df22158-3036-459a-aafc-93dd23ca51ed"},"vehicle_type_id":"4","last_reported":1746904063,"current_range_meters":14400,"station_id":"ce4bgs92rcd13ifvqcc0","pricing_plan_id":"cebpf4jnsgd1na2vs0mg"},{"bike_id":"b222ace3-ab88-460b-b1d6-41e908211cad","system_id":"levelo_inurba_marseille","lat":43.21726,"lon":5.34599,"is_reserved":false,"is_disabled":true,"rental_uris":{"android":"levelo://app?vid=b222ace3-ab88-460b-b1d6-41e908211cad","ios":"levelo://app?vid=b222ace3-ab88-460b-b1d6-41e908211cad"},"vehicle_type_id":"4","last_reported":1746904063,"current_range_meters":14800,"station_id":"st_cvj6r9ubvosntc0bgbag","pricing_plan_id":"cebpf4jnsgd1na2vs0mg"},{"bike_id":"4de7fe50-aff9-4e5c-8538-47ad67a8d8cb","system_id":"levelo_inurba_marseille","lat":43.27356,"lon":5.39142,"is_reserved":false,"is_disabled":false,"rental_uris":{"android":"levelo://app?vid=4de7fe50-aff9-4e5c-8538-47ad67a8d8cb","ios":"levelo://app?vid=4de7fe50-aff9-4e5c-8538-47ad67a8d8cb"},"vehicle_type_id":"4","last_reported":1746904063,"current_range_meters":14800,"station_id":"","pricing_plan_id":"cebpf4jnsgd1na2vs0mg"},{"bike_id":"47ca661d-8009-483a-888d-bfe8342c8a25","system_id":"levelo_inurba_marseille","lat":43.2695,"lon":5.3864,"is_reserved":false,"is_disabled":false,"rental_uris":{"android":"levelo://app?vid=47ca661d-8009-483a-888d-bfe8342c8a25","ios":"levelo://app?vid=47ca661d-8009-483a-888d-bfe8342c8a25"},"vehicle_type_id":"4","last_reported":1746904063,"current_range_meters":14800,"station_id":"ce4bhh92rcd13ifvqfh0","pricing_plan_id":"cebpf4jnsgd1na2vs0mg"},{"bike_id":"6287b388-2224-4c72-ad0b-aa276bf12f11","system_id":"levelo_inurba_marseille","lat":43.27187,"lon":5.40973,"is_reserved":false,"is_disabled":false,"rental_uris":{"android":"levelo://app?vid=6287b388-2224-4c72-ad0b-aa276bf12f11","ios":"levelo://app?vid=6287b388-2224-4c72-ad0b-aa276bf12f11"},"vehicle_type_id":"4","last_reported":1746904063,"current_range_meters":14800,"station_id":"ce4bhl12rcd13ifvqgf0","pricing_plan_id":"cebpf4jnsgd1na2vs0mg"},{"bike_id":"8e605c98-9358-45c6-bda3-146988ce556e","system_id":"levelo_inurba_marseille","lat":43.28632,"lon":5.37043,"is_reserved":false,"is_disabled":false,"rental_uris":{"android":"levelo://app?vid=8e605c98-9358-45c6-bda3-146988ce556e","ios":"levelo://app?vid=8e605c98-9358-45c6-bda3-146988ce556e"},"vehicle_type_id":"4","last_reported":1746904063,"current_range_meters":14800,"station_id":"ce4bht12rcd13ifvqi60","pricing_plan_id":"cebpf4jnsgd1na2vs0mg"},{"bike_id":"7c298afa-9a67-4bbb-bd53-03c23e889d1b","system_id":"levelo_inurba_marseille","lat":43.28077,"lon":5.39658,"is_reserved":false,"is_disabled":false,"rental_uris":{"android":"levelo://app?vid=7c298afa-9a67-4bbb-bd53-03c23e889d1b","ios":"levelo://app?vid=7c298afa-9a67-4bbb-bd53-03c23e889d1b"},"vehicle_type_id":"4","last_reported":1746904063,"current_range_meters":14800,"station_id":"ce4bho12rcd13ifvqh2g","pricing_plan_id":"cebpf4jnsgd1na2vs0mg"},{"bike_id":"3dbaedf2-3403-45e2-8a3c-9787af903680","system_id":"levelo_inurba_marseille","lat":43.29413,"lon":5.38636,"is_reserved":false,"is_disabled":false,"rental_uris":{"android":"levelo://app?vid=3dbaedf2-3403-45e2-8a3c-9787af903680","ios":"levelo://app?vid=3dbaedf2-3403-45e2-8a3c-9787af903680"},"vehicle_type_id":"4","last_reported":1746904063,"current_range_meters":14800,"station_id":"ce4bh2h2rcd13ifvqdh0","pricing_plan_id":"cebpf4jnsgd1na2vs0mg"},{"bike_id":"bcd328c7-3ebc-43da-bfbd-b50e007a2930","system_id":"levelo_inurba_marseille","lat":43.30145,"lon":5.37413,"is_reserved":false,"is_disabled":false,"rental_uris":{"android":"levelo://app?vid=bcd328c7-3ebc-43da-bfbd-b50e007a2930","ios":"levelo://app?vid=bcd328c7-3ebc-43da-bfbd-b50e007a2930"},"vehicle_type_id":"4","last_reported":1746904063,"current_range_meters":14800,"station_id":"ce4bgs92rcd13ifvqcc0","pricing_plan_id":"cebpf4jnsgd1na2vs0mg"},{"bike_id":"6d705489-d3d5-4e12-a28e-5d7bb8b109f3","system_id":"levelo_inurba_marseille","lat":43.26839,"lon":5.427695,"is_reserved":false,"is_disabled":false,"rental_uris":{"android":"levelo://app?vid=6d705489-d3d5-4e12-a28e-5d7bb8b109f3","ios":"levelo://app?vid=6d705489-d3d5-4e12-a28e-5d7bb8b109f3"},"vehicle_type_id":"4","last_reported":1746904063,"current_range_meters":15200,"station_id":"","pricing_plan_id":"cebpf4jnsgd1na2vs0mg"},{"bike_id":"a1121b36-b5cd-4dda-96ef-13a3dfaa55e1","system_id":"levelo_inurba_marseille","lat":43.301401,"lon":5.387791,"is_reserved":false,"is_disabled":false,"rental_uris":{"android":"levelo://app?vid=a1121b36-b5cd-4dda-96ef-13a3dfaa55e1","ios":"levelo://app?vid=a1121b36-b5cd-4dda-96ef-13a3dfaa55e1"},"vehicle_type_id":"4","last_reported":1746904063,"current_range_meters":15200,"station_id":"","pricing_plan_id":"cebpf4jnsgd1na2vs0mg"},{"bike_id":"ba0d7966-e179-4330-981f-b6b9afadb150","system_id":"levelo_inurba_marseille","lat":43.27808,"lon":5.39219,"is_reserved":false,"is_disabled":false,"rental_uris":{"android":"levelo://app?vid=ba0d7966-e179-4330-981f-b6b9afadb150","ios":"levelo://app?vid=ba0d7966-e179-4330-981f-b6b9afadb150"},"vehicle_type_id":"4","last_reported":1746904063,"current_range_meters":14800,"station_id":"ce4bhjp2rcd13ifvqga0","pricing_plan_id":"cebpf4jnsgd1na2vs0mg"},{"bike_id":"96ea79b2-16a0-4b5d-b5f8-65cc1f5ee5f1","system_id":"levelo_inurba_marseille","lat":43.29532,"lon":5.38535,"is_reserved":false,"is_disabled":false,"rental_uris":{"android":"levelo://app?vid=96ea79b2-16a0-4b5d-b5f8-65cc1f5ee5f1","ios":"levelo://app?vid=96ea79b2-16a0-4b5d-b5f8-65cc1f5ee5f1"},"vehicle_type_id":"4","last_reported":1746904063,"current_range_meters":15200,"station_id":"ce4bgih2rcd13ifvqba0","pricing_plan_id":"cebpf4jnsgd1na2vs0mg"},{"bike_id":"6add2d36-61c6-46c1-a56e-696306c1bd19","system_id":"levelo_inurba_marseille","lat":43.233639,"lon":5.360701,"is_reserved":false,"is_disabled":false,"rental_uris":{"android":"levelo://app?vid=6add2d36-61c6-46c1-a56e-696306c1bd19","ios":"levelo://app?vid=6add2d36-61c6-46c1-a56e-696306c1bd19"},"vehicle_type_id":"4","last_reported":1746904063,"current_range_meters":15200,"station_id":"","pricing_plan_id":"cebpf4jnsgd1na2vs0mg"},{"bike_id":"6663a384-abed-48bd-861f-d563c5fcecd4","system_id":"levelo_inurba_marseille","lat":43.28439,"lon":5.34982,"is_reserved":false,"is_disabled":true,"rental_uris":{"android":"levelo://app?vid=6663a384-abed-48bd-861f-d563c5fcecd4","ios":"levelo://app?vid=6663a384-abed-48bd-861f-d563c5fcecd4"},"vehicle_type_id":"4","last_reported":1746904063,"current_range_meters":16000,"station_id":"ce4bhbh2rcd13ifvqepg","pricing_plan_id":"cebpf4jnsgd1na2vs0mg"},{"bike_id":"1679782c-f76d-4dcd-ab99-8d54f79dfd91","system_id":"levelo_inurba_marseille","lat":43.28073,"lon":5.39657,"is_reserved":false,"is_disabled":false,"rental_uris":{"android":"levelo://app?vid=1679782c-f76d-4dcd-ab99-8d54f79dfd91","ios":"levelo://app?vid=1679782c-f76d-4dcd-ab99-8d54f79dfd91"},"vehicle_type_id":"4","last_reported":1746904063,"current_range_meters":16000,"station_id":"ce4bho12rcd13ifvqh2g","pricing_plan_id":"cebpf4jnsgd1na2vs0mg"},{"bike_id":"cd169fb3-5eb4-4685-a82e-9a6c5d8f17d8","system_id":"levelo_inurba_marseille","lat":43.244,"lon":5.37066,"is_reserved":false,"is_disabled":false,"rental_uris":{"android":"levelo://app?vid=cd169fb3-5eb4-4685-a82e-9a6c5d8f17d8","ios":"levelo://app?vid=cd169fb3-5eb4-4685-a82e-9a6c5d8f17d8"},"vehicle_type_id":"4","last_reported":1746904063,"current_range_meters":16000,"station_id":"ce4bhhh2rcd13ifvqfk0","pricing_plan_id":"cebpf4jnsgd1na2vs0mg"},{"bike_id":"c76b8a91-73b2-43c3-a5d3-c6d8ce88d4a1","system_id":"levelo_inurba_marseille","lat":43.32285,"lon":5.38281,"is_reserved":false,"is_disabled":false,"rental_uris":{"android":"levelo://app?vid=c76b8a91-73b2-43c3-a5d3-c6d8ce88d4a1","ios":"levelo://app?vid=c76b8a91-73b2-43c3-a5d3-c6d8ce88d4a1"},"vehicle_type_id":"4","last_reported":1746904063,"current_range_meters":16000,"station_id":"ce4bhr12rcd13ifvqhqg","pricing_plan_id":"cebpf4jnsgd1na2vs0mg"},{"bike_id":"13b0ccc3-423d-43b4-87ae-0d6ebc4ae8a4","system_id":"levelo_inurba_marseille","lat":43.28926,"lon":5.38399,"is_reserved":false,"is_disabled":false,"rental_uris":{"android":"levelo://app?vid=13b0ccc3-423d-43b4-87ae-0d6ebc4ae8a4","ios":"levelo://app?vid=13b0ccc3-423d-43b4-87ae-0d6ebc4ae8a4"},"vehicle_type_id":"4","last_reported":1746904063,"current_range_meters":16000,"station_id":"ce4bh612rcd13ifvqe6g","pricing_plan_id":"cebpf4jnsgd1na2vs0mg"},{"bike_id":"9f052989-c5e6-45f5-93b0-3f519e90d7f2","system_id":"levelo_inurba_marseille","lat":43.2732,"lon":5.39071,"is_reserved":false,"is_disabled":false,"rental_uris":{"android":"levelo://app?vid=9f052989-c5e6-45f5-93b0-3f519e90d7f2","ios":"levelo://app?vid=9f052989-c5e6-45f5-93b0-3f519e90d7f2"},"vehicle_type_id":"4","last_reported":1746904063,"current_range_meters":16000,"station_id":"ce4bhgp2rcd13ifvqfe0","pricing_plan_id":"cebpf4jnsgd1na2vs0mg"},{"bike_id":"51783eda-50ea-44d4-b07f-c26eff609df2","system_id":"levelo_inurba_marseille","lat":43.29181,"lon":5.39319,"is_reserved":false,"is_disabled":false,"rental_uris":{"android":"levelo://app?vid=51783eda-50ea-44d4-b07f-c26eff609df2","ios":"levelo://app?vid=51783eda-50ea-44d4-b07f-c26eff609df2"},"vehicle_type_id":"4","last_reported":1746904063,"current_range_meters":15200,"station_id":"ce4bh192rcd13ifvqdd0","pricing_plan_id":"cebpf4jnsgd1na2vs0mg"},{"bike_id":"d83b7170-8eed-47c1-b0ec-1140d3a45dea","system_id":"levelo_inurba_marseille","lat":43.30806,"lon":5.43531,"is_reserved":false,"is_disabled":false,"rental_uris":{"android":"levelo://app?vid=d83b7170-8eed-47c1-b0ec-1140d3a45dea","ios":"levelo://app?vid=d83b7170-8eed-47c1-b0ec-1140d3a45dea"},"vehicle_type_id":"4","last_reported":1746904063,"current_range_meters":16000,"station_id":"ce4bhph2rcd13ifvqheg","pricing_plan_id":"cebpf4jnsgd1na2vs0mg"},{"bike_id":"e2434f42-8ebb-4eed-a218-d21bf35b3735","system_id":"levelo_inurba_marseille","lat":43.29755,"lon":5.38116,"is_reserved":false,"is_disabled":true,"rental_uris":{"android":"levelo://app?vid=e2434f42-8ebb-4eed-a218-d21bf35b3735","ios":"levelo://app?vid=e2434f42-8ebb-4eed-a218-d21bf35b3735"},"vehicle_type_id":"4","last_reported":1746904063,"current_range_meters":16400,"station_id":"ce4bgip2rcd13ifvqbb0","pricing_plan_id":"cebpf4jnsgd1na2vs0mg"},{"bike_id":"30977f23-f1f6-4c4e-a317-e649cc3b240b","system_id":"levelo_inurba_marseille","lat":43.27302,"lon":5.39112,"is_reserved":false,"is_disabled":false,"rental_uris":{"android":"levelo://app?vid=30977f23-f1f6-4c4e-a317-e649cc3b240b","ios":"levelo://app?vid=30977f23-f1f6-4c4e-a317-e649cc3b240b"},"vehicle_type_id":"4","last_reported":1746904063,"current_range_meters":16400,"station_id":"ce4bhgp2rcd13ifvqfe0","pricing_plan_id":"cebpf4jnsgd1na2vs0mg"},{"bike_id":"2dbdf915-d2fb-4c36-8994-b53e3db07015","system_id":"levelo_inurba_marseille","lat":43.21739,"lon":5.34614,"is_reserved":false,"is_disabled":true,"rental_uris":{"android":"levelo://app?vid=2dbdf915-d2fb-4c36-8994-b53e3db07015","ios":"levelo://app?vid=2dbdf915-d2fb-4c36-8994-b53e3db07015"},"vehicle_type_id":"4","last_reported":1746904063,"current_range_meters":16400,"station_id":"st_cvj6r9ubvosntc0bgbag","pricing_plan_id":"cebpf4jnsgd1na2vs0mg"},{"bike_id":"414912d1-c40b-4b57-8860-d1b418c7cd47","system_id":"levelo_inurba_marseille","lat":43.28929,"lon":5.38392,"is_reserved":false,"is_disabled":false,"rental_uris":{"android":"levelo://app?vid=414912d1-c40b-4b57-8860-d1b418c7cd47","ios":"levelo://app?vid=414912d1-c40b-4b57-8860-d1b418c7cd47"},"vehicle_type_id":"4","last_reported":1746904063,"current_range_meters":16400,"station_id":"ce4bh612rcd13ifvqe6g","pricing_plan_id":"cebpf4jnsgd1na2vs0mg"},{"bike_id":"39cbee53-d10d-4c11-8d9d-5fb4172be5dd","system_id":"levelo_inurba_marseille","lat":43.24069,"lon":5.37764,"is_reserved":false,"is_disabled":false,"rental_uris":{"android":"levelo://app?vid=39cbee53-d10d-4c11-8d9d-5fb4172be5dd","ios":"levelo://app?vid=39cbee53-d10d-4c11-8d9d-5fb4172be5dd"},"vehicle_type_id":"4","last_reported":1746904063,"current_range_meters":16400,"station_id":"ce4bhnp2rcd13ifvqgvg","pricing_plan_id":"cebpf4jnsgd1na2vs0mg"},{"bike_id":"78bdd65d-acd5-4212-b9ce-1f713fbfe66f","system_id":"levelo_inurba_marseille","lat":43.21196,"lon":5.350953,"is_reserved":false,"is_disabled":true,"rental_uris":{"android":"levelo://app?vid=78bdd65d-acd5-4212-b9ce-1f713fbfe66f","ios":"levelo://app?vid=78bdd65d-acd5-4212-b9ce-1f713fbfe66f"},"vehicle_type_id":"4","last_reported":1746904063,"current_range_meters":16400,"station_id":"st_cvj6sg6p6f1abm77japg","pricing_plan_id":"cebpf4jnsgd1na2vs0mg"},{"bike_id":"86485034-9365-41ea-812a-ff45f90c14e1","system_id":"levelo_inurba_marseille","lat":43.301968,"lon":5.3976,"is_reserved":false,"is_disabled":false,"rental_uris":{"android":"levelo://app?vid=86485034-9365-41ea-812a-ff45f90c14e1","ios":"levelo://app?vid=86485034-9365-41ea-812a-ff45f90c14e1"},"vehicle_type_id":"4","last_reported":1746904063,"current_range_meters":16800,"station_id":"ce4bh0p2rcd13ifvqd80","pricing_plan_id":"cebpf4jnsgd1na2vs0mg"},{"bike_id":"3ee23e34-f925-4037-b233-530d028e6989","system_id":"levelo_inurba_marseille","lat":43.30899,"lon":5.36852,"is_reserved":false,"is_disabled":false,"rental_uris":{"android":"levelo://app?vid=3ee23e34-f925-4037-b233-530d028e6989","ios":"levelo://app?vid=3ee23e34-f925-4037-b233-530d028e6989"},"vehicle_type_id":"4","last_reported":1746904063,"current_range_meters":16800,"station_id":"ce4bgn92rcd13ifvqbvg","pricing_plan_id":"cebpf4jnsgd1na2vs0mg"},{"bike_id":"1825aa05-bd80-4cb8-a38f-04c064338a37","system_id":"levelo_inurba_marseille","lat":43.27815,"lon":5.39222,"is_reserved":false,"is_disabled":false,"rental_uris":{"android":"levelo://app?vid=1825aa05-bd80-4cb8-a38f-04c064338a37","ios":"levelo://app?vid=1825aa05-bd80-4cb8-a38f-04c064338a37"},"vehicle_type_id":"4","last_reported":1746904063,"current_range_meters":16800,"station_id":"ce4bhjp2rcd13ifvqga0","pricing_plan_id":"cebpf4jnsgd1na2vs0mg"},{"bike_id":"21568e96-7644-401b-bdb9-45c0800a88c4","system_id":"levelo_inurba_marseille","lat":43.308,"lon":5.43526,"is_reserved":false,"is_disabled":false,"rental_uris":{"android":"levelo://app?vid=21568e96-7644-401b-bdb9-45c0800a88c4","ios":"levelo://app?vid=21568e96-7644-401b-bdb9-45c0800a88c4"},"vehicle_type_id":"4","last_reported":1746904063,"current_range_meters":16800,"station_id":"ce4bhph2rcd13ifvqheg","pricing_plan_id":"cebpf4jnsgd1na2vs0mg"},{"bike_id":"133a9b21-4ece-4c3b-bf25-b0973ad9a1de","system_id":"levelo_inurba_marseille","lat":43.30266,"lon":5.37676,"is_reserved":false,"is_disabled":false,"rental_uris":{"android":"levelo://app?vid=133a9b21-4ece-4c3b-bf25-b0973ad9a1de","ios":"levelo://app?vid=133a9b21-4ece-4c3b-bf25-b0973ad9a1de"},"vehicle_type_id":"4","last_reported":1746904063,"current_range_meters":16800,"station_id":"ce4bguh2rcd13ifvqcj0","pricing_plan_id":"cebpf4jnsgd1na2vs0mg"},{"bike_id":"fc07ce2f-9404-479d-997a-43e8ffdf3dbf","system_id":"levelo_inurba_marseille","lat":43.287323,"lon":5.373732,"is_reserved":false,"is_disabled":false,"rental_uris":{"android":"levelo://app?vid=fc07ce2f-9404-479d-997a-43e8ffdf3dbf","ios":"levelo://app?vid=fc07ce2f-9404-479d-997a-43e8ffdf3dbf"},"vehicle_type_id":"4","last_reported":1746904063,"current_range_meters":17200,"station_id":"ce4bh3p2rcd13ifvqdq0","pricing_plan_id":"cebpf4jnsgd1na2vs0mg"},{"bike_id":"555e06ff-fb18-49e1-a7d9-2cdad7bf0c5a","system_id":"levelo_inurba_marseille","lat":43.27314,"lon":5.39079,"is_reserved":false,"is_disabled":false,"rental_uris":{"android":"levelo://app?vid=555e06ff-fb18-49e1-a7d9-2cdad7bf0c5a","ios":"levelo://app?vid=555e06ff-fb18-49e1-a7d9-2cdad7bf0c5a"},"vehicle_type_id":"4","last_reported":1746904063,"current_range_meters":16800,"station_id":"ce4bhgp2rcd13ifvqfe0","pricing_plan_id":"cebpf4jnsgd1na2vs0mg"},{"bike_id":"11249c6e-5d7a-4b5b-95fa-24c771b264f2","system_id":"levelo_inurba_marseille","lat":43.2962,"lon":5.38097,"is_reserved":false,"is_disabled":false,"rental_uris":{"android":"levelo://app?vid=11249c6e-5d7a-4b5b-95fa-24c771b264f2","ios":"levelo://app?vid=11249c6e-5d7a-4b5b-95fa-24c771b264f2"},"vehicle_type_id":"4","last_reported":1746904063,"current_range_meters":17200,"station_id":"ce4bgl12rcd13ifvqbo0","pricing_plan_id":"cebpf4jnsgd1na2vs0mg"},{"bike_id":"162408b6-d16c-4703-9abe-aa30e3cc35e8","system_id":"levelo_inurba_marseille","lat":43.29703,"lon":5.36615,"is_reserved":false,"is_disabled":false,"rental_uris":{"android":"levelo://app?vid=162408b6-d16c-4703-9abe-aa30e3cc35e8","ios":"levelo://app?vid=162408b6-d16c-4703-9abe-aa30e3cc35e8"},"vehicle_type_id":"4","last_reported":1746904063,"current_range_meters":17200,"station_id":"ce4bgn12rcd13ifvqbt0","pricing_plan_id":"cebpf4jnsgd1na2vs0mg"},{"bike_id":"eabf14a0-7bd3-4e89-8bac-05906d0f4b2c","system_id":"levelo_inurba_marseille","lat":43.2796,"lon":5.38735,"is_reserved":false,"is_disabled":true,"rental_uris":{"android":"levelo://app?vid=eabf14a0-7bd3-4e89-8bac-05906d0f4b2c","ios":"levelo://app?vid=eabf14a0-7bd3-4e89-8bac-05906d0f4b2c"},"vehicle_type_id":"4","last_reported":1746904063,"current_range_meters":17200,"station_id":"ce4bhg12rcd13ifvqf80","pricing_plan_id":"cebpf4jnsgd1na2vs0mg"},{"bike_id":"7a02d4ef-dbf1-4268-8fbd-97b6c9fc3fd1","system_id":"levelo_inurba_marseille","lat":43.297948,"lon":5.403894,"is_reserved":false,"is_disabled":false,"rental_uris":{"android":"levelo://app?vid=7a02d4ef-dbf1-4268-8fbd-97b6c9fc3fd1","ios":"levelo://app?vid=7a02d4ef-dbf1-4268-8fbd-97b6c9fc3fd1"},"vehicle_type_id":"4","last_reported":1746904063,"current_range_meters":17600,"station_id":"ce4bh112rcd13ifvqd90","pricing_plan_id":"cebpf4jnsgd1na2vs0mg"},{"bike_id":"cc62d2da-5a20-4806-9c3f-389790a326f5","system_id":"levelo_inurba_marseille","lat":43.24398,"lon":5.37056,"is_reserved":false,"is_disabled":true,"rental_uris":{"android":"levelo://app?vid=cc62d2da-5a20-4806-9c3f-389790a326f5","ios":"levelo://app?vid=cc62d2da-5a20-4806-9c3f-389790a326f5"},"vehicle_type_id":"4","last_reported":1746904063,"current_range_meters":17600,"station_id":"ce4bhhh2rcd13ifvqfk0","pricing_plan_id":"cebpf4jnsgd1na2vs0mg"},{"bike_id":"3ac0dda0-9cb3-4e61-9cf3-38d4a20c3868","system_id":"levelo_inurba_marseille","lat":43.3088,"lon":5.39651,"is_reserved":false,"is_disabled":false,"rental_uris":{"android":"levelo://app?vid=3ac0dda0-9cb3-4e61-9cf3-38d4a20c3868","ios":"levelo://app?vid=3ac0dda0-9cb3-4e61-9cf3-38d4a20c3868"},"vehicle_type_id":"4","last_reported":1746904063,"current_range_meters":17600,"station_id":"ce4bh012rcd13ifvqcv0","pricing_plan_id":"cebpf4jnsgd1na2vs0mg"},{"bike_id":"6f76eb7e-61f5-43b4-b5fb-62cffa2fb412","system_id":"levelo_inurba_marseille","lat":43.296,"lon":5.38093,"is_reserved":false,"is_disabled":false,"rental_uris":{"android":"levelo://app?vid=6f76eb7e-61f5-43b4-b5fb-62cffa2fb412","ios":"levelo://app?vid=6f76eb7e-61f5-43b4-b5fb-62cffa2fb412"},"vehicle_type_id":"4","last_reported":1746904063,"current_range_meters":18000,"station_id":"ce4bgl12rcd13ifvqbo0","pricing_plan_id":"cebpf4jnsgd1na2vs0mg"},{"bike_id":"3a3a5a55-e9a4-4f49-a47c-53485b9831fe","system_id":"levelo_inurba_marseille","lat":43.30743,"lon":5.42444,"is_reserved":false,"is_disabled":false,"rental_uris":{"android":"levelo://app?vid=3a3a5a55-e9a4-4f49-a47c-53485b9831fe","ios":"levelo://app?vid=3a3a5a55-e9a4-4f49-a47c-53485b9831fe"},"vehicle_type_id":"4","last_reported":1746904063,"current_range_meters":18000,"station_id":"st_cvj6ca6bvosntc0bfgr0","pricing_plan_id":"cebpf4jnsgd1na2vs0mg"},{"bike_id":"082db1f0-99c6-4f93-a484-bdf136979352","system_id":"levelo_inurba_marseille","lat":43.29427,"lon":5.38631,"is_reserved":false,"is_disabled":false,"rental_uris":{"android":"levelo://app?vid=082db1f0-99c6-4f93-a484-bdf136979352","ios":"levelo://app?vid=082db1f0-99c6-4f93-a484-bdf136979352"},"vehicle_type_id":"4","last_reported":1746904063,"current_range_meters":18000,"station_id":"ce4bh2h2rcd13ifvqdh0","pricing_plan_id":"cebpf4jnsgd1na2vs0mg"},{"bike_id":"6d315fd6-5810-4048-8530-4d241e782811","system_id":"levelo_inurba_marseille","lat":43.30507,"lon":5.39855,"is_reserved":false,"is_disabled":false,"rental_uris":{"android":"levelo://app?vid=6d315fd6-5810-4048-8530-4d241e782811","ios":"levelo://app?vid=6d315fd6-5810-4048-8530-4d241e782811"},"vehicle_type_id":"4","last_reported":1746904063,"current_range_meters":18000,"station_id":"ce4bh092rcd13ifvqd20","pricing_plan_id":"cebpf4jnsgd1na2vs0mg"},{"bike_id":"c8836b8c-f794-4a6b-ac34-9f6a3aa75410","system_id":"levelo_inurba_marseille","lat":43.29253,"lon":5.409,"is_reserved":false,"is_disabled":false,"rental_uris":{"android":"levelo://app?vid=c8836b8c-f794-4a6b-ac34-9f6a3aa75410","ios":"levelo://app?vid=c8836b8c-f794-4a6b-ac34-9f6a3aa75410"},"vehicle_type_id":"4","last_reported":1746904063,"current_range_meters":18000,"station_id":"ce4bh192rcd13ifvqdc0","pricing_plan_id":"cebpf4jnsgd1na2vs0mg"},{"bike_id":"aab0fa1c-0cf6-4d4d-ad18-7cf8bbc66b46","system_id":"levelo_inurba_marseille","lat":43.29024,"lon":5.38128,"is_reserved":false,"is_disabled":false,"rental_uris":{"android":"levelo://app?vid=aab0fa1c-0cf6-4d4d-ad18-7cf8bbc66b46","ios":"levelo://app?vid=aab0fa1c-0cf6-4d4d-ad18-7cf8bbc66b46"},"vehicle_type_id":"4","last_reported":1746904063,"current_range_meters":18000,"station_id":"ce4bh4p2rcd13ifvqe1g","pricing_plan_id":"cebpf4jnsgd1na2vs0mg"},{"bike_id":"178fd83f-9f7b-4529-a00c-76dc3b24a252","system_id":"levelo_inurba_marseille","lat":43.276634,"lon":5.388697,"is_reserved":false,"is_disabled":false,"rental_uris":{"android":"levelo://app?vid=178fd83f-9f7b-4529-a00c-76dc3b24a252","ios":"levelo://app?vid=178fd83f-9f7b-4529-a00c-76dc3b24a252"},"vehicle_type_id":"4","last_reported":1746904063,"current_range_meters":18000,"station_id":"ce4bhi12rcd13ifvqfo0","pricing_plan_id":"cebpf4jnsgd1na2vs0mg"},{"bike_id":"f52c819d-ca4b-4640-b458-b877db1bf990","system_id":"levelo_inurba_marseille","lat":43.2987,"lon":5.40988,"is_reserved":false,"is_disabled":false,"rental_uris":{"android":"levelo://app?vid=f52c819d-ca4b-4640-b458-b877db1bf990","ios":"levelo://app?vid=f52c819d-ca4b-4640-b458-b877db1bf990"},"vehicle_type_id":"4","last_reported":1746904063,"current_range_meters":18800,"station_id":"","pricing_plan_id":"cebpf4jnsgd1na2vs0mg"},{"bike_id":"01c270c2-b58b-435d-bff7-5a4ad360d463","system_id":"levelo_inurba_marseille","lat":43.28142,"lon":5.4034,"is_reserved":false,"is_disabled":false,"rental_uris":{"android":"levelo://app?vid=01c270c2-b58b-435d-bff7-5a4ad360d463","ios":"levelo://app?vid=01c270c2-b58b-435d-bff7-5a4ad360d463"},"vehicle_type_id":"4","last_reported":1746904063,"current_range_meters":18800,"station_id":"","pricing_plan_id":"cebpf4jnsgd1na2vs0mg"},{"bike_id":"3331df1b-f5cb-4a11-a4aa-dc5965792e0a","system_id":"levelo_inurba_marseille","lat":43.24808,"lon":5.37457,"is_reserved":false,"is_disabled":false,"rental_uris":{"android":"levelo://app?vid=3331df1b-f5cb-4a11-a4aa-dc5965792e0a","ios":"levelo://app?vid=3331df1b-f5cb-4a11-a4aa-dc5965792e0a"},"vehicle_type_id":"4","last_reported":1746904063,"current_range_meters":19200,"station_id":"ce4bhgh2rcd13ifvqfb0","pricing_plan_id":"cebpf4jnsgd1na2vs0mg"},{"bike_id":"8eb63ef7-32df-48f1-9969-b430f2960457","system_id":"levelo_inurba_marseille","lat":43.308838,"lon":5.371951,"is_reserved":false,"is_disabled":false,"rental_uris":{"android":"levelo://app?vid=8eb63ef7-32df-48f1-9969-b430f2960457","ios":"levelo://app?vid=8eb63ef7-32df-48f1-9969-b430f2960457"},"vehicle_type_id":"4","last_reported":1746904063,"current_range_meters":18800,"station_id":"ce4bguh2rcd13ifvqckg","pricing_plan_id":"cebpf4jnsgd1na2vs0mg"},{"bike_id":"388dd928-9302-4a08-a079-159a8b07fb9a","system_id":"levelo_inurba_marseille","lat":43.27313,"lon":5.39088,"is_reserved":false,"is_disabled":false,"rental_uris":{"android":"levelo://app?vid=388dd928-9302-4a08-a079-159a8b07fb9a","ios":"levelo://app?vid=388dd928-9302-4a08-a079-159a8b07fb9a"},"vehicle_type_id":"4","last_reported":1746904063,"current_range_meters":18800,"station_id":"ce4bhgp2rcd13ifvqfe0","pricing_plan_id":"cebpf4jnsgd1na2vs0mg"},{"bike_id":"1ba2c5e0-3dc0-457d-8d4d-52cafc00b2d2","system_id":"levelo_inurba_marseille","lat":43.29414,"lon":5.38624,"is_reserved":false,"is_disabled":false,"rental_uris":{"android":"levelo://app?vid=1ba2c5e0-3dc0-457d-8d4d-52cafc00b2d2","ios":"levelo://app?vid=1ba2c5e0-3dc0-457d-8d4d-52cafc00b2d2"},"vehicle_type_id":"4","last_reported":1746904063,"current_range_meters":18800,"station_id":"ce4bh2h2rcd13ifvqdh0","pricing_plan_id":"cebpf4jnsgd1na2vs0mg"},{"bike_id":"81256042-bd80-4a6f-8902-247c04a326f6","system_id":"levelo_inurba_marseille","lat":43.29027,"lon":5.38648,"is_reserved":false,"is_disabled":false,"rental_uris":{"android":"levelo://app?vid=81256042-bd80-4a6f-8902-247c04a326f6","ios":"levelo://app?vid=81256042-bd80-4a6f-8902-247c04a326f6"},"vehicle_type_id":"4","last_reported":1746904063,"current_range_meters":18800,"station_id":"ce4bh4p2rcd13ifvqe0g","pricing_plan_id":"cebpf4jnsgd1na2vs0mg"},{"bike_id":"88c7832d-4930-4fb2-bfa5-bfbbfe85019b","system_id":"levelo_inurba_marseille","lat":43.27818,"lon":5.40707,"is_reserved":false,"is_disabled":false,"rental_uris":{"android":"levelo://app?vid=88c7832d-4930-4fb2-bfa5-bfbbfe85019b","ios":"levelo://app?vid=88c7832d-4930-4fb2-bfa5-bfbbfe85019b"},"vehicle_type_id":"4","last_reported":1746904063,"current_range_meters":18800,"station_id":"ce4bhnh2rcd13ifvqgtg","pricing_plan_id":"cebpf4jnsgd1na2vs0mg"},{"bike_id":"aceb844b-827f-48dc-869d-d3cb9822998b","system_id":"levelo_inurba_marseille","lat":43.29075,"lon":5.37169,"is_reserved":false,"is_disabled":false,"rental_uris":{"android":"levelo://app?vid=aceb844b-827f-48dc-869d-d3cb9822998b","ios":"levelo://app?vid=aceb844b-827f-48dc-869d-d3cb9822998b"},"vehicle_type_id":"4","last_reported":1746904063,"current_range_meters":18800,"station_id":"ce4bh5p2rcd13ifvqe4g","pricing_plan_id":"cebpf4jnsgd1na2vs0mg"},{"bike_id":"5ef9cfa7-87ce-4ad9-bf5e-fdf45a4ebda1","system_id":"levelo_inurba_marseille","lat":43.31109,"lon":5.37777,"is_reserved":false,"is_disabled":false,"rental_uris":{"android":"levelo://app?vid=5ef9cfa7-87ce-4ad9-bf5e-fdf45a4ebda1","ios":"levelo://app?vid=5ef9cfa7-87ce-4ad9-bf5e-fdf45a4ebda1"},"vehicle_type_id":"4","last_reported":1746904063,"current_range_meters":18800,"station_id":"ce4bgt92rcd13ifvqcg0","pricing_plan_id":"cebpf4jnsgd1na2vs0mg"},{"bike_id":"dca52690-8f6b-43b8-9ea8-ddd8a48581e6","system_id":"levelo_inurba_marseille","lat":43.30139,"lon":5.39878,"is_reserved":false,"is_disabled":false,"rental_uris":{"android":"levelo://app?vid=dca52690-8f6b-43b8-9ea8-ddd8a48581e6","ios":"levelo://app?vid=dca52690-8f6b-43b8-9ea8-ddd8a48581e6"},"vehicle_type_id":"4","last_reported":1746904063,"current_range_meters":19200,"station_id":"ce4bh0h2rcd13ifvqd40","pricing_plan_id":"cebpf4jnsgd1na2vs0mg"},{"bike_id":"bc89d190-bb80-43c0-9b0f-e8289aa8d2c3","system_id":"levelo_inurba_marseille","lat":43.28939,"lon":5.39624,"is_reserved":false,"is_disabled":false,"rental_uris":{"android":"levelo://app?vid=bc89d190-bb80-43c0-9b0f-e8289aa8d2c3","ios":"levelo://app?vid=bc89d190-bb80-43c0-9b0f-e8289aa8d2c3"},"vehicle_type_id":"4","last_reported":1746904063,"current_range_meters":18800,"station_id":"ce4bh3h2rcd13ifvqdn0","pricing_plan_id":"cebpf4jnsgd1na2vs0mg"},{"bike_id":"e64b6efa-8ad8-4af7-8d4d-f16b57fe35e2","system_id":"levelo_inurba_marseille","lat":43.28605,"lon":5.37077,"is_reserved":false,"is_disabled":true,"rental_uris":{"android":"levelo://app?vid=e64b6efa-8ad8-4af7-8d4d-f16b57fe35e2","ios":"levelo://app?vid=e64b6efa-8ad8-4af7-8d4d-f16b57fe35e2"},"vehicle_type_id":"4","last_reported":1746904063,"current_range_meters":19200,"station_id":"ce4bht12rcd13ifvqi60","pricing_plan_id":"cebpf4jnsgd1na2vs0mg"},{"bike_id":"fa62e7e5-51a9-4987-bd2c-dcd5b79b7a49","system_id":"levelo_inurba_marseille","lat":43.30559,"lon":5.38411,"is_reserved":false,"is_disabled":false,"rental_uris":{"android":"levelo://app?vid=fa62e7e5-51a9-4987-bd2c-dcd5b79b7a49","ios":"levelo://app?vid=fa62e7e5-51a9-4987-bd2c-dcd5b79b7a49"},"vehicle_type_id":"4","last_reported":1746904063,"current_range_meters":19200,"station_id":"ce4bgg92rcd13ifvqb30","pricing_plan_id":"cebpf4jnsgd1na2vs0mg"},{"bike_id":"050e224e-b8c0-4204-ae1b-a5d5607427d5","system_id":"levelo_inurba_marseille","lat":43.29792,"lon":5.37091,"is_reserved":false,"is_disabled":false,"rental_uris":{"android":"levelo://app?vid=050e224e-b8c0-4204-ae1b-a5d5607427d5","ios":"levelo://app?vid=050e224e-b8c0-4204-ae1b-a5d5607427d5"},"vehicle_type_id":"4","last_reported":1746904063,"current_range_meters":19200,"station_id":"ce4bgop2rcd13ifvqc1g","pricing_plan_id":"cebpf4jnsgd1na2vs0mg"},{"bike_id":"24a90f32-e2de-40bf-b24b-1741dc700616","system_id":"levelo_inurba_marseille","lat":43.31115,"lon":5.37752,"is_reserved":false,"is_disabled":false,"rental_uris":{"android":"levelo://app?vid=24a90f32-e2de-40bf-b24b-1741dc700616","ios":"levelo://app?vid=24a90f32-e2de-40bf-b24b-1741dc700616"},"vehicle_type_id":"4","last_reported":1746904063,"current_range_meters":19200,"station_id":"ce4bgt92rcd13ifvqcg0","pricing_plan_id":"cebpf4jnsgd1na2vs0mg"},{"bike_id":"039defa0-2161-4367-b17b-e8efd18fb81d","system_id":"levelo_inurba_marseille","lat":43.26504,"lon":5.39535,"is_reserved":false,"is_disabled":false,"rental_uris":{"android":"levelo://app?vid=039defa0-2161-4367-b17b-e8efd18fb81d","ios":"levelo://app?vid=039defa0-2161-4367-b17b-e8efd18fb81d"},"vehicle_type_id":"4","last_reported":1746904063,"current_range_meters":19600,"station_id":"ce4bhi12rcd13ifvqfq0","pricing_plan_id":"cebpf4jnsgd1na2vs0mg"},{"bike_id":"9eb45cff-0f92-440d-b5e4-f9f552e30ae0","system_id":"levelo_inurba_marseille","lat":43.28426,"lon":5.34982,"is_reserved":false,"is_disabled":true,"rental_uris":{"android":"levelo://app?vid=9eb45cff-0f92-440d-b5e4-f9f552e30ae0","ios":"levelo://app?vid=9eb45cff-0f92-440d-b5e4-f9f552e30ae0"},"vehicle_type_id":"4","last_reported":1746904063,"current_range_meters":19600,"station_id":"ce4bhbh2rcd13ifvqepg","pricing_plan_id":"cebpf4jnsgd1na2vs0mg"},{"bike_id":"2c1df7c5-e260-4217-8b2b-4fd2de7fe6cd","system_id":"levelo_inurba_marseille","lat":43.31112,"lon":5.3777,"is_reserved":false,"is_disabled":false,"rental_uris":{"android":"levelo://app?vid=2c1df7c5-e260-4217-8b2b-4fd2de7fe6cd","ios":"levelo://app?vid=2c1df7c5-e260-4217-8b2b-4fd2de7fe6cd"},"vehicle_type_id":"4","last_reported":1746904063,"current_range_meters":19600,"station_id":"ce4bgt92rcd13ifvqcg0","pricing_plan_id":"cebpf4jnsgd1na2vs0mg"},{"bike_id":"ea0e5001-4ef7-48eb-9613-499e21600d03","system_id":"levelo_inurba_marseille","lat":43.25436,"lon":5.3756,"is_reserved":false,"is_disabled":true,"rental_uris":{"android":"levelo://app?vid=ea0e5001-4ef7-48eb-9613-499e21600d03","ios":"levelo://app?vid=ea0e5001-4ef7-48eb-9613-499e21600d03"},"vehicle_type_id":"4","last_reported":1746904063,"current_range_meters":19600,"station_id":"ce4bhh12rcd13ifvqff0","pricing_plan_id":"cebpf4jnsgd1na2vs0mg"},{"bike_id":"7c2ede87-bb4a-4f4f-8060-3fc2394aa5b5","system_id":"levelo_inurba_marseille","lat":43.2977,"lon":5.37118,"is_reserved":false,"is_disabled":false,"rental_uris":{"android":"levelo://app?vid=7c2ede87-bb4a-4f4f-8060-3fc2394aa5b5","ios":"levelo://app?vid=7c2ede87-bb4a-4f4f-8060-3fc2394aa5b5"},"vehicle_type_id":"4","last_reported":1746904063,"current_range_meters":20000,"station_id":"ce4bgop2rcd13ifvqc1g","pricing_plan_id":"cebpf4jnsgd1na2vs0mg"},{"bike_id":"f5f4893b-c15d-490b-a84e-091454726c2b","system_id":"levelo_inurba_marseille","lat":43.31535,"lon":5.3804,"is_reserved":false,"is_disabled":false,"rental_uris":{"android":"levelo://app?vid=f5f4893b-c15d-490b-a84e-091454726c2b","ios":"levelo://app?vid=f5f4893b-c15d-490b-a84e-091454726c2b"},"vehicle_type_id":"4","last_reported":1746904063,"current_range_meters":19600,"station_id":"ce4bhsp2rcd13ifvqi50","pricing_plan_id":"cebpf4jnsgd1na2vs0mg"},{"bike_id":"6f33d593-b6b8-45ca-b839-ed5fd0e98215","system_id":"levelo_inurba_marseille","lat":43.212,"lon":5.35065,"is_reserved":false,"is_disabled":true,"rental_uris":{"android":"levelo://app?vid=6f33d593-b6b8-45ca-b839-ed5fd0e98215","ios":"levelo://app?vid=6f33d593-b6b8-45ca-b839-ed5fd0e98215"},"vehicle_type_id":"4","last_reported":1746904063,"current_range_meters":20000,"station_id":"st_cvj6sg6p6f1abm77japg","pricing_plan_id":"cebpf4jnsgd1na2vs0mg"},{"bike_id":"52eedaef-af09-4a65-8f39-8c56dbf450c0","system_id":"levelo_inurba_marseille","lat":43.3059,"lon":5.39362,"is_reserved":false,"is_disabled":false,"rental_uris":{"android":"levelo://app?vid=52eedaef-af09-4a65-8f39-8c56dbf450c0","ios":"levelo://app?vid=52eedaef-af09-4a65-8f39-8c56dbf450c0"},"vehicle_type_id":"4","last_reported":1746904063,"current_range_meters":20400,"station_id":"ce4bh0p2rcd13ifvqd80","pricing_plan_id":"cebpf4jnsgd1na2vs0mg"},{"bike_id":"f348c13f-7599-40b1-b34c-a7f000a4ba6b","system_id":"levelo_inurba_marseille","lat":43.27831,"lon":5.39203,"is_reserved":false,"is_disabled":false,"rental_uris":{"android":"levelo://app?vid=f348c13f-7599-40b1-b34c-a7f000a4ba6b","ios":"levelo://app?vid=f348c13f-7599-40b1-b34c-a7f000a4ba6b"},"vehicle_type_id":"4","last_reported":1746904063,"current_range_meters":21600,"station_id":"ce4bhjp2rcd13ifvqga0","pricing_plan_id":"cebpf4jnsgd1na2vs0mg"},{"bike_id":"015174ae-37b7-4265-9e46-9ccce4ed4685","system_id":"levelo_inurba_marseille","lat":43.31164,"lon":5.38718,"is_reserved":false,"is_disabled":false,"rental_uris":{"android":"levelo://app?vid=015174ae-37b7-4265-9e46-9ccce4ed4685","ios":"levelo://app?vid=015174ae-37b7-4265-9e46-9ccce4ed4685"},"vehicle_type_id":"4","last_reported":1746904063,"current_range_meters":20400,"station_id":"ce4bgv12rcd13ifvqcp0","pricing_plan_id":"cebpf4jnsgd1na2vs0mg"},{"bike_id":"05b93620-c183-4410-b8be-3e04a5f3bbfa","system_id":"levelo_inurba_marseille","lat":43.27604,"lon":5.36115,"is_reserved":false,"is_disabled":false,"rental_uris":{"android":"levelo://app?vid=05b93620-c183-4410-b8be-3e04a5f3bbfa","ios":"levelo://app?vid=05b93620-c183-4410-b8be-3e04a5f3bbfa"},"vehicle_type_id":"4","last_reported":1746904063,"current_range_meters":20000,"station_id":"ce4bgj92rcd13ifvqbe0","pricing_plan_id":"cebpf4jnsgd1na2vs0mg"},{"bike_id":"7ce02930-77aa-45dc-815a-2f4535951246","system_id":"levelo_inurba_marseille","lat":43.28434,"lon":5.39201,"is_reserved":false,"is_disabled":false,"rental_uris":{"android":"levelo://app?vid=7ce02930-77aa-45dc-815a-2f4535951246","ios":"levelo://app?vid=7ce02930-77aa-45dc-815a-2f4535951246"},"vehicle_type_id":"4","last_reported":1746904063,"current_range_meters":20400,"station_id":"ce4bhoh2rcd13ifvqh5g","pricing_plan_id":"cebpf4jnsgd1na2vs0mg"},{"bike_id":"8f359b61-2fe5-4fa9-8af0-259aca39d942","system_id":"levelo_inurba_marseille","lat":43.29258,"lon":5.38446,"is_reserved":false,"is_disabled":false,"rental_uris":{"android":"levelo://app?vid=8f359b61-2fe5-4fa9-8af0-259aca39d942","ios":"levelo://app?vid=8f359b61-2fe5-4fa9-8af0-259aca39d942"},"vehicle_type_id":"4","last_reported":1746904063,"current_range_meters":20800,"station_id":"ce4bh692rcd13ifvqea0","pricing_plan_id":"cebpf4jnsgd1na2vs0mg"},{"bike_id":"a3270441-b57d-466d-835f-4acba3fe7db1","system_id":"levelo_inurba_marseille","lat":43.292633,"lon":5.384402,"is_reserved":false,"is_disabled":false,"rental_uris":{"android":"levelo://app?vid=a3270441-b57d-466d-835f-4acba3fe7db1","ios":"levelo://app?vid=a3270441-b57d-466d-835f-4acba3fe7db1"},"vehicle_type_id":"4","last_reported":1746904063,"current_range_meters":20800,"station_id":"ce4bh692rcd13ifvqea0","pricing_plan_id":"cebpf4jnsgd1na2vs0mg"},{"bike_id":"4762718c-a376-420c-be5d-ae5208641990","system_id":"levelo_inurba_marseille","lat":43.28456,"lon":5.35894,"is_reserved":false,"is_disabled":true,"rental_uris":{"android":"levelo://app?vid=4762718c-a376-420c-be5d-ae5208641990","ios":"levelo://app?vid=4762718c-a376-420c-be5d-ae5208641990"},"vehicle_type_id":"4","last_reported":1746904063,"current_range_meters":20800,"station_id":"ce4bhah2rcd13ifvqei0","pricing_plan_id":"cebpf4jnsgd1na2vs0mg"},{"bike_id":"6c219db5-fc52-485b-bcf2-89ab0ee43f46","system_id":"levelo_inurba_marseille","lat":43.239899,"lon":5.366467,"is_reserved":false,"is_disabled":false,"rental_uris":{"android":"levelo://app?vid=6c219db5-fc52-485b-bcf2-89ab0ee43f46","ios":"levelo://app?vid=6c219db5-fc52-485b-bcf2-89ab0ee43f46"},"vehicle_type_id":"4","last_reported":1746904063,"current_range_meters":20800,"station_id":"ce4bhi12rcd13ifvqfp0","pricing_plan_id":"cebpf4jnsgd1na2vs0mg"},{"bike_id":"8e339ef8-53d8-4d03-9559-3dc7423281b9","system_id":"levelo_inurba_marseille","lat":43.28703,"lon":5.39983,"is_reserved":false,"is_disabled":false,"rental_uris":{"android":"levelo://app?vid=8e339ef8-53d8-4d03-9559-3dc7423281b9","ios":"levelo://app?vid=8e339ef8-53d8-4d03-9559-3dc7423281b9"},"vehicle_type_id":"4","last_reported":1746904063,"current_range_meters":20800,"station_id":"ce4bho92rcd13ifvqh3g","pricing_plan_id":"cebpf4jnsgd1na2vs0mg"},