{"last_updated":1743761463,"ttl":60,"version":"2.2","data":{"bikes":[{"bike_id":"ec4177d1-cd6c-4019-8bde-8d1fccf4db8c","system_id":"levelo_inurba_marseille","lat":43.250874,"lon":5.395173,"is_reserved":false,"is_disabled":false,"rental_uris":{"android":"levelo://app?vid=ec4177d1-cd6c-4019-8bde-8d1fccf4db8c","ios":"levelo://app?vid=ec4177d1-cd6c-4019-8bde-8d1fccf4db8c"},"vehicle_type_id":"4","last_reported":1743761463,"current_range_meters":2800,"station_id":"ce4bhm12rcd13ifvqgkg","pricing_plan_id":"cebpf4jnsgd1na2vs0mg"},{"bike_id":"5c611aa4-ce8b-45e6-90b4-76ba4765914b","system_id":"levelo_inurba_marseille","lat":43.3298,"lon":5.39095,"is_reserved":false,"is_disabled":false,"rental_uris":{"android":"levelo://app?vid=5c611aa4-ce8b-45e6-90b4-76ba4765914b","ios":"levelo://app?vid=5c611aa4-ce8b-45e6-90b4-76ba4765914b"},"vehicle_type_id":"4","last_reported":1743761463,"current_range_meters":2800,"station_id":"","pricing_plan_id":"cebpf4jnsgd1na2vs0mg"},{"bike_id":"78e1caa6-3edc-4d7c-9ffb-48849f711e37","system_id":"levelo_inurba_marseille","lat":43.32677,"lon":5.41001,"is_reserved":false,"is_disabled":false,"rental_uris":{"android":"levelo://app?vid=78e1caa6-3edc-4d7c-9ffb-48849f711e37","ios":"levelo://app?vid=78e1caa6-3edc-4d7c-9ffb-48849f711e37"},"vehicle_type_id":"4","last_reported":1743761463,"current_range_meters":5600,"station_id":"ce4bhpp2rcd13ifvqhgg","pricing_plan_id":"cebpf4jnsgd1na2vs0mg"},{"bike_id":"74f1effd-2815-43e6-8780-8baad517ac23","system_id":"levelo_inurba_marseille","lat":43.23193,"lon":5.35546,"is_reserved":false,"is_disabled":false,"rental_uris":{"android":"levelo://app?vid=74f1effd-2815-43e6-8780-8baad517ac23","ios":"levelo://app?vid=74f1effd-2815-43e6-8780-8baad517ac23"},"vehicle_type_id":"4","last_reported":1743761463,"current_range_meters":3200,"station_id":"ce4bhu92rcd13ifvqi70","pricing_plan_id":"cebpf4jnsgd1na2vs0mg"},{"bike_id":"78795252-521e-4956-9eee-3c067308e89c","system_id":"levelo_inurba_marseille","lat":43.25932,"lon":5.40911,"is_reserved":false,"is_disabled":false,"rental_uris":{"android":"levelo://app?vid=78795252-521e-4956-9eee-3c067308e89c","ios":"levelo://app?vid=78795252-521e-4956-9eee-3c067308e89c"},"vehicle_type_id":"4","last_reported":1743761463,"current_range_meters":3200,"station_id":"ce4bhm92rcd13ifvqglg","pricing_plan_id":"cebpf4jnsgd1na2vs0mg"},{"bike_id":"9684f4b4-207e-41dc-9a54-f1411fe6fae7","system_id":"levelo_inurba_marseille","lat":43.30611,"lon":5.36674,"is_reserved":false,"is_disabled":true,"rental_uris":{"android":"levelo://app?vid=9684f4b4-207e-41dc-9a54-f1411fe6fae7","ios":"levelo://app?vid=9684f4b4-207e-41dc-9a54-f1411fe6fae7"},"vehicle_type_id":"4","last_reported":1743761463,"current_range_meters":3600,"station_id":"","pricing_plan_id":"cebpf4jnsgd1na2vs0mg"},{"bike_id":"76b9d85d-aab6-4666-a965-42a9ab43bde2","system_id":"levelo_inurba_marseille","lat":43.313115,"lon":5.396686,"is_reserved":false,"is_disabled":false,"rental_uris":{"android":"levelo://app?vid=76b9d85d-aab6-4666-a965-42a9ab43bde2","ios":"levelo://app?vid=76b9d85d-aab6-4666-a965-42a9ab43bde2"},"vehicle_type_id":"4","last_reported":1743761463,"current_range_meters":3600,"station_id":"ce4bgvp2rcd13ifvqcu0","pricing_plan_id":"cebpf4jnsgd1na2vs0mg"},{"bike_id":"32a978e0-d0c2-43d4-9b03-19a5c41c27de","system_id":"levelo_inurba_marseille","lat":43.31073,"lon":5.38345,"is_reserved":false,"is_disabled":true,"rental_uris":{"android":"levelo://app?vid=32a978e0-d0c2-43d4-9b03-19a5c41c27de","ios":"levelo://app?vid=32a978e0-d0c2-43d4-9b03-19a5c41c27de"},"vehicle_type_id":"4","last_reported":1743761463,"current_range_meters":3600,"station_id":"ce4bgv92rcd13ifvqcr0","pricing_plan_id":"cebpf4jnsgd1na2vs0mg"},{"bike_id":"9e9fe84a-836d-4df0-ae59-61d55ae1334e","system_id":"levelo_inurba_marseille","lat":43.29293,"lon":5.37454,"is_reserved":false,"is_disabled":false,"rental_uris":{"android":"levelo://app?vid=9e9fe84a-836d-4df0-ae59-61d55ae1334e","ios":"levelo://app?vid=9e9fe84a-836d-4df0-ae59-61d55ae1334e"},"vehicle_type_id":"4","last_reported":1743761463,"current_range_meters":3600,"station_id":"ce4bgi12rcd13ifvqb70","pricing_plan_id":"cebpf4jnsgd1na2vs0mg"},{"bike_id":"c959dc82-cdf6-487f-a7ee-0cb98b2f8bdb","system_id":"levelo_inurba_marseille","lat":43.27612,"lon":5.36108,"is_reserved":false,"is_disabled":false,"rental_uris":{"android":"levelo://app?vid=c959dc82-cdf6-487f-a7ee-0cb98b2f8bdb","ios":"levelo://app?vid=c959dc82-cdf6-487f-a7ee-0cb98b2f8bdb"},"vehicle_type_id":"4","last_reported":1743761463,"current_range_meters":4000,"station_id":"ce4bgj92rcd13ifvqbe0","pricing_plan_id":"cebpf4jnsgd1na2vs0mg"},{"bike_id":"fc1384ca-8b0a-46f5-95db-f15fb8c5c3dd","system_id":"levelo_inurba_marseille","lat":43.29273,"lon":5.36844,"is_reserved":false,"is_disabled":false,"rental_uris":{"android":"levelo://app?vid=fc1384ca-8b0a-46f5-95db-f15fb8c5c3dd","ios":"levelo://app?vid=fc1384ca-8b0a-46f5-95db-f15fb8c5c3dd"},"vehicle_type_id":"4","last_reported":1743761463,"current_range_meters":4000,"station_id":"ce4bhbp2rcd13ifvqesg","pricing_plan_id":"cebpf4jnsgd1na2vs0mg"},{"bike_id":"4fe18947-8c0e-4978-8da4-f845038d0fef","system_id":"levelo_inurba_marseille","lat":43.25494,"lon":5.37646,"is_reserved":false,"is_disabled":false,"rental_uris":{"android":"levelo://app?vid=4fe18947-8c0e-4978-8da4-f845038d0fef","ios":"levelo://app?vid=4fe18947-8c0e-4978-8da4-f845038d0fef"},"vehicle_type_id":"4","last_reported":1743761463,"current_range_meters":4400,"station_id":"ce4bhh12rcd13ifvqff0","pricing_plan_id":"cebpf4jnsgd1na2vs0mg"},{"bike_id":"7a924d82-b478-4a4f-b5e0-6052b04ea19b","system_id":"levelo_inurba_marseille","lat":43.27492,"lon":5.42444,"is_reserved":false,"is_disabled":false,"rental_uris":{"android":"levelo://app?vid=7a924d82-b478-4a4f-b5e0-6052b04ea19b","ios":"levelo://app?vid=7a924d82-b478-4a4f-b5e0-6052b04ea19b"},"vehicle_type_id":"4","last_reported":1743761463,"current_range_meters":4400,"station_id":"ce4bhn92rcd13ifvqgrg","pricing_plan_id":"cebpf4jnsgd1na2vs0mg"},{"bike_id":"fede0e43-1609-4a28-9f97-913c3f149703","system_id":"levelo_inurba_marseille","lat":43.23191,"lon":5.35567,"is_reserved":false,"is_disabled":false,"rental_uris":{"android":"levelo://app?vid=fede0e43-1609-4a28-9f97-913c3f149703","ios":"levelo://app?vid=fede0e43-1609-4a28-9f97-913c3f149703"},"vehicle_type_id":"4","last_reported":1743761463,"current_range_meters":4400,"station_id":"ce4bhu92rcd13ifvqi70","pricing_plan_id":"cebpf4jnsgd1na2vs0mg"},{"bike_id":"7be10ea9-615a-4ee1-96d8-2c48cda5d519","system_id":"levelo_inurba_marseille","lat":43.308903,"lon":5.396614,"is_reserved":false,"is_disabled":false,"rental_uris":{"android":"levelo://app?vid=7be10ea9-615a-4ee1-96d8-2c48cda5d519","ios":"levelo://app?vid=7be10ea9-615a-4ee1-96d8-2c48cda5d519"},"vehicle_type_id":"4","last_reported":1743761463,"current_range_meters":4400,"station_id":"ce4bgvp2rcd13ifvqcu0","pricing_plan_id":"cebpf4jnsgd1na2vs0mg"},{"bike_id":"c060267e-8471-4497-865f-6760088869e9","system_id":"levelo_inurba_marseille","lat":43.27321,"lon":5.39103,"is_reserved":false,"is_disabled":true,"rental_uris":{"android":"levelo://app?vid=c060267e-8471-4497-865f-6760088869e9","ios":"levelo://app?vid=c060267e-8471-4497-865f-6760088869e9"},"vehicle_type_id":"4","last_reported":1743761463,"current_range_meters":4800,"station_id":"ce4bhgp2rcd13ifvqfe0","pricing_plan_id":"cebpf4jnsgd1na2vs0mg"},{"bike_id":"c2e6881a-04a3-4a38-9cc0-75cacf165e78","system_id":"levelo_inurba_marseille","lat":43.28832,"lon":5.364645,"is_reserved":false,"is_disabled":false,"rental_uris":{"android":"levelo://app?vid=c2e6881a-04a3-4a38-9cc0-75cacf165e78","ios":"levelo://app?vid=c2e6881a-04a3-4a38-9cc0-75cacf165e78"},"vehicle_type_id":"4","last_reported":1743761463,"current_range_meters":4800,"station_id":"","pricing_plan_id":"cebpf4jnsgd1na2vs0mg"},{"bike_id":"36599d1d-435b-4b63-b3f7-f2beb0065e55","system_id":"levelo_inurba_marseille","lat":43.30085,"lon":5.39065,"is_reserved":false,"is_disabled":false,"rental_uris":{"android":"levelo://app?vid=36599d1d-435b-4b63-b3f7-f2beb0065e55","ios":"levelo://app?vid=36599d1d-435b-4b63-b3f7-f2beb0065e55"},"vehicle_type_id":"4","last_reported":1743761463,"current_range_meters":4800,"station_id":"ce4bh192rcd13ifvqdb0","pricing_plan_id":"cebpf4jnsgd1na2vs0mg"},{"bike_id":"d3a96a13-4a02-478a-968c-10907d944f94","system_id":"levelo_inurba_marseille","lat":43.307815,"lon":5.376449,"is_reserved":false,"is_disabled":false,"rental_uris":{"android":"levelo://app?vid=d3a96a13-4a02-478a-968c-10907d944f94","ios":"levelo://app?vid=d3a96a13-4a02-478a-968c-10907d944f94"},"vehicle_type_id":"4","last_reported":1743761463,"current_range_meters":9200,"station_id":"ce4bgv92rcd13ifvqcq0","pricing_plan_id":"cebpf4jnsgd1na2vs0mg"},{"bike_id":"15ea3e20-e3c1-434f-8b50-88d1ebba3f71","system_id":"levelo_inurba_marseille","lat":43.23188,"lon":5.35563,"is_reserved":false,"is_disabled":false,"rental_uris":{"android":"levelo://app?vid=15ea3e20-e3c1-434f-8b50-88d1ebba3f71","ios":"levelo://app?vid=15ea3e20-e3c1-434f-8b50-88d1ebba3f71"},"vehicle_type_id":"4","last_reported":1743761463,"current_range_meters":4800,"station_id":"ce4bhu92rcd13ifvqi70","pricing_plan_id":"cebpf4jnsgd1na2vs0mg"},{"bike_id":"e6493a69-74fe-46c4-94bc-64aadce7ce92","system_id":"levelo_inurba_marseille","lat":43.31121,"lon":5.37776,"is_reserved":false,"is_disabled":false,"rental_uris":{"android":"levelo://app?vid=e6493a69-74fe-46c4-94bc-64aadce7ce92","ios":"levelo://app?vid=e6493a69-74fe-46c4-94bc-64aadce7ce92"},"vehicle_type_id":"4","last_reported":1743761463,"current_range_meters":5600,"station_id":"ce4bgt92rcd13ifvqcg0","pricing_plan_id":"cebpf4jnsgd1na2vs0mg"},{"bike_id":"cfac7f2f-9679-4b60-a420-122c25601ef1","system_id":"levelo_inurba_marseille","lat":43.25575,"lon":5.38231,"is_reserved":false,"is_disabled":false,"rental_uris":{"android":"levelo://app?vid=cfac7f2f-9679-4b60-a420-122c25601ef1","ios":"levelo://app?vid=cfac7f2f-9679-4b60-a420-122c25601ef1"},"vehicle_type_id":"4","last_reported":1743761463,"current_range_meters":5600,"station_id":"ce4bhih2rcd13ifvqfs0","pricing_plan_id":"cebpf4jnsgd1na2vs0mg"},{"bike_id":"ba04f01d-7600-45ab-93fb-cdf529bf1a9a","system_id":"levelo_inurba_marseille","lat":43.28616,"lon":5.35102,"is_reserved":false,"is_disabled":false,"rental_uris":{"android":"levelo://app?vid=ba04f01d-7600-45ab-93fb-cdf529bf1a9a","ios":"levelo://app?vid=ba04f01d-7600-45ab-93fb-cdf529bf1a9a"},"vehicle_type_id":"4","last_reported":1743761463,"current_range_meters":5600,"station_id":"ce4bhch2rcd13ifvqeug","pricing_plan_id":"cebpf4jnsgd1na2vs0mg"},{"bike_id":"4c11cef7-d660-4d90-af66-e8b283948f49","system_id":"levelo_inurba_marseille","lat":43.28341,"lon":5.38115,"is_reserved":false,"is_disabled":false,"rental_uris":{"android":"levelo://app?vid=4c11cef7-d660-4d90-af66-e8b283948f49","ios":"levelo://app?vid=4c11cef7-d660-4d90-af66-e8b283948f49"},"vehicle_type_id":"4","last_reported":1743761463,"current_range_meters":5600,"station_id":"ce4bh412rcd13ifvqdr0","pricing_plan_id":"cebpf4jnsgd1na2vs0mg"},{"bike_id":"cd83c8ac-ed09-4369-9279-b6f36f2bbd3c","system_id":"levelo_inurba_marseille","lat":43.337444,"lon":5.374475,"is_reserved":false,"is_disabled":false,"rental_uris":{"android":"levelo://app?vid=cd83c8ac-ed09-4369-9279-b6f36f2bbd3c","ios":"levelo://app?vid=cd83c8ac-ed09-4369-9279-b6f36f2bbd3c"},"vehicle_type_id":"4","last_reported":1743761463,"current_range_meters":6000,"station_id":"","pricing_plan_id":"cebpf4jnsgd1na2vs0mg"},{"bike_id":"76ba226f-3646-4725-80de-03d366341a04","system_id":"levelo_inurba_marseille","lat":43.26929,"lon":5.40264,"is_reserved":false,"is_disabled":false,"rental_uris":{"android":"levelo://app?vid=76ba226f-3646-4725-80de-03d366341a04","ios":"levelo://app?vid=76ba226f-3646-4725-80de-03d366341a04"},"vehicle_type_id":"4","last_reported":1743761463,"current_range_meters":6000,"station_id":"cjm6bp8fraef2m0cb0m0","pricing_plan_id":"cebpf4jnsgd1na2vs0mg"},{"bike_id":"bb546962-1fa1-425a-8552-959fd9ef7dda","system_id":"levelo_inurba_marseille","lat":43.26336,"lon":5.40454,"is_reserved":false,"is_disabled":false,"rental_uris":{"android":"levelo://app?vid=bb546962-1fa1-425a-8552-959fd9ef7dda","ios":"levelo://app?vid=bb546962-1fa1-425a-8552-959fd9ef7dda"},"vehicle_type_id":"4","last_reported":1743761463,"current_range_meters":6000,"station_id":"","pricing_plan_id":"cebpf4jnsgd1na2vs0mg"},{"bike_id":"9abd0061-678a-4c38-9794-14ee9cdd2668","system_id":"levelo_inurba_marseille","lat":43.29931,"lon":5.3655,"is_reserved":false,"is_disabled":false,"rental_uris":{"android":"levelo://app?vid=9abd0061-678a-4c38-9794-14ee9cdd2668","ios":"levelo://app?vid=9abd0061-678a-4c38-9794-14ee9cdd2668"},"vehicle_type_id":"4","last_reported":1743761463,"current_range_meters":6000,"station_id":"ce4bgm92rcd13ifvqbr0","pricing_plan_id":"cebpf4jnsgd1na2vs0mg"},{"bike_id":"62d902fc-c569-47ca-b93f-b88ddc7d0241","system_id":"levelo_inurba_marseille","lat":43.301483,"lon":5.380895,"is_reserved":false,"is_disabled":false,"rental_uris":{"android":"levelo://app?vid=62d902fc-c569-47ca-b93f-b88ddc7d0241","ios":"levelo://app?vid=62d902fc-c569-47ca-b93f-b88ddc7d0241"},"vehicle_type_id":"4","last_reported":1743761463,"current_range_meters":6000,"station_id":"ce4bhh12rcd13ifvqff0","pricing_plan_id":"cebpf4jnsgd1na2vs0mg"},{"bike_id":"2f5ebb33-56ac-48ac-8004-513ec8b3c9df","system_id":"levelo_inurba_marseille","lat":43.25939,"lon":5.40899,"is_reserved":false,"is_disabled":false,"rental_uris":{"android":"levelo://app?vid=2f5ebb33-56ac-48ac-8004-513ec8b3c9df","ios":"levelo://app?vid=2f5ebb33-56ac-48ac-8004-513ec8b3c9df"},"vehicle_type_id":"4","last_reported":1743761463,"current_range_meters":6000,"station_id":"ce4bhm92rcd13ifvqglg","pricing_plan_id":"cebpf4jnsgd1na2vs0mg"},{"bike_id":"b25d5c52-a3b2-4e1d-9f2c-658fc628f8df","system_id":"levelo_inurba_marseille","lat":43.23189,"lon":5.35541,"is_reserved":false,"is_disabled":false,"rental_uris":{"android":"levelo://app?vid=b25d5c52-a3b2-4e1d-9f2c-658fc628f8df","ios":"levelo://app?vid=b25d5c52-a3b2-4e1d-9f2c-658fc628f8df"},"vehicle_type_id":"4","last_reported":1743761463,"current_range_meters":6000,"station_id":"ce4bhu92rcd13ifvqi70","pricing_plan_id":"cebpf4jnsgd1na2vs0mg"},{"bike_id":"9fbe119f-1241-4f45-8413-44d39ffe692e","system_id":"levelo_inurba_marseille","lat":43.26779,"lon":5.39422,"is_reserved":false,"is_disabled":false,"rental_uris":{"android":"levelo://app?vid=9fbe119f-1241-4f45-8413-44d39ffe692e","ios":"levelo://app?vid=9fbe119f-1241-4f45-8413-44d39ffe692e"},"vehicle_type_id":"4","last_reported":1743761463,"current_range_meters":6400,"station_id":"ce4bhh12rcd13ifvqfg0","pricing_plan_id":"cebpf4jnsgd1na2vs0mg"},{"bike_id":"ac50c6eb-48d5-4e3e-9504-f38e66e59012","system_id":"levelo_inurba_marseille","lat":43.28856,"lon":5.39313,"is_reserved":false,"is_disabled":false,"rental_uris":{"android":"levelo://app?vid=ac50c6eb-48d5-4e3e-9504-f38e66e59012","ios":"levelo://app?vid=ac50c6eb-48d5-4e3e-9504-f38e66e59012"},"vehicle_type_id":"4","last_reported":1743761463,"current_range_meters":6400,"station_id":"ce4bh2p2rcd13ifvqdi0","pricing_plan_id":"cebpf4jnsgd1na2vs0mg"},{"bike_id":"960c8f6a-24ae-4fae-b269-0414a39cf5c3","system_id":"levelo_inurba_marseille","lat":43.26679,"lon":5.38266,"is_reserved":false,"is_disabled":false,"rental_uris":{"android":"levelo://app?vid=960c8f6a-24ae-4fae-b269-0414a39cf5c3","ios":"levelo://app?vid=960c8f6a-24ae-4fae-b269-0414a39cf5c3"},"vehicle_type_id":"4","last_reported":1743761463,"current_range_meters":6400,"station_id":"ce4bhg92rcd13ifvqf90","pricing_plan_id":"cebpf4jnsgd1na2vs0mg"},{"bike_id":"51b37761-f4db-4850-a6e4-1f3b516e8001","system_id":"levelo_inurba_marseille","lat":43.23145,"lon":5.43719,"is_reserved":false,"is_disabled":false,"rental_uris":{"android":"levelo://app?vid=51b37761-f4db-4850-a6e4-1f3b516e8001","ios":"levelo://app?vid=51b37761-f4db-4850-a6e4-1f3b516e8001"},"vehicle_type_id":"4","last_reported":1743761463,"current_range_meters":6400,"station_id":"ce4bhmp2rcd13ifvqgog","pricing_plan_id":"cebpf4jnsgd1na2vs0mg"},{"bike_id":"71e55f99-90e5-4133-8167-5af8b2b35d7e","system_id":"levelo_inurba_marseille","lat":43.23062,"lon":5.35487,"is_reserved":false,"is_disabled":false,"rental_uris":{"android":"levelo://app?vid=71e55f99-90e5-4133-8167-5af8b2b35d7e","ios":"levelo://app?vid=71e55f99-90e5-4133-8167-5af8b2b35d7e"},"vehicle_type_id":"4","last_reported":1743761463,"current_range_meters":6400,"station_id":"cpo3342slgdg3j2ifvpg","pricing_plan_id":"cebpf4jnsgd1na2vs0mg"},{"bike_id":"5eeb5e50-0db0-41c6-afc4-e17fd1bc146e","system_id":"levelo_inurba_marseille","lat":43.31469,"lon":5.37321,"is_reserved":false,"is_disabled":false,"rental_uris":{"android":"levelo://app?vid=5eeb5e50-0db0-41c6-afc4-e17fd1bc146e","ios":"levelo://app?vid=5eeb5e50-0db0-41c6-afc4-e17fd1bc146e"},"vehicle_type_id":"4","last_reported":1743761463,"current_range_meters":6800,"station_id":"ce4bgt12rcd13ifvqcd0","pricing_plan_id":"cebpf4jnsgd1na2vs0mg"},{"bike_id":"1d38907f-1a03-4a46-885f-495106bba42e","system_id":"levelo_inurba_marseille","lat":43.2749,"lon":5.4246,"is_reserved":false,"is_disabled":false,"rental_uris":{"android":"levelo://app?vid=1d38907f-1a03-4a46-885f-495106bba42e","ios":"levelo://app?vid=1d38907f-1a03-4a46-885f-495106bba42e"},"vehicle_type_id":"4","last_reported":1743761463,"current_range_meters":6800,"station_id":"ce4bhn92rcd13ifvqgrg","pricing_plan_id":"cebpf4jnsgd1na2vs0mg"},{"bike_id":"44cca747-cab8-45b9-9521-763aace5d2c2","system_id":"levelo_inurba_marseille","lat":43.304589,"lon":5.380871,"is_reserved":false,"is_disabled":false,"rental_uris":{"android":"levelo://app?vid=44cca747-cab8-45b9-9521-763aace5d2c2","ios":"levelo://app?vid=44cca747-cab8-45b9-9521-763aace5d2c2"},"vehicle_type_id":"4","last_reported":1743761463,"current_range_meters":13600,"station_id":"ce4bh0h2rcd13ifvqd40","pricing_plan_id":"cebpf4jnsgd1na2vs0mg"},{"bike_id":"a70880a3-1373-498c-9ff9-eaca7172bc9c","system_id":"levelo_inurba_marseille","lat":43.29373,"lon":5.37868,"is_reserved":false,"is_disabled":false,"rental_uris":{"android":"levelo://app?vid=a70880a3-1373-498c-9ff9-eaca7172bc9c","ios":"levelo://app?vid=a70880a3-1373-498c-9ff9-eaca7172bc9c"},"vehicle_type_id":"4","last_reported":1743761463,"current_range_meters":6800,"station_id":"ce4bgjh2rcd13ifvqbf0","pricing_plan_id":"cebpf4jnsgd1na2vs0mg"},{"bike_id":"08412614-9a7f-42c5-91c9-6bf43ea0736a","system_id":"levelo_inurba_marseille","lat":43.23147,"lon":5.43713,"is_reserved":false,"is_disabled":false,"rental_uris":{"android":"levelo://app?vid=08412614-9a7f-42c5-91c9-6bf43ea0736a","ios":"levelo://app?vid=08412614-9a7f-42c5-91c9-6bf43ea0736a"},"vehicle_type_id":"4","last_reported":1743761463,"current_range_meters":6800,"station_id":"ce4bhmp2rcd13ifvqgog","pricing_plan_id":"cebpf4jnsgd1na2vs0mg"},{"bike_id":"abe82edf-86d7-443d-8856-ca4748d0da17","system_id":"levelo_inurba_marseille","lat":43.25006,"lon":5.38937,"is_reserved":false,"is_disabled":false,"rental_uris":{"android":"levelo://app?vid=abe82edf-86d7-443d-8856-ca4748d0da17","ios":"levelo://app?vid=abe82edf-86d7-443d-8856-ca4748d0da17"},"vehicle_type_id":"4","last_reported":1743761463,"current_range_meters":6800,"station_id":"ce4bhgp2rcd13ifvqfd0","pricing_plan_id":"cebpf4jnsgd1na2vs0mg"},{"bike_id":"73d854ad-9eb6-4d68-8878-e9b2295ae65a","system_id":"levelo_inurba_marseille","lat":43.23064,"lon":5.35491,"is_reserved":false,"is_disabled":false,"rental_uris":{"android":"levelo://app?vid=73d854ad-9eb6-4d68-8878-e9b2295ae65a","ios":"levelo://app?vid=73d854ad-9eb6-4d68-8878-e9b2295ae65a"},"vehicle_type_id":"4","last_reported":1743761463,"current_range_meters":7200,"station_id":"cpo3342slgdg3j2ifvpg","pricing_plan_id":"cebpf4jnsgd1na2vs0mg"},{"bike_id":"c6d07ef4-9c30-4c79-b39f-76e127e01af6","system_id":"levelo_inurba_marseille","lat":43.28479,"lon":5.3842,"is_reserved":false,"is_disabled":false,"rental_uris":{"android":"levelo://app?vid=c6d07ef4-9c30-4c79-b39f-76e127e01af6","ios":"levelo://app?vid=c6d07ef4-9c30-4c79-b39f-76e127e01af6"},"vehicle_type_id":"4","last_reported":1743761463,"current_range_meters":7200,"station_id":"ce4bh512rcd13ifvqe3g","pricing_plan_id":"cebpf4jnsgd1na2vs0mg"},{"bike_id":"b4cb4e28-e514-44da-9db3-2c7d453900ef","system_id":"levelo_inurba_marseille","lat":43.28192,"lon":5.42673,"is_reserved":false,"is_disabled":false,"rental_uris":{"android":"levelo://app?vid=b4cb4e28-e514-44da-9db3-2c7d453900ef","ios":"levelo://app?vid=b4cb4e28-e514-44da-9db3-2c7d453900ef"},"vehicle_type_id":"4","last_reported":1743761463,"current_range_meters":7200,"station_id":"ce4bhnh2rcd13ifvqgug","pricing_plan_id":"cebpf4jnsgd1na2vs0mg"},{"bike_id":"c13336a2-47ce-488c-b5b6-77c01a3ac1d1","system_id":"levelo_inurba_marseille","lat":43.319036,"lon":5.407416,"is_reserved":false,"is_disabled":true,"rental_uris":{"android":"levelo://app?vid=c13336a2-47ce-488c-b5b6-77c01a3ac1d1","ios":"levelo://app?vid=c13336a2-47ce-488c-b5b6-77c01a3ac1d1"},"vehicle_type_id":"4","last_reported":1743761463,"current_range_meters":7200,"station_id":"ce4bhq12rcd13ifvqhig","pricing_plan_id":"cebpf4jnsgd1na2vs0mg"},{"bike_id":"8d7eab5b-bc43-48f5-9c97-0948b42ca6cf","system_id":"levelo_inurba_marseille","lat":43.22933,"lon":5.35374,"is_reserved":false,"is_disabled":false,"rental_uris":{"android":"levelo://app?vid=8d7eab5b-bc43-48f5-9c97-0948b42ca6cf","ios":"levelo://app?vid=8d7eab5b-bc43-48f5-9c97-0948b42ca6cf"},"vehicle_type_id":"4","last_reported":1743761463,"current_range_meters":7200,"station_id":"cpo3532slgdg3j2ikp40","pricing_plan_id":"cebpf4jnsgd1na2vs0mg"},{"bike_id":"732aaeb5-73b5-4e07-aa9a-a969ee0a5736","system_id":"levelo_inurba_marseille","lat":43.3149,"lon":5.37303,"is_reserved":false,"is_disabled":false,"rental_uris":{"android":"levelo://app?vid=732aaeb5-73b5-4e07-aa9a-a969ee0a5736","ios":"levelo://app?vid=732aaeb5-73b5-4e07-aa9a-a969ee0a5736"},"vehicle_type_id":"4","last_reported":1743761463,"current_range_meters":8000,"station_id":"ce4bgt12rcd13ifvqcd0","pricing_plan_id":"cebpf4jnsgd1na2vs0mg"},{"bike_id":"e3a29d38-a611-4b12-87ef-2fb8a21c41d5","system_id":"levelo_inurba_marseille","lat":43.22931,"lon":5.35363,"is_reserved":false,"is_disabled":false,"rental_uris":{"android":"levelo://app?vid=e3a29d38-a611-4b12-87ef-2fb8a21c41d5","ios":"levelo://app?vid=e3a29d38-a611-4b12-87ef-2fb8a21c41d5"},"vehicle_type_id":"4","last_reported":1743761463,"current_range_meters":8000,"station_id":"cpo3532slgdg3j2ikp40","pricing_plan_id":"cebpf4jnsgd1na2vs0mg"},{"bike_id":"efddeda7-6eb2-4c14-868d-fa0ce0b35ef3","system_id":"levelo_inurba_marseille","lat":43.31288,"lon":5.38261,"is_reserved":false,"is_disabled":false,"rental_uris":{"android":"levelo://app?vid=efddeda7-6eb2-4c14-868d-fa0ce0b35ef3","ios":"levelo://app?vid=efddeda7-6eb2-4c14-868d-fa0ce0b35ef3"},"vehicle_type_id":"4","last_reported":1743761463,"current_range_meters":8000,"station_id":"","pricing_plan_id":"cebpf4jnsgd1na2vs0mg"},{"bike_id":"57291bbb-6580-4b9c-91ec-3202a0b1012f","system_id":"levelo_inurba_marseille","lat":43.33602,"lon":5.41013,"is_reserved":false,"is_disabled":false,"rental_uris":{"android":"levelo://app?vid=57291bbb-6580-4b9c-91ec-3202a0b1012f","ios":"levelo://app?vid=57291bbb-6580-4b9c-91ec-3202a0b1012f"},"vehicle_type_id":"4","last_reported":1743761463,"current_range_meters":8000,"station_id":"ce4bhqh2rcd13ifvqhmg","pricing_plan_id":"cebpf4jnsgd1na2vs0mg"},{"bike_id":"2ff3068f-074f-4569-bb32-aaa56c528ef2","system_id":"levelo_inurba_marseille","lat":43.27916,"lon":5.39574,"is_reserved":false,"is_disabled":false,"rental_uris":{"android":"levelo://app?vid=2ff3068f-074f-4569-bb32-aaa56c528ef2","ios":"levelo://app?vid=2ff3068f-074f-4569-bb32-aaa56c528ef2"},"vehicle_type_id":"4","last_reported":1743761463,"current_range_meters":8000,"station_id":"ce4bhf92rcd13ifvqf40","pricing_plan_id":"cebpf4jnsgd1na2vs0mg"},{"bike_id":"b3eac9c5-b95b-4848-a104-d84634d1a70c","system_id":"levelo_inurba_marseille","lat":43.309945,"lon":5.379912,"is_reserved":false,"is_disabled":false,"rental_uris":{"android":"levelo://app?vid=b3eac9c5-b95b-4848-a104-d84634d1a70c","ios":"levelo://app?vid=b3eac9c5-b95b-4848-a104-d84634d1a70c"},"vehicle_type_id":"4","last_reported":1743761463,"current_range_meters":8000,"station_id":"","pricing_plan_id":"cebpf4jnsgd1na2vs0mg"},{"bike_id":"832a2c8f-6e92-47ce-92d5-6b41675d215c","system_id":"levelo_inurba_marseille","lat":43.23146,"lon":5.43717,"is_reserved":false,"is_disabled":false,"rental_uris":{"android":"levelo://app?vid=832a2c8f-6e92-47ce-92d5-6b41675d215c","ios":"levelo://app?vid=832a2c8f-6e92-47ce-92d5-6b41675d215c"},"vehicle_type_id":"4","last_reported":1743761463,"current_range_meters":8000,"station_id":"ce4bhmp2rcd13ifvqgog","pricing_plan_id":"cebpf4jnsgd1na2vs0mg"},{"bike_id":"678d68a2-22b8-4ba3-a9d4-e7b6eb52b7d5","system_id":"levelo_inurba_marseille","lat":43.23149,"lon":5.43711,"is_reserved":false,"is_disabled":false,"rental_uris":{"android":"levelo://app?vid=678d68a2-22b8-4ba3-a9d4-e7b6eb52b7d5","ios":"levelo://app?vid=678d68a2-22b8-4ba3-a9d4-e7b6eb52b7d5"},"vehicle_type_id":"4","last_reported":1743761463,"current_range_meters":8000,"station_id":"ce4bhmp2rcd13ifvqgog","pricing_plan_id":"cebpf4jnsgd1na2vs0mg"},{"bike_id":"4a0cb5ec-891f-471c-8860-9d6c3a83a3a9","system_id":"levelo_inurba_marseille","lat":43.30377,"lon":5.42479,"is_reserved":false,"is_disabled":false,"rental_uris":{"android":"levelo://app?vid=4a0cb5ec-891f-471c-8860-9d6c3a83a3a9","ios":"levelo://app?vid=4a0cb5ec-891f-471c-8860-9d6c3a83a3a9"},"vehicle_type_id":"4","last_reported":1743761463,"current_range_meters":8000,"station_id":"ce4bhoh2rcd13ifvqh6g","pricing_plan_id":"cebpf4jnsgd1na2vs0mg"},{"bike_id":"59cc0335-bc7c-4f7c-b695-a5cff05bf6b1","system_id":"levelo_inurba_marseille","lat":43.33599,"lon":5.41015,"is_reserved":false,"is_disabled":false,"rental_uris":{"android":"levelo://app?vid=59cc0335-bc7c-4f7c-b695-a5cff05bf6b1","ios":"levelo://app?vid=59cc0335-bc7c-4f7c-b695-a5cff05bf6b1"},"vehicle_type_id":"4","last_reported":1743761463,"current_range_meters":8000,"station_id":"ce4bhqh2rcd13ifvqhmg","pricing_plan_id":"cebpf4jnsgd1na2vs0mg"},{"bike_id":"cc9f2530-ceb9-46b1-bdfd-cad1a0645b48","system_id":"levelo_inurba_marseille","lat":43.26056,"lon":5.39388,"is_reserved":false,"is_disabled":false,"rental_uris":{"android":"levelo://app?vid=cc9f2530-ceb9-46b1-bdfd-cad1a0645b48","ios":"levelo://app?vid=cc9f2530-ceb9-46b1-bdfd-cad1a0645b48"},"vehicle_type_id":"4","last_reported":1743761463,"current_range_meters":8000,"station_id":"ce4bhh92rcd13ifvqfj0","pricing_plan_id":"cebpf4jnsgd1na2vs0mg"},{"bike_id":"3cf22d29-90b6-4c79-a643-886bc3743ca7","system_id":"levelo_inurba_marseille","lat":43.33429,"lon":5.40073,"is_reserved":false,"is_disabled":false,"rental_uris":{"android":"levelo://app?vid=3cf22d29-90b6-4c79-a643-886bc3743ca7","ios":"levelo://app?vid=3cf22d29-90b6-4c79-a643-886bc3743ca7"},"vehicle_type_id":"4","last_reported":1743761463,"current_range_meters":8400,"station_id":"","pricing_plan_id":"cebpf4jnsgd1na2vs0mg"},{"bike_id":"d15e8f4c-1db2-4899-8938-bfb1751f495b","system_id":"levelo_inurba_marseille","lat":43.292633,"lon":5.384335,"is_reserved":false,"is_disabled":false,"rental_uris":{"android":"levelo://app?vid=d15e8f4c-1db2-4899-8938-bfb1751f495b","ios":"levelo://app?vid=d15e8f4c-1db2-4899-8938-bfb1751f495b"},"vehicle_type_id":"4","last_reported":1743761463,"current_range_meters":8400,"station_id":"ce4bgvh2rcd13ifvqcs0","pricing_plan_id":"cebpf4jnsgd1na2vs0mg"},{"bike_id":"d76832c4-3604-4de9-b7a5-182f7c6e995c","system_id":"levelo_inurba_marseille","lat":43.31367,"lon":5.38504,"is_reserved":false,"is_disabled":true,"rental_uris":{"android":"levelo://app?vid=d76832c4-3604-4de9-b7a5-182f7c6e995c","ios":"levelo://app?vid=d76832c4-3604-4de9-b7a5-182f7c6e995c"},"vehicle_type_id":"4","last_reported":1743761463,"current_range_meters":8400,"station_id":"ce4bgt92rcd13ifvqcf0","pricing_plan_id":"cebpf4jnsgd1na2vs0mg"},{"bike_id":"19224d95-e048-4cbb-8884-43e0e6b3db9b","system_id":"levelo_inurba_marseille","lat":43.29853,"lon":5.39738,"is_reserved":false,"is_disabled":true,"rental_uris":{"android":"levelo://app?vid=19224d95-e048-4cbb-8884-43e0e6b3db9b","ios":"levelo://app?vid=19224d95-e048-4cbb-8884-43e0e6b3db9b"},"vehicle_type_id":"4","last_reported":1743761463,"current_range_meters":8400,"station_id":"ce4bh0h2rcd13ifvqd50","pricing_plan_id":"cebpf4jnsgd1na2vs0mg"},{"bike_id":"8a8a0584-e0fb-4a53-aa66-bcdf51fbf375","system_id":"levelo_inurba_marseille","lat":43.2815,"lon":5.42634,"is_reserved":false,"is_disabled":false,"rental_uris":{"android":"levelo://app?vid=8a8a0584-e0fb-4a53-aa66-bcdf51fbf375","ios":"levelo://app?vid=8a8a0584-e0fb-4a53-aa66-bcdf51fbf375"},"vehicle_type_id":"4","last_reported":1743761463,"current_range_meters":8400,"station_id":"ce4bhnh2rcd13ifvqgug","pricing_plan_id":"cebpf4jnsgd1na2vs0mg"},{"bike_id":"9fd1db98-81d3-4150-b516-93c9e5e39fda","system_id":"levelo_inurba_marseille","lat":43.23148,"lon":5.4373,"is_reserved":false,"is_disabled":false,"rental_uris":{"android":"levelo://app?vid=9fd1db98-81d3-4150-b516-93c9e5e39fda","ios":"levelo://app?vid=9fd1db98-81d3-4150-b516-93c9e5e39fda"},"vehicle_type_id":"4","last_reported":1743761463,"current_range_meters":8400,"station_id":"ce4bhmp2rcd13ifvqgog","pricing_plan_id":"cebpf4jnsgd1na2vs0mg"},{"bike_id":"ffd22f36-3f36-4251-bb88-4fc2c0287afe","system_id":"levelo_inurba_marseille","lat":43.295307,"lon":5.385369,"is_reserved":false,"is_disabled":false,"rental_uris":{"android":"levelo://app?vid=ffd22f36-3f36-4251-bb88-4fc2c0287afe","ios":"levelo://app?vid=ffd22f36-3f36-4251-bb88-4fc2c0287afe"},"vehicle_type_id":"4","last_reported":1743761463,"current_range_meters":8800,"station_id":"ce4bgih2rcd13ifvqba0","pricing_plan_id":"cebpf4jnsgd1na2vs0mg"},{"bike_id":"63139285-137c-4e8d-8e95-6c2a275f8333","system_id":"levelo_inurba_marseille","lat":43.321079,"lon":5.368002,"is_reserved":false,"is_disabled":false,"rental_uris":{"android":"levelo://app?vid=63139285-137c-4e8d-8e95-6c2a275f8333","ios":"levelo://app?vid=63139285-137c-4e8d-8e95-6c2a275f8333"},"vehicle_type_id":"4","last_reported":1743761463,"current_range_meters":8800,"station_id":"ce4bhrh2rcd13ifvqhug","pricing_plan_id":"cebpf4jnsgd1na2vs0mg"},{"bike_id":"f7bb8436-ecd2-4874-be2e-726e23b6b5f6","system_id":"levelo_inurba_marseille","lat":43.33598,"lon":5.41,"is_reserved":false,"is_disabled":false,"rental_uris":{"android":"levelo://app?vid=f7bb8436-ecd2-4874-be2e-726e23b6b5f6","ios":"levelo://app?vid=f7bb8436-ecd2-4874-be2e-726e23b6b5f6"},"vehicle_type_id":"4","last_reported":1743761463,"current_range_meters":8800,"station_id":"ce4bhqh2rcd13ifvqhmg","pricing_plan_id":"cebpf4jnsgd1na2vs0mg"},{"bike_id":"e20ac1d1-8faa-44a4-adc4-b0129429db12","system_id":"levelo_inurba_marseille","lat":43.28447,"lon":5.35873,"is_reserved":false,"is_disabled":false,"rental_uris":{"android":"levelo://app?vid=e20ac1d1-8faa-44a4-adc4-b0129429db12","ios":"levelo://app?vid=e20ac1d1-8faa-44a4-adc4-b0129429db12"},"vehicle_type_id":"4","last_reported":1743761463,"current_range_meters":8800,"station_id":"ce4bhah2rcd13ifvqei0","pricing_plan_id":"cebpf4jnsgd1na2vs0mg"},{"bike_id":"4553e9c0-a1e6-403d-a79b-f35c079859c5","system_id":"levelo_inurba_marseille","lat":43.274943,"lon":5.39,"is_reserved":false,"is_disabled":false,"rental_uris":{"android":"levelo://app?vid=4553e9c0-a1e6-403d-a79b-f35c079859c5","ios":"levelo://app?vid=4553e9c0-a1e6-403d-a79b-f35c079859c5"},"vehicle_type_id":"4","last_reported":1743761463,"current_range_meters":9200,"station_id":"ce4bhh12rcd13ifvqfg0","pricing_plan_id":"cebpf4jnsgd1na2vs0mg"},{"bike_id":"77e1cca1-9afa-4062-8d36-bac30c3b0ae7","system_id":"levelo_inurba_marseille","lat":43.3236,"lon":5.3671,"is_reserved":false,"is_disabled":false,"rental_uris":{"android":"levelo://app?vid=77e1cca1-9afa-4062-8d36-bac30c3b0ae7","ios":"levelo://app?vid=77e1cca1-9afa-4062-8d36-bac30c3b0ae7"},"vehicle_type_id":"4","last_reported":1743761463,"current_range_meters":9200,"station_id":"ce4bhsh2rcd13ifvqi2g","pricing_plan_id":"cebpf4jnsgd1na2vs0mg"},{"bike_id":"4d0931f2-af9a-427a-a8a8-bc71842a4331","system_id":"levelo_inurba_marseille","lat":43.297983,"lon":5.381159,"is_reserved":false,"is_disabled":false,"rental_uris":{"android":"levelo://app?vid=4d0931f2-af9a-427a-a8a8-bc71842a4331","ios":"levelo://app?vid=4d0931f2-af9a-427a-a8a8-bc71842a4331"},"vehicle_type_id":"4","last_reported":1743761463,"current_range_meters":9200,"station_id":"ce4bgip2rcd13ifvqbb0","pricing_plan_id":"cebpf4jnsgd1na2vs0mg"},{"bike_id":"0e54924c-c421-47dc-a19b-78867bf9bea0","system_id":"levelo_inurba_marseille","lat":43.30376,"lon":5.42488,"is_reserved":false,"is_disabled":false,"rental_uris":{"android":"levelo://app?vid=0e54924c-c421-47dc-a19b-78867bf9bea0","ios":"levelo://app?vid=0e54924c-c421-47dc-a19b-78867bf9bea0"},"vehicle_type_id":"4","last_reported":1743761463,"current_range_meters":9200,"station_id":"ce4bhoh2rcd13ifvqh6g","pricing_plan_id":"cebpf4jnsgd1na2vs0mg"},{"bike_id":"9d1f36cc-f1de-4fc6-bfce-0d04d66ab256","system_id":"levelo_inurba_marseille","lat":43.3054,"lon":5.36529,"is_reserved":false,"is_disabled":false,"rental_uris":{"android":"levelo://app?vid=9d1f36cc-f1de-4fc6-bfce-0d04d66ab256","ios":"levelo://app?vid=9d1f36cc-f1de-4fc6-bfce-0d04d66ab256"},"vehicle_type_id":"4","last_reported":1743761463,"current_range_meters":9200,"station_id":"ce4bgs12rcd13ifvqcag","pricing_plan_id":"cebpf4jnsgd1na2vs0mg"},{"bike_id":"5f46717b-05d1-4f34-a220-8087932d755b","system_id":"levelo_inurba_marseille","lat":43.30096,"lon":5.36939,"is_reserved":false,"is_disabled":false,"rental_uris":{"android":"levelo://app?vid=5f46717b-05d1-4f34-a220-8087932d755b","ios":"levelo://app?vid=5f46717b-05d1-4f34-a220-8087932d755b"},"vehicle_type_id":"4","last_reported":1743761463,"current_range_meters":9200,"station_id":"","pricing_plan_id":"cebpf4jnsgd1na2vs0mg"},{"bike_id":"2a4b1d33-e36a-42de-9d1f-c08d58f61cfb","system_id":"levelo_inurba_marseille","lat":43.30421,"lon":5.39745,"is_reserved":false,"is_disabled":false,"rental_uris":{"android":"levelo://app?vid=2a4b1d33-e36a-42de-9d1f-c08d58f61cfb","ios":"levelo://app?vid=2a4b1d33-e36a-42de-9d1f-c08d58f61cfb"},"vehicle_type_id":"4","last_reported":1743761463,"current_range_meters":9200,"station_id":"ce4bh092rcd13ifvqd20","pricing_plan_id":"cebpf4jnsgd1na2vs0mg"},{"bike_id":"d6538759-f071-4ede-b879-355bb615c8c7","system_id":"levelo_inurba_marseille","lat":43.29226,"lon":5.36072,"is_reserved":false,"is_disabled":false,"rental_uris":{"android":"levelo://app?vid=d6538759-f071-4ede-b879-355bb615c8c7","ios":"levelo://app?vid=d6538759-f071-4ede-b879-355bb615c8c7"},"vehicle_type_id":"4","last_reported":1743761463,"current_range_meters":9200,"station_id":"ce4bhbh2rcd13ifvqeqg","pricing_plan_id":"cebpf4jnsgd1na2vs0mg"},{"bike_id":"30752a3b-e26c-4914-b213-1c87d4e01d5b","system_id":"levelo_inurba_marseille","lat":43.295913,"lon":5.381482,"is_reserved":false,"is_disabled":false,"rental_uris":{"android":"levelo://app?vid=30752a3b-e26c-4914-b213-1c87d4e01d5b","ios":"levelo://app?vid=30752a3b-e26c-4914-b213-1c87d4e01d5b"},"vehicle_type_id":"4","last_reported":1743761463,"current_range_meters":9600,"station_id":"ce4bgl12rcd13ifvqbo0","pricing_plan_id":"cebpf4jnsgd1na2vs0mg"},{"bike_id":"80538649-1945-45e9-99ba-56f08f5ca6f8","system_id":"levelo_inurba_marseille","lat":43.26676,"lon":5.38278,"is_reserved":false,"is_disabled":false,"rental_uris":{"android":"levelo://app?vid=80538649-1945-45e9-99ba-56f08f5ca6f8","ios":"levelo://app?vid=80538649-1945-45e9-99ba-56f08f5ca6f8"},"vehicle_type_id":"4","last_reported":1743761463,"current_range_meters":9600,"station_id":"ce4bhg92rcd13ifvqf90","pricing_plan_id":"cebpf4jnsgd1na2vs0mg"},{"bike_id":"69c0db05-6ded-4dc6-9720-2452c83c1020","system_id":"levelo_inurba_marseille","lat":43.22952,"lon":5.35394,"is_reserved":false,"is_disabled":false,"rental_uris":{"android":"levelo://app?vid=69c0db05-6ded-4dc6-9720-2452c83c1020","ios":"levelo://app?vid=69c0db05-6ded-4dc6-9720-2452c83c1020"},"vehicle_type_id":"4","last_reported":1743761463,"current_range_meters":9600,"station_id":"cpo3532slgdg3j2ikp40","pricing_plan_id":"cebpf4jnsgd1na2vs0mg"},{"bike_id":"cd442235-fb83-43e8-a7f3-8167842a32ae","system_id":"levelo_inurba_marseille","lat":43.27619,"lon":5.36101,"is_reserved":false,"is_disabled":false,"rental_uris":{"android":"levelo://app?vid=cd442235-fb83-43e8-a7f3-8167842a32ae","ios":"levelo://app?vid=cd442235-fb83-43e8-a7f3-8167842a32ae"},"vehicle_type_id":"4","last_reported":1743761463,"current_range_meters":9600,"station_id":"ce4bgj92rcd13ifvqbe0","pricing_plan_id":"cebpf4jnsgd1na2vs0mg"},{"bike_id":"4e3c86ab-4879-48ad-8e80-ab7408fe44e8","system_id":"levelo_inurba_marseille","lat":43.290265,"lon":5.373707,"is_reserved":false,"is_disabled":false,"rental_uris":{"android":"levelo://app?vid=4e3c86ab-4879-48ad-8e80-ab7408fe44e8","ios":"levelo://app?vid=4e3c86ab-4879-48ad-8e80-ab7408fe44e8"},"vehicle_type_id":"4","last_reported":1743761463,"current_range_meters":9600,"station_id":"ce4bhc92rcd13ifvqetg","pricing_plan_id":"cebpf4jnsgd1na2vs0mg"},{"bike_id":"66320bc1-008b-48fe-b35a-1ba41c7b488a","system_id":"levelo_inurba_marseille","lat":43.30541,"lon":5.36534,"is_reserved":false,"is_disabled":false,"rental_uris":{"android":"levelo://app?vid=66320bc1-008b-48fe-b35a-1ba41c7b488a","ios":"levelo://app?vid=66320bc1-008b-48fe-b35a-1ba41c7b488a"},"vehicle_type_id":"4","last_reported":1743761463,"current_range_meters":10000,"station_id":"ce4bgs12rcd13ifvqcag","pricing_plan_id":"cebpf4jnsgd1na2vs0mg"},{"bike_id":"72543f32-e5f0-4b37-9979-dc899e6f4224","system_id":"levelo_inurba_marseille","lat":43.26548,"lon":5.37286,"is_reserved":false,"is_disabled":false,"rental_uris":{"android":"levelo://app?vid=72543f32-e5f0-4b37-9979-dc899e6f4224","ios":"levelo://app?vid=72543f32-e5f0-4b37-9979-dc899e6f4224"},"vehicle_type_id":"4","last_reported":1743761463,"current_range_meters":10000,"station_id":"ce4bhg12rcd13ifvqf70","pricing_plan_id":"cebpf4jnsgd1na2vs0mg"},{"bike_id":"758c2355-846a-4f3d-bcd8-eac4b3145cd6","system_id":"levelo_inurba_marseille","lat":43.23189,"lon":5.35548,"is_reserved":false,"is_disabled":false,"rental_uris":{"android":"levelo://app?vid=758c2355-846a-4f3d-bcd8-eac4b3145cd6","ios":"levelo://app?vid=758c2355-846a-4f3d-bcd8-eac4b3145cd6"},"vehicle_type_id":"4","last_reported":1743761463,"current_range_meters":10000,"station_id":"ce4bhu92rcd13ifvqi70","pricing_plan_id":"cebpf4jnsgd1na2vs0mg"},{"bike_id":"4bfcfef7-f4a0-4f2f-a34d-e83e7e93e9bf","system_id":"levelo_inurba_marseille","lat":43.23142,"lon":5.43685,"is_reserved":false,"is_disabled":false,"rental_uris":{"android":"levelo://app?vid=4bfcfef7-f4a0-4f2f-a34d-e83e7e93e9bf","ios":"levelo://app?vid=4bfcfef7-f4a0-4f2f-a34d-e83e7e93e9bf"},"vehicle_type_id":"4","last_reported":1743761463,"current_range_meters":10000,"station_id":"ce4bhmp2rcd13ifvqgog","pricing_plan_id":"cebpf4jnsgd1na2vs0mg"},{"bike_id":"ed034283-1492-4da7-9409-35bdead80f30","system_id":"levelo_inurba_marseille","lat":43.30161,"lon":5.38799,"is_reserved":false,"is_disabled":true,"rental_uris":{"android":"levelo://app?vid=ed034283-1492-4da7-9409-35bdead80f30","ios":"levelo://app?vid=ed034283-1492-4da7-9409-35bdead80f30"},"vehicle_type_id":"4","last_reported":1743761463,"current_range_meters":10000,"station_id":"ce4bghh2rcd13ifvqb60","pricing_plan_id":"cebpf4jnsgd1na2vs0mg"},{"bike_id":"74a13a18-430a-4f50-ba26-e7dfbad23482","system_id":"levelo_inurba_marseille","lat":43.23066,"lon":5.35492,"is_reserved":false,"is_disabled":false,"rental_uris":{"android":"levelo://app?vid=74a13a18-430a-4f50-ba26-e7dfbad23482","ios":"levelo://app?vid=74a13a18-430a-4f50-ba26-e7dfbad23482"},"vehicle_type_id":"4","last_reported":1743761463,"current_range_meters":10000,"station_id":"cpo3342slgdg3j2ifvpg","pricing_plan_id":"cebpf4jnsgd1na2vs0mg"},{"bike_id":"0adb6ffe-108c-4f95-a8da-cf1dfde2e27c","system_id":"levelo_inurba_marseille","lat":43.31269,"lon":5.40166,"is_reserved":false,"is_disabled":false,"rental_uris":{"android":"levelo://app?vid=0adb6ffe-108c-4f95-a8da-cf1dfde2e27c","ios":"levelo://app?vid=0adb6ffe-108c-4f95-a8da-cf1dfde2e27c"},"vehicle_type_id":"4","last_reported":1743761463,"current_range_meters":10000,"station_id":"ce4bh092rcd13ifvqd30","pricing_plan_id":"cebpf4jnsgd1na2vs0mg"},{"bike_id":"3a0b0f90-790c-4160-b50c-b4d5547d0490","system_id":"levelo_inurba_marseille","lat":43.303711,"lon":5.424879,"is_reserved":false,"is_disabled":false,"rental_uris":{"android":"levelo://app?vid=3a0b0f90-790c-4160-b50c-b4d5547d0490","ios":"levelo://app?vid=3a0b0f90-790c-4160-b50c-b4d5547d0490"},"vehicle_type_id":"4","last_reported":1743761463,"current_range_meters":10800,"station_id":"ce4bhoh2rcd13ifvqh6g","pricing_plan_id":"cebpf4jnsgd1na2vs0mg"},{"bike_id":"66f6483b-72aa-42fe-9592-4f630cfdf76c","system_id":"levelo_inurba_marseille","lat":43.28845,"lon":5.35844,"is_reserved":false,"is_disabled":false,"rental_uris":{"android":"levelo://app?vid=66f6483b-72aa-42fe-9592-4f630cfdf76c","ios":"levelo://app?vid=66f6483b-72aa-42fe-9592-4f630cfdf76c"},"vehicle_type_id":"4","last_reported":1743761463,"current_range_meters":10800,"station_id":"ce4bhb12rcd13ifvqem0","pricing_plan_id":"cebpf4jnsgd1na2vs0mg"},{"bike_id":"64cd3283-8a55-4240-818a-8735273cc3b9","system_id":"levelo_inurba_marseille","lat":43.26674,"lon":5.38258,"is_reserved":false,"is_disabled":false,"rental_uris":{"android":"levelo://app?vid=64cd3283-8a55-4240-818a-8735273cc3b9","ios":"levelo://app?vid=64cd3283-8a55-4240-818a-8735273cc3b9"},"vehicle_type_id":"4","last_reported":1743761463,"current_range_meters":10800,"station_id":"ce4bhg92rcd13ifvqf90","pricing_plan_id":"cebpf4jnsgd1na2vs0mg"},{"bike_id":"2eb69012-9330-40e2-85c9-b657f421f6d7","system_id":"levelo_inurba_marseille","lat":43.27315,"lon":5.39112,"is_reserved":false,"is_disabled":false,"rental_uris":{"android":"levelo://app?vid=2eb69012-9330-40e2-85c9-b657f421f6d7","ios":"levelo://app?vid=2eb69012-9330-40e2-85c9-b657f421f6d7"},"vehicle_type_id":"4","last_reported":1743761463,"current_range_meters":10800,"station_id":"ce4bhgp2rcd13ifvqfe0","pricing_plan_id":"cebpf4jnsgd1na2vs0mg"},{"bike_id":"f1e5f20d-e5bb-4349-9a72-f7ab8a004414","system_id":"levelo_inurba_marseille","lat":43.30323,"lon":5.40436,"is_reserved":false,"is_disabled":true,"rental_uris":{"android":"levelo://app?vid=f1e5f20d-e5bb-4349-9a72-f7ab8a004414","ios":"levelo://app?vid=f1e5f20d-e5bb-4349-9a72-f7ab8a004414"},"vehicle_type_id":"4","last_reported":1743761463,"current_range_meters":10800,"station_id":"ce4bh012rcd13ifvqd10","pricing_plan_id":"cebpf4jnsgd1na2vs0mg"},{"bike_id":"9396f31d-e485-4f45-a818-9888089b5bb6","system_id":"levelo_inurba_marseille","lat":43.23212,"lon":5.35561,"is_reserved":false,"is_disabled":false,"rental_uris":{"android":"levelo://app?vid=9396f31d-e485-4f45-a818-9888089b5bb6","ios":"levelo://app?vid=9396f31d-e485-4f45-a818-9888089b5bb6"},"vehicle_type_id":"4","last_reported":1743761463,"current_range_meters":10800,"station_id":"ce4bhu92rcd13ifvqi70","pricing_plan_id":"cebpf4jnsgd1na2vs0mg"},{"bike_id":"386f038a-a86c-4c6a-bf90-638d2a627842","system_id":"levelo_inurba_marseille","lat":43.32493,"lon":5.3655,"is_reserved":false,"is_disabled":false,"rental_uris":{"android":"levelo://app?vid=386f038a-a86c-4c6a-bf90-638d2a627842","ios":"levelo://app?vid=386f038a-a86c-4c6a-bf90-638d2a627842"},"vehicle_type_id":"4","last_reported":1743761463,"current_range_meters":11200,"station_id":"ce4bhs12rcd13ifvqhvg","pricing_plan_id":"cebpf4jnsgd1na2vs0mg"},{"bike_id":"e8eb7a02-3313-4fe0-809c-da90e69042f3","system_id":"levelo_inurba_marseille","lat":43.300846,"lon":5.390767,"is_reserved":false,"is_disabled":false,"rental_uris":{"android":"levelo://app?vid=e8eb7a02-3313-4fe0-809c-da90e69042f3","ios":"levelo://app?vid=e8eb7a02-3313-4fe0-809c-da90e69042f3"},"vehicle_type_id":"4","last_reported":1743761463,"current_range_meters":11200,"station_id":"ce4bh192rcd13ifvqdb0","pricing_plan_id":"cebpf4jnsgd1na2vs0mg"},{"bike_id":"fb348b09-6abb-47a4-a266-91f2eeaee291","system_id":"levelo_inurba_marseille","lat":43.32104,"lon":5.36775,"is_reserved":false,"is_disabled":false,"rental_uris":{"android":"levelo://app?vid=fb348b09-6abb-47a4-a266-91f2eeaee291","ios":"levelo://app?vid=fb348b09-6abb-47a4-a266-91f2eeaee291"},"vehicle_type_id":"4","last_reported":1743761463,"current_range_meters":11200,"station_id":"ce4bhrh2rcd13ifvqhug","pricing_plan_id":"cebpf4jnsgd1na2vs0mg"},{"bike_id":"d6243c4b-a11a-4a91-9b5d-45f0f53d8153","system_id":"levelo_inurba_marseille","lat":43.28928,"lon":5.38399,"is_reserved":false,"is_disabled":false,"rental_uris":{"android":"levelo://app?vid=d6243c4b-a11a-4a91-9b5d-45f0f53d8153","ios":"levelo://app?vid=d6243c4b-a11a-4a91-9b5d-45f0f53d8153"},"vehicle_type_id":"4","last_reported":1743761463,"current_range_meters":11200,"station_id":"ce4bh612rcd13ifvqe6g","pricing_plan_id":"cebpf4jnsgd1na2vs0mg"},{"bike_id":"0d0560eb-77b3-40c0-bf65-6704b26a1846","system_id":"levelo_inurba_marseille","lat":43.29934,"lon":5.36554,"is_reserved":false,"is_disabled":false,"rental_uris":{"android":"levelo://app?vid=0d0560eb-77b3-40c0-bf65-6704b26a1846","ios":"levelo://app?vid=0d0560eb-77b3-40c0-bf65-6704b26a1846"},"vehicle_type_id":"4","last_reported":1743761463,"current_range_meters":11200,"station_id":"ce4bgm92rcd13ifvqbr0","pricing_plan_id":"cebpf4jnsgd1na2vs0mg"},{"bike_id":"24cbe3d0-669e-41ea-8e97-cec3a7161746","system_id":"levelo_inurba_marseille","lat":43.30583,"lon":5.38413,"is_reserved":false,"is_disabled":false,"rental_uris":{"android":"levelo://app?vid=24cbe3d0-669e-41ea-8e97-cec3a7161746","ios":"levelo://app?vid=24cbe3d0-669e-41ea-8e97-cec3a7161746"},"vehicle_type_id":"4","last_reported":1743761463,"current_range_meters":11200,"station_id":"ce4bgup2rcd13ifvqco0","pricing_plan_id":"cebpf4jnsgd1na2vs0mg"},{"bike_id":"55ebdf25-0357-4ec1-a3b5-737d5b6b88c2","system_id":"levelo_inurba_marseille","lat":43.30551,"lon":5.36531,"is_reserved":false,"is_disabled":false,"rental_uris":{"android":"levelo://app?vid=55ebdf25-0357-4ec1-a3b5-737d5b6b88c2","ios":"levelo://app?vid=55ebdf25-0357-4ec1-a3b5-737d5b6b88c2"},"vehicle_type_id":"4","last_reported":1743761463,"current_range_meters":11200,"station_id":"ce4bgs12rcd13ifvqcag","pricing_plan_id":"cebpf4jnsgd1na2vs0mg"},{"bike_id":"bfb11b41-82f2-4c9c-851a-97bba3e1d8be","system_id":"levelo_inurba_marseille","lat":43.28917,"lon":5.38826,"is_reserved":false,"is_disabled":true,"rental_uris":{"android":"levelo://app?vid=bfb11b41-82f2-4c9c-851a-97bba3e1d8be","ios":"levelo://app?vid=bfb11b41-82f2-4c9c-851a-97bba3e1d8be"},"vehicle_type_id":"4","last_reported":1743761463,"current_range_meters":11600,"station_id":"","pricing_plan_id":"cebpf4jnsgd1na2vs0mg"},{"bike_id":"24efc0e5-50e4-4002-a77f-6309831ac946","system_id":"levelo_inurba_marseille","lat":43.29543,"lon":5.42278,"is_reserved":false,"is_disabled":false,"rental_uris":{"android":"levelo://app?vid=24efc0e5-50e4-4002-a77f-6309831ac946","ios":"levelo://app?vid=24efc0e5-50e4-4002-a77f-6309831ac946"},"vehicle_type_id":"4","last_reported":1743761463,"current_range_meters":11600,"station_id":"ce4bhph2rcd13ifvqhdg","pricing_plan_id":"cebpf4jnsgd1na2vs0mg"},{"bike_id":"bd311e28-3143-46ba-ba4d-0804bbbf4111","system_id":"levelo_inurba_marseille","lat":43.29038,"lon":5.3761,"is_reserved":false,"is_disabled":false,"rental_uris":{"android":"levelo://app?vid=bd311e28-3143-46ba-ba4d-0804bbbf4111","ios":"levelo://app?vid=bd311e28-3143-46ba-ba4d-0804bbbf4111"},"vehicle_type_id":"4","last_reported":1743761463,"current_range_meters":12400,"station_id":"ce4bh5p2rcd13ifvqe4g","pricing_plan_id":"cebpf4jnsgd1na2vs0mg"},{"bike_id":"8c70d425-78a5-4ba9-a5da-b32893ad6a5f","system_id":"levelo_inurba_marseille","lat":43.26552,"lon":5.37277,"is_reserved":false,"is_disabled":false,"rental_uris":{"android":"levelo://app?vid=8c70d425-78a5-4ba9-a5da-b32893ad6a5f","ios":"levelo://app?vid=8c70d425-78a5-4ba9-a5da-b32893ad6a5f"},"vehicle_type_id":"4","last_reported":1743761463,"current_range_meters":11600,"station_id":"ce4bhg12rcd13ifvqf70","pricing_plan_id":"cebpf4jnsgd1na2vs0mg"},{"bike_id":"1b07f5d0-df62-4495-a42c-4a12cca8ef22","system_id":"levelo_inurba_marseille","lat":43.302431,"lon":5.400632,"is_reserved":false,"is_disabled":true,"rental_uris":{"android":"levelo://app?vid=1b07f5d0-df62-4495-a42c-4a12cca8ef22","ios":"levelo://app?vid=1b07f5d0-df62-4495-a42c-4a12cca8ef22"},"vehicle_type_id":"4","last_reported":1743761463,"current_range_meters":12000,"station_id":"ce4bgvh2rcd13ifvqcs0","pricing_plan_id":"cebpf4jnsgd1na2vs0mg"},{"bike_id":"57c564f0-6dd3-4f0d-bb1f-c32432dd5d81","system_id":"levelo_inurba_marseille","lat":43.29271,"lon":5.38452,"is_reserved":false,"is_disabled":false,"rental_uris":{"android":"levelo://app?vid=57c564f0-6dd3-4f0d-bb1f-c32432dd5d81","ios":"levelo://app?vid=57c564f0-6dd3-4f0d-bb1f-c32432dd5d81"},"vehicle_type_id":"4","last_reported":1743761463,"current_range_meters":12000,"station_id":"ce4bh692rcd13ifvqea0","pricing_plan_id":"cebpf4jnsgd1na2vs0mg"},{"bike_id":"46e40aa5-72ae-444f-9358-a676d369a477","system_id":"levelo_inurba_marseille","lat":43.33011,"lon":5.43784,"is_reserved":false,"is_disabled":false,"rental_uris":{"android":"levelo://app?vid=46e40aa5-72ae-444f-9358-a676d369a477","ios":"levelo://app?vid=46e40aa5-72ae-444f-9358-a676d369a477"},"vehicle_type_id":"4","last_reported":1743761463,"current_range_meters":12000,"station_id":"","pricing_plan_id":"cebpf4jnsgd1na2vs0mg"},{"bike_id":"a0f26a08-a104-4bd3-a793-7196a01b4dd7","system_id":"levelo_inurba_marseille","lat":43.280964,"lon":5.378271,"is_reserved":false,"is_disabled":false,"rental_uris":{"android":"levelo://app?vid=a0f26a08-a104-4bd3-a793-7196a01b4dd7","ios":"levelo://app?vid=a0f26a08-a104-4bd3-a793-7196a01b4dd7"},"vehicle_type_id":"4","last_reported":1743761463,"current_range_meters":16400,"station_id":"ce4bha12rcd13ifvqee0","pricing_plan_id":"cebpf4jnsgd1na2vs0mg"},{"bike_id":"2a877350-b835-4223-9491-4ace09844217","system_id":"levelo_inurba_marseille","lat":43.2315,"lon":5.43696,"is_reserved":false,"is_disabled":false,"rental_uris":{"android":"levelo://app?vid=2a877350-b835-4223-9491-4ace09844217","ios":"levelo://app?vid=2a877350-b835-4223-9491-4ace09844217"},"vehicle_type_id":"4","last_reported":1743761463,"current_range_meters":12000,"station_id":"ce4bhmp2rcd13ifvqgog","pricing_plan_id":"cebpf4jnsgd1na2vs0mg"},{"bike_id":"9ef9a30a-02f2-4df3-a15e-d4ae47318a35","system_id":"levelo_inurba_marseille","lat":43.27836,"lon":5.3921,"is_reserved":false,"is_disabled":false,"rental_uris":{"android":"levelo://app?vid=9ef9a30a-02f2-4df3-a15e-d4ae47318a35","ios":"levelo://app?vid=9ef9a30a-02f2-4df3-a15e-d4ae47318a35"},"vehicle_type_id":"4","last_reported":1743761463,"current_range_meters":12000,"station_id":"ce4bhjp2rcd13ifvqga0","pricing_plan_id":"cebpf4jnsgd1na2vs0mg"},{"bike_id":"66a078d0-f110-4e76-b508-93197b7850b1","system_id":"levelo_inurba_marseille","lat":43.23167,"lon":5.43697,"is_reserved":false,"is_disabled":false,"rental_uris":{"android":"levelo://app?vid=66a078d0-f110-4e76-b508-93197b7850b1","ios":"levelo://app?vid=66a078d0-f110-4e76-b508-93197b7850b1"},"vehicle_type_id":"4","last_reported":1743761463,"current_range_meters":12000,"station_id":"ce4bhmp2rcd13ifvqgog","pricing_plan_id":"cebpf4jnsgd1na2vs0mg"},{"bike_id":"4621ad45-29bf-48cb-8077-88f2e1f7279f","system_id":"levelo_inurba_marseille","lat":43.23202,"lon":5.35554,"is_reserved":false,"is_disabled":false,"rental_uris":{"android":"levelo://app?vid=4621ad45-29bf-48cb-8077-88f2e1f7279f","ios":"levelo://app?vid=4621ad45-29bf-48cb-8077-88f2e1f7279f"},"vehicle_type_id":"4","last_reported":1743761463,"current_range_meters":12400,"station_id":"ce4bhu92rcd13ifvqi70","pricing_plan_id":"cebpf4jnsgd1na2vs0mg"},{"bike_id":"c6dc894d-3648-4f32-8df3-63783b14438a","system_id":"levelo_inurba_marseille","lat":43.284629,"lon":5.358845,"is_reserved":false,"is_disabled":false,"rental_uris":{"android":"levelo://app?vid=c6dc894d-3648-4f32-8df3-63783b14438a","ios":"levelo://app?vid=c6dc894d-3648-4f32-8df3-63783b14438a"},"vehicle_type_id":"4","last_reported":1743761463,"current_range_meters":12400,"station_id":"ce4bhah2rcd13ifvqei0","pricing_plan_id":"cebpf4jnsgd1na2vs0mg"},{"bike_id":"b2a836f1-497f-4025-8c68-8bcc54cf1c97","system_id":"levelo_inurba_marseille","lat":43.29623,"lon":5.37729,"is_reserved":false,"is_disabled":false,"rental_uris":{"android":"levelo://app?vid=b2a836f1-497f-4025-8c68-8bcc54cf1c97","ios":"levelo://app?vid=b2a836f1-497f-4025-8c68-8bcc54cf1c97"},"vehicle_type_id":"4","last_reported":1743761463,"current_range_meters":12400,"station_id":"ce4bgi92rcd13ifvqb90","pricing_plan_id":"cebpf4jnsgd1na2vs0mg"},{"bike_id":"8336c2e5-6021-4a8f-8e32-78361134cd8d","system_id":"levelo_inurba_marseille","lat":43.26687,"lon":5.3826,"is_reserved":false,"is_disabled":false,"rental_uris":{"android":"levelo://app?vid=8336c2e5-6021-4a8f-8e32-78361134cd8d","ios":"levelo://app?vid=8336c2e5-6021-4a8f-8e32-78361134cd8d"},"vehicle_type_id":"4","last_reported":1743761463,"current_range_meters":12400,"station_id":"ce4bhg92rcd13ifvqf90","pricing_plan_id":"cebpf4jnsgd1na2vs0mg"},{"bike_id":"0f87168e-ee70-4144-96fb-517c50186959","system_id":"levelo_inurba_marseille","lat":43.328517,"lon":5.410037,"is_reserved":false,"is_disabled":false,"rental_uris":{"android":"levelo://app?vid=0f87168e-ee70-4144-96fb-517c50186959","ios":"levelo://app?vid=0f87168e-ee70-4144-96fb-517c50186959"},"vehicle_type_id":"4","last_reported":1743761463,"current_range_meters":12800,"station_id":"ce4bhpp2rcd13ifvqhgg","pricing_plan_id":"cebpf4jnsgd1na2vs0mg"},{"bike_id":"29c0390c-9f5c-41ef-8632-d88fb92b3079","system_id":"levelo_inurba_marseille","lat":43.278107,"lon":5.407201,"is_reserved":false,"is_disabled":false,"rental_uris":{"android":"levelo://app?vid=29c0390c-9f5c-41ef-8632-d88fb92b3079","ios":"levelo://app?vid=29c0390c-9f5c-41ef-8632-d88fb92b3079"},"vehicle_type_id":"4","last_reported":1743761463,"current_range_meters":12800,"station_id":"ce4bhnh2rcd13ifvqgtg","pricing_plan_id":"cebpf4jnsgd1na2vs0mg"},{"bike_id":"c9ab5bfd-fa91-4b45-8fa2-52813c43fa45","system_id":"levelo_inurba_marseille","lat":43.23083,"lon":5.35539,"is_reserved":false,"is_disabled":false,"rental_uris":{"android":"levelo://app?vid=c9ab5bfd-fa91-4b45-8fa2-52813c43fa45","ios":"levelo://app?vid=c9ab5bfd-fa91-4b45-8fa2-52813c43fa45"},"vehicle_type_id":"4","last_reported":1743761463,"current_range_meters":12800,"station_id":"cpo3342slgdg3j2ifvpg","pricing_plan_id":"cebpf4jnsgd1na2vs0mg"},{"bike_id":"e1d1650d-0439-4f2d-8472-5b977397bbaa","system_id":"levelo_inurba_marseille","lat":43.29022,"lon":5.38647,"is_reserved":false,"is_disabled":false,"rental_uris":{"android":"levelo://app?vid=e1d1650d-0439-4f2d-8472-5b977397bbaa","ios":"levelo://app?vid=e1d1650d-0439-4f2d-8472-5b977397bbaa"},"vehicle_type_id":"4","last_reported":1743761463,"current_range_meters":12800,"station_id":"ce4bh4p2rcd13ifvqe0g","pricing_plan_id":"cebpf4jnsgd1na2vs0mg"},{"bike_id":"95d60a69-4bac-4e2e-a7d1-a542851bd550","system_id":"levelo_inurba_marseille","lat":43.27575,"lon":5.38423,"is_reserved":false,"is_disabled":false,"rental_uris":{"android":"levelo://app?vid=95d60a69-4bac-4e2e-a7d1-a542851bd550","ios":"levelo://app?vid=95d60a69-4bac-4e2e-a7d1-a542851bd550"},"vehicle_type_id":"4","last_reported":1743761463,"current_range_meters":12800,"station_id":"ce4bhh92rcd13ifvqfi0","pricing_plan_id":"cebpf4jnsgd1na2vs0mg"},{"bike_id":"64fdbb2b-e20c-450b-87b0-deaa705d4ef0","system_id":"levelo_inurba_marseille","lat":43.31363,"lon":5.36682,"is_reserved":false,"is_disabled":false,"rental_uris":{"android":"levelo://app?vid=64fdbb2b-e20c-450b-87b0-deaa705d4ef0","ios":"levelo://app?vid=64fdbb2b-e20c-450b-87b0-deaa705d4ef0"},"vehicle_type_id":"4","last_reported":1743761463,"current_range_meters":12800,"station_id":"ce4bgr92rcd13ifvqc6g","pricing_plan_id":"cebpf4jnsgd1na2vs0mg"},{"bike_id":"a5767c78-124d-4df5-9a34-444b742cb735","system_id":"levelo_inurba_marseille","lat":43.2415,"lon":5.3972,"is_reserved":false,"is_disabled":false,"rental_uris":{"android":"levelo://app?vid=a5767c78-124d-4df5-9a34-444b742cb735","ios":"levelo://app?vid=a5767c78-124d-4df5-9a34-444b742cb735"},"vehicle_type_id":"4","last_reported":1743761463,"current_range_meters":12800,"station_id":"ce4bhn12rcd13ifvqgpg","pricing_plan_id":"cebpf4jnsgd1na2vs0mg"},{"bike_id":"f40fc4e8-cfdd-40aa-8507-3bd8857476a8","system_id":"levelo_inurba_marseille","lat":43.30252,"lon":5.40062,"is_reserved":false,"is_disabled":true,"rental_uris":{"android":"levelo://app?vid=f40fc4e8-cfdd-40aa-8507-3bd8857476a8","ios":"levelo://app?vid=f40fc4e8-cfdd-40aa-8507-3bd8857476a8"},"vehicle_type_id":"4","last_reported":1743761463,"current_range_meters":13600,"station_id":"ce4bgvh2rcd13ifvqcs0","pricing_plan_id":"cebpf4jnsgd1na2vs0mg"},{"bike_id":"538954b0-bc54-45c5-9cef-16a29fd18cc8","system_id":"levelo_inurba_marseille","lat":43.25914,"lon":5.40895,"is_reserved":false,"is_disabled":false,"rental_uris":{"android":"levelo://app?vid=538954b0-bc54-45c5-9cef-16a29fd18cc8","ios":"levelo://app?vid=538954b0-bc54-45c5-9cef-16a29fd18cc8"},"vehicle_type_id":"4","last_reported":1743761463,"current_range_meters":13600,"station_id":"ce4bhm92rcd13ifvqglg","pricing_plan_id":"cebpf4jnsgd1na2vs0mg"},{"bike_id":"91010709-f81d-4870-b461-10faf2743bfb","system_id":"levelo_inurba_marseille","lat":43.32283,"lon":5.38276,"is_reserved":false,"is_disabled":false,"rental_uris":{"android":"levelo://app?vid=91010709-f81d-4870-b461-10faf2743bfb","ios":"levelo://app?vid=91010709-f81d-4870-b461-10faf2743bfb"},"vehicle_type_id":"4","last_reported":1743761463,"current_range_meters":13600,"station_id":"ce4bhr12rcd13ifvqhqg","pricing_plan_id":"cebpf4jnsgd1na2vs0mg"},{"bike_id":"df2b21a7-d23b-4e81-8ba8-409cb58860a7","system_id":"levelo_inurba_marseille","lat":43.27948,"lon":5.41034,"is_reserved":false,"is_disabled":false,"rental_uris":{"android":"levelo://app?vid=df2b21a7-d23b-4e81-8ba8-409cb58860a7","ios":"levelo://app?vid=df2b21a7-d23b-4e81-8ba8-409cb58860a7"},"vehicle_type_id":"4","last_reported":1743761463,"current_range_meters":13600,"station_id":"ce4bhnp2rcd13ifvqh0g","pricing_plan_id":"cebpf4jnsgd1na2vs0mg"},{"bike_id":"7518bbf0-5e0c-4693-9826-ecfe0f23e6c5","system_id":"levelo_inurba_marseille","lat":43.30135,"lon":5.37429,"is_reserved":false,"is_disabled":false,"rental_uris":{"android":"levelo://app?vid=7518bbf0-5e0c-4693-9826-ecfe0f23e6c5","ios":"levelo://app?vid=7518bbf0-5e0c-4693-9826-ecfe0f23e6c5"},"vehicle_type_id":"4","last_reported":1743761463,"current_range_meters":14000,"station_id":"ce4bgs92rcd13ifvqcc0","pricing_plan_id":"cebpf4jnsgd1na2vs0mg"},{"bike_id":"f2c7295c-edaa-4723-b578-50b4f377b10a","system_id":"levelo_inurba_marseille","lat":43.33611,"lon":5.40983,"is_reserved":false,"is_disabled":false,"rental_uris":{"android":"levelo://app?vid=f2c7295c-edaa-4723-b578-50b4f377b10a","ios":"levelo://app?vid=f2c7295c-edaa-4723-b578-50b4f377b10a"},"vehicle_type_id":"4","last_reported":1743761463,"current_range_meters":14000,"station_id":"ce4bhqh2rcd13ifvqhmg","pricing_plan_id":"cebpf4jnsgd1na2vs0mg"},{"bike_id":"fd620d12-b965-4a51-ab33-fa5b512132fa","system_id":"levelo_inurba_marseille","lat":43.2294,"lon":5.35376,"is_reserved":false,"is_disabled":false,"rental_uris":{"android":"levelo://app?vid=fd620d12-b965-4a51-ab33-fa5b512132fa","ios":"levelo://app?vid=fd620d12-b965-4a51-ab33-fa5b512132fa"},"vehicle_type_id":"4","last_reported":1743761463,"current_range_meters":14000,"station_id":"cpo3532slgdg3j2ikp40","pricing_plan_id":"cebpf4jnsgd1na2vs0mg"},{"bike_id":"a6303451-5b45-435c-bf0e-748f94cc010d","system_id":"levelo_inurba_marseille","lat":43.2319,"lon":5.35547,"is_reserved":false,"is_disabled":false,"rental_uris":{"android":"levelo://app?vid=a6303451-5b45-435c-bf0e-748f94cc010d","ios":"levelo://app?vid=a6303451-5b45-435c-bf0e-748f94cc010d"},"vehicle_type_id":"4","last_reported":1743761463,"current_range_meters":14000,"station_id":"ce4bhu92rcd13ifvqi70","pricing_plan_id":"cebpf4jnsgd1na2vs0mg"},{"bike_id":"ccbaad60-ee1e-4837-a1f8-1af8e79dfa40","system_id":"levelo_inurba_marseille","lat":43.306007,"lon":5.39357,"is_reserved":false,"is_disabled":true,"rental_uris":{"android":"levelo://app?vid=ccbaad60-ee1e-4837-a1f8-1af8e79dfa40","ios":"levelo://app?vid=ccbaad60-ee1e-4837-a1f8-1af8e79dfa40"},"vehicle_type_id":"4","last_reported":1743761463,"current_range_meters":14000,"station_id":"ce4bh0p2rcd13ifvqd80","pricing_plan_id":"cebpf4jnsgd1na2vs0mg"},{"bike_id":"05d00f93-8e3a-4dda-843a-8c55f4e7abcc","system_id":"levelo_inurba_marseille","lat":43.31369,"lon":5.36697,"is_reserved":false,"is_disabled":false,"rental_uris":{"android":"levelo://app?vid=05d00f93-8e3a-4dda-843a-8c55f4e7abcc","ios":"levelo://app?vid=05d00f93-8e3a-4dda-843a-8c55f4e7abcc"},"vehicle_type_id":"4","last_reported":1743761463,"current_range_meters":14000,"station_id":"ce4bgr92rcd13ifvqc6g","pricing_plan_id":"cebpf4jnsgd1na2vs0mg"},{"bike_id":"c2055a2a-1cff-4f19-a52d-9b52baeaa63f","system_id":"levelo_inurba_marseille","lat":43.32006,"lon":5.38152,"is_reserved":false,"is_disabled":true,"rental_uris":{"android":"levelo://app?vid=c2055a2a-1cff-4f19-a52d-9b52baeaa63f","ios":"levelo://app?vid=c2055a2a-1cff-4f19-a52d-9b52baeaa63f"},"vehicle_type_id":"4","last_reported":1743761463,"current_range_meters":14000,"station_id":"ce4bhr12rcd13ifvqhpg","pricing_plan_id":"cebpf4jnsgd1na2vs0mg"},{"bike_id":"3b4ad8c6-6244-4378-90d7-dac703d1508d","system_id":"levelo_inurba_marseille","lat":43.23203,"lon":5.35557,"is_reserved":false,"is_disabled":false,"rental_uris":{"android":"levelo://app?vid=3b4ad8c6-6244-4378-90d7-dac703d1508d","ios":"levelo://app?vid=3b4ad8c6-6244-4378-90d7-dac703d1508d"},"vehicle_type_id":"4","last_reported":1743761463,"current_range_meters":14400,"station_id":"ce4bhu92rcd13ifvqi70","pricing_plan_id":"cebpf4jnsgd1na2vs0mg"},{"bike_id":"0eb30f16-826e-404e-9494-cbd59d704ab7","system_id":"levelo_inurba_marseille","lat":43.2902,"lon":5.38615,"is_reserved":false,"is_disabled":true,"rental_uris":{"android":"levelo://app?vid=0eb30f16-826e-404e-9494-cbd59d704ab7","ios":"levelo://app?vid=0eb30f16-826e-404e-9494-cbd59d704ab7"},"vehicle_type_id":"4","last_reported":1743761463,"current_range_meters":14400,"station_id":"ce4bh4p2rcd13ifvqe0g","pricing_plan_id":"cebpf4jnsgd1na2vs0mg"},{"bike_id":"978f00e3-47d2-481d-80c8-31e1e7283ad6","system_id":"levelo_inurba_marseille","lat":43.22922,"lon":5.35367,"is_reserved":false,"is_disabled":false,"rental_uris":{"android":"levelo://app?vid=978f00e3-47d2-481d-80c8-31e1e7283ad6","ios":"levelo://app?vid=978f00e3-47d2-481d-80c8-31e1e7283ad6"},"vehicle_type_id":"4","last_reported":1743761463,"current_range_meters":14400,"station_id":"cpo3532slgdg3j2ikp40","pricing_plan_id":"cebpf4jnsgd1na2vs0mg"},{"bike_id":"45abf899-2256-4c45-8671-66c0bb5c7725","system_id":"levelo_inurba_marseille","lat":43.28677,"lon":5.38671,"is_reserved":false,"is_disabled":false,"rental_uris":{"android":"levelo://app?vid=45abf899-2256-4c45-8671-66c0bb5c7725","ios":"levelo://app?vid=45abf899-2256-4c45-8671-66c0bb5c7725"},"vehicle_type_id":"4","last_reported":1743761463,"current_range_meters":14800,"station_id":"ce4bh492rcd13ifvqdug","pricing_plan_id":"cebpf4jnsgd1na2vs0mg"},{"bike_id":"27ebc7eb-5de4-43f0-933c-44535f627bc9","system_id":"levelo_inurba_marseille","lat":43.25373,"lon":5.41859,"is_reserved":false,"is_disabled":false,"rental_uris":{"android":"levelo://app?vid=27ebc7eb-5de4-43f0-933c-44535f627bc9","ios":"levelo://app?vid=27ebc7eb-5de4-43f0-933c-44535f627bc9"},"vehicle_type_id":"4","last_reported":1743761463,"current_range_meters":14800,"station_id":"","pricing_plan_id":"cebpf4jnsgd1na2vs0mg"},{"bike_id":"0e971649-0408-4b65-a036-b992dd17429e","system_id":"levelo_inurba_marseille","lat":43.23197,"lon":5.35547,"is_reserved":false,"is_disabled":false,"rental_uris":{"android":"levelo://app?vid=0e971649-0408-4b65-a036-b992dd17429e","ios":"levelo://app?vid=0e971649-0408-4b65-a036-b992dd17429e"},"vehicle_type_id":"4","last_reported":1743761463,"current_range_meters":14800,"station_id":"ce4bhu92rcd13ifvqi70","pricing_plan_id":"cebpf4jnsgd1na2vs0mg"},{"bike_id":"27c74039-7f92-4ddc-a3fe-ecfb54237f79","system_id":"levelo_inurba_marseille","lat":43.26944,"lon":5.40242,"is_reserved":false,"is_disabled":false,"rental_uris":{"android":"levelo://app?vid=27c74039-7f92-4ddc-a3fe-ecfb54237f79","ios":"levelo://app?vid=27c74039-7f92-4ddc-a3fe-ecfb54237f79"},"vehicle_type_id":"4","last_reported":1743761463,"current_range_meters":14800,"station_id":"cjm6bp8fraef2m0cb0m0","pricing_plan_id":"cebpf4jnsgd1na2vs0mg"},{"bike_id":"cccce150-77a7-4565-8ca1-36858ce9e6b0","system_id":"levelo_inurba_marseille","lat":43.32109,"lon":5.36768,"is_reserved":false,"is_disabled":false,"rental_uris":{"android":"levelo://app?vid=cccce150-77a7-4565-8ca1-36858ce9e6b0","ios":"levelo://app?vid=cccce150-77a7-4565-8ca1-36858ce9e6b0"},"vehicle_type_id":"4","last_reported":1743761463,"current_range_meters":14800,"station_id":"ce4bhrh2rcd13ifvqhug","pricing_plan_id":"cebpf4jnsgd1na2vs0mg"},{"bike_id":"1d5ef6d0-a413-45b3-8100-7222d11689f2","system_id":"levelo_inurba_marseille","lat":43.289203,"lon":5.38403,"is_reserved":false,"is_disabled":true,"rental_uris":{"android":"levelo://app?vid=1d5ef6d0-a413-45b3-8100-7222d11689f2","ios":"levelo://app?vid=1d5ef6d0-a413-45b3-8100-7222d11689f2"},"vehicle_type_id":"4","last_reported":1743761463,"current_range_meters":14800,"station_id":"ce4bh612rcd13ifvqe6g","pricing_plan_id":"cebpf4jnsgd1na2vs0mg"},{"bike_id":"d1d13155-8627-4226-a423-2fd2dca5c5f7","system_id":"levelo_inurba_marseille","lat":43.26059,"lon":5.39389,"is_reserved":false,"is_disabled":false,"rental_uris":{"android":"levelo://app?vid=d1d13155-8627-4226-a423-2fd2dca5c5f7","ios":"levelo://app?vid=d1d13155-8627-4226-a423-2fd2dca5c5f7"},"vehicle_type_id":"4","last_reported":1743761463,"current_range_meters":15200,"station_id":"ce4bhh92rcd13ifvqfj0","pricing_plan_id":"cebpf4jnsgd1na2vs0mg"},{"bike_id":"48ec1fe3-fdf4-49a5-977a-526829b4e2e3","system_id":"levelo_inurba_marseille","lat":43.23047,"lon":5.35494,"is_reserved":false,"is_disabled":false,"rental_uris":{"android":"levelo://app?vid=48ec1fe3-fdf4-49a5-977a-526829b4e2e3","ios":"levelo://app?vid=48ec1fe3-fdf4-49a5-977a-526829b4e2e3"},"vehicle_type_id":"4","last_reported":1743761463,"current_range_meters":15200,"station_id":"cpo3342slgdg3j2ifvpg","pricing_plan_id":"cebpf4jnsgd1na2vs0mg"},{"bike_id":"aed30430-0dbe-46b5-98e6-f08fb653f598","system_id":"levelo_inurba_marseille","lat":43.297913,"lon":5.380844,"is_reserved":false,"is_disabled":false,"rental_uris":{"android":"levelo://app?vid=aed30430-0dbe-46b5-98e6-f08fb653f598","ios":"levelo://app?vid=aed30430-0dbe-46b5-98e6-f08fb653f598"},"vehicle_type_id":"4","last_reported":1743761463,"current_range_meters":15200,"station_id":"ce4bgip2rcd13ifvqbb0","pricing_plan_id":"cebpf4jnsgd1na2vs0mg"},{"bike_id":"532849f5-dec6-412a-9bef-b2c3110540bd","system_id":"levelo_inurba_marseille","lat":43.28408,"lon":5.3751,"is_reserved":false,"is_disabled":false,"rental_uris":{"android":"levelo://app?vid=532849f5-dec6-412a-9bef-b2c3110540bd","ios":"levelo://app?vid=532849f5-dec6-412a-9bef-b2c3110540bd"},"vehicle_type_id":"4","last_reported":1743761463,"current_range_meters":15200,"station_id":"ce4bh412rcd13ifvqds0","pricing_plan_id":"cebpf4jnsgd1na2vs0mg"},{"bike_id":"7f5786cf-ac58-4e6b-b830-b151fa2e20d7","system_id":"levelo_inurba_marseille","lat":43.29617,"lon":5.37711,"is_reserved":false,"is_disabled":false,"rental_uris":{"android":"levelo://app?vid=7f5786cf-ac58-4e6b-b830-b151fa2e20d7","ios":"levelo://app?vid=7f5786cf-ac58-4e6b-b830-b151fa2e20d7"},"vehicle_type_id":"4","last_reported":1743761463,"current_range_meters":15200,"station_id":"ce4bgi92rcd13ifvqb90","pricing_plan_id":"cebpf4jnsgd1na2vs0mg"},{"bike_id":"78346f8f-963e-4373-b063-c98ddd9b543a","system_id":"levelo_inurba_marseille","lat":43.24554,"lon":5.39522,"is_reserved":false,"is_disabled":false,"rental_uris":{"android":"levelo://app?vid=78346f8f-963e-4373-b063-c98ddd9b543a","ios":"levelo://app?vid=78346f8f-963e-4373-b063-c98ddd9b543a"},"vehicle_type_id":"4","last_reported":1743761463,"current_range_meters":16000,"station_id":"ce4bhlp2rcd13ifvqgjg","pricing_plan_id":"cebpf4jnsgd1na2vs0mg"},{"bike_id":"eb79d1f9-7c91-4ea2-b5f8-796189743e1a","system_id":"levelo_inurba_marseille","lat":43.33732,"lon":5.39173,"is_reserved":false,"is_disabled":false,"rental_uris":{"android":"levelo://app?vid=eb79d1f9-7c91-4ea2-b5f8-796189743e1a","ios":"levelo://app?vid=eb79d1f9-7c91-4ea2-b5f8-796189743e1a"},"vehicle_type_id":"4","last_reported":1743761463,"current_range_meters":16000,"station_id":"ce4bhr92rcd13ifvqhsg","pricing_plan_id":"cebpf4jnsgd1na2vs0mg"},{"bike_id":"19b80c7f-db25-40c8-945f-67fe43b6cc5f","system_id":"levelo_inurba_marseille","lat":43.30544,"lon":5.36543,"is_reserved":false,"is_disabled":false,"rental_uris":{"android":"levelo://app?vid=19b80c7f-db25-40c8-945f-67fe43b6cc5f","ios":"levelo://app?vid=19b80c7f-db25-40c8-945f-67fe43b6cc5f"},"vehicle_type_id":"4","last_reported":1743761463,"current_range_meters":16000,"station_id":"ce4bgs12rcd13ifvqcag","pricing_plan_id":"cebpf4jnsgd1na2vs0mg"},{"bike_id":"549a1903-10f2-4faa-8db2-b9d6c579af66","system_id":"levelo_inurba_marseille","lat":43.28709,"lon":5.37393,"is_reserved":false,"is_disabled":false,"rental_uris":{"android":"levelo://app?vid=549a1903-10f2-4faa-8db2-b9d6c579af66","ios":"levelo://app?vid=549a1903-10f2-4faa-8db2-b9d6c579af66"},"vehicle_type_id":"4","last_reported":1743761463,"current_range_meters":16000,"station_id":"ce4bh3p2rcd13ifvqdq0","pricing_plan_id":"cebpf4jnsgd1na2vs0mg"},{"bike_id":"621051f1-7a47-4f84-b12e-af5b7be70385","system_id":"levelo_inurba_marseille","lat":43.27152,"lon":5.38993,"is_reserved":false,"is_disabled":false,"rental_uris":{"android":"levelo://app?vid=621051f1-7a47-4f84-b12e-af5b7be70385","ios":"levelo://app?vid=621051f1-7a47-4f84-b12e-af5b7be70385"},"vehicle_type_id":"4","last_reported":1743761463,"current_range_meters":16000,"station_id":"","pricing_plan_id":"cebpf4jnsgd1na2vs0mg"},{"bike_id":"25d6c8c1-c85e-467f-b8ee-324d00a4398c","system_id":"levelo_inurba_marseille","lat":43.300844,"lon":5.390779,"is_reserved":false,"is_disabled":false,"rental_uris":{"android":"levelo://app?vid=25d6c8c1-c85e-467f-b8ee-324d00a4398c","ios":"levelo://app?vid=25d6c8c1-c85e-467f-b8ee-324d00a4398c"},"vehicle_type_id":"4","last_reported":1743761463,"current_range_meters":16000,"station_id":"ce4bh192rcd13ifvqdb0","pricing_plan_id":"cebpf4jnsgd1na2vs0mg"},{"bike_id":"430b1d10-fbfe-42e2-9d0a-8bf9528e8c06","system_id":"levelo_inurba_marseille","lat":43.295334,"lon":5.394028,"is_reserved":false,"is_disabled":false,"rental_uris":{"android":"levelo://app?vid=430b1d10-fbfe-42e2-9d0a-8bf9528e8c06","ios":"levelo://app?vid=430b1d10-fbfe-42e2-9d0a-8bf9528e8c06"},"vehicle_type_id":"4","last_reported":1743761463,"current_range_meters":16000,"station_id":"ce4bh292rcd13ifvqdf0","pricing_plan_id":"cebpf4jnsgd1na2vs0mg"},{"bike_id":"1cc9c9b3-17b7-4e7a-a431-f0ffee338051","system_id":"levelo_inurba_marseille","lat":43.29004,"lon":5.3561,"is_reserved":false,"is_disabled":false,"rental_uris":{"android":"levelo://app?vid=1cc9c9b3-17b7-4e7a-a431-f0ffee338051","ios":"levelo://app?vid=1cc9c9b3-17b7-4e7a-a431-f0ffee338051"},"vehicle_type_id":"4","last_reported":1743761463,"current_range_meters":16000,"station_id":"ce4bhb92rcd13ifvqen0","pricing_plan_id":"cebpf4jnsgd1na2vs0mg"},{"bike_id":"188e01b9-65db-4a5b-b580-c3a2d1a3e000","system_id":"levelo_inurba_marseille","lat":43.28728,"lon":5.37091,"is_reserved":false,"is_disabled":false,"rental_uris":{"android":"levelo://app?vid=188e01b9-65db-4a5b-b580-c3a2d1a3e000","ios":"levelo://app?vid=188e01b9-65db-4a5b-b580-c3a2d1a3e000"},"vehicle_type_id":"4","last_reported":1743761463,"current_range_meters":16000,"station_id":"","pricing_plan_id":"cebpf4jnsgd1na2vs0mg"},{"bike_id":"6d9715e6-045f-417b-844a-144b6e5c1132","system_id":"levelo_inurba_marseille","lat":43.2921,"lon":5.35723,"is_reserved":false,"is_disabled":false,"rental_uris":{"android":"levelo://app?vid=6d9715e6-045f-417b-844a-144b6e5c1132","ios":"levelo://app?vid=6d9715e6-045f-417b-844a-144b6e5c1132"},"vehicle_type_id":"4","last_reported":1743761463,"current_range_meters":16000,"station_id":"","pricing_plan_id":"cebpf4jnsgd1na2vs0mg"},{"bike_id":"d72ae546-019d-42c4-ab8a-aa9b8ed4f063","system_id":"levelo_inurba_marseille","lat":43.30474,"lon":5.37892,"is_reserved":false,"is_disabled":false,"rental_uris":{"android":"levelo://app?vid=d72ae546-019d-42c4-ab8a-aa9b8ed4f063","ios":"levelo://app?vid=d72ae546-019d-42c4-ab8a-aa9b8ed4f063"},"vehicle_type_id":"4","last_reported":1743761463,"current_range_meters":16400,"station_id":"ce4bgup2rcd13ifvqcn0","pricing_plan_id":"cebpf4jnsgd1na2vs0mg"},{"bike_id":"53d354a9-94ac-44b4-80de-46829108681e","system_id":"levelo_inurba_marseille","lat":43.29267,"lon":5.37628,"is_reserved":false,"is_disabled":false,"rental_uris":{"android":"levelo://app?vid=53d354a9-94ac-44b4-80de-46829108681e","ios":"levelo://app?vid=53d354a9-94ac-44b4-80de-46829108681e"},"vehicle_type_id":"4","last_reported":1743761463,"current_range_meters":16400,"station_id":"ce4bgi12rcd13ifvqb80","pricing_plan_id":"cebpf4jnsgd1na2vs0mg"},{"bike_id":"3513a14c-bda3-4271-93ff-9661989f0344","system_id":"levelo_inurba_marseille","lat":43.318867,"lon":5.407465,"is_reserved":false,"is_disabled":false,"rental_uris":{"android":"levelo://app?vid=3513a14c-bda3-4271-93ff-9661989f0344","ios":"levelo://app?vid=3513a14c-bda3-4271-93ff-9661989f0344"},"vehicle_type_id":"4","last_reported":1743761463,"current_range_meters":16400,"station_id":"ce4bhq12rcd13ifvqhig","pricing_plan_id":"cebpf4jnsgd1na2vs0mg"},{"bike_id":"5550fa2b-37d1-4dbb-9c42-0f4982ef21bf","system_id":"levelo_inurba_marseille","lat":43.29728,"lon":5.36626,"is_reserved":false,"is_disabled":false,"rental_uris":{"android":"levelo://app?vid=5550fa2b-37d1-4dbb-9c42-0f4982ef21bf","ios":"levelo://app?vid=5550fa2b-37d1-4dbb-9c42-0f4982ef21bf"},"vehicle_type_id":"4","last_reported":1743761463,"current_range_meters":16000,"station_id":"ce4bgn12rcd13ifvqbt0","pricing_plan_id":"cebpf4jnsgd1na2vs0mg"},{"bike_id":"fa3e5d89-fa1e-4836-97d3-3e5628c401c7","system_id":"levelo_inurba_marseille","lat":43.28604,"lon":5.37065,"is_reserved":false,"is_disabled":false,"rental_uris":{"android":"levelo://app?vid=fa3e5d89-fa1e-4836-97d3-3e5628c401c7","ios":"levelo://app?vid=fa3e5d89-fa1e-4836-97d3-3e5628c401c7"},"vehicle_type_id":"4","last_reported":1743761463,"current_range_meters":16400,"station_id":"ce4bht12rcd13ifvqi60","pricing_plan_id":"cebpf4jnsgd1na2vs0mg"},{"bike_id":"c716ab79-0808-41d1-922b-1c4b3d003d40","system_id":"levelo_inurba_marseille","lat":43.32001,"lon":5.38149,"is_reserved":false,"is_disabled":false,"rental_uris":{"android":"levelo://app?vid=c716ab79-0808-41d1-922b-1c4b3d003d40","ios":"levelo://app?vid=c716ab79-0808-41d1-922b-1c4b3d003d40"},"vehicle_type_id":"4","last_reported":1743761463,"current_range_meters":16400,"station_id":"ce4bhr12rcd13ifvqhpg","pricing_plan_id":"cebpf4jnsgd1na2vs0mg"},{"bike_id":"e5ee2974-8b2b-47cc-8433-fe1c0799c9f0","system_id":"levelo_inurba_marseille","lat":43.26951,"lon":5.38627,"is_reserved":false,"is_disabled":false,"rental_uris":{"android":"levelo://app?vid=e5ee2974-8b2b-47cc-8433-fe1c0799c9f0","ios":"levelo://app?vid=e5ee2974-8b2b-47cc-8433-fe1c0799c9f0"},"vehicle_type_id":"4","last_reported":1743761463,"current_range_meters":16400,"station_id":"ce4bhh92rcd13ifvqfh0","pricing_plan_id":"cebpf4jnsgd1na2vs0mg"},{"bike_id":"4602486f-8ebc-44c7-b0c3-55584c3862b1","system_id":"levelo_inurba_marseille","lat":43.23131,"lon":5.43708,"is_reserved":false,"is_disabled":false,"rental_uris":{"android":"levelo://app?vid=4602486f-8ebc-44c7-b0c3-55584c3862b1","ios":"levelo://app?vid=4602486f-8ebc-44c7-b0c3-55584c3862b1"},"vehicle_type_id":"4","last_reported":1743761463,"current_range_meters":16400,"station_id":"ce4bhmp2rcd13ifvqgog","pricing_plan_id":"cebpf4jnsgd1na2vs0mg"},{"bike_id":"d1d31995-3b6c-4ac1-b638-06e353234cde","system_id":"levelo_inurba_marseille","lat":43.29252,"lon":5.40906,"is_reserved":false,"is_disabled":false,"rental_uris":{"android":"levelo://app?vid=d1d31995-3b6c-4ac1-b638-06e353234cde","ios":"levelo://app?vid=d1d31995-3b6c-4ac1-b638-06e353234cde"},"vehicle_type_id":"4","last_reported":1743761463,"current_range_meters":16800,"station_id":"ce4bh192rcd13ifvqdc0","pricing_plan_id":"cebpf4jnsgd1na2vs0mg"},{"bike_id":"1c6a9a4d-5ef6-476b-b921-e44abfffd79e","system_id":"levelo_inurba_marseille","lat":43.25945,"lon":5.4088,"is_reserved":false,"is_disabled":false,"rental_uris":{"android":"levelo://app?vid=1c6a9a4d-5ef6-476b-b921-e44abfffd79e","ios":"levelo://app?vid=1c6a9a4d-5ef6-476b-b921-e44abfffd79e"},"vehicle_type_id":"4","last_reported":1743761463,"current_range_meters":17200,"station_id":"ce4bhm92rcd13ifvqglg","pricing_plan_id":"cebpf4jnsgd1na2vs0mg"},{"bike_id":"eaf859a6-ff3d-4281-be3e-7de787fa533a","system_id":"levelo_inurba_marseille","lat":43.30297,"lon":5.39219,"is_reserved":false,"is_disabled":true,"rental_uris":{"android":"levelo://app?vid=eaf859a6-ff3d-4281-be3e-7de787fa533a","ios":"levelo://app?vid=eaf859a6-ff3d-4281-be3e-7de787fa533a"},"vehicle_type_id":"4","last_reported":1743761463,"current_range_meters":16800,"station_id":"ce4bgkh2rcd13ifvqbk0","pricing_plan_id":"cebpf4jnsgd1na2vs0mg"},{"bike_id":"873934dc-376b-4de8-9351-e83fa6178468","system_id":"levelo_inurba_marseille","lat":43.24167,"lon":5.36411,"is_reserved":false,"is_disabled":false,"rental_uris":{"android":"levelo://app?vid=873934dc-376b-4de8-9351-e83fa6178468","ios":"levelo://app?vid=873934dc-376b-4de8-9351-e83fa6178468"},"vehicle_type_id":"4","last_reported":1743761463,"current_range_meters":16800,"station_id":"cpo36qri1sfpv3e86is0","pricing_plan_id":"cebpf4jnsgd1na2vs0mg"},{"bike_id":"1b186f9a-9e2f-4e16-a605-a4299a436671","system_id":"levelo_inurba_marseille","lat":43.30505,"lon":5.37938,"is_reserved":false,"is_disabled":false,"rental_uris":{"android":"levelo://app?vid=1b186f9a-9e2f-4e16-a605-a4299a436671","ios":"levelo://app?vid=1b186f9a-9e2f-4e16-a605-a4299a436671"},"vehicle_type_id":"4","last_reported":1743761463,"current_range_meters":16800,"station_id":"","pricing_plan_id":"cebpf4jnsgd1na2vs0mg"},{"bike_id":"85ea2a9c-8124-4772-a144-afc738e57457","system_id":"levelo_inurba_marseille","lat":43.30457,"lon":5.37915,"is_reserved":false,"is_disabled":false,"rental_uris":{"android":"levelo://app?vid=85ea2a9c-8124-4772-a144-afc738e57457","ios":"levelo://app?vid=85ea2a9c-8124-4772-a144-afc738e57457"},"vehicle_type_id":"4","last_reported":1743761463,"current_range_meters":16800,"station_id":"ce4bgup2rcd13ifvqcn0","pricing_plan_id":"cebpf4jnsgd1na2vs0mg"},{"bike_id":"39738b12-c420-447b-9d52-eaa849eb5830","system_id":"levelo_inurba_marseille","lat":43.300888,"lon":5.390754,"is_reserved":false,"is_disabled":false,"rental_uris":{"android":"levelo://app?vid=39738b12-c420-447b-9d52-eaa849eb5830","ios":"levelo://app?vid=39738b12-c420-447b-9d52-eaa849eb5830"},"vehicle_type_id":"4","last_reported":1743761463,"current_range_meters":16800,"station_id":"ce4bh192rcd13ifvqdb0","pricing_plan_id":"cebpf4jnsgd1na2vs0mg"},{"bike_id":"01a0e2aa-51cf-4d45-9194-8590d5844a14","system_id":"levelo_inurba_marseille","lat":43.29509,"lon":5.37505,"is_reserved":false,"is_disabled":false,"rental_uris":{"android":"levelo://app?vid=01a0e2aa-51cf-4d45-9194-8590d5844a14","ios":"levelo://app?vid=01a0e2aa-51cf-4d45-9194-8590d5844a14"},"vehicle_type_id":"4","last_reported":1743761463,"current_range_meters":16800,"station_id":"ce4bgkp2rcd13ifvqbmg","pricing_plan_id":"cebpf4jnsgd1na2vs0mg"},{"bike_id":"30b57730-cb66-4122-bd93-7dabcaba84e7","system_id":"levelo_inurba_marseille","lat":43.249011,"lon":5.406871,"is_reserved":false,"is_disabled":false,"rental_uris":{"android":"levelo://app?vid=30b57730-cb66-4122-bd93-7dabcaba84e7","ios":"levelo://app?vid=30b57730-cb66-4122-bd93-7dabcaba84e7"},"vehicle_type_id":"4","last_reported":1743761463,"current_range_meters":16800,"station_id":"","pricing_plan_id":"cebpf4jnsgd1na2vs0mg"},{"bike_id":"74fe882a-52a5-4f10-bd18-90b4ac54d6cf","system_id":"levelo_inurba_marseille","lat":43.29618,"lon":5.37167,"is_reserved":false,"is_disabled":false,"rental_uris":{"android":"levelo://app?vid=74fe882a-52a5-4f10-bd18-90b4ac54d6cf","ios":"levelo://app?vid=74fe882a-52a5-4f10-bd18-90b4ac54d6cf"},"vehicle_type_id":"4","last_reported":1743761463,"current_range_meters":16800,"station_id":"ce4bgnh2rcd13ifvqc0g","pricing_plan_id":"cebpf4jnsgd1na2vs0mg"},{"bike_id":"8864381b-5f0c-4641-9810-60ccea23f8ce","system_id":"levelo_inurba_marseille","lat":43.29534,"lon":5.37516,"is_reserved":false,"is_disabled":false,"rental_uris":{"android":"levelo://app?vid=8864381b-5f0c-4641-9810-60ccea23f8ce","ios":"levelo://app?vid=8864381b-5f0c-4641-9810-60ccea23f8ce"},"vehicle_type_id":"4","last_reported":1743761463,"current_range_meters":16800,"station_id":"ce4bgkp2rcd13ifvqbmg","pricing_plan_id":"cebpf4jnsgd1na2vs0mg"},{"bike_id":"e80cff7e-3348-41dd-883c-8738f02cbceb","system_id":"levelo_inurba_marseille","lat":43.248,"lon":5.37453,"is_reserved":false,"is_disabled":false,"rental_uris":{"android":"levelo://app?vid=e80cff7e-3348-41dd-883c-8738f02cbceb","ios":"levelo://app?vid=e80cff7e-3348-41dd-883c-8738f02cbceb"},"vehicle_type_id":"4","last_reported":1743761463,"current_range_meters":16800,"station_id":"ce4bhgh2rcd13ifvqfb0","pricing_plan_id":"cebpf4jnsgd1na2vs0mg"},{"bike_id":"e859a5c4-75ad-49fa-85bc-88f6fd522faa","system_id":"levelo_inurba_marseille","lat":43.24154,"lon":5.36403,"is_reserved":false,"is_disabled":false,"rental_uris":{"android":"levelo://app?vid=e859a5c4-75ad-49fa-85bc-88f6fd522faa","ios":"levelo://app?vid=e859a5c4-75ad-49fa-85bc-88f6fd522faa"},"vehicle_type_id":"4","last_reported":1743761463,"current_range_meters":16800,"station_id":"cpo36qri1sfpv3e86is0","pricing_plan_id":"cebpf4jnsgd1na2vs0mg"},{"bike_id":"5921f9af-fac9-4744-97f7-9fecf3c22604","system_id":"levelo_inurba_marseille","lat":43.304682,"lon":5.379206,"is_reserved":false,"is_disabled":false,"rental_uris":{"android":"levelo://app?vid=5921f9af-fac9-4744-97f7-9fecf3c22604","ios":"levelo://app?vid=5921f9af-fac9-4744-97f7-9fecf3c22604"},"vehicle_type_id":"4","last_reported":1743761463,"current_range_meters":16800,"station_id":"ce4bgt12rcd13ifvqce0","pricing_plan_id":"cebpf4jnsgd1na2vs0mg"},{"bike_id":"408b95e9-fdb3-43d0-99f8-777c39d59d13","system_id":"levelo_inurba_marseille","lat":43.26229,"lon":5.40451,"is_reserved":false,"is_disabled":false,"rental_uris":{"android":"levelo://app?vid=408b95e9-fdb3-43d0-99f8-777c39d59d13","ios":"levelo://app?vid=408b95e9-fdb3-43d0-99f8-777c39d59d13"},"vehicle_type_id":"4","last_reported":1743761463,"current_range_meters":17200,"station_id":"ce4bhmh2rcd13ifvqgmg","pricing_plan_id":"cebpf4jnsgd1na2vs0mg"},{"bike_id":"07691b30-a8d6-48df-83af-def33f4d68e2","system_id":"levelo_inurba_marseille","lat":43.29677,"lon":5.36159,"is_reserved":false,"is_disabled":true,"rental_uris":{"android":"levelo://app?vid=07691b30-a8d6-48df-83af-def33f4d68e2","ios":"levelo://app?vid=07691b30-a8d6-48df-83af-def33f4d68e2"},"vehicle_type_id":"4","last_reported":1743761463,"current_range_meters":17200,"station_id":"","pricing_plan_id":"cebpf4jnsgd1na2vs0mg"},{"bike_id":"675fc0a8-10aa-40f4-ac3a-a3b605237bd7","system_id":"levelo_inurba_marseille","lat":43.23196,"lon":5.35558,"is_reserved":false,"is_disabled":false,"rental_uris":{"android":"levelo://app?vid=675fc0a8-10aa-40f4-ac3a-a3b605237bd7","ios":"levelo://app?vid=675fc0a8-10aa-40f4-ac3a-a3b605237bd7"},"vehicle_type_id":"4","last_reported":1743761463,"current_range_meters":17200,"station_id":"ce4bhu92rcd13ifvqi70","pricing_plan_id":"cebpf4jnsgd1na2vs0mg"},{"bike_id":"b5371f81-9e15-4726-9463-ed781d9d0e16","system_id":"levelo_inurba_marseille","lat":43.23177,"lon":5.39994,"is_reserved":false,"is_disabled":false,"rental_uris":{"android":"levelo://app?vid=b5371f81-9e15-4726-9463-ed781d9d0e16","ios":"levelo://app?vid=b5371f81-9e15-4726-9463-ed781d9d0e16"},"vehicle_type_id":"4","last_reported":1743761463,"current_range_meters":17200,"station_id":"ce4bhn12rcd13ifvqgqg","pricing_plan_id":"cebpf4jnsgd1na2vs0mg"},{"bike_id":"da3a5bff-d7c3-4258-a28e-9d5486607f73","system_id":"levelo_inurba_marseille","lat":43.29922,"lon":5.37475,"is_reserved":false,"is_disabled":false,"rental_uris":{"android":"levelo://app?vid=da3a5bff-d7c3-4258-a28e-9d5486607f73","ios":"levelo://app?vid=da3a5bff-d7c3-4258-a28e-9d5486607f73"},"vehicle_type_id":"4","last_reported":1743761463,"current_range_meters":17200,"station_id":"ce4bgjh2rcd13ifvqbg0","pricing_plan_id":"cebpf4jnsgd1na2vs0mg"},{"bike_id":"a81f2b24-8632-412d-9b28-30f4f723b484","system_id":"levelo_inurba_marseille","lat":43.2954,"lon":5.37504,"is_reserved":false,"is_disabled":false,"rental_uris":{"android":"levelo://app?vid=a81f2b24-8632-412d-9b28-30f4f723b484","ios":"levelo://app?vid=a81f2b24-8632-412d-9b28-30f4f723b484"},"vehicle_type_id":"4","last_reported":1743761463,"current_range_meters":17200,"station_id":"ce4bgkp2rcd13ifvqbmg","pricing_plan_id":"cebpf4jnsgd1na2vs0mg"},{"bike_id":"2e0c68ea-3361-418e-9d72-bccb3e4de1ab","system_id":"levelo_inurba_marseille","lat":43.30561,"lon":5.36537,"is_reserved":false,"is_disabled":false,"rental_uris":{"android":"levelo://app?vid=2e0c68ea-3361-418e-9d72-bccb3e4de1ab","ios":"levelo://app?vid=2e0c68ea-3361-418e-9d72-bccb3e4de1ab"},"vehicle_type_id":"4","last_reported":1743761463,"current_range_meters":17200,"station_id":"ce4bgs12rcd13ifvqcag","pricing_plan_id":"cebpf4jnsgd1na2vs0mg"},{"bike_id":"772a2197-0473-4184-8794-b5d91f12e046","system_id":"levelo_inurba_marseille","lat":43.31216,"lon":5.36856,"is_reserved":false,"is_disabled":false,"rental_uris":{"android":"levelo://app?vid=772a2197-0473-4184-8794-b5d91f12e046","ios":"levelo://app?vid=772a2197-0473-4184-8794-b5d91f12e046"},"vehicle_type_id":"4","last_reported":1743761463,"current_range_meters":17200,"station_id":"ce4bgl92rcd13ifvqbq0","pricing_plan_id":"cebpf4jnsgd1na2vs0mg"},{"bike_id":"a77719f1-8fcd-4faf-baa8-7510e392317e","system_id":"levelo_inurba_marseille","lat":43.2781,"lon":5.40698,"is_reserved":false,"is_disabled":false,"rental_uris":{"android":"levelo://app?vid=a77719f1-8fcd-4faf-baa8-7510e392317e","ios":"levelo://app?vid=a77719f1-8fcd-4faf-baa8-7510e392317e"},"vehicle_type_id":"4","last_reported":1743761463,"current_range_meters":17600,"station_id":"ce4bhnh2rcd13ifvqgtg","pricing_plan_id":"cebpf4jnsgd1na2vs0mg"},{"bike_id":"94af4524-2639-4f02-9cbf-82440555289b","system_id":"levelo_inurba_marseille","lat":43.29271,"lon":5.38432,"is_reserved":false,"is_disabled":false,"rental_uris":{"android":"levelo://app?vid=94af4524-2639-4f02-9cbf-82440555289b","ios":"levelo://app?vid=94af4524-2639-4f02-9cbf-82440555289b"},"vehicle_type_id":"4","last_reported":1743761463,"current_range_meters":17600,"station_id":"ce4bh692rcd13ifvqea0","pricing_plan_id":"cebpf4jnsgd1na2vs0mg"},{"bike_id":"9a9030df-dd9e-4399-a39a-995422018cbf","system_id":"levelo_inurba_marseille","lat":43.29897,"lon":5.43669,"is_reserved":false,"is_disabled":false,"rental_uris":{"android":"levelo://app?vid=9a9030df-dd9e-4399-a39a-995422018cbf","ios":"levelo://app?vid=9a9030df-dd9e-4399-a39a-995422018cbf"},"vehicle_type_id":"4","last_reported":1743761463,"current_range_meters":17600,"station_id":"ce4bhpp2rcd13ifvqhfg","pricing_plan_id":"cebpf4jnsgd1na2vs0mg"},{"bike_id":"3b07dc74-744e-417b-8dc6-1a0d0ff46d51","system_id":"levelo_inurba_marseille","lat":43.25828,"lon":5.39422,"is_reserved":false,"is_disabled":false,"rental_uris":{"android":"levelo://app?vid=3b07dc74-744e-417b-8dc6-1a0d0ff46d51","ios":"levelo://app?vid=3b07dc74-744e-417b-8dc6-1a0d0ff46d51"},"vehicle_type_id":"4","last_reported":1743761463,"current_range_meters":17600,"station_id":"ce4bhip2rcd13ifvqft0","pricing_plan_id":"cebpf4jnsgd1na2vs0mg"},{"bike_id":"9cf88250-cb1b-4afe-9f86-175249483bd4","system_id":"levelo_inurba_marseille","lat":43.30478,"lon":5.37912,"is_reserved":false,"is_disabled":false,"rental_uris":{"android":"levelo://app?vid=9cf88250-cb1b-4afe-9f86-175249483bd4","ios":"levelo://app?vid=9cf88250-cb1b-4afe-9f86-175249483bd4"},"vehicle_type_id":"4","last_reported":1743761463,"current_range_meters":18000,"station_id":"ce4bgup2rcd13ifvqcn0","pricing_plan_id":"cebpf4jnsgd1na2vs0mg"},{"bike_id":"ed81289f-b9f3-4d86-9f8f-d8896cd8f07f","system_id":"levelo_inurba_marseille","lat":43.30418,"lon":5.39756,"is_reserved":false,"is_disabled":true,"rental_uris":{"android":"levelo://app?vid=ed81289f-b9f3-4d86-9f8f-d8896cd8f07f","ios":"levelo://app?vid=ed81289f-b9f3-4d86-9f8f-d8896cd8f07f"},"vehicle_type_id":"4","last_reported":1743761463,"current_range_meters":18000,"station_id":"ce4bh092rcd13ifvqd20","pricing_plan_id":"cebpf4jnsgd1na2vs0mg"},{"bike_id":"13b2c0b4-342f-4564-8399-a17604a3a4b3","system_id":"levelo_inurba_marseille","lat":43.32494,"lon":5.36562,"is_reserved":false,"is_disabled":false,"rental_uris":{"android":"levelo://app?vid=13b2c0b4-342f-4564-8399-a17604a3a4b3","ios":"levelo://app?vid=13b2c0b4-342f-4564-8399-a17604a3a4b3"},"vehicle_type_id":"4","last_reported":1743761463,"current_range_meters":18000,"station_id":"ce4bhs12rcd13ifvqhvg","pricing_plan_id":"cebpf4jnsgd1na2vs0mg"},{"bike_id":"bc6d3aca-4005-43b7-8b5d-027405d36ac4","system_id":"levelo_inurba_marseille","lat":43.27811,"lon":5.4071,"is_reserved":false,"is_disabled":false,"rental_uris":{"android":"levelo://app?vid=bc6d3aca-4005-43b7-8b5d-027405d36ac4","ios":"levelo://app?vid=bc6d3aca-4005-43b7-8b5d-027405d36ac4"},"vehicle_type_id":"4","last_reported":1743761463,"current_range_meters":18000,"station_id":"ce4bhnh2rcd13ifvqgtg","pricing_plan_id":"cebpf4jnsgd1na2vs0mg"},{"bike_id":"aad20adb-3840-4088-a60b-b1c33dacc2ec","system_id":"levelo_inurba_marseille","lat":43.30546,"lon":5.36559,"is_reserved":false,"is_disabled":false,"rental_uris":{"android":"levelo://app?vid=aad20adb-3840-4088-a60b-b1c33dacc2ec","ios":"levelo://app?vid=aad20adb-3840-4088-a60b-b1c33dacc2ec"},"vehicle_type_id":"4","last_reported":1743761463,"current_range_meters":18000,"station_id":"ce4bgs12rcd13ifvqcag","pricing_plan_id":"cebpf4jnsgd1na2vs0mg"},{"bike_id":"464c40ce-b431-495f-b81f-62bbc87b5196","system_id":"levelo_inurba_marseille","lat":43.29514,"lon":5.39045,"is_reserved":false,"is_disabled":false,"rental_uris":{"android":"levelo://app?vid=464c40ce-b431-495f-b81f-62bbc87b5196","ios":"levelo://app?vid=464c40ce-b431-495f-b81f-62bbc87b5196"},"vehicle_type_id":"4","last_reported":1743761463,"current_range_meters":18000,"station_id":"ce4bh3p2rcd13ifvqdp0","pricing_plan_id":"cebpf4jnsgd1na2vs0mg"},{"bike_id":"2143883d-4804-48f9-854c-66ca15dc7b0e","system_id":"levelo_inurba_marseille","lat":43.29845,"lon":5.36271,"is_reserved":false,"is_disabled":false,"rental_uris":{"android":"levelo://app?vid=2143883d-4804-48f9-854c-66ca15dc7b0e","ios":"levelo://app?vid=2143883d-4804-48f9-854c-66ca15dc7b0e"},"vehicle_type_id":"4","last_reported":1743761463,"current_range_meters":18000,"station_id":"ce4bgpp2rcd13ifvqc3g","pricing_plan_id":"cebpf4jnsgd1na2vs0mg"},{"bike_id":"d2a07d60-57ab-498a-9a05-2527f7931b4d","system_id":"levelo_inurba_marseille","lat":43.23056,"lon":5.35495,"is_reserved":false,"is_disabled":false,"rental_uris":{"android":"levelo://app?vid=d2a07d60-57ab-498a-9a05-2527f7931b4d","ios":"levelo://app?vid=d2a07d60-57ab-498a-9a05-2527f7931b4d"},"vehicle_type_id":"4","last_reported":1743761463,"current_range_meters":18800,"station_id":"cpo3342slgdg3j2ifvpg","pricing_plan_id":"cebpf4jnsgd1na2vs0mg"},{"bike_id":"5e487423-312c-4cc7-8a57-e002fe8c3803","system_id":"levelo_inurba_marseille","lat":43.27556,"lon":5.38428,"is_reserved":false,"is_disabled":false,"rental_uris":{"android":"levelo://app?vid=5e487423-312c-4cc7-8a57-e002fe8c3803","ios":"levelo://app?vid=5e487423-312c-4cc7-8a57-e002fe8c3803"},"vehicle_type_id":"4","last_reported":1743761463,"current_range_meters":18800,"station_id":"ce4bhh92rcd13ifvqfi0","pricing_plan_id":"cebpf4jnsgd1na2vs0mg"},{"bike_id":"cdaf8618-8f27-4404-b140-7c078d16c22b","system_id":"levelo_inurba_marseille","lat":43.23189,"lon":5.3554,"is_reserved":false,"is_disabled":false,"rental_uris":{"android":"levelo://app?vid=cdaf8618-8f27-4404-b140-7c078d16c22b","ios":"levelo://app?vid=cdaf8618-8f27-4404-b140-7c078d16c22b"},"vehicle_type_id":"4","last_reported":1743761463,"current_range_meters":18800,"station_id":"ce4bhu92rcd13ifvqi70","pricing_plan_id":"cebpf4jnsgd1na2vs0mg"},{"bike_id":"0b225a7c-f48f-4c62-9e45-afc2ef8c5279","system_id":"levelo_inurba_marseille","lat":43.27463,"lon":5.4247,"is_reserved":false,"is_disabled":false,"rental_uris":{"android":"levelo://app?vid=0b225a7c-f48f-4c62-9e45-afc2ef8c5279","ios":"levelo://app?vid=0b225a7c-f48f-4c62-9e45-afc2ef8c5279"},"vehicle_type_id":"4","last_reported":1743761463,"current_range_meters":18800,"station_id":"ce4bhn92rcd13ifvqgrg","pricing_plan_id":"cebpf4jnsgd1na2vs0mg"},{"bike_id":"30632cd9-a6ad-420b-b76a-a3305eecd05a","system_id":"levelo_inurba_marseille","lat":43.288518,"lon":5.393214,"is_reserved":false,"is_disabled":false,"rental_uris":{"android":"levelo://app?vid=30632cd9-a6ad-420b-b76a-a3305eecd05a","ios":"levelo://app?vid=30632cd9-a6ad-420b-b76a-a3305eecd05a"},"vehicle_type_id":"4","last_reported":1743761463,"current_range_meters":18800,"station_id":"ce4bh2p2rcd13ifvqdi0","pricing_plan_id":"cebpf4jnsgd1na2vs0mg"},{"bike_id":"0248d3f6-8ac5-4c84-a04d-0147f06ddfc5","system_id":"levelo_inurba_marseille","lat":43.2731,"lon":5.39103,"is_reserved":false,"is_disabled":false,"rental_uris":{"android":"levelo://app?vid=0248d3f6-8ac5-4c84-a04d-0147f06ddfc5","ios":"levelo://app?vid=0248d3f6-8ac5-4c84-a04d-0147f06ddfc5"},"vehicle_type_id":"4","last_reported":1743761463,"current_range_meters":18800,"station_id":"ce4bhgp2rcd13ifvqfe0","pricing_plan_id":"cebpf4jnsgd1na2vs0mg"},{"bike_id":"04809486-eff8-46e7-a036-ddd526904bd9","system_id":"levelo_inurba_marseille","lat":43.300869,"lon":5.390741,"is_reserved":false,"is_disabled":false,"rental_uris":{"android":"levelo://app?vid=04809486-eff8-46e7-a036-ddd526904bd9","ios":"levelo://app?vid=04809486-eff8-46e7-a036-ddd526904bd9"},"vehicle_type_id":"4","last_reported":1743761463,"current_range_meters":18800,"station_id":"ce4bh192rcd13ifvqdb0","pricing_plan_id":"cebpf4jnsgd1na2vs0mg"},{"bike_id":"8803632d-4183-4e87-8173-d3d86adcdb2d","system_id":"levelo_inurba_marseille","lat":43.3091,"lon":5.36854,"is_reserved":false,"is_disabled":false,"rental_uris":{"android":"levelo://app?vid=8803632d-4183-4e87-8173-d3d86adcdb2d","ios":"levelo://app?vid=8803632d-4183-4e87-8173-d3d86adcdb2d"},"vehicle_type_id":"4","last_reported":1743761463,"current_range_meters":18800,"station_id":"ce4bgn92rcd13ifvqbvg","pricing_plan_id":"cebpf4jnsgd1na2vs0mg"},{"bike_id":"762ee7c1-ee07-4367-98d7-307d6ad03cb3","system_id":"levelo_inurba_marseille","lat":43.31383,"lon":5.36626,"is_reserved":false,"is_disabled":false,"rental_uris":{"android":"levelo://app?vid=762ee7c1-ee07-4367-98d7-307d6ad03cb3","ios":"levelo://app?vid=762ee7c1-ee07-4367-98d7-307d6ad03cb3"},"vehicle_type_id":"4","last_reported":1743761463,"current_range_meters":18800,"station_id":"","pricing_plan_id":"cebpf4jnsgd1na2vs0mg"},{"bike_id":"9816da49-bcf7-4f26-a657-eecdb2a3e693","system_id":"levelo_inurba_marseille","lat":43.28668,"lon":5.36336,"is_reserved":false,"is_disabled":false,"rental_uris":{"android":"levelo://app?vid=9816da49-bcf7-4f26-a657-eecdb2a3e693","ios":"levelo://app?vid=9816da49-bcf7-4f26-a657-eecdb2a3e693"},"vehicle_type_id":"4","last_reported":1743761463,"current_range_meters":18800,"station_id":"ce4bhah2rcd13ifvqej0","pricing_plan_id":"cebpf4jnsgd1na2vs0mg"},{"bike_id":"14b0274a-507f-439a-9961-5327baaac2de","system_id":"levelo_inurba_marseille","lat":43.24689,"lon":5.41177,"is_reserved":false,"is_disabled":false,"rental_uris":{"android":"levelo://app?vid=14b0274a-507f-439a-9961-5327baaac2de","ios":"levelo://app?vid=14b0274a-507f-439a-9961-5327baaac2de"},"vehicle_type_id":"4","last_reported":1743761463,"current_range_meters":19200,"station_id":"","pricing_plan_id":"cebpf4jnsgd1na2vs0mg"},{"bike_id":"9029707b-3f67-4a69-925c-9198ce6eea5c","system_id":"levelo_inurba_marseille","lat":43.30092,"lon":5.39061,"is_reserved":false,"is_disabled":false,"rental_uris":{"android":"levelo://app?vid=9029707b-3f67-4a69-925c-9198ce6eea5c","ios":"levelo://app?vid=9029707b-3f67-4a69-925c-9198ce6eea5c"},"vehicle_type_id":"4","last_reported":1743761463,"current_range_meters":19200,"station_id":"ce4bh192rcd13ifvqdb0","pricing_plan_id":"cebpf4jnsgd1na2vs0mg"},{"bike_id":"91ef8820-1e76-4546-8c6f-9e32b7d7af66","system_id":"levelo_inurba_marseille","lat":43.313433,"lon":5.36707,"is_reserved":false,"is_disabled":false,"rental_uris":{"android":"levelo://app?vid=91ef8820-1e76-4546-8c6f-9e32b7d7af66","ios":"levelo://app?vid=91ef8820-1e76-4546-8c6f-9e32b7d7af66"},"vehicle_type_id":"4","last_reported":1743761463,"current_range_meters":19200,"station_id":"ce4bgr92rcd13ifvqc6g","pricing_plan_id":"cebpf4jnsgd1na2vs0mg"},{"bike_id":"a212f22e-27f3-4680-82f0-2e3072aa4f55","system_id":"levelo_inurba_marseille","lat":43.30905,"lon":5.36853,"is_reserved":false,"is_disabled":false,"rental_uris":{"android":"levelo://app?vid=a212f22e-27f3-4680-82f0-2e3072aa4f55","ios":"levelo://app?vid=a212f22e-27f3-4680-82f0-2e3072aa4f55"},"vehicle_type_id":"4","last_reported":1743761463,"current_range_meters":19200,"station_id":"ce4bgn92rcd13ifvqbvg","pricing_plan_id":"cebpf4jnsgd1na2vs0mg"},{"bike_id":"24f6f85d-a0e4-466f-9cfa-c05a05c32b1e","system_id":"levelo_inurba_marseille","lat":43.29838,"lon":5.36262,"is_reserved":false,"is_disabled":false,"rental_uris":{"android":"levelo://app?vid=24f6f85d-a0e4-466f-9cfa-c05a05c32b1e","ios":"levelo://app?vid=24f6f85d-a0e4-466f-9cfa-c05a05c32b1e"},"vehicle_type_id":"4","last_reported":1743761463,"current_range_meters":19200,"station_id":"ce4bgpp2rcd13ifvqc3g","pricing_plan_id":"cebpf4jnsgd1na2vs0mg"},{"bike_id":"7290680d-f938-486e-875d-054ff2400990","system_id":"levelo_inurba_marseille","lat":43.27923,"lon":5.41037,"is_reserved":false,"is_disabled":false,"rental_uris":{"android":"levelo://app?vid=7290680d-f938-486e-875d-054ff2400990","ios":"levelo://app?vid=7290680d-f938-486e-875d-054ff2400990"},"vehicle_type_id":"4","last_reported":1743761463,"current_range_meters":19200,"station_id":"ce4bhnp2rcd13ifvqh0g","pricing_plan_id":"cebpf4jnsgd1na2vs0mg"},{"bike_id":"4d24ddbf-490a-4c1c-8981-b8dcfe6e42af","system_id":"levelo_inurba_marseille","lat":43.31373,"lon":5.36735,"is_reserved":false,"is_disabled":false,"rental_uris":{"android":"levelo://app?vid=4d24ddbf-490a-4c1c-8981-b8dcfe6e42af","ios":"levelo://app?vid=4d24ddbf-490a-4c1c-8981-b8dcfe6e42af"},"vehicle_type_id":"4","last_reported":1743761463,"current_range_meters":19200,"station_id":"ce4bgr92rcd13ifvqc6g","pricing_plan_id":"cebpf4jnsgd1na2vs0mg"},{"bike_id":"ad6039a6-fe06-479e-ac46-f48ffcd0f32a","system_id":"levelo_inurba_marseille","lat":43.33604,"lon":5.41005,"is_reserved":false,"is_disabled":false,"rental_uris":{"android":"levelo://app?vid=ad6039a6-fe06-479e-ac46-f48ffcd0f32a","ios":"levelo://app?vid=ad6039a6-fe06-479e-ac46-f48ffcd0f32a"},"vehicle_type_id":"4","last_reported":1743761463,"current_range_meters":19200,"station_id":"ce4bhqh2rcd13ifvqhmg","pricing_plan_id":"cebpf4jnsgd1na2vs0mg"},{"bike_id":"ee520ae0-5302-45b4-9880-eecb8b179c62","system_id":"levelo_inurba_marseille","lat":43.31219,"lon":5.36945,"is_reserved":false,"is_disabled":false,"rental_uris":{"android":"levelo://app?vid=ee520ae0-5302-45b4-9880-eecb8b179c62","ios":"levelo://app?vid=ee520ae0-5302-45b4-9880-eecb8b179c62"},"vehicle_type_id":"4","last_reported":1743761463,"current_range_meters":19200,"station_id":"ce4bgl92rcd13ifvqbq0","pricing_plan_id":"cebpf4jnsgd1na2vs0mg"},{"bike_id":"d04f6d72-3b46-4053-9a57-d50f2093e724","system_id":"levelo_inurba_marseille","lat":43.30674,"lon":5.37017,"is_reserved":false,"is_disabled":false,"rental_uris":{"android":"levelo://app?vid=d04f6d72-3b46-4053-9a57-d50f2093e724","ios":"levelo://app?vid=d04f6d72-3b46-4053-9a57-d50f2093e724"},"vehicle_type_id":"4","last_reported":1743761463,"current_range_meters":19200,"station_id":"","pricing_plan_id":"cebpf4jnsgd1na2vs0mg"},{"bike_id":"77f9377f-7fa1-4152-9316-d69c0c77e248","system_id":"levelo_inurba_marseille","lat":43.30151,"lon":5.38797,"is_reserved":false,"is_disabled":true,"rental_uris":{"android":"levelo://app?vid=77f9377f-7fa1-4152-9316-d69c0c77e248","ios":"levelo://app?vid=77f9377f-7fa1-4152-9316-d69c0c77e248"},