{"last_updated":1713730062,"ttl":30,"version":"2.2","data":{"bikes":[{"bike_id":"206b1fd1-e3b1-408e-8542-74e0244ea62d","system_id":"levelo_inurba_marseille","lat":43.312419,"lon":5.367583,"is_reserved":false,"is_disabled":false,"rental_uris":{"android":"levelo://app?vid=206b1fd1-e3b1-408e-8542-74e0244ea62d","ios":"levelo://app?vid=206b1fd1-e3b1-408e-8542-74e0244ea62d"},"vehicle_type_id":"4","last_reported":1713730062,"current_range_meters":16800,"station_id":"","pricing_plan_id":"cebpf4jnsgd1na2vs0mg"},{"bike_id":"e7594ea9-e96e-4db1-b719-4d0d1a627d25","system_id":"levelo_inurba_marseille","lat":43.313391,"lon":5.36706,"is_reserved":false,"is_disabled":false,"rental_uris":{"android":"levelo://app?vid=e7594ea9-e96e-4db1-b719-4d0d1a627d25","ios":"levelo://app?vid=e7594ea9-e96e-4db1-b719-4d0d1a627d25"},"vehicle_type_id":"4","last_reported":1713730062,"current_range_meters":15200,"station_id":"ce4bgr92rcd13ifvqc6g","pricing_plan_id":"cebpf4jnsgd1na2vs0mg"},{"bike_id":"bc22c416-6a30-4ab5-b45a-492ce277a341","system_id":"levelo_inurba_marseille","lat":43.312239,"lon":5.368562,"is_reserved":false,"is_disabled":false,"rental_uris":{"android":"levelo://app?vid=bc22c416-6a30-4ab5-b45a-492ce277a341","ios":"levelo://app?vid=bc22c416-6a30-4ab5-b45a-492ce277a341"},"vehicle_type_id":"4","last_reported":1713730062,"current_range_meters":4400,"station_id":"ce4bgl92rcd13ifvqbq0","pricing_plan_id":"cebpf4jnsgd1na2vs0mg"},{"bike_id":"19509c50-e940-4875-a688-efbbd9249ae8","system_id":"levelo_inurba_marseille","lat":43.309076,"lon":5.368465,"is_reserved":false,"is_disabled":false,"rental_uris":{"android":"levelo://app?vid=19509c50-e940-4875-a688-efbbd9249ae8","ios":"levelo://app?vid=19509c50-e940-4875-a688-efbbd9249ae8"},"vehicle_type_id":"4","last_reported":1713730062,"current_range_meters":0,"station_id":"ce4bgn92rcd13ifvqbvg","pricing_plan_id":"cebpf4jnsgd1na2vs0mg"},{"bike_id":"0a40c872-a16e-4ede-893c-0a20322cc132","system_id":"levelo_inurba_marseille","lat":43.309333,"lon":5.370998,"is_reserved":false,"is_disabled":false,"rental_uris":{"android":"levelo://app?vid=0a40c872-a16e-4ede-893c-0a20322cc132","ios":"levelo://app?vid=0a40c872-a16e-4ede-893c-0a20322cc132"},"vehicle_type_id":"4","last_reported":1713730062,"current_range_meters":0,"station_id":"","pricing_plan_id":"cebpf4jnsgd1na2vs0mg"},{"bike_id":"337229f0-c408-4921-9bd1-6ae16740d781","system_id":"levelo_inurba_marseille","lat":43.314811,"lon":5.373103,"is_reserved":false,"is_disabled":false,"rental_uris":{"android":"levelo://app?vid=337229f0-c408-4921-9bd1-6ae16740d781","ios":"levelo://app?vid=337229f0-c408-4921-9bd1-6ae16740d781"},"vehicle_type_id":"4","last_reported":1713730062,"current_range_meters":2400,"station_id":"ce4bgt12rcd13ifvqcd0","pricing_plan_id":"cebpf4jnsgd1na2vs0mg"},{"bike_id":"6cc9ea62-3b2d-4391-911b-7b5233fc74b4","system_id":"levelo_inurba_marseille","lat":43.314811,"lon":5.373103,"is_reserved":false,"is_disabled":false,"rental_uris":{"android":"levelo://app?vid=6cc9ea62-3b2d-4391-911b-7b5233fc74b4","ios":"levelo://app?vid=6cc9ea62-3b2d-4391-911b-7b5233fc74b4"},"vehicle_type_id":"4","last_reported":1713730062,"current_range_meters":24400,"station_id":"ce4bgt12rcd13ifvqcd0","pricing_plan_id":"cebpf4jnsgd1na2vs0mg"},{"bike_id":"c40910a1-9db4-4a56-affa-adf156c1ed3a","system_id":"levelo_inurba_marseille","lat":43.314811,"lon":5.373103,"is_reserved":false,"is_disabled":false,"rental_uris":{"android":"levelo://app?vid=c40910a1-9db4-4a56-affa-adf156c1ed3a","ios":"levelo://app?vid=c40910a1-9db4-4a56-affa-adf156c1ed3a"},"vehicle_type_id":"4","last_reported":1713730062,"current_range_meters":10800,"station_id":"ce4bgt12rcd13ifvqcd0","pricing_plan_id":"cebpf4jnsgd1na2vs0mg"},{"bike_id":"04fc94e6-d089-462c-a524-2dcb67960514","system_id":"levelo_inurba_marseille","lat":43.314811,"lon":5.373104,"is_reserved":false,"is_disabled":false,"rental_uris":{"android":"levelo://app?vid=04fc94e6-d089-462c-a524-2dcb67960514","ios":"levelo://app?vid=04fc94e6-d089-462c-a524-2dcb67960514"},"vehicle_type_id":"4","last_reported":1713730062,"current_range_meters":13200,"station_id":"ce4bgt12rcd13ifvqcd0","pricing_plan_id":"cebpf4jnsgd1na2vs0mg"},{"bike_id":"31bacc11-3648-4e4d-be2d-df1b12e9bccb","system_id":"levelo_inurba_marseille","lat":43.3077,"lon":5.36823,"is_reserved":false,"is_disabled":false,"rental_uris":{"android":"levelo://app?vid=31bacc11-3648-4e4d-be2d-df1b12e9bccb","ios":"levelo://app?vid=31bacc11-3648-4e4d-be2d-df1b12e9bccb"},"vehicle_type_id":"4","last_reported":1713730062,"current_range_meters":0,"station_id":"","pricing_plan_id":"cebpf4jnsgd1na2vs0mg"},{"bike_id":"04213a05-ec77-496a-83fa-1244bae37d4a","system_id":"levelo_inurba_marseille","lat":43.309613,"lon":5.37271,"is_reserved":false,"is_disabled":false,"rental_uris":{"android":"levelo://app?vid=04213a05-ec77-496a-83fa-1244bae37d4a","ios":"levelo://app?vid=04213a05-ec77-496a-83fa-1244bae37d4a"},"vehicle_type_id":"4","last_reported":1713730062,"current_range_meters":400,"station_id":"","pricing_plan_id":"cebpf4jnsgd1na2vs0mg"},{"bike_id":"a5dc47a7-f3e6-499a-a83d-d19692770994","system_id":"levelo_inurba_marseille","lat":43.309034,"lon":5.371783,"is_reserved":false,"is_disabled":false,"rental_uris":{"android":"levelo://app?vid=a5dc47a7-f3e6-499a-a83d-d19692770994","ios":"levelo://app?vid=a5dc47a7-f3e6-499a-a83d-d19692770994"},"vehicle_type_id":"4","last_reported":1713730062,"current_range_meters":5600,"station_id":"ce4bguh2rcd13ifvqckg","pricing_plan_id":"cebpf4jnsgd1na2vs0mg"},{"bike_id":"5c27033f-972b-4099-bd27-bf8491ed7e54","system_id":"levelo_inurba_marseille","lat":43.305714,"lon":5.365633,"is_reserved":false,"is_disabled":false,"rental_uris":{"android":"levelo://app?vid=5c27033f-972b-4099-bd27-bf8491ed7e54","ios":"levelo://app?vid=5c27033f-972b-4099-bd27-bf8491ed7e54"},"vehicle_type_id":"4","last_reported":1713730062,"current_range_meters":16400,"station_id":"ce4bgs12rcd13ifvqcag","pricing_plan_id":"cebpf4jnsgd1na2vs0mg"},{"bike_id":"7c69aa80-01db-4706-b3e0-e60f919a657e","system_id":"levelo_inurba_marseille","lat":43.305368,"lon":5.367343,"is_reserved":false,"is_disabled":false,"rental_uris":{"android":"levelo://app?vid=7c69aa80-01db-4706-b3e0-e60f919a657e","ios":"levelo://app?vid=7c69aa80-01db-4706-b3e0-e60f919a657e"},"vehicle_type_id":"4","last_reported":1713730062,"current_range_meters":8000,"station_id":"ce4bgrp2rcd13ifvqc9g","pricing_plan_id":"cebpf4jnsgd1na2vs0mg"},{"bike_id":"49a6e0c5-2e2a-496d-a474-219835b3a8d0","system_id":"levelo_inurba_marseille","lat":43.311137,"lon":5.377553,"is_reserved":false,"is_disabled":false,"rental_uris":{"android":"levelo://app?vid=49a6e0c5-2e2a-496d-a474-219835b3a8d0","ios":"levelo://app?vid=49a6e0c5-2e2a-496d-a474-219835b3a8d0"},"vehicle_type_id":"4","last_reported":1713730062,"current_range_meters":0,"station_id":"ce4bgt92rcd13ifvqcg0","pricing_plan_id":"cebpf4jnsgd1na2vs0mg"},{"bike_id":"3ec82011-3f16-4dee-ba7c-bd4a680073e6","system_id":"levelo_inurba_marseille","lat":43.311248,"lon":5.37765,"is_reserved":false,"is_disabled":false,"rental_uris":{"android":"levelo://app?vid=3ec82011-3f16-4dee-ba7c-bd4a680073e6","ios":"levelo://app?vid=3ec82011-3f16-4dee-ba7c-bd4a680073e6"},"vehicle_type_id":"4","last_reported":1713730062,"current_range_meters":400,"station_id":"ce4bgt92rcd13ifvqcg0","pricing_plan_id":"cebpf4jnsgd1na2vs0mg"},{"bike_id":"93be0998-6852-4ec0-a888-85ef03c71c06","system_id":"levelo_inurba_marseille","lat":43.311243,"lon":5.377718,"is_reserved":false,"is_disabled":false,"rental_uris":{"android":"levelo://app?vid=93be0998-6852-4ec0-a888-85ef03c71c06","ios":"levelo://app?vid=93be0998-6852-4ec0-a888-85ef03c71c06"},"vehicle_type_id":"4","last_reported":1713730062,"current_range_meters":15200,"station_id":"ce4bgt92rcd13ifvqcg0","pricing_plan_id":"cebpf4jnsgd1na2vs0mg"},{"bike_id":"3c4f7c7f-0fce-426b-ae69-8502c768b6a2","system_id":"levelo_inurba_marseille","lat":43.311131,"lon":5.377651,"is_reserved":false,"is_disabled":false,"rental_uris":{"android":"levelo://app?vid=3c4f7c7f-0fce-426b-ae69-8502c768b6a2","ios":"levelo://app?vid=3c4f7c7f-0fce-426b-ae69-8502c768b6a2"},"vehicle_type_id":"4","last_reported":1713730062,"current_range_meters":8000,"station_id":"ce4bgt92rcd13ifvqcg0","pricing_plan_id":"cebpf4jnsgd1na2vs0mg"},{"bike_id":"4c762aa7-5a39-4f9a-8884-df164f4971da","system_id":"levelo_inurba_marseille","lat":43.30785,"lon":5.37658,"is_reserved":false,"is_disabled":false,"rental_uris":{"android":"levelo://app?vid=4c762aa7-5a39-4f9a-8884-df164f4971da","ios":"levelo://app?vid=4c762aa7-5a39-4f9a-8884-df164f4971da"},"vehicle_type_id":"4","last_reported":1713730062,"current_range_meters":800,"station_id":"ce4bgv92rcd13ifvqcq0","pricing_plan_id":"cebpf4jnsgd1na2vs0mg"},{"bike_id":"60759760-1cbd-45c1-bde9-472db76be502","system_id":"levelo_inurba_marseille","lat":43.317075,"lon":5.377367,"is_reserved":false,"is_disabled":false,"rental_uris":{"android":"levelo://app?vid=60759760-1cbd-45c1-bde9-472db76be502","ios":"levelo://app?vid=60759760-1cbd-45c1-bde9-472db76be502"},"vehicle_type_id":"4","last_reported":1713730062,"current_range_meters":8800,"station_id":"ce4bgth2rcd13ifvqch0","pricing_plan_id":"cebpf4jnsgd1na2vs0mg"},{"bike_id":"98683922-e262-4836-bf36-28f0b612b94d","system_id":"levelo_inurba_marseille","lat":43.303046,"lon":5.368981,"is_reserved":false,"is_disabled":false,"rental_uris":{"android":"levelo://app?vid=98683922-e262-4836-bf36-28f0b612b94d","ios":"levelo://app?vid=98683922-e262-4836-bf36-28f0b612b94d"},"vehicle_type_id":"4","last_reported":1713730062,"current_range_meters":0,"station_id":"ce4bgqh2rcd13ifvqc5g","pricing_plan_id":"cebpf4jnsgd1na2vs0mg"},{"bike_id":"d2346f3f-ea88-4070-9eb1-fb32d4df6970","system_id":"levelo_inurba_marseille","lat":43.303046,"lon":5.368981,"is_reserved":false,"is_disabled":false,"rental_uris":{"android":"levelo://app?vid=d2346f3f-ea88-4070-9eb1-fb32d4df6970","ios":"levelo://app?vid=d2346f3f-ea88-4070-9eb1-fb32d4df6970"},"vehicle_type_id":"4","last_reported":1713730062,"current_range_meters":800,"station_id":"ce4bgqh2rcd13ifvqc5g","pricing_plan_id":"cebpf4jnsgd1na2vs0mg"},{"bike_id":"a0516cab-71ee-4ade-b718-f107a1ba4725","system_id":"levelo_inurba_marseille","lat":43.303166,"lon":5.368921,"is_reserved":false,"is_disabled":false,"rental_uris":{"android":"levelo://app?vid=a0516cab-71ee-4ade-b718-f107a1ba4725","ios":"levelo://app?vid=a0516cab-71ee-4ade-b718-f107a1ba4725"},"vehicle_type_id":"4","last_reported":1713730062,"current_range_meters":0,"station_id":"ce4bgqh2rcd13ifvqc5g","pricing_plan_id":"cebpf4jnsgd1na2vs0mg"},{"bike_id":"26ef6f1d-212c-491d-965a-0efbdab77e27","system_id":"levelo_inurba_marseille","lat":43.315293,"lon":5.380349,"is_reserved":false,"is_disabled":false,"rental_uris":{"android":"levelo://app?vid=26ef6f1d-212c-491d-965a-0efbdab77e27","ios":"levelo://app?vid=26ef6f1d-212c-491d-965a-0efbdab77e27"},"vehicle_type_id":"4","last_reported":1713730062,"current_range_meters":11200,"station_id":"ce4bhsp2rcd13ifvqi50","pricing_plan_id":"cebpf4jnsgd1na2vs0mg"},{"bike_id":"1b451085-8230-42dd-9c07-e6ca827abf95","system_id":"levelo_inurba_marseille","lat":43.31531,"lon":5.38038,"is_reserved":false,"is_disabled":false,"rental_uris":{"android":"levelo://app?vid=1b451085-8230-42dd-9c07-e6ca827abf95","ios":"levelo://app?vid=1b451085-8230-42dd-9c07-e6ca827abf95"},"vehicle_type_id":"4","last_reported":1713730062,"current_range_meters":1600,"station_id":"ce4bhsp2rcd13ifvqi50","pricing_plan_id":"cebpf4jnsgd1na2vs0mg"},{"bike_id":"64fcf678-6c42-4c96-8bf8-59f25ad07ece","system_id":"levelo_inurba_marseille","lat":43.315289,"lon":5.380349,"is_reserved":false,"is_disabled":false,"rental_uris":{"android":"levelo://app?vid=64fcf678-6c42-4c96-8bf8-59f25ad07ece","ios":"levelo://app?vid=64fcf678-6c42-4c96-8bf8-59f25ad07ece"},"vehicle_type_id":"4","last_reported":1713730062,"current_range_meters":6000,"station_id":"ce4bhsp2rcd13ifvqi50","pricing_plan_id":"cebpf4jnsgd1na2vs0mg"},{"bike_id":"95a0bbc5-a63b-47a3-9fe7-ea53b0504146","system_id":"levelo_inurba_marseille","lat":43.301939,"lon":5.366286,"is_reserved":false,"is_disabled":false,"rental_uris":{"android":"levelo://app?vid=95a0bbc5-a63b-47a3-9fe7-ea53b0504146","ios":"levelo://app?vid=95a0bbc5-a63b-47a3-9fe7-ea53b0504146"},"vehicle_type_id":"4","last_reported":1713730062,"current_range_meters":20800,"station_id":"ce4bgrh2rcd13ifvqc8g","pricing_plan_id":"cebpf4jnsgd1na2vs0mg"},{"bike_id":"5ff391f9-c602-4d1d-956b-1a01189c775f","system_id":"levelo_inurba_marseille","lat":43.308012,"lon":5.381511,"is_reserved":false,"is_disabled":false,"rental_uris":{"android":"levelo://app?vid=5ff391f9-c602-4d1d-956b-1a01189c775f","ios":"levelo://app?vid=5ff391f9-c602-4d1d-956b-1a01189c775f"},"vehicle_type_id":"4","last_reported":1713730062,"current_range_meters":14800,"station_id":"ce4bgt12rcd13ifvqce0","pricing_plan_id":"cebpf4jnsgd1na2vs0mg"},{"bike_id":"6abb0993-6b0d-49ed-ba05-71f2981970b7","system_id":"levelo_inurba_marseille","lat":43.308012,"lon":5.381511,"is_reserved":false,"is_disabled":false,"rental_uris":{"android":"levelo://app?vid=6abb0993-6b0d-49ed-ba05-71f2981970b7","ios":"levelo://app?vid=6abb0993-6b0d-49ed-ba05-71f2981970b7"},"vehicle_type_id":"4","last_reported":1713730062,"current_range_meters":2400,"station_id":"ce4bgt12rcd13ifvqce0","pricing_plan_id":"cebpf4jnsgd1na2vs0mg"},{"bike_id":"ceb6157c-a710-494d-944a-5038ef14862f","system_id":"levelo_inurba_marseille","lat":43.304606,"lon":5.379026,"is_reserved":false,"is_disabled":false,"rental_uris":{"android":"levelo://app?vid=ceb6157c-a710-494d-944a-5038ef14862f","ios":"levelo://app?vid=ceb6157c-a710-494d-944a-5038ef14862f"},"vehicle_type_id":"4","last_reported":1713730062,"current_range_meters":10400,"station_id":"ce4bgup2rcd13ifvqcn0","pricing_plan_id":"cebpf4jnsgd1na2vs0mg"},{"bike_id":"a9ec19ee-774e-4853-9e39-00c4dcdbd006","system_id":"levelo_inurba_marseille","lat":43.32482,"lon":5.36587,"is_reserved":false,"is_disabled":false,"rental_uris":{"android":"levelo://app?vid=a9ec19ee-774e-4853-9e39-00c4dcdbd006","ios":"levelo://app?vid=a9ec19ee-774e-4853-9e39-00c4dcdbd006"},"vehicle_type_id":"4","last_reported":1713730062,"current_range_meters":7200,"station_id":"ce4bhs12rcd13ifvqhvg","pricing_plan_id":"cebpf4jnsgd1na2vs0mg"},{"bike_id":"c06e160d-0dcd-46d4-bdeb-2df726dde393","system_id":"levelo_inurba_marseille","lat":43.324818,"lon":5.365673,"is_reserved":false,"is_disabled":false,"rental_uris":{"android":"levelo://app?vid=c06e160d-0dcd-46d4-bdeb-2df726dde393","ios":"levelo://app?vid=c06e160d-0dcd-46d4-bdeb-2df726dde393"},"vehicle_type_id":"4","last_reported":1713730062,"current_range_meters":10000,"station_id":"ce4bhs12rcd13ifvqhvg","pricing_plan_id":"cebpf4jnsgd1na2vs0mg"},{"bike_id":"6da657ab-00d6-4606-bb0a-fdc1f8bc0b21","system_id":"levelo_inurba_marseille","lat":43.32482,"lon":5.36564,"is_reserved":false,"is_disabled":false,"rental_uris":{"android":"levelo://app?vid=6da657ab-00d6-4606-bb0a-fdc1f8bc0b21","ios":"levelo://app?vid=6da657ab-00d6-4606-bb0a-fdc1f8bc0b21"},"vehicle_type_id":"4","last_reported":1713730062,"current_range_meters":25200,"station_id":"ce4bhs12rcd13ifvqhvg","pricing_plan_id":"cebpf4jnsgd1na2vs0mg"},{"bike_id":"80dacc88-f9a5-4b5f-80f4-57bd33108ecb","system_id":"levelo_inurba_marseille","lat":43.324771,"lon":5.36557,"is_reserved":false,"is_disabled":false,"rental_uris":{"android":"levelo://app?vid=80dacc88-f9a5-4b5f-80f4-57bd33108ecb","ios":"levelo://app?vid=80dacc88-f9a5-4b5f-80f4-57bd33108ecb"},"vehicle_type_id":"4","last_reported":1713730062,"current_range_meters":22800,"station_id":"ce4bhs12rcd13ifvqhvg","pricing_plan_id":"cebpf4jnsgd1na2vs0mg"},{"bike_id":"5b76192b-fc46-4948-80c5-6c37ae23cfca","system_id":"levelo_inurba_marseille","lat":43.32484,"lon":5.36561,"is_reserved":false,"is_disabled":false,"rental_uris":{"android":"levelo://app?vid=5b76192b-fc46-4948-80c5-6c37ae23cfca","ios":"levelo://app?vid=5b76192b-fc46-4948-80c5-6c37ae23cfca"},"vehicle_type_id":"4","last_reported":1713730062,"current_range_meters":27200,"station_id":"ce4bhs12rcd13ifvqhvg","pricing_plan_id":"cebpf4jnsgd1na2vs0mg"},{"bike_id":"c17751bf-4b1e-4ed5-8ec6-1aa8f0f5ee16","system_id":"levelo_inurba_marseille","lat":43.32485,"lon":5.365533,"is_reserved":false,"is_disabled":false,"rental_uris":{"android":"levelo://app?vid=c17751bf-4b1e-4ed5-8ec6-1aa8f0f5ee16","ios":"levelo://app?vid=c17751bf-4b1e-4ed5-8ec6-1aa8f0f5ee16"},"vehicle_type_id":"4","last_reported":1713730062,"current_range_meters":24800,"station_id":"ce4bhs12rcd13ifvqhvg","pricing_plan_id":"cebpf4jnsgd1na2vs0mg"},{"bike_id":"4a4b4794-d6ce-427b-9e19-6950bde67018","system_id":"levelo_inurba_marseille","lat":43.32488,"lon":5.36578,"is_reserved":false,"is_disabled":false,"rental_uris":{"android":"levelo://app?vid=4a4b4794-d6ce-427b-9e19-6950bde67018","ios":"levelo://app?vid=4a4b4794-d6ce-427b-9e19-6950bde67018"},"vehicle_type_id":"4","last_reported":1713730062,"current_range_meters":8000,"station_id":"ce4bhs12rcd13ifvqhvg","pricing_plan_id":"cebpf4jnsgd1na2vs0mg"},{"bike_id":"859bf09a-f51c-4fef-b96c-e09c3ad5bbfe","system_id":"levelo_inurba_marseille","lat":43.310804,"lon":5.38359,"is_reserved":false,"is_disabled":false,"rental_uris":{"android":"levelo://app?vid=859bf09a-f51c-4fef-b96c-e09c3ad5bbfe","ios":"levelo://app?vid=859bf09a-f51c-4fef-b96c-e09c3ad5bbfe"},"vehicle_type_id":"4","last_reported":1713730062,"current_range_meters":17600,"station_id":"ce4bgv92rcd13ifvqcr0","pricing_plan_id":"cebpf4jnsgd1na2vs0mg"},{"bike_id":"560e248d-d152-4435-bc48-661ad2866101","system_id":"levelo_inurba_marseille","lat":43.304296,"lon":5.397513,"is_reserved":false,"is_disabled":false,"rental_uris":{"android":"levelo://app?vid=560e248d-d152-4435-bc48-661ad2866101","ios":"levelo://app?vid=560e248d-d152-4435-bc48-661ad2866101"},"vehicle_type_id":"4","last_reported":1713730062,"current_range_meters":2800,"station_id":"ce4bh092rcd13ifvqd20","pricing_plan_id":"cebpf4jnsgd1na2vs0mg"},{"bike_id":"637906e8-4952-4657-8b74-6c1fe2230ae2","system_id":"levelo_inurba_marseille","lat":43.302784,"lon":5.377158,"is_reserved":false,"is_disabled":false,"rental_uris":{"android":"levelo://app?vid=637906e8-4952-4657-8b74-6c1fe2230ae2","ios":"levelo://app?vid=637906e8-4952-4657-8b74-6c1fe2230ae2"},"vehicle_type_id":"4","last_reported":1713730062,"current_range_meters":4400,"station_id":"ce4bguh2rcd13ifvqcj0","pricing_plan_id":"cebpf4jnsgd1na2vs0mg"},{"bike_id":"53b2a120-8452-4ebe-ade3-92e556c09667","system_id":"levelo_inurba_marseille","lat":43.301443,"lon":5.374236,"is_reserved":false,"is_disabled":false,"rental_uris":{"android":"levelo://app?vid=53b2a120-8452-4ebe-ade3-92e556c09667","ios":"levelo://app?vid=53b2a120-8452-4ebe-ade3-92e556c09667"},"vehicle_type_id":"4","last_reported":1713730062,"current_range_meters":0,"station_id":"ce4bgs92rcd13ifvqcc0","pricing_plan_id":"cebpf4jnsgd1na2vs0mg"},{"bike_id":"71cf26d6-2800-48dd-ae6e-8eda1eae26de","system_id":"levelo_inurba_marseille","lat":43.305395,"lon":5.380968,"is_reserved":false,"is_disabled":false,"rental_uris":{"android":"levelo://app?vid=71cf26d6-2800-48dd-ae6e-8eda1eae26de","ios":"levelo://app?vid=71cf26d6-2800-48dd-ae6e-8eda1eae26de"},"vehicle_type_id":"4","last_reported":1713730062,"current_range_meters":12400,"station_id":"","pricing_plan_id":"cebpf4jnsgd1na2vs0mg"},{"bike_id":"d212c281-3522-420a-b06f-b80966290c73","system_id":"levelo_inurba_marseille","lat":43.319883,"lon":5.381539,"is_reserved":false,"is_disabled":false,"rental_uris":{"android":"levelo://app?vid=d212c281-3522-420a-b06f-b80966290c73","ios":"levelo://app?vid=d212c281-3522-420a-b06f-b80966290c73"},"vehicle_type_id":"4","last_reported":1713730062,"current_range_meters":5600,"station_id":"ce4bhr12rcd13ifvqhpg","pricing_plan_id":"cebpf4jnsgd1na2vs0mg"},{"bike_id":"fc35b83a-f355-4ebd-97ef-f35d9b876a9d","system_id":"levelo_inurba_marseille","lat":43.319935,"lon":5.381699,"is_reserved":false,"is_disabled":false,"rental_uris":{"android":"levelo://app?vid=fc35b83a-f355-4ebd-97ef-f35d9b876a9d","ios":"levelo://app?vid=fc35b83a-f355-4ebd-97ef-f35d9b876a9d"},"vehicle_type_id":"4","last_reported":1713730062,"current_range_meters":20400,"station_id":"ce4bhr12rcd13ifvqhpg","pricing_plan_id":"cebpf4jnsgd1na2vs0mg"},{"bike_id":"334e3407-4f9b-4b57-a5ef-39033f25d948","system_id":"levelo_inurba_marseille","lat":43.319923,"lon":5.381533,"is_reserved":false,"is_disabled":false,"rental_uris":{"android":"levelo://app?vid=334e3407-4f9b-4b57-a5ef-39033f25d948","ios":"levelo://app?vid=334e3407-4f9b-4b57-a5ef-39033f25d948"},"vehicle_type_id":"4","last_reported":1713730062,"current_range_meters":28000,"station_id":"ce4bhr12rcd13ifvqhpg","pricing_plan_id":"cebpf4jnsgd1na2vs0mg"},{"bike_id":"f4b79354-8b98-4101-bf0a-c05d49197684","system_id":"levelo_inurba_marseille","lat":43.319935,"lon":5.381699,"is_reserved":false,"is_disabled":false,"rental_uris":{"android":"levelo://app?vid=f4b79354-8b98-4101-bf0a-c05d49197684","ios":"levelo://app?vid=f4b79354-8b98-4101-bf0a-c05d49197684"},"vehicle_type_id":"4","last_reported":1713730062,"current_range_meters":10800,"station_id":"ce4bhr12rcd13ifvqhpg","pricing_plan_id":"cebpf4jnsgd1na2vs0mg"},{"bike_id":"d556af53-f0f5-46dc-9ca6-ae45af10a5b0","system_id":"levelo_inurba_marseille","lat":43.319935,"lon":5.381699,"is_reserved":false,"is_disabled":false,"rental_uris":{"android":"levelo://app?vid=d556af53-f0f5-46dc-9ca6-ae45af10a5b0","ios":"levelo://app?vid=d556af53-f0f5-46dc-9ca6-ae45af10a5b0"},"vehicle_type_id":"4","last_reported":1713730062,"current_range_meters":28400,"station_id":"ce4bhr12rcd13ifvqhpg","pricing_plan_id":"cebpf4jnsgd1na2vs0mg"},{"bike_id":"b265aba0-4cfb-44bd-8ef5-9b88c5912563","system_id":"levelo_inurba_marseille","lat":43.319935,"lon":5.381699,"is_reserved":false,"is_disabled":false,"rental_uris":{"android":"levelo://app?vid=b265aba0-4cfb-44bd-8ef5-9b88c5912563","ios":"levelo://app?vid=b265aba0-4cfb-44bd-8ef5-9b88c5912563"},"vehicle_type_id":"4","last_reported":1713730062,"current_range_meters":28400,"station_id":"ce4bhr12rcd13ifvqhpg","pricing_plan_id":"cebpf4jnsgd1na2vs0mg"},{"bike_id":"7b4ad446-2855-4f99-aa9c-bfb370297360","system_id":"levelo_inurba_marseille","lat":43.319935,"lon":5.381699,"is_reserved":false,"is_disabled":false,"rental_uris":{"android":"levelo://app?vid=7b4ad446-2855-4f99-aa9c-bfb370297360","ios":"levelo://app?vid=7b4ad446-2855-4f99-aa9c-bfb370297360"},"vehicle_type_id":"4","last_reported":1713730062,"current_range_meters":24000,"station_id":"ce4bhr12rcd13ifvqhpg","pricing_plan_id":"cebpf4jnsgd1na2vs0mg"},{"bike_id":"12ce2e6f-6577-439d-b405-3f478499478d","system_id":"levelo_inurba_marseille","lat":43.319935,"lon":5.381699,"is_reserved":false,"is_disabled":false,"rental_uris":{"android":"levelo://app?vid=12ce2e6f-6577-439d-b405-3f478499478d","ios":"levelo://app?vid=12ce2e6f-6577-439d-b405-3f478499478d"},"vehicle_type_id":"4","last_reported":1713730062,"current_range_meters":5600,"station_id":"ce4bhr12rcd13ifvqhpg","pricing_plan_id":"cebpf4jnsgd1na2vs0mg"},{"bike_id":"c0762e86-aed6-4994-9a8a-2fab50f2d4f3","system_id":"levelo_inurba_marseille","lat":43.313571,"lon":5.384829,"is_reserved":false,"is_disabled":false,"rental_uris":{"android":"levelo://app?vid=c0762e86-aed6-4994-9a8a-2fab50f2d4f3","ios":"levelo://app?vid=c0762e86-aed6-4994-9a8a-2fab50f2d4f3"},"vehicle_type_id":"4","last_reported":1713730062,"current_range_meters":8800,"station_id":"ce4bgt92rcd13ifvqcf0","pricing_plan_id":"cebpf4jnsgd1na2vs0mg"},{"bike_id":"26d24a10-26a9-4b74-ad7e-8492d086a6ae","system_id":"levelo_inurba_marseille","lat":43.313571,"lon":5.384829,"is_reserved":false,"is_disabled":false,"rental_uris":{"android":"levelo://app?vid=26d24a10-26a9-4b74-ad7e-8492d086a6ae","ios":"levelo://app?vid=26d24a10-26a9-4b74-ad7e-8492d086a6ae"},"vehicle_type_id":"4","last_reported":1713730062,"current_range_meters":10800,"station_id":"ce4bgt92rcd13ifvqcf0","pricing_plan_id":"cebpf4jnsgd1na2vs0mg"},{"bike_id":"87dd0f2f-274f-4720-a4ec-26d5bd6095da","system_id":"levelo_inurba_marseille","lat":43.313571,"lon":5.384829,"is_reserved":false,"is_disabled":false,"rental_uris":{"android":"levelo://app?vid=87dd0f2f-274f-4720-a4ec-26d5bd6095da","ios":"levelo://app?vid=87dd0f2f-274f-4720-a4ec-26d5bd6095da"},"vehicle_type_id":"4","last_reported":1713730062,"current_range_meters":14000,"station_id":"ce4bgt92rcd13ifvqcf0","pricing_plan_id":"cebpf4jnsgd1na2vs0mg"},{"bike_id":"902ac71e-2ce9-4d62-96a5-3f44353c4746","system_id":"levelo_inurba_marseille","lat":43.31369,"lon":5.38507,"is_reserved":false,"is_disabled":false,"rental_uris":{"android":"levelo://app?vid=902ac71e-2ce9-4d62-96a5-3f44353c4746","ios":"levelo://app?vid=902ac71e-2ce9-4d62-96a5-3f44353c4746"},"vehicle_type_id":"4","last_reported":1713730062,"current_range_meters":6000,"station_id":"ce4bgt92rcd13ifvqcf0","pricing_plan_id":"cebpf4jnsgd1na2vs0mg"},{"bike_id":"a541a3a5-badb-45f3-a99f-3c2c9afa7168","system_id":"levelo_inurba_marseille","lat":43.289184,"lon":5.366408,"is_reserved":false,"is_disabled":false,"rental_uris":{"android":"levelo://app?vid=a541a3a5-badb-45f3-a99f-3c2c9afa7168","ios":"levelo://app?vid=a541a3a5-badb-45f3-a99f-3c2c9afa7168"},"vehicle_type_id":"4","last_reported":1713730062,"current_range_meters":24000,"station_id":"ce4bhap2rcd13ifvqek0","pricing_plan_id":"cebpf4jnsgd1na2vs0mg"},{"bike_id":"d8fdac25-32c1-43fc-8dbf-db4b0e5b2ab2","system_id":"levelo_inurba_marseille","lat":43.29995,"lon":5.37216,"is_reserved":false,"is_disabled":false,"rental_uris":{"android":"levelo://app?vid=d8fdac25-32c1-43fc-8dbf-db4b0e5b2ab2","ios":"levelo://app?vid=d8fdac25-32c1-43fc-8dbf-db4b0e5b2ab2"},"vehicle_type_id":"4","last_reported":1713730062,"current_range_meters":30000,"station_id":"ce4bgr92rcd13ifvqc7g","pricing_plan_id":"cebpf4jnsgd1na2vs0mg"},{"bike_id":"8972f8d2-535d-4280-9240-09ad3af5f303","system_id":"levelo_inurba_marseille","lat":43.299222,"lon":5.365554,"is_reserved":false,"is_disabled":false,"rental_uris":{"android":"levelo://app?vid=8972f8d2-535d-4280-9240-09ad3af5f303","ios":"levelo://app?vid=8972f8d2-535d-4280-9240-09ad3af5f303"},"vehicle_type_id":"4","last_reported":1713730062,"current_range_meters":7600,"station_id":"ce4bgm92rcd13ifvqbr0","pricing_plan_id":"cebpf4jnsgd1na2vs0mg"},{"bike_id":"e433542c-0621-44a8-b0fe-dfbdc4a6aa02","system_id":"levelo_inurba_marseille","lat":43.29989,"lon":5.37219,"is_reserved":false,"is_disabled":false,"rental_uris":{"android":"levelo://app?vid=e433542c-0621-44a8-b0fe-dfbdc4a6aa02","ios":"levelo://app?vid=e433542c-0621-44a8-b0fe-dfbdc4a6aa02"},"vehicle_type_id":"4","last_reported":1713730062,"current_range_meters":26800,"station_id":"ce4bgr92rcd13ifvqc7g","pricing_plan_id":"cebpf4jnsgd1na2vs0mg"},{"bike_id":"e964a977-3f43-47a3-8d34-5f552dd4753c","system_id":"levelo_inurba_marseille","lat":43.29973,"lon":5.37183,"is_reserved":false,"is_disabled":false,"rental_uris":{"android":"levelo://app?vid=e964a977-3f43-47a3-8d34-5f552dd4753c","ios":"levelo://app?vid=e964a977-3f43-47a3-8d34-5f552dd4753c"},"vehicle_type_id":"4","last_reported":1713730062,"current_range_meters":10800,"station_id":"ce4bgr92rcd13ifvqc7g","pricing_plan_id":"cebpf4jnsgd1na2vs0mg"},{"bike_id":"aac7cd02-e95b-41ce-84b6-655b81138ba7","system_id":"levelo_inurba_marseille","lat":43.29967,"lon":5.37189,"is_reserved":false,"is_disabled":false,"rental_uris":{"android":"levelo://app?vid=aac7cd02-e95b-41ce-84b6-655b81138ba7","ios":"levelo://app?vid=aac7cd02-e95b-41ce-84b6-655b81138ba7"},"vehicle_type_id":"4","last_reported":1713730062,"current_range_meters":2000,"station_id":"ce4bgr92rcd13ifvqc7g","pricing_plan_id":"cebpf4jnsgd1na2vs0mg"},{"bike_id":"1edae35e-d8f5-41d4-a856-b127d109ef39","system_id":"levelo_inurba_marseille","lat":43.298433,"lon":5.362774,"is_reserved":false,"is_disabled":false,"rental_uris":{"android":"levelo://app?vid=1edae35e-d8f5-41d4-a856-b127d109ef39","ios":"levelo://app?vid=1edae35e-d8f5-41d4-a856-b127d109ef39"},"vehicle_type_id":"4","last_reported":1713730062,"current_range_meters":15600,"station_id":"ce4bgpp2rcd13ifvqc3g","pricing_plan_id":"cebpf4jnsgd1na2vs0mg"},{"bike_id":"03a9c44f-52f3-44c2-b6e9-4cffffe0534e","system_id":"levelo_inurba_marseille","lat":43.298433,"lon":5.362774,"is_reserved":false,"is_disabled":false,"rental_uris":{"android":"levelo://app?vid=03a9c44f-52f3-44c2-b6e9-4cffffe0534e","ios":"levelo://app?vid=03a9c44f-52f3-44c2-b6e9-4cffffe0534e"},"vehicle_type_id":"4","last_reported":1713730062,"current_range_meters":8800,"station_id":"ce4bgpp2rcd13ifvqc3g","pricing_plan_id":"cebpf4jnsgd1na2vs0mg"},{"bike_id":"99f3d2e3-840d-458e-9a64-3bd01f325056","system_id":"levelo_inurba_marseille","lat":43.31187,"lon":5.38713,"is_reserved":false,"is_disabled":false,"rental_uris":{"android":"levelo://app?vid=99f3d2e3-840d-458e-9a64-3bd01f325056","ios":"levelo://app?vid=99f3d2e3-840d-458e-9a64-3bd01f325056"},"vehicle_type_id":"4","last_reported":1713730062,"current_range_meters":0,"station_id":"ce4bgv12rcd13ifvqcp0","pricing_plan_id":"cebpf4jnsgd1na2vs0mg"},{"bike_id":"4e676192-c625-4c48-9edf-8d1e18e3979a","system_id":"levelo_inurba_marseille","lat":43.311722,"lon":5.387247,"is_reserved":false,"is_disabled":false,"rental_uris":{"android":"levelo://app?vid=4e676192-c625-4c48-9edf-8d1e18e3979a","ios":"levelo://app?vid=4e676192-c625-4c48-9edf-8d1e18e3979a"},"vehicle_type_id":"4","last_reported":1713730062,"current_range_meters":9200,"station_id":"ce4bgv12rcd13ifvqcp0","pricing_plan_id":"cebpf4jnsgd1na2vs0mg"},{"bike_id":"57072b78-c2ea-43f0-8cb3-b3ced727e0c8","system_id":"levelo_inurba_marseille","lat":43.311722,"lon":5.387247,"is_reserved":false,"is_disabled":false,"rental_uris":{"android":"levelo://app?vid=57072b78-c2ea-43f0-8cb3-b3ced727e0c8","ios":"levelo://app?vid=57072b78-c2ea-43f0-8cb3-b3ced727e0c8"},"vehicle_type_id":"4","last_reported":1713730062,"current_range_meters":10400,"station_id":"ce4bgv12rcd13ifvqcp0","pricing_plan_id":"cebpf4jnsgd1na2vs0mg"},{"bike_id":"5c4c4a00-02ba-4b32-a57f-4dd89c202abb","system_id":"levelo_inurba_marseille","lat":43.311704,"lon":5.387164,"is_reserved":false,"is_disabled":false,"rental_uris":{"android":"levelo://app?vid=5c4c4a00-02ba-4b32-a57f-4dd89c202abb","ios":"levelo://app?vid=5c4c4a00-02ba-4b32-a57f-4dd89c202abb"},"vehicle_type_id":"4","last_reported":1713730062,"current_range_meters":0,"station_id":"ce4bgv12rcd13ifvqcp0","pricing_plan_id":"cebpf4jnsgd1na2vs0mg"},{"bike_id":"1ba3b5c6-d7a4-4173-8be1-f1bb93e8297b","system_id":"levelo_inurba_marseille","lat":43.299243,"lon":5.374807,"is_reserved":false,"is_disabled":false,"rental_uris":{"android":"levelo://app?vid=1ba3b5c6-d7a4-4173-8be1-f1bb93e8297b","ios":"levelo://app?vid=1ba3b5c6-d7a4-4173-8be1-f1bb93e8297b"},"vehicle_type_id":"4","last_reported":1713730062,"current_range_meters":17200,"station_id":"ce4bgjh2rcd13ifvqbg0","pricing_plan_id":"cebpf4jnsgd1na2vs0mg"},{"bike_id":"3ee48190-c58b-4f80-9f64-04b9a9fe6e93","system_id":"levelo_inurba_marseille","lat":43.31169,"lon":5.38729,"is_reserved":false,"is_disabled":false,"rental_uris":{"android":"levelo://app?vid=3ee48190-c58b-4f80-9f64-04b9a9fe6e93","ios":"levelo://app?vid=3ee48190-c58b-4f80-9f64-04b9a9fe6e93"},"vehicle_type_id":"4","last_reported":1713730062,"current_range_meters":12800,"station_id":"ce4bgv12rcd13ifvqcp0","pricing_plan_id":"cebpf4jnsgd1na2vs0mg"},{"bike_id":"1a34a27a-e197-433e-8ba3-c2fa9c7da4bc","system_id":"levelo_inurba_marseille","lat":43.311722,"lon":5.387247,"is_reserved":false,"is_disabled":false,"rental_uris":{"android":"levelo://app?vid=1a34a27a-e197-433e-8ba3-c2fa9c7da4bc","ios":"levelo://app?vid=1a34a27a-e197-433e-8ba3-c2fa9c7da4bc"},"vehicle_type_id":"4","last_reported":1713730062,"current_range_meters":21200,"station_id":"ce4bgv12rcd13ifvqcp0","pricing_plan_id":"cebpf4jnsgd1na2vs0mg"},{"bike_id":"548caa40-b03a-4386-a012-af49e7723d4b","system_id":"levelo_inurba_marseille","lat":43.311722,"lon":5.387247,"is_reserved":false,"is_disabled":false,"rental_uris":{"android":"levelo://app?vid=548caa40-b03a-4386-a012-af49e7723d4b","ios":"levelo://app?vid=548caa40-b03a-4386-a012-af49e7723d4b"},"vehicle_type_id":"4","last_reported":1713730062,"current_range_meters":22400,"station_id":"ce4bgv12rcd13ifvqcp0","pricing_plan_id":"cebpf4jnsgd1na2vs0mg"},{"bike_id":"aee11596-da2d-4e3e-90f6-384be20942c5","system_id":"levelo_inurba_marseille","lat":43.311722,"lon":5.387247,"is_reserved":false,"is_disabled":false,"rental_uris":{"android":"levelo://app?vid=aee11596-da2d-4e3e-90f6-384be20942c5","ios":"levelo://app?vid=aee11596-da2d-4e3e-90f6-384be20942c5"},"vehicle_type_id":"4","last_reported":1713730062,"current_range_meters":16400,"station_id":"ce4bgv12rcd13ifvqcp0","pricing_plan_id":"cebpf4jnsgd1na2vs0mg"},{"bike_id":"340303cb-1e7f-4028-b246-61b8e9cbac85","system_id":"levelo_inurba_marseille","lat":43.311722,"lon":5.387247,"is_reserved":false,"is_disabled":false,"rental_uris":{"android":"levelo://app?vid=340303cb-1e7f-4028-b246-61b8e9cbac85","ios":"levelo://app?vid=340303cb-1e7f-4028-b246-61b8e9cbac85"},"vehicle_type_id":"4","last_reported":1713730062,"current_range_meters":2000,"station_id":"ce4bgv12rcd13ifvqcp0","pricing_plan_id":"cebpf4jnsgd1na2vs0mg"},{"bike_id":"02970308-73b0-4aff-bbae-80d4704960e7","system_id":"levelo_inurba_marseille","lat":43.311722,"lon":5.387247,"is_reserved":false,"is_disabled":false,"rental_uris":{"android":"levelo://app?vid=02970308-73b0-4aff-bbae-80d4704960e7","ios":"levelo://app?vid=02970308-73b0-4aff-bbae-80d4704960e7"},"vehicle_type_id":"4","last_reported":1713730062,"current_range_meters":25600,"station_id":"ce4bgv12rcd13ifvqcp0","pricing_plan_id":"cebpf4jnsgd1na2vs0mg"},{"bike_id":"95fa2458-6389-4ef0-9dbf-2aef19ffa862","system_id":"levelo_inurba_marseille","lat":43.311722,"lon":5.387247,"is_reserved":false,"is_disabled":false,"rental_uris":{"android":"levelo://app?vid=95fa2458-6389-4ef0-9dbf-2aef19ffa862","ios":"levelo://app?vid=95fa2458-6389-4ef0-9dbf-2aef19ffa862"},"vehicle_type_id":"4","last_reported":1713730062,"current_range_meters":8400,"station_id":"ce4bgv12rcd13ifvqcp0","pricing_plan_id":"cebpf4jnsgd1na2vs0mg"},{"bike_id":"2672a519-87e4-4cc1-aa91-82966a2ce3b9","system_id":"levelo_inurba_marseille","lat":43.297809,"lon":5.37117,"is_reserved":false,"is_disabled":false,"rental_uris":{"android":"levelo://app?vid=2672a519-87e4-4cc1-aa91-82966a2ce3b9","ios":"levelo://app?vid=2672a519-87e4-4cc1-aa91-82966a2ce3b9"},"vehicle_type_id":"4","last_reported":1713730062,"current_range_meters":0,"station_id":"ce4bgop2rcd13ifvqc1g","pricing_plan_id":"cebpf4jnsgd1na2vs0mg"},{"bike_id":"db1598fa-5f61-49c6-9363-c684e1664ccd","system_id":"levelo_inurba_marseille","lat":43.297774,"lon":5.370875,"is_reserved":false,"is_disabled":false,"rental_uris":{"android":"levelo://app?vid=db1598fa-5f61-49c6-9363-c684e1664ccd","ios":"levelo://app?vid=db1598fa-5f61-49c6-9363-c684e1664ccd"},"vehicle_type_id":"4","last_reported":1713730062,"current_range_meters":2000,"station_id":"ce4bgop2rcd13ifvqc1g","pricing_plan_id":"cebpf4jnsgd1na2vs0mg"},{"bike_id":"59c296c1-c1af-4a71-9e20-fa9c7f8757f9","system_id":"levelo_inurba_marseille","lat":43.322872,"lon":5.382756,"is_reserved":false,"is_disabled":false,"rental_uris":{"android":"levelo://app?vid=59c296c1-c1af-4a71-9e20-fa9c7f8757f9","ios":"levelo://app?vid=59c296c1-c1af-4a71-9e20-fa9c7f8757f9"},"vehicle_type_id":"4","last_reported":1713730062,"current_range_meters":30800,"station_id":"ce4bhr12rcd13ifvqhqg","pricing_plan_id":"cebpf4jnsgd1na2vs0mg"},{"bike_id":"aa38acc2-91cb-407c-ac8c-05b08cc96e3e","system_id":"levelo_inurba_marseille","lat":43.322872,"lon":5.382756,"is_reserved":false,"is_disabled":false,"rental_uris":{"android":"levelo://app?vid=aa38acc2-91cb-407c-ac8c-05b08cc96e3e","ios":"levelo://app?vid=aa38acc2-91cb-407c-ac8c-05b08cc96e3e"},"vehicle_type_id":"4","last_reported":1713730062,"current_range_meters":30400,"station_id":"ce4bhr12rcd13ifvqhqg","pricing_plan_id":"cebpf4jnsgd1na2vs0mg"},{"bike_id":"6a9bcf40-c5f9-44a4-a58e-664576d7b299","system_id":"levelo_inurba_marseille","lat":43.322872,"lon":5.382756,"is_reserved":false,"is_disabled":false,"rental_uris":{"android":"levelo://app?vid=6a9bcf40-c5f9-44a4-a58e-664576d7b299","ios":"levelo://app?vid=6a9bcf40-c5f9-44a4-a58e-664576d7b299"},"vehicle_type_id":"4","last_reported":1713730062,"current_range_meters":11200,"station_id":"ce4bhr12rcd13ifvqhqg","pricing_plan_id":"cebpf4jnsgd1na2vs0mg"},{"bike_id":"e5df68f6-b1ff-4d0a-b7e9-c02ca9b8210e","system_id":"levelo_inurba_marseille","lat":43.322872,"lon":5.382756,"is_reserved":false,"is_disabled":false,"rental_uris":{"android":"levelo://app?vid=e5df68f6-b1ff-4d0a-b7e9-c02ca9b8210e","ios":"levelo://app?vid=e5df68f6-b1ff-4d0a-b7e9-c02ca9b8210e"},"vehicle_type_id":"4","last_reported":1713730062,"current_range_meters":31200,"station_id":"ce4bhr12rcd13ifvqhqg","pricing_plan_id":"cebpf4jnsgd1na2vs0mg"},{"bike_id":"e6e1354e-bdce-4dd5-9a38-89db873ff65d","system_id":"levelo_inurba_marseille","lat":43.29771,"lon":5.37121,"is_reserved":false,"is_disabled":false,"rental_uris":{"android":"levelo://app?vid=e6e1354e-bdce-4dd5-9a38-89db873ff65d","ios":"levelo://app?vid=e6e1354e-bdce-4dd5-9a38-89db873ff65d"},"vehicle_type_id":"4","last_reported":1713730062,"current_range_meters":1200,"station_id":"ce4bgv12rcd13ifvqcp0","pricing_plan_id":"cebpf4jnsgd1na2vs0mg"},{"bike_id":"1db02aab-65af-4d38-8223-af6cbfeb63a2","system_id":"levelo_inurba_marseille","lat":43.322872,"lon":5.382756,"is_reserved":false,"is_disabled":false,"rental_uris":{"android":"levelo://app?vid=1db02aab-65af-4d38-8223-af6cbfeb63a2","ios":"levelo://app?vid=1db02aab-65af-4d38-8223-af6cbfeb63a2"},"vehicle_type_id":"4","last_reported":1713730062,"current_range_meters":3200,"station_id":"ce4bhr12rcd13ifvqhqg","pricing_plan_id":"cebpf4jnsgd1na2vs0mg"},{"bike_id":"c1c913df-b844-406e-83f7-dff5f43f7dc5","system_id":"levelo_inurba_marseille","lat":43.322872,"lon":5.382756,"is_reserved":false,"is_disabled":false,"rental_uris":{"android":"levelo://app?vid=c1c913df-b844-406e-83f7-dff5f43f7dc5","ios":"levelo://app?vid=c1c913df-b844-406e-83f7-dff5f43f7dc5"},"vehicle_type_id":"4","last_reported":1713730062,"current_range_meters":31200,"station_id":"ce4bhr12rcd13ifvqhqg","pricing_plan_id":"cebpf4jnsgd1na2vs0mg"},{"bike_id":"3a777aae-0d2a-4638-8c09-6f1de81534e0","system_id":"levelo_inurba_marseille","lat":43.322872,"lon":5.382756,"is_reserved":false,"is_disabled":false,"rental_uris":{"android":"levelo://app?vid=3a777aae-0d2a-4638-8c09-6f1de81534e0","ios":"levelo://app?vid=3a777aae-0d2a-4638-8c09-6f1de81534e0"},"vehicle_type_id":"4","last_reported":1713730062,"current_range_meters":26800,"station_id":"ce4bhr12rcd13ifvqhqg","pricing_plan_id":"cebpf4jnsgd1na2vs0mg"},{"bike_id":"7bfdb18d-5234-4816-a8ec-5de25116bfe3","system_id":"levelo_inurba_marseille","lat":43.322872,"lon":5.382756,"is_reserved":false,"is_disabled":false,"rental_uris":{"android":"levelo://app?vid=7bfdb18d-5234-4816-a8ec-5de25116bfe3","ios":"levelo://app?vid=7bfdb18d-5234-4816-a8ec-5de25116bfe3"},"vehicle_type_id":"4","last_reported":1713730062,"current_range_meters":400,"station_id":"ce4bhr12rcd13ifvqhqg","pricing_plan_id":"cebpf4jnsgd1na2vs0mg"},{"bike_id":"a3ea0d22-2906-4153-83f4-4f61e904b0ee","system_id":"levelo_inurba_marseille","lat":43.29718,"lon":5.36607,"is_reserved":false,"is_disabled":false,"rental_uris":{"android":"levelo://app?vid=a3ea0d22-2906-4153-83f4-4f61e904b0ee","ios":"levelo://app?vid=a3ea0d22-2906-4153-83f4-4f61e904b0ee"},"vehicle_type_id":"4","last_reported":1713730062,"current_range_meters":21600,"station_id":"ce4bgn12rcd13ifvqbt0","pricing_plan_id":"cebpf4jnsgd1na2vs0mg"},{"bike_id":"e9005fa8-d4d2-45af-a3f0-72fc9220ca5e","system_id":"levelo_inurba_marseille","lat":43.297163,"lon":5.365866,"is_reserved":false,"is_disabled":false,"rental_uris":{"android":"levelo://app?vid=e9005fa8-d4d2-45af-a3f0-72fc9220ca5e","ios":"levelo://app?vid=e9005fa8-d4d2-45af-a3f0-72fc9220ca5e"},"vehicle_type_id":"4","last_reported":1713730062,"current_range_meters":13200,"station_id":"ce4bgn12rcd13ifvqbt0","pricing_plan_id":"cebpf4jnsgd1na2vs0mg"},{"bike_id":"a1782e35-52fa-42f5-baa2-947870a3b667","system_id":"levelo_inurba_marseille","lat":43.297163,"lon":5.365866,"is_reserved":false,"is_disabled":false,"rental_uris":{"android":"levelo://app?vid=a1782e35-52fa-42f5-baa2-947870a3b667","ios":"levelo://app?vid=a1782e35-52fa-42f5-baa2-947870a3b667"},"vehicle_type_id":"4","last_reported":1713730062,"current_range_meters":10400,"station_id":"ce4bgn12rcd13ifvqbt0","pricing_plan_id":"cebpf4jnsgd1na2vs0mg"},{"bike_id":"235ca58b-2bb6-4350-acd8-209a11c72832","system_id":"levelo_inurba_marseille","lat":43.2968,"lon":5.37291,"is_reserved":false,"is_disabled":false,"rental_uris":{"android":"levelo://app?vid=235ca58b-2bb6-4350-acd8-209a11c72832","ios":"levelo://app?vid=235ca58b-2bb6-4350-acd8-209a11c72832"},"vehicle_type_id":"4","last_reported":1713730062,"current_range_meters":1600,"station_id":"ce4bgk12rcd13ifvqbj0","pricing_plan_id":"cebpf4jnsgd1na2vs0mg"},{"bike_id":"e9ecbb0c-1fd3-4447-8266-162391331164","system_id":"levelo_inurba_marseille","lat":43.310057,"lon":5.389817,"is_reserved":false,"is_disabled":false,"rental_uris":{"android":"levelo://app?vid=e9ecbb0c-1fd3-4447-8266-162391331164","ios":"levelo://app?vid=e9ecbb0c-1fd3-4447-8266-162391331164"},"vehicle_type_id":"4","last_reported":1713730062,"current_range_meters":6000,"station_id":"","pricing_plan_id":"cebpf4jnsgd1na2vs0mg"},{"bike_id":"447d6160-8456-40df-b8e3-969f02cfe06e","system_id":"levelo_inurba_marseille","lat":43.29573,"lon":5.367355,"is_reserved":false,"is_disabled":false,"rental_uris":{"android":"levelo://app?vid=447d6160-8456-40df-b8e3-969f02cfe06e","ios":"levelo://app?vid=447d6160-8456-40df-b8e3-969f02cfe06e"},"vehicle_type_id":"4","last_reported":1713730062,"current_range_meters":16000,"station_id":"ce4bgph2rcd13ifvqc2g","pricing_plan_id":"cebpf4jnsgd1na2vs0mg"},{"bike_id":"95eb9164-6a46-402c-be15-9c999e90bfb5","system_id":"levelo_inurba_marseille","lat":43.29593,"lon":5.36902,"is_reserved":false,"is_disabled":false,"rental_uris":{"android":"levelo://app?vid=95eb9164-6a46-402c-be15-9c999e90bfb5","ios":"levelo://app?vid=95eb9164-6a46-402c-be15-9c999e90bfb5"},"vehicle_type_id":"4","last_reported":1713730062,"current_range_meters":22000,"station_id":"","pricing_plan_id":"cebpf4jnsgd1na2vs0mg"},{"bike_id":"1288735e-290a-4e43-bf7e-a09632235b63","system_id":"levelo_inurba_marseille","lat":43.296162,"lon":5.371547,"is_reserved":false,"is_disabled":false,"rental_uris":{"android":"levelo://app?vid=1288735e-290a-4e43-bf7e-a09632235b63","ios":"levelo://app?vid=1288735e-290a-4e43-bf7e-a09632235b63"},"vehicle_type_id":"4","last_reported":1713730062,"current_range_meters":0,"station_id":"ce4bgnh2rcd13ifvqc0g","pricing_plan_id":"cebpf4jnsgd1na2vs0mg"},{"bike_id":"b05bb958-7872-4fe4-a8a5-a7ff0b9dfa09","system_id":"levelo_inurba_marseille","lat":43.296935,"lon":5.376544,"is_reserved":false,"is_disabled":false,"rental_uris":{"android":"levelo://app?vid=b05bb958-7872-4fe4-a8a5-a7ff0b9dfa09","ios":"levelo://app?vid=b05bb958-7872-4fe4-a8a5-a7ff0b9dfa09"},"vehicle_type_id":"4","last_reported":1713730062,"current_range_meters":3600,"station_id":"ce4bgkh2rcd13ifvqbl0","pricing_plan_id":"cebpf4jnsgd1na2vs0mg"},{"bike_id":"c1bf6670-0957-475b-8a83-95f8657d7e7e","system_id":"levelo_inurba_marseille","lat":43.309589,"lon":5.390258,"is_reserved":false,"is_disabled":false,"rental_uris":{"android":"levelo://app?vid=c1bf6670-0957-475b-8a83-95f8657d7e7e","ios":"levelo://app?vid=c1bf6670-0957-475b-8a83-95f8657d7e7e"},"vehicle_type_id":"4","last_reported":1713730062,"current_range_meters":26800,"station_id":"ce4bgup2rcd13ifvqco0","pricing_plan_id":"cebpf4jnsgd1na2vs0mg"},{"bike_id":"175c6e45-9628-4964-999e-5a37b5050c2d","system_id":"levelo_inurba_marseille","lat":43.309589,"lon":5.390258,"is_reserved":false,"is_disabled":false,"rental_uris":{"android":"levelo://app?vid=175c6e45-9628-4964-999e-5a37b5050c2d","ios":"levelo://app?vid=175c6e45-9628-4964-999e-5a37b5050c2d"},"vehicle_type_id":"4","last_reported":1713730062,"current_range_meters":19600,"station_id":"ce4bgup2rcd13ifvqco0","pricing_plan_id":"cebpf4jnsgd1na2vs0mg"},{"bike_id":"d3444ec2-8ba4-4d24-8206-5b0ed7c44522","system_id":"levelo_inurba_marseille","lat":43.309589,"lon":5.390258,"is_reserved":false,"is_disabled":false,"rental_uris":{"android":"levelo://app?vid=d3444ec2-8ba4-4d24-8206-5b0ed7c44522","ios":"levelo://app?vid=d3444ec2-8ba4-4d24-8206-5b0ed7c44522"},"vehicle_type_id":"4","last_reported":1713730062,"current_range_meters":17200,"station_id":"ce4bgup2rcd13ifvqco0","pricing_plan_id":"cebpf4jnsgd1na2vs0mg"},{"bike_id":"6846b909-e8d4-4896-9cb9-8da4763ce4e5","system_id":"levelo_inurba_marseille","lat":43.317557,"lon":5.390173,"is_reserved":false,"is_disabled":false,"rental_uris":{"android":"levelo://app?vid=6846b909-e8d4-4896-9cb9-8da4763ce4e5","ios":"levelo://app?vid=6846b909-e8d4-4896-9cb9-8da4763ce4e5"},"vehicle_type_id":"4","last_reported":1713730062,"current_range_meters":18400,"station_id":"ce4bhqp2rcd13ifvqhng","pricing_plan_id":"cebpf4jnsgd1na2vs0mg"},{"bike_id":"2816d97b-ae64-4878-8d88-d4b711d6a647","system_id":"levelo_inurba_marseille","lat":43.317537,"lon":5.390263,"is_reserved":false,"is_disabled":false,"rental_uris":{"android":"levelo://app?vid=2816d97b-ae64-4878-8d88-d4b711d6a647","ios":"levelo://app?vid=2816d97b-ae64-4878-8d88-d4b711d6a647"},"vehicle_type_id":"4","last_reported":1713730062,"current_range_meters":12800,"station_id":"ce4bhqp2rcd13ifvqhng","pricing_plan_id":"cebpf4jnsgd1na2vs0mg"},{"bike_id":"17c14387-5622-468d-a304-5781bf1a3958","system_id":"levelo_inurba_marseille","lat":43.305364,"lon":5.384119,"is_reserved":false,"is_disabled":false,"rental_uris":{"android":"levelo://app?vid=17c14387-5622-468d-a304-5781bf1a3958","ios":"levelo://app?vid=17c14387-5622-468d-a304-5781bf1a3958"},"vehicle_type_id":"4","last_reported":1713730062,"current_range_meters":25200,"station_id":"ce4bgg92rcd13ifvqb30","pricing_plan_id":"cebpf4jnsgd1na2vs0mg"},{"bike_id":"d0a5bf1a-60ca-40f1-a3b4-b136185f5652","system_id":"levelo_inurba_marseille","lat":43.298,"lon":5.38104,"is_reserved":false,"is_disabled":false,"rental_uris":{"android":"levelo://app?vid=d0a5bf1a-60ca-40f1-a3b4-b136185f5652","ios":"levelo://app?vid=d0a5bf1a-60ca-40f1-a3b4-b136185f5652"},"vehicle_type_id":"4","last_reported":1713730062,"current_range_meters":0,"station_id":"ce4bgip2rcd13ifvqbb0","pricing_plan_id":"cebpf4jnsgd1na2vs0mg"},{"bike_id":"379e51db-a36b-4849-bff8-35ea4cb1d9e9","system_id":"levelo_inurba_marseille","lat":43.304278,"lon":5.388868,"is_reserved":false,"is_disabled":false,"rental_uris":{"android":"levelo://app?vid=379e51db-a36b-4849-bff8-35ea4cb1d9e9","ios":"levelo://app?vid=379e51db-a36b-4849-bff8-35ea4cb1d9e9"},"vehicle_type_id":"4","last_reported":1713730062,"current_range_meters":4400,"station_id":"ce4bgk12rcd13ifvqbi0","pricing_plan_id":"cebpf4jnsgd1na2vs0mg"},{"bike_id":"ef25a92d-187f-4d99-97e3-859a352dd6a2","system_id":"levelo_inurba_marseille","lat":43.304274,"lon":5.388873,"is_reserved":false,"is_disabled":false,"rental_uris":{"android":"levelo://app?vid=ef25a92d-187f-4d99-97e3-859a352dd6a2","ios":"levelo://app?vid=ef25a92d-187f-4d99-97e3-859a352dd6a2"},"vehicle_type_id":"4","last_reported":1713730062,"current_range_meters":10400,"station_id":"ce4bgk12rcd13ifvqbi0","pricing_plan_id":"cebpf4jnsgd1na2vs0mg"},{"bike_id":"0a1dbc76-1bd2-44e3-96ed-e0bfe53f18ad","system_id":"levelo_inurba_marseille","lat":43.295748,"lon":5.37522,"is_reserved":false,"is_disabled":false,"rental_uris":{"android":"levelo://app?vid=0a1dbc76-1bd2-44e3-96ed-e0bfe53f18ad","ios":"levelo://app?vid=0a1dbc76-1bd2-44e3-96ed-e0bfe53f18ad"},"vehicle_type_id":"4","last_reported":1713730062,"current_range_meters":26000,"station_id":"ce4bgh92rcd13ifvqb50","pricing_plan_id":"cebpf4jnsgd1na2vs0mg"},{"bike_id":"c57a7229-8deb-4a0e-b540-468347924587","system_id":"levelo_inurba_marseille","lat":43.304278,"lon":5.388868,"is_reserved":false,"is_disabled":false,"rental_uris":{"android":"levelo://app?vid=c57a7229-8deb-4a0e-b540-468347924587","ios":"levelo://app?vid=c57a7229-8deb-4a0e-b540-468347924587"},"vehicle_type_id":"4","last_reported":1713730062,"current_range_meters":17200,"station_id":"ce4bgk12rcd13ifvqbi0","pricing_plan_id":"cebpf4jnsgd1na2vs0mg"},{"bike_id":"14dcd35e-0829-4660-a94e-4dc1bf9fc388","system_id":"levelo_inurba_marseille","lat":43.29795,"lon":5.38118,"is_reserved":false,"is_disabled":false,"rental_uris":{"android":"levelo://app?vid=14dcd35e-0829-4660-a94e-4dc1bf9fc388","ios":"levelo://app?vid=14dcd35e-0829-4660-a94e-4dc1bf9fc388"},"vehicle_type_id":"4","last_reported":1713730062,"current_range_meters":0,"station_id":"ce4bgip2rcd13ifvqbb0","pricing_plan_id":"cebpf4jnsgd1na2vs0mg"},{"bike_id":"2476d8d6-1ee0-462b-a305-6fb3d905bcf6","system_id":"levelo_inurba_marseille","lat":43.304274,"lon":5.388873,"is_reserved":false,"is_disabled":false,"rental_uris":{"android":"levelo://app?vid=2476d8d6-1ee0-462b-a305-6fb3d905bcf6","ios":"levelo://app?vid=2476d8d6-1ee0-462b-a305-6fb3d905bcf6"},"vehicle_type_id":"4","last_reported":1713730062,"current_range_meters":13600,"station_id":"ce4bgk12rcd13ifvqbi0","pricing_plan_id":"cebpf4jnsgd1na2vs0mg"},{"bike_id":"f24ead8c-090c-47ed-a0a2-ede0749def14","system_id":"levelo_inurba_marseille","lat":43.304274,"lon":5.388873,"is_reserved":false,"is_disabled":false,"rental_uris":{"android":"levelo://app?vid=f24ead8c-090c-47ed-a0a2-ede0749def14","ios":"levelo://app?vid=f24ead8c-090c-47ed-a0a2-ede0749def14"},"vehicle_type_id":"4","last_reported":1713730062,"current_range_meters":25600,"station_id":"ce4bgk12rcd13ifvqbi0","pricing_plan_id":"cebpf4jnsgd1na2vs0mg"},{"bike_id":"cee0d429-a704-42a0-ad5e-09083780d0a7","system_id":"levelo_inurba_marseille","lat":43.295279,"lon":5.375048,"is_reserved":false,"is_disabled":false,"rental_uris":{"android":"levelo://app?vid=cee0d429-a704-42a0-ad5e-09083780d0a7","ios":"levelo://app?vid=cee0d429-a704-42a0-ad5e-09083780d0a7"},"vehicle_type_id":"4","last_reported":1713730062,"current_range_meters":18800,"station_id":"ce4bgkp2rcd13ifvqbmg","pricing_plan_id":"cebpf4jnsgd1na2vs0mg"},{"bike_id":"bb393afd-962d-40a3-bad1-1b8be3c92e8c","system_id":"levelo_inurba_marseille","lat":43.299724,"lon":5.384848,"is_reserved":false,"is_disabled":false,"rental_uris":{"android":"levelo://app?vid=bb393afd-962d-40a3-bad1-1b8be3c92e8c","ios":"levelo://app?vid=bb393afd-962d-40a3-bad1-1b8be3c92e8c"},"vehicle_type_id":"4","last_reported":1713730062,"current_range_meters":0,"station_id":"ce4bgj92rcd13ifvqbd0","pricing_plan_id":"cebpf4jnsgd1na2vs0mg"},{"bike_id":"02b467a4-ff8a-4d08-873b-080105dbd589","system_id":"levelo_inurba_marseille","lat":43.299707,"lon":5.384859,"is_reserved":false,"is_disabled":false,"rental_uris":{"android":"levelo://app?vid=02b467a4-ff8a-4d08-873b-080105dbd589","ios":"levelo://app?vid=02b467a4-ff8a-4d08-873b-080105dbd589"},"vehicle_type_id":"4","last_reported":1713730062,"current_range_meters":21200,"station_id":"ce4bgj92rcd13ifvqbd0","pricing_plan_id":"cebpf4jnsgd1na2vs0mg"},{"bike_id":"ffa7f13f-2d3d-4de7-9475-bc8dc75333ab","system_id":"levelo_inurba_marseille","lat":43.295279,"lon":5.375048,"is_reserved":false,"is_disabled":false,"rental_uris":{"android":"levelo://app?vid=ffa7f13f-2d3d-4de7-9475-bc8dc75333ab","ios":"levelo://app?vid=ffa7f13f-2d3d-4de7-9475-bc8dc75333ab"},"vehicle_type_id":"4","last_reported":1713730062,"current_range_meters":14000,"station_id":"ce4bgkp2rcd13ifvqbmg","pricing_plan_id":"cebpf4jnsgd1na2vs0mg"},{"bike_id":"32c27db7-6e52-4a11-a979-afe427e8e3f5","system_id":"levelo_inurba_marseille","lat":43.299707,"lon":5.384859,"is_reserved":false,"is_disabled":false,"rental_uris":{"android":"levelo://app?vid=32c27db7-6e52-4a11-a979-afe427e8e3f5","ios":"levelo://app?vid=32c27db7-6e52-4a11-a979-afe427e8e3f5"},"vehicle_type_id":"4","last_reported":1713730062,"current_range_meters":7200,"station_id":"ce4bgj92rcd13ifvqbd0","pricing_plan_id":"cebpf4jnsgd1na2vs0mg"},{"bike_id":"5cc9b3f7-746b-4dc8-a9be-06c6e75a37db","system_id":"levelo_inurba_marseille","lat":43.32367,"lon":5.38881,"is_reserved":false,"is_disabled":false,"rental_uris":{"android":"levelo://app?vid=5cc9b3f7-746b-4dc8-a9be-06c6e75a37db","ios":"levelo://app?vid=5cc9b3f7-746b-4dc8-a9be-06c6e75a37db"},"vehicle_type_id":"4","last_reported":1713730062,"current_range_meters":21200,"station_id":"ce4bhqp2rcd13ifvqhog","pricing_plan_id":"cebpf4jnsgd1na2vs0mg"},{"bike_id":"2ca1ed3b-890e-44ba-b99d-f024dbea6d6e","system_id":"levelo_inurba_marseille","lat":43.32367,"lon":5.388836,"is_reserved":false,"is_disabled":false,"rental_uris":{"android":"levelo://app?vid=2ca1ed3b-890e-44ba-b99d-f024dbea6d6e","ios":"levelo://app?vid=2ca1ed3b-890e-44ba-b99d-f024dbea6d6e"},"vehicle_type_id":"4","last_reported":1713730062,"current_range_meters":22800,"station_id":"ce4bhqp2rcd13ifvqhog","pricing_plan_id":"cebpf4jnsgd1na2vs0mg"},{"bike_id":"4d3309a7-9ad7-4e1a-aa2b-f506ef43c3ca","system_id":"levelo_inurba_marseille","lat":43.3237,"lon":5.38888,"is_reserved":false,"is_disabled":false,"rental_uris":{"android":"levelo://app?vid=4d3309a7-9ad7-4e1a-aa2b-f506ef43c3ca","ios":"levelo://app?vid=4d3309a7-9ad7-4e1a-aa2b-f506ef43c3ca"},"vehicle_type_id":"4","last_reported":1713730062,"current_range_meters":22800,"station_id":"ce4bhqp2rcd13ifvqhog","pricing_plan_id":"cebpf4jnsgd1na2vs0mg"},{"bike_id":"55c33603-ff35-463b-9f30-c904614505b4","system_id":"levelo_inurba_marseille","lat":43.32367,"lon":5.388836,"is_reserved":false,"is_disabled":false,"rental_uris":{"android":"levelo://app?vid=55c33603-ff35-463b-9f30-c904614505b4","ios":"levelo://app?vid=55c33603-ff35-463b-9f30-c904614505b4"},"vehicle_type_id":"4","last_reported":1713730062,"current_range_meters":6000,"station_id":"ce4bhqp2rcd13ifvqhog","pricing_plan_id":"cebpf4jnsgd1na2vs0mg"},{"bike_id":"de1ec55a-a01d-457f-b8b4-5d1220b90ed3","system_id":"levelo_inurba_marseille","lat":43.32367,"lon":5.388836,"is_reserved":false,"is_disabled":false,"rental_uris":{"android":"levelo://app?vid=de1ec55a-a01d-457f-b8b4-5d1220b90ed3","ios":"levelo://app?vid=de1ec55a-a01d-457f-b8b4-5d1220b90ed3"},"vehicle_type_id":"4","last_reported":1713730062,"current_range_meters":13600,"station_id":"ce4bhqp2rcd13ifvqhog","pricing_plan_id":"cebpf4jnsgd1na2vs0mg"},{"bike_id":"6af99505-6006-4b70-9f55-db9b8579de89","system_id":"levelo_inurba_marseille","lat":43.32367,"lon":5.388836,"is_reserved":false,"is_disabled":false,"rental_uris":{"android":"levelo://app?vid=6af99505-6006-4b70-9f55-db9b8579de89","ios":"levelo://app?vid=6af99505-6006-4b70-9f55-db9b8579de89"},"vehicle_type_id":"4","last_reported":1713730062,"current_range_meters":14000,"station_id":"ce4bhqp2rcd13ifvqhog","pricing_plan_id":"cebpf4jnsgd1na2vs0mg"},{"bike_id":"064abb06-6701-4801-999d-d8fe6e6e3dbb","system_id":"levelo_inurba_marseille","lat":43.29602,"lon":5.381084,"is_reserved":false,"is_disabled":false,"rental_uris":{"android":"levelo://app?vid=064abb06-6701-4801-999d-d8fe6e6e3dbb","ios":"levelo://app?vid=064abb06-6701-4801-999d-d8fe6e6e3dbb"},"vehicle_type_id":"4","last_reported":1713730062,"current_range_meters":8800,"station_id":"ce4bgl12rcd13ifvqbo0","pricing_plan_id":"cebpf4jnsgd1na2vs0mg"},{"bike_id":"3b2df9b1-25c7-4c2b-987b-74969072f579","system_id":"levelo_inurba_marseille","lat":43.32367,"lon":5.388836,"is_reserved":false,"is_disabled":false,"rental_uris":{"android":"levelo://app?vid=3b2df9b1-25c7-4c2b-987b-74969072f579","ios":"levelo://app?vid=3b2df9b1-25c7-4c2b-987b-74969072f579"},"vehicle_type_id":"4","last_reported":1713730062,"current_range_meters":2800,"station_id":"ce4bhqp2rcd13ifvqhog","pricing_plan_id":"cebpf4jnsgd1na2vs0mg"},{"bike_id":"983cfc95-d37c-4d7d-b07f-55bfddd2bc33","system_id":"levelo_inurba_marseille","lat":43.29394,"lon":5.374255,"is_reserved":false,"is_disabled":false,"rental_uris":{"android":"levelo://app?vid=983cfc95-d37c-4d7d-b07f-55bfddd2bc33","ios":"levelo://app?vid=983cfc95-d37c-4d7d-b07f-55bfddd2bc33"},"vehicle_type_id":"4","last_reported":1713730062,"current_range_meters":10400,"station_id":"","pricing_plan_id":"cebpf4jnsgd1na2vs0mg"},{"bike_id":"f0c7c442-8fa6-483e-a004-a77b421be1a0","system_id":"levelo_inurba_marseille","lat":43.29602,"lon":5.381084,"is_reserved":false,"is_disabled":false,"rental_uris":{"android":"levelo://app?vid=f0c7c442-8fa6-483e-a004-a77b421be1a0","ios":"levelo://app?vid=f0c7c442-8fa6-483e-a004-a77b421be1a0"},"vehicle_type_id":"4","last_reported":1713730062,"current_range_meters":15200,"station_id":"ce4bgl12rcd13ifvqbo0","pricing_plan_id":"cebpf4jnsgd1na2vs0mg"},{"bike_id":"61c573c3-bc65-4b89-9872-a639bc178a9d","system_id":"levelo_inurba_marseille","lat":43.29595,"lon":5.38103,"is_reserved":false,"is_disabled":false,"rental_uris":{"android":"levelo://app?vid=61c573c3-bc65-4b89-9872-a639bc178a9d","ios":"levelo://app?vid=61c573c3-bc65-4b89-9872-a639bc178a9d"},"vehicle_type_id":"4","last_reported":1713730062,"current_range_meters":19200,"station_id":"ce4bh412rcd13ifvqds0","pricing_plan_id":"cebpf4jnsgd1na2vs0mg"},{"bike_id":"803a4517-b09b-4770-a504-d0b96c6ec42b","system_id":"levelo_inurba_marseille","lat":43.29593,"lon":5.381,"is_reserved":false,"is_disabled":false,"rental_uris":{"android":"levelo://app?vid=803a4517-b09b-4770-a504-d0b96c6ec42b","ios":"levelo://app?vid=803a4517-b09b-4770-a504-d0b96c6ec42b"},"vehicle_type_id":"4","last_reported":1713730062,"current_range_meters":27200,"station_id":"ce4bgl12rcd13ifvqbo0","pricing_plan_id":"cebpf4jnsgd1na2vs0mg"},{"bike_id":"d81099c8-a327-4612-8ccc-691c6d4727b6","system_id":"levelo_inurba_marseille","lat":43.32367,"lon":5.388836,"is_reserved":false,"is_disabled":false,"rental_uris":{"android":"levelo://app?vid=d81099c8-a327-4612-8ccc-691c6d4727b6","ios":"levelo://app?vid=d81099c8-a327-4612-8ccc-691c6d4727b6"},"vehicle_type_id":"4","last_reported":1713730062,"current_range_meters":21600,"station_id":"ce4bhqp2rcd13ifvqhog","pricing_plan_id":"cebpf4jnsgd1na2vs0mg"},{"bike_id":"5be537f2-f4fa-4cb5-81d8-d9b2e80c00ec","system_id":"levelo_inurba_marseille","lat":43.292749,"lon":5.368402,"is_reserved":false,"is_disabled":false,"rental_uris":{"android":"levelo://app?vid=5be537f2-f4fa-4cb5-81d8-d9b2e80c00ec","ios":"levelo://app?vid=5be537f2-f4fa-4cb5-81d8-d9b2e80c00ec"},"vehicle_type_id":"4","last_reported":1713730062,"current_range_meters":400,"station_id":"ce4bhbp2rcd13ifvqesg","pricing_plan_id":"cebpf4jnsgd1na2vs0mg"},{"bike_id":"e5ce9a56-a9c3-425f-becb-0270b0665d34","system_id":"levelo_inurba_marseille","lat":43.292749,"lon":5.368402,"is_reserved":false,"is_disabled":false,"rental_uris":{"android":"levelo://app?vid=e5ce9a56-a9c3-425f-becb-0270b0665d34","ios":"levelo://app?vid=e5ce9a56-a9c3-425f-becb-0270b0665d34"},"vehicle_type_id":"4","last_reported":1713730062,"current_range_meters":30400,"station_id":"ce4bhbp2rcd13ifvqesg","pricing_plan_id":"cebpf4jnsgd1na2vs0mg"},{"bike_id":"c096da32-c19d-4043-a941-671eb38d2759","system_id":"levelo_inurba_marseille","lat":43.292749,"lon":5.368402,"is_reserved":false,"is_disabled":false,"rental_uris":{"android":"levelo://app?vid=c096da32-c19d-4043-a941-671eb38d2759","ios":"levelo://app?vid=c096da32-c19d-4043-a941-671eb38d2759"},"vehicle_type_id":"4","last_reported":1713730062,"current_range_meters":27600,"station_id":"ce4bhbp2rcd13ifvqesg","pricing_plan_id":"cebpf4jnsgd1na2vs0mg"},{"bike_id":"30049514-2a81-43c7-82b4-f809bbbf16da","system_id":"levelo_inurba_marseille","lat":43.29285,"lon":5.36855,"is_reserved":false,"is_disabled":false,"rental_uris":{"android":"levelo://app?vid=30049514-2a81-43c7-82b4-f809bbbf16da","ios":"levelo://app?vid=30049514-2a81-43c7-82b4-f809bbbf16da"},"vehicle_type_id":"4","last_reported":1713730062,"current_range_meters":18000,"station_id":"ce4bhbp2rcd13ifvqesg","pricing_plan_id":"cebpf4jnsgd1na2vs0mg"},{"bike_id":"a5036dae-802c-413d-8b06-5da3e4028e97","system_id":"levelo_inurba_marseille","lat":43.293259,"lon":5.371586,"is_reserved":false,"is_disabled":false,"rental_uris":{"android":"levelo://app?vid=a5036dae-802c-413d-8b06-5da3e4028e97","ios":"levelo://app?vid=a5036dae-802c-413d-8b06-5da3e4028e97"},"vehicle_type_id":"4","last_reported":1713730062,"current_range_meters":0,"station_id":"ce4bgh92rcd13ifvqb40","pricing_plan_id":"cebpf4jnsgd1na2vs0mg"},{"bike_id":"c8ea2c98-b0bc-484b-821e-99870f6c2421","system_id":"levelo_inurba_marseille","lat":43.292749,"lon":5.368402,"is_reserved":false,"is_disabled":false,"rental_uris":{"android":"levelo://app?vid=c8ea2c98-b0bc-484b-821e-99870f6c2421","ios":"levelo://app?vid=c8ea2c98-b0bc-484b-821e-99870f6c2421"},"vehicle_type_id":"4","last_reported":1713730062,"current_range_meters":0,"station_id":"ce4bhbp2rcd13ifvqesg","pricing_plan_id":"cebpf4jnsgd1na2vs0mg"},{"bike_id":"8ad96ea3-a24d-451d-be49-d6003b17c72e","system_id":"levelo_inurba_marseille","lat":43.29279,"lon":5.36842,"is_reserved":false,"is_disabled":false,"rental_uris":{"android":"levelo://app?vid=8ad96ea3-a24d-451d-be49-d6003b17c72e","ios":"levelo://app?vid=8ad96ea3-a24d-451d-be49-d6003b17c72e"},"vehicle_type_id":"4","last_reported":1713730062,"current_range_meters":28000,"station_id":"ce4bhbp2rcd13ifvqesg","pricing_plan_id":"cebpf4jnsgd1na2vs0mg"},{"bike_id":"b641783a-25c1-4857-9b9e-396df16873a0","system_id":"levelo_inurba_marseille","lat":43.292749,"lon":5.368402,"is_reserved":false,"is_disabled":false,"rental_uris":{"android":"levelo://app?vid=b641783a-25c1-4857-9b9e-396df16873a0","ios":"levelo://app?vid=b641783a-25c1-4857-9b9e-396df16873a0"},"vehicle_type_id":"4","last_reported":1713730062,"current_range_meters":12800,"station_id":"ce4bhbp2rcd13ifvqesg","pricing_plan_id":"cebpf4jnsgd1na2vs0mg"},{"bike_id":"54f7fdd7-ba3e-4757-998d-346bb283283d","system_id":"levelo_inurba_marseille","lat":43.293259,"lon":5.371586,"is_reserved":false,"is_disabled":false,"rental_uris":{"android":"levelo://app?vid=54f7fdd7-ba3e-4757-998d-346bb283283d","ios":"levelo://app?vid=54f7fdd7-ba3e-4757-998d-346bb283283d"},"vehicle_type_id":"4","last_reported":1713730062,"current_range_meters":28000,"station_id":"ce4bgh92rcd13ifvqb40","pricing_plan_id":"cebpf4jnsgd1na2vs0mg"},{"bike_id":"1f21de0b-1cde-41b6-9455-b37b5634335d","system_id":"levelo_inurba_marseille","lat":43.293259,"lon":5.371586,"is_reserved":false,"is_disabled":false,"rental_uris":{"android":"levelo://app?vid=1f21de0b-1cde-41b6-9455-b37b5634335d","ios":"levelo://app?vid=1f21de0b-1cde-41b6-9455-b37b5634335d"},"vehicle_type_id":"4","last_reported":1713730062,"current_range_meters":28000,"station_id":"ce4bgh92rcd13ifvqb40","pricing_plan_id":"cebpf4jnsgd1na2vs0mg"},{"bike_id":"322b6f92-eed7-43ee-ada1-cb219515746f","system_id":"levelo_inurba_marseille","lat":43.293259,"lon":5.371586,"is_reserved":false,"is_disabled":false,"rental_uris":{"android":"levelo://app?vid=322b6f92-eed7-43ee-ada1-cb219515746f","ios":"levelo://app?vid=322b6f92-eed7-43ee-ada1-cb219515746f"},"vehicle_type_id":"4","last_reported":1713730062,"current_range_meters":2000,"station_id":"ce4bgh92rcd13ifvqb40","pricing_plan_id":"cebpf4jnsgd1na2vs0mg"},{"bike_id":"b20585dc-282d-4a21-a893-3f7d147929d6","system_id":"levelo_inurba_marseille","lat":43.29275,"lon":5.36842,"is_reserved":false,"is_disabled":false,"rental_uris":{"android":"levelo://app?vid=b20585dc-282d-4a21-a893-3f7d147929d6","ios":"levelo://app?vid=b20585dc-282d-4a21-a893-3f7d147929d6"},"vehicle_type_id":"4","last_reported":1713730062,"current_range_meters":16400,"station_id":"ce4bhbp2rcd13ifvqesg","pricing_plan_id":"cebpf4jnsgd1na2vs0mg"},{"bike_id":"c5353ab2-8386-4763-be20-cd155e24c0d0","system_id":"levelo_inurba_marseille","lat":43.293259,"lon":5.371586,"is_reserved":false,"is_disabled":false,"rental_uris":{"android":"levelo://app?vid=c5353ab2-8386-4763-be20-cd155e24c0d0","ios":"levelo://app?vid=c5353ab2-8386-4763-be20-cd155e24c0d0"},"vehicle_type_id":"4","last_reported":1713730062,"current_range_meters":13600,"station_id":"ce4bgh92rcd13ifvqb40","pricing_plan_id":"cebpf4jnsgd1na2vs0mg"},{"bike_id":"4c4b9033-1c73-4781-a15b-5fd9ec10d0b0","system_id":"levelo_inurba_marseille","lat":43.292749,"lon":5.368402,"is_reserved":false,"is_disabled":false,"rental_uris":{"android":"levelo://app?vid=4c4b9033-1c73-4781-a15b-5fd9ec10d0b0","ios":"levelo://app?vid=4c4b9033-1c73-4781-a15b-5fd9ec10d0b0"},"vehicle_type_id":"4","last_reported":1713730062,"current_range_meters":11200,"station_id":"ce4bhbp2rcd13ifvqesg","pricing_plan_id":"cebpf4jnsgd1na2vs0mg"},{"bike_id":"8de59424-751e-4802-a66c-39673e9b80c4","system_id":"levelo_inurba_marseille","lat":43.292657,"lon":5.36848,"is_reserved":false,"is_disabled":false,"rental_uris":{"android":"levelo://app?vid=8de59424-751e-4802-a66c-39673e9b80c4","ios":"levelo://app?vid=8de59424-751e-4802-a66c-39673e9b80c4"},"vehicle_type_id":"4","last_reported":1713730062,"current_range_meters":13200,"station_id":"ce4bhbp2rcd13ifvqesg","pricing_plan_id":"cebpf4jnsgd1na2vs0mg"},{"bike_id":"aba4016e-0e2f-45a8-b13f-93dfd4b22c03","system_id":"levelo_inurba_marseille","lat":43.293259,"lon":5.371586,"is_reserved":false,"is_disabled":false,"rental_uris":{"android":"levelo://app?vid=aba4016e-0e2f-45a8-b13f-93dfd4b22c03","ios":"levelo://app?vid=aba4016e-0e2f-45a8-b13f-93dfd4b22c03"},"vehicle_type_id":"4","last_reported":1713730062,"current_range_meters":2800,"station_id":"ce4bgh92rcd13ifvqb40","pricing_plan_id":"cebpf4jnsgd1na2vs0mg"},{"bike_id":"e8ec2462-e8a7-4cf1-85fd-81bf36af0f7d","system_id":"levelo_inurba_marseille","lat":43.293009,"lon":5.374584,"is_reserved":false,"is_disabled":false,"rental_uris":{"android":"levelo://app?vid=e8ec2462-e8a7-4cf1-85fd-81bf36af0f7d","ios":"levelo://app?vid=e8ec2462-e8a7-4cf1-85fd-81bf36af0f7d"},"vehicle_type_id":"4","last_reported":1713730062,"current_range_meters":10000,"station_id":"ce4bgi12rcd13ifvqb70","pricing_plan_id":"cebpf4jnsgd1na2vs0mg"},{"bike_id":"109e51e1-b462-46a6-b334-5844fd5b80ff","system_id":"levelo_inurba_marseille","lat":43.305994,"lon":5.393687,"is_reserved":false,"is_disabled":false,"rental_uris":{"android":"levelo://app?vid=109e51e1-b462-46a6-b334-5844fd5b80ff","ios":"levelo://app?vid=109e51e1-b462-46a6-b334-5844fd5b80ff"},"vehicle_type_id":"4","last_reported":1713730062,"current_range_meters":0,"station_id":"ce4bh0p2rcd13ifvqd80","pricing_plan_id":"cebpf4jnsgd1na2vs0mg"},{"bike_id":"25f36941-40ef-4562-903f-2e7f45d5b9b8","system_id":"levelo_inurba_marseille","lat":43.305994,"lon":5.393687,"is_reserved":false,"is_disabled":false,"rental_uris":{"android":"levelo://app?vid=25f36941-40ef-4562-903f-2e7f45d5b9b8","ios":"levelo://app?vid=25f36941-40ef-4562-903f-2e7f45d5b9b8"},"vehicle_type_id":"4","last_reported":1713730062,"current_range_meters":27200,"station_id":"ce4bh0p2rcd13ifvqd80","pricing_plan_id":"cebpf4jnsgd1na2vs0mg"},{"bike_id":"eba2452d-8717-4657-ba5a-df52bf046f2e","system_id":"levelo_inurba_marseille","lat":43.293009,"lon":5.374584,"is_reserved":false,"is_disabled":false,"rental_uris":{"android":"levelo://app?vid=eba2452d-8717-4657-ba5a-df52bf046f2e","ios":"levelo://app?vid=eba2452d-8717-4657-ba5a-df52bf046f2e"},"vehicle_type_id":"4","last_reported":1713730062,"current_range_meters":31600,"station_id":"ce4bgi12rcd13ifvqb70","pricing_plan_id":"cebpf4jnsgd1na2vs0mg"},{"bike_id":"605045fe-2248-4c75-8210-6125ec9f4635","system_id":"levelo_inurba_marseille","lat":43.303002,"lon":5.392142,"is_reserved":false,"is_disabled":false,"rental_uris":{"android":"levelo://app?vid=605045fe-2248-4c75-8210-6125ec9f4635","ios":"levelo://app?vid=605045fe-2248-4c75-8210-6125ec9f4635"},"vehicle_type_id":"4","last_reported":1713730062,"current_range_meters":23600,"station_id":"ce4bgkh2rcd13ifvqbk0","pricing_plan_id":"cebpf4jnsgd1na2vs0mg"},{"bike_id":"8f467882-8bb4-49a4-bb65-a9217c4b0376","system_id":"levelo_inurba_marseille","lat":43.2936,"lon":5.37835,"is_reserved":false,"is_disabled":false,"rental_uris":{"android":"levelo://app?vid=8f467882-8bb4-49a4-bb65-a9217c4b0376","ios":"levelo://app?vid=8f467882-8bb4-49a4-bb65-a9217c4b0376"},"vehicle_type_id":"4","last_reported":1713730062,"current_range_meters":14000,"station_id":"ce4bgjh2rcd13ifvqbf0","pricing_plan_id":"cebpf4jnsgd1na2vs0mg"},{"bike_id":"af347ed4-a7d1-468e-b887-10db9884d0f5","system_id":"levelo_inurba_marseille","lat":43.303002,"lon":5.392142,"is_reserved":false,"is_disabled":false,"rental_uris":{"android":"levelo://app?vid=af347ed4-a7d1-468e-b887-10db9884d0f5","ios":"levelo://app?vid=af347ed4-a7d1-468e-b887-10db9884d0f5"},"vehicle_type_id":"4","last_reported":1713730062,"current_range_meters":10400,"station_id":"ce4bgkh2rcd13ifvqbk0","pricing_plan_id":"cebpf4jnsgd1na2vs0mg"},{"bike_id":"477ec7b4-cb90-4dd7-90ce-3f60e7a3afc1","system_id":"levelo_inurba_marseille","lat":43.302963,"lon":5.392303,"is_reserved":false,"is_disabled":false,"rental_uris":{"android":"levelo://app?vid=477ec7b4-cb90-4dd7-90ce-3f60e7a3afc1","ios":"levelo://app?vid=477ec7b4-cb90-4dd7-90ce-3f60e7a3afc1"},"vehicle_type_id":"4","last_reported":1713730062,"current_range_meters":800,"station_id":"ce4bgkh2rcd13ifvqbk0","pricing_plan_id":"cebpf4jnsgd1na2vs0mg"},{"bike_id":"ecbdceb2-8505-4a40-a449-e60702019dde","system_id":"levelo_inurba_marseille","lat":43.300852,"lon":5.390859,"is_reserved":false,"is_disabled":false,"rental_uris":{"android":"levelo://app?vid=ecbdceb2-8505-4a40-a449-e60702019dde","ios":"levelo://app?vid=ecbdceb2-8505-4a40-a449-e60702019dde"},"vehicle_type_id":"4","last_reported":1713730062,"current_range_meters":13200,"station_id":"ce4bh192rcd13ifvqdb0","pricing_plan_id":"cebpf4jnsgd1na2vs0mg"},{"bike_id":"cc7a7af5-c6d0-47ba-8fc2-425d8b734996","system_id":"levelo_inurba_marseille","lat":43.30085,"lon":5.390856,"is_reserved":false,"is_disabled":false,"rental_uris":{"android":"levelo://app?vid=cc7a7af5-c6d0-47ba-8fc2-425d8b734996","ios":"levelo://app?vid=cc7a7af5-c6d0-47ba-8fc2-425d8b734996"},"vehicle_type_id":"4","last_reported":1713730062,"current_range_meters":13200,"station_id":"ce4bh192rcd13ifvqdb0","pricing_plan_id":"cebpf4jnsgd1na2vs0mg"},{"bike_id":"aa2c5c1b-50bd-4c20-9cc4-55298c8d0da0","system_id":"levelo_inurba_marseille","lat":43.292311,"lon":5.360731,"is_reserved":false,"is_disabled":false,"rental_uris":{"android":"levelo://app?vid=aa2c5c1b-50bd-4c20-9cc4-55298c8d0da0","ios":"levelo://app?vid=aa2c5c1b-50bd-4c20-9cc4-55298c8d0da0"},"vehicle_type_id":"4","last_reported":1713730062,"current_range_meters":29200,"station_id":"ce4bhbh2rcd13ifvqeqg","pricing_plan_id":"cebpf4jnsgd1na2vs0mg"},{"bike_id":"be9334b8-b248-42e4-9469-6119ed64d69e","system_id":"levelo_inurba_marseille","lat":43.2936,"lon":5.37835,"is_reserved":false,"is_disabled":false,"rental_uris":{"android":"levelo://app?vid=be9334b8-b248-42e4-9469-6119ed64d69e","ios":"levelo://app?vid=be9334b8-b248-42e4-9469-6119ed64d69e"},"vehicle_type_id":"4","last_reported":1713730062,"current_range_meters":8000,"station_id":"ce4bgjh2rcd13ifvqbf0","pricing_plan_id":"cebpf4jnsgd1na2vs0mg"},{"bike_id":"2a46f87f-4c76-4db6-b5aa-973d4428847f","system_id":"levelo_inurba_marseille","lat":43.292311,"lon":5.360731,"is_reserved":false,"is_disabled":false,"rental_uris":{"android":"levelo://app?vid=2a46f87f-4c76-4db6-b5aa-973d4428847f","ios":"levelo://app?vid=2a46f87f-4c76-4db6-b5aa-973d4428847f"},"vehicle_type_id":"4","last_reported":1713730062,"current_range_meters":25200,"station_id":"ce4bhbh2rcd13ifvqeqg","pricing_plan_id":"cebpf4jnsgd1na2vs0mg"},{"bike_id":"0f1c5218-895c-498d-aa5a-8812f145a553","system_id":"levelo_inurba_marseille","lat":43.292311,"lon":5.360731,"is_reserved":false,"is_disabled":false,"rental_uris":{"android":"levelo://app?vid=0f1c5218-895c-498d-aa5a-8812f145a553","ios":"levelo://app?vid=0f1c5218-895c-498d-aa5a-8812f145a553"},"vehicle_type_id":"4","last_reported":1713730062,"current_range_meters":26000,"station_id":"ce4bhbh2rcd13ifvqeqg","pricing_plan_id":"cebpf4jnsgd1na2vs0mg"},{"bike_id":"31fd5de4-ddc8-4642-9e80-5e9016f823f0","system_id":"levelo_inurba_marseille","lat":43.292311,"lon":5.360731,"is_reserved":false,"is_disabled":false,"rental_uris":{"android":"levelo://app?vid=31fd5de4-ddc8-4642-9e80-5e9016f823f0","ios":"levelo://app?vid=31fd5de4-ddc8-4642-9e80-5e9016f823f0"},"vehicle_type_id":"4","last_reported":1713730062,"current_range_meters":27600,"station_id":"ce4bhbh2rcd13ifvqeqg","pricing_plan_id":"cebpf4jnsgd1na2vs0mg"},{"bike_id":"66d8bad8-d4fe-4d6d-96e1-6c662df1e64c","system_id":"levelo_inurba_marseille","lat":43.30085,"lon":5.390856,"is_reserved":false,"is_disabled":false,"rental_uris":{"android":"levelo://app?vid=66d8bad8-d4fe-4d6d-96e1-6c662df1e64c","ios":"levelo://app?vid=66d8bad8-d4fe-4d6d-96e1-6c662df1e64c"},"vehicle_type_id":"4","last_reported":1713730062,"current_range_meters":0,"station_id":"ce4bh192rcd13ifvqdb0","pricing_plan_id":"cebpf4jnsgd1na2vs0mg"},{"bike_id":"455160b8-7641-475e-ba52-53a9876ffe60","system_id":"levelo_inurba_marseille","lat":43.292311,"lon":5.360731,"is_reserved":false,"is_disabled":false,"rental_uris":{"android":"levelo://app?vid=455160b8-7641-475e-ba52-53a9876ffe60","ios":"levelo://app?vid=455160b8-7641-475e-ba52-53a9876ffe60"},"vehicle_type_id":"4","last_reported":1713730062,"current_range_meters":27200,"station_id":"ce4bhbh2rcd13ifvqeqg","pricing_plan_id":"cebpf4jnsgd1na2vs0mg"},{"bike_id":"d70819c0-a4b1-4e65-857e-7f02cc0848f6","system_id":"levelo_inurba_marseille","lat":43.30094,"lon":5.39087,"is_reserved":false,"is_disabled":false,"rental_uris":{"android":"levelo://app?vid=d70819c0-a4b1-4e65-857e-7f02cc0848f6","ios":"levelo://app?vid=d70819c0-a4b1-4e65-857e-7f02cc0848f6"},"vehicle_type_id":"4","last_reported":1713730062,"current_range_meters":6400,"station_id":"ce4bh192rcd13ifvqdb0","pricing_plan_id":"cebpf4jnsgd1na2vs0mg"},{"bike_id":"37d31784-d688-435d-86b5-b2df54309d6b","system_id":"levelo_inurba_marseille","lat":43.29219,"lon":5.36069,"is_reserved":false,"is_disabled":false,"rental_uris":{"android":"levelo://app?vid=37d31784-d688-435d-86b5-b2df54309d6b","ios":"levelo://app?vid=37d31784-d688-435d-86b5-b2df54309d6b"},"vehicle_type_id":"4","last_reported":1713730062,"current_range_meters":28400,"station_id":"ce4bhbh2rcd13ifvqeqg","pricing_plan_id":"cebpf4jnsgd1na2vs0mg"},{"bike_id":"b27f9aa3-03ac-4cba-8747-a4efb7c8fc58","system_id":"levelo_inurba_marseille","lat":43.292311,"lon":5.360731,"is_reserved":false,"is_disabled":false,"rental_uris":{"android":"levelo://app?vid=b27f9aa3-03ac-4cba-8747-a4efb7c8fc58","ios":"levelo://app?vid=b27f9aa3-03ac-4cba-8747-a4efb7c8fc58"},"vehicle_type_id":"4","last_reported":1713730062,"current_range_meters":21600,"station_id":"ce4bhbh2rcd13ifvqeqg","pricing_plan_id":"cebpf4jnsgd1na2vs0mg"},{"bike_id":"62e1e8c2-3f01-4430-9803-6b4b8805b7a3","system_id":"levelo_inurba_marseille","lat":43.298764,"lon":5.388973,"is_reserved":false,"is_disabled":false,"rental_uris":{"android":"levelo://app?vid=62e1e8c2-3f01-4430-9803-6b4b8805b7a3","ios":"levelo://app?vid=62e1e8c2-3f01-4430-9803-6b4b8805b7a3"},"vehicle_type_id":"4","last_reported":1713730062,"current_range_meters":2000,"station_id":"ce4bh392rcd13ifvqdl0","pricing_plan_id":"cebpf4jnsgd1na2vs0mg"},{"bike_id":"23e414ea-49e3-4d57-bde3-3b2441b4f54c","system_id":"levelo_inurba_marseille","lat":43.29171,"lon":5.37153,"is_reserved":false,"is_disabled":false,"rental_uris":{"android":"levelo://app?vid=23e414ea-49e3-4d57-bde3-3b2441b4f54c","ios":"levelo://app?vid=23e414ea-49e3-4d57-bde3-3b2441b4f54c"},"vehicle_type_id":"4","last_reported":1713730062,"current_range_meters":29200,"station_id":"ce4bha92rcd13ifvqeh0","pricing_plan_id":"cebpf4jnsgd1na2vs0mg"},{"bike_id":"847f7d2b-0160-41a2-b61e-9a897adf0f5d","system_id":"levelo_inurba_marseille","lat":43.298774,"lon":5.389046,"is_reserved":false,"is_disabled":false,"rental_uris":{"android":"levelo://app?vid=847f7d2b-0160-41a2-b61e-9a897adf0f5d","ios":"levelo://app?vid=847f7d2b-0160-41a2-b61e-9a897adf0f5d"},"vehicle_type_id":"4","last_reported":1713730062,"current_range_meters":0,"station_id":"ce4bh392rcd13ifvqdl0","pricing_plan_id":"cebpf4jnsgd1na2vs0mg"},{"bike_id":"5eb32cb3-42e8-4ed6-87e6-87428f13255d","system_id":"levelo_inurba_marseille","lat":43.29161,"lon":5.37171,"is_reserved":false,"is_disabled":false,"rental_uris":{"android":"levelo://app?vid=5eb32cb3-42e8-4ed6-87e6-87428f13255d","ios":"levelo://app?vid=5eb32cb3-42e8-4ed6-87e6-87428f13255d"},"vehicle_type_id":"4","last_reported":1713730062,"current_range_meters":0,"station_id":"ce4bha92rcd13ifvqeh0","pricing_plan_id":"cebpf4jnsgd1na2vs0mg"},{"bike_id":"f2964514-afb5-45d8-b7db-4a066c151120","system_id":"levelo_inurba_marseille","lat":43.292,"lon":5.35808,"is_reserved":false,"is_disabled":false,"rental_uris":{"android":"levelo://app?vid=f2964514-afb5-45d8-b7db-4a066c151120","ios":"levelo://app?vid=f2964514-afb5-45d8-b7db-4a066c151120"},"vehicle_type_id":"4","last_reported":1713730062,"current_range_meters":4000,"station_id":"ce4bhb12rcd13ifvqel0","pricing_plan_id":"cebpf4jnsgd1na2vs0mg"},{"bike_id":"f9c46b3a-af31-4fb9-83b8-8836715b545c","system_id":"levelo_inurba_marseille","lat":43.292311,"lon":5.360731,"is_reserved":false,"is_disabled":false,"rental_uris":{"android":"levelo://app?vid=f9c46b3a-af31-4fb9-83b8-8836715b545c","ios":"levelo://app?vid=f9c46b3a-af31-4fb9-83b8-8836715b545c"},"vehicle_type_id":"4","last_reported":1713730062,"current_range_meters":30800,"station_id":"ce4bhbh2rcd13ifvqeqg","pricing_plan_id":"cebpf4jnsgd1na2vs0mg"},{"bike_id":"9f565009-8e79-4eef-ad44-c72bb0387926","system_id":"levelo_inurba_marseille","lat":43.29194,"lon":5.35819,"is_reserved":false,"is_disabled":false,"rental_uris":{"android":"levelo://app?vid=9f565009-8e79-4eef-ad44-c72bb0387926","ios":"levelo://app?vid=9f565009-8e79-4eef-ad44-c72bb0387926"},"vehicle_type_id":"4","last_reported":1713730062,"current_range_meters":18800,"station_id":"ce4bhb12rcd13ifvqel0","pricing_plan_id":"cebpf4jnsgd1na2vs0mg"},{"bike_id":"bd2681f5-9767-4970-a237-6d7e682642c7","system_id":"levelo_inurba_marseille","lat":43.29195,"lon":5.35813,"is_reserved":false,"is_disabled":false,"rental_uris":{"android":"levelo://app?vid=bd2681f5-9767-4970-a237-6d7e682642c7","ios":"levelo://app?vid=bd2681f5-9767-4970-a237-6d7e682642c7"},"vehicle_type_id":"4","last_reported":1713730062,"current_range_meters":30000,"station_id":"ce4bhb12rcd13ifvqel0","pricing_plan_id":"cebpf4jnsgd1na2vs0mg"},{"bike_id":"4d0f41bf-5e69-4eb2-b759-04a57dbb9701","system_id":"levelo_inurba_marseille","lat":43.291994,"lon":5.357886,"is_reserved":false,"is_disabled":false,"rental_uris":{"android":"levelo://app?vid=4d0f41bf-5e69-4eb2-b759-04a57dbb9701","ios":"levelo://app?vid=4d0f41bf-5e69-4eb2-b759-04a57dbb9701"},"vehicle_type_id":"4","last_reported":1713730062,"current_range_meters":29600,"station_id":"ce4bhb12rcd13ifvqel0","pricing_plan_id":"cebpf4jnsgd1na2vs0mg"},{"bike_id":"c3c2c121-182d-42ea-8eb2-0be78e3d29a1","system_id":"levelo_inurba_marseille","lat":43.291994,"lon":5.357886,"is_reserved":false,"is_disabled":false,"rental_uris":{"android":"levelo://app?vid=c3c2c121-182d-42ea-8eb2-0be78e3d29a1","ios":"levelo://app?vid=c3c2c121-182d-42ea-8eb2-0be78e3d29a1"},"vehicle_type_id":"4","last_reported":1713730062,"current_range_meters":24400,"station_id":"ce4bhb12rcd13ifvqel0","pricing_plan_id":"cebpf4jnsgd1na2vs0mg"},{"bike_id":"2dc6f280-dd00-4087-abc7-3ab6fbf46307","system_id":"levelo_inurba_marseille","lat":43.309038,"lon":5.396546,"is_reserved":false,"is_disabled":false,"rental_uris":{"android":"levelo://app?vid=2dc6f280-dd00-4087-abc7-3ab6fbf46307","ios":"levelo://app?vid=2dc6f280-dd00-4087-abc7-3ab6fbf46307"},"vehicle_type_id":"4","last_reported":1713730062,"current_range_meters":6800,"station_id":"ce4bh012rcd13ifvqcv0","pricing_plan_id":"cebpf4jnsgd1na2vs0mg"},{"bike_id":"ac932ee3-cd4b-4ab9-b445-5b83503e636c","system_id":"levelo_inurba_marseille","lat":43.313291,"lon":5.396838,"is_reserved":false,"is_disabled":false,"rental_uris":{"android":"levelo://app?vid=ac932ee3-cd4b-4ab9-b445-5b83503e636c","ios":"levelo://app?vid=ac932ee3-cd4b-4ab9-b445-5b83503e636c"},"vehicle_type_id":"4","last_reported":1713730062,"current_range_meters":13600,"station_id":"ce4bgvp2rcd13ifvqcu0","pricing_plan_id":"cebpf4jnsgd1na2vs0mg"},{"bike_id":"a64dc61a-8745-4d24-b638-0dc8d90e2d94","system_id":"levelo_inurba_marseille","lat":43.313291,"lon":5.396838,"is_reserved":false,"is_disabled":false,"rental_uris":{"android":"levelo://app?vid=a64dc61a-8745-4d24-b638-0dc8d90e2d94","ios":"levelo://app?vid=a64dc61a-8745-4d24-b638-0dc8d90e2d94"},"vehicle_type_id":"4","last_reported":1713730062,"current_range_meters":19200,"station_id":"ce4bgvp2rcd13ifvqcu0","pricing_plan_id":"cebpf4jnsgd1na2vs0mg"},{"bike_id":"1dd75daf-2a44-496b-8cbf-dd31aa655d7a","system_id":"levelo_inurba_marseille","lat":43.309047,"lon":5.396551,"is_reserved":false,"is_disabled":false,"rental_uris":{"android":"levelo://app?vid=1dd75daf-2a44-496b-8cbf-dd31aa655d7a","ios":"levelo://app?vid=1dd75daf-2a44-496b-8cbf-dd31aa655d7a"},"vehicle_type_id":"4","last_reported":1713730062,"current_range_meters":24400,"station_id":"ce4bh012rcd13ifvqcv0","pricing_plan_id":"cebpf4jnsgd1na2vs0mg"},{"bike_id":"678b02db-2937-4806-8210-198faf43b1e0","system_id":"levelo_inurba_marseille","lat":43.309047,"lon":5.396551,"is_reserved":false,"is_disabled":false,"rental_uris":{"android":"levelo://app?vid=678b02db-2937-4806-8210-198faf43b1e0","ios":"levelo://app?vid=678b02db-2937-4806-8210-198faf43b1e0"},"vehicle_type_id":"4","last_reported":1713730062,"current_range_meters":2800,"station_id":"ce4bh012rcd13ifvqcv0","pricing_plan_id":"cebpf4jnsgd1na2vs0mg"},{"bike_id":"3e06dff5-debf-4004-a0f2-555337a6eb4e","system_id":"levelo_inurba_marseille","lat":43.309038,"lon":5.396546,"is_reserved":false,"is_disabled":false,"rental_uris":{"android":"levelo://app?vid=3e06dff5-debf-4004-a0f2-555337a6eb4e","ios":"levelo://app?vid=3e06dff5-debf-4004-a0f2-555337a6eb4e"},"vehicle_type_id":"4","last_reported":1713730062,"current_range_meters":3600,"station_id":"ce4bh012rcd13ifvqcv0","pricing_plan_id":"cebpf4jnsgd1na2vs0mg"},{"bike_id":"cdf093cd-9a8d-4b66-a060-e73927f36e77","system_id":"levelo_inurba_marseille","lat":43.309047,"lon":5.396551,"is_reserved":false,"is_disabled":false,"rental_uris":{"android":"levelo://app?vid=cdf093cd-9a8d-4b66-a060-e73927f36e77","ios":"levelo://app?vid=cdf093cd-9a8d-4b66-a060-e73927f36e77"},"vehicle_type_id":"4","last_reported":1713730062,"current_range_meters":2400,"station_id":"ce4bh012rcd13ifvqcv0","pricing_plan_id":"cebpf4jnsgd1na2vs0mg"},{"bike_id":"8f4e291b-9062-4780-9bdb-29c136cd8b08","system_id":"levelo_inurba_marseille","lat":43.309038,"lon":5.396546,"is_reserved":false,"is_disabled":false,"rental_uris":{"android":"levelo://app?vid=8f4e291b-9062-4780-9bdb-29c136cd8b08","ios":"levelo://app?vid=8f4e291b-9062-4780-9bdb-29c136cd8b08"},"vehicle_type_id":"4","last_reported":1713730062,"current_range_meters":24400,"station_id":"ce4bh012rcd13ifvqcv0","pricing_plan_id":"cebpf4jnsgd1na2vs0mg"},{"bike_id":"909542ef-7750-4ce7-8fae-7c407f940a91","system_id":"levelo_inurba_marseille","lat":43.29529,"lon":5.385581,"is_reserved":false,"is_disabled":false,"rental_uris":{"android":"levelo://app?vid=909542ef-7750-4ce7-8fae-7c407f940a91","ios":"levelo://app?vid=909542ef-7750-4ce7-8fae-7c407f940a91"},"vehicle_type_id":"4","last_reported":1713730062,"current_range_meters":25600,"station_id":"ce4bgih2rcd13ifvqba0","pricing_plan_id":"cebpf4jnsgd1na2vs0mg"},{"bike_id":"272e00b9-e947-4aee-8fe5-d7eaa9460a54","system_id":"levelo_inurba_marseille","lat":43.29529,"lon":5.385581,"is_reserved":false,"is_disabled":false,"rental_uris":{"android":"levelo://app?vid=272e00b9-e947-4aee-8fe5-d7eaa9460a54","ios":"levelo://app?vid=272e00b9-e947-4aee-8fe5-d7eaa9460a54"},"vehicle_type_id":"4","last_reported":1713730062,"current_range_meters":23200,"station_id":"ce4bgih2rcd13ifvqba0","pricing_plan_id":"cebpf4jnsgd1na2vs0mg"},{"bike_id":"9a7b47bd-38e8-4951-95cc-8cd84a467835","system_id":"levelo_inurba_marseille","lat":43.311722,"lon":5.387247,"is_reserved":false,"is_disabled":false,"rental_uris":{"android":"levelo://app?vid=9a7b47bd-38e8-4951-95cc-8cd84a467835","ios":"levelo://app?vid=9a7b47bd-38e8-4951-95cc-8cd84a467835"},"vehicle_type_id":"4","last_reported":1713730062,"current_range_meters":26000,"station_id":"ce4bgv12rcd13ifvqcp0","pricing_plan_id":"cebpf4jnsgd1na2vs0mg"},{"bike_id":"4378df59-1073-4c93-99e7-823c99d2f721","system_id":"levelo_inurba_marseille","lat":43.290779,"lon":5.371482,"is_reserved":false,"is_disabled":false,"rental_uris":{"android":"levelo://app?vid=4378df59-1073-4c93-99e7-823c99d2f721","ios":"levelo://app?vid=4378df59-1073-4c93-99e7-823c99d2f721"},"vehicle_type_id":"4","last_reported":1713730062,"current_range_meters":14400,"station_id":"ce4bh5p2rcd13ifvqe4g","pricing_plan_id":"cebpf4jnsgd1na2vs0mg"},{"bike_id":"5dbb7f17-531c-4236-b965-48f70fb3a5ca","system_id":"levelo_inurba_marseille","lat":43.290779,"lon":5.371482,"is_reserved":false,"is_disabled":false,"rental_uris":{"android":"levelo://app?vid=5dbb7f17-531c-4236-b965-48f70fb3a5ca","ios":"levelo://app?vid=5dbb7f17-531c-4236-b965-48f70fb3a5ca"},"vehicle_type_id":"4","last_reported":1713730062,"current_range_meters":5200,"station_id":"ce4bh5p2rcd13ifvqe4g","pricing_plan_id":"cebpf4jnsgd1na2vs0mg"},{"bike_id":"c5647268-0941-44ee-9892-4c602d77990c","system_id":"levelo_inurba_marseille","lat":43.290829,"lon":5.375303,"is_reserved":false,"is_disabled":false,"rental_uris":{"android":"levelo://app?vid=c5647268-0941-44ee-9892-4c602d77990c","ios":"levelo://app?vid=c5647268-0941-44ee-9892-4c602d77990c"},"vehicle_type_id":"4","last_reported":1713730062,"current_range_meters":18800,"station_id":"","pricing_plan_id":"cebpf4jnsgd1na2vs0mg"},{"bike_id":"1940f505-5332-40c6-aa24-27c688f4d50b","system_id":"levelo_inurba_marseille","lat":43.302008,"lon":5.394694,"is_reserved":false,"is_disabled":false,"rental_uris":{"android":"levelo://app?vid=1940f505-5332-40c6-aa24-27c688f4d50b","ios":"levelo://app?vid=1940f505-5332-40c6-aa24-27c688f4d50b"},"vehicle_type_id":"4","last_reported":1713730062,"current_range_meters":14000,"station_id":"ce4bh0p2rcd13ifvqd70","pricing_plan_id":"cebpf4jnsgd1na2vs0mg"},{"bike_id":"8460429f-323b-4e83-b679-4dce90003de2","system_id":"levelo_inurba_marseille","lat":43.302008,"lon":5.394694,"is_reserved":false,"is_disabled":false,"rental_uris":{"android":"levelo://app?vid=8460429f-323b-4e83-b679-4dce90003de2","ios":"levelo://app?vid=8460429f-323b-4e83-b679-4dce90003de2"},"vehicle_type_id":"4","last_reported":1713730062,"current_range_meters":28000,"station_id":"ce4bh0p2rcd13ifvqd70","pricing_plan_id":"cebpf4jnsgd1na2vs0mg"},{"bike_id":"8ca1b111-d8a0-449c-a1a0-9705650f7425","system_id":"levelo_inurba_marseille","lat":43.290624,"lon":5.359245,"is_reserved":false,"is_disabled":false,"rental_uris":{"android":"levelo://app?vid=8ca1b111-d8a0-449c-a1a0-9705650f7425","ios":"levelo://app?vid=8ca1b111-d8a0-449c-a1a0-9705650f7425"},"vehicle_type_id":"4","last_reported":1713730062,"current_range_meters":11200,"station_id":"ce4bha92rcd13ifvqeg0","pricing_plan_id":"cebpf4jnsgd1na2vs0mg"},{"bike_id":"9d2af414-303a-4e16-a3f5-0be67b554124","system_id":"levelo_inurba_marseille","lat":43.2943,"lon":5.3862,"is_reserved":false,"is_disabled":false,"rental_uris":{"android":"levelo://app?vid=9d2af414-303a-4e16-a3f5-0be67b554124","ios":"levelo://app?vid=9d2af414-303a-4e16-a3f5-0be67b554124"},"vehicle_type_id":"4","last_reported":1713730062,"current_range_meters":800,"station_id":"","pricing_plan_id":"cebpf4jnsgd1na2vs0mg"},{"bike_id":"21b5885a-1c6b-48bb-8f81-dfc81e3e3f56","system_id":"levelo_inurba_marseille","lat":43.294162,"lon":5.386292,"is_reserved":false,"is_disabled":false,"rental_uris":{"android":"levelo://app?vid=21b5885a-1c6b-48bb-8f81-dfc81e3e3f56","ios":"levelo://app?vid=21b5885a-1c6b-48bb-8f81-dfc81e3e3f56"},"vehicle_type_id":"4","last_reported":1713730062,"current_range_meters":1200,"station_id":"ce4bh2h2rcd13ifvqdh0","pricing_plan_id":"cebpf4jnsgd1na2vs0mg"},{"bike_id":"344a8112-5054-4327-acdf-2d5b59a5e6ea","system_id":"levelo_inurba_marseille","lat":43.290327,"lon":5.375711,"is_reserved":false,"is_disabled":false,"rental_uris":{"android":"levelo://app?vid=344a8112-5054-4327-acdf-2d5b59a5e6ea","ios":"levelo://app?vid=344a8112-5054-4327-acdf-2d5b59a5e6ea"},"vehicle_type_id":"4","last_reported":1713730062,"current_range_meters":27200,"station_id":"ce4bh692rcd13ifvqe90","pricing_plan_id":"cebpf4jnsgd1na2vs0mg"},{"bike_id":"de1c7d2f-15f1-482e-b494-7a61df3b27eb","system_id":"levelo_inurba_marseille","lat":43.294153,"lon":5.386305,"is_reserved":false,"is_disabled":false,"rental_uris":{"android":"levelo://app?vid=de1c7d2f-15f1-482e-b494-7a61df3b27eb","ios":"levelo://app?vid=de1c7d2f-15f1-482e-b494-7a61df3b27eb"},"vehicle_type_id":"4","last_reported":1713730062,"current_range_meters":19600,"station_id":"ce4bh2h2rcd13ifvqdh0","pricing_plan_id":"cebpf4jnsgd1na2vs0mg"},{"bike_id":"8559ef52-51de-4f03-a84f-6a6aec428e93","system_id":"levelo_inurba_marseille","lat":43.294153,"lon":5.386305,"is_reserved":false,"is_disabled":false,"rental_uris":{"android":"levelo://app?vid=8559ef52-51de-4f03-a84f-6a6aec428e93","ios":"levelo://app?vid=8559ef52-51de-4f03-a84f-6a6aec428e93"},"vehicle_type_id":"4","last_reported":1713730062,"current_range_meters":1200,"station_id":"ce4bh2h2rcd13ifvqdh0","pricing_plan_id":"cebpf4jnsgd1na2vs0mg"},{"bike_id":"28966d94-2a25-4a57-a5be-710b7d0c5794","system_id":"levelo_inurba_marseille","lat":43.294162,"lon":5.386292,"is_reserved":false,"is_disabled":false,"rental_uris":{"android":"levelo://app?vid=28966d94-2a25-4a57-a5be-710b7d0c5794","ios":"levelo://app?vid=28966d94-2a25-4a57-a5be-710b7d0c5794"},"vehicle_type_id":"4","last_reported":1713730062,"current_range_meters":0,"station_id":"ce4bh2h2rcd13ifvqdh0","pricing_plan_id":"cebpf4jnsgd1na2vs0mg"},{"bike_id":"e0bab4b8-3838-425b-b7e3-e76ce69e7eb9","system_id":"levelo_inurba_marseille","lat":43.290319,"lon":5.375732,"is_reserved":false,"is_disabled":false,"rental_uris":{"android":"levelo://app?vid=e0bab4b8-3838-425b-b7e3-e76ce69e7eb9","ios":"levelo://app?vid=e0bab4b8-3838-425b-b7e3-e76ce69e7eb9"},"vehicle_type_id":"4","last_reported":1713730062,"current_range_meters":12000,"station_id":"ce4bh692rcd13ifvqe90","pricing_plan_id":"cebpf4jnsgd1na2vs0mg"},{"bike_id":"f16b5e6b-92b2-4e3d-94c1-193a795486e8","system_id":"levelo_inurba_marseille","lat":43.294162,"lon":5.386292,"is_reserved":false,"is_disabled":false,"rental_uris":{"android":"levelo://app?vid=f16b5e6b-92b2-4e3d-94c1-193a795486e8","ios":"levelo://app?vid=f16b5e6b-92b2-4e3d-94c1-193a795486e8"},"vehicle_type_id":"4","last_reported":1713730062,"current_range_meters":3200,"station_id":"ce4bh2h2rcd13ifvqdh0","pricing_plan_id":"cebpf4jnsgd1na2vs0mg"},{"bike_id":"efb032a1-18a8-41fa-a2c6-0d5be1300e8d","system_id":"levelo_inurba_marseille","lat":43.29415,"lon":5.38636,"is_reserved":false,"is_disabled":false,"rental_uris":{"android":"levelo://app?vid=efb032a1-18a8-41fa-a2c6-0d5be1300e8d","ios":"levelo://app?vid=efb032a1-18a8-41fa-a2c6-0d5be1300e8d"},"vehicle_type_id":"4","last_reported":1713730062,"current_range_meters":0,"station_id":"ce4bh2h2rcd13ifvqdh0","pricing_plan_id":"cebpf4jnsgd1na2vs0mg"},{"bike_id":"178385d1-e5ac-46f3-a527-21531fe4fa25","system_id":"levelo_inurba_marseille","lat":43.290327,"lon":5.375711,"is_reserved":false,"is_disabled":false,"rental_uris":{"android":"levelo://app?vid=178385d1-e5ac-46f3-a527-21531fe4fa25","ios":"levelo://app?vid=178385d1-e5ac-46f3-a527-21531fe4fa25"},"vehicle_type_id":"4","last_reported":1713730062,"current_range_meters":26400,"station_id":"ce4bh692rcd13ifvqe90","pricing_plan_id":"cebpf4jnsgd1na2vs0mg"},{"bike_id":"9690e62c-c103-4779-b489-56c3b51f9130","system_id":"levelo_inurba_marseille","lat":43.289468,"lon":5.363719,"is_reserved":false,"is_disabled":false,"rental_uris":{"android":"levelo://app?vid=9690e62c-c103-4779-b489-56c3b51f9130","ios":"levelo://app?vid=9690e62c-c103-4779-b489-56c3b51f9130"},"vehicle_type_id":"4","last_reported":1713730062,"current_range_meters":16800,"station_id":"ce4bhc92rcd13ifvqetg","pricing_plan_id":"cebpf4jnsgd1na2vs0mg"},{"bike_id":"72d10294-8e35-4dac-93b1-8f6b73e444f2","system_id":"levelo_inurba_marseille","lat":43.294162,"lon":5.386292,"is_reserved":false,"is_disabled":false,"rental_uris":{"android":"levelo://app?vid=72d10294-8e35-4dac-93b1-8f6b73e444f2","ios":"levelo://app?vid=72d10294-8e35-4dac-93b1-8f6b73e444f2"},"vehicle_type_id":"4","last_reported":1713730062,"current_range_meters":19200,"station_id":"ce4bh2h2rcd13ifvqdh0","pricing_plan_id":"cebpf4jnsgd1na2vs0mg"},{"bike_id":"86923485-60da-4bd2-8237-114cc52c2991","system_id":"levelo_inurba_marseille","lat":43.292644,"lon":5.384257,"is_reserved":false,"is_disabled":false,"rental_uris":{"android":"levelo://app?vid=86923485-60da-4bd2-8237-114cc52c2991","ios":"levelo://app?vid=86923485-60da-4bd2-8237-114cc52c2991"},"vehicle_type_id":"4","last_reported":1713730062,"current_range_meters":25200,"station_id":"ce4bh692rcd13ifvqea0","pricing_plan_id":"cebpf4jnsgd1na2vs0mg"},{"bike_id":"e1594049-2055-40bb-9a91-0a902588fb9c","system_id":"levelo_inurba_marseille","lat":43.292644,"lon":5.384257,"is_reserved":false,"is_disabled":false,"rental_uris":{"android":"levelo://app?vid=e1594049-2055-40bb-9a91-0a902588fb9c","ios":"levelo://app?vid=e1594049-2055-40bb-9a91-0a902588fb9c"},"vehicle_type_id":"4","last_reported":1713730062,"current_range_meters":28000,"station_id":"ce4bh692rcd13ifvqea0","pricing_plan_id":"cebpf4jnsgd1na2vs0mg"},{"bike_id":"32d5595a-be8b-4020-b35c-3e6820a8002f","system_id":"levelo_inurba_marseille","lat":43.289468,"lon":5.363719,"is_reserved":false,"is_disabled":false,"rental_uris":{"android":"levelo://app?vid=32d5595a-be8b-4020-b35c-3e6820a8002f","ios":"levelo://app?vid=32d5595a-be8b-4020-b35c-3e6820a8002f"},"vehicle_type_id":"4","last_reported":1713730062,"current_range_meters":12000,"station_id":"ce4bhc92rcd13ifvqetg","pricing_plan_id":"cebpf4jnsgd1na2vs0mg"},{"bike_id":"ecb3e4a1-5bf6-48be-8bf7-f5b998a582bd","system_id":"levelo_inurba_marseille","lat":43.292827,"lon":5.384497,"is_reserved":false,"is_disabled":false,"rental_uris":{"android":"levelo://app?vid=ecb3e4a1-5bf6-48be-8bf7-f5b998a582bd","ios":"levelo://app?vid=ecb3e4a1-5bf6-48be-8bf7-f5b998a582bd"},"vehicle_type_id":"4","last_reported":1713730062,"current_range_meters":25200,"station_id":"ce4bh692rcd13ifvqea0","pricing_plan_id":"cebpf4jnsgd1na2vs0mg"},{"bike_id":"b37e8820-d2a2-4232-8e2f-3223b01ad5c9","system_id":"levelo_inurba_marseille","lat":43.292644,"lon":5.384257,"is_reserved":false,"is_disabled":false,"rental_uris":{"android":"levelo://app?vid=b37e8820-d2a2-4232-8e2f-3223b01ad5c9","ios":"levelo://app?vid=b37e8820-d2a2-4232-8e2f-3223b01ad5c9"},"vehicle_type_id":"4","last_reported":1713730062,"current_range_meters":23600,"station_id":"ce4bh692rcd13ifvqea0","pricing_plan_id":"cebpf4jnsgd1na2vs0mg"},{"bike_id":"ad52e550-a1b2-405a-b81a-789b91688f77","system_id":"levelo_inurba_marseille","lat":43.304274,"lon":5.397513,"is_reserved":false,"is_disabled":false,"rental_uris":{"android":"levelo://app?vid=ad52e550-a1b2-405a-b81a-789b91688f77","ios":"levelo://app?vid=ad52e550-a1b2-405a-b81a-789b91688f77"},"vehicle_type_id":"4","last_reported":1713730062,"current_range_meters":9200,"station_id":"ce4bh092rcd13ifvqd20","pricing_plan_id":"cebpf4jnsgd1na2vs0mg"},{"bike_id":"ce5bdfb6-34e4-4a19-9728-a5ac992651cb","system_id":"levelo_inurba_marseille","lat":43.292644,"lon":5.384257,"is_reserved":false,"is_disabled":false,"rental_uris":{"android":"levelo://app?vid=ce5bdfb6-34e4-4a19-9728-a5ac992651cb","ios":"levelo://app?vid=ce5bdfb6-34e4-4a19-9728-a5ac992651cb"},"vehicle_type_id":"4","last_reported":1713730062,"current_range_meters":21200,"station_id":"ce4bh692rcd13ifvqea0","pricing_plan_id":"cebpf4jnsgd1na2vs0mg"},{"bike_id":"8f10f15f-d8fd-469f-a907-e1fb481957e1","system_id":"levelo_inurba_marseille","lat":43.292644,"lon":5.384257,"is_reserved":false,"is_disabled":false,"rental_uris":{"android":"levelo://app?vid=8f10f15f-d8fd-469f-a907-e1fb481957e1","ios":"levelo://app?vid=8f10f15f-d8fd-469f-a907-e1fb481957e1"},"vehicle_type_id":"4","last_reported":1713730062,"current_range_meters":28000,"station_id":"ce4bh692rcd13ifvqea0","pricing_plan_id":"cebpf4jnsgd1na2vs0mg"},{"bike_id":"bd929be5-d217-452b-a9db-e3c04775ba22","system_id":"levelo_inurba_marseille","lat":43.292644,"lon":5.384257,"is_reserved":false,"is_disabled":false,"rental_uris":{"android":"levelo://app?vid=bd929be5-d217-452b-a9db-e3c04775ba22","ios":"levelo://app?vid=bd929be5-d217-452b-a9db-e3c04775ba22"},"vehicle_type_id":"4","last_reported":1713730062,"current_range_meters":30400,"station_id":"ce4bh692rcd13ifvqea0","pricing_plan_id":"cebpf4jnsgd1na2vs0mg"},{"bike_id":"2e894b8a-5f83-46e3-8c27-8fb44504692f","system_id":"levelo_inurba_marseille","lat":43.311722,"lon":5.387247,"is_reserved":false,"is_disabled":false,"rental_uris":{"android":"levelo://app?vid=2e894b8a-5f83-46e3-8c27-8fb44504692f","ios":"levelo://app?vid=2e894b8a-5f83-46e3-8c27-8fb44504692f"},"vehicle_type_id":"4","last_reported":1713730062,"current_range_meters":21600,"station_id":"ce4bgv12rcd13ifvqcp0","pricing_plan_id":"cebpf4jnsgd1na2vs0mg"},{"bike_id":"e3cfde67-fef7-4d60-b640-7a1a903bd09f","system_id":"levelo_inurba_marseille","lat":43.292644,"lon":5.384257,"is_reserved":false,"is_disabled":false,"rental_uris":{"android":"levelo://app?vid=e3cfde67-fef7-4d60-b640-7a1a903bd09f","ios":"levelo://app?vid=e3cfde67-fef7-4d60-b640-7a1a903bd09f"},"vehicle_type_id":"4","last_reported":1713730062,"current_range_meters":25600,"station_id":"ce4bh692rcd13ifvqea0","pricing_plan_id":"cebpf4jnsgd1na2vs0mg"},{"bike_id":"a0fbe150-0ed6-4157-9d20-54607295e4ef","system_id":"levelo_inurba_marseille","lat":43.304296,"lon":5.397513,"is_reserved":false,"is_disabled":false,"rental_uris":{"android":"levelo://app?vid=a0fbe150-0ed6-4157-9d20-54607295e4ef","ios":"levelo://app?vid=a0fbe150-0ed6-4157-9d20-54607295e4ef"},"vehicle_type_id":"4","last_reported":1713730062,"current_range_meters":30800,"station_id":"ce4bh092rcd13ifvqd20","pricing_plan_id":"cebpf4jnsgd1na2vs0mg"},{"bike_id":"fc9d2dc0-65db-4df6-a229-eef0fce0da39","system_id":"levelo_inurba_marseille","lat":43.292644,"lon":5.384257,"is_reserved":false,"is_disabled":false,"rental_uris":{"android":"levelo://app?vid=fc9d2dc0-65db-4df6-a229-eef0fce0da39","ios":"levelo://app?vid=fc9d2dc0-65db-4df6-a229-eef0fce0da39"},"vehicle_type_id":"4","last_reported":1713730062,"current_range_meters":24400,"station_id":"ce4bh692rcd13ifvqea0","pricing_plan_id":"cebpf4jnsgd1na2vs0mg"},{"bike_id":"aaafe8f1-1e34-45dc-b2c4-8033813a2a8a","system_id":"levelo_inurba_marseille","lat":43.290104,"lon":5.356111,"is_reserved":false,"is_disabled":false,"rental_uris":{"android":"levelo://app?vid=aaafe8f1-1e34-45dc-b2c4-8033813a2a8a","ios":"levelo://app?vid=aaafe8f1-1e34-45dc-b2c4-8033813a2a8a"},"vehicle_type_id":"4","last_reported":1713730062,"current_range_meters":26800,"station_id":"ce4bhb92rcd13ifvqen0","pricing_plan_id":"cebpf4jnsgd1na2vs0mg"},{"bike_id":"42a8b222-d78b-4a44-89a6-31f245cce6bc","system_id":"levelo_inurba_marseille","lat":43.290103,"lon":5.356114,"is_reserved":false,"is_disabled":false,"rental_uris":{"android":"levelo://app?vid=42a8b222-d78b-4a44-89a6-31f245cce6bc","ios":"levelo://app?vid=42a8b222-d78b-4a44-89a6-31f245cce6bc"},"vehicle_type_id":"4","last_reported":1713730062,"current_range_meters":3600,"station_id":"ce4bhb92rcd13ifvqen0","pricing_plan_id":"cebpf4jnsgd1na2vs0mg"},{"bike_id":"f59eb7ea-c108-40a9-9c88-9871dbf6c8a2","system_id":"levelo_inurba_marseille","lat":43.290103,"lon":5.356114,"is_reserved":false,"is_disabled":false,"rental_uris":{"android":"levelo://app?vid=f59eb7ea-c108-40a9-9c88-9871dbf6c8a2","ios":"levelo://app?vid=f59eb7ea-c108-40a9-9c88-9871dbf6c8a2"},"vehicle_type_id":"4","last_reported":1713730062,"current_range_meters":0,"station_id":"ce4bhb92rcd13ifvqen0","pricing_plan_id":"cebpf4jnsgd1na2vs0mg"},{"bike_id":"c9f13e82-94fc-40ad-a571-09290cbb1ed0","system_id":"levelo_inurba_marseille","lat":43.290104,"lon":5.356111,"is_reserved":false,"is_disabled":false,"rental_uris":{"android":"levelo://app?vid=c9f13e82-94fc-40ad-a571-09290cbb1ed0","ios":"levelo://app?vid=c9f13e82-94fc-40ad-a571-09290cbb1ed0"},"vehicle_type_id":"4","last_reported":1713730062,"current_range_meters":10400,"station_id":"ce4bhb92rcd13ifvqen0","pricing_plan_id":"cebpf4jnsgd1na2vs0mg"},{"bike_id":"6a1a3911-600f-4427-9d88-70a0e32d8c82","system_id":"levelo_inurba_marseille","lat":43.290995,"lon":5.381361,"is_reserved":false,"is_disabled":false,"rental_uris":{"android":"levelo://app?vid=6a1a3911-600f-4427-9d88-70a0e32d8c82","ios":"levelo://app?vid=6a1a3911-600f-4427-9d88-70a0e32d8c82"},