{"last_updated":1702379173,"ttl":30,"version":"2.2","data":{"bikes":[{"bike_id":"91a6ad9b-fb43-467f-8fb1-c151b8833ea0","system_id":"levelo_inurba_marseille","lat":43.31341,"lon":5.367098,"is_reserved":false,"is_disabled":false,"rental_uris":{"android":"levelo://app?vid=91a6ad9b-fb43-467f-8fb1-c151b8833ea0","ios":"levelo://app?vid=91a6ad9b-fb43-467f-8fb1-c151b8833ea0"},"vehicle_type_id":"4","last_reported":1702379173,"current_range_meters":24400,"station_id":"ce4bgr92rcd13ifvqc6g","pricing_plan_id":"free"},{"bike_id":"225995f4-8a71-478f-a276-8977d37a3f7c","system_id":"levelo_inurba_marseille","lat":43.313391,"lon":5.36706,"is_reserved":false,"is_disabled":false,"rental_uris":{"android":"levelo://app?vid=225995f4-8a71-478f-a276-8977d37a3f7c","ios":"levelo://app?vid=225995f4-8a71-478f-a276-8977d37a3f7c"},"vehicle_type_id":"4","last_reported":1702379173,"current_range_meters":31200,"station_id":"ce4bgr92rcd13ifvqc6g","pricing_plan_id":"free"},{"bike_id":"002cfb12-6112-4936-a860-5e8ece7463a3","system_id":"levelo_inurba_marseille","lat":43.31341,"lon":5.367098,"is_reserved":false,"is_disabled":false,"rental_uris":{"android":"levelo://app?vid=002cfb12-6112-4936-a860-5e8ece7463a3","ios":"levelo://app?vid=002cfb12-6112-4936-a860-5e8ece7463a3"},"vehicle_type_id":"4","last_reported":1702379173,"current_range_meters":31600,"station_id":"ce4bgr92rcd13ifvqc6g","pricing_plan_id":"free"},{"bike_id":"c1f54ada-9c3e-4fa8-8d21-af473e2de4bd","system_id":"levelo_inurba_marseille","lat":43.314811,"lon":5.373103,"is_reserved":false,"is_disabled":false,"rental_uris":{"android":"levelo://app?vid=c1f54ada-9c3e-4fa8-8d21-af473e2de4bd","ios":"levelo://app?vid=c1f54ada-9c3e-4fa8-8d21-af473e2de4bd"},"vehicle_type_id":"4","last_reported":1702379173,"current_range_meters":15600,"station_id":"ce4bgt12rcd13ifvqcd0","pricing_plan_id":"free"},{"bike_id":"37d9c1b4-840c-4b07-8065-59fc3e28960a","system_id":"levelo_inurba_marseille","lat":43.314811,"lon":5.373103,"is_reserved":false,"is_disabled":false,"rental_uris":{"android":"levelo://app?vid=37d9c1b4-840c-4b07-8065-59fc3e28960a","ios":"levelo://app?vid=37d9c1b4-840c-4b07-8065-59fc3e28960a"},"vehicle_type_id":"4","last_reported":1702379173,"current_range_meters":27200,"station_id":"ce4bgt12rcd13ifvqcd0","pricing_plan_id":"free"},{"bike_id":"690cea3f-12db-45a1-b4d0-121afbab5e43","system_id":"levelo_inurba_marseille","lat":43.30548,"lon":5.36693,"is_reserved":false,"is_disabled":false,"rental_uris":{"android":"levelo://app?vid=690cea3f-12db-45a1-b4d0-121afbab5e43","ios":"levelo://app?vid=690cea3f-12db-45a1-b4d0-121afbab5e43"},"vehicle_type_id":"4","last_reported":1702379173,"current_range_meters":400,"station_id":"ce4bgrp2rcd13ifvqc9g","pricing_plan_id":"free"},{"bike_id":"36f16af6-08bb-490e-b09a-4c9c32ec44b0","system_id":"levelo_inurba_marseille","lat":43.305714,"lon":5.365633,"is_reserved":false,"is_disabled":false,"rental_uris":{"android":"levelo://app?vid=36f16af6-08bb-490e-b09a-4c9c32ec44b0","ios":"levelo://app?vid=36f16af6-08bb-490e-b09a-4c9c32ec44b0"},"vehicle_type_id":"4","last_reported":1702379173,"current_range_meters":19600,"station_id":"ce4bgs12rcd13ifvqcag","pricing_plan_id":"free"},{"bike_id":"b463a7b0-981f-4f49-a60f-a9a68e31fc60","system_id":"levelo_inurba_marseille","lat":43.305714,"lon":5.365633,"is_reserved":false,"is_disabled":false,"rental_uris":{"android":"levelo://app?vid=b463a7b0-981f-4f49-a60f-a9a68e31fc60","ios":"levelo://app?vid=b463a7b0-981f-4f49-a60f-a9a68e31fc60"},"vehicle_type_id":"4","last_reported":1702379173,"current_range_meters":20000,"station_id":"ce4bgs12rcd13ifvqcag","pricing_plan_id":"free"},{"bike_id":"f36debdb-6bea-4678-967a-886219dbe8b9","system_id":"levelo_inurba_marseille","lat":43.305368,"lon":5.367343,"is_reserved":false,"is_disabled":false,"rental_uris":{"android":"levelo://app?vid=f36debdb-6bea-4678-967a-886219dbe8b9","ios":"levelo://app?vid=f36debdb-6bea-4678-967a-886219dbe8b9"},"vehicle_type_id":"4","last_reported":1702379173,"current_range_meters":0,"station_id":"ce4bgrp2rcd13ifvqc9g","pricing_plan_id":"free"},{"bike_id":"4d4614c3-5f53-430f-943b-3151a6948a85","system_id":"levelo_inurba_marseille","lat":43.30539,"lon":5.36541,"is_reserved":false,"is_disabled":false,"rental_uris":{"android":"levelo://app?vid=4d4614c3-5f53-430f-943b-3151a6948a85","ios":"levelo://app?vid=4d4614c3-5f53-430f-943b-3151a6948a85"},"vehicle_type_id":"4","last_reported":1702379173,"current_range_meters":18800,"station_id":"ce4bgs12rcd13ifvqcag","pricing_plan_id":"free"},{"bike_id":"7b542a72-6227-4e8a-83c1-d30ed8ae8632","system_id":"levelo_inurba_marseille","lat":43.305989,"lon":5.37225,"is_reserved":false,"is_disabled":false,"rental_uris":{"android":"levelo://app?vid=7b542a72-6227-4e8a-83c1-d30ed8ae8632","ios":"levelo://app?vid=7b542a72-6227-4e8a-83c1-d30ed8ae8632"},"vehicle_type_id":"4","last_reported":1702379173,"current_range_meters":25600,"station_id":"ce4bgqh2rcd13ifvqc4g","pricing_plan_id":"free"},{"bike_id":"5e6d790d-6bf6-4855-b87b-b07ea9a51fc8","system_id":"levelo_inurba_marseille","lat":43.31164,"lon":5.37755,"is_reserved":false,"is_disabled":false,"rental_uris":{"android":"levelo://app?vid=5e6d790d-6bf6-4855-b87b-b07ea9a51fc8","ios":"levelo://app?vid=5e6d790d-6bf6-4855-b87b-b07ea9a51fc8"},"vehicle_type_id":"4","last_reported":1702379173,"current_range_meters":5600,"station_id":"","pricing_plan_id":"free"},{"bike_id":"9d0e306d-9c84-4bc9-a344-389193830df1","system_id":"levelo_inurba_marseille","lat":43.30313,"lon":5.36893,"is_reserved":false,"is_disabled":false,"rental_uris":{"android":"levelo://app?vid=9d0e306d-9c84-4bc9-a344-389193830df1","ios":"levelo://app?vid=9d0e306d-9c84-4bc9-a344-389193830df1"},"vehicle_type_id":"4","last_reported":1702379173,"current_range_meters":14400,"station_id":"ce4bgqh2rcd13ifvqc5g","pricing_plan_id":"free"},{"bike_id":"0a024822-4639-433a-a2d5-47b05ddcb3bc","system_id":"levelo_inurba_marseille","lat":43.301939,"lon":5.366286,"is_reserved":false,"is_disabled":false,"rental_uris":{"android":"levelo://app?vid=0a024822-4639-433a-a2d5-47b05ddcb3bc","ios":"levelo://app?vid=0a024822-4639-433a-a2d5-47b05ddcb3bc"},"vehicle_type_id":"4","last_reported":1702379173,"current_range_meters":24800,"station_id":"ce4bgrh2rcd13ifvqc8g","pricing_plan_id":"free"},{"bike_id":"0cce514b-edc9-4ead-b279-bc8b5a3413f2","system_id":"levelo_inurba_marseille","lat":43.301939,"lon":5.366286,"is_reserved":false,"is_disabled":false,"rental_uris":{"android":"levelo://app?vid=0cce514b-edc9-4ead-b279-bc8b5a3413f2","ios":"levelo://app?vid=0cce514b-edc9-4ead-b279-bc8b5a3413f2"},"vehicle_type_id":"4","last_reported":1702379173,"current_range_meters":28800,"station_id":"ce4bgrh2rcd13ifvqc8g","pricing_plan_id":"free"},{"bike_id":"005c321a-eb0e-413c-a9d7-ede781b7c531","system_id":"levelo_inurba_marseille","lat":43.308012,"lon":5.381511,"is_reserved":false,"is_disabled":false,"rental_uris":{"android":"levelo://app?vid=005c321a-eb0e-413c-a9d7-ede781b7c531","ios":"levelo://app?vid=005c321a-eb0e-413c-a9d7-ede781b7c531"},"vehicle_type_id":"4","last_reported":1702379173,"current_range_meters":21600,"station_id":"ce4bgt12rcd13ifvqce0","pricing_plan_id":"free"},{"bike_id":"8c7511a8-cf5a-4076-a24d-77dd0897cf49","system_id":"levelo_inurba_marseille","lat":43.304606,"lon":5.379026,"is_reserved":false,"is_disabled":false,"rental_uris":{"android":"levelo://app?vid=8c7511a8-cf5a-4076-a24d-77dd0897cf49","ios":"levelo://app?vid=8c7511a8-cf5a-4076-a24d-77dd0897cf49"},"vehicle_type_id":"4","last_reported":1702379173,"current_range_meters":0,"station_id":"ce4bgup2rcd13ifvqcn0","pricing_plan_id":"free"},{"bike_id":"81a35700-ce4c-4678-91a7-537f2f6a039f","system_id":"levelo_inurba_marseille","lat":43.30463,"lon":5.37899,"is_reserved":false,"is_disabled":false,"rental_uris":{"android":"levelo://app?vid=81a35700-ce4c-4678-91a7-537f2f6a039f","ios":"levelo://app?vid=81a35700-ce4c-4678-91a7-537f2f6a039f"},"vehicle_type_id":"4","last_reported":1702379173,"current_range_meters":0,"station_id":"ce4bgup2rcd13ifvqcn0","pricing_plan_id":"free"},{"bike_id":"75479b4a-c3a3-42c1-a416-1ad192446e8a","system_id":"levelo_inurba_marseille","lat":43.324698,"lon":5.365652,"is_reserved":false,"is_disabled":false,"rental_uris":{"android":"levelo://app?vid=75479b4a-c3a3-42c1-a416-1ad192446e8a","ios":"levelo://app?vid=75479b4a-c3a3-42c1-a416-1ad192446e8a"},"vehicle_type_id":"4","last_reported":1702379173,"current_range_meters":800,"station_id":"ce4bhs12rcd13ifvqhvg","pricing_plan_id":"free"},{"bike_id":"1da11d9b-d02a-4f31-92d8-e4c5e30f52f0","system_id":"levelo_inurba_marseille","lat":43.30271,"lon":5.37708,"is_reserved":false,"is_disabled":false,"rental_uris":{"android":"levelo://app?vid=1da11d9b-d02a-4f31-92d8-e4c5e30f52f0","ios":"levelo://app?vid=1da11d9b-d02a-4f31-92d8-e4c5e30f52f0"},"vehicle_type_id":"4","last_reported":1702379173,"current_range_meters":13600,"station_id":"ce4bguh2rcd13ifvqcj0","pricing_plan_id":"free"},{"bike_id":"8728139c-1be5-4244-9d8d-9b78c70e73a9","system_id":"levelo_inurba_marseille","lat":43.30143,"lon":5.37413,"is_reserved":false,"is_disabled":false,"rental_uris":{"android":"levelo://app?vid=8728139c-1be5-4244-9d8d-9b78c70e73a9","ios":"levelo://app?vid=8728139c-1be5-4244-9d8d-9b78c70e73a9"},"vehicle_type_id":"4","last_reported":1702379173,"current_range_meters":26800,"station_id":"ce4bgs92rcd13ifvqcc0","pricing_plan_id":"free"},{"bike_id":"fb700912-9b49-4108-b90a-66db80c52ac6","system_id":"levelo_inurba_marseille","lat":43.30143,"lon":5.37413,"is_reserved":false,"is_disabled":false,"rental_uris":{"android":"levelo://app?vid=fb700912-9b49-4108-b90a-66db80c52ac6","ios":"levelo://app?vid=fb700912-9b49-4108-b90a-66db80c52ac6"},"vehicle_type_id":"4","last_reported":1702379173,"current_range_meters":20800,"station_id":"ce4bgs92rcd13ifvqcc0","pricing_plan_id":"free"},{"bike_id":"669f5ccb-81b5-444e-82e3-679a8881d8ca","system_id":"levelo_inurba_marseille","lat":43.313571,"lon":5.384829,"is_reserved":false,"is_disabled":false,"rental_uris":{"android":"levelo://app?vid=669f5ccb-81b5-444e-82e3-679a8881d8ca","ios":"levelo://app?vid=669f5ccb-81b5-444e-82e3-679a8881d8ca"},"vehicle_type_id":"4","last_reported":1702379173,"current_range_meters":24400,"station_id":"ce4bgt92rcd13ifvqcf0","pricing_plan_id":"free"},{"bike_id":"b4524d8d-4301-44a2-89d4-97a32cc31cd8","system_id":"levelo_inurba_marseille","lat":43.299454,"lon":5.365647,"is_reserved":false,"is_disabled":false,"rental_uris":{"android":"levelo://app?vid=b4524d8d-4301-44a2-89d4-97a32cc31cd8","ios":"levelo://app?vid=b4524d8d-4301-44a2-89d4-97a32cc31cd8"},"vehicle_type_id":"4","last_reported":1702379173,"current_range_meters":20800,"station_id":"ce4bgm92rcd13ifvqbr0","pricing_plan_id":"free"},{"bike_id":"df4d049d-b8e6-4243-967e-0826f396041a","system_id":"levelo_inurba_marseille","lat":43.299222,"lon":5.365554,"is_reserved":false,"is_disabled":false,"rental_uris":{"android":"levelo://app?vid=df4d049d-b8e6-4243-967e-0826f396041a","ios":"levelo://app?vid=df4d049d-b8e6-4243-967e-0826f396041a"},"vehicle_type_id":"4","last_reported":1702379173,"current_range_meters":21600,"station_id":"ce4bgm92rcd13ifvqbr0","pricing_plan_id":"free"},{"bike_id":"f8594176-cd51-4374-a1ee-91d0c8b453b2","system_id":"levelo_inurba_marseille","lat":43.305364,"lon":5.384119,"is_reserved":false,"is_disabled":false,"rental_uris":{"android":"levelo://app?vid=f8594176-cd51-4374-a1ee-91d0c8b453b2","ios":"levelo://app?vid=f8594176-cd51-4374-a1ee-91d0c8b453b2"},"vehicle_type_id":"4","last_reported":1702379173,"current_range_meters":1600,"station_id":"ce4bgg92rcd13ifvqb30","pricing_plan_id":"free"},{"bike_id":"0de53898-16f8-4dd7-a767-68ece3c6df0c","system_id":"levelo_inurba_marseille","lat":43.297794,"lon":5.370888,"is_reserved":false,"is_disabled":false,"rental_uris":{"android":"levelo://app?vid=0de53898-16f8-4dd7-a767-68ece3c6df0c","ios":"levelo://app?vid=0de53898-16f8-4dd7-a767-68ece3c6df0c"},"vehicle_type_id":"4","last_reported":1702379173,"current_range_meters":29600,"station_id":"ce4bgop2rcd13ifvqc1g","pricing_plan_id":"free"},{"bike_id":"006677fe-a9e9-4dcf-961c-05059ec0ae17","system_id":"levelo_inurba_marseille","lat":43.297774,"lon":5.370875,"is_reserved":false,"is_disabled":false,"rental_uris":{"android":"levelo://app?vid=006677fe-a9e9-4dcf-961c-05059ec0ae17","ios":"levelo://app?vid=006677fe-a9e9-4dcf-961c-05059ec0ae17"},"vehicle_type_id":"4","last_reported":1702379173,"current_range_meters":30000,"station_id":"ce4bgop2rcd13ifvqc1g","pricing_plan_id":"free"},{"bike_id":"198e6e5d-bdab-41a7-9c44-27c82f883d48","system_id":"levelo_inurba_marseille","lat":43.297794,"lon":5.370888,"is_reserved":false,"is_disabled":false,"rental_uris":{"android":"levelo://app?vid=198e6e5d-bdab-41a7-9c44-27c82f883d48","ios":"levelo://app?vid=198e6e5d-bdab-41a7-9c44-27c82f883d48"},"vehicle_type_id":"4","last_reported":1702379173,"current_range_meters":31200,"station_id":"ce4bgop2rcd13ifvqc1g","pricing_plan_id":"free"},{"bike_id":"41f60a0b-3ef7-4fd8-81f3-c0f1b227235b","system_id":"levelo_inurba_marseille","lat":43.297774,"lon":5.370875,"is_reserved":false,"is_disabled":false,"rental_uris":{"android":"levelo://app?vid=41f60a0b-3ef7-4fd8-81f3-c0f1b227235b","ios":"levelo://app?vid=41f60a0b-3ef7-4fd8-81f3-c0f1b227235b"},"vehicle_type_id":"4","last_reported":1702379173,"current_range_meters":30400,"station_id":"ce4bgop2rcd13ifvqc1g","pricing_plan_id":"free"},{"bike_id":"314784c1-cfb0-4d91-8056-d073038ec462","system_id":"levelo_inurba_marseille","lat":43.32829,"lon":5.36687,"is_reserved":false,"is_disabled":false,"rental_uris":{"android":"levelo://app?vid=314784c1-cfb0-4d91-8056-d073038ec462","ios":"levelo://app?vid=314784c1-cfb0-4d91-8056-d073038ec462"},"vehicle_type_id":"4","last_reported":1702379173,"current_range_meters":21200,"station_id":"ce4bhs92rcd13ifvqi0g","pricing_plan_id":"free"},{"bike_id":"50219332-af4b-47b3-94d4-e2588a1cb869","system_id":"levelo_inurba_marseille","lat":43.3283,"lon":5.3669,"is_reserved":false,"is_disabled":false,"rental_uris":{"android":"levelo://app?vid=50219332-af4b-47b3-94d4-e2588a1cb869","ios":"levelo://app?vid=50219332-af4b-47b3-94d4-e2588a1cb869"},"vehicle_type_id":"4","last_reported":1702379173,"current_range_meters":13200,"station_id":"ce4bhs92rcd13ifvqi0g","pricing_plan_id":"free"},{"bike_id":"ecf18d98-bf5f-40d6-a1dd-4d229e6206e6","system_id":"levelo_inurba_marseille","lat":43.297163,"lon":5.365866,"is_reserved":false,"is_disabled":false,"rental_uris":{"android":"levelo://app?vid=ecf18d98-bf5f-40d6-a1dd-4d229e6206e6","ios":"levelo://app?vid=ecf18d98-bf5f-40d6-a1dd-4d229e6206e6"},"vehicle_type_id":"4","last_reported":1702379173,"current_range_meters":26800,"station_id":"ce4bgn12rcd13ifvqbt0","pricing_plan_id":"free"},{"bike_id":"f3e017ca-d74f-4f71-a444-985223bf3e22","system_id":"levelo_inurba_marseille","lat":43.2968,"lon":5.37291,"is_reserved":false,"is_disabled":false,"rental_uris":{"android":"levelo://app?vid=f3e017ca-d74f-4f71-a444-985223bf3e22","ios":"levelo://app?vid=f3e017ca-d74f-4f71-a444-985223bf3e22"},"vehicle_type_id":"4","last_reported":1702379173,"current_range_meters":22400,"station_id":"ce4bgk12rcd13ifvqbj0","pricing_plan_id":"free"},{"bike_id":"02787152-d9d4-4916-ae57-47f96babf3a7","system_id":"levelo_inurba_marseille","lat":43.296129,"lon":5.370777,"is_reserved":false,"is_disabled":false,"rental_uris":{"android":"levelo://app?vid=02787152-d9d4-4916-ae57-47f96babf3a7","ios":"levelo://app?vid=02787152-d9d4-4916-ae57-47f96babf3a7"},"vehicle_type_id":"4","last_reported":1702379173,"current_range_meters":29600,"station_id":"ce4bgnh2rcd13ifvqc0g","pricing_plan_id":"free"},{"bike_id":"63a9670d-321c-488a-a9de-161f79f052c8","system_id":"levelo_inurba_marseille","lat":43.29573,"lon":5.367355,"is_reserved":false,"is_disabled":false,"rental_uris":{"android":"levelo://app?vid=63a9670d-321c-488a-a9de-161f79f052c8","ios":"levelo://app?vid=63a9670d-321c-488a-a9de-161f79f052c8"},"vehicle_type_id":"4","last_reported":1702379173,"current_range_meters":30800,"station_id":"ce4bgph2rcd13ifvqc2g","pricing_plan_id":"free"},{"bike_id":"1794aa73-86e1-41a2-931c-ad4a31373372","system_id":"levelo_inurba_marseille","lat":43.29573,"lon":5.367355,"is_reserved":false,"is_disabled":false,"rental_uris":{"android":"levelo://app?vid=1794aa73-86e1-41a2-931c-ad4a31373372","ios":"levelo://app?vid=1794aa73-86e1-41a2-931c-ad4a31373372"},"vehicle_type_id":"4","last_reported":1702379173,"current_range_meters":28000,"station_id":"ce4bgph2rcd13ifvqc2g","pricing_plan_id":"free"},{"bike_id":"bf8ac657-fbc2-484a-86c0-251a0215defe","system_id":"levelo_inurba_marseille","lat":43.296131,"lon":5.370791,"is_reserved":false,"is_disabled":false,"rental_uris":{"android":"levelo://app?vid=bf8ac657-fbc2-484a-86c0-251a0215defe","ios":"levelo://app?vid=bf8ac657-fbc2-484a-86c0-251a0215defe"},"vehicle_type_id":"4","last_reported":1702379173,"current_range_meters":22000,"station_id":"ce4bgnh2rcd13ifvqc0g","pricing_plan_id":"free"},{"bike_id":"f6493c06-b7fc-4507-9955-2861022b8d75","system_id":"levelo_inurba_marseille","lat":43.29585,"lon":5.36742,"is_reserved":false,"is_disabled":false,"rental_uris":{"android":"levelo://app?vid=f6493c06-b7fc-4507-9955-2861022b8d75","ios":"levelo://app?vid=f6493c06-b7fc-4507-9955-2861022b8d75"},"vehicle_type_id":"4","last_reported":1702379173,"current_range_meters":0,"station_id":"ce4bgph2rcd13ifvqc2g","pricing_plan_id":"free"},{"bike_id":"d372d1ae-5055-4acb-a283-7b72cd14845a","system_id":"levelo_inurba_marseille","lat":43.296129,"lon":5.370777,"is_reserved":false,"is_disabled":false,"rental_uris":{"android":"levelo://app?vid=d372d1ae-5055-4acb-a283-7b72cd14845a","ios":"levelo://app?vid=d372d1ae-5055-4acb-a283-7b72cd14845a"},"vehicle_type_id":"4","last_reported":1702379173,"current_range_meters":17600,"station_id":"ce4bgnh2rcd13ifvqc0g","pricing_plan_id":"free"},{"bike_id":"ba224069-42b6-4867-a047-29efa117c07d","system_id":"levelo_inurba_marseille","lat":43.29573,"lon":5.367355,"is_reserved":false,"is_disabled":false,"rental_uris":{"android":"levelo://app?vid=ba224069-42b6-4867-a047-29efa117c07d","ios":"levelo://app?vid=ba224069-42b6-4867-a047-29efa117c07d"},"vehicle_type_id":"4","last_reported":1702379173,"current_range_meters":30400,"station_id":"ce4bgph2rcd13ifvqc2g","pricing_plan_id":"free"},{"bike_id":"3cdcda6a-668f-4bd2-948f-83ed8da97aba","system_id":"levelo_inurba_marseille","lat":43.299028,"lon":5.381509,"is_reserved":false,"is_disabled":false,"rental_uris":{"android":"levelo://app?vid=3cdcda6a-668f-4bd2-948f-83ed8da97aba","ios":"levelo://app?vid=3cdcda6a-668f-4bd2-948f-83ed8da97aba"},"vehicle_type_id":"4","last_reported":1702379173,"current_range_meters":18400,"station_id":"ce4bgj12rcd13ifvqbc0","pricing_plan_id":"free"},{"bike_id":"37ba0366-7a83-418f-aeea-f08ac9fb6a16","system_id":"levelo_inurba_marseille","lat":43.299028,"lon":5.381509,"is_reserved":false,"is_disabled":false,"rental_uris":{"android":"levelo://app?vid=37ba0366-7a83-418f-aeea-f08ac9fb6a16","ios":"levelo://app?vid=37ba0366-7a83-418f-aeea-f08ac9fb6a16"},"vehicle_type_id":"4","last_reported":1702379173,"current_range_meters":30400,"station_id":"ce4bgj12rcd13ifvqbc0","pricing_plan_id":"free"},{"bike_id":"73e2ffe7-979e-45a8-92bd-37c4dd323d34","system_id":"levelo_inurba_marseille","lat":43.299028,"lon":5.381509,"is_reserved":false,"is_disabled":false,"rental_uris":{"android":"levelo://app?vid=73e2ffe7-979e-45a8-92bd-37c4dd323d34","ios":"levelo://app?vid=73e2ffe7-979e-45a8-92bd-37c4dd323d34"},"vehicle_type_id":"4","last_reported":1702379173,"current_range_meters":27600,"station_id":"ce4bgj12rcd13ifvqbc0","pricing_plan_id":"free"},{"bike_id":"2ec4b9d4-c958-493e-b934-ef4283ba98bf","system_id":"levelo_inurba_marseille","lat":43.299028,"lon":5.381509,"is_reserved":false,"is_disabled":false,"rental_uris":{"android":"levelo://app?vid=2ec4b9d4-c958-493e-b934-ef4283ba98bf","ios":"levelo://app?vid=2ec4b9d4-c958-493e-b934-ef4283ba98bf"},"vehicle_type_id":"4","last_reported":1702379173,"current_range_meters":30000,"station_id":"ce4bgj12rcd13ifvqbc0","pricing_plan_id":"free"},{"bike_id":"a23afeb1-3b1d-4f0e-a6d7-2000d2a6be4b","system_id":"levelo_inurba_marseille","lat":43.309589,"lon":5.390258,"is_reserved":false,"is_disabled":false,"rental_uris":{"android":"levelo://app?vid=a23afeb1-3b1d-4f0e-a6d7-2000d2a6be4b","ios":"levelo://app?vid=a23afeb1-3b1d-4f0e-a6d7-2000d2a6be4b"},"vehicle_type_id":"4","last_reported":1702379173,"current_range_meters":4400,"station_id":"ce4bgup2rcd13ifvqco0","pricing_plan_id":"free"},{"bike_id":"25896334-35b2-454f-993f-9a6af7916189","system_id":"levelo_inurba_marseille","lat":43.298037,"lon":5.381066,"is_reserved":false,"is_disabled":false,"rental_uris":{"android":"levelo://app?vid=25896334-35b2-454f-993f-9a6af7916189","ios":"levelo://app?vid=25896334-35b2-454f-993f-9a6af7916189"},"vehicle_type_id":"4","last_reported":1702379173,"current_range_meters":18800,"station_id":"ce4bgip2rcd13ifvqbb0","pricing_plan_id":"free"},{"bike_id":"77a6c46d-d898-4e4f-8846-efa91689c7f0","system_id":"levelo_inurba_marseille","lat":43.297827,"lon":5.38093,"is_reserved":false,"is_disabled":false,"rental_uris":{"android":"levelo://app?vid=77a6c46d-d898-4e4f-8846-efa91689c7f0","ios":"levelo://app?vid=77a6c46d-d898-4e4f-8846-efa91689c7f0"},"vehicle_type_id":"4","last_reported":1702379173,"current_range_meters":0,"station_id":"","pricing_plan_id":"free"},{"bike_id":"b6ed93b9-2d52-4c7b-a7ee-77fcaa1446b2","system_id":"levelo_inurba_marseille","lat":43.295279,"lon":5.375048,"is_reserved":false,"is_disabled":false,"rental_uris":{"android":"levelo://app?vid=b6ed93b9-2d52-4c7b-a7ee-77fcaa1446b2","ios":"levelo://app?vid=b6ed93b9-2d52-4c7b-a7ee-77fcaa1446b2"},"vehicle_type_id":"4","last_reported":1702379173,"current_range_meters":22000,"station_id":"ce4bgkp2rcd13ifvqbmg","pricing_plan_id":"free"},{"bike_id":"59da21fc-b961-4965-bea4-8f754955db54","system_id":"levelo_inurba_marseille","lat":43.295279,"lon":5.375048,"is_reserved":false,"is_disabled":false,"rental_uris":{"android":"levelo://app?vid=59da21fc-b961-4965-bea4-8f754955db54","ios":"levelo://app?vid=59da21fc-b961-4965-bea4-8f754955db54"},"vehicle_type_id":"4","last_reported":1702379173,"current_range_meters":22400,"station_id":"ce4bgkp2rcd13ifvqbmg","pricing_plan_id":"free"},{"bike_id":"f5d2fd2e-3388-44a7-8167-a4f0860b84d0","system_id":"levelo_inurba_marseille","lat":43.32366,"lon":5.38891,"is_reserved":false,"is_disabled":false,"rental_uris":{"android":"levelo://app?vid=f5d2fd2e-3388-44a7-8167-a4f0860b84d0","ios":"levelo://app?vid=f5d2fd2e-3388-44a7-8167-a4f0860b84d0"},"vehicle_type_id":"4","last_reported":1702379173,"current_range_meters":21200,"station_id":"ce4bhqp2rcd13ifvqhog","pricing_plan_id":"free"},{"bike_id":"523a234d-8293-4b98-ac8f-f02a95dc81c1","system_id":"levelo_inurba_marseille","lat":43.29601,"lon":5.381084,"is_reserved":false,"is_disabled":false,"rental_uris":{"android":"levelo://app?vid=523a234d-8293-4b98-ac8f-f02a95dc81c1","ios":"levelo://app?vid=523a234d-8293-4b98-ac8f-f02a95dc81c1"},"vehicle_type_id":"4","last_reported":1702379173,"current_range_meters":13600,"station_id":"ce4bgl12rcd13ifvqbo0","pricing_plan_id":"free"},{"bike_id":"4107a786-eca4-4ec7-a3b5-47759d80726a","system_id":"levelo_inurba_marseille","lat":43.313291,"lon":5.396838,"is_reserved":false,"is_disabled":false,"rental_uris":{"android":"levelo://app?vid=4107a786-eca4-4ec7-a3b5-47759d80726a","ios":"levelo://app?vid=4107a786-eca4-4ec7-a3b5-47759d80726a"},"vehicle_type_id":"4","last_reported":1702379173,"current_range_meters":22400,"station_id":"ce4bgvp2rcd13ifvqcu0","pricing_plan_id":"free"},{"bike_id":"d3bd65b2-2050-4a6c-881b-0eb76a2ecd62","system_id":"levelo_inurba_marseille","lat":43.290779,"lon":5.371482,"is_reserved":false,"is_disabled":false,"rental_uris":{"android":"levelo://app?vid=d3bd65b2-2050-4a6c-881b-0eb76a2ecd62","ios":"levelo://app?vid=d3bd65b2-2050-4a6c-881b-0eb76a2ecd62"},"vehicle_type_id":"4","last_reported":1702379173,"current_range_meters":22400,"station_id":"ce4bh5p2rcd13ifvqe4g","pricing_plan_id":"free"},{"bike_id":"e4657da0-4418-4880-80d5-99de07e00cf4","system_id":"levelo_inurba_marseille","lat":43.290624,"lon":5.359245,"is_reserved":false,"is_disabled":false,"rental_uris":{"android":"levelo://app?vid=e4657da0-4418-4880-80d5-99de07e00cf4","ios":"levelo://app?vid=e4657da0-4418-4880-80d5-99de07e00cf4"},"vehicle_type_id":"4","last_reported":1702379173,"current_range_meters":20800,"station_id":"ce4bha92rcd13ifvqeg0","pricing_plan_id":"free"},{"bike_id":"c1f0e59f-e13f-4bc9-881d-223204af1735","system_id":"levelo_inurba_marseille","lat":43.289184,"lon":5.366408,"is_reserved":false,"is_disabled":false,"rental_uris":{"android":"levelo://app?vid=c1f0e59f-e13f-4bc9-881d-223204af1735","ios":"levelo://app?vid=c1f0e59f-e13f-4bc9-881d-223204af1735"},"vehicle_type_id":"4","last_reported":1702379173,"current_range_meters":30800,"station_id":"ce4bhap2rcd13ifvqek0","pricing_plan_id":"free"},{"bike_id":"412eaa66-bd1c-4f87-9d4d-1f8b437baeee","system_id":"levelo_inurba_marseille","lat":43.289184,"lon":5.366408,"is_reserved":false,"is_disabled":false,"rental_uris":{"android":"levelo://app?vid=412eaa66-bd1c-4f87-9d4d-1f8b437baeee","ios":"levelo://app?vid=412eaa66-bd1c-4f87-9d4d-1f8b437baeee"},"vehicle_type_id":"4","last_reported":1702379173,"current_range_meters":7600,"station_id":"ce4bhap2rcd13ifvqek0","pricing_plan_id":"free"},{"bike_id":"52fc3b6d-2660-4ea9-80f3-bd3ac33c42f9","system_id":"levelo_inurba_marseille","lat":43.289443,"lon":5.363945,"is_reserved":false,"is_disabled":false,"rental_uris":{"android":"levelo://app?vid=52fc3b6d-2660-4ea9-80f3-bd3ac33c42f9","ios":"levelo://app?vid=52fc3b6d-2660-4ea9-80f3-bd3ac33c42f9"},"vehicle_type_id":"4","last_reported":1702379173,"current_range_meters":19600,"station_id":"ce4bhc92rcd13ifvqetg","pricing_plan_id":"free"},{"bike_id":"5c0fd0f7-7d2d-4f34-ba5d-10c36a53cdfd","system_id":"levelo_inurba_marseille","lat":43.289363,"lon":5.363947,"is_reserved":false,"is_disabled":false,"rental_uris":{"android":"levelo://app?vid=5c0fd0f7-7d2d-4f34-ba5d-10c36a53cdfd","ios":"levelo://app?vid=5c0fd0f7-7d2d-4f34-ba5d-10c36a53cdfd"},"vehicle_type_id":"4","last_reported":1702379173,"current_range_meters":31200,"station_id":"ce4bhc92rcd13ifvqetg","pricing_plan_id":"free"},{"bike_id":"9ae9787c-463e-43d3-8805-36025067ea5b","system_id":"levelo_inurba_marseille","lat":43.330442,"lon":5.389148,"is_reserved":false,"is_disabled":false,"rental_uris":{"android":"levelo://app?vid=9ae9787c-463e-43d3-8805-36025067ea5b","ios":"levelo://app?vid=9ae9787c-463e-43d3-8805-36025067ea5b"},"vehicle_type_id":"4","last_reported":1702379173,"current_range_meters":5200,"station_id":"ce4bhr92rcd13ifvqhrg","pricing_plan_id":"free"},{"bike_id":"69b1e835-1c74-4139-9b3a-b802dbe6b672","system_id":"levelo_inurba_marseille","lat":43.330442,"lon":5.389148,"is_reserved":false,"is_disabled":false,"rental_uris":{"android":"levelo://app?vid=69b1e835-1c74-4139-9b3a-b802dbe6b672","ios":"levelo://app?vid=69b1e835-1c74-4139-9b3a-b802dbe6b672"},"vehicle_type_id":"4","last_reported":1702379173,"current_range_meters":25600,"station_id":"ce4bhr92rcd13ifvqhrg","pricing_plan_id":"free"},{"bike_id":"b8a0a371-877b-48c3-b6c7-49b39481a9d1","system_id":"levelo_inurba_marseille","lat":43.28859,"lon":5.35859,"is_reserved":false,"is_disabled":false,"rental_uris":{"android":"levelo://app?vid=b8a0a371-877b-48c3-b6c7-49b39481a9d1","ios":"levelo://app?vid=b8a0a371-877b-48c3-b6c7-49b39481a9d1"},"vehicle_type_id":"4","last_reported":1702379173,"current_range_meters":1200,"station_id":"ce4bhb12rcd13ifvqem0","pricing_plan_id":"free"},{"bike_id":"970085a8-ee27-4c95-b8c4-c607aeda9581","system_id":"levelo_inurba_marseille","lat":43.2885,"lon":5.35863,"is_reserved":false,"is_disabled":false,"rental_uris":{"android":"levelo://app?vid=970085a8-ee27-4c95-b8c4-c607aeda9581","ios":"levelo://app?vid=970085a8-ee27-4c95-b8c4-c607aeda9581"},"vehicle_type_id":"4","last_reported":1702379173,"current_range_meters":4400,"station_id":"ce4bhb12rcd13ifvqem0","pricing_plan_id":"free"},{"bike_id":"0762077f-9073-4d35-bb6d-2230b24e639e","system_id":"levelo_inurba_marseille","lat":43.28842,"lon":5.35863,"is_reserved":false,"is_disabled":false,"rental_uris":{"android":"levelo://app?vid=0762077f-9073-4d35-bb6d-2230b24e639e","ios":"levelo://app?vid=0762077f-9073-4d35-bb6d-2230b24e639e"},"vehicle_type_id":"4","last_reported":1702379173,"current_range_meters":4400,"station_id":"ce4bhb12rcd13ifvqem0","pricing_plan_id":"free"},{"bike_id":"1ffa6cab-2192-4490-9617-61044011c6b1","system_id":"levelo_inurba_marseille","lat":43.33745,"lon":5.374707,"is_reserved":false,"is_disabled":false,"rental_uris":{"android":"levelo://app?vid=1ffa6cab-2192-4490-9617-61044011c6b1","ios":"levelo://app?vid=1ffa6cab-2192-4490-9617-61044011c6b1"},"vehicle_type_id":"4","last_reported":1702379173,"current_range_meters":16400,"station_id":"","pricing_plan_id":"free"},{"bike_id":"e1115d16-a177-4b09-99f4-d84a7f0a9df4","system_id":"levelo_inurba_marseille","lat":43.33749,"lon":5.37458,"is_reserved":false,"is_disabled":false,"rental_uris":{"android":"levelo://app?vid=e1115d16-a177-4b09-99f4-d84a7f0a9df4","ios":"levelo://app?vid=e1115d16-a177-4b09-99f4-d84a7f0a9df4"},"vehicle_type_id":"4","last_reported":1702379173,"current_range_meters":24000,"station_id":"","pricing_plan_id":"free"},{"bike_id":"67dcbfa0-43d1-4b19-8796-1b88e2ecd2c5","system_id":"levelo_inurba_marseille","lat":43.33752,"lon":5.37447,"is_reserved":false,"is_disabled":false,"rental_uris":{"android":"levelo://app?vid=67dcbfa0-43d1-4b19-8796-1b88e2ecd2c5","ios":"levelo://app?vid=67dcbfa0-43d1-4b19-8796-1b88e2ecd2c5"},"vehicle_type_id":"4","last_reported":1702379173,"current_range_meters":20400,"station_id":"","pricing_plan_id":"free"},{"bike_id":"1a9123ca-1ac0-4cbb-b622-534f88bcae20","system_id":"levelo_inurba_marseille","lat":43.337563,"lon":5.374598,"is_reserved":false,"is_disabled":false,"rental_uris":{"android":"levelo://app?vid=1a9123ca-1ac0-4cbb-b622-534f88bcae20","ios":"levelo://app?vid=1a9123ca-1ac0-4cbb-b622-534f88bcae20"},"vehicle_type_id":"4","last_reported":1702379173,"current_range_meters":29200,"station_id":"","pricing_plan_id":"free"},{"bike_id":"c2eec492-212e-481c-b633-b3e7970fc226","system_id":"levelo_inurba_marseille","lat":43.337615,"lon":5.3745,"is_reserved":false,"is_disabled":false,"rental_uris":{"android":"levelo://app?vid=c2eec492-212e-481c-b633-b3e7970fc226","ios":"levelo://app?vid=c2eec492-212e-481c-b633-b3e7970fc226"},"vehicle_type_id":"4","last_reported":1702379173,"current_range_meters":31200,"station_id":"","pricing_plan_id":"free"},{"bike_id":"d4d8cb8f-4881-408c-8c61-5423331ed4bd","system_id":"levelo_inurba_marseille","lat":43.301117,"lon":5.398795,"is_reserved":false,"is_disabled":false,"rental_uris":{"android":"levelo://app?vid=d4d8cb8f-4881-408c-8c61-5423331ed4bd","ios":"levelo://app?vid=d4d8cb8f-4881-408c-8c61-5423331ed4bd"},"vehicle_type_id":"4","last_reported":1702379173,"current_range_meters":12800,"station_id":"ce4bh0h2rcd13ifvqd40","pricing_plan_id":"free"},{"bike_id":"591bfbfd-cb75-4551-b85d-a0c03fd04890","system_id":"levelo_inurba_marseille","lat":43.286961,"lon":5.373785,"is_reserved":false,"is_disabled":false,"rental_uris":{"android":"levelo://app?vid=591bfbfd-cb75-4551-b85d-a0c03fd04890","ios":"levelo://app?vid=591bfbfd-cb75-4551-b85d-a0c03fd04890"},"vehicle_type_id":"4","last_reported":1702379173,"current_range_meters":3600,"station_id":"ce4bh3p2rcd13ifvqdq0","pricing_plan_id":"free"},{"bike_id":"df83e045-4d63-4f79-a000-cf6a299a3b0a","system_id":"levelo_inurba_marseille","lat":43.286961,"lon":5.373785,"is_reserved":false,"is_disabled":false,"rental_uris":{"android":"levelo://app?vid=df83e045-4d63-4f79-a000-cf6a299a3b0a","ios":"levelo://app?vid=df83e045-4d63-4f79-a000-cf6a299a3b0a"},"vehicle_type_id":"4","last_reported":1702379173,"current_range_meters":20000,"station_id":"ce4bh3p2rcd13ifvqdq0","pricing_plan_id":"free"},{"bike_id":"651e7e8d-3db5-4799-b9ef-a78372a5f6c9","system_id":"levelo_inurba_marseille","lat":43.286593,"lon":5.363346,"is_reserved":false,"is_disabled":false,"rental_uris":{"android":"levelo://app?vid=651e7e8d-3db5-4799-b9ef-a78372a5f6c9","ios":"levelo://app?vid=651e7e8d-3db5-4799-b9ef-a78372a5f6c9"},"vehicle_type_id":"4","last_reported":1702379173,"current_range_meters":31200,"station_id":"ce4bhah2rcd13ifvqej0","pricing_plan_id":"free"},{"bike_id":"5249db0a-e6b1-4f01-beb7-b8e2e0a20db2","system_id":"levelo_inurba_marseille","lat":43.295196,"lon":5.39397,"is_reserved":false,"is_disabled":false,"rental_uris":{"android":"levelo://app?vid=5249db0a-e6b1-4f01-beb7-b8e2e0a20db2","ios":"levelo://app?vid=5249db0a-e6b1-4f01-beb7-b8e2e0a20db2"},"vehicle_type_id":"4","last_reported":1702379173,"current_range_meters":10000,"station_id":"ce4bh292rcd13ifvqdf0","pricing_plan_id":"free"},{"bike_id":"457ac295-bc0f-4ba2-8756-ff29ba3cb2d4","system_id":"levelo_inurba_marseille","lat":43.295194,"lon":5.39397,"is_reserved":false,"is_disabled":false,"rental_uris":{"android":"levelo://app?vid=457ac295-bc0f-4ba2-8756-ff29ba3cb2d4","ios":"levelo://app?vid=457ac295-bc0f-4ba2-8756-ff29ba3cb2d4"},"vehicle_type_id":"4","last_reported":1702379173,"current_range_meters":26000,"station_id":"ce4bh292rcd13ifvqdf0","pricing_plan_id":"free"},{"bike_id":"256404ab-ff3d-4a41-9c23-6f12c9443acb","system_id":"levelo_inurba_marseille","lat":43.289307,"lon":5.38406,"is_reserved":false,"is_disabled":false,"rental_uris":{"android":"levelo://app?vid=256404ab-ff3d-4a41-9c23-6f12c9443acb","ios":"levelo://app?vid=256404ab-ff3d-4a41-9c23-6f12c9443acb"},"vehicle_type_id":"4","last_reported":1702379173,"current_range_meters":20000,"station_id":"ce4bh612rcd13ifvqe6g","pricing_plan_id":"free"},{"bike_id":"22ce825e-2cfb-45a9-ae15-a7150c5a225d","system_id":"levelo_inurba_marseille","lat":43.302759,"lon":5.400793,"is_reserved":false,"is_disabled":false,"rental_uris":{"android":"levelo://app?vid=22ce825e-2cfb-45a9-ae15-a7150c5a225d","ios":"levelo://app?vid=22ce825e-2cfb-45a9-ae15-a7150c5a225d"},"vehicle_type_id":"4","last_reported":1702379173,"current_range_meters":4800,"station_id":"ce4bgvh2rcd13ifvqcs0","pricing_plan_id":"free"},{"bike_id":"90d10581-e4f1-4adf-8b30-f7180f923159","system_id":"levelo_inurba_marseille","lat":43.290297,"lon":5.386569,"is_reserved":false,"is_disabled":false,"rental_uris":{"android":"levelo://app?vid=90d10581-e4f1-4adf-8b30-f7180f923159","ios":"levelo://app?vid=90d10581-e4f1-4adf-8b30-f7180f923159"},"vehicle_type_id":"4","last_reported":1702379173,"current_range_meters":4000,"station_id":"","pricing_plan_id":"free"},{"bike_id":"dd55c571-beb8-4144-9eee-a018fae0dfc2","system_id":"levelo_inurba_marseille","lat":43.286039,"lon":5.370681,"is_reserved":false,"is_disabled":false,"rental_uris":{"android":"levelo://app?vid=dd55c571-beb8-4144-9eee-a018fae0dfc2","ios":"levelo://app?vid=dd55c571-beb8-4144-9eee-a018fae0dfc2"},"vehicle_type_id":"4","last_reported":1702379173,"current_range_meters":23600,"station_id":"ce4bht12rcd13ifvqi60","pricing_plan_id":"free"},{"bike_id":"67a10da1-a5b4-42a1-bf72-5c8a18b674df","system_id":"levelo_inurba_marseille","lat":43.294314,"lon":5.397498,"is_reserved":false,"is_disabled":false,"rental_uris":{"android":"levelo://app?vid=67a10da1-a5b4-42a1-bf72-5c8a18b674df","ios":"levelo://app?vid=67a10da1-a5b4-42a1-bf72-5c8a18b674df"},"vehicle_type_id":"4","last_reported":1702379173,"current_range_meters":28400,"station_id":"ce4bh3h2rcd13ifvqdo0","pricing_plan_id":"free"},{"bike_id":"add3faa3-21ff-4fde-a1d4-b01cb9296a8f","system_id":"levelo_inurba_marseille","lat":43.294314,"lon":5.397498,"is_reserved":false,"is_disabled":false,"rental_uris":{"android":"levelo://app?vid=add3faa3-21ff-4fde-a1d4-b01cb9296a8f","ios":"levelo://app?vid=add3faa3-21ff-4fde-a1d4-b01cb9296a8f"},"vehicle_type_id":"4","last_reported":1702379173,"current_range_meters":29600,"station_id":"ce4bh3h2rcd13ifvqdo0","pricing_plan_id":"free"},{"bike_id":"b14f6980-07f5-4d33-8d20-4803fa78e486","system_id":"levelo_inurba_marseille","lat":43.295713,"lon":5.399639,"is_reserved":false,"is_disabled":false,"rental_uris":{"android":"levelo://app?vid=b14f6980-07f5-4d33-8d20-4803fa78e486","ios":"levelo://app?vid=b14f6980-07f5-4d33-8d20-4803fa78e486"},"vehicle_type_id":"4","last_reported":1702379173,"current_range_meters":11600,"station_id":"ce4bh312rcd13ifvqdj0","pricing_plan_id":"free"},{"bike_id":"48722a3d-321f-4b5e-b85b-887ed4900422","system_id":"levelo_inurba_marseille","lat":43.319179,"lon":5.407725,"is_reserved":false,"is_disabled":false,"rental_uris":{"android":"levelo://app?vid=48722a3d-321f-4b5e-b85b-887ed4900422","ios":"levelo://app?vid=48722a3d-321f-4b5e-b85b-887ed4900422"},"vehicle_type_id":"4","last_reported":1702379173,"current_range_meters":15200,"station_id":"ce4bhq12rcd13ifvqhig","pricing_plan_id":"free"},{"bike_id":"a53f5d02-c724-41b5-bc50-53d39b8c48d9","system_id":"levelo_inurba_marseille","lat":43.323464,"lon":5.406297,"is_reserved":false,"is_disabled":false,"rental_uris":{"android":"levelo://app?vid=a53f5d02-c724-41b5-bc50-53d39b8c48d9","ios":"levelo://app?vid=a53f5d02-c724-41b5-bc50-53d39b8c48d9"},"vehicle_type_id":"4","last_reported":1702379173,"current_range_meters":30000,"station_id":"ce4bhq92rcd13ifvqhjg","pricing_plan_id":"free"},{"bike_id":"75522ea9-77dd-43f6-880b-ebd88bf319ca","system_id":"levelo_inurba_marseille","lat":43.28482,"lon":5.38414,"is_reserved":false,"is_disabled":false,"rental_uris":{"android":"levelo://app?vid=75522ea9-77dd-43f6-880b-ebd88bf319ca","ios":"levelo://app?vid=75522ea9-77dd-43f6-880b-ebd88bf319ca"},"vehicle_type_id":"4","last_reported":1702379173,"current_range_meters":0,"station_id":"ce4bh512rcd13ifvqe3g","pricing_plan_id":"free"},{"bike_id":"ae9ab67c-c938-4704-84fc-b294ce561cf0","system_id":"levelo_inurba_marseille","lat":43.289363,"lon":5.396322,"is_reserved":false,"is_disabled":false,"rental_uris":{"android":"levelo://app?vid=ae9ab67c-c938-4704-84fc-b294ce561cf0","ios":"levelo://app?vid=ae9ab67c-c938-4704-84fc-b294ce561cf0"},"vehicle_type_id":"4","last_reported":1702379173,"current_range_meters":24000,"station_id":"ce4bh3h2rcd13ifvqdn0","pricing_plan_id":"free"},{"bike_id":"10e42a3f-aeb2-47f7-b0a8-9bb9fb5c15fb","system_id":"levelo_inurba_marseille","lat":43.282754,"lon":5.350519,"is_reserved":false,"is_disabled":false,"rental_uris":{"android":"levelo://app?vid=10e42a3f-aeb2-47f7-b0a8-9bb9fb5c15fb","ios":"levelo://app?vid=10e42a3f-aeb2-47f7-b0a8-9bb9fb5c15fb"},"vehicle_type_id":"4","last_reported":1702379173,"current_range_meters":17200,"station_id":"ce4bhbp2rcd13ifvqerg","pricing_plan_id":"free"},{"bike_id":"4ee53fc3-95fe-4ec3-ae50-b9a8cd12442e","system_id":"levelo_inurba_marseille","lat":43.28039,"lon":5.369297,"is_reserved":false,"is_disabled":false,"rental_uris":{"android":"levelo://app?vid=4ee53fc3-95fe-4ec3-ae50-b9a8cd12442e","ios":"levelo://app?vid=4ee53fc3-95fe-4ec3-ae50-b9a8cd12442e"},"vehicle_type_id":"4","last_reported":1702379173,"current_range_meters":26800,"station_id":"ce4bha12rcd13ifvqef0","pricing_plan_id":"free"},{"bike_id":"bbe5f30a-4738-4826-bd7a-95ec16c0ccd2","system_id":"levelo_inurba_marseille","lat":43.280382,"lon":5.369291,"is_reserved":false,"is_disabled":false,"rental_uris":{"android":"levelo://app?vid=bbe5f30a-4738-4826-bd7a-95ec16c0ccd2","ios":"levelo://app?vid=bbe5f30a-4738-4826-bd7a-95ec16c0ccd2"},"vehicle_type_id":"4","last_reported":1702379173,"current_range_meters":30000,"station_id":"ce4bha12rcd13ifvqef0","pricing_plan_id":"free"},{"bike_id":"696bf1ec-ecac-48e5-aca0-6e8a0eb3f4b8","system_id":"levelo_inurba_marseille","lat":43.280294,"lon":5.369429,"is_reserved":false,"is_disabled":false,"rental_uris":{"android":"levelo://app?vid=696bf1ec-ecac-48e5-aca0-6e8a0eb3f4b8","ios":"levelo://app?vid=696bf1ec-ecac-48e5-aca0-6e8a0eb3f4b8"},"vehicle_type_id":"4","last_reported":1702379173,"current_range_meters":26400,"station_id":"ce4bha12rcd13ifvqef0","pricing_plan_id":"free"},{"bike_id":"9325527c-1ad0-48a3-b59d-624ba600c8ec","system_id":"levelo_inurba_marseille","lat":43.290412,"lon":5.399633,"is_reserved":false,"is_disabled":false,"rental_uris":{"android":"levelo://app?vid=9325527c-1ad0-48a3-b59d-624ba600c8ec","ios":"levelo://app?vid=9325527c-1ad0-48a3-b59d-624ba600c8ec"},"vehicle_type_id":"4","last_reported":1702379173,"current_range_meters":30400,"station_id":"ce4bh392rcd13ifvqdm0","pricing_plan_id":"free"},{"bike_id":"bf5278c9-0cce-4672-a891-503b3e2aa304","system_id":"levelo_inurba_marseille","lat":43.296263,"lon":5.40601,"is_reserved":false,"is_disabled":false,"rental_uris":{"android":"levelo://app?vid=bf5278c9-0cce-4672-a891-503b3e2aa304","ios":"levelo://app?vid=bf5278c9-0cce-4672-a891-503b3e2aa304"},"vehicle_type_id":"4","last_reported":1702379173,"current_range_meters":22800,"station_id":"ce4bh0h2rcd13ifvqd60","pricing_plan_id":"free"},{"bike_id":"8803c34a-4000-4d24-8348-d967f1cc3a4e","system_id":"levelo_inurba_marseille","lat":43.284462,"lon":5.392121,"is_reserved":false,"is_disabled":false,"rental_uris":{"android":"levelo://app?vid=8803c34a-4000-4d24-8348-d967f1cc3a4e","ios":"levelo://app?vid=8803c34a-4000-4d24-8348-d967f1cc3a4e"},"vehicle_type_id":"4","last_reported":1702379173,"current_range_meters":29200,"station_id":"ce4bhoh2rcd13ifvqh5g","pricing_plan_id":"free"},{"bike_id":"fca0b403-7c17-4951-860d-05d473c1a227","system_id":"levelo_inurba_marseille","lat":43.326605,"lon":5.409903,"is_reserved":false,"is_disabled":false,"rental_uris":{"android":"levelo://app?vid=fca0b403-7c17-4951-860d-05d473c1a227","ios":"levelo://app?vid=fca0b403-7c17-4951-860d-05d473c1a227"},"vehicle_type_id":"4","last_reported":1702379173,"current_range_meters":14400,"station_id":"ce4bhpp2rcd13ifvqhgg","pricing_plan_id":"free"},{"bike_id":"252be24b-7c7b-419c-af3c-1b04e8806b16","system_id":"levelo_inurba_marseille","lat":43.304188,"lon":5.412904,"is_reserved":false,"is_disabled":false,"rental_uris":{"android":"levelo://app?vid=252be24b-7c7b-419c-af3c-1b04e8806b16","ios":"levelo://app?vid=252be24b-7c7b-419c-af3c-1b04e8806b16"},"vehicle_type_id":"4","last_reported":1702379173,"current_range_meters":28800,"station_id":"ce4bhop2rcd13ifvqh8g","pricing_plan_id":"free"},{"bike_id":"07ee4b32-4d07-43f4-a42b-727531c23a03","system_id":"levelo_inurba_marseille","lat":43.279087,"lon":5.380114,"is_reserved":false,"is_disabled":false,"rental_uris":{"android":"levelo://app?vid=07ee4b32-4d07-43f4-a42b-727531c23a03","ios":"levelo://app?vid=07ee4b32-4d07-43f4-a42b-727531c23a03"},"vehicle_type_id":"4","last_reported":1702379173,"current_range_meters":0,"station_id":"ce4bhf92rcd13ifvqf50","pricing_plan_id":"free"},{"bike_id":"7cddd4cc-2c7d-4381-9bfa-f684cdc32fa0","system_id":"levelo_inurba_marseille","lat":43.28009,"lon":5.39022,"is_reserved":false,"is_disabled":false,"rental_uris":{"android":"levelo://app?vid=7cddd4cc-2c7d-4381-9bfa-f684cdc32fa0","ios":"levelo://app?vid=7cddd4cc-2c7d-4381-9bfa-f684cdc32fa0"},"vehicle_type_id":"4","last_reported":1702379173,"current_range_meters":15600,"station_id":"","pricing_plan_id":"free"},{"bike_id":"f1b5931d-d3b9-4483-b874-4227e70f363c","system_id":"levelo_inurba_marseille","lat":43.276144,"lon":5.361113,"is_reserved":false,"is_disabled":false,"rental_uris":{"android":"levelo://app?vid=f1b5931d-d3b9-4483-b874-4227e70f363c","ios":"levelo://app?vid=f1b5931d-d3b9-4483-b874-4227e70f363c"},"vehicle_type_id":"4","last_reported":1702379173,"current_range_meters":30000,"station_id":"ce4bgj92rcd13ifvqbe0","pricing_plan_id":"free"},{"bike_id":"d5ea5ccc-606f-4e22-9e31-95152b58dc5c","system_id":"levelo_inurba_marseille","lat":43.325243,"lon":5.414326,"is_reserved":false,"is_disabled":false,"rental_uris":{"android":"levelo://app?vid=d5ea5ccc-606f-4e22-9e31-95152b58dc5c","ios":"levelo://app?vid=d5ea5ccc-606f-4e22-9e31-95152b58dc5c"},"vehicle_type_id":"4","last_reported":1702379173,"current_range_meters":27200,"station_id":"ce4bhq12rcd13ifvqhhg","pricing_plan_id":"free"},{"bike_id":"5e1ebe03-dc0d-4243-b40c-cd9e46c16f93","system_id":"levelo_inurba_marseille","lat":43.27611,"lon":5.36109,"is_reserved":false,"is_disabled":false,"rental_uris":{"android":"levelo://app?vid=5e1ebe03-dc0d-4243-b40c-cd9e46c16f93","ios":"levelo://app?vid=5e1ebe03-dc0d-4243-b40c-cd9e46c16f93"},"vehicle_type_id":"4","last_reported":1702379173,"current_range_meters":2800,"station_id":"ce4bgj92rcd13ifvqbe0","pricing_plan_id":"free"},{"bike_id":"a99acea3-1215-42f2-86fb-746ced356554","system_id":"levelo_inurba_marseille","lat":43.280784,"lon":5.396622,"is_reserved":false,"is_disabled":false,"rental_uris":{"android":"levelo://app?vid=a99acea3-1215-42f2-86fb-746ced356554","ios":"levelo://app?vid=a99acea3-1215-42f2-86fb-746ced356554"},"vehicle_type_id":"4","last_reported":1702379173,"current_range_meters":10400,"station_id":"ce4bho12rcd13ifvqh2g","pricing_plan_id":"free"},{"bike_id":"e3c97bad-3154-4de3-9997-265e88fb3a64","system_id":"levelo_inurba_marseille","lat":43.303837,"lon":5.418724,"is_reserved":false,"is_disabled":false,"rental_uris":{"android":"levelo://app?vid=e3c97bad-3154-4de3-9997-265e88fb3a64","ios":"levelo://app?vid=e3c97bad-3154-4de3-9997-265e88fb3a64"},"vehicle_type_id":"4","last_reported":1702379173,"current_range_meters":26400,"station_id":"ce4bhop2rcd13ifvqh7g","pricing_plan_id":"free"},{"bike_id":"9949e095-b5c7-451b-b5af-f034ceb4d700","system_id":"levelo_inurba_marseille","lat":43.275625,"lon":5.384392,"is_reserved":false,"is_disabled":false,"rental_uris":{"android":"levelo://app?vid=9949e095-b5c7-451b-b5af-f034ceb4d700","ios":"levelo://app?vid=9949e095-b5c7-451b-b5af-f034ceb4d700"},"vehicle_type_id":"4","last_reported":1702379173,"current_range_meters":20800,"station_id":"ce4bhh92rcd13ifvqfi0","pricing_plan_id":"free"},{"bike_id":"924276fb-5dda-4895-b01f-2e4aee480573","system_id":"levelo_inurba_marseille","lat":43.275625,"lon":5.384392,"is_reserved":false,"is_disabled":false,"rental_uris":{"android":"levelo://app?vid=924276fb-5dda-4895-b01f-2e4aee480573","ios":"levelo://app?vid=924276fb-5dda-4895-b01f-2e4aee480573"},"vehicle_type_id":"4","last_reported":1702379173,"current_range_meters":26800,"station_id":"ce4bhh92rcd13ifvqfi0","pricing_plan_id":"free"},{"bike_id":"b42e8174-3c11-407d-b8e0-c6ae42b201e1","system_id":"levelo_inurba_marseille","lat":43.33604,"lon":5.41031,"is_reserved":false,"is_disabled":false,"rental_uris":{"android":"levelo://app?vid=b42e8174-3c11-407d-b8e0-c6ae42b201e1","ios":"levelo://app?vid=b42e8174-3c11-407d-b8e0-c6ae42b201e1"},"vehicle_type_id":"4","last_reported":1702379173,"current_range_meters":13600,"station_id":"ce4bhqh2rcd13ifvqhmg","pricing_plan_id":"free"},{"bike_id":"5b672c33-fef6-4b47-be71-6dce3ae2040f","system_id":"levelo_inurba_marseille","lat":43.33612,"lon":5.410321,"is_reserved":false,"is_disabled":false,"rental_uris":{"android":"levelo://app?vid=5b672c33-fef6-4b47-be71-6dce3ae2040f","ios":"levelo://app?vid=5b672c33-fef6-4b47-be71-6dce3ae2040f"},"vehicle_type_id":"4","last_reported":1702379173,"current_range_meters":30800,"station_id":"ce4bhqh2rcd13ifvqhmg","pricing_plan_id":"free"},{"bike_id":"f5e31451-aa2f-4e2d-b8a6-533671871816","system_id":"levelo_inurba_marseille","lat":43.33608,"lon":5.41035,"is_reserved":false,"is_disabled":false,"rental_uris":{"android":"levelo://app?vid=f5e31451-aa2f-4e2d-b8a6-533671871816","ios":"levelo://app?vid=f5e31451-aa2f-4e2d-b8a6-533671871816"},"vehicle_type_id":"4","last_reported":1702379173,"current_range_meters":0,"station_id":"ce4bhqh2rcd13ifvqhmg","pricing_plan_id":"free"},{"bike_id":"35c6271e-84c9-493d-bf57-0f3c2760e8b5","system_id":"levelo_inurba_marseille","lat":43.336148,"lon":5.410349,"is_reserved":false,"is_disabled":false,"rental_uris":{"android":"levelo://app?vid=35c6271e-84c9-493d-bf57-0f3c2760e8b5","ios":"levelo://app?vid=35c6271e-84c9-493d-bf57-0f3c2760e8b5"},"vehicle_type_id":"4","last_reported":1702379173,"current_range_meters":31200,"station_id":"ce4bhqh2rcd13ifvqhmg","pricing_plan_id":"free"},{"bike_id":"fceb5e88-6d7c-45a5-bb60-e217bbcba6e0","system_id":"levelo_inurba_marseille","lat":43.33608,"lon":5.41038,"is_reserved":false,"is_disabled":false,"rental_uris":{"android":"levelo://app?vid=fceb5e88-6d7c-45a5-bb60-e217bbcba6e0","ios":"levelo://app?vid=fceb5e88-6d7c-45a5-bb60-e217bbcba6e0"},"vehicle_type_id":"4","last_reported":1702379173,"current_range_meters":17600,"station_id":"ce4bhqh2rcd13ifvqhmg","pricing_plan_id":"free"},{"bike_id":"eadcbc6d-88f3-4d54-966a-cf8eab6d6c5f","system_id":"levelo_inurba_marseille","lat":43.275625,"lon":5.384392,"is_reserved":false,"is_disabled":false,"rental_uris":{"android":"levelo://app?vid=eadcbc6d-88f3-4d54-966a-cf8eab6d6c5f","ios":"levelo://app?vid=eadcbc6d-88f3-4d54-966a-cf8eab6d6c5f"},"vehicle_type_id":"4","last_reported":1702379173,"current_range_meters":24000,"station_id":"ce4bhh92rcd13ifvqfi0","pricing_plan_id":"free"},{"bike_id":"89ce1cae-69a2-46ae-8218-2d6160c73e2d","system_id":"levelo_inurba_marseille","lat":43.279975,"lon":5.40009,"is_reserved":false,"is_disabled":false,"rental_uris":{"android":"levelo://app?vid=89ce1cae-69a2-46ae-8218-2d6160c73e2d","ios":"levelo://app?vid=89ce1cae-69a2-46ae-8218-2d6160c73e2d"},"vehicle_type_id":"4","last_reported":1702379173,"current_range_meters":6800,"station_id":"ce4bho92rcd13ifvqh4g","pricing_plan_id":"free"},{"bike_id":"b1dafd3a-a440-496f-9523-b1636836b00a","system_id":"levelo_inurba_marseille","lat":43.279975,"lon":5.40009,"is_reserved":false,"is_disabled":false,"rental_uris":{"android":"levelo://app?vid=b1dafd3a-a440-496f-9523-b1636836b00a","ios":"levelo://app?vid=b1dafd3a-a440-496f-9523-b1636836b00a"},"vehicle_type_id":"4","last_reported":1702379173,"current_range_meters":15200,"station_id":"ce4bho92rcd13ifvqh4g","pricing_plan_id":"free"},{"bike_id":"b1c028eb-0fe1-4afa-b35c-b9783a0e9537","system_id":"levelo_inurba_marseille","lat":43.31723,"lon":5.42405,"is_reserved":false,"is_disabled":false,"rental_uris":{"android":"levelo://app?vid=b1c028eb-0fe1-4afa-b35c-b9783a0e9537","ios":"levelo://app?vid=b1c028eb-0fe1-4afa-b35c-b9783a0e9537"},"vehicle_type_id":"4","last_reported":1702379173,"current_range_meters":6000,"station_id":"ce4bhp92rcd13ifvqhbg","pricing_plan_id":"free"},{"bike_id":"d26e7faf-67b6-49ac-bbb8-fbae8c3ca446","system_id":"levelo_inurba_marseille","lat":43.273129,"lon":5.390725,"is_reserved":false,"is_disabled":false,"rental_uris":{"android":"levelo://app?vid=d26e7faf-67b6-49ac-bbb8-fbae8c3ca446","ios":"levelo://app?vid=d26e7faf-67b6-49ac-bbb8-fbae8c3ca446"},"vehicle_type_id":"4","last_reported":1702379173,"current_range_meters":17600,"station_id":"ce4bhgp2rcd13ifvqfe0","pricing_plan_id":"free"},{"bike_id":"dab6bfc2-c9fd-4daa-a622-37368ecfa3b2","system_id":"levelo_inurba_marseille","lat":43.295511,"lon":5.422926,"is_reserved":false,"is_disabled":false,"rental_uris":{"android":"levelo://app?vid=dab6bfc2-c9fd-4daa-a622-37368ecfa3b2","ios":"levelo://app?vid=dab6bfc2-c9fd-4daa-a622-37368ecfa3b2"},"vehicle_type_id":"4","last_reported":1702379173,"current_range_meters":31200,"station_id":"ce4bhph2rcd13ifvqhdg","pricing_plan_id":"free"},{"bike_id":"840946d8-d9c9-440b-a8ee-14162bbd15ab","system_id":"levelo_inurba_marseille","lat":43.295511,"lon":5.422926,"is_reserved":false,"is_disabled":false,"rental_uris":{"android":"levelo://app?vid=840946d8-d9c9-440b-a8ee-14162bbd15ab","ios":"levelo://app?vid=840946d8-d9c9-440b-a8ee-14162bbd15ab"},"vehicle_type_id":"4","last_reported":1702379173,"current_range_meters":13200,"station_id":"ce4bhph2rcd13ifvqhdg","pricing_plan_id":"free"},{"bike_id":"18f06cf1-d5a7-4a16-b243-ff63553116c6","system_id":"levelo_inurba_marseille","lat":43.295523,"lon":5.422926,"is_reserved":false,"is_disabled":false,"rental_uris":{"android":"levelo://app?vid=18f06cf1-d5a7-4a16-b243-ff63553116c6","ios":"levelo://app?vid=18f06cf1-d5a7-4a16-b243-ff63553116c6"},"vehicle_type_id":"4","last_reported":1702379173,"current_range_meters":21600,"station_id":"ce4bhph2rcd13ifvqhdg","pricing_plan_id":"free"},{"bike_id":"61e87bfe-c6b2-41a9-b176-df825104b714","system_id":"levelo_inurba_marseille","lat":43.295511,"lon":5.422926,"is_reserved":false,"is_disabled":false,"rental_uris":{"android":"levelo://app?vid=61e87bfe-c6b2-41a9-b176-df825104b714","ios":"levelo://app?vid=61e87bfe-c6b2-41a9-b176-df825104b714"},"vehicle_type_id":"4","last_reported":1702379173,"current_range_meters":22800,"station_id":"ce4bhph2rcd13ifvqhdg","pricing_plan_id":"free"},{"bike_id":"c4373749-7ced-42c5-960f-a845b51592f4","system_id":"levelo_inurba_marseille","lat":43.279349,"lon":5.410457,"is_reserved":false,"is_disabled":false,"rental_uris":{"android":"levelo://app?vid=c4373749-7ced-42c5-960f-a845b51592f4","ios":"levelo://app?vid=c4373749-7ced-42c5-960f-a845b51592f4"},"vehicle_type_id":"4","last_reported":1702379173,"current_range_meters":3200,"station_id":"ce4bhnp2rcd13ifvqh0g","pricing_plan_id":"free"},{"bike_id":"8528ce59-9e43-4b78-9985-d549b886867a","system_id":"levelo_inurba_marseille","lat":43.27996,"lon":5.416624,"is_reserved":false,"is_disabled":false,"rental_uris":{"android":"levelo://app?vid=8528ce59-9e43-4b78-9985-d549b886867a","ios":"levelo://app?vid=8528ce59-9e43-4b78-9985-d549b886867a"},"vehicle_type_id":"4","last_reported":1702379173,"current_range_meters":25600,"station_id":"ce4bho12rcd13ifvqh1g","pricing_plan_id":"free"},{"bike_id":"14bc19f9-c5ac-4814-b202-5604c65f25d1","system_id":"levelo_inurba_marseille","lat":43.30801,"lon":5.43528,"is_reserved":false,"is_disabled":false,"rental_uris":{"android":"levelo://app?vid=14bc19f9-c5ac-4814-b202-5604c65f25d1","ios":"levelo://app?vid=14bc19f9-c5ac-4814-b202-5604c65f25d1"},"vehicle_type_id":"4","last_reported":1702379173,"current_range_meters":18000,"station_id":"ce4bhph2rcd13ifvqheg","pricing_plan_id":"free"},{"bike_id":"c976452c-83bc-4afb-b7d1-c0470614e582","system_id":"levelo_inurba_marseille","lat":43.269446,"lon":5.402481,"is_reserved":false,"is_disabled":false,"rental_uris":{"android":"levelo://app?vid=c976452c-83bc-4afb-b7d1-c0470614e582","ios":"levelo://app?vid=c976452c-83bc-4afb-b7d1-c0470614e582"},"vehicle_type_id":"4","last_reported":1702379173,"current_range_meters":20400,"station_id":"cjm6bp8fraef2m0cb0m0","pricing_plan_id":"free"},{"bike_id":"17f310a0-0d1a-4672-a054-6574c6d56593","system_id":"levelo_inurba_marseille","lat":43.262012,"lon":5.379307,"is_reserved":false,"is_disabled":false,"rental_uris":{"android":"levelo://app?vid=17f310a0-0d1a-4672-a054-6574c6d56593","ios":"levelo://app?vid=17f310a0-0d1a-4672-a054-6574c6d56593"},"vehicle_type_id":"4","last_reported":1702379173,"current_range_meters":16400,"station_id":"ce4bhjp2rcd13ifvqg90","pricing_plan_id":"free"},{"bike_id":"c37f4bb1-b5d3-432c-b1a9-9f57c890460c","system_id":"levelo_inurba_marseille","lat":43.271368,"lon":5.40928,"is_reserved":false,"is_disabled":false,"rental_uris":{"android":"levelo://app?vid=c37f4bb1-b5d3-432c-b1a9-9f57c890460c","ios":"levelo://app?vid=c37f4bb1-b5d3-432c-b1a9-9f57c890460c"},"vehicle_type_id":"4","last_reported":1702379173,"current_range_meters":30800,"station_id":"ce4bhl12rcd13ifvqgf0","pricing_plan_id":"free"},{"bike_id":"ed2a037b-9a83-4b16-b573-d588d78bf987","system_id":"levelo_inurba_marseille","lat":43.267959,"lon":5.402687,"is_reserved":false,"is_disabled":false,"rental_uris":{"android":"levelo://app?vid=ed2a037b-9a83-4b16-b573-d588d78bf987","ios":"levelo://app?vid=ed2a037b-9a83-4b16-b573-d588d78bf987"},"vehicle_type_id":"4","last_reported":1702379173,"current_range_meters":20400,"station_id":"ce501612rcd8frsf0b60","pricing_plan_id":"free"},{"bike_id":"f4e66617-d375-469f-a07f-6fbc25aa13c1","system_id":"levelo_inurba_marseille","lat":43.267959,"lon":5.402687,"is_reserved":false,"is_disabled":false,"rental_uris":{"android":"levelo://app?vid=f4e66617-d375-469f-a07f-6fbc25aa13c1","ios":"levelo://app?vid=f4e66617-d375-469f-a07f-6fbc25aa13c1"},"vehicle_type_id":"4","last_reported":1702379173,"current_range_meters":16400,"station_id":"ce501612rcd8frsf0b60","pricing_plan_id":"free"},{"bike_id":"71947f51-3f0a-4007-9b7a-bff5cbf63a6e","system_id":"levelo_inurba_marseille","lat":43.267959,"lon":5.402685,"is_reserved":false,"is_disabled":false,"rental_uris":{"android":"levelo://app?vid=71947f51-3f0a-4007-9b7a-bff5cbf63a6e","ios":"levelo://app?vid=71947f51-3f0a-4007-9b7a-bff5cbf63a6e"},"vehicle_type_id":"4","last_reported":1702379173,"current_range_meters":28000,"station_id":"ce501612rcd8frsf0b60","pricing_plan_id":"free"},{"bike_id":"7aff87a6-0602-470f-b435-fe3bba8d34b7","system_id":"levelo_inurba_marseille","lat":43.281558,"lon":5.426465,"is_reserved":false,"is_disabled":false,"rental_uris":{"android":"levelo://app?vid=7aff87a6-0602-470f-b435-fe3bba8d34b7","ios":"levelo://app?vid=7aff87a6-0602-470f-b435-fe3bba8d34b7"},"vehicle_type_id":"4","last_reported":1702379173,"current_range_meters":9600,"station_id":"","pricing_plan_id":"free"},{"bike_id":"c51d16be-6729-4d09-978b-9b4e7f7a9fbe","system_id":"levelo_inurba_marseille","lat":43.275028,"lon":5.424534,"is_reserved":false,"is_disabled":false,"rental_uris":{"android":"levelo://app?vid=c51d16be-6729-4d09-978b-9b4e7f7a9fbe","ios":"levelo://app?vid=c51d16be-6729-4d09-978b-9b4e7f7a9fbe"},"vehicle_type_id":"4","last_reported":1702379173,"current_range_meters":31600,"station_id":"ce4bhn92rcd13ifvqgrg","pricing_plan_id":"free"},{"bike_id":"0e5509cc-88fe-4461-8aeb-72ce783dbe39","system_id":"levelo_inurba_marseille","lat":43.275028,"lon":5.424534,"is_reserved":false,"is_disabled":false,"rental_uris":{"android":"levelo://app?vid=0e5509cc-88fe-4461-8aeb-72ce783dbe39","ios":"levelo://app?vid=0e5509cc-88fe-4461-8aeb-72ce783dbe39"},"vehicle_type_id":"4","last_reported":1702379173,"current_range_meters":31200,"station_id":"ce4bhn92rcd13ifvqgrg","pricing_plan_id":"free"},{"bike_id":"2904fadb-7bd9-4958-ab41-36e416d618b9","system_id":"levelo_inurba_marseille","lat":43.275028,"lon":5.424534,"is_reserved":false,"is_disabled":false,"rental_uris":{"android":"levelo://app?vid=2904fadb-7bd9-4958-ab41-36e416d618b9","ios":"levelo://app?vid=2904fadb-7bd9-4958-ab41-36e416d618b9"},"vehicle_type_id":"4","last_reported":1702379173,"current_range_meters":30400,"station_id":"ce4bhn92rcd13ifvqgrg","pricing_plan_id":"free"},{"bike_id":"dec147f5-ddbc-4bf4-ab31-623f88d81b57","system_id":"levelo_inurba_marseille","lat":43.275028,"lon":5.424534,"is_reserved":false,"is_disabled":false,"rental_uris":{"android":"levelo://app?vid=dec147f5-ddbc-4bf4-ab31-623f88d81b57","ios":"levelo://app?vid=dec147f5-ddbc-4bf4-ab31-623f88d81b57"},"vehicle_type_id":"4","last_reported":1702379173,"current_range_meters":21600,"station_id":"ce4bhn92rcd13ifvqgrg","pricing_plan_id":"free"},{"bike_id":"0dda4808-002f-4a15-88cd-8bd85bd87743","system_id":"levelo_inurba_marseille","lat":43.275028,"lon":5.424534,"is_reserved":false,"is_disabled":false,"rental_uris":{"android":"levelo://app?vid=0dda4808-002f-4a15-88cd-8bd85bd87743","ios":"levelo://app?vid=0dda4808-002f-4a15-88cd-8bd85bd87743"},"vehicle_type_id":"4","last_reported":1702379173,"current_range_meters":31600,"station_id":"ce4bhn92rcd13ifvqgrg","pricing_plan_id":"free"},{"bike_id":"577a97cb-4f59-4cd1-a29d-1d657ac4c0ea","system_id":"levelo_inurba_marseille","lat":43.275028,"lon":5.424534,"is_reserved":false,"is_disabled":false,"rental_uris":{"android":"levelo://app?vid=577a97cb-4f59-4cd1-a29d-1d657ac4c0ea","ios":"levelo://app?vid=577a97cb-4f59-4cd1-a29d-1d657ac4c0ea"},"vehicle_type_id":"4","last_reported":1702379173,"current_range_meters":31200,"station_id":"ce4bhn92rcd13ifvqgrg","pricing_plan_id":"free"},{"bike_id":"bde24fe8-8aa9-4e3d-828f-87958916caef","system_id":"levelo_inurba_marseille","lat":43.275028,"lon":5.424534,"is_reserved":false,"is_disabled":false,"rental_uris":{"android":"levelo://app?vid=bde24fe8-8aa9-4e3d-828f-87958916caef","ios":"levelo://app?vid=bde24fe8-8aa9-4e3d-828f-87958916caef"},"vehicle_type_id":"4","last_reported":1702379173,"current_range_meters":28400,"station_id":"ce4bhn92rcd13ifvqgrg","pricing_plan_id":"free"},{"bike_id":"db27c65a-0704-437a-9123-16bc6886bfa1","system_id":"levelo_inurba_marseille","lat":43.26086,"lon":5.397638,"is_reserved":false,"is_disabled":false,"rental_uris":{"android":"levelo://app?vid=db27c65a-0704-437a-9123-16bc6886bfa1","ios":"levelo://app?vid=db27c65a-0704-437a-9123-16bc6886bfa1"},"vehicle_type_id":"4","last_reported":1702379173,"current_range_meters":12400,"station_id":"","pricing_plan_id":"free"},{"bike_id":"18825a53-5f53-4e3f-9b29-229253e7e46b","system_id":"levelo_inurba_marseille","lat":43.25582,"lon":5.38229,"is_reserved":false,"is_disabled":false,"rental_uris":{"android":"levelo://app?vid=18825a53-5f53-4e3f-9b29-229253e7e46b","ios":"levelo://app?vid=18825a53-5f53-4e3f-9b29-229253e7e46b"},"vehicle_type_id":"4","last_reported":1702379173,"current_range_meters":28000,"station_id":"ce4bhih2rcd13ifvqfs0","pricing_plan_id":"free"},{"bike_id":"b4b605fd-101e-49fb-9a6d-6c2e220da34c","system_id":"levelo_inurba_marseille","lat":43.25579,"lon":5.38226,"is_reserved":false,"is_disabled":false,"rental_uris":{"android":"levelo://app?vid=b4b605fd-101e-49fb-9a6d-6c2e220da34c","ios":"levelo://app?vid=b4b605fd-101e-49fb-9a6d-6c2e220da34c"},"vehicle_type_id":"4","last_reported":1702379173,"current_range_meters":17600,"station_id":"ce4bhih2rcd13ifvqfs0","pricing_plan_id":"free"},{"bike_id":"a046e8bf-8362-429b-a2c2-fd8626748fd5","system_id":"levelo_inurba_marseille","lat":43.258224,"lon":5.394369,"is_reserved":false,"is_disabled":false,"rental_uris":{"android":"levelo://app?vid=a046e8bf-8362-429b-a2c2-fd8626748fd5","ios":"levelo://app?vid=a046e8bf-8362-429b-a2c2-fd8626748fd5"},"vehicle_type_id":"4","last_reported":1702379173,"current_range_meters":22000,"station_id":"ce4bhip2rcd13ifvqft0","pricing_plan_id":"free"},{"bike_id":"836e1920-f219-4e2a-8e87-661c31bd214f","system_id":"levelo_inurba_marseille","lat":43.25578,"lon":5.38232,"is_reserved":false,"is_disabled":false,"rental_uris":{"android":"levelo://app?vid=836e1920-f219-4e2a-8e87-661c31bd214f","ios":"levelo://app?vid=836e1920-f219-4e2a-8e87-661c31bd214f"},"vehicle_type_id":"4","last_reported":1702379173,"current_range_meters":7200,"station_id":"ce4bhih2rcd13ifvqfs0","pricing_plan_id":"free"},{"bike_id":"c4bd6657-b158-4eea-85cd-7ba94a73eec9","system_id":"levelo_inurba_marseille","lat":43.270721,"lon":5.422764,"is_reserved":false,"is_disabled":false,"rental_uris":{"android":"levelo://app?vid=c4bd6657-b158-4eea-85cd-7ba94a73eec9","ios":"levelo://app?vid=c4bd6657-b158-4eea-85cd-7ba94a73eec9"},"vehicle_type_id":"4","last_reported":1702379173,"current_range_meters":31200,"station_id":"ce4bhk92rcd13ifvqgb0","pricing_plan_id":"free"},{"bike_id":"2e26fce6-852a-420b-8cec-9556332dfe19","system_id":"levelo_inurba_marseille","lat":43.270721,"lon":5.422764,"is_reserved":false,"is_disabled":false,"rental_uris":{"android":"levelo://app?vid=2e26fce6-852a-420b-8cec-9556332dfe19","ios":"levelo://app?vid=2e26fce6-852a-420b-8cec-9556332dfe19"},"vehicle_type_id":"4","last_reported":1702379173,"current_range_meters":21200,"station_id":"ce4bhk92rcd13ifvqgb0","pricing_plan_id":"free"},{"bike_id":"b53c5dbf-1080-415c-88cd-967020f6ef1f","system_id":"levelo_inurba_marseille","lat":43.25937,"lon":5.40907,"is_reserved":false,"is_disabled":false,"rental_uris":{"android":"levelo://app?vid=b53c5dbf-1080-415c-88cd-967020f6ef1f","ios":"levelo://app?vid=b53c5dbf-1080-415c-88cd-967020f6ef1f"},"vehicle_type_id":"4","last_reported":1702379173,"current_range_meters":19600,"station_id":"ce4bhm92rcd13ifvqglg","pricing_plan_id":"free"},{"bike_id":"3dbd92bf-e0af-40c6-9b48-7dbcf151cd06","system_id":"levelo_inurba_marseille","lat":43.25933,"lon":5.40909,"is_reserved":false,"is_disabled":false,"rental_uris":{"android":"levelo://app?vid=3dbd92bf-e0af-40c6-9b48-7dbcf151cd06","ios":"levelo://app?vid=3dbd92bf-e0af-40c6-9b48-7dbcf151cd06"},"vehicle_type_id":"4","last_reported":1702379173,"current_range_meters":18400,"station_id":"ce4bhm92rcd13ifvqglg","pricing_plan_id":"free"},{"bike_id":"8d5859da-2238-4d84-8bdd-2adb4426f3d2","system_id":"levelo_inurba_marseille","lat":43.259013,"lon":5.409301,"is_reserved":false,"is_disabled":false,"rental_uris":{"android":"levelo://app?vid=8d5859da-2238-4d84-8bdd-2adb4426f3d2","ios":"levelo://app?vid=8d5859da-2238-4d84-8bdd-2adb4426f3d2"},"vehicle_type_id":"4","last_reported":1702379173,"current_range_meters":19200,"station_id":"ce4bhm92rcd13ifvqglg","pricing_plan_id":"free"},{"bike_id":"f4fee8f4-2ef7-47b0-8906-5345dafd226c","system_id":"levelo_inurba_marseille","lat":43.250009,"lon":5.389195,"is_reserved":false,"is_disabled":false,"rental_uris":{"android":"levelo://app?vid=f4fee8f4-2ef7-47b0-8906-5345dafd226c","ios":"levelo://app?vid=f4fee8f4-2ef7-47b0-8906-5345dafd226c"},"vehicle_type_id":"4","last_reported":1702379173,"current_range_meters":26800,"station_id":"ce4bhgp2rcd13ifvqfd0","pricing_plan_id":"free"},{"bike_id":"21207f3b-85e7-4784-89af-7943914cfb7f","system_id":"levelo_inurba_marseille","lat":43.250023,"lon":5.38919,"is_reserved":false,"is_disabled":false,"rental_uris":{"android":"levelo://app?vid=21207f3b-85e7-4784-89af-7943914cfb7f","ios":"levelo://app?vid=21207f3b-85e7-4784-89af-7943914cfb7f"},"vehicle_type_id":"4","last_reported":1702379173,"current_range_meters":26400,"station_id":"ce4bhgp2rcd13ifvqfd0","pricing_plan_id":"free"},{"bike_id":"54ce9f32-83e1-4e81-a1bc-f645e7feb436","system_id":"levelo_inurba_marseille","lat":43.2479,"lon":5.374457,"is_reserved":false,"is_disabled":false,"rental_uris":{"android":"levelo://app?vid=54ce9f32-83e1-4e81-a1bc-f645e7feb436","ios":"levelo://app?vid=54ce9f32-83e1-4e81-a1bc-f645e7feb436"},"vehicle_type_id":"4","last_reported":1702379173,"current_range_meters":27200,"station_id":"ce4bhgh2rcd13ifvqfb0","pricing_plan_id":"free"},{"bike_id":"694ba153-5c8d-4823-bd4f-be01e5b51b96","system_id":"levelo_inurba_marseille","lat":43.250966,"lon":5.395186,"is_reserved":false,"is_disabled":false,"rental_uris":{"android":"levelo://app?vid=694ba153-5c8d-4823-bd4f-be01e5b51b96","ios":"levelo://app?vid=694ba153-5c8d-4823-bd4f-be01e5b51b96"},"vehicle_type_id":"4","last_reported":1702379173,"current_range_meters":25600,"station_id":"ce4bhm12rcd13ifvqgkg","pricing_plan_id":"free"},{"bike_id":"45d9ac87-8201-47fe-832e-143957f2122c","system_id":"levelo_inurba_marseille","lat":43.250966,"lon":5.395186,"is_reserved":false,"is_disabled":false,"rental_uris":{"android":"levelo://app?vid=45d9ac87-8201-47fe-832e-143957f2122c","ios":"levelo://app?vid=45d9ac87-8201-47fe-832e-143957f2122c"},"vehicle_type_id":"4","last_reported":1702379173,"current_range_meters":18800,"station_id":"ce4bhm12rcd13ifvqgkg","pricing_plan_id":"free"},{"bike_id":"f9969e02-92f7-42b9-b444-a4da8859404f","system_id":"levelo_inurba_marseille","lat":43.250966,"lon":5.395186,"is_reserved":false,"is_disabled":false,"rental_uris":{"android":"levelo://app?vid=f9969e02-92f7-42b9-b444-a4da8859404f","ios":"levelo://app?vid=f9969e02-92f7-42b9-b444-a4da8859404f"},"vehicle_type_id":"4","last_reported":1702379173,"current_range_meters":20400,"station_id":"ce4bhm12rcd13ifvqgkg","pricing_plan_id":"free"},{"bike_id":"48a6c0a2-6f84-4616-89bd-6d9ccd42bf32","system_id":"levelo_inurba_marseille","lat":43.25102,"lon":5.403214,"is_reserved":false,"is_disabled":false,"rental_uris":{"android":"levelo://app?vid=48a6c0a2-6f84-4616-89bd-6d9ccd42bf32","ios":"levelo://app?vid=48a6c0a2-6f84-4616-89bd-6d9ccd42bf32"},"vehicle_type_id":"4","last_reported":1702379173,"current_range_meters":30000,"station_id":"ce4bhlh2rcd13ifvqgig","pricing_plan_id":"free"},{"bike_id":"b5ca186d-8a35-47bd-845d-b4d6fc683c32","system_id":"levelo_inurba_marseille","lat":43.25102,"lon":5.403214,"is_reserved":false,"is_disabled":false,"rental_uris":{"android":"levelo://app?vid=b5ca186d-8a35-47bd-845d-b4d6fc683c32","ios":"levelo://app?vid=b5ca186d-8a35-47bd-845d-b4d6fc683c32"},"vehicle_type_id":"4","last_reported":1702379173,"current_range_meters":18800,"station_id":"ce4bhlh2rcd13ifvqgig","pricing_plan_id":"free"},{"bike_id":"31d9638c-3ea5-49d9-ae1f-e4883bd389a1","system_id":"levelo_inurba_marseille","lat":43.24543,"lon":5.37323,"is_reserved":false,"is_disabled":false,"rental_uris":{"android":"levelo://app?vid=31d9638c-3ea5-49d9-ae1f-e4883bd389a1","ios":"levelo://app?vid=31d9638c-3ea5-49d9-ae1f-e4883bd389a1"},"vehicle_type_id":"4","last_reported":1702379173,"current_range_meters":0,"station_id":"","pricing_plan_id":"free"},{"bike_id":"2d277e5f-c3b8-4f86-8ab9-52877a34e39c","system_id":"levelo_inurba_marseille","lat":43.246461,"lon":5.389014,"is_reserved":false,"is_disabled":false,"rental_uris":{"android":"levelo://app?vid=2d277e5f-c3b8-4f86-8ab9-52877a34e39c","ios":"levelo://app?vid=2d277e5f-c3b8-4f86-8ab9-52877a34e39c"},"vehicle_type_id":"4","last_reported":1702379173,"current_range_meters":21600,"station_id":"ce4bhg12rcd13ifvqf60","pricing_plan_id":"free"},{"bike_id":"116bf660-cc16-415d-a9ff-29b0926d7c1c","system_id":"levelo_inurba_marseille","lat":43.243884,"lon":5.370737,"is_reserved":false,"is_disabled":false,"rental_uris":{"android":"levelo://app?vid=116bf660-cc16-415d-a9ff-29b0926d7c1c","ios":"levelo://app?vid=116bf660-cc16-415d-a9ff-29b0926d7c1c"},"vehicle_type_id":"4","last_reported":1702379173,"current_range_meters":28400,"station_id":"ce4bhhh2rcd13ifvqfk0","pricing_plan_id":"free"},{"bike_id":"79b57fd5-88de-4c00-b198-904e982e83b5","system_id":"levelo_inurba_marseille","lat":43.245581,"lon":5.395069,"is_reserved":false,"is_disabled":false,"rental_uris":{"android":"levelo://app?vid=79b57fd5-88de-4c00-b198-904e982e83b5","ios":"levelo://app?vid=79b57fd5-88de-4c00-b198-904e982e83b5"},"vehicle_type_id":"4","last_reported":1702379173,"current_range_meters":18400,"station_id":"ce4bhlp2rcd13ifvqgjg","pricing_plan_id":"free"},{"bike_id":"40b46816-5d8f-480e-9ab0-89a22c89c833","system_id":"levelo_inurba_marseille","lat":43.245581,"lon":5.395069,"is_reserved":false,"is_disabled":false,"rental_uris":{"android":"levelo://app?vid=40b46816-5d8f-480e-9ab0-89a22c89c833","ios":"levelo://app?vid=40b46816-5d8f-480e-9ab0-89a22c89c833"},"vehicle_type_id":"4","last_reported":1702379173,"current_range_meters":10400,"station_id":"ce4bhlp2rcd13ifvqgjg","pricing_plan_id":"free"},{"bike_id":"a858f3ae-eb10-4d86-a6e2-f1435cc80342","system_id":"levelo_inurba_marseille","lat":43.245581,"lon":5.395069,"is_reserved":false,"is_disabled":false,"rental_uris":{"android":"levelo://app?vid=a858f3ae-eb10-4d86-a6e2-f1435cc80342","ios":"levelo://app?vid=a858f3ae-eb10-4d86-a6e2-f1435cc80342"},"vehicle_type_id":"4","last_reported":1702379173,"current_range_meters":27200,"station_id":"ce4bhlp2rcd13ifvqgjg","pricing_plan_id":"free"},{"bike_id":"c01505ef-a963-4829-a879-e7ddf0d77ef6","system_id":"levelo_inurba_marseille","lat":43.245581,"lon":5.395069,"is_reserved":false,"is_disabled":false,"rental_uris":{"android":"levelo://app?vid=c01505ef-a963-4829-a879-e7ddf0d77ef6","ios":"levelo://app?vid=c01505ef-a963-4829-a879-e7ddf0d77ef6"},"vehicle_type_id":"4","last_reported":1702379173,"current_range_meters":4800,"station_id":"ce4bhlp2rcd13ifvqgjg","pricing_plan_id":"free"},{"bike_id":"7f16109b-0556-4b97-951f-9783cbc06adf","system_id":"levelo_inurba_marseille","lat":43.239588,"lon":5.366238,"is_reserved":false,"is_disabled":false,"rental_uris":{"android":"levelo://app?vid=7f16109b-0556-4b97-951f-9783cbc06adf","ios":"levelo://app?vid=7f16109b-0556-4b97-951f-9783cbc06adf"},"vehicle_type_id":"4","last_reported":1702379173,"current_range_meters":29200,"station_id":"ce4bhi12rcd13ifvqfp0","pricing_plan_id":"free"},{"bike_id":"a252b06b-9958-4176-879b-301288bcf11a","system_id":"levelo_inurba_marseille","lat":43.2418,"lon":5.39725,"is_reserved":false,"is_disabled":false,"rental_uris":{"android":"levelo://app?vid=a252b06b-9958-4176-879b-301288bcf11a","ios":"levelo://app?vid=a252b06b-9958-4176-879b-301288bcf11a"},"vehicle_type_id":"4","last_reported":1702379173,"current_range_meters":20800,"station_id":"ce4bhn12rcd13ifvqgpg","pricing_plan_id":"free"},{"bike_id":"e5f8a3f9-ad33-4c96-8f80-c9bb436ceb1b","system_id":"levelo_inurba_marseille","lat":43.235771,"lon":5.410434,"is_reserved":false,"is_disabled":false,"rental_uris":{"android":"levelo://app?vid=e5f8a3f9-ad33-4c96-8f80-c9bb436ceb1b","ios":"levelo://app?vid=e5f8a3f9-ad33-4c96-8f80-c9bb436ceb1b"},"vehicle_type_id":"4","last_reported":1702379173,"current_range_meters":16000,"station_id":"","pricing_plan_id":"free"},{"bike_id":"5c5d811b-920e-4dc2-8b5a-a33a7df9bc05","system_id":"levelo_inurba_marseille","lat":43.231562,"lon":5.436933,"is_reserved":false,"is_disabled":false,"rental_uris":{"android":"levelo://app?vid=5c5d811b-920e-4dc2-8b5a-a33a7df9bc05","ios":"levelo://app?vid=5c5d811b-920e-4dc2-8b5a-a33a7df9bc05"},"vehicle_type_id":"4","last_reported":1702379173,"current_range_meters":28400,"station_id":"ce4bhmp2rcd13ifvqgog","pricing_plan_id":"free"},{"bike_id":"8891a0f4-62f7-41f4-a47b-6a9ecbe8bd0d","system_id":"levelo_inurba_marseille","lat":43.231562,"lon":5.436933,"is_reserved":false,"is_disabled":false,"rental_uris":{"android":"levelo://app?vid=8891a0f4-62f7-41f4-a47b-6a9ecbe8bd0d","ios":"levelo://app?vid=8891a0f4-62f7-41f4-a47b-6a9ecbe8bd0d"},"vehicle_type_id":"4","last_reported":1702379173,"current_range_meters":10400,"station_id":"ce4bhmp2rcd13ifvqgog","pricing_plan_id":"free"},{"bike_id":"5b1e43e1-157b-41db-80f1-c39aaeb1c62f","system_id":"levelo_inurba_marseille","lat":43.231562,"lon":5.436933,"is_reserved":false,"is_disabled":false,"rental_uris":{"android":"levelo://app?vid=5b1e43e1-157b-41db-80f1-c39aaeb1c62f","ios":"levelo://app?vid=5b1e43e1-157b-41db-80f1-c39aaeb1c62f"},"vehicle_type_id":"4","last_reported":1702379173,"current_range_meters":10000,"station_id":"ce4bhmp2rcd13ifvqgog","pricing_plan_id":"free"},{"bike_id":"b98a457e-cf5f-41f0-830e-89a07a2fd902","system_id":"levelo_inurba_marseille","lat":43.231562,"lon":5.436933,"is_reserved":false,"is_disabled":false,"rental_uris":{"android":"levelo://app?vid=b98a457e-cf5f-41f0-830e-89a07a2fd902","ios":"levelo://app?vid=b98a457e-cf5f-41f0-830e-89a07a2fd902"},"vehicle_type_id":"4","last_reported":1702379173,"current_range_meters":24000,"station_id":"ce4bhmp2rcd13ifvqgog","pricing_plan_id":"free"},{"bike_id":"b1e3cd70-38f8-4d10-854a-5c0a5d45a7ae","system_id":"levelo_inurba_marseille","lat":43.231562,"lon":5.436933,"is_reserved":false,"is_disabled":false,"rental_uris":{"android":"levelo://app?vid=b1e3cd70-38f8-4d10-854a-5c0a5d45a7ae","ios":"levelo://app?vid=b1e3cd70-38f8-4d10-854a-5c0a5d45a7ae"},"vehicle_type_id":"4","last_reported":1702379173,"current_range_meters":5200,"station_id":"ce4bhmp2rcd13ifvqgog","pricing_plan_id":"free"},{"bike_id":"d586be60-cf27-4933-a60a-529823e68f4b","system_id":"levelo_inurba_marseille","lat":43.23152,"lon":5.43722,"is_reserved":false,"is_disabled":false,"rental_uris":{"android":"levelo://app?vid=d586be60-cf27-4933-a60a-529823e68f4b","ios":"levelo://app?vid=d586be60-cf27-4933-a60a-529823e68f4b"},"vehicle_type_id":"4","last_reported":1702379173,"current_range_meters":6400,"station_id":"ce4bhmp2rcd13ifvqgog","pricing_plan_id":"free"}]}}