{"last_updated":1728385740,"ttl":60,"version":"2.2","data":{"bikes":[{"bike_id":"48f439cd-319f-45c3-b366-6fef2beedbf8","system_id":"levelo_inurba_marseille","lat":43.28099,"lon":5.37842,"is_reserved":false,"is_disabled":false,"rental_uris":{"android":"levelo://app?vid=48f439cd-319f-45c3-b366-6fef2beedbf8","ios":"levelo://app?vid=48f439cd-319f-45c3-b366-6fef2beedbf8"},"vehicle_type_id":"4","last_reported":1728385741,"current_range_meters":18000,"station_id":"ce4bha12rcd13ifvqee0","pricing_plan_id":"cebpf4jnsgd1na2vs0mg"},{"bike_id":"68cc9b2e-3bdd-4866-a986-7cead00d4cfc","system_id":"levelo_inurba_marseille","lat":43.33745,"lon":5.37444,"is_reserved":false,"is_disabled":false,"rental_uris":{"android":"levelo://app?vid=68cc9b2e-3bdd-4866-a986-7cead00d4cfc","ios":"levelo://app?vid=68cc9b2e-3bdd-4866-a986-7cead00d4cfc"},"vehicle_type_id":"4","last_reported":1728385741,"current_range_meters":36000,"station_id":"","pricing_plan_id":"cebpf4jnsgd1na2vs0mg"},{"bike_id":"d2cda947-bc72-4eba-90d4-33408ac6de21","system_id":"levelo_inurba_marseille","lat":43.28409,"lon":5.34992,"is_reserved":false,"is_disabled":false,"rental_uris":{"android":"levelo://app?vid=d2cda947-bc72-4eba-90d4-33408ac6de21","ios":"levelo://app?vid=d2cda947-bc72-4eba-90d4-33408ac6de21"},"vehicle_type_id":"4","last_reported":1728385741,"current_range_meters":19600,"station_id":"ce4bhbh2rcd13ifvqepg","pricing_plan_id":"cebpf4jnsgd1na2vs0mg"},{"bike_id":"3edccbad-c604-40df-acb2-6e9d91b67298","system_id":"levelo_inurba_marseille","lat":43.23053,"lon":5.35494,"is_reserved":false,"is_disabled":false,"rental_uris":{"android":"levelo://app?vid=3edccbad-c604-40df-acb2-6e9d91b67298","ios":"levelo://app?vid=3edccbad-c604-40df-acb2-6e9d91b67298"},"vehicle_type_id":"4","last_reported":1728385741,"current_range_meters":16000,"station_id":"cpo3342slgdg3j2ifvpg","pricing_plan_id":"cebpf4jnsgd1na2vs0mg"},{"bike_id":"7ea51ea4-d745-4ea8-96ac-f72af999e745","system_id":"levelo_inurba_marseille","lat":43.24179,"lon":5.39719,"is_reserved":false,"is_disabled":false,"rental_uris":{"android":"levelo://app?vid=7ea51ea4-d745-4ea8-96ac-f72af999e745","ios":"levelo://app?vid=7ea51ea4-d745-4ea8-96ac-f72af999e745"},"vehicle_type_id":"4","last_reported":1728385741,"current_range_meters":3200,"station_id":"ce4bhn12rcd13ifvqgpg","pricing_plan_id":"cebpf4jnsgd1na2vs0mg"},{"bike_id":"ad56cfa8-28b7-4ad0-94da-f839654c0a07","system_id":"levelo_inurba_marseille","lat":43.29425,"lon":5.39748,"is_reserved":false,"is_disabled":false,"rental_uris":{"android":"levelo://app?vid=ad56cfa8-28b7-4ad0-94da-f839654c0a07","ios":"levelo://app?vid=ad56cfa8-28b7-4ad0-94da-f839654c0a07"},"vehicle_type_id":"4","last_reported":1728385741,"current_range_meters":16400,"station_id":"ce4bh3h2rcd13ifvqdo0","pricing_plan_id":"cebpf4jnsgd1na2vs0mg"},{"bike_id":"cdf2ce0d-6041-4c75-8e4c-75c688e5e7f7","system_id":"levelo_inurba_marseille","lat":43.29569,"lon":5.37515,"is_reserved":false,"is_disabled":false,"rental_uris":{"android":"levelo://app?vid=cdf2ce0d-6041-4c75-8e4c-75c688e5e7f7","ios":"levelo://app?vid=cdf2ce0d-6041-4c75-8e4c-75c688e5e7f7"},"vehicle_type_id":"4","last_reported":1728385741,"current_range_meters":32000,"station_id":"ce4bgh92rcd13ifvqb50","pricing_plan_id":"cebpf4jnsgd1na2vs0mg"},{"bike_id":"47617a5e-c41b-4408-ab77-055fdecb0d7d","system_id":"levelo_inurba_marseille","lat":43.30586,"lon":5.39358,"is_reserved":false,"is_disabled":false,"rental_uris":{"android":"levelo://app?vid=47617a5e-c41b-4408-ab77-055fdecb0d7d","ios":"levelo://app?vid=47617a5e-c41b-4408-ab77-055fdecb0d7d"},"vehicle_type_id":"4","last_reported":1728385741,"current_range_meters":33600,"station_id":"ce4bh0p2rcd13ifvqd80","pricing_plan_id":"cebpf4jnsgd1na2vs0mg"},{"bike_id":"c7d7faca-a432-4c26-a14a-4fa84fa7e9dd","system_id":"levelo_inurba_marseille","lat":43.30593,"lon":5.39355,"is_reserved":false,"is_disabled":false,"rental_uris":{"android":"levelo://app?vid=c7d7faca-a432-4c26-a14a-4fa84fa7e9dd","ios":"levelo://app?vid=c7d7faca-a432-4c26-a14a-4fa84fa7e9dd"},"vehicle_type_id":"4","last_reported":1728385741,"current_range_meters":36800,"station_id":"ce4bh0p2rcd13ifvqd80","pricing_plan_id":"cebpf4jnsgd1na2vs0mg"},{"bike_id":"7f8896c9-e044-4169-ba02-75989da632b5","system_id":"levelo_inurba_marseille","lat":43.24812,"lon":5.37462,"is_reserved":false,"is_disabled":false,"rental_uris":{"android":"levelo://app?vid=7f8896c9-e044-4169-ba02-75989da632b5","ios":"levelo://app?vid=7f8896c9-e044-4169-ba02-75989da632b5"},"vehicle_type_id":"4","last_reported":1728385741,"current_range_meters":38000,"station_id":"ce4bhgh2rcd13ifvqfb0","pricing_plan_id":"cebpf4jnsgd1na2vs0mg"},{"bike_id":"a3cabec8-d812-47ad-86e1-e5e79f86d4c6","system_id":"levelo_inurba_marseille","lat":43.34137,"lon":5.40909,"is_reserved":false,"is_disabled":false,"rental_uris":{"android":"levelo://app?vid=a3cabec8-d812-47ad-86e1-e5e79f86d4c6","ios":"levelo://app?vid=a3cabec8-d812-47ad-86e1-e5e79f86d4c6"},"vehicle_type_id":"4","last_reported":1728385741,"current_range_meters":38800,"station_id":"ce4bhqh2rcd13ifvqhlg","pricing_plan_id":"cebpf4jnsgd1na2vs0mg"},{"bike_id":"8d618246-4861-4e14-930c-693009ac5bad","system_id":"levelo_inurba_marseille","lat":43.30139,"lon":5.3877,"is_reserved":false,"is_disabled":false,"rental_uris":{"android":"levelo://app?vid=8d618246-4861-4e14-930c-693009ac5bad","ios":"levelo://app?vid=8d618246-4861-4e14-930c-693009ac5bad"},"vehicle_type_id":"4","last_reported":1728385741,"current_range_meters":27200,"station_id":"ce4bghh2rcd13ifvqb60","pricing_plan_id":"cebpf4jnsgd1na2vs0mg"},{"bike_id":"c605ca90-53cc-4212-ba21-30fe1e413775","system_id":"levelo_inurba_marseille","lat":43.29709,"lon":5.36597,"is_reserved":false,"is_disabled":false,"rental_uris":{"android":"levelo://app?vid=c605ca90-53cc-4212-ba21-30fe1e413775","ios":"levelo://app?vid=c605ca90-53cc-4212-ba21-30fe1e413775"},"vehicle_type_id":"4","last_reported":1728385741,"current_range_meters":39200,"station_id":"ce4bgn12rcd13ifvqbt0","pricing_plan_id":"cebpf4jnsgd1na2vs0mg"},{"bike_id":"d41cbd31-7241-40f7-a851-b67ad9eeeb00","system_id":"levelo_inurba_marseille","lat":43.31489,"lon":5.37311,"is_reserved":false,"is_disabled":false,"rental_uris":{"android":"levelo://app?vid=d41cbd31-7241-40f7-a851-b67ad9eeeb00","ios":"levelo://app?vid=d41cbd31-7241-40f7-a851-b67ad9eeeb00"},"vehicle_type_id":"4","last_reported":1728385741,"current_range_meters":26800,"station_id":"ce4bgt12rcd13ifvqcd0","pricing_plan_id":"cebpf4jnsgd1na2vs0mg"},{"bike_id":"81b07a05-4c57-4e76-99d6-5f6e3acbb201","system_id":"levelo_inurba_marseille","lat":43.23062,"lon":5.35496,"is_reserved":false,"is_disabled":false,"rental_uris":{"android":"levelo://app?vid=81b07a05-4c57-4e76-99d6-5f6e3acbb201","ios":"levelo://app?vid=81b07a05-4c57-4e76-99d6-5f6e3acbb201"},"vehicle_type_id":"4","last_reported":1728385741,"current_range_meters":7200,"station_id":"cpo3342slgdg3j2ifvpg","pricing_plan_id":"cebpf4jnsgd1na2vs0mg"},{"bike_id":"553df947-caf6-4536-a36f-f5b78240b269","system_id":"levelo_inurba_marseille","lat":43.33024,"lon":5.39041,"is_reserved":false,"is_disabled":false,"rental_uris":{"android":"levelo://app?vid=553df947-caf6-4536-a36f-f5b78240b269","ios":"levelo://app?vid=553df947-caf6-4536-a36f-f5b78240b269"},"vehicle_type_id":"4","last_reported":1728385741,"current_range_meters":30000,"station_id":"ce4bhr92rcd13ifvqhrg","pricing_plan_id":"cebpf4jnsgd1na2vs0mg"},{"bike_id":"c3361931-5da1-42a6-a7c2-050b90075a79","system_id":"levelo_inurba_marseille","lat":43.2923,"lon":5.40057,"is_reserved":false,"is_disabled":false,"rental_uris":{"android":"levelo://app?vid=c3361931-5da1-42a6-a7c2-050b90075a79","ios":"levelo://app?vid=c3361931-5da1-42a6-a7c2-050b90075a79"},"vehicle_type_id":"4","last_reported":1728385741,"current_range_meters":8400,"station_id":"ce4bh312rcd13ifvqdk0","pricing_plan_id":"cebpf4jnsgd1na2vs0mg"},{"bike_id":"5ee247ae-fbdb-4b53-aaae-5c994fd8f921","system_id":"levelo_inurba_marseille","lat":43.3123,"lon":5.36867,"is_reserved":false,"is_disabled":false,"rental_uris":{"android":"levelo://app?vid=5ee247ae-fbdb-4b53-aaae-5c994fd8f921","ios":"levelo://app?vid=5ee247ae-fbdb-4b53-aaae-5c994fd8f921"},"vehicle_type_id":"4","last_reported":1728385741,"current_range_meters":14800,"station_id":"ce4bgl92rcd13ifvqbq0","pricing_plan_id":"cebpf4jnsgd1na2vs0mg"},{"bike_id":"cad67f7f-ae8c-43ad-a22c-98095aefed5e","system_id":"levelo_inurba_marseille","lat":43.29787,"lon":5.37089,"is_reserved":false,"is_disabled":false,"rental_uris":{"android":"levelo://app?vid=cad67f7f-ae8c-43ad-a22c-98095aefed5e","ios":"levelo://app?vid=cad67f7f-ae8c-43ad-a22c-98095aefed5e"},"vehicle_type_id":"4","last_reported":1728385741,"current_range_meters":36400,"station_id":"ce4bgop2rcd13ifvqc1g","pricing_plan_id":"cebpf4jnsgd1na2vs0mg"},{"bike_id":"3e9b5423-574c-4775-b0dd-2a9509f01e21","system_id":"levelo_inurba_marseille","lat":43.29277,"lon":5.40124,"is_reserved":false,"is_disabled":false,"rental_uris":{"android":"levelo://app?vid=3e9b5423-574c-4775-b0dd-2a9509f01e21","ios":"levelo://app?vid=3e9b5423-574c-4775-b0dd-2a9509f01e21"},"vehicle_type_id":"4","last_reported":1728385741,"current_range_meters":24800,"station_id":"ce4bh312rcd13ifvqdk0","pricing_plan_id":"cebpf4jnsgd1na2vs0mg"},{"bike_id":"d4a85dd9-ddac-4b6a-a8eb-3951b95fa696","system_id":"levelo_inurba_marseille","lat":43.261386,"lon":5.397413,"is_reserved":false,"is_disabled":false,"rental_uris":{"android":"levelo://app?vid=d4a85dd9-ddac-4b6a-a8eb-3951b95fa696","ios":"levelo://app?vid=d4a85dd9-ddac-4b6a-a8eb-3951b95fa696"},"vehicle_type_id":"4","last_reported":1728385741,"current_range_meters":12000,"station_id":"ce4bhnh2rcd13ifvqgug","pricing_plan_id":"cebpf4jnsgd1na2vs0mg"},{"bike_id":"9f4b1d8a-a409-48fd-ba73-4bc3dfb4e229","system_id":"levelo_inurba_marseille","lat":43.24074,"lon":5.37763,"is_reserved":false,"is_disabled":false,"rental_uris":{"android":"levelo://app?vid=9f4b1d8a-a409-48fd-ba73-4bc3dfb4e229","ios":"levelo://app?vid=9f4b1d8a-a409-48fd-ba73-4bc3dfb4e229"},"vehicle_type_id":"4","last_reported":1728385741,"current_range_meters":22800,"station_id":"ce4bhnp2rcd13ifvqgvg","pricing_plan_id":"cebpf4jnsgd1na2vs0mg"},{"bike_id":"9330c9f5-8e0e-4af5-bf04-969ddac6d929","system_id":"levelo_inurba_marseille","lat":43.337444,"lon":5.374475,"is_reserved":false,"is_disabled":false,"rental_uris":{"android":"levelo://app?vid=9330c9f5-8e0e-4af5-bf04-969ddac6d929","ios":"levelo://app?vid=9330c9f5-8e0e-4af5-bf04-969ddac6d929"},"vehicle_type_id":"4","last_reported":1728385741,"current_range_meters":25200,"station_id":"","pricing_plan_id":"cebpf4jnsgd1na2vs0mg"},{"bike_id":"7f22cb8f-89d4-4b60-a0b9-407c6db75e9f","system_id":"levelo_inurba_marseille","lat":43.33752,"lon":5.37448,"is_reserved":false,"is_disabled":false,"rental_uris":{"android":"levelo://app?vid=7f22cb8f-89d4-4b60-a0b9-407c6db75e9f","ios":"levelo://app?vid=7f22cb8f-89d4-4b60-a0b9-407c6db75e9f"},"vehicle_type_id":"4","last_reported":1728385741,"current_range_meters":31200,"station_id":"","pricing_plan_id":"cebpf4jnsgd1na2vs0mg"},{"bike_id":"61de016e-88e3-4c2c-b34f-c73ad084c1b3","system_id":"levelo_inurba_marseille","lat":43.26493,"lon":5.39547,"is_reserved":false,"is_disabled":false,"rental_uris":{"android":"levelo://app?vid=61de016e-88e3-4c2c-b34f-c73ad084c1b3","ios":"levelo://app?vid=61de016e-88e3-4c2c-b34f-c73ad084c1b3"},"vehicle_type_id":"4","last_reported":1728385741,"current_range_meters":28000,"station_id":"ce4bhi12rcd13ifvqfq0","pricing_plan_id":"cebpf4jnsgd1na2vs0mg"},{"bike_id":"663d807d-5236-4795-8907-d41427101515","system_id":"levelo_inurba_marseille","lat":43.33019,"lon":5.39033,"is_reserved":false,"is_disabled":false,"rental_uris":{"android":"levelo://app?vid=663d807d-5236-4795-8907-d41427101515","ios":"levelo://app?vid=663d807d-5236-4795-8907-d41427101515"},"vehicle_type_id":"4","last_reported":1728385741,"current_range_meters":38000,"station_id":"ce4bhr92rcd13ifvqhrg","pricing_plan_id":"cebpf4jnsgd1na2vs0mg"},{"bike_id":"0190a491-52c0-46a5-be20-b72d156a36de","system_id":"levelo_inurba_marseille","lat":43.312754,"lon":5.40166,"is_reserved":false,"is_disabled":false,"rental_uris":{"android":"levelo://app?vid=0190a491-52c0-46a5-be20-b72d156a36de","ios":"levelo://app?vid=0190a491-52c0-46a5-be20-b72d156a36de"},"vehicle_type_id":"4","last_reported":1728385741,"current_range_meters":32800,"station_id":"ce4bh092rcd13ifvqd30","pricing_plan_id":"cebpf4jnsgd1na2vs0mg"},{"bike_id":"066ccb90-6b9a-4302-bde4-9c97dfce747d","system_id":"levelo_inurba_marseille","lat":43.33724,"lon":5.39195,"is_reserved":false,"is_disabled":false,"rental_uris":{"android":"levelo://app?vid=066ccb90-6b9a-4302-bde4-9c97dfce747d","ios":"levelo://app?vid=066ccb90-6b9a-4302-bde4-9c97dfce747d"},"vehicle_type_id":"4","last_reported":1728385741,"current_range_meters":36800,"station_id":"ce4bhr92rcd13ifvqhsg","pricing_plan_id":"cebpf4jnsgd1na2vs0mg"},{"bike_id":"f50162c6-b604-4fac-8f3c-6b59d21e8e0f","system_id":"levelo_inurba_marseille","lat":43.24174,"lon":5.3973,"is_reserved":false,"is_disabled":false,"rental_uris":{"android":"levelo://app?vid=f50162c6-b604-4fac-8f3c-6b59d21e8e0f","ios":"levelo://app?vid=f50162c6-b604-4fac-8f3c-6b59d21e8e0f"},"vehicle_type_id":"4","last_reported":1728385741,"current_range_meters":11200,"station_id":"ce4bhn12rcd13ifvqgpg","pricing_plan_id":"cebpf4jnsgd1na2vs0mg"},{"bike_id":"12974a0f-2544-4d26-91a5-435eae1a2365","system_id":"levelo_inurba_marseille","lat":43.3169,"lon":5.40473,"is_reserved":false,"is_disabled":false,"rental_uris":{"android":"levelo://app?vid=12974a0f-2544-4d26-91a5-435eae1a2365","ios":"levelo://app?vid=12974a0f-2544-4d26-91a5-435eae1a2365"},"vehicle_type_id":"4","last_reported":1728385741,"current_range_meters":36800,"station_id":"ce4bh012rcd13ifvqd00","pricing_plan_id":"cebpf4jnsgd1na2vs0mg"},{"bike_id":"b86fc600-2b91-4b84-961b-f338f765214a","system_id":"levelo_inurba_marseille","lat":43.2957,"lon":5.37508,"is_reserved":false,"is_disabled":false,"rental_uris":{"android":"levelo://app?vid=b86fc600-2b91-4b84-961b-f338f765214a","ios":"levelo://app?vid=b86fc600-2b91-4b84-961b-f338f765214a"},"vehicle_type_id":"4","last_reported":1728385741,"current_range_meters":37600,"station_id":"ce4bgh92rcd13ifvqb50","pricing_plan_id":"cebpf4jnsgd1na2vs0mg"},{"bike_id":"acc98aff-5149-4b47-9960-d6248e233e6c","system_id":"levelo_inurba_marseille","lat":43.3089,"lon":5.39633,"is_reserved":false,"is_disabled":false,"rental_uris":{"android":"levelo://app?vid=acc98aff-5149-4b47-9960-d6248e233e6c","ios":"levelo://app?vid=acc98aff-5149-4b47-9960-d6248e233e6c"},"vehicle_type_id":"4","last_reported":1728385741,"current_range_meters":7200,"station_id":"ce4bh012rcd13ifvqcv0","pricing_plan_id":"cebpf4jnsgd1na2vs0mg"},{"bike_id":"1ef122b8-fcb9-4404-b6af-53204e43107e","system_id":"levelo_inurba_marseille","lat":43.279377,"lon":5.410502,"is_reserved":false,"is_disabled":false,"rental_uris":{"android":"levelo://app?vid=1ef122b8-fcb9-4404-b6af-53204e43107e","ios":"levelo://app?vid=1ef122b8-fcb9-4404-b6af-53204e43107e"},"vehicle_type_id":"4","last_reported":1728385741,"current_range_meters":35200,"station_id":"ce4bhnp2rcd13ifvqh0g","pricing_plan_id":"cebpf4jnsgd1na2vs0mg"},{"bike_id":"35db5aab-a536-4286-87d7-90ec43783f24","system_id":"levelo_inurba_marseille","lat":43.23193,"lon":5.35554,"is_reserved":false,"is_disabled":false,"rental_uris":{"android":"levelo://app?vid=35db5aab-a536-4286-87d7-90ec43783f24","ios":"levelo://app?vid=35db5aab-a536-4286-87d7-90ec43783f24"},"vehicle_type_id":"4","last_reported":1728385741,"current_range_meters":30400,"station_id":"ce4bhu92rcd13ifvqi70","pricing_plan_id":"cebpf4jnsgd1na2vs0mg"},{"bike_id":"13e37a5a-0415-4df2-a92f-ef93493da662","system_id":"levelo_inurba_marseille","lat":43.29617,"lon":5.40587,"is_reserved":false,"is_disabled":false,"rental_uris":{"android":"levelo://app?vid=13e37a5a-0415-4df2-a92f-ef93493da662","ios":"levelo://app?vid=13e37a5a-0415-4df2-a92f-ef93493da662"},"vehicle_type_id":"4","last_reported":1728385741,"current_range_meters":38000,"station_id":"ce4bh0h2rcd13ifvqd60","pricing_plan_id":"cebpf4jnsgd1na2vs0mg"},{"bike_id":"24c4519e-310e-426d-93a1-ff44ec0f9d1d","system_id":"levelo_inurba_marseille","lat":43.23148,"lon":5.43723,"is_reserved":false,"is_disabled":false,"rental_uris":{"android":"levelo://app?vid=24c4519e-310e-426d-93a1-ff44ec0f9d1d","ios":"levelo://app?vid=24c4519e-310e-426d-93a1-ff44ec0f9d1d"},"vehicle_type_id":"4","last_reported":1728385741,"current_range_meters":30800,"station_id":"ce4bhmp2rcd13ifvqgog","pricing_plan_id":"cebpf4jnsgd1na2vs0mg"},{"bike_id":"62dfd99c-f976-4937-b2d0-5b50f5ae699f","system_id":"levelo_inurba_marseille","lat":43.24168,"lon":5.36398,"is_reserved":false,"is_disabled":false,"rental_uris":{"android":"levelo://app?vid=62dfd99c-f976-4937-b2d0-5b50f5ae699f","ios":"levelo://app?vid=62dfd99c-f976-4937-b2d0-5b50f5ae699f"},"vehicle_type_id":"4","last_reported":1728385741,"current_range_meters":6000,"station_id":"cpo36qri1sfpv3e86is0","pricing_plan_id":"cebpf4jnsgd1na2vs0mg"},{"bike_id":"bc7ffb3a-cee7-4131-b796-229f97a0dced","system_id":"levelo_inurba_marseille","lat":43.30598,"lon":5.39358,"is_reserved":false,"is_disabled":false,"rental_uris":{"android":"levelo://app?vid=bc7ffb3a-cee7-4131-b796-229f97a0dced","ios":"levelo://app?vid=bc7ffb3a-cee7-4131-b796-229f97a0dced"},"vehicle_type_id":"4","last_reported":1728385741,"current_range_meters":35200,"station_id":"ce4bh0p2rcd13ifvqd80","pricing_plan_id":"cebpf4jnsgd1na2vs0mg"},{"bike_id":"d5b8bfb4-409c-4850-a69d-4732b5060224","system_id":"levelo_inurba_marseille","lat":43.31347,"lon":5.36722,"is_reserved":false,"is_disabled":false,"rental_uris":{"android":"levelo://app?vid=d5b8bfb4-409c-4850-a69d-4732b5060224","ios":"levelo://app?vid=d5b8bfb4-409c-4850-a69d-4732b5060224"},"vehicle_type_id":"4","last_reported":1728385741,"current_range_meters":36800,"station_id":"ce4bgr92rcd13ifvqc6g","pricing_plan_id":"cebpf4jnsgd1na2vs0mg"},{"bike_id":"c1b0129a-5e02-4b36-b9ce-b862cd6c85f4","system_id":"levelo_inurba_marseille","lat":43.3059,"lon":5.39358,"is_reserved":false,"is_disabled":false,"rental_uris":{"android":"levelo://app?vid=c1b0129a-5e02-4b36-b9ce-b862cd6c85f4","ios":"levelo://app?vid=c1b0129a-5e02-4b36-b9ce-b862cd6c85f4"},"vehicle_type_id":"4","last_reported":1728385741,"current_range_meters":15200,"station_id":"ce4bh0p2rcd13ifvqd80","pricing_plan_id":"cebpf4jnsgd1na2vs0mg"},{"bike_id":"c65fc41a-733d-4ba9-ab60-d679d514c5b0","system_id":"levelo_inurba_marseille","lat":43.231519,"lon":5.437138,"is_reserved":false,"is_disabled":false,"rental_uris":{"android":"levelo://app?vid=c65fc41a-733d-4ba9-ab60-d679d514c5b0","ios":"levelo://app?vid=c65fc41a-733d-4ba9-ab60-d679d514c5b0"},"vehicle_type_id":"4","last_reported":1728385741,"current_range_meters":3600,"station_id":"cjm6bp8fraef2m0cb0m0","pricing_plan_id":"cebpf4jnsgd1na2vs0mg"},{"bike_id":"51ea515d-944c-489c-8a74-b1f09acd3971","system_id":"levelo_inurba_marseille","lat":43.25575,"lon":5.38238,"is_reserved":false,"is_disabled":false,"rental_uris":{"android":"levelo://app?vid=51ea515d-944c-489c-8a74-b1f09acd3971","ios":"levelo://app?vid=51ea515d-944c-489c-8a74-b1f09acd3971"},"vehicle_type_id":"4","last_reported":1728385741,"current_range_meters":40000,"station_id":"ce4bhih2rcd13ifvqfs0","pricing_plan_id":"cebpf4jnsgd1na2vs0mg"},{"bike_id":"add851d0-2643-4a09-8b2a-8781f7ed88c6","system_id":"levelo_inurba_marseille","lat":43.29022,"lon":5.38134,"is_reserved":false,"is_disabled":false,"rental_uris":{"android":"levelo://app?vid=add851d0-2643-4a09-8b2a-8781f7ed88c6","ios":"levelo://app?vid=add851d0-2643-4a09-8b2a-8781f7ed88c6"},"vehicle_type_id":"4","last_reported":1728385741,"current_range_meters":39200,"station_id":"ce4bh4p2rcd13ifvqe1g","pricing_plan_id":"cebpf4jnsgd1na2vs0mg"},{"bike_id":"a7a6ddea-d4ca-4d55-b8ce-c157abf492cd","system_id":"levelo_inurba_marseille","lat":43.25935,"lon":5.40908,"is_reserved":false,"is_disabled":false,"rental_uris":{"android":"levelo://app?vid=a7a6ddea-d4ca-4d55-b8ce-c157abf492cd","ios":"levelo://app?vid=a7a6ddea-d4ca-4d55-b8ce-c157abf492cd"},"vehicle_type_id":"4","last_reported":1728385741,"current_range_meters":9600,"station_id":"ce4bhm92rcd13ifvqglg","pricing_plan_id":"cebpf4jnsgd1na2vs0mg"},{"bike_id":"72f390d6-8036-4225-a9fd-bbdc6e34eeea","system_id":"levelo_inurba_marseille","lat":43.23183,"lon":5.40003,"is_reserved":false,"is_disabled":false,"rental_uris":{"android":"levelo://app?vid=72f390d6-8036-4225-a9fd-bbdc6e34eeea","ios":"levelo://app?vid=72f390d6-8036-4225-a9fd-bbdc6e34eeea"},"vehicle_type_id":"4","last_reported":1728385741,"current_range_meters":37600,"station_id":"ce4bhn12rcd13ifvqgqg","pricing_plan_id":"cebpf4jnsgd1na2vs0mg"},{"bike_id":"ad85b537-7ff2-48c9-b9e9-443141585a9f","system_id":"levelo_inurba_marseille","lat":43.31485,"lon":5.37307,"is_reserved":false,"is_disabled":false,"rental_uris":{"android":"levelo://app?vid=ad85b537-7ff2-48c9-b9e9-443141585a9f","ios":"levelo://app?vid=ad85b537-7ff2-48c9-b9e9-443141585a9f"},"vehicle_type_id":"4","last_reported":1728385741,"current_range_meters":38000,"station_id":"ce4bgt12rcd13ifvqcd0","pricing_plan_id":"cebpf4jnsgd1na2vs0mg"},{"bike_id":"28599adc-cefe-4dc4-9e60-2a07522c60e4","system_id":"levelo_inurba_marseille","lat":43.24803,"lon":5.37449,"is_reserved":false,"is_disabled":false,"rental_uris":{"android":"levelo://app?vid=28599adc-cefe-4dc4-9e60-2a07522c60e4","ios":"levelo://app?vid=28599adc-cefe-4dc4-9e60-2a07522c60e4"},"vehicle_type_id":"4","last_reported":1728385741,"current_range_meters":39200,"station_id":"ce4bhgh2rcd13ifvqfb0","pricing_plan_id":"cebpf4jnsgd1na2vs0mg"},{"bike_id":"4af55307-045f-4c66-a045-a91d88bb4c16","system_id":"levelo_inurba_marseille","lat":43.22932,"lon":5.35381,"is_reserved":false,"is_disabled":false,"rental_uris":{"android":"levelo://app?vid=4af55307-045f-4c66-a045-a91d88bb4c16","ios":"levelo://app?vid=4af55307-045f-4c66-a045-a91d88bb4c16"},"vehicle_type_id":"4","last_reported":1728385741,"current_range_meters":22000,"station_id":"cpo3532slgdg3j2ikp40","pricing_plan_id":"cebpf4jnsgd1na2vs0mg"},{"bike_id":"1108f945-2562-4a37-b07f-6ae5d87c264e","system_id":"levelo_inurba_marseille","lat":43.337444,"lon":5.374475,"is_reserved":false,"is_disabled":false,"rental_uris":{"android":"levelo://app?vid=1108f945-2562-4a37-b07f-6ae5d87c264e","ios":"levelo://app?vid=1108f945-2562-4a37-b07f-6ae5d87c264e"},"vehicle_type_id":"4","last_reported":1728385741,"current_range_meters":38400,"station_id":"","pricing_plan_id":"cebpf4jnsgd1na2vs0mg"},{"bike_id":"8a00310d-3171-4a2e-9c0e-319754f7a852","system_id":"levelo_inurba_marseille","lat":43.29156,"lon":5.37156,"is_reserved":false,"is_disabled":false,"rental_uris":{"android":"levelo://app?vid=8a00310d-3171-4a2e-9c0e-319754f7a852","ios":"levelo://app?vid=8a00310d-3171-4a2e-9c0e-319754f7a852"},"vehicle_type_id":"4","last_reported":1728385741,"current_range_meters":26800,"station_id":"ce4bha92rcd13ifvqeh0","pricing_plan_id":"cebpf4jnsgd1na2vs0mg"},{"bike_id":"47efe985-66e3-4fb1-a00d-60851f779f19","system_id":"levelo_inurba_marseille","lat":43.32543,"lon":5.4142,"is_reserved":false,"is_disabled":false,"rental_uris":{"android":"levelo://app?vid=47efe985-66e3-4fb1-a00d-60851f779f19","ios":"levelo://app?vid=47efe985-66e3-4fb1-a00d-60851f779f19"},"vehicle_type_id":"4","last_reported":1728385741,"current_range_meters":26800,"station_id":"ce4bhq12rcd13ifvqhhg","pricing_plan_id":"cebpf4jnsgd1na2vs0mg"},{"bike_id":"ffbfe0ff-c985-431c-8cc6-fef66d308610","system_id":"levelo_inurba_marseille","lat":43.28663,"lon":5.36354,"is_reserved":false,"is_disabled":false,"rental_uris":{"android":"levelo://app?vid=ffbfe0ff-c985-431c-8cc6-fef66d308610","ios":"levelo://app?vid=ffbfe0ff-c985-431c-8cc6-fef66d308610"},"vehicle_type_id":"4","last_reported":1728385741,"current_range_meters":38800,"station_id":"ce4bhah2rcd13ifvqej0","pricing_plan_id":"cebpf4jnsgd1na2vs0mg"},{"bike_id":"93ef038f-958a-46e5-b908-55ace5494b8c","system_id":"levelo_inurba_marseille","lat":43.29375,"lon":5.37863,"is_reserved":false,"is_disabled":false,"rental_uris":{"android":"levelo://app?vid=93ef038f-958a-46e5-b908-55ace5494b8c","ios":"levelo://app?vid=93ef038f-958a-46e5-b908-55ace5494b8c"},"vehicle_type_id":"4","last_reported":1728385741,"current_range_meters":37600,"station_id":"ce4bgjh2rcd13ifvqbf0","pricing_plan_id":"cebpf4jnsgd1na2vs0mg"},{"bike_id":"56a5ecf2-0d34-4362-b5f2-367d7a4dc81e","system_id":"levelo_inurba_marseille","lat":43.28485,"lon":5.38426,"is_reserved":false,"is_disabled":false,"rental_uris":{"android":"levelo://app?vid=56a5ecf2-0d34-4362-b5f2-367d7a4dc81e","ios":"levelo://app?vid=56a5ecf2-0d34-4362-b5f2-367d7a4dc81e"},"vehicle_type_id":"4","last_reported":1728385741,"current_range_meters":36800,"station_id":"ce4bh512rcd13ifvqe3g","pricing_plan_id":"cebpf4jnsgd1na2vs0mg"},{"bike_id":"5adee61e-544c-4c9d-bfef-eb6c5de87f93","system_id":"levelo_inurba_marseille","lat":43.27917,"lon":5.39591,"is_reserved":false,"is_disabled":false,"rental_uris":{"android":"levelo://app?vid=5adee61e-544c-4c9d-bfef-eb6c5de87f93","ios":"levelo://app?vid=5adee61e-544c-4c9d-bfef-eb6c5de87f93"},"vehicle_type_id":"4","last_reported":1728385741,"current_range_meters":36800,"station_id":"ce4bhf92rcd13ifvqf40","pricing_plan_id":"cebpf4jnsgd1na2vs0mg"},{"bike_id":"c12c46a4-bd86-493d-803e-5d507cd7924b","system_id":"levelo_inurba_marseille","lat":43.23196,"lon":5.35543,"is_reserved":false,"is_disabled":false,"rental_uris":{"android":"levelo://app?vid=c12c46a4-bd86-493d-803e-5d507cd7924b","ios":"levelo://app?vid=c12c46a4-bd86-493d-803e-5d507cd7924b"},"vehicle_type_id":"4","last_reported":1728385741,"current_range_meters":19200,"station_id":"ce4bhu92rcd13ifvqi70","pricing_plan_id":"cebpf4jnsgd1na2vs0mg"},{"bike_id":"1e22ea5d-d406-4b63-92d6-06a783dc0af8","system_id":"levelo_inurba_marseille","lat":43.23185,"lon":5.39978,"is_reserved":false,"is_disabled":false,"rental_uris":{"android":"levelo://app?vid=1e22ea5d-d406-4b63-92d6-06a783dc0af8","ios":"levelo://app?vid=1e22ea5d-d406-4b63-92d6-06a783dc0af8"},"vehicle_type_id":"4","last_reported":1728385741,"current_range_meters":18800,"station_id":"ce4bhn12rcd13ifvqgqg","pricing_plan_id":"cebpf4jnsgd1na2vs0mg"},{"bike_id":"c19e637b-a9df-4896-bb6a-b56e60a34764","system_id":"levelo_inurba_marseille","lat":43.2509,"lon":5.39516,"is_reserved":false,"is_disabled":false,"rental_uris":{"android":"levelo://app?vid=c19e637b-a9df-4896-bb6a-b56e60a34764","ios":"levelo://app?vid=c19e637b-a9df-4896-bb6a-b56e60a34764"},"vehicle_type_id":"4","last_reported":1728385741,"current_range_meters":21600,"station_id":"ce4bhm12rcd13ifvqgkg","pricing_plan_id":"cebpf4jnsgd1na2vs0mg"},{"bike_id":"f6d558e8-fea0-4079-bd69-6b12c60331a9","system_id":"levelo_inurba_marseille","lat":43.269523,"lon":5.38627,"is_reserved":false,"is_disabled":false,"rental_uris":{"android":"levelo://app?vid=f6d558e8-fea0-4079-bd69-6b12c60331a9","ios":"levelo://app?vid=f6d558e8-fea0-4079-bd69-6b12c60331a9"},"vehicle_type_id":"4","last_reported":1728385741,"current_range_meters":37600,"station_id":"ce4bhh92rcd13ifvqfh0","pricing_plan_id":"cebpf4jnsgd1na2vs0mg"},{"bike_id":"21d21269-0abe-4498-82a6-cf8f51566e06","system_id":"levelo_inurba_marseille","lat":43.24806,"lon":5.3746,"is_reserved":false,"is_disabled":false,"rental_uris":{"android":"levelo://app?vid=21d21269-0abe-4498-82a6-cf8f51566e06","ios":"levelo://app?vid=21d21269-0abe-4498-82a6-cf8f51566e06"},"vehicle_type_id":"4","last_reported":1728385741,"current_range_meters":35200,"station_id":"ce4bhgh2rcd13ifvqfb0","pricing_plan_id":"cebpf4jnsgd1na2vs0mg"},{"bike_id":"ddbfaf10-d19c-4d7d-ba60-8f8b83723f67","system_id":"levelo_inurba_marseille","lat":43.24176,"lon":5.39725,"is_reserved":false,"is_disabled":false,"rental_uris":{"android":"levelo://app?vid=ddbfaf10-d19c-4d7d-ba60-8f8b83723f67","ios":"levelo://app?vid=ddbfaf10-d19c-4d7d-ba60-8f8b83723f67"},"vehicle_type_id":"4","last_reported":1728385741,"current_range_meters":2000,"station_id":"ce4bhn12rcd13ifvqgpg","pricing_plan_id":"cebpf4jnsgd1na2vs0mg"},{"bike_id":"eb8fc8ee-c5fc-4298-a869-d0284f45a890","system_id":"levelo_inurba_marseille","lat":43.32366,"lon":5.38884,"is_reserved":false,"is_disabled":false,"rental_uris":{"android":"levelo://app?vid=eb8fc8ee-c5fc-4298-a869-d0284f45a890","ios":"levelo://app?vid=eb8fc8ee-c5fc-4298-a869-d0284f45a890"},"vehicle_type_id":"4","last_reported":1728385741,"current_range_meters":34000,"station_id":"ce4bhqp2rcd13ifvqhog","pricing_plan_id":"cebpf4jnsgd1na2vs0mg"},{"bike_id":"b6640f17-7ab3-4932-bbd1-5fe22e83845e","system_id":"levelo_inurba_marseille","lat":43.32282,"lon":5.38265,"is_reserved":false,"is_disabled":false,"rental_uris":{"android":"levelo://app?vid=b6640f17-7ab3-4932-bbd1-5fe22e83845e","ios":"levelo://app?vid=b6640f17-7ab3-4932-bbd1-5fe22e83845e"},"vehicle_type_id":"4","last_reported":1728385741,"current_range_meters":39200,"station_id":"ce4bhr12rcd13ifvqhqg","pricing_plan_id":"cebpf4jnsgd1na2vs0mg"},{"bike_id":"3f688159-0cd3-43b0-bdd9-ee0b32445c73","system_id":"levelo_inurba_marseille","lat":43.29039,"lon":5.39969,"is_reserved":false,"is_disabled":false,"rental_uris":{"android":"levelo://app?vid=3f688159-0cd3-43b0-bdd9-ee0b32445c73","ios":"levelo://app?vid=3f688159-0cd3-43b0-bdd9-ee0b32445c73"},"vehicle_type_id":"4","last_reported":1728385741,"current_range_meters":39200,"station_id":"ce4bh392rcd13ifvqdm0","pricing_plan_id":"cebpf4jnsgd1na2vs0mg"},{"bike_id":"18a067f5-0f01-447b-af96-355fba06c978","system_id":"levelo_inurba_marseille","lat":43.29723,"lon":5.37691,"is_reserved":false,"is_disabled":false,"rental_uris":{"android":"levelo://app?vid=18a067f5-0f01-447b-af96-355fba06c978","ios":"levelo://app?vid=18a067f5-0f01-447b-af96-355fba06c978"},"vehicle_type_id":"4","last_reported":1728385741,"current_range_meters":39200,"station_id":"ce4bgkh2rcd13ifvqbl0","pricing_plan_id":"cebpf4jnsgd1na2vs0mg"},{"bike_id":"bc884bab-7cdf-4100-874d-71d6c86a7840","system_id":"levelo_inurba_marseille","lat":43.28266,"lon":5.35067,"is_reserved":false,"is_disabled":false,"rental_uris":{"android":"levelo://app?vid=bc884bab-7cdf-4100-874d-71d6c86a7840","ios":"levelo://app?vid=bc884bab-7cdf-4100-874d-71d6c86a7840"},"vehicle_type_id":"4","last_reported":1728385741,"current_range_meters":37600,"station_id":"ce4bhbp2rcd13ifvqerg","pricing_plan_id":"cebpf4jnsgd1na2vs0mg"},{"bike_id":"73de01c4-3c85-4946-b43b-4bb97c5498fc","system_id":"levelo_inurba_marseille","lat":43.29793,"lon":5.37105,"is_reserved":false,"is_disabled":false,"rental_uris":{"android":"levelo://app?vid=73de01c4-3c85-4946-b43b-4bb97c5498fc","ios":"levelo://app?vid=73de01c4-3c85-4946-b43b-4bb97c5498fc"},"vehicle_type_id":"4","last_reported":1728385741,"current_range_meters":30800,"station_id":"ce4bgop2rcd13ifvqc1g","pricing_plan_id":"cebpf4jnsgd1na2vs0mg"},{"bike_id":"8614b994-ae2d-4ba6-9c50-9dc14a4d72af","system_id":"levelo_inurba_marseille","lat":43.255,"lon":5.37654,"is_reserved":false,"is_disabled":false,"rental_uris":{"android":"levelo://app?vid=8614b994-ae2d-4ba6-9c50-9dc14a4d72af","ios":"levelo://app?vid=8614b994-ae2d-4ba6-9c50-9dc14a4d72af"},"vehicle_type_id":"4","last_reported":1728385741,"current_range_meters":29600,"station_id":"ce4bhh12rcd13ifvqff0","pricing_plan_id":"cebpf4jnsgd1na2vs0mg"},{"bike_id":"51518c00-b5c7-480d-8547-a82c8d12269e","system_id":"levelo_inurba_marseille","lat":43.23145,"lon":5.43723,"is_reserved":false,"is_disabled":false,"rental_uris":{"android":"levelo://app?vid=51518c00-b5c7-480d-8547-a82c8d12269e","ios":"levelo://app?vid=51518c00-b5c7-480d-8547-a82c8d12269e"},"vehicle_type_id":"4","last_reported":1728385741,"current_range_meters":16400,"station_id":"ce4bhmp2rcd13ifvqgog","pricing_plan_id":"cebpf4jnsgd1na2vs0mg"},{"bike_id":"6d9d95d1-f9c2-4e9d-a755-a36f11c6d870","system_id":"levelo_inurba_marseille","lat":43.30597,"lon":5.39366,"is_reserved":false,"is_disabled":false,"rental_uris":{"android":"levelo://app?vid=6d9d95d1-f9c2-4e9d-a755-a36f11c6d870","ios":"levelo://app?vid=6d9d95d1-f9c2-4e9d-a755-a36f11c6d870"},"vehicle_type_id":"4","last_reported":1728385741,"current_range_meters":35200,"station_id":"ce4bh0p2rcd13ifvqd80","pricing_plan_id":"cebpf4jnsgd1na2vs0mg"},{"bike_id":"d00a3477-782a-4de0-b711-15ed9dd434f4","system_id":"levelo_inurba_marseille","lat":43.23054,"lon":5.35488,"is_reserved":false,"is_disabled":false,"rental_uris":{"android":"levelo://app?vid=d00a3477-782a-4de0-b711-15ed9dd434f4","ios":"levelo://app?vid=d00a3477-782a-4de0-b711-15ed9dd434f4"},"vehicle_type_id":"4","last_reported":1728385741,"current_range_meters":4800,"station_id":"cpo3342slgdg3j2ifvpg","pricing_plan_id":"cebpf4jnsgd1na2vs0mg"},{"bike_id":"cec3c99e-ca48-4d80-8754-f9affa5d8948","system_id":"levelo_inurba_marseille","lat":43.23155,"lon":5.43706,"is_reserved":false,"is_disabled":false,"rental_uris":{"android":"levelo://app?vid=cec3c99e-ca48-4d80-8754-f9affa5d8948","ios":"levelo://app?vid=cec3c99e-ca48-4d80-8754-f9affa5d8948"},"vehicle_type_id":"4","last_reported":1728385741,"current_range_meters":22000,"station_id":"ce4bhmp2rcd13ifvqgog","pricing_plan_id":"cebpf4jnsgd1na2vs0mg"},{"bike_id":"6b6dda1b-05a5-4ec3-b010-3b1f84e466f5","system_id":"levelo_inurba_marseille","lat":43.2992,"lon":5.3748,"is_reserved":false,"is_disabled":false,"rental_uris":{"android":"levelo://app?vid=6b6dda1b-05a5-4ec3-b010-3b1f84e466f5","ios":"levelo://app?vid=6b6dda1b-05a5-4ec3-b010-3b1f84e466f5"},"vehicle_type_id":"4","last_reported":1728385741,"current_range_meters":38000,"station_id":"ce4bgjh2rcd13ifvqbg0","pricing_plan_id":"cebpf4jnsgd1na2vs0mg"},{"bike_id":"c53e5d60-62b1-45aa-a4f7-32ece814db73","system_id":"levelo_inurba_marseille","lat":43.28853,"lon":5.39327,"is_reserved":false,"is_disabled":false,"rental_uris":{"android":"levelo://app?vid=c53e5d60-62b1-45aa-a4f7-32ece814db73","ios":"levelo://app?vid=c53e5d60-62b1-45aa-a4f7-32ece814db73"},"vehicle_type_id":"4","last_reported":1728385741,"current_range_meters":31200,"station_id":"ce4bh2p2rcd13ifvqdi0","pricing_plan_id":"cebpf4jnsgd1na2vs0mg"},{"bike_id":"59710b6e-2b67-4999-9974-e6c80e70ef7f","system_id":"levelo_inurba_marseille","lat":43.29919,"lon":5.37478,"is_reserved":false,"is_disabled":false,"rental_uris":{"android":"levelo://app?vid=59710b6e-2b67-4999-9974-e6c80e70ef7f","ios":"levelo://app?vid=59710b6e-2b67-4999-9974-e6c80e70ef7f"},"vehicle_type_id":"4","last_reported":1728385741,"current_range_meters":5600,"station_id":"ce4bgjh2rcd13ifvqbg0","pricing_plan_id":"cebpf4jnsgd1na2vs0mg"},{"bike_id":"4122ff4a-027e-4858-a443-416062173d52","system_id":"levelo_inurba_marseille","lat":43.29369,"lon":5.37858,"is_reserved":false,"is_disabled":false,"rental_uris":{"android":"levelo://app?vid=4122ff4a-027e-4858-a443-416062173d52","ios":"levelo://app?vid=4122ff4a-027e-4858-a443-416062173d52"},"vehicle_type_id":"4","last_reported":1728385741,"current_range_meters":4800,"station_id":"ce4bgjh2rcd13ifvqbf0","pricing_plan_id":"cebpf4jnsgd1na2vs0mg"},{"bike_id":"e8f38f77-6572-42be-9296-0cbe6e7cb972","system_id":"levelo_inurba_marseille","lat":43.23054,"lon":5.35492,"is_reserved":false,"is_disabled":false,"rental_uris":{"android":"levelo://app?vid=e8f38f77-6572-42be-9296-0cbe6e7cb972","ios":"levelo://app?vid=e8f38f77-6572-42be-9296-0cbe6e7cb972"},"vehicle_type_id":"4","last_reported":1728385741,"current_range_meters":32000,"station_id":"cpo3342slgdg3j2ifvpg","pricing_plan_id":"cebpf4jnsgd1na2vs0mg"},{"bike_id":"ead506bf-76ec-46c7-b8ef-e369abf11548","system_id":"levelo_inurba_marseille","lat":43.2919,"lon":5.35811,"is_reserved":false,"is_disabled":false,"rental_uris":{"android":"levelo://app?vid=ead506bf-76ec-46c7-b8ef-e369abf11548","ios":"levelo://app?vid=ead506bf-76ec-46c7-b8ef-e369abf11548"},"vehicle_type_id":"4","last_reported":1728385741,"current_range_meters":36000,"station_id":"ce4bhb12rcd13ifvqel0","pricing_plan_id":"cebpf4jnsgd1na2vs0mg"},{"bike_id":"265fd06c-9d4c-41b2-9381-74f19eb1058c","system_id":"levelo_inurba_marseille","lat":43.31531,"lon":5.38041,"is_reserved":false,"is_disabled":false,"rental_uris":{"android":"levelo://app?vid=265fd06c-9d4c-41b2-9381-74f19eb1058c","ios":"levelo://app?vid=265fd06c-9d4c-41b2-9381-74f19eb1058c"},"vehicle_type_id":"4","last_reported":1728385741,"current_range_meters":28400,"station_id":"ce4bhsp2rcd13ifvqi50","pricing_plan_id":"cebpf4jnsgd1na2vs0mg"},{"bike_id":"fee237ed-051f-4026-b662-08ab2a0e9863","system_id":"levelo_inurba_marseille","lat":43.30934,"lon":5.40143,"is_reserved":false,"is_disabled":false,"rental_uris":{"android":"levelo://app?vid=fee237ed-051f-4026-b662-08ab2a0e9863","ios":"levelo://app?vid=fee237ed-051f-4026-b662-08ab2a0e9863"},"vehicle_type_id":"4","last_reported":1728385741,"current_range_meters":30400,"station_id":"ce4bgvp2rcd13ifvqct0","pricing_plan_id":"cebpf4jnsgd1na2vs0mg"},{"bike_id":"485bc90e-76e5-4ef0-8a60-6695dcc5102a","system_id":"levelo_inurba_marseille","lat":43.32482,"lon":5.36573,"is_reserved":false,"is_disabled":false,"rental_uris":{"android":"levelo://app?vid=485bc90e-76e5-4ef0-8a60-6695dcc5102a","ios":"levelo://app?vid=485bc90e-76e5-4ef0-8a60-6695dcc5102a"},"vehicle_type_id":"4","last_reported":1728385741,"current_range_meters":12000,"station_id":"ce4bhs12rcd13ifvqhvg","pricing_plan_id":"cebpf4jnsgd1na2vs0mg"},{"bike_id":"77d131a6-db5f-44eb-adb1-7fc7032d111b","system_id":"levelo_inurba_marseille","lat":43.24652,"lon":5.38897,"is_reserved":false,"is_disabled":false,"rental_uris":{"android":"levelo://app?vid=77d131a6-db5f-44eb-adb1-7fc7032d111b","ios":"levelo://app?vid=77d131a6-db5f-44eb-adb1-7fc7032d111b"},"vehicle_type_id":"4","last_reported":1728385741,"current_range_meters":14000,"station_id":"ce4bhg12rcd13ifvqf60","pricing_plan_id":"cebpf4jnsgd1na2vs0mg"},{"bike_id":"b1219be6-4c28-45e1-9d47-f9025a531c3d","system_id":"levelo_inurba_marseille","lat":43.23196,"lon":5.39983,"is_reserved":false,"is_disabled":false,"rental_uris":{"android":"levelo://app?vid=b1219be6-4c28-45e1-9d47-f9025a531c3d","ios":"levelo://app?vid=b1219be6-4c28-45e1-9d47-f9025a531c3d"},"vehicle_type_id":"4","last_reported":1728385741,"current_range_meters":11200,"station_id":"ce4bhn12rcd13ifvqgqg","pricing_plan_id":"cebpf4jnsgd1na2vs0mg"},{"bike_id":"10b205a3-6164-4792-b45e-0c2e29a625bb","system_id":"levelo_inurba_marseille","lat":43.30122,"lon":5.39187,"is_reserved":false,"is_disabled":false,"rental_uris":{"android":"levelo://app?vid=10b205a3-6164-4792-b45e-0c2e29a625bb","ios":"levelo://app?vid=10b205a3-6164-4792-b45e-0c2e29a625bb"},"vehicle_type_id":"4","last_reported":1728385741,"current_range_meters":32400,"station_id":"","pricing_plan_id":"cebpf4jnsgd1na2vs0mg"},{"bike_id":"02ce97d4-5975-479a-934a-129b2544d747","system_id":"levelo_inurba_marseille","lat":43.31696,"lon":5.40465,"is_reserved":false,"is_disabled":false,"rental_uris":{"android":"levelo://app?vid=02ce97d4-5975-479a-934a-129b2544d747","ios":"levelo://app?vid=02ce97d4-5975-479a-934a-129b2544d747"},"vehicle_type_id":"4","last_reported":1728385741,"current_range_meters":19200,"station_id":"ce4bh012rcd13ifvqd00","pricing_plan_id":"cebpf4jnsgd1na2vs0mg"},{"bike_id":"888ff4a0-3513-4b13-8615-45a44b706147","system_id":"levelo_inurba_marseille","lat":43.29783,"lon":5.37098,"is_reserved":false,"is_disabled":false,"rental_uris":{"android":"levelo://app?vid=888ff4a0-3513-4b13-8615-45a44b706147","ios":"levelo://app?vid=888ff4a0-3513-4b13-8615-45a44b706147"},"vehicle_type_id":"4","last_reported":1728385741,"current_range_meters":19600,"station_id":"ce4bgop2rcd13ifvqc1g","pricing_plan_id":"cebpf4jnsgd1na2vs0mg"},{"bike_id":"544b717d-0c7b-42db-933e-04ba15f2d1eb","system_id":"levelo_inurba_marseille","lat":43.30594,"lon":5.39357,"is_reserved":false,"is_disabled":false,"rental_uris":{"android":"levelo://app?vid=544b717d-0c7b-42db-933e-04ba15f2d1eb","ios":"levelo://app?vid=544b717d-0c7b-42db-933e-04ba15f2d1eb"},"vehicle_type_id":"4","last_reported":1728385741,"current_range_meters":27200,"station_id":"ce4bh0p2rcd13ifvqd80","pricing_plan_id":"cebpf4jnsgd1na2vs0mg"},{"bike_id":"2f4b888d-5c74-4153-900e-18576b429381","system_id":"levelo_inurba_marseille","lat":43.31696,"lon":5.4046,"is_reserved":false,"is_disabled":false,"rental_uris":{"android":"levelo://app?vid=2f4b888d-5c74-4153-900e-18576b429381","ios":"levelo://app?vid=2f4b888d-5c74-4153-900e-18576b429381"},"vehicle_type_id":"4","last_reported":1728385741,"current_range_meters":36400,"station_id":"ce4bh012rcd13ifvqd00","pricing_plan_id":"cebpf4jnsgd1na2vs0mg"},{"bike_id":"539eacbc-92e3-40a6-ae36-ff0b108b53ac","system_id":"levelo_inurba_marseille","lat":43.31332,"lon":5.39695,"is_reserved":false,"is_disabled":false,"rental_uris":{"android":"levelo://app?vid=539eacbc-92e3-40a6-ae36-ff0b108b53ac","ios":"levelo://app?vid=539eacbc-92e3-40a6-ae36-ff0b108b53ac"},"vehicle_type_id":"4","last_reported":1728385741,"current_range_meters":4400,"station_id":"ce4bgvp2rcd13ifvqcu0","pricing_plan_id":"cebpf4jnsgd1na2vs0mg"},{"bike_id":"89066a96-3687-4a6b-84b3-b2e441a88dfb","system_id":"levelo_inurba_marseille","lat":43.30282,"lon":5.37707,"is_reserved":false,"is_disabled":false,"rental_uris":{"android":"levelo://app?vid=89066a96-3687-4a6b-84b3-b2e441a88dfb","ios":"levelo://app?vid=89066a96-3687-4a6b-84b3-b2e441a88dfb"},"vehicle_type_id":"4","last_reported":1728385741,"current_range_meters":24000,"station_id":"ce4bguh2rcd13ifvqcj0","pricing_plan_id":"cebpf4jnsgd1na2vs0mg"},{"bike_id":"75d7e0a9-2cfd-40e7-ae3c-ccc78b1b3ce7","system_id":"levelo_inurba_marseille","lat":43.267944,"lon":5.402552,"is_reserved":false,"is_disabled":false,"rental_uris":{"android":"levelo://app?vid=75d7e0a9-2cfd-40e7-ae3c-ccc78b1b3ce7","ios":"levelo://app?vid=75d7e0a9-2cfd-40e7-ae3c-ccc78b1b3ce7"},"vehicle_type_id":"4","last_reported":1728385741,"current_range_meters":18800,"station_id":"ce501612rcd8frsf0b60","pricing_plan_id":"cebpf4jnsgd1na2vs0mg"},{"bike_id":"b5142c12-3f3f-452c-853c-bcb33ce12fbf","system_id":"levelo_inurba_marseille","lat":43.23194,"lon":5.35551,"is_reserved":false,"is_disabled":false,"rental_uris":{"android":"levelo://app?vid=b5142c12-3f3f-452c-853c-bcb33ce12fbf","ios":"levelo://app?vid=b5142c12-3f3f-452c-853c-bcb33ce12fbf"},"vehicle_type_id":"4","last_reported":1728385741,"current_range_meters":37600,"station_id":"ce4bhu92rcd13ifvqi70","pricing_plan_id":"cebpf4jnsgd1na2vs0mg"},{"bike_id":"72bcc678-cbb6-4608-9f5c-d1b1bd96f0de","system_id":"levelo_inurba_marseille","lat":43.30183,"lon":5.36633,"is_reserved":false,"is_disabled":false,"rental_uris":{"android":"levelo://app?vid=72bcc678-cbb6-4608-9f5c-d1b1bd96f0de","ios":"levelo://app?vid=72bcc678-cbb6-4608-9f5c-d1b1bd96f0de"},"vehicle_type_id":"4","last_reported":1728385741,"current_range_meters":24800,"station_id":"ce4bgrh2rcd13ifvqc8g","pricing_plan_id":"cebpf4jnsgd1na2vs0mg"},{"bike_id":"e313c28c-13cb-4aff-8aaa-a9902c1694cc","system_id":"levelo_inurba_marseille","lat":43.29495,"lon":5.37519,"is_reserved":false,"is_disabled":false,"rental_uris":{"android":"levelo://app?vid=e313c28c-13cb-4aff-8aaa-a9902c1694cc","ios":"levelo://app?vid=e313c28c-13cb-4aff-8aaa-a9902c1694cc"},"vehicle_type_id":"4","last_reported":1728385741,"current_range_meters":32000,"station_id":"ce4bgkp2rcd13ifvqbmg","pricing_plan_id":"cebpf4jnsgd1na2vs0mg"},{"bike_id":"470f5778-cfa8-4b18-b6b0-1244f6e2af72","system_id":"levelo_inurba_marseille","lat":43.28342,"lon":5.38114,"is_reserved":false,"is_disabled":false,"rental_uris":{"android":"levelo://app?vid=470f5778-cfa8-4b18-b6b0-1244f6e2af72","ios":"levelo://app?vid=470f5778-cfa8-4b18-b6b0-1244f6e2af72"},"vehicle_type_id":"4","last_reported":1728385741,"current_range_meters":25600,"station_id":"ce4bh412rcd13ifvqdr0","pricing_plan_id":"cebpf4jnsgd1na2vs0mg"},{"bike_id":"513184d9-4a6b-49fd-81e0-1b13bcd19fd6","system_id":"levelo_inurba_marseille","lat":43.284179,"lon":5.400434,"is_reserved":false,"is_disabled":false,"rental_uris":{"android":"levelo://app?vid=513184d9-4a6b-49fd-81e0-1b13bcd19fd6","ios":"levelo://app?vid=513184d9-4a6b-49fd-81e0-1b13bcd19fd6"},"vehicle_type_id":"4","last_reported":1728385741,"current_range_meters":22800,"station_id":"","pricing_plan_id":"cebpf4jnsgd1na2vs0mg"},{"bike_id":"c4236907-ce27-48ac-abd9-c181a707f095","system_id":"levelo_inurba_marseille","lat":43.24082,"lon":5.37748,"is_reserved":false,"is_disabled":false,"rental_uris":{"android":"levelo://app?vid=c4236907-ce27-48ac-abd9-c181a707f095","ios":"levelo://app?vid=c4236907-ce27-48ac-abd9-c181a707f095"},"vehicle_type_id":"4","last_reported":1728385741,"current_range_meters":14800,"station_id":"ce4bhnp2rcd13ifvqgvg","pricing_plan_id":"cebpf4jnsgd1na2vs0mg"},{"bike_id":"93d45870-2e1c-4ed1-9664-7b219a4ed443","system_id":"levelo_inurba_marseille","lat":43.229274,"lon":5.35381,"is_reserved":false,"is_disabled":false,"rental_uris":{"android":"levelo://app?vid=93d45870-2e1c-4ed1-9664-7b219a4ed443","ios":"levelo://app?vid=93d45870-2e1c-4ed1-9664-7b219a4ed443"},"vehicle_type_id":"4","last_reported":1728385741,"current_range_meters":31200,"station_id":"cpo3532slgdg3j2ikp40","pricing_plan_id":"cebpf4jnsgd1na2vs0mg"},{"bike_id":"8a5f9cb7-ea32-4261-af46-8844b9978377","system_id":"levelo_inurba_marseille","lat":43.28933,"lon":5.36398,"is_reserved":false,"is_disabled":false,"rental_uris":{"android":"levelo://app?vid=8a5f9cb7-ea32-4261-af46-8844b9978377","ios":"levelo://app?vid=8a5f9cb7-ea32-4261-af46-8844b9978377"},"vehicle_type_id":"4","last_reported":1728385741,"current_range_meters":12400,"station_id":"ce4bhc92rcd13ifvqetg","pricing_plan_id":"cebpf4jnsgd1na2vs0mg"},{"bike_id":"b6babf89-626b-4959-85e2-23f47bec45e5","system_id":"levelo_inurba_marseille","lat":43.33599,"lon":5.4103,"is_reserved":false,"is_disabled":false,"rental_uris":{"android":"levelo://app?vid=b6babf89-626b-4959-85e2-23f47bec45e5","ios":"levelo://app?vid=b6babf89-626b-4959-85e2-23f47bec45e5"},"vehicle_type_id":"4","last_reported":1728385741,"current_range_meters":12000,"station_id":"ce4bhqh2rcd13ifvqhmg","pricing_plan_id":"cebpf4jnsgd1na2vs0mg"},{"bike_id":"0e3bfff6-2bee-4be5-8568-766c0160a493","system_id":"levelo_inurba_marseille","lat":43.3171,"lon":5.43709,"is_reserved":false,"is_disabled":false,"rental_uris":{"android":"levelo://app?vid=0e3bfff6-2bee-4be5-8568-766c0160a493","ios":"levelo://app?vid=0e3bfff6-2bee-4be5-8568-766c0160a493"},"vehicle_type_id":"4","last_reported":1728385741,"current_range_meters":8400,"station_id":"ce4bhp92rcd13ifvqhcg","pricing_plan_id":"cebpf4jnsgd1na2vs0mg"},{"bike_id":"3d71a0dd-9ca3-44d9-86b6-d7c13e293677","system_id":"levelo_inurba_marseille","lat":43.29185,"lon":5.35805,"is_reserved":false,"is_disabled":false,"rental_uris":{"android":"levelo://app?vid=3d71a0dd-9ca3-44d9-86b6-d7c13e293677","ios":"levelo://app?vid=3d71a0dd-9ca3-44d9-86b6-d7c13e293677"},"vehicle_type_id":"4","last_reported":1728385741,"current_range_meters":38400,"station_id":"ce4bhb12rcd13ifvqel0","pricing_plan_id":"cebpf4jnsgd1na2vs0mg"},{"bike_id":"68a15803-7161-4d8a-9c98-d979734f5b64","system_id":"levelo_inurba_marseille","lat":43.26033,"lon":5.37549,"is_reserved":false,"is_disabled":false,"rental_uris":{"android":"levelo://app?vid=68a15803-7161-4d8a-9c98-d979734f5b64","ios":"levelo://app?vid=68a15803-7161-4d8a-9c98-d979734f5b64"},"vehicle_type_id":"4","last_reported":1728385741,"current_range_meters":38800,"station_id":"ce4bhgh2rcd13ifvqfa0","pricing_plan_id":"cebpf4jnsgd1na2vs0mg"},{"bike_id":"1f3b66e4-d20d-49df-baa6-aad5c31c7f69","system_id":"levelo_inurba_marseille","lat":43.29619,"lon":5.37153,"is_reserved":false,"is_disabled":false,"rental_uris":{"android":"levelo://app?vid=1f3b66e4-d20d-49df-baa6-aad5c31c7f69","ios":"levelo://app?vid=1f3b66e4-d20d-49df-baa6-aad5c31c7f69"},"vehicle_type_id":"4","last_reported":1728385741,"current_range_meters":19600,"station_id":"ce4bgnh2rcd13ifvqc0g","pricing_plan_id":"cebpf4jnsgd1na2vs0mg"},{"bike_id":"22e612d3-2f75-4d99-b7f4-2255f260d758","system_id":"levelo_inurba_marseille","lat":43.268161,"lon":5.406227,"is_reserved":false,"is_disabled":false,"rental_uris":{"android":"levelo://app?vid=22e612d3-2f75-4d99-b7f4-2255f260d758","ios":"levelo://app?vid=22e612d3-2f75-4d99-b7f4-2255f260d758"},"vehicle_type_id":"4","last_reported":1728385741,"current_range_meters":36000,"station_id":"ce4bhkp2rcd13ifvqgd0","pricing_plan_id":"cebpf4jnsgd1na2vs0mg"},{"bike_id":"146c6890-f86f-40bb-9d68-5eda7e4f0060","system_id":"levelo_inurba_marseille","lat":43.279755,"lon":5.416691,"is_reserved":false,"is_disabled":false,"rental_uris":{"android":"levelo://app?vid=146c6890-f86f-40bb-9d68-5eda7e4f0060","ios":"levelo://app?vid=146c6890-f86f-40bb-9d68-5eda7e4f0060"},"vehicle_type_id":"4","last_reported":1728385741,"current_range_meters":22000,"station_id":"ce4bho92rcd13ifvqh3g","pricing_plan_id":"cebpf4jnsgd1na2vs0mg"},{"bike_id":"7c507558-89c3-4304-a26f-70b145cdfbab","system_id":"levelo_inurba_marseille","lat":43.28153,"lon":5.42646,"is_reserved":false,"is_disabled":false,"rental_uris":{"android":"levelo://app?vid=7c507558-89c3-4304-a26f-70b145cdfbab","ios":"levelo://app?vid=7c507558-89c3-4304-a26f-70b145cdfbab"},"vehicle_type_id":"4","last_reported":1728385741,"current_range_meters":33600,"station_id":"ce4bhnh2rcd13ifvqgug","pricing_plan_id":"cebpf4jnsgd1na2vs0mg"},{"bike_id":"83ca7793-fb7f-4f63-843d-a13c4fc0bddf","system_id":"levelo_inurba_marseille","lat":43.25937,"lon":5.4091,"is_reserved":false,"is_disabled":false,"rental_uris":{"android":"levelo://app?vid=83ca7793-fb7f-4f63-843d-a13c4fc0bddf","ios":"levelo://app?vid=83ca7793-fb7f-4f63-843d-a13c4fc0bddf"},"vehicle_type_id":"4","last_reported":1728385741,"current_range_meters":32000,"station_id":"ce4bhm92rcd13ifvqglg","pricing_plan_id":"cebpf4jnsgd1na2vs0mg"},{"bike_id":"825c93fd-888b-41ea-a71c-8529fbbf0131","system_id":"levelo_inurba_marseille","lat":43.24074,"lon":5.37762,"is_reserved":false,"is_disabled":false,"rental_uris":{"android":"levelo://app?vid=825c93fd-888b-41ea-a71c-8529fbbf0131","ios":"levelo://app?vid=825c93fd-888b-41ea-a71c-8529fbbf0131"},"vehicle_type_id":"4","last_reported":1728385741,"current_range_meters":22800,"station_id":"ce4bhnp2rcd13ifvqgvg","pricing_plan_id":"cebpf4jnsgd1na2vs0mg"},{"bike_id":"308e04a8-c647-4db5-b838-13f3c6f71273","system_id":"levelo_inurba_marseille","lat":43.29525,"lon":5.39036,"is_reserved":false,"is_disabled":false,"rental_uris":{"android":"levelo://app?vid=308e04a8-c647-4db5-b838-13f3c6f71273","ios":"levelo://app?vid=308e04a8-c647-4db5-b838-13f3c6f71273"},"vehicle_type_id":"4","last_reported":1728385741,"current_range_meters":38400,"station_id":"ce4bh3p2rcd13ifvqdp0","pricing_plan_id":"cebpf4jnsgd1na2vs0mg"},{"bike_id":"93a538e2-33d2-44e2-ac66-feb42e05dfad","system_id":"levelo_inurba_marseille","lat":43.24165,"lon":5.36392,"is_reserved":false,"is_disabled":false,"rental_uris":{"android":"levelo://app?vid=93a538e2-33d2-44e2-ac66-feb42e05dfad","ios":"levelo://app?vid=93a538e2-33d2-44e2-ac66-feb42e05dfad"},"vehicle_type_id":"4","last_reported":1728385741,"current_range_meters":24800,"station_id":"cpo36qri1sfpv3e86is0","pricing_plan_id":"cebpf4jnsgd1na2vs0mg"},{"bike_id":"be0c8c62-3ff0-474b-a847-971188ee83e0","system_id":"levelo_inurba_marseille","lat":43.29259,"lon":5.38459,"is_reserved":false,"is_disabled":false,"rental_uris":{"android":"levelo://app?vid=be0c8c62-3ff0-474b-a847-971188ee83e0","ios":"levelo://app?vid=be0c8c62-3ff0-474b-a847-971188ee83e0"},"vehicle_type_id":"4","last_reported":1728385741,"current_range_meters":17200,"station_id":"ce4bh692rcd13ifvqea0","pricing_plan_id":"cebpf4jnsgd1na2vs0mg"},{"bike_id":"0fe81bbf-5adf-4255-b6ee-85f997715c0d","system_id":"levelo_inurba_marseille","lat":43.29922,"lon":5.37468,"is_reserved":false,"is_disabled":false,"rental_uris":{"android":"levelo://app?vid=0fe81bbf-5adf-4255-b6ee-85f997715c0d","ios":"levelo://app?vid=0fe81bbf-5adf-4255-b6ee-85f997715c0d"},"vehicle_type_id":"4","last_reported":1728385741,"current_range_meters":25200,"station_id":"ce4bgjh2rcd13ifvqbg0","pricing_plan_id":"cebpf4jnsgd1na2vs0mg"},{"bike_id":"7b977833-bc77-4639-b4a0-2584bdfe26b9","system_id":"levelo_inurba_marseille","lat":43.25086,"lon":5.39525,"is_reserved":false,"is_disabled":false,"rental_uris":{"android":"levelo://app?vid=7b977833-bc77-4639-b4a0-2584bdfe26b9","ios":"levelo://app?vid=7b977833-bc77-4639-b4a0-2584bdfe26b9"},"vehicle_type_id":"4","last_reported":1728385741,"current_range_meters":38400,"station_id":"ce4bhm12rcd13ifvqgkg","pricing_plan_id":"cebpf4jnsgd1na2vs0mg"},{"bike_id":"98121d41-f024-4cf3-9fab-8b1ba4d7d1f1","system_id":"levelo_inurba_marseille","lat":43.2963,"lon":5.37177,"is_reserved":false,"is_disabled":false,"rental_uris":{"android":"levelo://app?vid=98121d41-f024-4cf3-9fab-8b1ba4d7d1f1","ios":"levelo://app?vid=98121d41-f024-4cf3-9fab-8b1ba4d7d1f1"},"vehicle_type_id":"4","last_reported":1728385741,"current_range_meters":37600,"station_id":"ce4bgnh2rcd13ifvqc0g","pricing_plan_id":"cebpf4jnsgd1na2vs0mg"},{"bike_id":"722fbccd-da93-48b0-bb31-7cf76021ce7f","system_id":"levelo_inurba_marseille","lat":43.31691,"lon":5.40472,"is_reserved":false,"is_disabled":false,"rental_uris":{"android":"levelo://app?vid=722fbccd-da93-48b0-bb31-7cf76021ce7f","ios":"levelo://app?vid=722fbccd-da93-48b0-bb31-7cf76021ce7f"},"vehicle_type_id":"4","last_reported":1728385741,"current_range_meters":38000,"station_id":"ce4bh012rcd13ifvqd00","pricing_plan_id":"cebpf4jnsgd1na2vs0mg"},{"bike_id":"a92f6206-1720-4e29-9ed4-ca1db6a5dc4b","system_id":"levelo_inurba_marseille","lat":43.30104,"lon":5.37038,"is_reserved":false,"is_disabled":false,"rental_uris":{"android":"levelo://app?vid=a92f6206-1720-4e29-9ed4-ca1db6a5dc4b","ios":"levelo://app?vid=a92f6206-1720-4e29-9ed4-ca1db6a5dc4b"},"vehicle_type_id":"4","last_reported":1728385741,"current_range_meters":29600,"station_id":"","pricing_plan_id":"cebpf4jnsgd1na2vs0mg"},{"bike_id":"98459ce7-f863-46d1-932f-b1d6988cd971","system_id":"levelo_inurba_marseille","lat":43.30415,"lon":5.4129,"is_reserved":false,"is_disabled":false,"rental_uris":{"android":"levelo://app?vid=98459ce7-f863-46d1-932f-b1d6988cd971","ios":"levelo://app?vid=98459ce7-f863-46d1-932f-b1d6988cd971"},"vehicle_type_id":"4","last_reported":1728385741,"current_range_meters":38800,"station_id":"ce4bhop2rcd13ifvqh8g","pricing_plan_id":"cebpf4jnsgd1na2vs0mg"},{"bike_id":"dea8db57-fb04-474e-ae2a-9989f8f7a511","system_id":"levelo_inurba_marseille","lat":43.30415,"lon":5.39255,"is_reserved":false,"is_disabled":false,"rental_uris":{"android":"levelo://app?vid=dea8db57-fb04-474e-ae2a-9989f8f7a511","ios":"levelo://app?vid=dea8db57-fb04-474e-ae2a-9989f8f7a511"},"vehicle_type_id":"4","last_reported":1728385741,"current_range_meters":37600,"station_id":"ce4bgkh2rcd13ifvqbk0","pricing_plan_id":"cebpf4jnsgd1na2vs0mg"},{"bike_id":"20da9570-1439-4de3-93bb-4a0015421ba9","system_id":"levelo_inurba_marseille","lat":43.240692,"lon":5.377591,"is_reserved":false,"is_disabled":false,"rental_uris":{"android":"levelo://app?vid=20da9570-1439-4de3-93bb-4a0015421ba9","ios":"levelo://app?vid=20da9570-1439-4de3-93bb-4a0015421ba9"},"vehicle_type_id":"4","last_reported":1728385741,"current_range_meters":37600,"station_id":"ce4bhnp2rcd13ifvqgvg","pricing_plan_id":"cebpf4jnsgd1na2vs0mg"},{"bike_id":"2c6f32b3-c072-48f5-a0b0-00c104a69fb8","system_id":"levelo_inurba_marseille","lat":43.292542,"lon":5.384337,"is_reserved":false,"is_disabled":false,"rental_uris":{"android":"levelo://app?vid=2c6f32b3-c072-48f5-a0b0-00c104a69fb8","ios":"levelo://app?vid=2c6f32b3-c072-48f5-a0b0-00c104a69fb8"},"vehicle_type_id":"4","last_reported":1728385741,"current_range_meters":8000,"station_id":"ce4bh692rcd13ifvqea0","pricing_plan_id":"cebpf4jnsgd1na2vs0mg"},{"bike_id":"7ad06205-868a-4802-a1e3-0dc7e4c673d2","system_id":"levelo_inurba_marseille","lat":43.32478,"lon":5.36577,"is_reserved":false,"is_disabled":false,"rental_uris":{"android":"levelo://app?vid=7ad06205-868a-4802-a1e3-0dc7e4c673d2","ios":"levelo://app?vid=7ad06205-868a-4802-a1e3-0dc7e4c673d2"},"vehicle_type_id":"4","last_reported":1728385741,"current_range_meters":30400,"station_id":"ce4bhs12rcd13ifvqhvg","pricing_plan_id":"cebpf4jnsgd1na2vs0mg"},{"bike_id":"6c80a266-5201-49fa-a634-06da8f620caa","system_id":"levelo_inurba_marseille","lat":43.27607,"lon":5.3612,"is_reserved":false,"is_disabled":false,"rental_uris":{"android":"levelo://app?vid=6c80a266-5201-49fa-a634-06da8f620caa","ios":"levelo://app?vid=6c80a266-5201-49fa-a634-06da8f620caa"},"vehicle_type_id":"4","last_reported":1728385741,"current_range_meters":11600,"station_id":"ce4bgj92rcd13ifvqbe0","pricing_plan_id":"cebpf4jnsgd1na2vs0mg"},{"bike_id":"e67d107d-15c6-4f3c-a324-85a63ab81ce7","system_id":"levelo_inurba_marseille","lat":43.27172,"lon":5.4099,"is_reserved":false,"is_disabled":false,"rental_uris":{"android":"levelo://app?vid=e67d107d-15c6-4f3c-a324-85a63ab81ce7","ios":"levelo://app?vid=e67d107d-15c6-4f3c-a324-85a63ab81ce7"},"vehicle_type_id":"4","last_reported":1728385741,"current_range_meters":20800,"station_id":"ce4bhl12rcd13ifvqgf0","pricing_plan_id":"cebpf4jnsgd1na2vs0mg"},{"bike_id":"58f25cab-7704-4a62-b971-ad6c8b9c95a1","system_id":"levelo_inurba_marseille","lat":43.24072,"lon":5.37761,"is_reserved":false,"is_disabled":false,"rental_uris":{"android":"levelo://app?vid=58f25cab-7704-4a62-b971-ad6c8b9c95a1","ios":"levelo://app?vid=58f25cab-7704-4a62-b971-ad6c8b9c95a1"},"vehicle_type_id":"4","last_reported":1728385741,"current_range_meters":10800,"station_id":"ce4bhnp2rcd13ifvqgvg","pricing_plan_id":"cebpf4jnsgd1na2vs0mg"},{"bike_id":"f7612392-4f4b-453b-a64c-499de3c2600f","system_id":"levelo_inurba_marseille","lat":43.24163,"lon":5.36399,"is_reserved":false,"is_disabled":false,"rental_uris":{"android":"levelo://app?vid=f7612392-4f4b-453b-a64c-499de3c2600f","ios":"levelo://app?vid=f7612392-4f4b-453b-a64c-499de3c2600f"},"vehicle_type_id":"4","last_reported":1728385741,"current_range_meters":32000,"station_id":"cpo36qri1sfpv3e86is0","pricing_plan_id":"cebpf4jnsgd1na2vs0mg"},{"bike_id":"8e044f90-9407-4e83-9450-7994c948c41c","system_id":"levelo_inurba_marseille","lat":43.27496,"lon":5.42451,"is_reserved":false,"is_disabled":false,"rental_uris":{"android":"levelo://app?vid=8e044f90-9407-4e83-9450-7994c948c41c","ios":"levelo://app?vid=8e044f90-9407-4e83-9450-7994c948c41c"},"vehicle_type_id":"4","last_reported":1728385741,"current_range_meters":34800,"station_id":"ce4bhn92rcd13ifvqgrg","pricing_plan_id":"cebpf4jnsgd1na2vs0mg"},{"bike_id":"cb24092d-e527-4641-8257-b4b5ac63206c","system_id":"levelo_inurba_marseille","lat":43.291,"lon":5.38134,"is_reserved":false,"is_disabled":false,"rental_uris":{"android":"levelo://app?vid=cb24092d-e527-4641-8257-b4b5ac63206c","ios":"levelo://app?vid=cb24092d-e527-4641-8257-b4b5ac63206c"},"vehicle_type_id":"4","last_reported":1728385741,"current_range_meters":30000,"station_id":"ce4bh512rcd13ifvqe2g","pricing_plan_id":"cebpf4jnsgd1na2vs0mg"},{"bike_id":"7d8b5b98-f33c-47c3-a3f0-364fecb754a9","system_id":"levelo_inurba_marseille","lat":43.26953,"lon":5.3862,"is_reserved":false,"is_disabled":false,"rental_uris":{"android":"levelo://app?vid=7d8b5b98-f33c-47c3-a3f0-364fecb754a9","ios":"levelo://app?vid=7d8b5b98-f33c-47c3-a3f0-364fecb754a9"},"vehicle_type_id":"4","last_reported":1728385741,"current_range_meters":38800,"station_id":"ce4bhh92rcd13ifvqfh0","pricing_plan_id":"cebpf4jnsgd1na2vs0mg"},{"bike_id":"5544aeb8-74b4-448a-a0a3-e419ef0db70b","system_id":"levelo_inurba_marseille","lat":43.32364,"lon":5.38885,"is_reserved":false,"is_disabled":false,"rental_uris":{"android":"levelo://app?vid=5544aeb8-74b4-448a-a0a3-e419ef0db70b","ios":"levelo://app?vid=5544aeb8-74b4-448a-a0a3-e419ef0db70b"},"vehicle_type_id":"4","last_reported":1728385741,"current_range_meters":36800,"station_id":"ce4bhqp2rcd13ifvqhog","pricing_plan_id":"cebpf4jnsgd1na2vs0mg"},{"bike_id":"0556a304-0e97-47c0-9986-18eba88668c0","system_id":"levelo_inurba_marseille","lat":43.290499,"lon":5.359321,"is_reserved":false,"is_disabled":false,"rental_uris":{"android":"levelo://app?vid=0556a304-0e97-47c0-9986-18eba88668c0","ios":"levelo://app?vid=0556a304-0e97-47c0-9986-18eba88668c0"},"vehicle_type_id":"4","last_reported":1728385741,"current_range_meters":13600,"station_id":"ce4bha92rcd13ifvqeg0","pricing_plan_id":"cebpf4jnsgd1na2vs0mg"},{"bike_id":"f10bd89b-9103-4bdd-97c4-1fb022995012","system_id":"levelo_inurba_marseille","lat":43.24171,"lon":5.39734,"is_reserved":false,"is_disabled":false,"rental_uris":{"android":"levelo://app?vid=f10bd89b-9103-4bdd-97c4-1fb022995012","ios":"levelo://app?vid=f10bd89b-9103-4bdd-97c4-1fb022995012"},"vehicle_type_id":"4","last_reported":1728385741,"current_range_meters":8400,"station_id":"ce4bhn12rcd13ifvqgpg","pricing_plan_id":"cebpf4jnsgd1na2vs0mg"},{"bike_id":"510b4a0e-d7b1-4b23-b756-5a1054c50f59","system_id":"levelo_inurba_marseille","lat":43.23154,"lon":5.43709,"is_reserved":false,"is_disabled":false,"rental_uris":{"android":"levelo://app?vid=510b4a0e-d7b1-4b23-b756-5a1054c50f59","ios":"levelo://app?vid=510b4a0e-d7b1-4b23-b756-5a1054c50f59"},"vehicle_type_id":"4","last_reported":1728385741,"current_range_meters":8400,"station_id":"ce4bhmp2rcd13ifvqgog","pricing_plan_id":"cebpf4jnsgd1na2vs0mg"},{"bike_id":"0a8ccba5-237d-43b9-a077-96384e616267","system_id":"levelo_inurba_marseille","lat":43.25929,"lon":5.4091,"is_reserved":false,"is_disabled":false,"rental_uris":{"android":"levelo://app?vid=0a8ccba5-237d-43b9-a077-96384e616267","ios":"levelo://app?vid=0a8ccba5-237d-43b9-a077-96384e616267"},"vehicle_type_id":"4","last_reported":1728385741,"current_range_meters":22400,"station_id":"ce4bhm92rcd13ifvqglg","pricing_plan_id":"cebpf4jnsgd1na2vs0mg"},{"bike_id":"e0752b55-310e-4e26-9fa2-e65d2154a126","system_id":"levelo_inurba_marseille","lat":43.30459,"lon":5.37908,"is_reserved":false,"is_disabled":false,"rental_uris":{"android":"levelo://app?vid=e0752b55-310e-4e26-9fa2-e65d2154a126","ios":"levelo://app?vid=e0752b55-310e-4e26-9fa2-e65d2154a126"},"vehicle_type_id":"4","last_reported":1728385741,"current_range_meters":30400,"station_id":"ce4bgup2rcd13ifvqcn0","pricing_plan_id":"cebpf4jnsgd1na2vs0mg"},{"bike_id":"b356d79d-0fab-4432-9bdf-f65dc71a7233","system_id":"levelo_inurba_marseille","lat":43.30549,"lon":5.36536,"is_reserved":false,"is_disabled":false,"rental_uris":{"android":"levelo://app?vid=b356d79d-0fab-4432-9bdf-f65dc71a7233","ios":"levelo://app?vid=b356d79d-0fab-4432-9bdf-f65dc71a7233"},"vehicle_type_id":"4","last_reported":1728385741,"current_range_meters":39200,"station_id":"ce4bgs12rcd13ifvqcag","pricing_plan_id":"cebpf4jnsgd1na2vs0mg"},{"bike_id":"cf927195-cafe-4fe6-8a9b-b503bf9be2b0","system_id":"levelo_inurba_marseille","lat":43.231843,"lon":5.399933,"is_reserved":false,"is_disabled":false,"rental_uris":{"android":"levelo://app?vid=cf927195-cafe-4fe6-8a9b-b503bf9be2b0","ios":"levelo://app?vid=cf927195-cafe-4fe6-8a9b-b503bf9be2b0"},"vehicle_type_id":"4","last_reported":1728385741,"current_range_meters":38800,"station_id":"ce4bhn12rcd13ifvqgqg","pricing_plan_id":"cebpf4jnsgd1na2vs0mg"},{"bike_id":"556fbc1a-4164-4149-8bdf-aabf62304ff5","system_id":"levelo_inurba_marseille","lat":43.29977,"lon":5.38487,"is_reserved":false,"is_disabled":false,"rental_uris":{"android":"levelo://app?vid=556fbc1a-4164-4149-8bdf-aabf62304ff5","ios":"levelo://app?vid=556fbc1a-4164-4149-8bdf-aabf62304ff5"},"vehicle_type_id":"4","last_reported":1728385741,"current_range_meters":39200,"station_id":"ce4bgj92rcd13ifvqbd0","pricing_plan_id":"cebpf4jnsgd1na2vs0mg"},{"bike_id":"22942128-eccb-447c-a404-8ab36ea27ffe","system_id":"levelo_inurba_marseille","lat":43.2594,"lon":5.40903,"is_reserved":false,"is_disabled":false,"rental_uris":{"android":"levelo://app?vid=22942128-eccb-447c-a404-8ab36ea27ffe","ios":"levelo://app?vid=22942128-eccb-447c-a404-8ab36ea27ffe"},"vehicle_type_id":"4","last_reported":1728385741,"current_range_meters":38000,"station_id":"ce4bhm92rcd13ifvqglg","pricing_plan_id":"cebpf4jnsgd1na2vs0mg"},{"bike_id":"be6e433b-5ac4-4431-848f-cebc8350ecef","system_id":"levelo_inurba_marseille","lat":43.26191,"lon":5.37449,"is_reserved":false,"is_disabled":false,"rental_uris":{"android":"levelo://app?vid=be6e433b-5ac4-4431-848f-cebc8350ecef","ios":"levelo://app?vid=be6e433b-5ac4-4431-848f-cebc8350ecef"},"vehicle_type_id":"4","last_reported":1728385741,"current_range_meters":9600,"station_id":"ce4bhgp2rcd13ifvqfc0","pricing_plan_id":"cebpf4jnsgd1na2vs0mg"},{"bike_id":"bc1a2f42-57f1-40a0-bdd2-69bd874fb985","system_id":"levelo_inurba_marseille","lat":43.24545,"lon":5.39521,"is_reserved":false,"is_disabled":false,"rental_uris":{"android":"levelo://app?vid=bc1a2f42-57f1-40a0-bdd2-69bd874fb985","ios":"levelo://app?vid=bc1a2f42-57f1-40a0-bdd2-69bd874fb985"},"vehicle_type_id":"4","last_reported":1728385741,"current_range_meters":19200,"station_id":"ce4bhlp2rcd13ifvqgjg","pricing_plan_id":"cebpf4jnsgd1na2vs0mg"},{"bike_id":"87aa0675-339f-40b5-800e-9775755a463b","system_id":"levelo_inurba_marseille","lat":43.29063,"lon":5.37165,"is_reserved":false,"is_disabled":false,"rental_uris":{"android":"levelo://app?vid=87aa0675-339f-40b5-800e-9775755a463b","ios":"levelo://app?vid=87aa0675-339f-40b5-800e-9775755a463b"},"vehicle_type_id":"4","last_reported":1728385741,"current_range_meters":39200,"station_id":"ce4bh5p2rcd13ifvqe4g","pricing_plan_id":"cebpf4jnsgd1na2vs0mg"},{"bike_id":"542404d0-7ad8-4d88-9837-14b7ea9cdc5a","system_id":"levelo_inurba_marseille","lat":43.31709,"lon":5.437,"is_reserved":false,"is_disabled":false,"rental_uris":{"android":"levelo://app?vid=542404d0-7ad8-4d88-9837-14b7ea9cdc5a","ios":"levelo://app?vid=542404d0-7ad8-4d88-9837-14b7ea9cdc5a"},"vehicle_type_id":"4","last_reported":1728385741,"current_range_meters":38000,"station_id":"ce4bhp92rcd13ifvqhcg","pricing_plan_id":"cebpf4jnsgd1na2vs0mg"},{"bike_id":"4c4a7e2d-9e86-42d7-8c95-4d80dc9bf749","system_id":"levelo_inurba_marseille","lat":43.33752,"lon":5.37449,"is_reserved":false,"is_disabled":false,"rental_uris":{"android":"levelo://app?vid=4c4a7e2d-9e86-42d7-8c95-4d80dc9bf749","ios":"levelo://app?vid=4c4a7e2d-9e86-42d7-8c95-4d80dc9bf749"},"vehicle_type_id":"4","last_reported":1728385741,"current_range_meters":37600,"station_id":"","pricing_plan_id":"cebpf4jnsgd1na2vs0mg"},{"bike_id":"6731d1b1-b391-47f7-84a2-e5222ded00d2","system_id":"levelo_inurba_marseille","lat":43.33023,"lon":5.39047,"is_reserved":false,"is_disabled":false,"rental_uris":{"android":"levelo://app?vid=6731d1b1-b391-47f7-84a2-e5222ded00d2","ios":"levelo://app?vid=6731d1b1-b391-47f7-84a2-e5222ded00d2"},"vehicle_type_id":"4","last_reported":1728385741,"current_range_meters":25600,"station_id":"ce4bhr92rcd13ifvqhrg","pricing_plan_id":"cebpf4jnsgd1na2vs0mg"},{"bike_id":"0b48fe96-5a73-4eb1-a1e0-ff84cc376fde","system_id":"levelo_inurba_marseille","lat":43.25495,"lon":5.3765,"is_reserved":false,"is_disabled":false,"rental_uris":{"android":"levelo://app?vid=0b48fe96-5a73-4eb1-a1e0-ff84cc376fde","ios":"levelo://app?vid=0b48fe96-5a73-4eb1-a1e0-ff84cc376fde"},"vehicle_type_id":"4","last_reported":1728385741,"current_range_meters":31200,"station_id":"ce4bhh12rcd13ifvqff0","pricing_plan_id":"cebpf4jnsgd1na2vs0mg"},{"bike_id":"39585e24-9284-4558-bd63-27a4a9dd3a64","system_id":"levelo_inurba_marseille","lat":43.25578,"lon":5.38236,"is_reserved":false,"is_disabled":false,"rental_uris":{"android":"levelo://app?vid=39585e24-9284-4558-bd63-27a4a9dd3a64","ios":"levelo://app?vid=39585e24-9284-4558-bd63-27a4a9dd3a64"},"vehicle_type_id":"4","last_reported":1728385741,"current_range_meters":15200,"station_id":"ce4bhih2rcd13ifvqfs0","pricing_plan_id":"cebpf4jnsgd1na2vs0mg"},{"bike_id":"0b176aa5-38c9-4a29-9309-342777105da4","system_id":"levelo_inurba_marseille","lat":43.29624,"lon":5.3717,"is_reserved":false,"is_disabled":false,"rental_uris":{"android":"levelo://app?vid=0b176aa5-38c9-4a29-9309-342777105da4","ios":"levelo://app?vid=0b176aa5-38c9-4a29-9309-342777105da4"},"vehicle_type_id":"4","last_reported":1728385741,"current_range_meters":35600,"station_id":"ce4bgnh2rcd13ifvqc0g","pricing_plan_id":"cebpf4jnsgd1na2vs0mg"},{"bike_id":"2daa0c02-4ad6-4aec-8adf-88d1beaca6a2","system_id":"levelo_inurba_marseille","lat":43.24064,"lon":5.37764,"is_reserved":false,"is_disabled":false,"rental_uris":{"android":"levelo://app?vid=2daa0c02-4ad6-4aec-8adf-88d1beaca6a2","ios":"levelo://app?vid=2daa0c02-4ad6-4aec-8adf-88d1beaca6a2"},"vehicle_type_id":"4","last_reported":1728385741,"current_range_meters":34000,"station_id":"ce4bhnp2rcd13ifvqgvg","pricing_plan_id":"cebpf4jnsgd1na2vs0mg"},{"bike_id":"66dfb237-26d1-4a86-90c5-70160dcc09ca","system_id":"levelo_inurba_marseille","lat":43.2509,"lon":5.39515,"is_reserved":false,"is_disabled":false,"rental_uris":{"android":"levelo://app?vid=66dfb237-26d1-4a86-90c5-70160dcc09ca","ios":"levelo://app?vid=66dfb237-26d1-4a86-90c5-70160dcc09ca"},"vehicle_type_id":"4","last_reported":1728385741,"current_range_meters":38800,"station_id":"ce4bhm12rcd13ifvqgkg","pricing_plan_id":"cebpf4jnsgd1na2vs0mg"},{"bike_id":"eaa679f6-7c9e-4775-96e0-74708828d0e0","system_id":"levelo_inurba_marseille","lat":43.25824,"lon":5.39429,"is_reserved":false,"is_disabled":false,"rental_uris":{"android":"levelo://app?vid=eaa679f6-7c9e-4775-96e0-74708828d0e0","ios":"levelo://app?vid=eaa679f6-7c9e-4775-96e0-74708828d0e0"},"vehicle_type_id":"4","last_reported":1728385741,"current_range_meters":18800,"station_id":"ce4bhip2rcd13ifvqft0","pricing_plan_id":"cebpf4jnsgd1na2vs0mg"},{"bike_id":"8c57ef0e-a429-4a21-8b4d-70eeecda1108","system_id":"levelo_inurba_marseille","lat":43.25937,"lon":5.40902,"is_reserved":false,"is_disabled":false,"rental_uris":{"android":"levelo://app?vid=8c57ef0e-a429-4a21-8b4d-70eeecda1108","ios":"levelo://app?vid=8c57ef0e-a429-4a21-8b4d-70eeecda1108"},"vehicle_type_id":"4","last_reported":1728385741,"current_range_meters":9200,"station_id":"ce4bhm92rcd13ifvqglg","pricing_plan_id":"cebpf4jnsgd1na2vs0mg"},{"bike_id":"eb629d40-ee95-434a-befb-e174aa0575eb","system_id":"levelo_inurba_marseille","lat":43.27072,"lon":5.42276,"is_reserved":false,"is_disabled":false,"rental_uris":{"android":"levelo://app?vid=eb629d40-ee95-434a-befb-e174aa0575eb","ios":"levelo://app?vid=eb629d40-ee95-434a-befb-e174aa0575eb"},"vehicle_type_id":"4","last_reported":1728385741,"current_range_meters":36000,"station_id":"ce4bhk92rcd13ifvqgb0","pricing_plan_id":"cebpf4jnsgd1na2vs0mg"},{"bike_id":"bdc05b0f-fbc0-4394-afc7-c5510d5a1091","system_id":"levelo_inurba_marseille","lat":43.28615,"lon":5.35101,"is_reserved":false,"is_disabled":false,"rental_uris":{"android":"levelo://app?vid=bdc05b0f-fbc0-4394-afc7-c5510d5a1091","ios":"levelo://app?vid=bdc05b0f-fbc0-4394-afc7-c5510d5a1091"},"vehicle_type_id":"4","last_reported":1728385741,"current_range_meters":38000,"station_id":"ce4bhch2rcd13ifvqeug","pricing_plan_id":"cebpf4jnsgd1na2vs0mg"},{"bike_id":"f9d644f2-8d7c-4d08-954d-547864f0a8a3","system_id":"levelo_inurba_marseille","lat":43.30543,"lon":5.36706,"is_reserved":false,"is_disabled":false,"rental_uris":{"android":"levelo://app?vid=f9d644f2-8d7c-4d08-954d-547864f0a8a3","ios":"levelo://app?vid=f9d644f2-8d7c-4d08-954d-547864f0a8a3"},"vehicle_type_id":"4","last_reported":1728385741,"current_range_meters":38000,"station_id":"ce4bgrp2rcd13ifvqc9g","pricing_plan_id":"cebpf4jnsgd1na2vs0mg"},{"bike_id":"519e7086-4896-4f0a-8982-855198a24ed8","system_id":"levelo_inurba_marseille","lat":43.23153,"lon":5.43715,"is_reserved":false,"is_disabled":false,"rental_uris":{"android":"levelo://app?vid=519e7086-4896-4f0a-8982-855198a24ed8","ios":"levelo://app?vid=519e7086-4896-4f0a-8982-855198a24ed8"},"vehicle_type_id":"4","last_reported":1728385741,"current_range_meters":2000,"station_id":"ce4bhmp2rcd13ifvqgog","pricing_plan_id":"cebpf4jnsgd1na2vs0mg"},{"bike_id":"be16dad7-fca0-4cf5-9e33-ea3ea39ec1b6","system_id":"levelo_inurba_marseille","lat":43.29714,"lon":5.37693,"is_reserved":false,"is_disabled":false,"rental_uris":{"android":"levelo://app?vid=be16dad7-fca0-4cf5-9e33-ea3ea39ec1b6","ios":"levelo://app?vid=be16dad7-fca0-4cf5-9e33-ea3ea39ec1b6"},"vehicle_type_id":"4","last_reported":1728385741,"current_range_meters":22800,"station_id":"ce4bgkh2rcd13ifvqbl0","pricing_plan_id":"cebpf4jnsgd1na2vs0mg"},{"bike_id":"f1510c6a-ec9a-4cb6-ba53-8ced3616703a","system_id":"levelo_inurba_marseille","lat":43.32477,"lon":5.36573,"is_reserved":false,"is_disabled":false,"rental_uris":{"android":"levelo://app?vid=f1510c6a-ec9a-4cb6-ba53-8ced3616703a","ios":"levelo://app?vid=f1510c6a-ec9a-4cb6-ba53-8ced3616703a"},"vehicle_type_id":"4","last_reported":1728385741,"current_range_meters":38000,"station_id":"ce4bhs12rcd13ifvqhvg","pricing_plan_id":"cebpf4jnsgd1na2vs0mg"},{"bike_id":"e7c0b0bf-57aa-4403-8065-1e9dadcd3dd9","system_id":"levelo_inurba_marseille","lat":43.29623,"lon":5.37166,"is_reserved":false,"is_disabled":false,"rental_uris":{"android":"levelo://app?vid=e7c0b0bf-57aa-4403-8065-1e9dadcd3dd9","ios":"levelo://app?vid=e7c0b0bf-57aa-4403-8065-1e9dadcd3dd9"},"vehicle_type_id":"4","last_reported":1728385741,"current_range_meters":37600,"station_id":"ce4bgnh2rcd13ifvqc0g","pricing_plan_id":"cebpf4jnsgd1na2vs0mg"},{"bike_id":"e750d3c3-df16-407a-b157-edf9172a65b7","system_id":"levelo_inurba_marseille","lat":43.33746,"lon":5.37441,"is_reserved":false,"is_disabled":false,"rental_uris":{"android":"levelo://app?vid=e750d3c3-df16-407a-b157-edf9172a65b7","ios":"levelo://app?vid=e750d3c3-df16-407a-b157-edf9172a65b7"},"vehicle_type_id":"4","last_reported":1728385741,"current_range_meters":21600,"station_id":"","pricing_plan_id":"cebpf4jnsgd1na2vs0mg"},{"bike_id":"5e43c5a9-b674-4529-8b56-808e9103d8ad","system_id":"levelo_inurba_marseille","lat":43.27917,"lon":5.39581,"is_reserved":false,"is_disabled":false,"rental_uris":{"android":"levelo://app?vid=5e43c5a9-b674-4529-8b56-808e9103d8ad","ios":"levelo://app?vid=5e43c5a9-b674-4529-8b56-808e9103d8ad"},"vehicle_type_id":"4","last_reported":1728385741,"current_range_meters":38800,"station_id":"ce4bhf92rcd13ifvqf40","pricing_plan_id":"cebpf4jnsgd1na2vs0mg"},{"bike_id":"09ef71aa-0817-4eb5-83ac-bde0ebd31387","system_id":"levelo_inurba_marseille","lat":43.32365,"lon":5.38884,"is_reserved":false,"is_disabled":false,"rental_uris":{"android":"levelo://app?vid=09ef71aa-0817-4eb5-83ac-bde0ebd31387","ios":"levelo://app?vid=09ef71aa-0817-4eb5-83ac-bde0ebd31387"},"vehicle_type_id":"4","last_reported":1728385741,"current_range_meters":37600,"station_id":"ce4bhqp2rcd13ifvqhog","pricing_plan_id":"cebpf4jnsgd1na2vs0mg"},{"bike_id":"de29de76-cb6e-4159-b496-a41415fb52db","system_id":"levelo_inurba_marseille","lat":43.29579,"lon":5.36739,"is_reserved":false,"is_disabled":false,"rental_uris":{"android":"levelo://app?vid=de29de76-cb6e-4159-b496-a41415fb52db","ios":"levelo://app?vid=de29de76-cb6e-4159-b496-a41415fb52db"},"vehicle_type_id":"4","last_reported":1728385741,"current_range_meters":36000,"station_id":"ce4bgph2rcd13ifvqc2g","pricing_plan_id":"cebpf4jnsgd1na2vs0mg"},{"bike_id":"2bc8224e-64f6-45f5-a13f-e383a4583002","system_id":"levelo_inurba_marseille","lat":43.32337,"lon":5.40622,"is_reserved":false,"is_disabled":false,"rental_uris":{"android":"levelo://app?vid=2bc8224e-64f6-45f5-a13f-e383a4583002","ios":"levelo://app?vid=2bc8224e-64f6-45f5-a13f-e383a4583002"},"vehicle_type_id":"4","last_reported":1728385741,"current_range_meters":29600,"station_id":"ce4bhq92rcd13ifvqhjg","pricing_plan_id":"cebpf4jnsgd1na2vs0mg"},{"bike_id":"6826c930-8aa2-4db5-96a6-4b67fd5214fe","system_id":"levelo_inurba_marseille","lat":43.28268,"lon":5.35065,"is_reserved":false,"is_disabled":false,"rental_uris":{"android":"levelo://app?vid=6826c930-8aa2-4db5-96a6-4b67fd5214fe","ios":"levelo://app?vid=6826c930-8aa2-4db5-96a6-4b67fd5214fe"},"vehicle_type_id":"4","last_reported":1728385741,"current_range_meters":38000,"station_id":"ce4bhbp2rcd13ifvqerg","pricing_plan_id":"cebpf4jnsgd1na2vs0mg"},{"bike_id":"b1cd6d27-2b58-4b75-9bff-4e258a2c2a09","system_id":"levelo_inurba_marseille","lat":43.23159,"lon":5.43721,"is_reserved":false,"is_disabled":false,"rental_uris":{"android":"levelo://app?vid=b1cd6d27-2b58-4b75-9bff-4e258a2c2a09","ios":"levelo://app?vid=b1cd6d27-2b58-4b75-9bff-4e258a2c2a09"},"vehicle_type_id":"4","last_reported":1728385741,"current_range_meters":6400,"station_id":"ce4bhmp2rcd13ifvqgog","pricing_plan_id":"cebpf4jnsgd1na2vs0mg"},{"bike_id":"dc1ec459-8ca2-4ca4-931b-614c6997c547","system_id":"levelo_inurba_marseille","lat":43.30976,"lon":5.40146,"is_reserved":false,"is_disabled":false,"rental_uris":{"android":"levelo://app?vid=dc1ec459-8ca2-4ca4-931b-614c6997c547","ios":"levelo://app?vid=dc1ec459-8ca2-4ca4-931b-614c6997c547"},"vehicle_type_id":"4","last_reported":1728385741,"current_range_meters":20000,"station_id":"ce4bgvp2rcd13ifvqct0","pricing_plan_id":"cebpf4jnsgd1na2vs0mg"},{"bike_id":"beb18f7a-c189-435a-b722-7a216f5e3950","system_id":"levelo_inurba_marseille","lat":43.24077,"lon":5.37757,"is_reserved":false,"is_disabled":false,"rental_uris":{"android":"levelo://app?vid=beb18f7a-c189-435a-b722-7a216f5e3950","ios":"levelo://app?vid=beb18f7a-c189-435a-b722-7a216f5e3950"},"vehicle_type_id":"4","last_reported":1728385741,"current_range_meters":38400,"station_id":"ce4bhnp2rcd13ifvqgvg","pricing_plan_id":"cebpf4jnsgd1na2vs0mg"},{"bike_id":"71be41e5-3ea9-405d-9b5c-c071f532b71d","system_id":"levelo_inurba_marseille","lat":43.30354,"lon":5.41872,"is_reserved":false,"is_disabled":false,"rental_uris":{"android":"levelo://app?vid=71be41e5-3ea9-405d-9b5c-c071f532b71d","ios":"levelo://app?vid=71be41e5-3ea9-405d-9b5c-c071f532b71d"},"vehicle_type_id":"4","last_reported":1728385741,"current_range_meters":19600,"station_id":"ce4bhop2rcd13ifvqh7g","pricing_plan_id":"cebpf4jnsgd1na2vs0mg"},{"bike_id":"ebd3b3b2-a959-4a6d-ae8f-d1bfb6869fb1","system_id":"levelo_inurba_marseille","lat":43.29433,"lon":5.39754,"is_reserved":false,"is_disabled":false,"rental_uris":{"android":"levelo://app?vid=ebd3b3b2-a959-4a6d-ae8f-d1bfb6869fb1","ios":"levelo://app?vid=ebd3b3b2-a959-4a6d-ae8f-d1bfb6869fb1"},"vehicle_type_id":"4","last_reported":1728385741,"current_range_meters":23200,"station_id":"ce4bh3h2rcd13ifvqdo0","pricing_plan_id":"cebpf4jnsgd1na2vs0mg"},{"bike_id":"7a284141-427f-4b3a-b279-a9138bc649ca","system_id":"levelo_inurba_marseille","lat":43.33024,"lon":5.39041,"is_reserved":false,"is_disabled":false,"rental_uris":{"android":"levelo://app?vid=7a284141-427f-4b3a-b279-a9138bc649ca","ios":"levelo://app?vid=7a284141-427f-4b3a-b279-a9138bc649ca"},"vehicle_type_id":"4","last_reported":1728385741,"current_range_meters":37600,"station_id":"ce4bhr92rcd13ifvqhrg","pricing_plan_id":"cebpf4jnsgd1na2vs0mg"},{"bike_id":"c190b4a1-ea1d-47e2-b2e8-eefa3099f9cc","system_id":"levelo_inurba_marseille","lat":43.23193,"lon":5.35551,"is_reserved":false,"is_disabled":false,"rental_uris":{"android":"levelo://app?vid=c190b4a1-ea1d-47e2-b2e8-eefa3099f9cc","ios":"levelo://app?vid=c190b4a1-ea1d-47e2-b2e8-eefa3099f9cc"},"vehicle_type_id":"4","last_reported":1728385741,"current_range_meters":36800,"station_id":"ce4bhu92rcd13ifvqi70","pricing_plan_id":"cebpf4jnsgd1na2vs0mg"},{"bike_id":"6f34ba66-dc7e-4580-ad03-13f9f6e9f96e","system_id":"levelo_inurba_marseille","lat":43.32477,"lon":5.36568,"is_reserved":false,"is_disabled":false,"rental_uris":{"android":"levelo://app?vid=6f34ba66-dc7e-4580-ad03-13f9f6e9f96e","ios":"levelo://app?vid=6f34ba66-dc7e-4580-ad03-13f9f6e9f96e"},"vehicle_type_id":"4","last_reported":1728385741,"current_range_meters":38800,"station_id":"ce4bhs12rcd13ifvqhvg","pricing_plan_id":"cebpf4jnsgd1na2vs0mg"},{"bike_id":"ff5ba5ff-b9bc-44eb-9be7-e35bd733d917","system_id":"levelo_inurba_marseille","lat":43.24169,"lon":5.36396,"is_reserved":false,"is_disabled":false,"rental_uris":{"android":"levelo://app?vid=ff5ba5ff-b9bc-44eb-9be7-e35bd733d917","ios":"levelo://app?vid=ff5ba5ff-b9bc-44eb-9be7-e35bd733d917"},"vehicle_type_id":"4","last_reported":1728385741,"current_range_meters":36800,"station_id":"cpo36qri1sfpv3e86is0","pricing_plan_id":"cebpf4jnsgd1na2vs0mg"},{"bike_id":"92858b3e-8932-4b62-8ab8-5c65b635e7d9","system_id":"levelo_inurba_marseille","lat":43.27495,"lon":5.42447,"is_reserved":false,"is_disabled":false,"rental_uris":{"android":"levelo://app?vid=92858b3e-8932-4b62-8ab8-5c65b635e7d9","ios":"levelo://app?vid=92858b3e-8932-4b62-8ab8-5c65b635e7d9"},"vehicle_type_id":"4","last_reported":1728385741,"current_range_meters":35200,"station_id":"ce4bhn92rcd13ifvqgrg","pricing_plan_id":"cebpf4jnsgd1na2vs0mg"},{"bike_id":"1d6fe866-e5a6-4cae-9c9a-6f55815c6cc1","system_id":"levelo_inurba_marseille","lat":43.312178,"lon":5.368742,"is_reserved":false,"is_disabled":false,"rental_uris":{"android":"levelo://app?vid=1d6fe866-e5a6-4cae-9c9a-6f55815c6cc1","ios":"levelo://app?vid=1d6fe866-e5a6-4cae-9c9a-6f55815c6cc1"},"vehicle_type_id":"4","last_reported":1728385741,"current_range_meters":31200,"station_id":"ce4bgl92rcd13ifvqbq0","pricing_plan_id":"cebpf4jnsgd1na2vs0mg"},{"bike_id":"955c328e-e968-4a30-8113-f331944b6dfb","system_id":"levelo_inurba_marseille","lat":43.28613,"lon":5.35105,"is_reserved":false,"is_disabled":false,"rental_uris":{"android":"levelo://app?vid=955c328e-e968-4a30-8113-f331944b6dfb","ios":"levelo://app?vid=955c328e-e968-4a30-8113-f331944b6dfb"},"vehicle_type_id":"4","last_reported":1728385741,"current_range_meters":22800,"station_id":"ce4bhch2rcd13ifvqeug","pricing_plan_id":"cebpf4jnsgd1na2vs0mg"},{"bike_id":"27514479-21bd-481a-b4c1-6ab8a28200b9","system_id":"levelo_inurba_marseille","lat":43.28937,"lon":5.36643,"is_reserved":false,"is_disabled":false,"rental_uris":{"android":"levelo://app?vid=27514479-21bd-481a-b4c1-6ab8a28200b9","ios":"levelo://app?vid=27514479-21bd-481a-b4c1-6ab8a28200b9"},"vehicle_type_id":"4","last_reported":1728385741,"current_range_meters":30800,"station_id":"ce4bhap2rcd13ifvqek0","pricing_plan_id":"cebpf4jnsgd1na2vs0mg"},{"bike_id":"0da12dc5-a01c-45d0-88ae-e3a63d18cd59","system_id":"levelo_inurba_marseille","lat":43.26491,"lon":5.39542,"is_reserved":false,"is_disabled":false,"rental_uris":{"android":"levelo://app?vid=0da12dc5-a01c-45d0-88ae-e3a63d18cd59","ios":"levelo://app?vid=0da12dc5-a01c-45d0-88ae-e3a63d18cd59"},"vehicle_type_id":"4","last_reported":1728385741,"current_range_meters":9200,"station_id":"ce4bhi12rcd13ifvqfq0","pricing_plan_id":"cebpf4jnsgd1na2vs0mg"},{"bike_id":"fa4c4cc3-cf3f-4f9a-a727-2ef93f50288a","system_id":"levelo_inurba_marseille","lat":43.23152,"lon":5.43714,"is_reserved":false,"is_disabled":false,"rental_uris":{"android":"levelo://app?vid=fa4c4cc3-cf3f-4f9a-a727-2ef93f50288a","ios":"levelo://app?vid=fa4c4cc3-cf3f-4f9a-a727-2ef93f50288a"},"vehicle_type_id":"4","last_reported":1728385741,"current_range_meters":38800,"station_id":"ce4bhmp2rcd13ifvqgog","pricing_plan_id":"cebpf4jnsgd1na2vs0mg"},{"bike_id":"74d9a3c9-96b5-4dbf-b3c3-81ef3a14d238","system_id":"levelo_inurba_marseille","lat":43.23149,"lon":5.4372,"is_reserved":false,"is_disabled":false,"rental_uris":{"android":"levelo://app?vid=74d9a3c9-96b5-4dbf-b3c3-81ef3a14d238","ios":"levelo://app?vid=74d9a3c9-96b5-4dbf-b3c3-81ef3a14d238"},"vehicle_type_id":"4","last_reported":1728385741,"current_range_meters":7200,"station_id":"ce4bhmp2rcd13ifvqgog","pricing_plan_id":"cebpf4jnsgd1na2vs0mg"},{"bike_id":"62b34113-8f5d-4dd4-8ae3-6ba20b54a8e1","system_id":"levelo_inurba_marseille","lat":43.29721,"lon":5.37689,"is_reserved":false,"is_disabled":false,"rental_uris":{"android":"levelo://app?vid=62b34113-8f5d-4dd4-8ae3-6ba20b54a8e1","ios":"levelo://app?vid=62b34113-8f5d-4dd4-8ae3-6ba20b54a8e1"},"vehicle_type_id":"4","last_reported":1728385741,"current_range_meters":28800,"station_id":"ce4bgkh2rcd13ifvqbl0","pricing_plan_id":"cebpf4jnsgd1na2vs0mg"},{"bike_id":"16059a15-afdf-4f1d-84cb-7cfde15d704d","system_id":"levelo_inurba_marseille","lat":43.30534,"lon":5.36541,"is_reserved":false,"is_disabled":false,"rental_uris":{"android":"levelo://app?vid=16059a15-afdf-4f1d-84cb-7cfde15d704d","ios":"levelo://app?vid=16059a15-afdf-4f1d-84cb-7cfde15d704d"},"vehicle_type_id":"4","last_reported":1728385741,"current_range_meters":27200,"station_id":"ce4bgs12rcd13ifvqcag","pricing_plan_id":"cebpf4jnsgd1na2vs0mg"},{"bike_id":"d20b5417-d7c8-469b-98db-d4dae4952d5f","system_id":"levelo_inurba_marseille","lat":43.28353,"lon":5.38101,"is_reserved":false,"is_disabled":false,"rental_uris":{"android":"levelo://app?vid=d20b5417-d7c8-469b-98db-d4dae4952d5f","ios":"levelo://app?vid=d20b5417-d7c8-469b-98db-d4dae4952d5f"},"vehicle_type_id":"4","last_reported":1728385741,"current_range_meters":36400,"station_id":"ce4bh412rcd13ifvqdr0","pricing_plan_id":"cebpf4jnsgd1na2vs0mg"},{"bike_id":"dafbe001-ebbb-4e98-b3d7-c871b5fc47e0","system_id":"levelo_inurba_marseille","lat":43.31355,"lon":5.36716,"is_reserved":false,"is_disabled":false,"rental_uris":{"android":"levelo://app?vid=dafbe001-ebbb-4e98-b3d7-c871b5fc47e0","ios":"levelo://app?vid=dafbe001-ebbb-4e98-b3d7-c871b5fc47e0"},"vehicle_type_id":"4","last_reported":1728385741,"current_range_meters":30800,"station_id":"ce4bgr92rcd13ifvqc6g","pricing_plan_id":"cebpf4jnsgd1na2vs0mg"},{"bike_id":"8c071b9e-2db5-4e0d-a9f9-97dc98100095","system_id":"levelo_inurba_marseille","lat":43.23148,"lon":5.43712,"is_reserved":false,"is_disabled":false,"rental_uris":{"android":"levelo://app?vid=8c071b9e-2db5-4e0d-a9f9-97dc98100095","ios":"levelo://app?vid=8c071b9e-2db5-4e0d-a9f9-97dc98100095"},"vehicle_type_id":"4","last_reported":1728385741,"current_range_meters":29600,"station_id":"ce4bhmp2rcd13ifvqgog","pricing_plan_id":"cebpf4jnsgd1na2vs0mg"},{"bike_id":"7007c8cf-1cb1-48e8-8f28-c25ecf47cb47","system_id":"levelo_inurba_marseille","lat":43.30935,"lon":5.4014,"is_reserved":false,"is_disabled":false,"rental_uris":{"android":"levelo://app?vid=7007c8cf-1cb1-48e8-8f28-c25ecf47cb47","ios":"levelo://app?vid=7007c8cf-1cb1-48e8-8f28-c25ecf47cb47"},"vehicle_type_id":"4","last_reported":1728385741,"current_range_meters":39200,"station_id":"ce4bgvp2rcd13ifvqct0","pricing_plan_id":"cebpf4jnsgd1na2vs0mg"},{"bike_id":"17fdf762-cff7-44db-9753-bfee01d63611","system_id":"levelo_inurba_marseille","lat":43.28701,"lon":5.39985,"is_reserved":false,"is_disabled":false,"rental_uris":{"android":"levelo://app?vid=17fdf762-cff7-44db-9753-bfee01d63611","ios":"levelo://app?vid=17fdf762-cff7-44db-9753-bfee01d63611"},"vehicle_type_id":"4","last_reported":1728385741,"current_range_meters":38000,"station_id":"ce4bho92rcd13ifvqh3g","pricing_plan_id":"cebpf4jnsgd1na2vs0mg"},{"bike_id":"9bba2d73-f4b0-495d-9334-bae6702705f3","system_id":"levelo_inurba_marseille","lat":43.26941,"lon":5.38624,"is_reserved":false,"is_disabled":false,"rental_uris":{"android":"levelo://app?vid=9bba2d73-f4b0-495d-9334-bae6702705f3","ios":"levelo://app?vid=9bba2d73-f4b0-495d-9334-bae6702705f3"},"vehicle_type_id":"4","last_reported":1728385741,"current_range_meters":10800,"station_id":"ce4bhh92rcd13ifvqfh0","pricing_plan_id":"cebpf4jnsgd1na2vs0mg"},{"bike_id":"7835ccc4-dc46-4842-84a8-a5c2e837c5e6","system_id":"levelo_inurba_marseille","lat":43.26026,"lon":5.37549,"is_reserved":false,"is_disabled":false,"rental_uris":{"android":"levelo://app?vid=7835ccc4-dc46-4842-84a8-a5c2e837c5e6","ios":"levelo://app?vid=7835ccc4-dc46-4842-84a8-a5c2e837c5e6"},"vehicle_type_id":"4","last_reported":1728385741,"current_range_meters":30000,"station_id":"ce4bhgh2rcd13ifvqfa0","pricing_plan_id":"cebpf4jnsgd1na2vs0mg"},{"bike_id":"ee7db022-23d0-49ee-b610-0e44c387a898","system_id":"levelo_inurba_marseille","lat":43.2869,"lon":5.37395,"is_reserved":false,"is_disabled":false,"rental_uris":{"android":"levelo://app?vid=ee7db022-23d0-49ee-b610-0e44c387a898","ios":"levelo://app?vid=ee7db022-23d0-49ee-b610-0e44c387a898"},"vehicle_type_id":"4","last_reported":1728385741,"current_range_meters":31200,"station_id":"ce4bh3p2rcd13ifvqdq0","pricing_plan_id":"cebpf4jnsgd1na2vs0mg"},{"bike_id":"f236458b-a68f-4be5-ae65-f5ccd4ea25a1","system_id":"levelo_inurba_marseille","lat":43.31996,"lon":5.3815,"is_reserved":false,"is_disabled":false,"rental_uris":{"android":"levelo://app?vid=f236458b-a68f-4be5-ae65-f5ccd4ea25a1","ios":"levelo://app?vid=f236458b-a68f-4be5-ae65-f5ccd4ea25a1"},"vehicle_type_id":"4","last_reported":1728385741,"current_range_meters":40000,"station_id":"ce4bhr12rcd13ifvqhpg","pricing_plan_id":"cebpf4jnsgd1na2vs0mg"},{"bike_id":"404b4697-2249-46d0-afb0-44351c2d122f","system_id":"levelo_inurba_marseille","lat":43.29552,"lon":5.42295,"is_reserved":false,"is_disabled":false,"rental_uris":{"android":"levelo://app?vid=404b4697-2249-46d0-afb0-44351c2d122f","ios":"levelo://app?vid=404b4697-2249-46d0-afb0-44351c2d122f"},"vehicle_type_id":"4","last_reported":1728385741,"current_range_meters":17200,"station_id":"ce4bhph2rcd13ifvqhdg","pricing_plan_id":"cebpf4jnsgd1na2vs0mg"},{"bike_id":"b625834a-54ef-4eab-8c9d-e8c85e149a97","system_id":"levelo_inurba_marseille","lat":43.31081,"lon":5.4243,"is_reserved":false,"is_disabled":false,"rental_uris":{"android":"levelo://app?vid=b625834a-54ef-4eab-8c9d-e8c85e149a97","ios":"levelo://app?vid=b625834a-54ef-4eab-8c9d-e8c85e149a97"},"vehicle_type_id":"4","last_reported":1728385741,"current_range_meters":37600,"station_id":"ce4bhp92rcd13ifvqhag","pricing_plan_id":"cebpf4jnsgd1na2vs0mg"},{"bike_id":"24c55d13-da76-410b-83e4-1b18d39a36d2","system_id":"levelo_inurba_marseille","lat":43.312225,"lon":5.368535,"is_reserved":false,"is_disabled":false,"rental_uris":{"android":"levelo://app?vid=24c55d13-da76-410b-83e4-1b18d39a36d2","ios":"levelo://app?vid=24c55d13-da76-410b-83e4-1b18d39a36d2"},"vehicle_type_id":"4","last_reported":1728385741,"current_range_meters":10000,"station_id":"ce4bhs12rcd13ifvqhvg","pricing_plan_id":"cebpf4jnsgd1na2vs0mg"},{"bike_id":"5255b51b-7cbf-49be-9a65-78e8b330ab84","system_id":"levelo_inurba_marseille","lat":43.29814,"lon":5.40432,"is_reserved":false,"is_disabled":false,"rental_uris":{"android":"levelo://app?vid=5255b51b-7cbf-49be-9a65-78e8b330ab84","ios":"levelo://app?vid=5255b51b-7cbf-49be-9a65-78e8b330ab84"},"vehicle_type_id":"4","last_reported":1728385741,"current_range_meters":27200,"station_id":"ce4bh112rcd13ifvqd90","pricing_plan_id":"cebpf4jnsgd1na2vs0mg"},{"bike_id":"a1f83808-88c0-4694-b52b-fdded58a2829","system_id":"levelo_inurba_marseille","lat":43.306,"lon":5.39351,"is_reserved":false,"is_disabled":false,"rental_uris":{"android":"levelo://app?vid=a1f83808-88c0-4694-b52b-fdded58a2829","ios":"levelo://app?vid=a1f83808-88c0-4694-b52b-fdded58a2829"},"vehicle_type_id":"4","last_reported":1728385741,"current_range_meters":38800,"station_id":"ce4bh0p2rcd13ifvqd80","pricing_plan_id":"cebpf4jnsgd1na2vs0mg"},{"bike_id":"d5c4ef42-f49e-4132-8030-e662853db584","system_id":"levelo_inurba_marseille","lat":43.25576,"lon":5.38227,"is_reserved":false,"is_disabled":false,"rental_uris":{"android":"levelo://app?vid=d5c4ef42-f49e-4132-8030-e662853db584","ios":"levelo://app?vid=d5c4ef42-f49e-4132-8030-e662853db584"},"vehicle_type_id":"4","last_reported":1728385741,"current_range_meters":36800,"station_id":"ce4bhih2rcd13ifvqfs0","pricing_plan_id":"cebpf4jnsgd1na2vs0mg"},{"bike_id":"d4b41b5a-4cec-47fc-8b0f-4ee889ae7964","system_id":"levelo_inurba_marseille","lat":43.31214,"lon":5.36865,"is_reserved":false,"is_disabled":false,"rental_uris":{"android":"levelo://app?vid=d4b41b5a-4cec-47fc-8b0f-4ee889ae7964","ios":"levelo://app?vid=d4b41b5a-4cec-47fc-8b0f-4ee889ae7964"},"vehicle_type_id":"4","last_reported":1728385741,"current_range_meters":28800,"station_id":"ce4bgl92rcd13ifvqbq0","pricing_plan_id":"cebpf4jnsgd1na2vs0mg"},{"bike_id":"e604d650-c7ed-4f67-97be-2c873f4ba4a0","system_id":"levelo_inurba_marseille","lat":43.29979,"lon":5.38492,"is_reserved":false,"is_disabled":false,"rental_uris":{"android":"levelo://app?vid=e604d650-c7ed-4f67-97be-2c873f4ba4a0","ios":"levelo://app?vid=e604d650-c7ed-4f67-97be-2c873f4ba4a0"},"vehicle_type_id":"4","last_reported":1728385741,"current_range_meters":26000,"station_id":"ce4bgj92rcd13ifvqbd0","pricing_plan_id":"cebpf4jnsgd1na2vs0mg"},{"bike_id":"b152bf42-8d46-4b21-afe6-8350ca43f661","system_id":"levelo_inurba_marseille","lat":43.337444,"lon":5.374475,"is_reserved":false,"is_disabled":false,"rental_uris":{"android":"levelo://app?vid=b152bf42-8d46-4b21-afe6-8350ca43f661","ios":"levelo://app?vid=b152bf42-8d46-4b21-afe6-8350ca43f661"},"vehicle_type_id":"4","last_reported":1728385741,"current_range_meters":38800,"station_id":"","pricing_plan_id":"cebpf4jnsgd1na2vs0mg"},{"bike_id":"d306ba31-90ae-469d-a1b5-7be11dedb8b0","system_id":"levelo_inurba_marseille","lat":43.29715,"lon":5.36607,"is_reserved":false,"is_disabled":false,"rental_uris":{"android":"levelo://app?vid=d306ba31-90ae-469d-a1b5-7be11dedb8b0","ios":"levelo://app?vid=d306ba31-90ae-469d-a1b5-7be11dedb8b0"},"vehicle_type_id":"4","last_reported":1728385741,"current_range_meters":25200,"station_id":"ce4bgn12rcd13ifvqbt0","pricing_plan_id":"cebpf4jnsgd1na2vs0mg"},{"bike_id":"8e6bab5c-7b5c-42c0-8333-ab73df8a5782","system_id":"levelo_inurba_marseille","lat":43.273163,"lon":5.385352,"is_reserved":false,"is_disabled":false,"rental_uris":{"android":"levelo://app?vid=8e6bab5c-7b5c-42c0-8333-ab73df8a5782","ios":"levelo://app?vid=8e6bab5c-7b5c-42c0-8333-ab73df8a5782"},"vehicle_type_id":"4","last_reported":1728385741,"current_range_meters":20000,"station_id":"ce4bh412rcd13ifvqdr0","pricing_plan_id":"cebpf4jnsgd1na2vs0mg"},{"bike_id":"18a88154-761d-4276-badb-30e5b8a253b3","system_id":"levelo_inurba_marseille","lat":43.29984,"lon":5.37188,"is_reserved":false,"is_disabled":false,"rental_uris":{"android":"levelo://app?vid=18a88154-761d-4276-badb-30e5b8a253b3","ios":"levelo://app?vid=18a88154-761d-4276-badb-30e5b8a253b3"},"vehicle_type_id":"4","last_reported":1728385741,"current_range_meters":36800,"station_id":"ce4bgr92rcd13ifvqc7g","pricing_plan_id":"cebpf4jnsgd1na2vs0mg"},{"bike_id":"5106ab18-5402-48a7-9497-d3150f48e6cc","system_id":"levelo_inurba_marseille","lat":43.27171,"lon":5.40991,"is_reserved":false,"is_disabled":false,"rental_uris":{"android":"levelo://app?vid=5106ab18-5402-48a7-9497-d3150f48e6cc","ios":"levelo://app?vid=5106ab18-5402-48a7-9497-d3150f48e6cc"},"vehicle_type_id":"4","last_reported":1728385741,"current_range_meters":21600,"station_id":"ce4bhl12rcd13ifvqgf0","pricing_plan_id":"cebpf4jnsgd1na2vs0mg"},{"bike_id":"f8a82c48-0f3b-4cd6-9367-d39909f15e00","system_id":"levelo_inurba_marseille","lat":43.28932,"lon":5.39631,"is_reserved":false,"is_disabled":false,"rental_uris":{"android":"levelo://app?vid=f8a82c48-0f3b-4cd6-9367-d39909f15e00","ios":"levelo://app?vid=f8a82c48-0f3b-4cd6-9367-d39909f15e00"},"vehicle_type_id":"4","last_reported":1728385741,"current_range_meters":26800,"station_id":"ce4bh312rcd13ifvqdk0","pricing_plan_id":"cebpf4jnsgd1na2vs0mg"},{"bike_id":"7441c84f-1c12-42ed-ba31-636a365d72de","system_id":"levelo_inurba_marseille","lat":43.2467,"lon":5.38155,"is_reserved":false,"is_disabled":false,"rental_uris":{"android":"levelo://app?vid=7441c84f-1c12-42ed-ba31-636a365d72de","ios":"levelo://app?vid=7441c84f-1c12-42ed-ba31-636a365d72de"},"vehicle_type_id":"4","last_reported":1728385741,"current_range_meters":36800,"station_id":"ce4bhih2rcd13ifvqfr0","pricing_plan_id":"cebpf4jnsgd1na2vs0mg"},{"bike_id":"eb829dae-d16c-4db8-947f-49068c150d0b","system_id":"levelo_inurba_marseille","lat":43.30945,"lon":5.39038,"is_reserved":false,"is_disabled":false,"rental_uris":{"android":"levelo://app?vid=eb829dae-d16c-4db8-947f-49068c150d0b","ios":"levelo://app?vid=eb829dae-d16c-4db8-947f-49068c150d0b"},"vehicle_type_id":"4","last_reported":1728385741,"current_range_meters":12400,"station_id":"ce4bgup2rcd13ifvqco0","pricing_plan_id":"cebpf4jnsgd1na2vs0mg"},{"bike_id":"59c44783-0b93-49d4-b3b5-3e0cd7230cc4","system_id":"levelo_inurba_marseille","lat":43.290438,"lon":5.375614,"is_reserved":false,"is_disabled":false,"rental_uris":{"android":"levelo://app?vid=59c44783-0b93-49d4-b3b5-3e0cd7230cc4","ios":"levelo://app?vid=59c44783-0b93-49d4-b3b5-3e0cd7230cc4"},"vehicle_type_id":"4","last_reported":1728385741,"current_range_meters":24800,"station_id":"ce4bgv92rcd13ifvqcq0","pricing_plan_id":"cebpf4jnsgd1na2vs0mg"},{"bike_id":"1396a4fa-e16f-4ed5-9a82-14d9d47ff93a","system_id":"levelo_inurba_marseille","lat":43.2315,"lon":5.43723,"is_reserved":false,"is_disabled":false,"rental_uris":{"android":"levelo://app?vid=1396a4fa-e16f-4ed5-9a82-14d9d47ff93a","ios":"levelo://app?vid=1396a4fa-e16f-4ed5-9a82-14d9d47ff93a"},"vehicle_type_id":"4","last_reported":1728385741,"current_range_meters":38800,"station_id":"ce4bhmp2rcd13ifvqgog","pricing_plan_id":"cebpf4jnsgd1na2vs0mg"},{"bike_id":"c54f17c1-f488-4066-b337-a77db024e147","system_id":"levelo_inurba_marseille","lat":43.2558,"lon":5.38233,"is_reserved":false,"is_disabled":false,"rental_uris":{"android":"levelo://app?vid=c54f17c1-f488-4066-b337-a77db024e147","ios":"levelo://app?vid=c54f17c1-f488-4066-b337-a77db024e147"},"vehicle_type_id":"4","last_reported":1728385741,"current_range_meters":36400,"station_id":"ce4bhih2rcd13ifvqfs0","pricing_plan_id":"cebpf4jnsgd1na2vs0mg"},{"bike_id":"9bae6b35-407c-4a49-bf9e-6bccdb050f86","system_id":"levelo_inurba_marseille","lat":43.318024,"lon":5.367208,"is_reserved":false,"is_disabled":false,"rental_uris":{"android":"levelo://app?vid=9bae6b35-407c-4a49-bf9e-6bccdb050f86","ios":"levelo://app?vid=9bae6b35-407c-4a49-bf9e-6bccdb050f86"},"vehicle_type_id":"4","last_reported":1728385741,"current_range_meters":28400,"station_id":"","pricing_plan_id":"cebpf4jnsgd1na2vs0mg"},{"bike_id":"a9edff20-4d83-427b-adf1-2013613f424c","system_id":"levelo_inurba_marseille","lat":43.28268,"lon":5.35062,"is_reserved":false,"is_disabled":false,"rental_uris":{"android":"levelo://app?vid=a9edff20-4d83-427b-adf1-2013613f424c","ios":"levelo://app?vid=a9edff20-4d83-427b-adf1-2013613f424c"},"vehicle_type_id":"4","last_reported":1728385741,"current_range_meters":39200,"station_id":"ce4bhbp2rcd13ifvqerg","pricing_plan_id":"cebpf4jnsgd1na2vs0mg"},{"bike_id":"79d4ce44-dde0-4856-adfb-9d048612b764","system_id":"levelo_inurba_marseille","lat":43.2417,"lon":5.36399,"is_reserved":false,"is_disabled":false,"rental_uris":{"android":"levelo://app?vid=79d4ce44-dde0-4856-adfb-9d048612b764","ios":"levelo://app?vid=79d4ce44-dde0-4856-adfb-9d048612b764"},"vehicle_type_id":"4","last_reported":1728385741,"current_range_meters":24800,"station_id":"cpo36qri1sfpv3e86is0","pricing_plan_id":"cebpf4jnsgd1na2vs0mg"},{"bike_id":"469a672e-ba6a-4391-a2f4-a80280e80393","system_id":"levelo_inurba_marseille","lat":43.25824,"lon":5.39436,"is_reserved":false,"is_disabled":false,"rental_uris":{"android":"levelo://app?vid=469a672e-ba6a-4391-a2f4-a80280e80393","ios":"levelo://app?vid=469a672e-ba6a-4391-a2f4-a80280e80393"},"vehicle_type_id":"4","last_reported":1728385741,"current_range_meters":39200,"station_id":"ce4bhip2rcd13ifvqft0","pricing_plan_id":"cebpf4jnsgd1na2vs0mg"},{"bike_id":"026a23f5-1dd5-49b3-9592-284a19daa8a5","system_id":"levelo_inurba_marseille","lat":43.26943,"lon":5.38624,"is_reserved":false,"is_disabled":false,"rental_uris":{"android":"levelo://app?vid=026a23f5-1dd5-49b3-9592-284a19daa8a5","ios":"levelo://app?vid=026a23f5-1dd5-49b3-9592-284a19daa8a5"},"vehicle_type_id":"4","last_reported":1728385741,"current_range_meters":25200,"station_id":"ce4bhh92rcd13ifvqfh0","pricing_plan_id":"cebpf4jnsgd1na2vs0mg"},{"bike_id":"a26a2f89-8ae6-4036-bc24-451fc5641138","system_id":"levelo_inurba_marseille","lat":43.24394,"lon":5.37059,"is_reserved":false,"is_disabled":false,"rental_uris":{"android":"levelo://app?vid=a26a2f89-8ae6-4036-bc24-451fc5641138","ios":"levelo://app?vid=a26a2f89-8ae6-4036-bc24-451fc5641138"},"vehicle_type_id":"4","last_reported":1728385741,"current_range_meters":37600,"station_id":"ce4bhhh2rcd13ifvqfk0","pricing_plan_id":"cebpf4jnsgd1na2vs0mg"},{"bike_id":"1ff184b8-b9cc-4b34-877e-cb8b539dbbdc","system_id":"levelo_inurba_marseille","lat":43.26567,"lon":5.39013,"is_reserved":false,"is_disabled":false,"rental_uris":{"android":"levelo://app?vid=1ff184b8-b9cc-4b34-877e-cb8b539dbbdc","ios":"levelo://app?vid=1ff184b8-b9cc-4b34-877e-cb8b539dbbdc"},"vehicle_type_id":"4","last_reported":1728385741,"current_range_meters":22000,"station_id":"ce4bhe12rcd13ifvqf30","pricing_plan_id":"cebpf4jnsgd1na2vs0mg"},{"bike_id":"9b9443f6-1c3e-4937-9388-b27cae453e63","system_id":"levelo_inurba_marseille","lat":43.29623,"lon":5.37709,"is_reserved":false,"is_disabled":false,"rental_uris":{"android":"levelo://app?vid=9b9443f6-1c3e-4937-9388-b27cae453e63","ios":"levelo://app?vid=9b9443f6-1c3e-4937-9388-b27cae453e63"},"vehicle_type_id":"4","last_reported":1728385741,"current_range_meters":35200,"station_id":"ce4bgi92rcd13ifvqb90","pricing_plan_id":"cebpf4jnsgd1na2vs0mg"},