{"last_updated":1757866175,"ttl":60,"version":"2.2","data":{"bikes":[{"bike_id":"44fe1936-2939-4249-9cc2-2f72aa9dc20b","system_id":"levelo_inurba_marseille","lat":43.28845,"lon":5.39308,"is_reserved":false,"is_disabled":false,"rental_uris":{"android":"levelo://app?vid=44fe1936-2939-4249-9cc2-2f72aa9dc20b","ios":"levelo://app?vid=44fe1936-2939-4249-9cc2-2f72aa9dc20b"},"vehicle_type_id":"4","last_reported":1757866175,"current_range_meters":2800,"station_id":"ce4bh2p2rcd13ifvqdi0","pricing_plan_id":"cebpf4jnsgd1na2vs0mg"},{"bike_id":"50d14b81-b023-40fb-ab9b-6c34181751de","system_id":"levelo_inurba_marseille","lat":43.23191,"lon":5.35553,"is_reserved":false,"is_disabled":false,"rental_uris":{"android":"levelo://app?vid=50d14b81-b023-40fb-ab9b-6c34181751de","ios":"levelo://app?vid=50d14b81-b023-40fb-ab9b-6c34181751de"},"vehicle_type_id":"4","last_reported":1757866175,"current_range_meters":2800,"station_id":"ce4bhu92rcd13ifvqi70","pricing_plan_id":"cebpf4jnsgd1na2vs0mg"},{"bike_id":"4f2eb0b4-2ae4-4238-9d9c-f5119cfbb46c","system_id":"levelo_inurba_marseille","lat":43.29575,"lon":5.39972,"is_reserved":false,"is_disabled":false,"rental_uris":{"android":"levelo://app?vid=4f2eb0b4-2ae4-4238-9d9c-f5119cfbb46c","ios":"levelo://app?vid=4f2eb0b4-2ae4-4238-9d9c-f5119cfbb46c"},"vehicle_type_id":"4","last_reported":1757866175,"current_range_meters":2800,"station_id":"ce4bh312rcd13ifvqdj0","pricing_plan_id":"cebpf4jnsgd1na2vs0mg"},{"bike_id":"3d78301d-e0c4-459b-9999-bb19bd2df99c","system_id":"levelo_inurba_marseille","lat":43.23964,"lon":5.366333,"is_reserved":false,"is_disabled":true,"rental_uris":{"android":"levelo://app?vid=3d78301d-e0c4-459b-9999-bb19bd2df99c","ios":"levelo://app?vid=3d78301d-e0c4-459b-9999-bb19bd2df99c"},"vehicle_type_id":"4","last_reported":1757866175,"current_range_meters":3200,"station_id":"ce4bhi12rcd13ifvqfp0","pricing_plan_id":"cebpf4jnsgd1na2vs0mg"},{"bike_id":"c145eaa2-aebe-4856-85c2-66b09e59df72","system_id":"levelo_inurba_marseille","lat":43.231896,"lon":5.355487,"is_reserved":false,"is_disabled":false,"rental_uris":{"android":"levelo://app?vid=c145eaa2-aebe-4856-85c2-66b09e59df72","ios":"levelo://app?vid=c145eaa2-aebe-4856-85c2-66b09e59df72"},"vehicle_type_id":"4","last_reported":1757866175,"current_range_meters":3200,"station_id":"ce4bhu92rcd13ifvqi70","pricing_plan_id":"cebpf4jnsgd1na2vs0mg"},{"bike_id":"11c3f8c9-757c-4808-b3f4-6b78c0481d82","system_id":"levelo_inurba_marseille","lat":43.2927,"lon":5.38446,"is_reserved":false,"is_disabled":false,"rental_uris":{"android":"levelo://app?vid=11c3f8c9-757c-4808-b3f4-6b78c0481d82","ios":"levelo://app?vid=11c3f8c9-757c-4808-b3f4-6b78c0481d82"},"vehicle_type_id":"4","last_reported":1757866175,"current_range_meters":3200,"station_id":"ce4bh692rcd13ifvqea0","pricing_plan_id":"cebpf4jnsgd1na2vs0mg"},{"bike_id":"d4ba692c-bd11-4664-80b8-3775aee5f412","system_id":"levelo_inurba_marseille","lat":43.29269,"lon":5.36854,"is_reserved":false,"is_disabled":false,"rental_uris":{"android":"levelo://app?vid=d4ba692c-bd11-4664-80b8-3775aee5f412","ios":"levelo://app?vid=d4ba692c-bd11-4664-80b8-3775aee5f412"},"vehicle_type_id":"4","last_reported":1757866175,"current_range_meters":3200,"station_id":"ce4bhbp2rcd13ifvqesg","pricing_plan_id":"cebpf4jnsgd1na2vs0mg"},{"bike_id":"61254ee5-9f94-4f1e-948b-2f54171826e5","system_id":"levelo_inurba_marseille","lat":43.29273,"lon":5.368418,"is_reserved":false,"is_disabled":false,"rental_uris":{"android":"levelo://app?vid=61254ee5-9f94-4f1e-948b-2f54171826e5","ios":"levelo://app?vid=61254ee5-9f94-4f1e-948b-2f54171826e5"},"vehicle_type_id":"4","last_reported":1757866175,"current_range_meters":3200,"station_id":"ce4bhbp2rcd13ifvqesg","pricing_plan_id":"cebpf4jnsgd1na2vs0mg"},{"bike_id":"5bde8538-8e07-46d4-bba3-09e18577dd57","system_id":"levelo_inurba_marseille","lat":43.273716,"lon":5.362592,"is_reserved":false,"is_disabled":false,"rental_uris":{"android":"levelo://app?vid=5bde8538-8e07-46d4-bba3-09e18577dd57","ios":"levelo://app?vid=5bde8538-8e07-46d4-bba3-09e18577dd57"},"vehicle_type_id":"4","last_reported":1757866175,"current_range_meters":1600,"station_id":"ce4bhbh2rcd13ifvqeo0","pricing_plan_id":"cebpf4jnsgd1na2vs0mg"},{"bike_id":"e8d2265d-d4f7-4396-b8a8-b5128564ba82","system_id":"levelo_inurba_marseille","lat":43.28337,"lon":5.38102,"is_reserved":false,"is_disabled":false,"rental_uris":{"android":"levelo://app?vid=e8d2265d-d4f7-4396-b8a8-b5128564ba82","ios":"levelo://app?vid=e8d2265d-d4f7-4396-b8a8-b5128564ba82"},"vehicle_type_id":"4","last_reported":1757866175,"current_range_meters":3200,"station_id":"ce4bh412rcd13ifvqdr0","pricing_plan_id":"cebpf4jnsgd1na2vs0mg"},{"bike_id":"3bd595b7-af3b-43b1-8697-1bcb2a61af6f","system_id":"levelo_inurba_marseille","lat":43.27979,"lon":5.40026,"is_reserved":false,"is_disabled":true,"rental_uris":{"android":"levelo://app?vid=3bd595b7-af3b-43b1-8697-1bcb2a61af6f","ios":"levelo://app?vid=3bd595b7-af3b-43b1-8697-1bcb2a61af6f"},"vehicle_type_id":"4","last_reported":1757866175,"current_range_meters":3600,"station_id":"ce4bho92rcd13ifvqh4g","pricing_plan_id":"cebpf4jnsgd1na2vs0mg"},{"bike_id":"29939e1d-7683-455b-aa01-8621cf17f4fa","system_id":"levelo_inurba_marseille","lat":43.24934,"lon":5.40511,"is_reserved":false,"is_disabled":true,"rental_uris":{"android":"levelo://app?vid=29939e1d-7683-455b-aa01-8621cf17f4fa","ios":"levelo://app?vid=29939e1d-7683-455b-aa01-8621cf17f4fa"},"vehicle_type_id":"4","last_reported":1757866175,"current_range_meters":3600,"station_id":"st_d2ngiaodas8pm72gd1h0","pricing_plan_id":"cebpf4jnsgd1na2vs0mg"},{"bike_id":"40b5803c-6f25-4388-9e5a-7033f292506d","system_id":"levelo_inurba_marseille","lat":43.2408,"lon":5.37755,"is_reserved":false,"is_disabled":false,"rental_uris":{"android":"levelo://app?vid=40b5803c-6f25-4388-9e5a-7033f292506d","ios":"levelo://app?vid=40b5803c-6f25-4388-9e5a-7033f292506d"},"vehicle_type_id":"4","last_reported":1757866175,"current_range_meters":4000,"station_id":"ce4bhnp2rcd13ifvqgvg","pricing_plan_id":"cebpf4jnsgd1na2vs0mg"},{"bike_id":"98d16117-4a54-40f1-ad99-3b883136d0c8","system_id":"levelo_inurba_marseille","lat":43.284051,"lon":5.375136,"is_reserved":false,"is_disabled":false,"rental_uris":{"android":"levelo://app?vid=98d16117-4a54-40f1-ad99-3b883136d0c8","ios":"levelo://app?vid=98d16117-4a54-40f1-ad99-3b883136d0c8"},"vehicle_type_id":"4","last_reported":1757866175,"current_range_meters":3600,"station_id":"ce4bh412rcd13ifvqds0","pricing_plan_id":"cebpf4jnsgd1na2vs0mg"},{"bike_id":"7f8a8e1b-7777-432d-911e-0c84e07f5d66","system_id":"levelo_inurba_marseille","lat":43.28485,"lon":5.38435,"is_reserved":false,"is_disabled":false,"rental_uris":{"android":"levelo://app?vid=7f8a8e1b-7777-432d-911e-0c84e07f5d66","ios":"levelo://app?vid=7f8a8e1b-7777-432d-911e-0c84e07f5d66"},"vehicle_type_id":"4","last_reported":1757866175,"current_range_meters":3600,"station_id":"ce4bh512rcd13ifvqe3g","pricing_plan_id":"cebpf4jnsgd1na2vs0mg"},{"bike_id":"a3977072-5f91-4a68-b0d6-dc3cb909a337","system_id":"levelo_inurba_marseille","lat":43.33773,"lon":5.37482,"is_reserved":false,"is_disabled":false,"rental_uris":{"android":"levelo://app?vid=a3977072-5f91-4a68-b0d6-dc3cb909a337","ios":"levelo://app?vid=a3977072-5f91-4a68-b0d6-dc3cb909a337"},"vehicle_type_id":"4","last_reported":1757866175,"current_range_meters":4000,"station_id":"","pricing_plan_id":"cebpf4jnsgd1na2vs0mg"},{"bike_id":"49805d6c-fb65-4033-8ef8-2e52956080f5","system_id":"levelo_inurba_marseille","lat":43.29029,"lon":5.3864,"is_reserved":false,"is_disabled":false,"rental_uris":{"android":"levelo://app?vid=49805d6c-fb65-4033-8ef8-2e52956080f5","ios":"levelo://app?vid=49805d6c-fb65-4033-8ef8-2e52956080f5"},"vehicle_type_id":"4","last_reported":1757866175,"current_range_meters":4000,"station_id":"ce4bh4p2rcd13ifvqe0g","pricing_plan_id":"cebpf4jnsgd1na2vs0mg"},{"bike_id":"972b4c5f-3a00-4bb2-9116-b81f2cecc9f2","system_id":"levelo_inurba_marseille","lat":43.33764,"lon":5.37483,"is_reserved":false,"is_disabled":false,"rental_uris":{"android":"levelo://app?vid=972b4c5f-3a00-4bb2-9116-b81f2cecc9f2","ios":"levelo://app?vid=972b4c5f-3a00-4bb2-9116-b81f2cecc9f2"},"vehicle_type_id":"4","last_reported":1757866175,"current_range_meters":4000,"station_id":"","pricing_plan_id":"cebpf4jnsgd1na2vs0mg"},{"bike_id":"652b0a2e-b2ad-438f-9c09-e6bda99e514f","system_id":"levelo_inurba_marseille","lat":43.290505,"lon":5.359118,"is_reserved":false,"is_disabled":false,"rental_uris":{"android":"levelo://app?vid=652b0a2e-b2ad-438f-9c09-e6bda99e514f","ios":"levelo://app?vid=652b0a2e-b2ad-438f-9c09-e6bda99e514f"},"vehicle_type_id":"4","last_reported":1757866175,"current_range_meters":4000,"station_id":"ce4bha92rcd13ifvqeg0","pricing_plan_id":"cebpf4jnsgd1na2vs0mg"},{"bike_id":"f9cffc11-d1d2-4f07-9bbd-f66fd416cd23","system_id":"levelo_inurba_marseille","lat":43.28476,"lon":5.38567,"is_reserved":false,"is_disabled":false,"rental_uris":{"android":"levelo://app?vid=f9cffc11-d1d2-4f07-9bbd-f66fd416cd23","ios":"levelo://app?vid=f9cffc11-d1d2-4f07-9bbd-f66fd416cd23"},"vehicle_type_id":"4","last_reported":1757866175,"current_range_meters":4000,"station_id":"ce4bh8p2rcd13ifvqeb0","pricing_plan_id":"cebpf4jnsgd1na2vs0mg"},{"bike_id":"d9893eea-33ac-4f3d-877b-79f9cf34250d","system_id":"levelo_inurba_marseille","lat":43.29195,"lon":5.35817,"is_reserved":false,"is_disabled":false,"rental_uris":{"android":"levelo://app?vid=d9893eea-33ac-4f3d-877b-79f9cf34250d","ios":"levelo://app?vid=d9893eea-33ac-4f3d-877b-79f9cf34250d"},"vehicle_type_id":"4","last_reported":1757866175,"current_range_meters":3600,"station_id":"ce4bhb12rcd13ifvqel0","pricing_plan_id":"cebpf4jnsgd1na2vs0mg"},{"bike_id":"065f1c95-b6fa-43d1-8496-9a41c3cf7cd0","system_id":"levelo_inurba_marseille","lat":43.28409,"lon":5.37499,"is_reserved":false,"is_disabled":false,"rental_uris":{"android":"levelo://app?vid=065f1c95-b6fa-43d1-8496-9a41c3cf7cd0","ios":"levelo://app?vid=065f1c95-b6fa-43d1-8496-9a41c3cf7cd0"},"vehicle_type_id":"4","last_reported":1757866175,"current_range_meters":4400,"station_id":"ce4bh412rcd13ifvqds0","pricing_plan_id":"cebpf4jnsgd1na2vs0mg"},{"bike_id":"8b3cc20e-1905-47f9-a913-4cb2dfc44a26","system_id":"levelo_inurba_marseille","lat":43.28667,"lon":5.38659,"is_reserved":false,"is_disabled":false,"rental_uris":{"android":"levelo://app?vid=8b3cc20e-1905-47f9-a913-4cb2dfc44a26","ios":"levelo://app?vid=8b3cc20e-1905-47f9-a913-4cb2dfc44a26"},"vehicle_type_id":"4","last_reported":1757866175,"current_range_meters":4000,"station_id":"ce4bh492rcd13ifvqdug","pricing_plan_id":"cebpf4jnsgd1na2vs0mg"},{"bike_id":"3253fe5e-5093-4443-a535-9a7402005259","system_id":"levelo_inurba_marseille","lat":43.32011,"lon":5.38188,"is_reserved":false,"is_disabled":false,"rental_uris":{"android":"levelo://app?vid=3253fe5e-5093-4443-a535-9a7402005259","ios":"levelo://app?vid=3253fe5e-5093-4443-a535-9a7402005259"},"vehicle_type_id":"4","last_reported":1757866175,"current_range_meters":4400,"station_id":"ce4bhr12rcd13ifvqhpg","pricing_plan_id":"cebpf4jnsgd1na2vs0mg"},{"bike_id":"25817c8a-2c8e-4a3b-bf39-6fdc89ef5875","system_id":"levelo_inurba_marseille","lat":43.29851,"lon":5.36286,"is_reserved":false,"is_disabled":false,"rental_uris":{"android":"levelo://app?vid=25817c8a-2c8e-4a3b-bf39-6fdc89ef5875","ios":"levelo://app?vid=25817c8a-2c8e-4a3b-bf39-6fdc89ef5875"},"vehicle_type_id":"4","last_reported":1757866175,"current_range_meters":4800,"station_id":"ce4bgpp2rcd13ifvqc3g","pricing_plan_id":"cebpf4jnsgd1na2vs0mg"},{"bike_id":"e03bd15c-c472-4f08-bc2f-c1b8a57b70fb","system_id":"levelo_inurba_marseille","lat":43.32974,"lon":5.39092,"is_reserved":false,"is_disabled":false,"rental_uris":{"android":"levelo://app?vid=e03bd15c-c472-4f08-bc2f-c1b8a57b70fb","ios":"levelo://app?vid=e03bd15c-c472-4f08-bc2f-c1b8a57b70fb"},"vehicle_type_id":"4","last_reported":1757866175,"current_range_meters":4800,"station_id":"","pricing_plan_id":"cebpf4jnsgd1na2vs0mg"},{"bike_id":"2cdd686a-a59d-4a60-8ece-24c5b7170ccb","system_id":"levelo_inurba_marseille","lat":43.26201,"lon":5.379217,"is_reserved":false,"is_disabled":false,"rental_uris":{"android":"levelo://app?vid=2cdd686a-a59d-4a60-8ece-24c5b7170ccb","ios":"levelo://app?vid=2cdd686a-a59d-4a60-8ece-24c5b7170ccb"},"vehicle_type_id":"4","last_reported":1757866175,"current_range_meters":4800,"station_id":"ce4bhjp2rcd13ifvqg90","pricing_plan_id":"cebpf4jnsgd1na2vs0mg"},{"bike_id":"c8492a87-4839-4535-b388-cae06bc20291","system_id":"levelo_inurba_marseille","lat":43.28485,"lon":5.38431,"is_reserved":false,"is_disabled":false,"rental_uris":{"android":"levelo://app?vid=c8492a87-4839-4535-b388-cae06bc20291","ios":"levelo://app?vid=c8492a87-4839-4535-b388-cae06bc20291"},"vehicle_type_id":"4","last_reported":1757866175,"current_range_meters":4800,"station_id":"ce4bh512rcd13ifvqe3g","pricing_plan_id":"cebpf4jnsgd1na2vs0mg"},{"bike_id":"f9bc63dc-1fbf-4f51-bea2-3cbb670f4e83","system_id":"levelo_inurba_marseille","lat":43.2928,"lon":5.36843,"is_reserved":false,"is_disabled":false,"rental_uris":{"android":"levelo://app?vid=f9bc63dc-1fbf-4f51-bea2-3cbb670f4e83","ios":"levelo://app?vid=f9bc63dc-1fbf-4f51-bea2-3cbb670f4e83"},"vehicle_type_id":"4","last_reported":1757866175,"current_range_meters":4800,"station_id":"ce4bhbp2rcd13ifvqesg","pricing_plan_id":"cebpf4jnsgd1na2vs0mg"},{"bike_id":"90c3fb2b-cecd-4984-9718-35f9740db0a9","system_id":"levelo_inurba_marseille","lat":43.27998,"lon":5.40011,"is_reserved":false,"is_disabled":false,"rental_uris":{"android":"levelo://app?vid=90c3fb2b-cecd-4984-9718-35f9740db0a9","ios":"levelo://app?vid=90c3fb2b-cecd-4984-9718-35f9740db0a9"},"vehicle_type_id":"4","last_reported":1757866175,"current_range_meters":4800,"station_id":"ce4bho92rcd13ifvqh4g","pricing_plan_id":"cebpf4jnsgd1na2vs0mg"},{"bike_id":"775af279-8ac9-4585-9121-809be9b13265","system_id":"levelo_inurba_marseille","lat":43.337775,"lon":5.374412,"is_reserved":false,"is_disabled":false,"rental_uris":{"android":"levelo://app?vid=775af279-8ac9-4585-9121-809be9b13265","ios":"levelo://app?vid=775af279-8ac9-4585-9121-809be9b13265"},"vehicle_type_id":"4","last_reported":1757866175,"current_range_meters":5600,"station_id":"","pricing_plan_id":"cebpf4jnsgd1na2vs0mg"},{"bike_id":"aaa57dc3-0fba-4079-a89e-bc62ba1e3e75","system_id":"levelo_inurba_marseille","lat":43.27613,"lon":5.36108,"is_reserved":false,"is_disabled":false,"rental_uris":{"android":"levelo://app?vid=aaa57dc3-0fba-4079-a89e-bc62ba1e3e75","ios":"levelo://app?vid=aaa57dc3-0fba-4079-a89e-bc62ba1e3e75"},"vehicle_type_id":"4","last_reported":1757866175,"current_range_meters":5600,"station_id":"ce4bgj92rcd13ifvqbe0","pricing_plan_id":"cebpf4jnsgd1na2vs0mg"},{"bike_id":"ee77d82a-f5e1-4ab3-9342-71b63a49cd8b","system_id":"levelo_inurba_marseille","lat":43.30634,"lon":5.40095,"is_reserved":false,"is_disabled":false,"rental_uris":{"android":"levelo://app?vid=ee77d82a-f5e1-4ab3-9342-71b63a49cd8b","ios":"levelo://app?vid=ee77d82a-f5e1-4ab3-9342-71b63a49cd8b"},"vehicle_type_id":"4","last_reported":1757866175,"current_range_meters":6000,"station_id":"ce4bh112rcd13ifvqda0","pricing_plan_id":"cebpf4jnsgd1na2vs0mg"},{"bike_id":"64b01828-1f5d-4f69-849c-787daee11bfe","system_id":"levelo_inurba_marseille","lat":43.24813,"lon":5.37462,"is_reserved":false,"is_disabled":true,"rental_uris":{"android":"levelo://app?vid=64b01828-1f5d-4f69-849c-787daee11bfe","ios":"levelo://app?vid=64b01828-1f5d-4f69-849c-787daee11bfe"},"vehicle_type_id":"4","last_reported":1757866175,"current_range_meters":6000,"station_id":"ce4bhgh2rcd13ifvqfb0","pricing_plan_id":"cebpf4jnsgd1na2vs0mg"},{"bike_id":"374dd53a-fb70-4bf1-8b8a-a4fc3f1f8fa3","system_id":"levelo_inurba_marseille","lat":43.284022,"lon":5.349756,"is_reserved":false,"is_disabled":false,"rental_uris":{"android":"levelo://app?vid=374dd53a-fb70-4bf1-8b8a-a4fc3f1f8fa3","ios":"levelo://app?vid=374dd53a-fb70-4bf1-8b8a-a4fc3f1f8fa3"},"vehicle_type_id":"4","last_reported":1757866175,"current_range_meters":6400,"station_id":"ce4bhbh2rcd13ifvqepg","pricing_plan_id":"cebpf4jnsgd1na2vs0mg"},{"bike_id":"f41f73fa-9ec3-4301-b285-2fc4fd1dbca4","system_id":"levelo_inurba_marseille","lat":43.279014,"lon":5.380179,"is_reserved":false,"is_disabled":false,"rental_uris":{"android":"levelo://app?vid=f41f73fa-9ec3-4301-b285-2fc4fd1dbca4","ios":"levelo://app?vid=f41f73fa-9ec3-4301-b285-2fc4fd1dbca4"},"vehicle_type_id":"4","last_reported":1757866175,"current_range_meters":6000,"station_id":"ce4bhf92rcd13ifvqf50","pricing_plan_id":"cebpf4jnsgd1na2vs0mg"},{"bike_id":"ae2200e0-55fa-4d16-87bf-72ca65d67371","system_id":"levelo_inurba_marseille","lat":43.28375,"lon":5.384645,"is_reserved":false,"is_disabled":false,"rental_uris":{"android":"levelo://app?vid=ae2200e0-55fa-4d16-87bf-72ca65d67371","ios":"levelo://app?vid=ae2200e0-55fa-4d16-87bf-72ca65d67371"},"vehicle_type_id":"4","last_reported":1757866175,"current_range_meters":6400,"station_id":"","pricing_plan_id":"cebpf4jnsgd1na2vs0mg"},{"bike_id":"70c45dfe-4b8f-4081-8d42-a26285d9b043","system_id":"levelo_inurba_marseille","lat":43.31701,"lon":5.37762,"is_reserved":false,"is_disabled":false,"rental_uris":{"android":"levelo://app?vid=70c45dfe-4b8f-4081-8d42-a26285d9b043","ios":"levelo://app?vid=70c45dfe-4b8f-4081-8d42-a26285d9b043"},"vehicle_type_id":"4","last_reported":1757866175,"current_range_meters":6000,"station_id":"ce4bgth2rcd13ifvqch0","pricing_plan_id":"cebpf4jnsgd1na2vs0mg"},{"bike_id":"45e4e389-6972-4a23-82af-cecd93fdc546","system_id":"levelo_inurba_marseille","lat":43.30642,"lon":5.40075,"is_reserved":false,"is_disabled":false,"rental_uris":{"android":"levelo://app?vid=45e4e389-6972-4a23-82af-cecd93fdc546","ios":"levelo://app?vid=45e4e389-6972-4a23-82af-cecd93fdc546"},"vehicle_type_id":"4","last_reported":1757866175,"current_range_meters":6400,"station_id":"ce4bh112rcd13ifvqda0","pricing_plan_id":"cebpf4jnsgd1na2vs0mg"},{"bike_id":"4cc2a20a-2f69-4b64-a5b0-dabdd20e3d4d","system_id":"levelo_inurba_marseille","lat":43.25719,"lon":5.41115,"is_reserved":false,"is_disabled":false,"rental_uris":{"android":"levelo://app?vid=4cc2a20a-2f69-4b64-a5b0-dabdd20e3d4d","ios":"levelo://app?vid=4cc2a20a-2f69-4b64-a5b0-dabdd20e3d4d"},"vehicle_type_id":"4","last_reported":1757866175,"current_range_meters":6400,"station_id":"ce4bhkp2rcd13ifvqgd0","pricing_plan_id":"cebpf4jnsgd1na2vs0mg"},{"bike_id":"a4750d34-ff71-474e-a848-5f22abb3a47b","system_id":"levelo_inurba_marseille","lat":43.2867,"lon":5.38683,"is_reserved":false,"is_disabled":false,"rental_uris":{"android":"levelo://app?vid=a4750d34-ff71-474e-a848-5f22abb3a47b","ios":"levelo://app?vid=a4750d34-ff71-474e-a848-5f22abb3a47b"},"vehicle_type_id":"4","last_reported":1757866175,"current_range_meters":6400,"station_id":"ce4bh492rcd13ifvqdug","pricing_plan_id":"cebpf4jnsgd1na2vs0mg"},{"bike_id":"e1d2e4b0-dcc3-4ec6-8f60-71a0707cd0fe","system_id":"levelo_inurba_marseille","lat":43.21743,"lon":5.34609,"is_reserved":false,"is_disabled":true,"rental_uris":{"android":"levelo://app?vid=e1d2e4b0-dcc3-4ec6-8f60-71a0707cd0fe","ios":"levelo://app?vid=e1d2e4b0-dcc3-4ec6-8f60-71a0707cd0fe"},"vehicle_type_id":"4","last_reported":1757866175,"current_range_meters":6400,"station_id":"st_cvj6r9ubvosntc0bgbag","pricing_plan_id":"cebpf4jnsgd1na2vs0mg"},{"bike_id":"e15e557e-703a-44c0-9142-245d3271a091","system_id":"levelo_inurba_marseille","lat":43.29001,"lon":5.3561,"is_reserved":false,"is_disabled":false,"rental_uris":{"android":"levelo://app?vid=e15e557e-703a-44c0-9142-245d3271a091","ios":"levelo://app?vid=e15e557e-703a-44c0-9142-245d3271a091"},"vehicle_type_id":"4","last_reported":1757866175,"current_range_meters":6400,"station_id":"ce4bhb92rcd13ifvqen0","pricing_plan_id":"cebpf4jnsgd1na2vs0mg"},{"bike_id":"0eac0c05-dbf1-4c0b-af6d-53c5df91e290","system_id":"levelo_inurba_marseille","lat":43.29603,"lon":5.37137,"is_reserved":false,"is_disabled":false,"rental_uris":{"android":"levelo://app?vid=0eac0c05-dbf1-4c0b-af6d-53c5df91e290","ios":"levelo://app?vid=0eac0c05-dbf1-4c0b-af6d-53c5df91e290"},"vehicle_type_id":"4","last_reported":1757866175,"current_range_meters":6800,"station_id":"ce4bgnh2rcd13ifvqc0g","pricing_plan_id":"cebpf4jnsgd1na2vs0mg"},{"bike_id":"11ea8ec9-ced9-4d3c-9bb7-10131ec41b63","system_id":"levelo_inurba_marseille","lat":43.27997,"lon":5.40027,"is_reserved":false,"is_disabled":false,"rental_uris":{"android":"levelo://app?vid=11ea8ec9-ced9-4d3c-9bb7-10131ec41b63","ios":"levelo://app?vid=11ea8ec9-ced9-4d3c-9bb7-10131ec41b63"},"vehicle_type_id":"4","last_reported":1757866175,"current_range_meters":6800,"station_id":"ce4bho92rcd13ifvqh4g","pricing_plan_id":"cebpf4jnsgd1na2vs0mg"},{"bike_id":"77d8b920-d70f-49a2-9115-5de4c86201d7","system_id":"levelo_inurba_marseille","lat":43.27975,"lon":5.38744,"is_reserved":false,"is_disabled":false,"rental_uris":{"android":"levelo://app?vid=77d8b920-d70f-49a2-9115-5de4c86201d7","ios":"levelo://app?vid=77d8b920-d70f-49a2-9115-5de4c86201d7"},"vehicle_type_id":"4","last_reported":1757866175,"current_range_meters":6800,"station_id":"ce4bhg12rcd13ifvqf80","pricing_plan_id":"cebpf4jnsgd1na2vs0mg"},{"bike_id":"1edf0295-bfc3-45fc-a5e9-2b22cac51541","system_id":"levelo_inurba_marseille","lat":43.28472,"lon":5.38408,"is_reserved":false,"is_disabled":false,"rental_uris":{"android":"levelo://app?vid=1edf0295-bfc3-45fc-a5e9-2b22cac51541","ios":"levelo://app?vid=1edf0295-bfc3-45fc-a5e9-2b22cac51541"},"vehicle_type_id":"4","last_reported":1757866175,"current_range_meters":6800,"station_id":"ce4bh512rcd13ifvqe3g","pricing_plan_id":"cebpf4jnsgd1na2vs0mg"},{"bike_id":"9a45254c-c77a-469d-8fa3-a3fa05a580ba","system_id":"levelo_inurba_marseille","lat":43.27186,"lon":5.38679,"is_reserved":false,"is_disabled":false,"rental_uris":{"android":"levelo://app?vid=9a45254c-c77a-469d-8fa3-a3fa05a580ba","ios":"levelo://app?vid=9a45254c-c77a-469d-8fa3-a3fa05a580ba"},"vehicle_type_id":"4","last_reported":1757866175,"current_range_meters":6800,"station_id":"","pricing_plan_id":"cebpf4jnsgd1na2vs0mg"},{"bike_id":"94f81f39-3c51-4c7c-9f88-5224c18d3bd6","system_id":"levelo_inurba_marseille","lat":43.31878,"lon":5.40729,"is_reserved":false,"is_disabled":false,"rental_uris":{"android":"levelo://app?vid=94f81f39-3c51-4c7c-9f88-5224c18d3bd6","ios":"levelo://app?vid=94f81f39-3c51-4c7c-9f88-5224c18d3bd6"},"vehicle_type_id":"4","last_reported":1757866175,"current_range_meters":6800,"station_id":"ce4bhq12rcd13ifvqhig","pricing_plan_id":"cebpf4jnsgd1na2vs0mg"},{"bike_id":"472f9f03-d60b-4ddc-a573-3b260bf6b41b","system_id":"levelo_inurba_marseille","lat":43.3233,"lon":5.40611,"is_reserved":false,"is_disabled":false,"rental_uris":{"android":"levelo://app?vid=472f9f03-d60b-4ddc-a573-3b260bf6b41b","ios":"levelo://app?vid=472f9f03-d60b-4ddc-a573-3b260bf6b41b"},"vehicle_type_id":"4","last_reported":1757866175,"current_range_meters":6800,"station_id":"ce4bhq92rcd13ifvqhjg","pricing_plan_id":"cebpf4jnsgd1na2vs0mg"},{"bike_id":"c49c0ddb-1d4e-4162-831f-7e13766bd6d7","system_id":"levelo_inurba_marseille","lat":43.29304,"lon":5.37182,"is_reserved":false,"is_disabled":false,"rental_uris":{"android":"levelo://app?vid=c49c0ddb-1d4e-4162-831f-7e13766bd6d7","ios":"levelo://app?vid=c49c0ddb-1d4e-4162-831f-7e13766bd6d7"},"vehicle_type_id":"4","last_reported":1757866175,"current_range_meters":7200,"station_id":"ce4bgh92rcd13ifvqb40","pricing_plan_id":"cebpf4jnsgd1na2vs0mg"},{"bike_id":"fbcaa5be-76d1-41b1-8be1-f8ff6820e3ae","system_id":"levelo_inurba_marseille","lat":43.32359,"lon":5.40627,"is_reserved":false,"is_disabled":false,"rental_uris":{"android":"levelo://app?vid=fbcaa5be-76d1-41b1-8be1-f8ff6820e3ae","ios":"levelo://app?vid=fbcaa5be-76d1-41b1-8be1-f8ff6820e3ae"},"vehicle_type_id":"4","last_reported":1757866175,"current_range_meters":7200,"station_id":"ce4bhq92rcd13ifvqhjg","pricing_plan_id":"cebpf4jnsgd1na2vs0mg"},{"bike_id":"a24c4696-920b-4645-847f-87e0b46915a6","system_id":"levelo_inurba_marseille","lat":43.324168,"lon":5.424917,"is_reserved":false,"is_disabled":false,"rental_uris":{"android":"levelo://app?vid=a24c4696-920b-4645-847f-87e0b46915a6","ios":"levelo://app?vid=a24c4696-920b-4645-847f-87e0b46915a6"},"vehicle_type_id":"4","last_reported":1757866175,"current_range_meters":7200,"station_id":"","pricing_plan_id":"cebpf4jnsgd1na2vs0mg"},{"bike_id":"359805be-02e2-4cb7-91ab-ae5dfef01382","system_id":"levelo_inurba_marseille","lat":43.26568,"lon":5.39011,"is_reserved":false,"is_disabled":false,"rental_uris":{"android":"levelo://app?vid=359805be-02e2-4cb7-91ab-ae5dfef01382","ios":"levelo://app?vid=359805be-02e2-4cb7-91ab-ae5dfef01382"},"vehicle_type_id":"4","last_reported":1757866175,"current_range_meters":7200,"station_id":"ce4bhe12rcd13ifvqf30","pricing_plan_id":"cebpf4jnsgd1na2vs0mg"},{"bike_id":"f1fa5fe2-f8ed-452e-af04-ae3635669183","system_id":"levelo_inurba_marseille","lat":43.31232,"lon":5.36888,"is_reserved":false,"is_disabled":false,"rental_uris":{"android":"levelo://app?vid=f1fa5fe2-f8ed-452e-af04-ae3635669183","ios":"levelo://app?vid=f1fa5fe2-f8ed-452e-af04-ae3635669183"},"vehicle_type_id":"4","last_reported":1757866175,"current_range_meters":7200,"station_id":"ce4bgl92rcd13ifvqbq0","pricing_plan_id":"cebpf4jnsgd1na2vs0mg"},{"bike_id":"137c9bde-2196-4764-b368-6b0bc86e54c5","system_id":"levelo_inurba_marseille","lat":43.262815,"lon":5.378545,"is_reserved":false,"is_disabled":false,"rental_uris":{"android":"levelo://app?vid=137c9bde-2196-4764-b368-6b0bc86e54c5","ios":"levelo://app?vid=137c9bde-2196-4764-b368-6b0bc86e54c5"},"vehicle_type_id":"4","last_reported":1757866175,"current_range_meters":7200,"station_id":"ce4bhjp2rcd13ifvqg90","pricing_plan_id":"cebpf4jnsgd1na2vs0mg"},{"bike_id":"aed909ed-3ad2-49d2-bc5d-7c40479cf1cd","system_id":"levelo_inurba_marseille","lat":43.29224,"lon":5.36061,"is_reserved":false,"is_disabled":false,"rental_uris":{"android":"levelo://app?vid=aed909ed-3ad2-49d2-bc5d-7c40479cf1cd","ios":"levelo://app?vid=aed909ed-3ad2-49d2-bc5d-7c40479cf1cd"},"vehicle_type_id":"4","last_reported":1757866175,"current_range_meters":8000,"station_id":"ce4bhbh2rcd13ifvqeqg","pricing_plan_id":"cebpf4jnsgd1na2vs0mg"},{"bike_id":"eaa220fb-5349-44c0-849a-e1e199bab0e0","system_id":"levelo_inurba_marseille","lat":43.30452,"lon":5.36717,"is_reserved":false,"is_disabled":true,"rental_uris":{"android":"levelo://app?vid=eaa220fb-5349-44c0-849a-e1e199bab0e0","ios":"levelo://app?vid=eaa220fb-5349-44c0-849a-e1e199bab0e0"},"vehicle_type_id":"4","last_reported":1757866175,"current_range_meters":8000,"station_id":"","pricing_plan_id":"cebpf4jnsgd1na2vs0mg"},{"bike_id":"8c2c4ca1-e2d8-4cf6-94d6-963467695610","system_id":"levelo_inurba_marseille","lat":43.31108,"lon":5.38562,"is_reserved":false,"is_disabled":false,"rental_uris":{"android":"levelo://app?vid=8c2c4ca1-e2d8-4cf6-94d6-963467695610","ios":"levelo://app?vid=8c2c4ca1-e2d8-4cf6-94d6-963467695610"},"vehicle_type_id":"4","last_reported":1757866175,"current_range_meters":8000,"station_id":"","pricing_plan_id":"cebpf4jnsgd1na2vs0mg"},{"bike_id":"463345a6-2d4f-4448-8488-9cab1efda713","system_id":"levelo_inurba_marseille","lat":43.25444,"lon":5.40137,"is_reserved":false,"is_disabled":false,"rental_uris":{"android":"levelo://app?vid=463345a6-2d4f-4448-8488-9cab1efda713","ios":"levelo://app?vid=463345a6-2d4f-4448-8488-9cab1efda713"},"vehicle_type_id":"4","last_reported":1757866175,"current_range_meters":8000,"station_id":"","pricing_plan_id":"cebpf4jnsgd1na2vs0mg"},{"bike_id":"ffb10511-78b3-4cf6-94ce-c8b269384e29","system_id":"levelo_inurba_marseille","lat":43.293057,"lon":5.371722,"is_reserved":false,"is_disabled":false,"rental_uris":{"android":"levelo://app?vid=ffb10511-78b3-4cf6-94ce-c8b269384e29","ios":"levelo://app?vid=ffb10511-78b3-4cf6-94ce-c8b269384e29"},"vehicle_type_id":"4","last_reported":1757866175,"current_range_meters":8000,"station_id":"ce4bgh92rcd13ifvqb40","pricing_plan_id":"cebpf4jnsgd1na2vs0mg"},{"bike_id":"3593590a-b92b-4012-8fd0-6624d57efc9b","system_id":"levelo_inurba_marseille","lat":43.21192,"lon":5.35078,"is_reserved":false,"is_disabled":false,"rental_uris":{"android":"levelo://app?vid=3593590a-b92b-4012-8fd0-6624d57efc9b","ios":"levelo://app?vid=3593590a-b92b-4012-8fd0-6624d57efc9b"},"vehicle_type_id":"4","last_reported":1757866175,"current_range_meters":8400,"station_id":"st_cvj6sg6p6f1abm77japg","pricing_plan_id":"cebpf4jnsgd1na2vs0mg"},{"bike_id":"4891d751-b66c-4a3d-89d5-78926b795844","system_id":"levelo_inurba_marseille","lat":43.30255,"lon":5.44827,"is_reserved":false,"is_disabled":false,"rental_uris":{"android":"levelo://app?vid=4891d751-b66c-4a3d-89d5-78926b795844","ios":"levelo://app?vid=4891d751-b66c-4a3d-89d5-78926b795844"},"vehicle_type_id":"4","last_reported":1757866175,"current_range_meters":8400,"station_id":"","pricing_plan_id":"cebpf4jnsgd1na2vs0mg"},{"bike_id":"84be000e-b186-4e60-8aaa-b7a0f42a7175","system_id":"levelo_inurba_marseille","lat":43.337616,"lon":5.374353,"is_reserved":false,"is_disabled":false,"rental_uris":{"android":"levelo://app?vid=84be000e-b186-4e60-8aaa-b7a0f42a7175","ios":"levelo://app?vid=84be000e-b186-4e60-8aaa-b7a0f42a7175"},"vehicle_type_id":"4","last_reported":1757866175,"current_range_meters":8400,"station_id":"","pricing_plan_id":"cebpf4jnsgd1na2vs0mg"},{"bike_id":"c675a074-2c28-407f-91ec-e776fd90bf09","system_id":"levelo_inurba_marseille","lat":43.290013,"lon":5.356119,"is_reserved":false,"is_disabled":false,"rental_uris":{"android":"levelo://app?vid=c675a074-2c28-407f-91ec-e776fd90bf09","ios":"levelo://app?vid=c675a074-2c28-407f-91ec-e776fd90bf09"},"vehicle_type_id":"4","last_reported":1757866175,"current_range_meters":8400,"station_id":"ce4bhb92rcd13ifvqen0","pricing_plan_id":"cebpf4jnsgd1na2vs0mg"},{"bike_id":"78f84639-56f9-4c15-8768-49ed5cee722d","system_id":"levelo_inurba_marseille","lat":43.26015,"lon":5.37553,"is_reserved":false,"is_disabled":true,"rental_uris":{"android":"levelo://app?vid=78f84639-56f9-4c15-8768-49ed5cee722d","ios":"levelo://app?vid=78f84639-56f9-4c15-8768-49ed5cee722d"},"vehicle_type_id":"4","last_reported":1757866175,"current_range_meters":8400,"station_id":"ce4bhgh2rcd13ifvqfa0","pricing_plan_id":"cebpf4jnsgd1na2vs0mg"},{"bike_id":"d5c98035-fc72-4062-a3ec-13203f68e8ed","system_id":"levelo_inurba_marseille","lat":43.28849,"lon":5.42506,"is_reserved":false,"is_disabled":false,"rental_uris":{"android":"levelo://app?vid=d5c98035-fc72-4062-a3ec-13203f68e8ed","ios":"levelo://app?vid=d5c98035-fc72-4062-a3ec-13203f68e8ed"},"vehicle_type_id":"4","last_reported":1757866175,"current_range_meters":8400,"station_id":"","pricing_plan_id":"cebpf4jnsgd1na2vs0mg"},{"bike_id":"b8142500-5865-495d-a679-7f5fca200eca","system_id":"levelo_inurba_marseille","lat":43.30192,"lon":5.36634,"is_reserved":false,"is_disabled":false,"rental_uris":{"android":"levelo://app?vid=b8142500-5865-495d-a679-7f5fca200eca","ios":"levelo://app?vid=b8142500-5865-495d-a679-7f5fca200eca"},"vehicle_type_id":"4","last_reported":1757866175,"current_range_meters":8800,"station_id":"ce4bgrh2rcd13ifvqc8g","pricing_plan_id":"cebpf4jnsgd1na2vs0mg"},{"bike_id":"799abdac-8495-45a0-8bb6-09e6179469d5","system_id":"levelo_inurba_marseille","lat":43.25489,"lon":5.37665,"is_reserved":false,"is_disabled":true,"rental_uris":{"android":"levelo://app?vid=799abdac-8495-45a0-8bb6-09e6179469d5","ios":"levelo://app?vid=799abdac-8495-45a0-8bb6-09e6179469d5"},"vehicle_type_id":"4","last_reported":1757866175,"current_range_meters":8800,"station_id":"ce4bhh12rcd13ifvqff0","pricing_plan_id":"cebpf4jnsgd1na2vs0mg"},{"bike_id":"f5510237-16e8-4d9f-bd10-a3a9a24e0bc5","system_id":"levelo_inurba_marseille","lat":43.30884,"lon":5.39664,"is_reserved":false,"is_disabled":false,"rental_uris":{"android":"levelo://app?vid=f5510237-16e8-4d9f-bd10-a3a9a24e0bc5","ios":"levelo://app?vid=f5510237-16e8-4d9f-bd10-a3a9a24e0bc5"},"vehicle_type_id":"4","last_reported":1757866175,"current_range_meters":8400,"station_id":"ce4bh012rcd13ifvqcv0","pricing_plan_id":"cebpf4jnsgd1na2vs0mg"},{"bike_id":"f61ac72b-e30c-4302-82ca-75f18d25c195","system_id":"levelo_inurba_marseille","lat":43.30327,"lon":5.40434,"is_reserved":false,"is_disabled":false,"rental_uris":{"android":"levelo://app?vid=f61ac72b-e30c-4302-82ca-75f18d25c195","ios":"levelo://app?vid=f61ac72b-e30c-4302-82ca-75f18d25c195"},"vehicle_type_id":"4","last_reported":1757866175,"current_range_meters":8800,"station_id":"ce4bh012rcd13ifvqd10","pricing_plan_id":"cebpf4jnsgd1na2vs0mg"},{"bike_id":"3a5ed99c-c60d-4d22-a082-6c7c2bc3fad0","system_id":"levelo_inurba_marseille","lat":43.28101,"lon":5.37831,"is_reserved":false,"is_disabled":false,"rental_uris":{"android":"levelo://app?vid=3a5ed99c-c60d-4d22-a082-6c7c2bc3fad0","ios":"levelo://app?vid=3a5ed99c-c60d-4d22-a082-6c7c2bc3fad0"},"vehicle_type_id":"4","last_reported":1757866175,"current_range_meters":8800,"station_id":"ce4bha12rcd13ifvqee0","pricing_plan_id":"cebpf4jnsgd1na2vs0mg"},{"bike_id":"388b6b87-da36-40d5-a919-7fa626dca1c5","system_id":"levelo_inurba_marseille","lat":43.24545,"lon":5.39524,"is_reserved":false,"is_disabled":false,"rental_uris":{"android":"levelo://app?vid=388b6b87-da36-40d5-a919-7fa626dca1c5","ios":"levelo://app?vid=388b6b87-da36-40d5-a919-7fa626dca1c5"},"vehicle_type_id":"4","last_reported":1757866175,"current_range_meters":8400,"station_id":"ce4bhlp2rcd13ifvqgjg","pricing_plan_id":"cebpf4jnsgd1na2vs0mg"},{"bike_id":"38193a70-2ce0-4df3-8e83-dbda80bb6624","system_id":"levelo_inurba_marseille","lat":43.30133,"lon":5.39867,"is_reserved":false,"is_disabled":false,"rental_uris":{"android":"levelo://app?vid=38193a70-2ce0-4df3-8e83-dbda80bb6624","ios":"levelo://app?vid=38193a70-2ce0-4df3-8e83-dbda80bb6624"},"vehicle_type_id":"4","last_reported":1757866175,"current_range_meters":8800,"station_id":"","pricing_plan_id":"cebpf4jnsgd1na2vs0mg"},{"bike_id":"02dbb44c-70e3-4a7a-b86e-6159cc35ba47","system_id":"levelo_inurba_marseille","lat":43.29587,"lon":5.38689,"is_reserved":false,"is_disabled":false,"rental_uris":{"android":"levelo://app?vid=02dbb44c-70e3-4a7a-b86e-6159cc35ba47","ios":"levelo://app?vid=02dbb44c-70e3-4a7a-b86e-6159cc35ba47"},"vehicle_type_id":"4","last_reported":1757866175,"current_range_meters":8800,"station_id":"ce4bgih2rcd13ifvqba0","pricing_plan_id":"cebpf4jnsgd1na2vs0mg"},{"bike_id":"ffcb9892-7352-4c85-8853-b78022bc3de3","system_id":"levelo_inurba_marseille","lat":43.28419,"lon":5.34975,"is_reserved":false,"is_disabled":false,"rental_uris":{"android":"levelo://app?vid=ffcb9892-7352-4c85-8853-b78022bc3de3","ios":"levelo://app?vid=ffcb9892-7352-4c85-8853-b78022bc3de3"},"vehicle_type_id":"4","last_reported":1757866175,"current_range_meters":8800,"station_id":"ce4bhbh2rcd13ifvqepg","pricing_plan_id":"cebpf4jnsgd1na2vs0mg"},{"bike_id":"e8228046-11e7-4607-9c06-0b7f48816751","system_id":"levelo_inurba_marseille","lat":43.246527,"lon":5.388961,"is_reserved":false,"is_disabled":true,"rental_uris":{"android":"levelo://app?vid=e8228046-11e7-4607-9c06-0b7f48816751","ios":"levelo://app?vid=e8228046-11e7-4607-9c06-0b7f48816751"},"vehicle_type_id":"4","last_reported":1757866175,"current_range_meters":9200,"station_id":"ce4bhg12rcd13ifvqf60","pricing_plan_id":"cebpf4jnsgd1na2vs0mg"},{"bike_id":"6515536f-56de-4109-b7a1-24c742aed225","system_id":"levelo_inurba_marseille","lat":43.31997,"lon":5.37234,"is_reserved":false,"is_disabled":false,"rental_uris":{"android":"levelo://app?vid=6515536f-56de-4109-b7a1-24c742aed225","ios":"levelo://app?vid=6515536f-56de-4109-b7a1-24c742aed225"},"vehicle_type_id":"4","last_reported":1757866175,"current_range_meters":9200,"station_id":"","pricing_plan_id":"cebpf4jnsgd1na2vs0mg"},{"bike_id":"55d59e02-f5a5-4e1a-9360-556e842fa2a4","system_id":"levelo_inurba_marseille","lat":43.33764,"lon":5.37496,"is_reserved":false,"is_disabled":false,"rental_uris":{"android":"levelo://app?vid=55d59e02-f5a5-4e1a-9360-556e842fa2a4","ios":"levelo://app?vid=55d59e02-f5a5-4e1a-9360-556e842fa2a4"},"vehicle_type_id":"4","last_reported":1757866175,"current_range_meters":9200,"station_id":"","pricing_plan_id":"cebpf4jnsgd1na2vs0mg"},{"bike_id":"182289c1-d8ed-492c-a287-70c8f4e5e1b2","system_id":"levelo_inurba_marseille","lat":43.32361,"lon":5.38901,"is_reserved":false,"is_disabled":false,"rental_uris":{"android":"levelo://app?vid=182289c1-d8ed-492c-a287-70c8f4e5e1b2","ios":"levelo://app?vid=182289c1-d8ed-492c-a287-70c8f4e5e1b2"},"vehicle_type_id":"4","last_reported":1757866175,"current_range_meters":9200,"station_id":"ce4bhqp2rcd13ifvqhog","pricing_plan_id":"cebpf4jnsgd1na2vs0mg"},{"bike_id":"6f427f8e-5e73-40df-969a-308dcf05fe1b","system_id":"levelo_inurba_marseille","lat":43.30124,"lon":5.39865,"is_reserved":false,"is_disabled":false,"rental_uris":{"android":"levelo://app?vid=6f427f8e-5e73-40df-969a-308dcf05fe1b","ios":"levelo://app?vid=6f427f8e-5e73-40df-969a-308dcf05fe1b"},"vehicle_type_id":"4","last_reported":1757866175,"current_range_meters":9200,"station_id":"ce4bh0h2rcd13ifvqd40","pricing_plan_id":"cebpf4jnsgd1na2vs0mg"},{"bike_id":"d5fe8587-d577-4927-9f03-bf5f1fa338f3","system_id":"levelo_inurba_marseille","lat":43.32572,"lon":5.37585,"is_reserved":false,"is_disabled":false,"rental_uris":{"android":"levelo://app?vid=d5fe8587-d577-4927-9f03-bf5f1fa338f3","ios":"levelo://app?vid=d5fe8587-d577-4927-9f03-bf5f1fa338f3"},"vehicle_type_id":"4","last_reported":1757866175,"current_range_meters":9200,"station_id":"","pricing_plan_id":"cebpf4jnsgd1na2vs0mg"},{"bike_id":"7d9d58b8-2f25-46ca-a7c4-354940e645a1","system_id":"levelo_inurba_marseille","lat":43.274951,"lon":5.424501,"is_reserved":false,"is_disabled":false,"rental_uris":{"android":"levelo://app?vid=7d9d58b8-2f25-46ca-a7c4-354940e645a1","ios":"levelo://app?vid=7d9d58b8-2f25-46ca-a7c4-354940e645a1"},"vehicle_type_id":"4","last_reported":1757866175,"current_range_meters":9200,"station_id":"ce4bhn92rcd13ifvqgrg","pricing_plan_id":"cebpf4jnsgd1na2vs0mg"},{"bike_id":"406f6607-363d-4cf0-95ae-26829ed0307c","system_id":"levelo_inurba_marseille","lat":43.26215,"lon":5.40452,"is_reserved":false,"is_disabled":true,"rental_uris":{"android":"levelo://app?vid=406f6607-363d-4cf0-95ae-26829ed0307c","ios":"levelo://app?vid=406f6607-363d-4cf0-95ae-26829ed0307c"},"vehicle_type_id":"4","last_reported":1757866175,"current_range_meters":9200,"station_id":"ce4bhmh2rcd13ifvqgmg","pricing_plan_id":"cebpf4jnsgd1na2vs0mg"},{"bike_id":"af855c88-100f-429f-ba0c-3dad51b30928","system_id":"levelo_inurba_marseille","lat":43.2119,"lon":5.35076,"is_reserved":false,"is_disabled":true,"rental_uris":{"android":"levelo://app?vid=af855c88-100f-429f-ba0c-3dad51b30928","ios":"levelo://app?vid=af855c88-100f-429f-ba0c-3dad51b30928"},"vehicle_type_id":"4","last_reported":1757866175,"current_range_meters":9600,"station_id":"st_cvj6sg6p6f1abm77japg","pricing_plan_id":"cebpf4jnsgd1na2vs0mg"},{"bike_id":"49e09061-fa7e-430c-b2a4-fcc34d072b44","system_id":"levelo_inurba_marseille","lat":43.26137,"lon":5.37506,"is_reserved":false,"is_disabled":false,"rental_uris":{"android":"levelo://app?vid=49e09061-fa7e-430c-b2a4-fcc34d072b44","ios":"levelo://app?vid=49e09061-fa7e-430c-b2a4-fcc34d072b44"},"vehicle_type_id":"4","last_reported":1757866175,"current_range_meters":9600,"station_id":"","pricing_plan_id":"cebpf4jnsgd1na2vs0mg"},{"bike_id":"3b5c6f24-a81f-40f2-a547-b46ca8421d66","system_id":"levelo_inurba_marseille","lat":43.27491,"lon":5.42452,"is_reserved":false,"is_disabled":false,"rental_uris":{"android":"levelo://app?vid=3b5c6f24-a81f-40f2-a547-b46ca8421d66","ios":"levelo://app?vid=3b5c6f24-a81f-40f2-a547-b46ca8421d66"},"vehicle_type_id":"4","last_reported":1757866175,"current_range_meters":9600,"station_id":"ce4bhn92rcd13ifvqgrg","pricing_plan_id":"cebpf4jnsgd1na2vs0mg"},{"bike_id":"0b9519eb-50e4-429a-aa11-adbb1e2fce96","system_id":"levelo_inurba_marseille","lat":43.283649,"lon":5.386349,"is_reserved":false,"is_disabled":false,"rental_uris":{"android":"levelo://app?vid=0b9519eb-50e4-429a-aa11-adbb1e2fce96","ios":"levelo://app?vid=0b9519eb-50e4-429a-aa11-adbb1e2fce96"},"vehicle_type_id":"4","last_reported":1757866175,"current_range_meters":9600,"station_id":"ce4bh492rcd13ifvqdvg","pricing_plan_id":"cebpf4jnsgd1na2vs0mg"},{"bike_id":"d9c11a94-d122-4240-b95b-24fdee8810ac","system_id":"levelo_inurba_marseille","lat":43.282768,"lon":5.398923,"is_reserved":false,"is_disabled":false,"rental_uris":{"android":"levelo://app?vid=d9c11a94-d122-4240-b95b-24fdee8810ac","ios":"levelo://app?vid=d9c11a94-d122-4240-b95b-24fdee8810ac"},"vehicle_type_id":"4","last_reported":1757866175,"current_range_meters":9600,"station_id":"","pricing_plan_id":"cebpf4jnsgd1na2vs0mg"},{"bike_id":"42f0d81d-d8a1-45d0-8bb4-bc801a51727f","system_id":"levelo_inurba_marseille","lat":43.28699,"lon":5.37385,"is_reserved":false,"is_disabled":false,"rental_uris":{"android":"levelo://app?vid=42f0d81d-d8a1-45d0-8bb4-bc801a51727f","ios":"levelo://app?vid=42f0d81d-d8a1-45d0-8bb4-bc801a51727f"},"vehicle_type_id":"4","last_reported":1757866175,"current_range_meters":9200,"station_id":"ce4bh3p2rcd13ifvqdq0","pricing_plan_id":"cebpf4jnsgd1na2vs0mg"},{"bike_id":"149dd90e-4583-4bb5-9268-778ab2889dd7","system_id":"levelo_inurba_marseille","lat":43.290664,"lon":5.359022,"is_reserved":false,"is_disabled":false,"rental_uris":{"android":"levelo://app?vid=149dd90e-4583-4bb5-9268-778ab2889dd7","ios":"levelo://app?vid=149dd90e-4583-4bb5-9268-778ab2889dd7"},"vehicle_type_id":"4","last_reported":1757866175,"current_range_meters":9600,"station_id":"ce4bha92rcd13ifvqeg0","pricing_plan_id":"cebpf4jnsgd1na2vs0mg"},{"bike_id":"31f4578e-18c6-48fb-9fec-123fce0578f9","system_id":"levelo_inurba_marseille","lat":43.33775,"lon":5.37437,"is_reserved":false,"is_disabled":false,"rental_uris":{"android":"levelo://app?vid=31f4578e-18c6-48fb-9fec-123fce0578f9","ios":"levelo://app?vid=31f4578e-18c6-48fb-9fec-123fce0578f9"},"vehicle_type_id":"4","last_reported":1757866175,"current_range_meters":9600,"station_id":"","pricing_plan_id":"cebpf4jnsgd1na2vs0mg"},{"bike_id":"54756892-40fc-40da-862a-36f475f86070","system_id":"levelo_inurba_marseille","lat":43.296891,"lon":5.371534,"is_reserved":false,"is_disabled":false,"rental_uris":{"android":"levelo://app?vid=54756892-40fc-40da-862a-36f475f86070","ios":"levelo://app?vid=54756892-40fc-40da-862a-36f475f86070"},"vehicle_type_id":"4","last_reported":1757866175,"current_range_meters":9600,"station_id":"","pricing_plan_id":"cebpf4jnsgd1na2vs0mg"},{"bike_id":"81178cdb-131f-42bb-a25b-f1ff353f6fb2","system_id":"levelo_inurba_marseille","lat":43.28414,"lon":5.34983,"is_reserved":false,"is_disabled":false,"rental_uris":{"android":"levelo://app?vid=81178cdb-131f-42bb-a25b-f1ff353f6fb2","ios":"levelo://app?vid=81178cdb-131f-42bb-a25b-f1ff353f6fb2"},"vehicle_type_id":"4","last_reported":1757866175,"current_range_meters":10000,"station_id":"ce4bhbh2rcd13ifvqepg","pricing_plan_id":"cebpf4jnsgd1na2vs0mg"},{"bike_id":"974e0192-4f9e-4803-b6bc-e5f6e12940e1","system_id":"levelo_inurba_marseille","lat":43.31674,"lon":5.389258,"is_reserved":false,"is_disabled":false,"rental_uris":{"android":"levelo://app?vid=974e0192-4f9e-4803-b6bc-e5f6e12940e1","ios":"levelo://app?vid=974e0192-4f9e-4803-b6bc-e5f6e12940e1"},"vehicle_type_id":"4","last_reported":1757866175,"current_range_meters":10000,"station_id":"","pricing_plan_id":"cebpf4jnsgd1na2vs0mg"},{"bike_id":"3d96ea13-60e4-4f25-a3f7-1b1ebe4c3870","system_id":"levelo_inurba_marseille","lat":43.29002,"lon":5.35608,"is_reserved":false,"is_disabled":false,"rental_uris":{"android":"levelo://app?vid=3d96ea13-60e4-4f25-a3f7-1b1ebe4c3870","ios":"levelo://app?vid=3d96ea13-60e4-4f25-a3f7-1b1ebe4c3870"},"vehicle_type_id":"4","last_reported":1757866175,"current_range_meters":10000,"station_id":"ce4bhb92rcd13ifvqen0","pricing_plan_id":"cebpf4jnsgd1na2vs0mg"},{"bike_id":"2a2497be-b987-492b-a17c-d497933a8aed","system_id":"levelo_inurba_marseille","lat":43.3234,"lon":5.36748,"is_reserved":false,"is_disabled":false,"rental_uris":{"android":"levelo://app?vid=2a2497be-b987-492b-a17c-d497933a8aed","ios":"levelo://app?vid=2a2497be-b987-492b-a17c-d497933a8aed"},"vehicle_type_id":"4","last_reported":1757866175,"current_range_meters":10000,"station_id":"ce4bhsh2rcd13ifvqi2g","pricing_plan_id":"cebpf4jnsgd1na2vs0mg"},{"bike_id":"58e4d2c3-ca5a-414f-acc3-c631f749869c","system_id":"levelo_inurba_marseille","lat":43.31357,"lon":5.38489,"is_reserved":false,"is_disabled":true,"rental_uris":{"android":"levelo://app?vid=58e4d2c3-ca5a-414f-acc3-c631f749869c","ios":"levelo://app?vid=58e4d2c3-ca5a-414f-acc3-c631f749869c"},"vehicle_type_id":"4","last_reported":1757866175,"current_range_meters":10000,"station_id":"ce4bgt92rcd13ifvqcf0","pricing_plan_id":"cebpf4jnsgd1na2vs0mg"},{"bike_id":"cd104b68-7370-4e88-ba9c-1edeee0f6c77","system_id":"levelo_inurba_marseille","lat":43.25169,"lon":5.42574,"is_reserved":false,"is_disabled":true,"rental_uris":{"android":"levelo://app?vid=cd104b68-7370-4e88-ba9c-1edeee0f6c77","ios":"levelo://app?vid=cd104b68-7370-4e88-ba9c-1edeee0f6c77"},"vehicle_type_id":"4","last_reported":1757866175,"current_range_meters":10000,"station_id":"","pricing_plan_id":"cebpf4jnsgd1na2vs0mg"},{"bike_id":"9b287b67-fe83-4538-bbb8-f6b481a9c3ff","system_id":"levelo_inurba_marseille","lat":43.29892,"lon":5.38894,"is_reserved":false,"is_disabled":false,"rental_uris":{"android":"levelo://app?vid=9b287b67-fe83-4538-bbb8-f6b481a9c3ff","ios":"levelo://app?vid=9b287b67-fe83-4538-bbb8-f6b481a9c3ff"},"vehicle_type_id":"4","last_reported":1757866175,"current_range_meters":10000,"station_id":"ce4bh392rcd13ifvqdl0","pricing_plan_id":"cebpf4jnsgd1na2vs0mg"},{"bike_id":"ee42c31a-b74b-4b2d-917a-cd50dc10c6ce","system_id":"levelo_inurba_marseille","lat":43.32977,"lon":5.39288,"is_reserved":false,"is_disabled":false,"rental_uris":{"android":"levelo://app?vid=ee42c31a-b74b-4b2d-917a-cd50dc10c6ce","ios":"levelo://app?vid=ee42c31a-b74b-4b2d-917a-cd50dc10c6ce"},"vehicle_type_id":"4","last_reported":1757866175,"current_range_meters":10000,"station_id":"","pricing_plan_id":"cebpf4jnsgd1na2vs0mg"},{"bike_id":"c5cba6d7-e282-4417-a818-5fc0802dcb08","system_id":"levelo_inurba_marseille","lat":43.33761,"lon":5.3745,"is_reserved":false,"is_disabled":false,"rental_uris":{"android":"levelo://app?vid=c5cba6d7-e282-4417-a818-5fc0802dcb08","ios":"levelo://app?vid=c5cba6d7-e282-4417-a818-5fc0802dcb08"},"vehicle_type_id":"4","last_reported":1757866175,"current_range_meters":10000,"station_id":"","pricing_plan_id":"cebpf4jnsgd1na2vs0mg"},{"bike_id":"f07d1a34-6972-4c1d-8ed8-100dd0fc1e78","system_id":"levelo_inurba_marseille","lat":43.32985,"lon":5.39052,"is_reserved":false,"is_disabled":false,"rental_uris":{"android":"levelo://app?vid=f07d1a34-6972-4c1d-8ed8-100dd0fc1e78","ios":"levelo://app?vid=f07d1a34-6972-4c1d-8ed8-100dd0fc1e78"},"vehicle_type_id":"4","last_reported":1757866175,"current_range_meters":10000,"station_id":"ce4bhr92rcd13ifvqhrg","pricing_plan_id":"cebpf4jnsgd1na2vs0mg"},{"bike_id":"f054a220-2a11-4bfe-9898-2b390f50b412","system_id":"levelo_inurba_marseille","lat":43.28475,"lon":5.38435,"is_reserved":false,"is_disabled":true,"rental_uris":{"android":"levelo://app?vid=f054a220-2a11-4bfe-9898-2b390f50b412","ios":"levelo://app?vid=f054a220-2a11-4bfe-9898-2b390f50b412"},"vehicle_type_id":"4","last_reported":1757866175,"current_range_meters":10000,"station_id":"ce4bh512rcd13ifvqe3g","pricing_plan_id":"cebpf4jnsgd1na2vs0mg"},{"bike_id":"375de3a5-b531-4996-9ec9-85f49cbe986e","system_id":"levelo_inurba_marseille","lat":43.29364,"lon":5.37848,"is_reserved":false,"is_disabled":false,"rental_uris":{"android":"levelo://app?vid=375de3a5-b531-4996-9ec9-85f49cbe986e","ios":"levelo://app?vid=375de3a5-b531-4996-9ec9-85f49cbe986e"},"vehicle_type_id":"4","last_reported":1757866175,"current_range_meters":9600,"station_id":"ce4bgjh2rcd13ifvqbf0","pricing_plan_id":"cebpf4jnsgd1na2vs0mg"},{"bike_id":"fcd096b8-f69a-476a-938e-6fb932bb11be","system_id":"levelo_inurba_marseille","lat":43.26803,"lon":5.4027,"is_reserved":false,"is_disabled":false,"rental_uris":{"android":"levelo://app?vid=fcd096b8-f69a-476a-938e-6fb932bb11be","ios":"levelo://app?vid=fcd096b8-f69a-476a-938e-6fb932bb11be"},"vehicle_type_id":"4","last_reported":1757866175,"current_range_meters":9600,"station_id":"ce501612rcd8frsf0b60","pricing_plan_id":"cebpf4jnsgd1na2vs0mg"},{"bike_id":"df41bfb5-751e-4d4d-9862-e3f77512c772","system_id":"levelo_inurba_marseille","lat":43.295581,"lon":5.422837,"is_reserved":false,"is_disabled":false,"rental_uris":{"android":"levelo://app?vid=df41bfb5-751e-4d4d-9862-e3f77512c772","ios":"levelo://app?vid=df41bfb5-751e-4d4d-9862-e3f77512c772"},"vehicle_type_id":"4","last_reported":1757866175,"current_range_meters":10800,"station_id":"ce4bhph2rcd13ifvqhdg","pricing_plan_id":"cebpf4jnsgd1na2vs0mg"},{"bike_id":"16572620-16f0-40a6-8afc-79d0b1846f64","system_id":"levelo_inurba_marseille","lat":43.28142,"lon":5.42652,"is_reserved":false,"is_disabled":false,"rental_uris":{"android":"levelo://app?vid=16572620-16f0-40a6-8afc-79d0b1846f64","ios":"levelo://app?vid=16572620-16f0-40a6-8afc-79d0b1846f64"},"vehicle_type_id":"4","last_reported":1757866175,"current_range_meters":10800,"station_id":"ce4bhnh2rcd13ifvqgug","pricing_plan_id":"cebpf4jnsgd1na2vs0mg"},{"bike_id":"ff2c1e16-7c57-4200-8677-2b47fcd700e8","system_id":"levelo_inurba_marseille","lat":43.299271,"lon":5.365658,"is_reserved":false,"is_disabled":false,"rental_uris":{"android":"levelo://app?vid=ff2c1e16-7c57-4200-8677-2b47fcd700e8","ios":"levelo://app?vid=ff2c1e16-7c57-4200-8677-2b47fcd700e8"},"vehicle_type_id":"4","last_reported":1757866175,"current_range_meters":10800,"station_id":"ce4bgm92rcd13ifvqbr0","pricing_plan_id":"cebpf4jnsgd1na2vs0mg"},{"bike_id":"d16230ff-2955-426b-a6aa-84f8e2e13648","system_id":"levelo_inurba_marseille","lat":43.28859,"lon":5.42526,"is_reserved":false,"is_disabled":false,"rental_uris":{"android":"levelo://app?vid=d16230ff-2955-426b-a6aa-84f8e2e13648","ios":"levelo://app?vid=d16230ff-2955-426b-a6aa-84f8e2e13648"},"vehicle_type_id":"4","last_reported":1757866175,"current_range_meters":10800,"station_id":"","pricing_plan_id":"cebpf4jnsgd1na2vs0mg"},{"bike_id":"5c1e55d9-decd-426f-89d8-b98a558f3809","system_id":"levelo_inurba_marseille","lat":43.316998,"lon":5.404732,"is_reserved":false,"is_disabled":true,"rental_uris":{"android":"levelo://app?vid=5c1e55d9-decd-426f-89d8-b98a558f3809","ios":"levelo://app?vid=5c1e55d9-decd-426f-89d8-b98a558f3809"},"vehicle_type_id":"4","last_reported":1757866175,"current_range_meters":11200,"station_id":"ce4bh012rcd13ifvqd00","pricing_plan_id":"cebpf4jnsgd1na2vs0mg"},{"bike_id":"e7a329bd-ed66-4ac7-aaba-63f2810ddd86","system_id":"levelo_inurba_marseille","lat":43.31917,"lon":5.37203,"is_reserved":false,"is_disabled":false,"rental_uris":{"android":"levelo://app?vid=e7a329bd-ed66-4ac7-aaba-63f2810ddd86","ios":"levelo://app?vid=e7a329bd-ed66-4ac7-aaba-63f2810ddd86"},"vehicle_type_id":"4","last_reported":1757866175,"current_range_meters":11200,"station_id":"","pricing_plan_id":"cebpf4jnsgd1na2vs0mg"},{"bike_id":"cb9f0282-7456-4e8a-a3f3-8010ac0934c0","system_id":"levelo_inurba_marseille","lat":43.281,"lon":5.37844,"is_reserved":false,"is_disabled":false,"rental_uris":{"android":"levelo://app?vid=cb9f0282-7456-4e8a-a3f3-8010ac0934c0","ios":"levelo://app?vid=cb9f0282-7456-4e8a-a3f3-8010ac0934c0"},"vehicle_type_id":"4","last_reported":1757866175,"current_range_meters":11200,"station_id":"ce4bha12rcd13ifvqee0","pricing_plan_id":"cebpf4jnsgd1na2vs0mg"},{"bike_id":"3bc338fd-b3c5-4caa-b6e6-3c70a52689ba","system_id":"levelo_inurba_marseille","lat":43.31617,"lon":5.38928,"is_reserved":false,"is_disabled":false,"rental_uris":{"android":"levelo://app?vid=3bc338fd-b3c5-4caa-b6e6-3c70a52689ba","ios":"levelo://app?vid=3bc338fd-b3c5-4caa-b6e6-3c70a52689ba"},"vehicle_type_id":"4","last_reported":1757866175,"current_range_meters":11200,"station_id":"","pricing_plan_id":"cebpf4jnsgd1na2vs0mg"},{"bike_id":"c682ef70-00bc-4415-9b10-9a35bd5ddcc1","system_id":"levelo_inurba_marseille","lat":43.27494,"lon":5.42445,"is_reserved":false,"is_disabled":false,"rental_uris":{"android":"levelo://app?vid=c682ef70-00bc-4415-9b10-9a35bd5ddcc1","ios":"levelo://app?vid=c682ef70-00bc-4415-9b10-9a35bd5ddcc1"},"vehicle_type_id":"4","last_reported":1757866175,"current_range_meters":11600,"station_id":"ce4bhn92rcd13ifvqgrg","pricing_plan_id":"cebpf4jnsgd1na2vs0mg"},{"bike_id":"00d57537-ae83-4658-a508-484d6a41f41e","system_id":"levelo_inurba_marseille","lat":43.23193,"lon":5.35555,"is_reserved":false,"is_disabled":false,"rental_uris":{"android":"levelo://app?vid=00d57537-ae83-4658-a508-484d6a41f41e","ios":"levelo://app?vid=00d57537-ae83-4658-a508-484d6a41f41e"},"vehicle_type_id":"4","last_reported":1757866175,"current_range_meters":11600,"station_id":"ce4bhu92rcd13ifvqi70","pricing_plan_id":"cebpf4jnsgd1na2vs0mg"},{"bike_id":"4ba30903-d30c-41bd-ba03-ad15abee8e40","system_id":"levelo_inurba_marseille","lat":43.27982,"lon":5.41664,"is_reserved":false,"is_disabled":true,"rental_uris":{"android":"levelo://app?vid=4ba30903-d30c-41bd-ba03-ad15abee8e40","ios":"levelo://app?vid=4ba30903-d30c-41bd-ba03-ad15abee8e40"},"vehicle_type_id":"4","last_reported":1757866175,"current_range_meters":11600,"station_id":"ce4bho12rcd13ifvqh1g","pricing_plan_id":"cebpf4jnsgd1na2vs0mg"},{"bike_id":"90b99ccf-2b3c-4d75-9e45-7dd3a550aac1","system_id":"levelo_inurba_marseille","lat":43.23569,"lon":5.39891,"is_reserved":false,"is_disabled":false,"rental_uris":{"android":"levelo://app?vid=90b99ccf-2b3c-4d75-9e45-7dd3a550aac1","ios":"levelo://app?vid=90b99ccf-2b3c-4d75-9e45-7dd3a550aac1"},"vehicle_type_id":"4","last_reported":1757866175,"current_range_meters":11600,"station_id":"","pricing_plan_id":"cebpf4jnsgd1na2vs0mg"},{"bike_id":"2f10d643-d5be-40f3-be65-91b231ef05ac","system_id":"levelo_inurba_marseille","lat":43.286926,"lon":5.373902,"is_reserved":false,"is_disabled":false,"rental_uris":{"android":"levelo://app?vid=2f10d643-d5be-40f3-be65-91b231ef05ac","ios":"levelo://app?vid=2f10d643-d5be-40f3-be65-91b231ef05ac"},"vehicle_type_id":"4","last_reported":1757866175,"current_range_meters":11600,"station_id":"ce4bh3p2rcd13ifvqdq0","pricing_plan_id":"cebpf4jnsgd1na2vs0mg"},{"bike_id":"decb0c8c-53b2-4de4-80e5-86933eb436f0","system_id":"levelo_inurba_marseille","lat":43.28349,"lon":5.38102,"is_reserved":false,"is_disabled":false,"rental_uris":{"android":"levelo://app?vid=decb0c8c-53b2-4de4-80e5-86933eb436f0","ios":"levelo://app?vid=decb0c8c-53b2-4de4-80e5-86933eb436f0"},"vehicle_type_id":"4","last_reported":1757866175,"current_range_meters":11600,"station_id":"ce4bh412rcd13ifvqdr0","pricing_plan_id":"cebpf4jnsgd1na2vs0mg"},{"bike_id":"9d64b5f8-42a9-4b44-a76b-1732da5588f2","system_id":"levelo_inurba_marseille","lat":43.2396,"lon":5.36623,"is_reserved":false,"is_disabled":false,"rental_uris":{"android":"levelo://app?vid=9d64b5f8-42a9-4b44-a76b-1732da5588f2","ios":"levelo://app?vid=9d64b5f8-42a9-4b44-a76b-1732da5588f2"},"vehicle_type_id":"4","last_reported":1757866175,"current_range_meters":11600,"station_id":"ce4bhi12rcd13ifvqfp0","pricing_plan_id":"cebpf4jnsgd1na2vs0mg"},{"bike_id":"63b81199-56da-4720-8611-958b1a1bf650","system_id":"levelo_inurba_marseille","lat":43.29432,"lon":5.39755,"is_reserved":false,"is_disabled":false,"rental_uris":{"android":"levelo://app?vid=63b81199-56da-4720-8611-958b1a1bf650","ios":"levelo://app?vid=63b81199-56da-4720-8611-958b1a1bf650"},"vehicle_type_id":"4","last_reported":1757866175,"current_range_meters":11600,"station_id":"ce4bh3h2rcd13ifvqdo0","pricing_plan_id":"cebpf4jnsgd1na2vs0mg"},{"bike_id":"82e63e2e-ca9a-40be-9f84-b8f1e14e4d24","system_id":"levelo_inurba_marseille","lat":43.2997,"lon":5.37179,"is_reserved":false,"is_disabled":false,"rental_uris":{"android":"levelo://app?vid=82e63e2e-ca9a-40be-9f84-b8f1e14e4d24","ios":"levelo://app?vid=82e63e2e-ca9a-40be-9f84-b8f1e14e4d24"},"vehicle_type_id":"4","last_reported":1757866175,"current_range_meters":11600,"station_id":"ce4bgr92rcd13ifvqc7g","pricing_plan_id":"cebpf4jnsgd1na2vs0mg"},{"bike_id":"5b08033c-e596-407a-ada4-49eb3a516099","system_id":"levelo_inurba_marseille","lat":43.25802,"lon":5.39435,"is_reserved":false,"is_disabled":false,"rental_uris":{"android":"levelo://app?vid=5b08033c-e596-407a-ada4-49eb3a516099","ios":"levelo://app?vid=5b08033c-e596-407a-ada4-49eb3a516099"},"vehicle_type_id":"4","last_reported":1757866175,"current_range_meters":12000,"station_id":"ce4bhip2rcd13ifvqft0","pricing_plan_id":"cebpf4jnsgd1na2vs0mg"},{"bike_id":"c987c129-454a-4e5f-a949-5316496ca390","system_id":"levelo_inurba_marseille","lat":43.26804,"lon":5.40271,"is_reserved":false,"is_disabled":false,"rental_uris":{"android":"levelo://app?vid=c987c129-454a-4e5f-a949-5316496ca390","ios":"levelo://app?vid=c987c129-454a-4e5f-a949-5316496ca390"},"vehicle_type_id":"4","last_reported":1757866175,"current_range_meters":11600,"station_id":"ce501612rcd8frsf0b60","pricing_plan_id":"cebpf4jnsgd1na2vs0mg"},{"bike_id":"d0a1739a-c22f-4203-9f71-a089f4b367e4","system_id":"levelo_inurba_marseille","lat":43.3199,"lon":5.38119,"is_reserved":false,"is_disabled":true,"rental_uris":{"android":"levelo://app?vid=d0a1739a-c22f-4203-9f71-a089f4b367e4","ios":"levelo://app?vid=d0a1739a-c22f-4203-9f71-a089f4b367e4"},"vehicle_type_id":"4","last_reported":1757866175,"current_range_meters":12000,"station_id":"ce4bhr12rcd13ifvqhpg","pricing_plan_id":"cebpf4jnsgd1na2vs0mg"},{"bike_id":"261c10c9-6edd-4598-991a-c2ba9bb7b4e1","system_id":"levelo_inurba_marseille","lat":43.26665,"lon":5.38243,"is_reserved":false,"is_disabled":false,"rental_uris":{"android":"levelo://app?vid=261c10c9-6edd-4598-991a-c2ba9bb7b4e1","ios":"levelo://app?vid=261c10c9-6edd-4598-991a-c2ba9bb7b4e1"},"vehicle_type_id":"4","last_reported":1757866175,"current_range_meters":12000,"station_id":"ce4bhg92rcd13ifvqf90","pricing_plan_id":"cebpf4jnsgd1na2vs0mg"},{"bike_id":"9d3f7647-d3a6-4160-aa34-46775c778919","system_id":"levelo_inurba_marseille","lat":43.301251,"lon":5.398622,"is_reserved":false,"is_disabled":false,"rental_uris":{"android":"levelo://app?vid=9d3f7647-d3a6-4160-aa34-46775c778919","ios":"levelo://app?vid=9d3f7647-d3a6-4160-aa34-46775c778919"},"vehicle_type_id":"4","last_reported":1757866175,"current_range_meters":12000,"station_id":"ce4bh0h2rcd13ifvqd40","pricing_plan_id":"cebpf4jnsgd1na2vs0mg"},{"bike_id":"98ec5e77-8c7d-4793-bc7a-6d9a5110750c","system_id":"levelo_inurba_marseille","lat":43.29028,"lon":5.38631,"is_reserved":false,"is_disabled":false,"rental_uris":{"android":"levelo://app?vid=98ec5e77-8c7d-4793-bc7a-6d9a5110750c","ios":"levelo://app?vid=98ec5e77-8c7d-4793-bc7a-6d9a5110750c"},"vehicle_type_id":"4","last_reported":1757866175,"current_range_meters":12000,"station_id":"ce4bh4p2rcd13ifvqe0g","pricing_plan_id":"cebpf4jnsgd1na2vs0mg"},{"bike_id":"c07b8711-cd8b-47fb-9a8b-3fa568d0d60f","system_id":"levelo_inurba_marseille","lat":43.24166,"lon":5.36393,"is_reserved":false,"is_disabled":false,"rental_uris":{"android":"levelo://app?vid=c07b8711-cd8b-47fb-9a8b-3fa568d0d60f","ios":"levelo://app?vid=c07b8711-cd8b-47fb-9a8b-3fa568d0d60f"},"vehicle_type_id":"4","last_reported":1757866175,"current_range_meters":12000,"station_id":"cpo36qri1sfpv3e86is0","pricing_plan_id":"cebpf4jnsgd1na2vs0mg"},{"bike_id":"508c152b-9ad8-427e-80c2-1cd83a942c1c","system_id":"levelo_inurba_marseille","lat":43.23059,"lon":5.35494,"is_reserved":false,"is_disabled":false,"rental_uris":{"android":"levelo://app?vid=508c152b-9ad8-427e-80c2-1cd83a942c1c","ios":"levelo://app?vid=508c152b-9ad8-427e-80c2-1cd83a942c1c"},"vehicle_type_id":"4","last_reported":1757866175,"current_range_meters":12000,"station_id":"cpo3342slgdg3j2ifvpg","pricing_plan_id":"cebpf4jnsgd1na2vs0mg"},{"bike_id":"e2a53a0f-2e2e-4985-9ad9-6caeaffd8dfc","system_id":"levelo_inurba_marseille","lat":43.28262,"lon":5.35076,"is_reserved":false,"is_disabled":false,"rental_uris":{"android":"levelo://app?vid=e2a53a0f-2e2e-4985-9ad9-6caeaffd8dfc","ios":"levelo://app?vid=e2a53a0f-2e2e-4985-9ad9-6caeaffd8dfc"},"vehicle_type_id":"4","last_reported":1757866175,"current_range_meters":12000,"station_id":"ce4bhbp2rcd13ifvqerg","pricing_plan_id":"cebpf4jnsgd1na2vs0mg"},{"bike_id":"8e3a9e83-812e-4b5d-8c7b-5119699e81be","system_id":"levelo_inurba_marseille","lat":43.31579,"lon":5.40594,"is_reserved":false,"is_disabled":false,"rental_uris":{"android":"levelo://app?vid=8e3a9e83-812e-4b5d-8c7b-5119699e81be","ios":"levelo://app?vid=8e3a9e83-812e-4b5d-8c7b-5119699e81be"},"vehicle_type_id":"4","last_reported":1757866175,"current_range_meters":12400,"station_id":"","pricing_plan_id":"cebpf4jnsgd1na2vs0mg"},{"bike_id":"2238dd80-da25-4394-9e7e-e6d9c6e345eb","system_id":"levelo_inurba_marseille","lat":43.2319,"lon":5.35554,"is_reserved":false,"is_disabled":false,"rental_uris":{"android":"levelo://app?vid=2238dd80-da25-4394-9e7e-e6d9c6e345eb","ios":"levelo://app?vid=2238dd80-da25-4394-9e7e-e6d9c6e345eb"},"vehicle_type_id":"4","last_reported":1757866175,"current_range_meters":12400,"station_id":"ce4bhu92rcd13ifvqi70","pricing_plan_id":"cebpf4jnsgd1na2vs0mg"},{"bike_id":"f0f91981-97a4-4847-ba72-080bc75ab7b1","system_id":"levelo_inurba_marseille","lat":43.25331,"lon":5.42173,"is_reserved":false,"is_disabled":true,"rental_uris":{"android":"levelo://app?vid=f0f91981-97a4-4847-ba72-080bc75ab7b1","ios":"levelo://app?vid=f0f91981-97a4-4847-ba72-080bc75ab7b1"},"vehicle_type_id":"4","last_reported":1757866175,"current_range_meters":12400,"station_id":"st_d2m65c5bi1j21697t3ng","pricing_plan_id":"cebpf4jnsgd1na2vs0mg"},{"bike_id":"988fb7dc-7ce4-4e49-a895-5a9248263721","system_id":"levelo_inurba_marseille","lat":43.29797,"lon":5.38088,"is_reserved":false,"is_disabled":false,"rental_uris":{"android":"levelo://app?vid=988fb7dc-7ce4-4e49-a895-5a9248263721","ios":"levelo://app?vid=988fb7dc-7ce4-4e49-a895-5a9248263721"},"vehicle_type_id":"4","last_reported":1757866175,"current_range_meters":12800,"station_id":"ce4bgip2rcd13ifvqbb0","pricing_plan_id":"cebpf4jnsgd1na2vs0mg"},{"bike_id":"695d6259-6f35-4076-b4d7-30e9edb70ffb","system_id":"levelo_inurba_marseille","lat":43.28569,"lon":5.394885,"is_reserved":false,"is_disabled":false,"rental_uris":{"android":"levelo://app?vid=695d6259-6f35-4076-b4d7-30e9edb70ffb","ios":"levelo://app?vid=695d6259-6f35-4076-b4d7-30e9edb70ffb"},"vehicle_type_id":"4","last_reported":1757866175,"current_range_meters":12400,"station_id":"ce4bh292rcd13ifvqdg0","pricing_plan_id":"cebpf4jnsgd1na2vs0mg"},{"bike_id":"210510cb-bf26-432a-ae03-5f7d77ddfcf5","system_id":"levelo_inurba_marseille","lat":43.28152,"lon":5.42644,"is_reserved":false,"is_disabled":false,"rental_uris":{"android":"levelo://app?vid=210510cb-bf26-432a-ae03-5f7d77ddfcf5","ios":"levelo://app?vid=210510cb-bf26-432a-ae03-5f7d77ddfcf5"},"vehicle_type_id":"4","last_reported":1757866175,"current_range_meters":12800,"station_id":"ce4bhnh2rcd13ifvqgug","pricing_plan_id":"cebpf4jnsgd1na2vs0mg"},{"bike_id":"9c341390-bfd6-4e87-9935-649468d66f92","system_id":"levelo_inurba_marseille","lat":43.290273,"lon":5.386523,"is_reserved":false,"is_disabled":false,"rental_uris":{"android":"levelo://app?vid=9c341390-bfd6-4e87-9935-649468d66f92","ios":"levelo://app?vid=9c341390-bfd6-4e87-9935-649468d66f92"},"vehicle_type_id":"4","last_reported":1757866175,"current_range_meters":12800,"station_id":"","pricing_plan_id":"cebpf4jnsgd1na2vs0mg"},{"bike_id":"8ab60a89-bd14-40d7-b359-020ea126cfef","system_id":"levelo_inurba_marseille","lat":43.323669,"lon":5.367574,"is_reserved":false,"is_disabled":false,"rental_uris":{"android":"levelo://app?vid=8ab60a89-bd14-40d7-b359-020ea126cfef","ios":"levelo://app?vid=8ab60a89-bd14-40d7-b359-020ea126cfef"},"vehicle_type_id":"4","last_reported":1757866175,"current_range_meters":12800,"station_id":"ce4bhsh2rcd13ifvqi2g","pricing_plan_id":"cebpf4jnsgd1na2vs0mg"},{"bike_id":"6d0406b1-e3a6-41c8-8524-fa8b84d97e61","system_id":"levelo_inurba_marseille","lat":43.30524,"lon":5.36717,"is_reserved":false,"is_disabled":false,"rental_uris":{"android":"levelo://app?vid=6d0406b1-e3a6-41c8-8524-fa8b84d97e61","ios":"levelo://app?vid=6d0406b1-e3a6-41c8-8524-fa8b84d97e61"},"vehicle_type_id":"4","last_reported":1757866175,"current_range_meters":12800,"station_id":"ce4bgrp2rcd13ifvqc9g","pricing_plan_id":"cebpf4jnsgd1na2vs0mg"},{"bike_id":"382d4c36-6613-4e78-afb6-0498adf52775","system_id":"levelo_inurba_marseille","lat":43.2861,"lon":5.35102,"is_reserved":false,"is_disabled":false,"rental_uris":{"android":"levelo://app?vid=382d4c36-6613-4e78-afb6-0498adf52775","ios":"levelo://app?vid=382d4c36-6613-4e78-afb6-0498adf52775"},"vehicle_type_id":"4","last_reported":1757866175,"current_range_meters":12800,"station_id":"ce4bhch2rcd13ifvqeug","pricing_plan_id":"cebpf4jnsgd1na2vs0mg"},{"bike_id":"a282ef96-a62c-4603-a854-cbd0cb9c23fb","system_id":"levelo_inurba_marseille","lat":43.23963,"lon":5.36624,"is_reserved":false,"is_disabled":false,"rental_uris":{"android":"levelo://app?vid=a282ef96-a62c-4603-a854-cbd0cb9c23fb","ios":"levelo://app?vid=a282ef96-a62c-4603-a854-cbd0cb9c23fb"},"vehicle_type_id":"4","last_reported":1757866175,"current_range_meters":13600,"station_id":"ce4bhi12rcd13ifvqfp0","pricing_plan_id":"cebpf4jnsgd1na2vs0mg"},{"bike_id":"85db8ab9-6b24-4c23-8762-109e948df9cd","system_id":"levelo_inurba_marseille","lat":43.306,"lon":5.404666,"is_reserved":false,"is_disabled":false,"rental_uris":{"android":"levelo://app?vid=85db8ab9-6b24-4c23-8762-109e948df9cd","ios":"levelo://app?vid=85db8ab9-6b24-4c23-8762-109e948df9cd"},"vehicle_type_id":"4","last_reported":1757866175,"current_range_meters":13600,"station_id":"","pricing_plan_id":"cebpf4jnsgd1na2vs0mg"},{"bike_id":"97e8f29f-601d-493a-8af1-5289013d1480","system_id":"levelo_inurba_marseille","lat":43.292785,"lon":5.368573,"is_reserved":false,"is_disabled":false,"rental_uris":{"android":"levelo://app?vid=97e8f29f-601d-493a-8af1-5289013d1480","ios":"levelo://app?vid=97e8f29f-601d-493a-8af1-5289013d1480"},"vehicle_type_id":"4","last_reported":1757866175,"current_range_meters":13600,"station_id":"ce4bhbp2rcd13ifvqesg","pricing_plan_id":"cebpf4jnsgd1na2vs0mg"},{"bike_id":"4cb54127-27c7-40d6-a08d-a72f1b2d1f4a","system_id":"levelo_inurba_marseille","lat":43.296257,"lon":5.405915,"is_reserved":false,"is_disabled":false,"rental_uris":{"android":"levelo://app?vid=4cb54127-27c7-40d6-a08d-a72f1b2d1f4a","ios":"levelo://app?vid=4cb54127-27c7-40d6-a08d-a72f1b2d1f4a"},"vehicle_type_id":"4","last_reported":1757866175,"current_range_meters":14000,"station_id":"ce4bh0h2rcd13ifvqd60","pricing_plan_id":"cebpf4jnsgd1na2vs0mg"},{"bike_id":"fb28314f-55bd-4257-a503-6ed9cd746ae8","system_id":"levelo_inurba_marseille","lat":43.25713,"lon":5.41117,"is_reserved":false,"is_disabled":false,"rental_uris":{"android":"levelo://app?vid=fb28314f-55bd-4257-a503-6ed9cd746ae8","ios":"levelo://app?vid=fb28314f-55bd-4257-a503-6ed9cd746ae8"},"vehicle_type_id":"4","last_reported":1757866175,"current_range_meters":12800,"station_id":"ce4bhkp2rcd13ifvqgd0","pricing_plan_id":"cebpf4jnsgd1na2vs0mg"},{"bike_id":"fbd0328c-4ce4-4080-b126-d2d47d815fa6","system_id":"levelo_inurba_marseille","lat":43.21742,"lon":5.34614,"is_reserved":false,"is_disabled":true,"rental_uris":{"android":"levelo://app?vid=fbd0328c-4ce4-4080-b126-d2d47d815fa6","ios":"levelo://app?vid=fbd0328c-4ce4-4080-b126-d2d47d815fa6"},"vehicle_type_id":"4","last_reported":1757866175,"current_range_meters":13600,"station_id":"st_cvj6r9ubvosntc0bgbag","pricing_plan_id":"cebpf4jnsgd1na2vs0mg"},{"bike_id":"4b8f384b-e92f-46f8-b077-e3d9373c963d","system_id":"levelo_inurba_marseille","lat":43.31682,"lon":5.40476,"is_reserved":false,"is_disabled":false,"rental_uris":{"android":"levelo://app?vid=4b8f384b-e92f-46f8-b077-e3d9373c963d","ios":"levelo://app?vid=4b8f384b-e92f-46f8-b077-e3d9373c963d"},"vehicle_type_id":"4","last_reported":1757866175,"current_range_meters":13600,"station_id":"ce4bh012rcd13ifvqd00","pricing_plan_id":"cebpf4jnsgd1na2vs0mg"},{"bike_id":"1a3dbf3a-7c8e-477d-bb32-2bdc91783905","system_id":"levelo_inurba_marseille","lat":43.273787,"lon":5.362565,"is_reserved":false,"is_disabled":false,"rental_uris":{"android":"levelo://app?vid=1a3dbf3a-7c8e-477d-bb32-2bdc91783905","ios":"levelo://app?vid=1a3dbf3a-7c8e-477d-bb32-2bdc91783905"},"vehicle_type_id":"4","last_reported":1757866175,"current_range_meters":14000,"station_id":"ce4bhbh2rcd13ifvqeo0","pricing_plan_id":"cebpf4jnsgd1na2vs0mg"},{"bike_id":"d9c4202c-de13-4428-8c40-40d90faf1618","system_id":"levelo_inurba_marseille","lat":43.31356,"lon":5.3707,"is_reserved":false,"is_disabled":false,"rental_uris":{"android":"levelo://app?vid=d9c4202c-de13-4428-8c40-40d90faf1618","ios":"levelo://app?vid=d9c4202c-de13-4428-8c40-40d90faf1618"},"vehicle_type_id":"4","last_reported":1757866175,"current_range_meters":14000,"station_id":"","pricing_plan_id":"cebpf4jnsgd1na2vs0mg"},{"bike_id":"1a163e9d-a32f-43d1-865c-528535139d85","system_id":"levelo_inurba_marseille","lat":43.23964,"lon":5.3661,"is_reserved":false,"is_disabled":false,"rental_uris":{"android":"levelo://app?vid=1a163e9d-a32f-43d1-865c-528535139d85","ios":"levelo://app?vid=1a163e9d-a32f-43d1-865c-528535139d85"},"vehicle_type_id":"4","last_reported":1757866175,"current_range_meters":14000,"station_id":"ce4bhi12rcd13ifvqfp0","pricing_plan_id":"cebpf4jnsgd1na2vs0mg"},{"bike_id":"4d6e6605-7f16-44fa-a19a-c138ee7cb360","system_id":"levelo_inurba_marseille","lat":43.33799,"lon":5.37446,"is_reserved":false,"is_disabled":false,"rental_uris":{"android":"levelo://app?vid=4d6e6605-7f16-44fa-a19a-c138ee7cb360","ios":"levelo://app?vid=4d6e6605-7f16-44fa-a19a-c138ee7cb360"},"vehicle_type_id":"4","last_reported":1757866175,"current_range_meters":14000,"station_id":"","pricing_plan_id":"cebpf4jnsgd1na2vs0mg"},{"bike_id":"53e261c9-8d2a-4316-ba8f-ee6d9e6b7616","system_id":"levelo_inurba_marseille","lat":43.286068,"lon":5.35096,"is_reserved":false,"is_disabled":true,"rental_uris":{"android":"levelo://app?vid=53e261c9-8d2a-4316-ba8f-ee6d9e6b7616","ios":"levelo://app?vid=53e261c9-8d2a-4316-ba8f-ee6d9e6b7616"},"vehicle_type_id":"4","last_reported":1757866175,"current_range_meters":14000,"station_id":"ce4bhch2rcd13ifvqeug","pricing_plan_id":"cebpf4jnsgd1na2vs0mg"},{"bike_id":"2d4f8702-f871-4299-b471-061f32bc7f69","system_id":"levelo_inurba_marseille","lat":43.22565,"lon":5.41613,"is_reserved":false,"is_disabled":false,"rental_uris":{"android":"levelo://app?vid=2d4f8702-f871-4299-b471-061f32bc7f69","ios":"levelo://app?vid=2d4f8702-f871-4299-b471-061f32bc7f69"},"vehicle_type_id":"4","last_reported":1757866175,"current_range_meters":14000,"station_id":"st_d2o4gvlbi1j2169b742g","pricing_plan_id":"cebpf4jnsgd1na2vs0mg"},{"bike_id":"e4975bfa-47b3-44be-9f23-00093b3536e8","system_id":"levelo_inurba_marseille","lat":43.28931,"lon":5.36642,"is_reserved":false,"is_disabled":false,"rental_uris":{"android":"levelo://app?vid=e4975bfa-47b3-44be-9f23-00093b3536e8","ios":"levelo://app?vid=e4975bfa-47b3-44be-9f23-00093b3536e8"},"vehicle_type_id":"4","last_reported":1757866175,"current_range_meters":14000,"station_id":"ce4bhap2rcd13ifvqek0","pricing_plan_id":"cebpf4jnsgd1na2vs0mg"},{"bike_id":"c05baab9-fa8e-476d-91a2-b5ffd93a6701","system_id":"levelo_inurba_marseille","lat":43.24987,"lon":5.38933,"is_reserved":false,"is_disabled":false,"rental_uris":{"android":"levelo://app?vid=c05baab9-fa8e-476d-91a2-b5ffd93a6701","ios":"levelo://app?vid=c05baab9-fa8e-476d-91a2-b5ffd93a6701"},"vehicle_type_id":"4","last_reported":1757866175,"current_range_meters":14000,"station_id":"ce4bhgp2rcd13ifvqfd0","pricing_plan_id":"cebpf4jnsgd1na2vs0mg"},{"bike_id":"c11d7448-afa7-44b8-acea-a15a225574ef","system_id":"levelo_inurba_marseille","lat":43.28415,"lon":5.34995,"is_reserved":false,"is_disabled":false,"rental_uris":{"android":"levelo://app?vid=c11d7448-afa7-44b8-acea-a15a225574ef","ios":"levelo://app?vid=c11d7448-afa7-44b8-acea-a15a225574ef"},"vehicle_type_id":"4","last_reported":1757866175,"current_range_meters":14000,"station_id":"ce4bhbh2rcd13ifvqepg","pricing_plan_id":"cebpf4jnsgd1na2vs0mg"},{"bike_id":"e8930cfa-2c36-4dbf-ab3e-6afdedf38824","system_id":"levelo_inurba_marseille","lat":43.22566,"lon":5.41624,"is_reserved":false,"is_disabled":false,"rental_uris":{"android":"levelo://app?vid=e8930cfa-2c36-4dbf-ab3e-6afdedf38824","ios":"levelo://app?vid=e8930cfa-2c36-4dbf-ab3e-6afdedf38824"},"vehicle_type_id":"4","last_reported":1757866175,"current_range_meters":14400,"station_id":"st_d2o4gvlbi1j2169b742g","pricing_plan_id":"cebpf4jnsgd1na2vs0mg"},{"bike_id":"f91317c6-4f2e-4fcf-9e14-aa37028f4f5d","system_id":"levelo_inurba_marseille","lat":43.31223,"lon":5.36861,"is_reserved":false,"is_disabled":false,"rental_uris":{"android":"levelo://app?vid=f91317c6-4f2e-4fcf-9e14-aa37028f4f5d","ios":"levelo://app?vid=f91317c6-4f2e-4fcf-9e14-aa37028f4f5d"},"vehicle_type_id":"4","last_reported":1757866175,"current_range_meters":14400,"station_id":"ce4bgl92rcd13ifvqbq0","pricing_plan_id":"cebpf4jnsgd1na2vs0mg"},{"bike_id":"e06d2e94-3ae2-4b4b-9d7e-05d3f806365a","system_id":"levelo_inurba_marseille","lat":43.25826,"lon":5.39428,"is_reserved":false,"is_disabled":false,"rental_uris":{"android":"levelo://app?vid=e06d2e94-3ae2-4b4b-9d7e-05d3f806365a","ios":"levelo://app?vid=e06d2e94-3ae2-4b4b-9d7e-05d3f806365a"},"vehicle_type_id":"4","last_reported":1757866175,"current_range_meters":14400,"station_id":"ce4bhip2rcd13ifvqft0","pricing_plan_id":"cebpf4jnsgd1na2vs0mg"},{"bike_id":"c5e0448b-bf85-4ad2-b5d5-b70dbd2b63d6","system_id":"levelo_inurba_marseille","lat":43.248226,"lon":5.374391,"is_reserved":false,"is_disabled":false,"rental_uris":{"android":"levelo://app?vid=c5e0448b-bf85-4ad2-b5d5-b70dbd2b63d6","ios":"levelo://app?vid=c5e0448b-bf85-4ad2-b5d5-b70dbd2b63d6"},"vehicle_type_id":"4","last_reported":1757866175,"current_range_meters":14400,"station_id":"ce4bhgh2rcd13ifvqfb0","pricing_plan_id":"cebpf4jnsgd1na2vs0mg"},{"bike_id":"61242a27-0db1-42cc-9fb5-dd86bf5c6a93","system_id":"levelo_inurba_marseille","lat":43.24642,"lon":5.38894,"is_reserved":false,"is_disabled":false,"rental_uris":{"android":"levelo://app?vid=61242a27-0db1-42cc-9fb5-dd86bf5c6a93","ios":"levelo://app?vid=61242a27-0db1-42cc-9fb5-dd86bf5c6a93"},"vehicle_type_id":"4","last_reported":1757866175,"current_range_meters":14400,"station_id":"ce4bhg12rcd13ifvqf60","pricing_plan_id":"cebpf4jnsgd1na2vs0mg"},{"bike_id":"4955a604-af0c-4acb-b892-574c39c673c0","system_id":"levelo_inurba_marseille","lat":43.28414,"lon":5.34989,"is_reserved":false,"is_disabled":false,"rental_uris":{"android":"levelo://app?vid=4955a604-af0c-4acb-b892-574c39c673c0","ios":"levelo://app?vid=4955a604-af0c-4acb-b892-574c39c673c0"},"vehicle_type_id":"4","last_reported":1757866175,"current_range_meters":14800,"station_id":"ce4bhbh2rcd13ifvqepg","pricing_plan_id":"cebpf4jnsgd1na2vs0mg"},{"bike_id":"cfda3863-ee24-4b7f-8944-82ce5f66444d","system_id":"levelo_inurba_marseille","lat":43.28698,"lon":5.39987,"is_reserved":false,"is_disabled":false,"rental_uris":{"android":"levelo://app?vid=cfda3863-ee24-4b7f-8944-82ce5f66444d","ios":"levelo://app?vid=cfda3863-ee24-4b7f-8944-82ce5f66444d"},"vehicle_type_id":"4","last_reported":1757866175,"current_range_meters":14800,"station_id":"ce4bho92rcd13ifvqh3g","pricing_plan_id":"cebpf4jnsgd1na2vs0mg"},{"bike_id":"d9a7c4bd-53f2-4cde-a7f4-552208dff846","system_id":"levelo_inurba_marseille","lat":43.250816,"lon":5.394947,"is_reserved":false,"is_disabled":false,"rental_uris":{"android":"levelo://app?vid=d9a7c4bd-53f2-4cde-a7f4-552208dff846","ios":"levelo://app?vid=d9a7c4bd-53f2-4cde-a7f4-552208dff846"},"vehicle_type_id":"4","last_reported":1757866175,"current_range_meters":14800,"station_id":"ce4bhm12rcd13ifvqgkg","pricing_plan_id":"cebpf4jnsgd1na2vs0mg"},{"bike_id":"7d7b03c9-f46f-4377-b089-b2019aae399f","system_id":"levelo_inurba_marseille","lat":43.2319,"lon":5.39989,"is_reserved":false,"is_disabled":true,"rental_uris":{"android":"levelo://app?vid=7d7b03c9-f46f-4377-b089-b2019aae399f","ios":"levelo://app?vid=7d7b03c9-f46f-4377-b089-b2019aae399f"},"vehicle_type_id":"4","last_reported":1757866175,"current_range_meters":14800,"station_id":"ce4bhn12rcd13ifvqgqg","pricing_plan_id":"cebpf4jnsgd1na2vs0mg"},{"bike_id":"ffdd2e29-5479-45ca-a3f9-e1c037d4543f","system_id":"levelo_inurba_marseille","lat":43.27611,"lon":5.3611,"is_reserved":false,"is_disabled":false,"rental_uris":{"android":"levelo://app?vid=ffdd2e29-5479-45ca-a3f9-e1c037d4543f","ios":"levelo://app?vid=ffdd2e29-5479-45ca-a3f9-e1c037d4543f"},"vehicle_type_id":"4","last_reported":1757866175,"current_range_meters":14800,"station_id":"ce4bgj92rcd13ifvqbe0","pricing_plan_id":"cebpf4jnsgd1na2vs0mg"},{"bike_id":"746f8f66-7f46-4e2a-8f64-942936320bf9","system_id":"levelo_inurba_marseille","lat":43.23963,"lon":5.3662,"is_reserved":false,"is_disabled":true,"rental_uris":{"android":"levelo://app?vid=746f8f66-7f46-4e2a-8f64-942936320bf9","ios":"levelo://app?vid=746f8f66-7f46-4e2a-8f64-942936320bf9"},"vehicle_type_id":"4","last_reported":1757866175,"current_range_meters":14800,"station_id":"ce4bhi12rcd13ifvqfp0","pricing_plan_id":"cebpf4jnsgd1na2vs0mg"},{"bike_id":"bfb910bf-f74f-4312-b3af-33576ab5c4c9","system_id":"levelo_inurba_marseille","lat":43.27175,"lon":5.40997,"is_reserved":false,"is_disabled":false,"rental_uris":{"android":"levelo://app?vid=bfb910bf-f74f-4312-b3af-33576ab5c4c9","ios":"levelo://app?vid=bfb910bf-f74f-4312-b3af-33576ab5c4c9"},"vehicle_type_id":"4","last_reported":1757866175,"current_range_meters":15200,"station_id":"ce4bhl12rcd13ifvqgf0","pricing_plan_id":"cebpf4jnsgd1na2vs0mg"},{"bike_id":"7836b933-1008-40bb-b824-83b1bc8cf76b","system_id":"levelo_inurba_marseille","lat":43.28076,"lon":5.39658,"is_reserved":false,"is_disabled":false,"rental_uris":{"android":"levelo://app?vid=7836b933-1008-40bb-b824-83b1bc8cf76b","ios":"levelo://app?vid=7836b933-1008-40bb-b824-83b1bc8cf76b"},"vehicle_type_id":"4","last_reported":1757866175,"current_range_meters":15200,"station_id":"ce4bho12rcd13ifvqh2g","pricing_plan_id":"cebpf4jnsgd1na2vs0mg"},{"bike_id":"b2fba456-5a3b-40c6-8765-ad84661db187","system_id":"levelo_inurba_marseille","lat":43.257205,"lon":5.411136,"is_reserved":false,"is_disabled":true,"rental_uris":{"android":"levelo://app?vid=b2fba456-5a3b-40c6-8765-ad84661db187","ios":"levelo://app?vid=b2fba456-5a3b-40c6-8765-ad84661db187"},"vehicle_type_id":"4","last_reported":1757866175,"current_range_meters":15200,"station_id":"ce4bhkp2rcd13ifvqgd0","pricing_plan_id":"cebpf4jnsgd1na2vs0mg"},{"bike_id":"a36fc7d5-b4e2-443b-84f4-2057565b94cb","system_id":"levelo_inurba_marseille","lat":43.25717,"lon":5.41114,"is_reserved":false,"is_disabled":false,"rental_uris":{"android":"levelo://app?vid=a36fc7d5-b4e2-443b-84f4-2057565b94cb","ios":"levelo://app?vid=a36fc7d5-b4e2-443b-84f4-2057565b94cb"},"vehicle_type_id":"4","last_reported":1757866175,"current_range_meters":15200,"station_id":"ce4bhkp2rcd13ifvqgd0","pricing_plan_id":"cebpf4jnsgd1na2vs0mg"},{"bike_id":"3b62be45-1eff-4536-a4a2-8a762178167c","system_id":"levelo_inurba_marseille","lat":43.29003,"lon":5.3561,"is_reserved":false,"is_disabled":false,"rental_uris":{"android":"levelo://app?vid=3b62be45-1eff-4536-a4a2-8a762178167c","ios":"levelo://app?vid=3b62be45-1eff-4536-a4a2-8a762178167c"},"vehicle_type_id":"4","last_reported":1757866175,"current_range_meters":16000,"station_id":"ce4bhb92rcd13ifvqen0","pricing_plan_id":"cebpf4jnsgd1na2vs0mg"},{"bike_id":"d27a5be8-d7fd-4827-a8b4-c4cbf1e10c7d","system_id":"levelo_inurba_marseille","lat":43.27369,"lon":5.3624,"is_reserved":false,"is_disabled":false,"rental_uris":{"android":"levelo://app?vid=d27a5be8-d7fd-4827-a8b4-c4cbf1e10c7d","ios":"levelo://app?vid=d27a5be8-d7fd-4827-a8b4-c4cbf1e10c7d"},"vehicle_type_id":"4","last_reported":1757866175,"current_range_meters":16000,"station_id":"ce4bhbh2rcd13ifvqeo0","pricing_plan_id":"cebpf4jnsgd1na2vs0mg"},{"bike_id":"38479ecd-fa99-4a5c-a3ac-65cfcc4d20e2","system_id":"levelo_inurba_marseille","lat":43.2866,"lon":5.36343,"is_reserved":false,"is_disabled":false,"rental_uris":{"android":"levelo://app?vid=38479ecd-fa99-4a5c-a3ac-65cfcc4d20e2","ios":"levelo://app?vid=38479ecd-fa99-4a5c-a3ac-65cfcc4d20e2"},"vehicle_type_id":"4","last_reported":1757866175,"current_range_meters":15200,"station_id":"ce4bhah2rcd13ifvqej0","pricing_plan_id":"cebpf4jnsgd1na2vs0mg"},{"bike_id":"f75319f4-d3a6-440f-9c89-5af7f4acd041","system_id":"levelo_inurba_marseille","lat":43.22554,"lon":5.41609,"is_reserved":false,"is_disabled":false,"rental_uris":{"android":"levelo://app?vid=f75319f4-d3a6-440f-9c89-5af7f4acd041","ios":"levelo://app?vid=f75319f4-d3a6-440f-9c89-5af7f4acd041"},"vehicle_type_id":"4","last_reported":1757866175,"current_range_meters":16000,"station_id":"st_d2o4gvlbi1j2169b742g","pricing_plan_id":"cebpf4jnsgd1na2vs0mg"},{"bike_id":"b002a392-08fa-4b2e-b212-3e002cd96c5d","system_id":"levelo_inurba_marseille","lat":43.2397,"lon":5.36612,"is_reserved":false,"is_disabled":false,"rental_uris":{"android":"levelo://app?vid=b002a392-08fa-4b2e-b212-3e002cd96c5d","ios":"levelo://app?vid=b002a392-08fa-4b2e-b212-3e002cd96c5d"},"vehicle_type_id":"4","last_reported":1757866175,"current_range_meters":16000,"station_id":"ce4bhi12rcd13ifvqfp0","pricing_plan_id":"cebpf4jnsgd1na2vs0mg"},{"bike_id":"f57245bb-ec07-45a1-bfcb-432e5ec88da0","system_id":"levelo_inurba_marseille","lat":43.25004,"lon":5.38914,"is_reserved":false,"is_disabled":false,"rental_uris":{"android":"levelo://app?vid=f57245bb-ec07-45a1-bfcb-432e5ec88da0","ios":"levelo://app?vid=f57245bb-ec07-45a1-bfcb-432e5ec88da0"},"vehicle_type_id":"4","last_reported":1757866175,"current_range_meters":16000,"station_id":"ce4bhgp2rcd13ifvqfd0","pricing_plan_id":"cebpf4jnsgd1na2vs0mg"},{"bike_id":"af25d9ab-fb16-4aa1-89a7-77f796c897c5","system_id":"levelo_inurba_marseille","lat":43.28352,"lon":5.38108,"is_reserved":false,"is_disabled":false,"rental_uris":{"android":"levelo://app?vid=af25d9ab-fb16-4aa1-89a7-77f796c897c5","ios":"levelo://app?vid=af25d9ab-fb16-4aa1-89a7-77f796c897c5"},"vehicle_type_id":"4","last_reported":1757866175,"current_range_meters":16000,"station_id":"ce4bh412rcd13ifvqdr0","pricing_plan_id":"cebpf4jnsgd1na2vs0mg"},{"bike_id":"afb9a5ff-60a7-4cd3-8986-595160b86226","system_id":"levelo_inurba_marseille","lat":43.28415,"lon":5.34953,"is_reserved":false,"is_disabled":false,"rental_uris":{"android":"levelo://app?vid=afb9a5ff-60a7-4cd3-8986-595160b86226","ios":"levelo://app?vid=afb9a5ff-60a7-4cd3-8986-595160b86226"},"vehicle_type_id":"4","last_reported":1757866175,"current_range_meters":16000,"station_id":"ce4bhbh2rcd13ifvqepg","pricing_plan_id":"cebpf4jnsgd1na2vs0mg"},{"bike_id":"12f1394b-bb48-4fbe-ac41-fe01aa9a3d00","system_id":"levelo_inurba_marseille","lat":43.23961,"lon":5.36628,"is_reserved":false,"is_disabled":false,"rental_uris":{"android":"levelo://app?vid=12f1394b-bb48-4fbe-ac41-fe01aa9a3d00","ios":"levelo://app?vid=12f1394b-bb48-4fbe-ac41-fe01aa9a3d00"},"vehicle_type_id":"4","last_reported":1757866175,"current_range_meters":16000,"station_id":"ce4bhi12rcd13ifvqfp0","pricing_plan_id":"cebpf4jnsgd1na2vs0mg"},{"bike_id":"950a5f0c-6122-4d8d-a42b-4763023d14f2","system_id":"levelo_inurba_marseille","lat":43.25483,"lon":5.3764,"is_reserved":false,"is_disabled":true,"rental_uris":{"android":"levelo://app?vid=950a5f0c-6122-4d8d-a42b-4763023d14f2","ios":"levelo://app?vid=950a5f0c-6122-4d8d-a42b-4763023d14f2"},"vehicle_type_id":"4","last_reported":1757866175,"current_range_meters":16400,"station_id":"ce4bhh12rcd13ifvqff0","pricing_plan_id":"cebpf4jnsgd1na2vs0mg"},{"bike_id":"e05eea5e-3ede-4b75-8a49-e9854c3d159d","system_id":"levelo_inurba_marseille","lat":43.2862,"lon":5.35098,"is_reserved":false,"is_disabled":true,"rental_uris":{"android":"levelo://app?vid=e05eea5e-3ede-4b75-8a49-e9854c3d159d","ios":"levelo://app?vid=e05eea5e-3ede-4b75-8a49-e9854c3d159d"},"vehicle_type_id":"4","last_reported":1757866175,"current_range_meters":16400,"station_id":"ce4bhch2rcd13ifvqeug","pricing_plan_id":"cebpf4jnsgd1na2vs0mg"},{"bike_id":"a043d6b0-cc76-4599-976d-bd54a831ed0a","system_id":"levelo_inurba_marseille","lat":43.2657,"lon":5.39006,"is_reserved":false,"is_disabled":false,"rental_uris":{"android":"levelo://app?vid=a043d6b0-cc76-4599-976d-bd54a831ed0a","ios":"levelo://app?vid=a043d6b0-cc76-4599-976d-bd54a831ed0a"},"vehicle_type_id":"4","last_reported":1757866175,"current_range_meters":16800,"station_id":"ce4bhe12rcd13ifvqf30","pricing_plan_id":"cebpf4jnsgd1na2vs0mg"},{"bike_id":"15c12f1b-150c-43be-9134-ac05fb9a1bef","system_id":"levelo_inurba_marseille","lat":43.290693,"lon":5.371371,"is_reserved":false,"is_disabled":true,"rental_uris":{"android":"levelo://app?vid=15c12f1b-150c-43be-9134-ac05fb9a1bef","ios":"levelo://app?vid=15c12f1b-150c-43be-9134-ac05fb9a1bef"},"vehicle_type_id":"4","last_reported":1757866175,"current_range_meters":16400,"station_id":"ce4bh5p2rcd13ifvqe4g","pricing_plan_id":"cebpf4jnsgd1na2vs0mg"},{"bike_id":"5e1483a3-bb44-4a53-bb4d-fbd96843bc8e","system_id":"levelo_inurba_marseille","lat":43.24798,"lon":5.37458,"is_reserved":false,"is_disabled":false,"rental_uris":{"android":"levelo://app?vid=5e1483a3-bb44-4a53-bb4d-fbd96843bc8e","ios":"levelo://app?vid=5e1483a3-bb44-4a53-bb4d-fbd96843bc8e"},"vehicle_type_id":"4","last_reported":1757866175,"current_range_meters":16400,"station_id":"ce4bhgh2rcd13ifvqfb0","pricing_plan_id":"cebpf4jnsgd1na2vs0mg"},{"bike_id":"853a4893-339d-477d-bd8c-74a3256e3b0a","system_id":"levelo_inurba_marseille","lat":43.284155,"lon":5.349816,"is_reserved":false,"is_disabled":false,"rental_uris":{"android":"levelo://app?vid=853a4893-339d-477d-bd8c-74a3256e3b0a","ios":"levelo://app?vid=853a4893-339d-477d-bd8c-74a3256e3b0a"},"vehicle_type_id":"4","last_reported":1757866175,"current_range_meters":16400,"station_id":"ce4bhbh2rcd13ifvqepg","pricing_plan_id":"cebpf4jnsgd1na2vs0mg"},{"bike_id":"1d00b1da-40ae-48d9-b03f-193c191a67f1","system_id":"levelo_inurba_marseille","lat":43.29258,"lon":5.40909,"is_reserved":false,"is_disabled":true,"rental_uris":{"android":"levelo://app?vid=1d00b1da-40ae-48d9-b03f-193c191a67f1","ios":"levelo://app?vid=1d00b1da-40ae-48d9-b03f-193c191a67f1"},"vehicle_type_id":"4","last_reported":1757866175,"current_range_meters":16800,"station_id":"ce4bh192rcd13ifvqdc0","pricing_plan_id":"cebpf4jnsgd1na2vs0mg"},{"bike_id":"93a9ef8d-5c6c-4337-afb6-735d3541b0eb","system_id":"levelo_inurba_marseille","lat":43.2559,"lon":5.38204,"is_reserved":false,"is_disabled":false,"rental_uris":{"android":"levelo://app?vid=93a9ef8d-5c6c-4337-afb6-735d3541b0eb","ios":"levelo://app?vid=93a9ef8d-5c6c-4337-afb6-735d3541b0eb"},"vehicle_type_id":"4","last_reported":1757866175,"current_range_meters":16800,"station_id":"ce4bhih2rcd13ifvqfs0","pricing_plan_id":"cebpf4jnsgd1na2vs0mg"},{"bike_id":"95251c11-6699-4aa0-8909-a444151e2dc9","system_id":"levelo_inurba_marseille","lat":43.2408,"lon":5.37789,"is_reserved":false,"is_disabled":false,"rental_uris":{"android":"levelo://app?vid=95251c11-6699-4aa0-8909-a444151e2dc9","ios":"levelo://app?vid=95251c11-6699-4aa0-8909-a444151e2dc9"},"vehicle_type_id":"4","last_reported":1757866175,"current_range_meters":16800,"station_id":"ce4bhnp2rcd13ifvqgvg","pricing_plan_id":"cebpf4jnsgd1na2vs0mg"},{"bike_id":"777ff417-3a86-45a9-9277-be4920b499e5","system_id":"levelo_inurba_marseille","lat":43.24772,"lon":5.37474,"is_reserved":false,"is_disabled":false,"rental_uris":{"android":"levelo://app?vid=777ff417-3a86-45a9-9277-be4920b499e5","ios":"levelo://app?vid=777ff417-3a86-45a9-9277-be4920b499e5"},"vehicle_type_id":"4","last_reported":1757866175,"current_range_meters":16800,"station_id":"ce4bhgh2rcd13ifvqfb0","pricing_plan_id":"cebpf4jnsgd1na2vs0mg"},{"bike_id":"da4541a9-1834-4cf4-a9ea-7392ff8fd462","system_id":"levelo_inurba_marseille","lat":43.2737,"lon":5.36259,"is_reserved":false,"is_disabled":false,"rental_uris":{"android":"levelo://app?vid=da4541a9-1834-4cf4-a9ea-7392ff8fd462","ios":"levelo://app?vid=da4541a9-1834-4cf4-a9ea-7392ff8fd462"},"vehicle_type_id":"4","last_reported":1757866175,"current_range_meters":16800,"station_id":"ce4bhbh2rcd13ifvqeo0","pricing_plan_id":"cebpf4jnsgd1na2vs0mg"},{"bike_id":"1d7d86a5-9a72-48a5-afa7-3bf74f847eae","system_id":"levelo_inurba_marseille","lat":43.271819,"lon":5.409929,"is_reserved":false,"is_disabled":false,"rental_uris":{"android":"levelo://app?vid=1d7d86a5-9a72-48a5-afa7-3bf74f847eae","ios":"levelo://app?vid=1d7d86a5-9a72-48a5-afa7-3bf74f847eae"},"vehicle_type_id":"4","last_reported":1757866175,"current_range_meters":16400,"station_id":"ce4bhl12rcd13ifvqgf0","pricing_plan_id":"cebpf4jnsgd1na2vs0mg"},{"bike_id":"a2a9e70a-c4ff-4147-80bb-641e2d519899","system_id":"levelo_inurba_marseille","lat":43.24178,"lon":5.36389,"is_reserved":false,"is_disabled":false,"rental_uris":{"android":"levelo://app?vid=a2a9e70a-c4ff-4147-80bb-641e2d519899","ios":"levelo://app?vid=a2a9e70a-c4ff-4147-80bb-641e2d519899"},"vehicle_type_id":"4","last_reported":1757866175,"current_range_meters":16800,"station_id":"cpo36qri1sfpv3e86is0","pricing_plan_id":"cebpf4jnsgd1na2vs0mg"},{"bike_id":"2619e652-1729-4b1e-a328-9705c1c38ec7","system_id":"levelo_inurba_marseille","lat":43.27373,"lon":5.36239,"is_reserved":false,"is_disabled":false,"rental_uris":{"android":"levelo://app?vid=2619e652-1729-4b1e-a328-9705c1c38ec7","ios":"levelo://app?vid=2619e652-1729-4b1e-a328-9705c1c38ec7"},"vehicle_type_id":"4","last_reported":1757866175,"current_range_meters":16800,"station_id":"ce4bhbh2rcd13ifvqeo0","pricing_plan_id":"cebpf4jnsgd1na2vs0mg"},{"bike_id":"1744ecbd-15c5-41e2-ba18-c1b9dcd95050","system_id":"levelo_inurba_marseille","lat":43.29029,"lon":5.38644,"is_reserved":false,"is_disabled":false,"rental_uris":{"android":"levelo://app?vid=1744ecbd-15c5-41e2-ba18-c1b9dcd95050","ios":"levelo://app?vid=1744ecbd-15c5-41e2-ba18-c1b9dcd95050"},"vehicle_type_id":"4","last_reported":1757866175,"current_range_meters":16800,"station_id":"ce4bh4p2rcd13ifvqe0g","pricing_plan_id":"cebpf4jnsgd1na2vs0mg"},{"bike_id":"8a12f425-7613-4a2e-a74d-2b906c619c68","system_id":"levelo_inurba_marseille","lat":43.246412,"lon":5.388394,"is_reserved":false,"is_disabled":false,"rental_uris":{"android":"levelo://app?vid=8a12f425-7613-4a2e-a74d-2b906c619c68","ios":"levelo://app?vid=8a12f425-7613-4a2e-a74d-2b906c619c68"},"vehicle_type_id":"4","last_reported":1757866175,"current_range_meters":17200,"station_id":"ce4bhm12rcd13ifvqgkg","pricing_plan_id":"cebpf4jnsgd1na2vs0mg"},{"bike_id":"0c6fe877-1024-4901-84e8-0fbaefe45584","system_id":"levelo_inurba_marseille","lat":43.33431,"lon":5.40057,"is_reserved":false,"is_disabled":false,"rental_uris":{"android":"levelo://app?vid=0c6fe877-1024-4901-84e8-0fbaefe45584","ios":"levelo://app?vid=0c6fe877-1024-4901-84e8-0fbaefe45584"},"vehicle_type_id":"4","last_reported":1757866175,"current_range_meters":17200,"station_id":"","pricing_plan_id":"cebpf4jnsgd1na2vs0mg"},{"bike_id":"046ba709-b940-4fa3-9690-1d81db536e4b","system_id":"levelo_inurba_marseille","lat":43.22557,"lon":5.41624,"is_reserved":false,"is_disabled":false,"rental_uris":{"android":"levelo://app?vid=046ba709-b940-4fa3-9690-1d81db536e4b","ios":"levelo://app?vid=046ba709-b940-4fa3-9690-1d81db536e4b"},"vehicle_type_id":"4","last_reported":1757866175,"current_range_meters":17200,"station_id":"st_d2o4gvlbi1j2169b742g","pricing_plan_id":"cebpf4jnsgd1na2vs0mg"},{"bike_id":"ebc28d3f-48e0-4c19-84dd-0c3a04a1ca62","system_id":"levelo_inurba_marseille","lat":43.25873,"lon":5.39914,"is_reserved":false,"is_disabled":true,"rental_uris":{"android":"levelo://app?vid=ebc28d3f-48e0-4c19-84dd-0c3a04a1ca62","ios":"levelo://app?vid=ebc28d3f-48e0-4c19-84dd-0c3a04a1ca62"},"vehicle_type_id":"4","last_reported":1757866175,"current_range_meters":17200,"station_id":"ce4bhl92rcd13ifvqghg","pricing_plan_id":"cebpf4jnsgd1na2vs0mg"},{"bike_id":"322c1f5a-85db-4ef6-bcd4-1b5c417c8ee0","system_id":"levelo_inurba_marseille","lat":43.3377,"lon":5.37488,"is_reserved":false,"is_disabled":false,"rental_uris":{"android":"levelo://app?vid=322c1f5a-85db-4ef6-bcd4-1b5c417c8ee0","ios":"levelo://app?vid=322c1f5a-85db-4ef6-bcd4-1b5c417c8ee0"},"vehicle_type_id":"4","last_reported":1757866175,"current_range_meters":17200,"station_id":"","pricing_plan_id":"cebpf4jnsgd1na2vs0mg"},{"bike_id":"c9f82b86-7ced-43c5-8bc4-fa83f1b9c33c","system_id":"levelo_inurba_marseille","lat":43.24647,"lon":5.38156,"is_reserved":false,"is_disabled":false,"rental_uris":{"android":"levelo://app?vid=c9f82b86-7ced-43c5-8bc4-fa83f1b9c33c","ios":"levelo://app?vid=c9f82b86-7ced-43c5-8bc4-fa83f1b9c33c"},"vehicle_type_id":"4","last_reported":1757866175,"current_range_meters":17200,"station_id":"ce4bhih2rcd13ifvqfr0","pricing_plan_id":"cebpf4jnsgd1na2vs0mg"},{"bike_id":"60df5be0-868d-496d-a7cc-2e097de1a47a","system_id":"levelo_inurba_marseille","lat":43.22559,"lon":5.41636,"is_reserved":false,"is_disabled":false,"rental_uris":{"android":"levelo://app?vid=60df5be0-868d-496d-a7cc-2e097de1a47a","ios":"levelo://app?vid=60df5be0-868d-496d-a7cc-2e097de1a47a"},"vehicle_type_id":"4","last_reported":1757866175,"current_range_meters":17200,"station_id":"st_d2o4gvlbi1j2169b742g","pricing_plan_id":"cebpf4jnsgd1na2vs0mg"},{"bike_id":"268a3368-4566-4cd5-9600-46870f2cc534","system_id":"levelo_inurba_marseille","lat":43.30177,"lon":5.36605,"is_reserved":false,"is_disabled":false,"rental_uris":{"android":"levelo://app?vid=268a3368-4566-4cd5-9600-46870f2cc534","ios":"levelo://app?vid=268a3368-4566-4cd5-9600-46870f2cc534"},"vehicle_type_id":"4","last_reported":1757866175,"current_range_meters":17200,"station_id":"ce4bgrh2rcd13ifvqc8g","pricing_plan_id":"cebpf4jnsgd1na2vs0mg"},{"bike_id":"694699a3-0e1c-42a7-a1d9-98decf7fd274","system_id":"levelo_inurba_marseille","lat":43.24997,"lon":5.38933,"is_reserved":false,"is_disabled":false,"rental_uris":{"android":"levelo://app?vid=694699a3-0e1c-42a7-a1d9-98decf7fd274","ios":"levelo://app?vid=694699a3-0e1c-42a7-a1d9-98decf7fd274"},"vehicle_type_id":"4","last_reported":1757866175,"current_range_meters":17200,"station_id":"ce4bhgp2rcd13ifvqfd0","pricing_plan_id":"cebpf4jnsgd1na2vs0mg"},{"bike_id":"8ef8bf7d-8a91-4724-8c2e-ddeef723e28a","system_id":"levelo_inurba_marseille","lat":43.270248,"lon":5.379412,"is_reserved":false,"is_disabled":false,"rental_uris":{"android":"levelo://app?vid=8ef8bf7d-8a91-4724-8c2e-ddeef723e28a","ios":"levelo://app?vid=8ef8bf7d-8a91-4724-8c2e-ddeef723e28a"},"vehicle_type_id":"4","last_reported":1757866175,"current_range_meters":17600,"station_id":"","pricing_plan_id":"cebpf4jnsgd1na2vs0mg"},{"bike_id":"601daf82-c59e-42eb-a72b-af364280efd2","system_id":"levelo_inurba_marseille","lat":43.28415,"lon":5.34983,"is_reserved":false,"is_disabled":false,"rental_uris":{"android":"levelo://app?vid=601daf82-c59e-42eb-a72b-af364280efd2","ios":"levelo://app?vid=601daf82-c59e-42eb-a72b-af364280efd2"},"vehicle_type_id":"4","last_reported":1757866175,"current_range_meters":17600,"station_id":"ce4bhbh2rcd13ifvqepg","pricing_plan_id":"cebpf4jnsgd1na2vs0mg"},{"bike_id":"2652b4d2-6350-43ce-a637-b16535b8137a","system_id":"levelo_inurba_marseille","lat":43.290206,"lon":5.386336,"is_reserved":false,"is_disabled":false,"rental_uris":{"android":"levelo://app?vid=2652b4d2-6350-43ce-a637-b16535b8137a","ios":"levelo://app?vid=2652b4d2-6350-43ce-a637-b16535b8137a"},"vehicle_type_id":"4","last_reported":1757866175,"current_range_meters":17600,"station_id":"ce4bh4p2rcd13ifvqe0g","pricing_plan_id":"cebpf4jnsgd1na2vs0mg"},{"bike_id":"c0c78e67-ab44-422e-9be6-9485f3e48ff7","system_id":"levelo_inurba_marseille","lat":43.24387,"lon":5.37067,"is_reserved":false,"is_disabled":false,"rental_uris":{"android":"levelo://app?vid=c0c78e67-ab44-422e-9be6-9485f3e48ff7","ios":"levelo://app?vid=c0c78e67-ab44-422e-9be6-9485f3e48ff7"},"vehicle_type_id":"4","last_reported":1757866175,"current_range_meters":17600,"station_id":"ce4bhhh2rcd13ifvqfk0","pricing_plan_id":"cebpf4jnsgd1na2vs0mg"},{"bike_id":"e73470b2-f46f-4f87-989f-53f8372e4317","system_id":"levelo_inurba_marseille","lat":43.33363,"lon":5.39816,"is_reserved":false,"is_disabled":false,"rental_uris":{"android":"levelo://app?vid=e73470b2-f46f-4f87-989f-53f8372e4317","ios":"levelo://app?vid=e73470b2-f46f-4f87-989f-53f8372e4317"},"vehicle_type_id":"4","last_reported":1757866175,"current_range_meters":17600,"station_id":"","pricing_plan_id":"cebpf4jnsgd1na2vs0mg"},{"bike_id":"4d3bf612-60ce-4d16-9cd9-4b6a9d25c771","system_id":"levelo_inurba_marseille","lat":43.32349,"lon":5.40536,"is_reserved":false,"is_disabled":false,"rental_uris":{"android":"levelo://app?vid=4d3bf612-60ce-4d16-9cd9-4b6a9d25c771","ios":"levelo://app?vid=4d3bf612-60ce-4d16-9cd9-4b6a9d25c771"},"vehicle_type_id":"4","last_reported":1757866175,"current_range_meters":17600,"station_id":"","pricing_plan_id":"cebpf4jnsgd1na2vs0mg"},{"bike_id":"35ac33de-7ed8-4e70-a313-09a39f997c10","system_id":"levelo_inurba_marseille","lat":43.28411,"lon":5.34987,"is_reserved":false,"is_disabled":false,"rental_uris":{"android":"levelo://app?vid=35ac33de-7ed8-4e70-a313-09a39f997c10","ios":"levelo://app?vid=35ac33de-7ed8-4e70-a313-09a39f997c10"},"vehicle_type_id":"4","last_reported":1757866175,"current_range_meters":17600,"station_id":"ce4bhbh2rcd13ifvqepg","pricing_plan_id":"cebpf4jnsgd1na2vs0mg"},{"bike_id":"d27a3574-c668-415b-ad3b-c0a1e10e6cf4","system_id":"levelo_inurba_marseille","lat":43.337444,"lon":5.374475,"is_reserved":false,"is_disabled":false,"rental_uris":{"android":"levelo://app?vid=d27a3574-c668-415b-ad3b-c0a1e10e6cf4","ios":"levelo://app?vid=d27a3574-c668-415b-ad3b-c0a1e10e6cf4"},"vehicle_type_id":"4","last_reported":1757866175,"current_range_meters":17600,"station_id":"","pricing_plan_id":"cebpf4jnsgd1na2vs0mg"},{"bike_id":"a2037d5d-efdc-4084-bc10-efef38a713df","system_id":"levelo_inurba_marseille","lat":43.29584,"lon":5.3675,"is_reserved":false,"is_disabled":true,"rental_uris":{"android":"levelo://app?vid=a2037d5d-efdc-4084-bc10-efef38a713df","ios":"levelo://app?vid=a2037d5d-efdc-4084-bc10-efef38a713df"},"vehicle_type_id":"4","last_reported":1757866175,"current_range_meters":18000,"station_id":"ce4bgph2rcd13ifvqc2g","pricing_plan_id":"cebpf4jnsgd1na2vs0mg"},{"bike_id":"c284f8e1-cc4d-4afd-aaf2-3777af2f4bd4","system_id":"levelo_inurba_marseille","lat":43.2762,"lon":5.36114,"is_reserved":false,"is_disabled":false,"rental_uris":{"android":"levelo://app?vid=c284f8e1-cc4d-4afd-aaf2-3777af2f4bd4","ios":"levelo://app?vid=c284f8e1-cc4d-4afd-aaf2-3777af2f4bd4"},"vehicle_type_id":"4","last_reported":1757866175,"current_range_meters":18000,"station_id":"ce4bgj92rcd13ifvqbe0","pricing_plan_id":"cebpf4jnsgd1na2vs0mg"},{"bike_id":"8ea6cb1e-e130-4e06-98c5-b9e89ef05eca","system_id":"levelo_inurba_marseille","lat":43.23193,"lon":5.35548,"is_reserved":false,"is_disabled":false,"rental_uris":{"android":"levelo://app?vid=8ea6cb1e-e130-4e06-98c5-b9e89ef05eca","ios":"levelo://app?vid=8ea6cb1e-e130-4e06-98c5-b9e89ef05eca"},"vehicle_type_id":"4","last_reported":1757866175,"current_range_meters":18000,"station_id":"ce4bhu92rcd13ifvqi70","pricing_plan_id":"cebpf4jnsgd1na2vs0mg"},{"bike_id":"5b5379f2-6b26-4741-a1b0-feb22b61a585","system_id":"levelo_inurba_marseille","lat":43.21191,"lon":5.35067,"is_reserved":false,"is_disabled":true,"rental_uris":{"android":"levelo://app?vid=5b5379f2-6b26-4741-a1b0-feb22b61a585","ios":"levelo://app?vid=5b5379f2-6b26-4741-a1b0-feb22b61a585"},"vehicle_type_id":"4","last_reported":1757866175,"current_range_meters":18000,"station_id":"st_cvj6sg6p6f1abm77japg","pricing_plan_id":"cebpf4jnsgd1na2vs0mg"},{"bike_id":"5215e896-bb19-404d-b7e3-dcfcfa299dd4","system_id":"levelo_inurba_marseille","lat":43.23063,"lon":5.35501,"is_reserved":false,"is_disabled":false,"rental_uris":{"android":"levelo://app?vid=5215e896-bb19-404d-b7e3-dcfcfa299dd4","ios":"levelo://app?vid=5215e896-bb19-404d-b7e3-dcfcfa299dd4"},"vehicle_type_id":"4","last_reported":1757866175,"current_range_meters":17600,"station_id":"cpo3342slgdg3j2ifvpg","pricing_plan_id":"cebpf4jnsgd1na2vs0mg"},{"bike_id":"a155e67d-bec0-4326-ae57-c035ef5e1c81","system_id":"levelo_inurba_marseille","lat":43.298905,"lon":5.436729,"is_reserved":false,"is_disabled":false,"rental_uris":{"android":"levelo://app?vid=a155e67d-bec0-4326-ae57-c035ef5e1c81","ios":"levelo://app?vid=a155e67d-bec0-4326-ae57-c035ef5e1c81"},"vehicle_type_id":"4","last_reported":1757866175,"current_range_meters":18000,"station_id":"ce4bhpp2rcd13ifvqhfg","pricing_plan_id":"cebpf4jnsgd1na2vs0mg"},