{"last_updated":1747393710,"ttl":60,"version":"2.2","data":{"bikes":[{"bike_id":"c0b9fd4f-e181-46ce-b0bf-f5119973334f","system_id":"levelo_inurba_marseille","lat":43.33771,"lon":5.37424,"is_reserved":false,"is_disabled":false,"rental_uris":{"android":"levelo://app?vid=c0b9fd4f-e181-46ce-b0bf-f5119973334f","ios":"levelo://app?vid=c0b9fd4f-e181-46ce-b0bf-f5119973334f"},"vehicle_type_id":"4","last_reported":1747393710,"current_range_meters":10000,"station_id":"","pricing_plan_id":"cebpf4jnsgd1na2vs0mg"},{"bike_id":"fc2577e7-1497-425b-9d4f-ab8d7dc843c6","system_id":"levelo_inurba_marseille","lat":43.33771,"lon":5.37485,"is_reserved":false,"is_disabled":true,"rental_uris":{"android":"levelo://app?vid=fc2577e7-1497-425b-9d4f-ab8d7dc843c6","ios":"levelo://app?vid=fc2577e7-1497-425b-9d4f-ab8d7dc843c6"},"vehicle_type_id":"4","last_reported":1747393710,"current_range_meters":0,"station_id":"","pricing_plan_id":"cebpf4jnsgd1na2vs0mg"},{"bike_id":"ce4325af-2448-4172-bdec-81d552ee0b62","system_id":"levelo_inurba_marseille","lat":43.26164,"lon":5.42009,"is_reserved":false,"is_disabled":true,"rental_uris":{"android":"levelo://app?vid=ce4325af-2448-4172-bdec-81d552ee0b62","ios":"levelo://app?vid=ce4325af-2448-4172-bdec-81d552ee0b62"},"vehicle_type_id":"4","last_reported":1747393710,"current_range_meters":0,"station_id":"","pricing_plan_id":"cebpf4jnsgd1na2vs0mg"},{"bike_id":"2b8fbf5f-4106-421b-bd48-29543ccb14db","system_id":"levelo_inurba_marseille","lat":43.236963,"lon":5.362874,"is_reserved":false,"is_disabled":true,"rental_uris":{"android":"levelo://app?vid=2b8fbf5f-4106-421b-bd48-29543ccb14db","ios":"levelo://app?vid=2b8fbf5f-4106-421b-bd48-29543ccb14db"},"vehicle_type_id":"4","last_reported":1747393710,"current_range_meters":0,"station_id":"","pricing_plan_id":"cebpf4jnsgd1na2vs0mg"},{"bike_id":"5de4311e-acc0-4747-9be3-06bcfa4d137e","system_id":"levelo_inurba_marseille","lat":43.31973,"lon":5.38703,"is_reserved":false,"is_disabled":true,"rental_uris":{"android":"levelo://app?vid=5de4311e-acc0-4747-9be3-06bcfa4d137e","ios":"levelo://app?vid=5de4311e-acc0-4747-9be3-06bcfa4d137e"},"vehicle_type_id":"4","last_reported":1747393710,"current_range_meters":0,"station_id":"","pricing_plan_id":"cebpf4jnsgd1na2vs0mg"},{"bike_id":"792567c6-0442-4011-aff0-9c05e25deb48","system_id":"levelo_inurba_marseille","lat":43.337444,"lon":5.374475,"is_reserved":false,"is_disabled":true,"rental_uris":{"android":"levelo://app?vid=792567c6-0442-4011-aff0-9c05e25deb48","ios":"levelo://app?vid=792567c6-0442-4011-aff0-9c05e25deb48"},"vehicle_type_id":"4","last_reported":1747393710,"current_range_meters":0,"station_id":"","pricing_plan_id":"cebpf4jnsgd1na2vs0mg"},{"bike_id":"2a5dafaf-54ec-4df0-8510-39053ad2d582","system_id":"levelo_inurba_marseille","lat":43.33218,"lon":5.38635,"is_reserved":false,"is_disabled":true,"rental_uris":{"android":"levelo://app?vid=2a5dafaf-54ec-4df0-8510-39053ad2d582","ios":"levelo://app?vid=2a5dafaf-54ec-4df0-8510-39053ad2d582"},"vehicle_type_id":"4","last_reported":1747393710,"current_range_meters":0,"station_id":"","pricing_plan_id":"cebpf4jnsgd1na2vs0mg"},{"bike_id":"eadae803-3dba-4cef-b05c-ed5343487cef","system_id":"levelo_inurba_marseille","lat":43.30793,"lon":5.38167,"is_reserved":false,"is_disabled":true,"rental_uris":{"android":"levelo://app?vid=eadae803-3dba-4cef-b05c-ed5343487cef","ios":"levelo://app?vid=eadae803-3dba-4cef-b05c-ed5343487cef"},"vehicle_type_id":"4","last_reported":1747393710,"current_range_meters":0,"station_id":"ce4bgt12rcd13ifvqce0","pricing_plan_id":"cebpf4jnsgd1na2vs0mg"},{"bike_id":"e2abdce4-5a60-48da-bdcc-d29381b23646","system_id":"levelo_inurba_marseille","lat":43.283775,"lon":5.375257,"is_reserved":false,"is_disabled":true,"rental_uris":{"android":"levelo://app?vid=e2abdce4-5a60-48da-bdcc-d29381b23646","ios":"levelo://app?vid=e2abdce4-5a60-48da-bdcc-d29381b23646"},"vehicle_type_id":"4","last_reported":1747393710,"current_range_meters":0,"station_id":"ce4bh412rcd13ifvqds0","pricing_plan_id":"cebpf4jnsgd1na2vs0mg"},{"bike_id":"1382616f-42e6-41a3-8d79-6b8977124ea6","system_id":"levelo_inurba_marseille","lat":43.27311,"lon":5.390875,"is_reserved":false,"is_disabled":true,"rental_uris":{"android":"levelo://app?vid=1382616f-42e6-41a3-8d79-6b8977124ea6","ios":"levelo://app?vid=1382616f-42e6-41a3-8d79-6b8977124ea6"},"vehicle_type_id":"4","last_reported":1747393710,"current_range_meters":0,"station_id":"ce4bhgp2rcd13ifvqfe0","pricing_plan_id":"cebpf4jnsgd1na2vs0mg"},{"bike_id":"bb960bb1-8513-465e-8a9a-4307aef7ddf7","system_id":"levelo_inurba_marseille","lat":43.21746,"lon":5.34618,"is_reserved":false,"is_disabled":true,"rental_uris":{"android":"levelo://app?vid=bb960bb1-8513-465e-8a9a-4307aef7ddf7","ios":"levelo://app?vid=bb960bb1-8513-465e-8a9a-4307aef7ddf7"},"vehicle_type_id":"4","last_reported":1747393710,"current_range_meters":0,"station_id":"st_cvj6r9ubvosntc0bgbag","pricing_plan_id":"cebpf4jnsgd1na2vs0mg"},{"bike_id":"a73d127f-5b1e-4c85-b09d-7b4a39558bb7","system_id":"levelo_inurba_marseille","lat":43.29859,"lon":5.38366,"is_reserved":false,"is_disabled":true,"rental_uris":{"android":"levelo://app?vid=a73d127f-5b1e-4c85-b09d-7b4a39558bb7","ios":"levelo://app?vid=a73d127f-5b1e-4c85-b09d-7b4a39558bb7"},"vehicle_type_id":"4","last_reported":1747393710,"current_range_meters":400,"station_id":"","pricing_plan_id":"cebpf4jnsgd1na2vs0mg"},{"bike_id":"724bc8d4-b09f-4a81-9adc-5238cc7035d7","system_id":"levelo_inurba_marseille","lat":43.27666,"lon":5.38886,"is_reserved":false,"is_disabled":true,"rental_uris":{"android":"levelo://app?vid=724bc8d4-b09f-4a81-9adc-5238cc7035d7","ios":"levelo://app?vid=724bc8d4-b09f-4a81-9adc-5238cc7035d7"},"vehicle_type_id":"4","last_reported":1747393710,"current_range_meters":400,"station_id":"ce4bhi12rcd13ifvqfo0","pricing_plan_id":"cebpf4jnsgd1na2vs0mg"},{"bike_id":"f9e7d873-88bb-4f94-a0d6-3fcae7d05021","system_id":"levelo_inurba_marseille","lat":43.30818,"lon":5.36972,"is_reserved":false,"is_disabled":true,"rental_uris":{"android":"levelo://app?vid=f9e7d873-88bb-4f94-a0d6-3fcae7d05021","ios":"levelo://app?vid=f9e7d873-88bb-4f94-a0d6-3fcae7d05021"},"vehicle_type_id":"4","last_reported":1747393710,"current_range_meters":800,"station_id":"","pricing_plan_id":"cebpf4jnsgd1na2vs0mg"},{"bike_id":"aa8baf82-bc49-498b-842b-69b5285a08ca","system_id":"levelo_inurba_marseille","lat":43.2707,"lon":5.42276,"is_reserved":false,"is_disabled":true,"rental_uris":{"android":"levelo://app?vid=aa8baf82-bc49-498b-842b-69b5285a08ca","ios":"levelo://app?vid=aa8baf82-bc49-498b-842b-69b5285a08ca"},"vehicle_type_id":"4","last_reported":1747393710,"current_range_meters":800,"station_id":"ce4bhk92rcd13ifvqgb0","pricing_plan_id":"cebpf4jnsgd1na2vs0mg"},{"bike_id":"3e940fec-c551-4975-a085-4102e4338415","system_id":"levelo_inurba_marseille","lat":43.3237,"lon":5.38877,"is_reserved":false,"is_disabled":true,"rental_uris":{"android":"levelo://app?vid=3e940fec-c551-4975-a085-4102e4338415","ios":"levelo://app?vid=3e940fec-c551-4975-a085-4102e4338415"},"vehicle_type_id":"4","last_reported":1747393710,"current_range_meters":800,"station_id":"ce4bhqp2rcd13ifvqhog","pricing_plan_id":"cebpf4jnsgd1na2vs0mg"},{"bike_id":"60725cb9-ae60-40ff-a651-2e36b9ab2729","system_id":"levelo_inurba_marseille","lat":43.29771,"lon":5.371,"is_reserved":false,"is_disabled":true,"rental_uris":{"android":"levelo://app?vid=60725cb9-ae60-40ff-a651-2e36b9ab2729","ios":"levelo://app?vid=60725cb9-ae60-40ff-a651-2e36b9ab2729"},"vehicle_type_id":"4","last_reported":1747393710,"current_range_meters":1600,"station_id":"ce4bgop2rcd13ifvqc1g","pricing_plan_id":"cebpf4jnsgd1na2vs0mg"},{"bike_id":"b27395b1-c28c-4cfd-90fc-f0cb5343ac9b","system_id":"levelo_inurba_marseille","lat":43.30925,"lon":5.40138,"is_reserved":false,"is_disabled":false,"rental_uris":{"android":"levelo://app?vid=b27395b1-c28c-4cfd-90fc-f0cb5343ac9b","ios":"levelo://app?vid=b27395b1-c28c-4cfd-90fc-f0cb5343ac9b"},"vehicle_type_id":"4","last_reported":1747393710,"current_range_meters":1600,"station_id":"ce4bgvp2rcd13ifvqct0","pricing_plan_id":"cebpf4jnsgd1na2vs0mg"},{"bike_id":"ae1a0632-049e-412d-9add-f2511f40ab5f","system_id":"levelo_inurba_marseille","lat":43.2781,"lon":5.40705,"is_reserved":false,"is_disabled":true,"rental_uris":{"android":"levelo://app?vid=ae1a0632-049e-412d-9add-f2511f40ab5f","ios":"levelo://app?vid=ae1a0632-049e-412d-9add-f2511f40ab5f"},"vehicle_type_id":"4","last_reported":1747393710,"current_range_meters":1600,"station_id":"ce4bhnh2rcd13ifvqgtg","pricing_plan_id":"cebpf4jnsgd1na2vs0mg"},{"bike_id":"9afecdff-20ff-4077-938a-e9b79872f714","system_id":"levelo_inurba_marseille","lat":43.231538,"lon":5.43707,"is_reserved":false,"is_disabled":false,"rental_uris":{"android":"levelo://app?vid=9afecdff-20ff-4077-938a-e9b79872f714","ios":"levelo://app?vid=9afecdff-20ff-4077-938a-e9b79872f714"},"vehicle_type_id":"4","last_reported":1747393710,"current_range_meters":2800,"station_id":"ce4bhmp2rcd13ifvqgog","pricing_plan_id":"cebpf4jnsgd1na2vs0mg"},{"bike_id":"c0685336-0154-45d7-9102-cedd8b402c17","system_id":"levelo_inurba_marseille","lat":43.31328,"lon":5.39689,"is_reserved":false,"is_disabled":false,"rental_uris":{"android":"levelo://app?vid=c0685336-0154-45d7-9102-cedd8b402c17","ios":"levelo://app?vid=c0685336-0154-45d7-9102-cedd8b402c17"},"vehicle_type_id":"4","last_reported":1747393710,"current_range_meters":3200,"station_id":"ce4bgvp2rcd13ifvqcu0","pricing_plan_id":"cebpf4jnsgd1na2vs0mg"},{"bike_id":"3202688a-cac3-453f-aa03-2d659b479484","system_id":"levelo_inurba_marseille","lat":43.30884,"lon":5.39653,"is_reserved":false,"is_disabled":false,"rental_uris":{"android":"levelo://app?vid=3202688a-cac3-453f-aa03-2d659b479484","ios":"levelo://app?vid=3202688a-cac3-453f-aa03-2d659b479484"},"vehicle_type_id":"4","last_reported":1747393710,"current_range_meters":3600,"station_id":"ce4bh012rcd13ifvqcv0","pricing_plan_id":"cebpf4jnsgd1na2vs0mg"},{"bike_id":"88d48796-b099-44b2-a0c3-dbb9147327eb","system_id":"levelo_inurba_marseille","lat":43.30268,"lon":5.377019,"is_reserved":false,"is_disabled":false,"rental_uris":{"android":"levelo://app?vid=88d48796-b099-44b2-a0c3-dbb9147327eb","ios":"levelo://app?vid=88d48796-b099-44b2-a0c3-dbb9147327eb"},"vehicle_type_id":"4","last_reported":1747393710,"current_range_meters":4000,"station_id":"ce4bguh2rcd13ifvqcj0","pricing_plan_id":"cebpf4jnsgd1na2vs0mg"},{"bike_id":"2b825be8-5498-49b3-901b-e8cb824032f0","system_id":"levelo_inurba_marseille","lat":43.27804,"lon":5.40711,"is_reserved":false,"is_disabled":false,"rental_uris":{"android":"levelo://app?vid=2b825be8-5498-49b3-901b-e8cb824032f0","ios":"levelo://app?vid=2b825be8-5498-49b3-901b-e8cb824032f0"},"vehicle_type_id":"4","last_reported":1747393710,"current_range_meters":4000,"station_id":"ce4bhnh2rcd13ifvqgtg","pricing_plan_id":"cebpf4jnsgd1na2vs0mg"},{"bike_id":"18e2ab6e-8fae-4f1f-b9c7-a4adc527cf67","system_id":"levelo_inurba_marseille","lat":43.33026,"lon":5.3801,"is_reserved":false,"is_disabled":false,"rental_uris":{"android":"levelo://app?vid=18e2ab6e-8fae-4f1f-b9c7-a4adc527cf67","ios":"levelo://app?vid=18e2ab6e-8fae-4f1f-b9c7-a4adc527cf67"},"vehicle_type_id":"4","last_reported":1747393710,"current_range_meters":4400,"station_id":"","pricing_plan_id":"cebpf4jnsgd1na2vs0mg"},{"bike_id":"9c986a4d-4bdf-4d4d-a87f-0385cc7853ad","system_id":"levelo_inurba_marseille","lat":43.28678,"lon":5.38656,"is_reserved":false,"is_disabled":false,"rental_uris":{"android":"levelo://app?vid=9c986a4d-4bdf-4d4d-a87f-0385cc7853ad","ios":"levelo://app?vid=9c986a4d-4bdf-4d4d-a87f-0385cc7853ad"},"vehicle_type_id":"4","last_reported":1747393710,"current_range_meters":4400,"station_id":"ce4bh492rcd13ifvqdug","pricing_plan_id":"cebpf4jnsgd1na2vs0mg"},{"bike_id":"f752227c-3df6-44d5-abd3-4a633d5341e0","system_id":"levelo_inurba_marseille","lat":43.22934,"lon":5.35369,"is_reserved":false,"is_disabled":false,"rental_uris":{"android":"levelo://app?vid=f752227c-3df6-44d5-abd3-4a633d5341e0","ios":"levelo://app?vid=f752227c-3df6-44d5-abd3-4a633d5341e0"},"vehicle_type_id":"4","last_reported":1747393710,"current_range_meters":4400,"station_id":"cpo3532slgdg3j2ikp40","pricing_plan_id":"cebpf4jnsgd1na2vs0mg"},{"bike_id":"0ef21186-6006-47a1-bf5d-e23947054c39","system_id":"levelo_inurba_marseille","lat":43.30262,"lon":5.37707,"is_reserved":false,"is_disabled":false,"rental_uris":{"android":"levelo://app?vid=0ef21186-6006-47a1-bf5d-e23947054c39","ios":"levelo://app?vid=0ef21186-6006-47a1-bf5d-e23947054c39"},"vehicle_type_id":"4","last_reported":1747393710,"current_range_meters":4800,"station_id":"ce4bguh2rcd13ifvqcj0","pricing_plan_id":"cebpf4jnsgd1na2vs0mg"},{"bike_id":"0f0d5e66-0999-40f8-bbc1-a82fb3ff7af2","system_id":"levelo_inurba_marseille","lat":43.26564,"lon":5.39005,"is_reserved":false,"is_disabled":false,"rental_uris":{"android":"levelo://app?vid=0f0d5e66-0999-40f8-bbc1-a82fb3ff7af2","ios":"levelo://app?vid=0f0d5e66-0999-40f8-bbc1-a82fb3ff7af2"},"vehicle_type_id":"4","last_reported":1747393710,"current_range_meters":4800,"station_id":"ce4bhe12rcd13ifvqf30","pricing_plan_id":"cebpf4jnsgd1na2vs0mg"},{"bike_id":"31ff4992-c3c3-45b5-973b-90c14b5fb78b","system_id":"levelo_inurba_marseille","lat":43.2929,"lon":5.37461,"is_reserved":false,"is_disabled":false,"rental_uris":{"android":"levelo://app?vid=31ff4992-c3c3-45b5-973b-90c14b5fb78b","ios":"levelo://app?vid=31ff4992-c3c3-45b5-973b-90c14b5fb78b"},"vehicle_type_id":"4","last_reported":1747393710,"current_range_meters":5600,"station_id":"ce4bgi12rcd13ifvqb70","pricing_plan_id":"cebpf4jnsgd1na2vs0mg"},{"bike_id":"f392b245-9540-4c0b-96b0-b03730266567","system_id":"levelo_inurba_marseille","lat":43.3235,"lon":5.40612,"is_reserved":false,"is_disabled":false,"rental_uris":{"android":"levelo://app?vid=f392b245-9540-4c0b-96b0-b03730266567","ios":"levelo://app?vid=f392b245-9540-4c0b-96b0-b03730266567"},"vehicle_type_id":"4","last_reported":1747393710,"current_range_meters":5600,"station_id":"ce4bhq92rcd13ifvqhjg","pricing_plan_id":"cebpf4jnsgd1na2vs0mg"},{"bike_id":"2c388c2c-6a65-426c-ae45-0a421b641fa1","system_id":"levelo_inurba_marseille","lat":43.30935,"lon":5.36827,"is_reserved":false,"is_disabled":false,"rental_uris":{"android":"levelo://app?vid=2c388c2c-6a65-426c-ae45-0a421b641fa1","ios":"levelo://app?vid=2c388c2c-6a65-426c-ae45-0a421b641fa1"},"vehicle_type_id":"4","last_reported":1747393710,"current_range_meters":6400,"station_id":"ce4bgn92rcd13ifvqbvg","pricing_plan_id":"cebpf4jnsgd1na2vs0mg"},{"bike_id":"871cb93d-68e6-42d2-aa4e-fa0eaf5aaa0f","system_id":"levelo_inurba_marseille","lat":43.29976,"lon":5.37178,"is_reserved":false,"is_disabled":false,"rental_uris":{"android":"levelo://app?vid=871cb93d-68e6-42d2-aa4e-fa0eaf5aaa0f","ios":"levelo://app?vid=871cb93d-68e6-42d2-aa4e-fa0eaf5aaa0f"},"vehicle_type_id":"4","last_reported":1747393710,"current_range_meters":6400,"station_id":"ce4bgr92rcd13ifvqc7g","pricing_plan_id":"cebpf4jnsgd1na2vs0mg"},{"bike_id":"4f4a5012-10f6-4153-b542-03bb517766f9","system_id":"levelo_inurba_marseille","lat":43.3095,"lon":5.39044,"is_reserved":false,"is_disabled":false,"rental_uris":{"android":"levelo://app?vid=4f4a5012-10f6-4153-b542-03bb517766f9","ios":"levelo://app?vid=4f4a5012-10f6-4153-b542-03bb517766f9"},"vehicle_type_id":"4","last_reported":1747393710,"current_range_meters":6400,"station_id":"ce4bgup2rcd13ifvqco0","pricing_plan_id":"cebpf4jnsgd1na2vs0mg"},{"bike_id":"010cb0c7-930b-4f81-afb3-f1c5854eabc8","system_id":"levelo_inurba_marseille","lat":43.28863,"lon":5.35848,"is_reserved":false,"is_disabled":false,"rental_uris":{"android":"levelo://app?vid=010cb0c7-930b-4f81-afb3-f1c5854eabc8","ios":"levelo://app?vid=010cb0c7-930b-4f81-afb3-f1c5854eabc8"},"vehicle_type_id":"4","last_reported":1747393710,"current_range_meters":6400,"station_id":"ce4bhb12rcd13ifvqem0","pricing_plan_id":"cebpf4jnsgd1na2vs0mg"},{"bike_id":"67363afd-fdab-42c2-a3ff-ff2a26d298f2","system_id":"levelo_inurba_marseille","lat":43.27917,"lon":5.39581,"is_reserved":false,"is_disabled":false,"rental_uris":{"android":"levelo://app?vid=67363afd-fdab-42c2-a3ff-ff2a26d298f2","ios":"levelo://app?vid=67363afd-fdab-42c2-a3ff-ff2a26d298f2"},"vehicle_type_id":"4","last_reported":1747393710,"current_range_meters":6400,"station_id":"ce4bhf92rcd13ifvqf40","pricing_plan_id":"cebpf4jnsgd1na2vs0mg"},{"bike_id":"004e550f-eeb4-47fd-965a-a69664e7713a","system_id":"levelo_inurba_marseille","lat":43.27941,"lon":5.41043,"is_reserved":false,"is_disabled":false,"rental_uris":{"android":"levelo://app?vid=004e550f-eeb4-47fd-965a-a69664e7713a","ios":"levelo://app?vid=004e550f-eeb4-47fd-965a-a69664e7713a"},"vehicle_type_id":"4","last_reported":1747393710,"current_range_meters":6400,"station_id":"ce4bhnp2rcd13ifvqh0g","pricing_plan_id":"cebpf4jnsgd1na2vs0mg"},{"bike_id":"561549a2-798d-4052-830a-279630f71645","system_id":"levelo_inurba_marseille","lat":43.28441,"lon":5.35552,"is_reserved":false,"is_disabled":false,"rental_uris":{"android":"levelo://app?vid=561549a2-798d-4052-830a-279630f71645","ios":"levelo://app?vid=561549a2-798d-4052-830a-279630f71645"},"vehicle_type_id":"4","last_reported":1747393710,"current_range_meters":6800,"station_id":"","pricing_plan_id":"cebpf4jnsgd1na2vs0mg"},{"bike_id":"f35830c8-4baf-43ed-9014-2d53220c710c","system_id":"levelo_inurba_marseille","lat":43.3079,"lon":5.37644,"is_reserved":false,"is_disabled":false,"rental_uris":{"android":"levelo://app?vid=f35830c8-4baf-43ed-9014-2d53220c710c","ios":"levelo://app?vid=f35830c8-4baf-43ed-9014-2d53220c710c"},"vehicle_type_id":"4","last_reported":1747393710,"current_range_meters":6800,"station_id":"ce4bgv92rcd13ifvqcq0","pricing_plan_id":"cebpf4jnsgd1na2vs0mg"},{"bike_id":"8f086fba-c793-4b2a-a4df-9561e2dce5ce","system_id":"levelo_inurba_marseille","lat":43.30541,"lon":5.36554,"is_reserved":false,"is_disabled":false,"rental_uris":{"android":"levelo://app?vid=8f086fba-c793-4b2a-a4df-9561e2dce5ce","ios":"levelo://app?vid=8f086fba-c793-4b2a-a4df-9561e2dce5ce"},"vehicle_type_id":"4","last_reported":1747393710,"current_range_meters":7200,"station_id":"ce4bgs12rcd13ifvqcag","pricing_plan_id":"cebpf4jnsgd1na2vs0mg"},{"bike_id":"1e68c884-7599-4b1d-9ee3-43521a53a137","system_id":"levelo_inurba_marseille","lat":43.27498,"lon":5.42447,"is_reserved":false,"is_disabled":false,"rental_uris":{"android":"levelo://app?vid=1e68c884-7599-4b1d-9ee3-43521a53a137","ios":"levelo://app?vid=1e68c884-7599-4b1d-9ee3-43521a53a137"},"vehicle_type_id":"4","last_reported":1747393710,"current_range_meters":7200,"station_id":"ce4bhn92rcd13ifvqgrg","pricing_plan_id":"cebpf4jnsgd1na2vs0mg"},{"bike_id":"614a6166-1760-4980-853c-86035facd777","system_id":"levelo_inurba_marseille","lat":43.33198,"lon":5.37988,"is_reserved":false,"is_disabled":false,"rental_uris":{"android":"levelo://app?vid=614a6166-1760-4980-853c-86035facd777","ios":"levelo://app?vid=614a6166-1760-4980-853c-86035facd777"},"vehicle_type_id":"4","last_reported":1747393710,"current_range_meters":8000,"station_id":"","pricing_plan_id":"cebpf4jnsgd1na2vs0mg"},{"bike_id":"4e716133-12bd-48ef-8462-cdade112f10c","system_id":"levelo_inurba_marseille","lat":43.27127,"lon":5.39993,"is_reserved":false,"is_disabled":false,"rental_uris":{"android":"levelo://app?vid=4e716133-12bd-48ef-8462-cdade112f10c","ios":"levelo://app?vid=4e716133-12bd-48ef-8462-cdade112f10c"},"vehicle_type_id":"4","last_reported":1747393710,"current_range_meters":8000,"station_id":"","pricing_plan_id":"cebpf4jnsgd1na2vs0mg"},{"bike_id":"66f7c9e7-57f3-4b5a-934e-baf9a34e5e1f","system_id":"levelo_inurba_marseille","lat":43.298445,"lon":5.362674,"is_reserved":false,"is_disabled":false,"rental_uris":{"android":"levelo://app?vid=66f7c9e7-57f3-4b5a-934e-baf9a34e5e1f","ios":"levelo://app?vid=66f7c9e7-57f3-4b5a-934e-baf9a34e5e1f"},"vehicle_type_id":"4","last_reported":1747393710,"current_range_meters":8000,"station_id":"ce4bgpp2rcd13ifvqc3g","pricing_plan_id":"cebpf4jnsgd1na2vs0mg"},{"bike_id":"cd987e1b-f6f2-42c2-90aa-20092f163e39","system_id":"levelo_inurba_marseille","lat":43.306,"lon":5.39364,"is_reserved":false,"is_disabled":false,"rental_uris":{"android":"levelo://app?vid=cd987e1b-f6f2-42c2-90aa-20092f163e39","ios":"levelo://app?vid=cd987e1b-f6f2-42c2-90aa-20092f163e39"},"vehicle_type_id":"4","last_reported":1747393710,"current_range_meters":8000,"station_id":"ce4bh0p2rcd13ifvqd80","pricing_plan_id":"cebpf4jnsgd1na2vs0mg"},{"bike_id":"a6dc4042-f555-4dfa-a8e6-fa50622c5dbb","system_id":"levelo_inurba_marseille","lat":43.28926,"lon":5.38404,"is_reserved":false,"is_disabled":false,"rental_uris":{"android":"levelo://app?vid=a6dc4042-f555-4dfa-a8e6-fa50622c5dbb","ios":"levelo://app?vid=a6dc4042-f555-4dfa-a8e6-fa50622c5dbb"},"vehicle_type_id":"4","last_reported":1747393710,"current_range_meters":8000,"station_id":"ce4bh612rcd13ifvqe6g","pricing_plan_id":"cebpf4jnsgd1na2vs0mg"},{"bike_id":"117678ba-fb9f-4db9-9da3-74d9c4535e10","system_id":"levelo_inurba_marseille","lat":43.25822,"lon":5.39438,"is_reserved":false,"is_disabled":false,"rental_uris":{"android":"levelo://app?vid=117678ba-fb9f-4db9-9da3-74d9c4535e10","ios":"levelo://app?vid=117678ba-fb9f-4db9-9da3-74d9c4535e10"},"vehicle_type_id":"4","last_reported":1747393710,"current_range_meters":8000,"station_id":"ce4bhip2rcd13ifvqft0","pricing_plan_id":"cebpf4jnsgd1na2vs0mg"},{"bike_id":"657c13e7-a4ff-495e-9676-26b5e69b4367","system_id":"levelo_inurba_marseille","lat":43.23193,"lon":5.35557,"is_reserved":false,"is_disabled":false,"rental_uris":{"android":"levelo://app?vid=657c13e7-a4ff-495e-9676-26b5e69b4367","ios":"levelo://app?vid=657c13e7-a4ff-495e-9676-26b5e69b4367"},"vehicle_type_id":"4","last_reported":1747393710,"current_range_meters":8000,"station_id":"ce4bhu92rcd13ifvqi70","pricing_plan_id":"cebpf4jnsgd1na2vs0mg"},{"bike_id":"f768f02c-a770-46ed-b9fb-ed1e435a3c0f","system_id":"levelo_inurba_marseille","lat":43.32934,"lon":5.39002,"is_reserved":false,"is_disabled":false,"rental_uris":{"android":"levelo://app?vid=f768f02c-a770-46ed-b9fb-ed1e435a3c0f","ios":"levelo://app?vid=f768f02c-a770-46ed-b9fb-ed1e435a3c0f"},"vehicle_type_id":"4","last_reported":1747393710,"current_range_meters":8400,"station_id":"","pricing_plan_id":"cebpf4jnsgd1na2vs0mg"},{"bike_id":"0077f398-56b6-43bb-8eeb-9798d08de05c","system_id":"levelo_inurba_marseille","lat":43.309647,"lon":5.372823,"is_reserved":false,"is_disabled":false,"rental_uris":{"android":"levelo://app?vid=0077f398-56b6-43bb-8eeb-9798d08de05c","ios":"levelo://app?vid=0077f398-56b6-43bb-8eeb-9798d08de05c"},"vehicle_type_id":"4","last_reported":1747393710,"current_range_meters":8400,"station_id":"","pricing_plan_id":"cebpf4jnsgd1na2vs0mg"},{"bike_id":"e7e4f09b-381f-4d77-b545-55877b3c95c0","system_id":"levelo_inurba_marseille","lat":43.3014,"lon":5.37416,"is_reserved":false,"is_disabled":false,"rental_uris":{"android":"levelo://app?vid=e7e4f09b-381f-4d77-b545-55877b3c95c0","ios":"levelo://app?vid=e7e4f09b-381f-4d77-b545-55877b3c95c0"},"vehicle_type_id":"4","last_reported":1747393710,"current_range_meters":8400,"station_id":"ce4bgs92rcd13ifvqcc0","pricing_plan_id":"cebpf4jnsgd1na2vs0mg"},{"bike_id":"01ec7537-a55d-4244-b014-b53b894f6e77","system_id":"levelo_inurba_marseille","lat":43.30253,"lon":5.40065,"is_reserved":false,"is_disabled":false,"rental_uris":{"android":"levelo://app?vid=01ec7537-a55d-4244-b014-b53b894f6e77","ios":"levelo://app?vid=01ec7537-a55d-4244-b014-b53b894f6e77"},"vehicle_type_id":"4","last_reported":1747393710,"current_range_meters":8400,"station_id":"ce4bgvh2rcd13ifvqcs0","pricing_plan_id":"cebpf4jnsgd1na2vs0mg"},{"bike_id":"74657633-d420-469f-891f-cd0a6f3f8ade","system_id":"levelo_inurba_marseille","lat":43.27486,"lon":5.4246,"is_reserved":false,"is_disabled":false,"rental_uris":{"android":"levelo://app?vid=74657633-d420-469f-891f-cd0a6f3f8ade","ios":"levelo://app?vid=74657633-d420-469f-891f-cd0a6f3f8ade"},"vehicle_type_id":"4","last_reported":1747393710,"current_range_meters":8800,"station_id":"ce4bhn92rcd13ifvqgrg","pricing_plan_id":"cebpf4jnsgd1na2vs0mg"},{"bike_id":"eeb0e6bc-1be6-4966-aae4-7f8c21bc3d5f","system_id":"levelo_inurba_marseille","lat":43.336145,"lon":5.41018,"is_reserved":false,"is_disabled":false,"rental_uris":{"android":"levelo://app?vid=eeb0e6bc-1be6-4966-aae4-7f8c21bc3d5f","ios":"levelo://app?vid=eeb0e6bc-1be6-4966-aae4-7f8c21bc3d5f"},"vehicle_type_id":"4","last_reported":1747393710,"current_range_meters":8800,"station_id":"ce4bhqh2rcd13ifvqhmg","pricing_plan_id":"cebpf4jnsgd1na2vs0mg"},{"bike_id":"f8708533-c882-424d-919c-8da02599e742","system_id":"levelo_inurba_marseille","lat":43.32369,"lon":5.38875,"is_reserved":false,"is_disabled":false,"rental_uris":{"android":"levelo://app?vid=f8708533-c882-424d-919c-8da02599e742","ios":"levelo://app?vid=f8708533-c882-424d-919c-8da02599e742"},"vehicle_type_id":"4","last_reported":1747393710,"current_range_meters":8800,"station_id":"ce4bhqp2rcd13ifvqhog","pricing_plan_id":"cebpf4jnsgd1na2vs0mg"},{"bike_id":"1b7221c0-8ac2-4a43-8cec-a3d475250f85","system_id":"levelo_inurba_marseille","lat":43.29912,"lon":5.37472,"is_reserved":false,"is_disabled":false,"rental_uris":{"android":"levelo://app?vid=1b7221c0-8ac2-4a43-8cec-a3d475250f85","ios":"levelo://app?vid=1b7221c0-8ac2-4a43-8cec-a3d475250f85"},"vehicle_type_id":"4","last_reported":1747393710,"current_range_meters":9200,"station_id":"ce4bgjh2rcd13ifvqbg0","pricing_plan_id":"cebpf4jnsgd1na2vs0mg"},{"bike_id":"db0ac46a-a615-4dfd-80ba-60eb0db40216","system_id":"levelo_inurba_marseille","lat":43.30429,"lon":5.38877,"is_reserved":false,"is_disabled":false,"rental_uris":{"android":"levelo://app?vid=db0ac46a-a615-4dfd-80ba-60eb0db40216","ios":"levelo://app?vid=db0ac46a-a615-4dfd-80ba-60eb0db40216"},"vehicle_type_id":"4","last_reported":1747393710,"current_range_meters":9200,"station_id":"ce4bgk12rcd13ifvqbi0","pricing_plan_id":"cebpf4jnsgd1na2vs0mg"},{"bike_id":"829287b2-ef7e-422c-b38b-7c6e84676d19","system_id":"levelo_inurba_marseille","lat":43.25016,"lon":5.38923,"is_reserved":false,"is_disabled":false,"rental_uris":{"android":"levelo://app?vid=829287b2-ef7e-422c-b38b-7c6e84676d19","ios":"levelo://app?vid=829287b2-ef7e-422c-b38b-7c6e84676d19"},"vehicle_type_id":"4","last_reported":1747393710,"current_range_meters":9200,"station_id":"ce4bhgp2rcd13ifvqfd0","pricing_plan_id":"cebpf4jnsgd1na2vs0mg"},{"bike_id":"64175607-20ed-4a7d-8f13-bce1f5774b1d","system_id":"levelo_inurba_marseille","lat":43.24389,"lon":5.37053,"is_reserved":false,"is_disabled":false,"rental_uris":{"android":"levelo://app?vid=64175607-20ed-4a7d-8f13-bce1f5774b1d","ios":"levelo://app?vid=64175607-20ed-4a7d-8f13-bce1f5774b1d"},"vehicle_type_id":"4","last_reported":1747393710,"current_range_meters":9200,"station_id":"ce4bhhh2rcd13ifvqfk0","pricing_plan_id":"cebpf4jnsgd1na2vs0mg"},{"bike_id":"68bdee92-c99d-4148-b74f-6df992df267b","system_id":"levelo_inurba_marseille","lat":43.26929,"lon":5.389182,"is_reserved":false,"is_disabled":false,"rental_uris":{"android":"levelo://app?vid=68bdee92-c99d-4148-b74f-6df992df267b","ios":"levelo://app?vid=68bdee92-c99d-4148-b74f-6df992df267b"},"vehicle_type_id":"4","last_reported":1747393710,"current_range_meters":9200,"station_id":"ce4bhhh2rcd13ifvqfl0","pricing_plan_id":"cebpf4jnsgd1na2vs0mg"},{"bike_id":"c69da8e9-21de-44c2-a5ab-5d5769d72033","system_id":"levelo_inurba_marseille","lat":43.3266,"lon":5.40989,"is_reserved":false,"is_disabled":false,"rental_uris":{"android":"levelo://app?vid=c69da8e9-21de-44c2-a5ab-5d5769d72033","ios":"levelo://app?vid=c69da8e9-21de-44c2-a5ab-5d5769d72033"},"vehicle_type_id":"4","last_reported":1747393710,"current_range_meters":9200,"station_id":"ce4bhpp2rcd13ifvqhgg","pricing_plan_id":"cebpf4jnsgd1na2vs0mg"},{"bike_id":"e64e4484-2db6-41f4-beb8-e0c0ae1263cd","system_id":"levelo_inurba_marseille","lat":43.285179,"lon":5.430349,"is_reserved":false,"is_disabled":false,"rental_uris":{"android":"levelo://app?vid=e64e4484-2db6-41f4-beb8-e0c0ae1263cd","ios":"levelo://app?vid=e64e4484-2db6-41f4-beb8-e0c0ae1263cd"},"vehicle_type_id":"4","last_reported":1747393710,"current_range_meters":9600,"station_id":"","pricing_plan_id":"cebpf4jnsgd1na2vs0mg"},{"bike_id":"f8e4732a-2ecf-431c-8f66-abc7aabb8aa1","system_id":"levelo_inurba_marseille","lat":43.32926,"lon":5.38982,"is_reserved":false,"is_disabled":false,"rental_uris":{"android":"levelo://app?vid=f8e4732a-2ecf-431c-8f66-abc7aabb8aa1","ios":"levelo://app?vid=f8e4732a-2ecf-431c-8f66-abc7aabb8aa1"},"vehicle_type_id":"4","last_reported":1747393710,"current_range_meters":9600,"station_id":"","pricing_plan_id":"cebpf4jnsgd1na2vs0mg"},{"bike_id":"ad618399-f233-4a0f-86b1-5fae22a74733","system_id":"levelo_inurba_marseille","lat":43.3059,"lon":5.39353,"is_reserved":false,"is_disabled":false,"rental_uris":{"android":"levelo://app?vid=ad618399-f233-4a0f-86b1-5fae22a74733","ios":"levelo://app?vid=ad618399-f233-4a0f-86b1-5fae22a74733"},"vehicle_type_id":"4","last_reported":1747393710,"current_range_meters":9600,"station_id":"ce4bh0p2rcd13ifvqd80","pricing_plan_id":"cebpf4jnsgd1na2vs0mg"},{"bike_id":"1abb1041-988f-43f7-b50d-bdd7a65368a8","system_id":"levelo_inurba_marseille","lat":43.29037,"lon":5.39962,"is_reserved":false,"is_disabled":false,"rental_uris":{"android":"levelo://app?vid=1abb1041-988f-43f7-b50d-bdd7a65368a8","ios":"levelo://app?vid=1abb1041-988f-43f7-b50d-bdd7a65368a8"},"vehicle_type_id":"4","last_reported":1747393710,"current_range_meters":9600,"station_id":"ce4bh392rcd13ifvqdm0","pricing_plan_id":"cebpf4jnsgd1na2vs0mg"},{"bike_id":"8a304a8d-2796-4d7e-ac06-1d045310098e","system_id":"levelo_inurba_marseille","lat":43.28852,"lon":5.35847,"is_reserved":false,"is_disabled":false,"rental_uris":{"android":"levelo://app?vid=8a304a8d-2796-4d7e-ac06-1d045310098e","ios":"levelo://app?vid=8a304a8d-2796-4d7e-ac06-1d045310098e"},"vehicle_type_id":"4","last_reported":1747393710,"current_range_meters":9600,"station_id":"ce4bhb12rcd13ifvqem0","pricing_plan_id":"cebpf4jnsgd1na2vs0mg"},{"bike_id":"d1243ce5-bf7a-4a43-b572-741ae11b75f9","system_id":"levelo_inurba_marseille","lat":43.27326,"lon":5.39081,"is_reserved":false,"is_disabled":false,"rental_uris":{"android":"levelo://app?vid=d1243ce5-bf7a-4a43-b572-741ae11b75f9","ios":"levelo://app?vid=d1243ce5-bf7a-4a43-b572-741ae11b75f9"},"vehicle_type_id":"4","last_reported":1747393710,"current_range_meters":9600,"station_id":"ce4bhgp2rcd13ifvqfe0","pricing_plan_id":"cebpf4jnsgd1na2vs0mg"},{"bike_id":"1021f655-0f68-449d-8c72-bfa2993a3e6f","system_id":"levelo_inurba_marseille","lat":43.33719,"lon":5.39196,"is_reserved":false,"is_disabled":false,"rental_uris":{"android":"levelo://app?vid=1021f655-0f68-449d-8c72-bfa2993a3e6f","ios":"levelo://app?vid=1021f655-0f68-449d-8c72-bfa2993a3e6f"},"vehicle_type_id":"4","last_reported":1747393710,"current_range_meters":9600,"station_id":"ce4bhr92rcd13ifvqhsg","pricing_plan_id":"cebpf4jnsgd1na2vs0mg"},{"bike_id":"6f08251b-0b38-461f-b469-2bcbcf5fd96e","system_id":"levelo_inurba_marseille","lat":43.29929,"lon":5.36521,"is_reserved":false,"is_disabled":false,"rental_uris":{"android":"levelo://app?vid=6f08251b-0b38-461f-b469-2bcbcf5fd96e","ios":"levelo://app?vid=6f08251b-0b38-461f-b469-2bcbcf5fd96e"},"vehicle_type_id":"4","last_reported":1747393710,"current_range_meters":10000,"station_id":"ce4bgm92rcd13ifvqbr0","pricing_plan_id":"cebpf4jnsgd1na2vs0mg"},{"bike_id":"5bffe897-5788-4a24-a958-fb6cfb9b04f9","system_id":"levelo_inurba_marseille","lat":43.29871,"lon":5.39739,"is_reserved":false,"is_disabled":false,"rental_uris":{"android":"levelo://app?vid=5bffe897-5788-4a24-a958-fb6cfb9b04f9","ios":"levelo://app?vid=5bffe897-5788-4a24-a958-fb6cfb9b04f9"},"vehicle_type_id":"4","last_reported":1747393710,"current_range_meters":10000,"station_id":"ce4bh0h2rcd13ifvqd50","pricing_plan_id":"cebpf4jnsgd1na2vs0mg"},{"bike_id":"2c6ec7e7-ded9-4916-9df6-3deb51ccaee8","system_id":"levelo_inurba_marseille","lat":43.23964,"lon":5.3663,"is_reserved":false,"is_disabled":false,"rental_uris":{"android":"levelo://app?vid=2c6ec7e7-ded9-4916-9df6-3deb51ccaee8","ios":"levelo://app?vid=2c6ec7e7-ded9-4916-9df6-3deb51ccaee8"},"vehicle_type_id":"4","last_reported":1747393710,"current_range_meters":10000,"station_id":"ce4bhi12rcd13ifvqfp0","pricing_plan_id":"cebpf4jnsgd1na2vs0mg"},{"bike_id":"5879f203-1394-47e0-9f75-7c405ac331f5","system_id":"levelo_inurba_marseille","lat":43.32352,"lon":5.38925,"is_reserved":false,"is_disabled":false,"rental_uris":{"android":"levelo://app?vid=5879f203-1394-47e0-9f75-7c405ac331f5","ios":"levelo://app?vid=5879f203-1394-47e0-9f75-7c405ac331f5"},"vehicle_type_id":"4","last_reported":1747393710,"current_range_meters":10000,"station_id":"ce4bhqp2rcd13ifvqhog","pricing_plan_id":"cebpf4jnsgd1na2vs0mg"},{"bike_id":"47de2c81-3052-40c2-b48f-0ab2d2605f6b","system_id":"levelo_inurba_marseille","lat":43.2962,"lon":5.37718,"is_reserved":false,"is_disabled":false,"rental_uris":{"android":"levelo://app?vid=47de2c81-3052-40c2-b48f-0ab2d2605f6b","ios":"levelo://app?vid=47de2c81-3052-40c2-b48f-0ab2d2605f6b"},"vehicle_type_id":"4","last_reported":1747393710,"current_range_meters":11200,"station_id":"ce4bgi92rcd13ifvqb90","pricing_plan_id":"cebpf4jnsgd1na2vs0mg"},{"bike_id":"c0146816-ac11-4a58-8178-76d4b8e5c9ec","system_id":"levelo_inurba_marseille","lat":43.305443,"lon":5.36526,"is_reserved":false,"is_disabled":false,"rental_uris":{"android":"levelo://app?vid=c0146816-ac11-4a58-8178-76d4b8e5c9ec","ios":"levelo://app?vid=c0146816-ac11-4a58-8178-76d4b8e5c9ec"},"vehicle_type_id":"4","last_reported":1747393710,"current_range_meters":11200,"station_id":"ce4bgs12rcd13ifvqcag","pricing_plan_id":"cebpf4jnsgd1na2vs0mg"},{"bike_id":"a9fd03be-b001-4895-940f-f0f268a5a4b5","system_id":"levelo_inurba_marseille","lat":43.30937,"lon":5.40138,"is_reserved":false,"is_disabled":false,"rental_uris":{"android":"levelo://app?vid=a9fd03be-b001-4895-940f-f0f268a5a4b5","ios":"levelo://app?vid=a9fd03be-b001-4895-940f-f0f268a5a4b5"},"vehicle_type_id":"4","last_reported":1747393710,"current_range_meters":11200,"station_id":"ce4bgvp2rcd13ifvqct0","pricing_plan_id":"cebpf4jnsgd1na2vs0mg"},{"bike_id":"06a42a39-f29a-4f0a-b85e-0b0d9d00e09b","system_id":"levelo_inurba_marseille","lat":43.31682,"lon":5.40474,"is_reserved":false,"is_disabled":false,"rental_uris":{"android":"levelo://app?vid=06a42a39-f29a-4f0a-b85e-0b0d9d00e09b","ios":"levelo://app?vid=06a42a39-f29a-4f0a-b85e-0b0d9d00e09b"},"vehicle_type_id":"4","last_reported":1747393710,"current_range_meters":11200,"station_id":"ce4bh012rcd13ifvqd00","pricing_plan_id":"cebpf4jnsgd1na2vs0mg"},{"bike_id":"5fd91a11-17b9-4971-8864-e87df1e09bfb","system_id":"levelo_inurba_marseille","lat":43.24074,"lon":5.37759,"is_reserved":false,"is_disabled":false,"rental_uris":{"android":"levelo://app?vid=5fd91a11-17b9-4971-8864-e87df1e09bfb","ios":"levelo://app?vid=5fd91a11-17b9-4971-8864-e87df1e09bfb"},"vehicle_type_id":"4","last_reported":1747393710,"current_range_meters":11200,"station_id":"ce4bhnp2rcd13ifvqgvg","pricing_plan_id":"cebpf4jnsgd1na2vs0mg"},{"bike_id":"39c7c348-baf3-417a-8df3-30f456f5c866","system_id":"levelo_inurba_marseille","lat":43.32113,"lon":5.36754,"is_reserved":false,"is_disabled":false,"rental_uris":{"android":"levelo://app?vid=39c7c348-baf3-417a-8df3-30f456f5c866","ios":"levelo://app?vid=39c7c348-baf3-417a-8df3-30f456f5c866"},"vehicle_type_id":"4","last_reported":1747393710,"current_range_meters":11200,"station_id":"ce4bhrh2rcd13ifvqhug","pricing_plan_id":"cebpf4jnsgd1na2vs0mg"},{"bike_id":"a488853e-8708-42f9-a9f1-40f4dc62e03d","system_id":"levelo_inurba_marseille","lat":43.30561,"lon":5.373,"is_reserved":false,"is_disabled":false,"rental_uris":{"android":"levelo://app?vid=a488853e-8708-42f9-a9f1-40f4dc62e03d","ios":"levelo://app?vid=a488853e-8708-42f9-a9f1-40f4dc62e03d"},"vehicle_type_id":"4","last_reported":1747393710,"current_range_meters":11600,"station_id":"","pricing_plan_id":"cebpf4jnsgd1na2vs0mg"},{"bike_id":"70579b1f-809a-422d-80c6-25068b05e090","system_id":"levelo_inurba_marseille","lat":43.28028,"lon":5.36947,"is_reserved":false,"is_disabled":false,"rental_uris":{"android":"levelo://app?vid=70579b1f-809a-422d-80c6-25068b05e090","ios":"levelo://app?vid=70579b1f-809a-422d-80c6-25068b05e090"},"vehicle_type_id":"4","last_reported":1747393710,"current_range_meters":11600,"station_id":"ce4bha12rcd13ifvqef0","pricing_plan_id":"cebpf4jnsgd1na2vs0mg"},{"bike_id":"bf674dc6-fb2c-4f86-9b2a-cbbe3e0c518f","system_id":"levelo_inurba_marseille","lat":43.25497,"lon":5.3765,"is_reserved":false,"is_disabled":false,"rental_uris":{"android":"levelo://app?vid=bf674dc6-fb2c-4f86-9b2a-cbbe3e0c518f","ios":"levelo://app?vid=bf674dc6-fb2c-4f86-9b2a-cbbe3e0c518f"},"vehicle_type_id":"4","last_reported":1747393710,"current_range_meters":11600,"station_id":"ce4bhh12rcd13ifvqff0","pricing_plan_id":"cebpf4jnsgd1na2vs0mg"},{"bike_id":"11a9676f-af5a-491d-9e5b-9f7ae52235e2","system_id":"levelo_inurba_marseille","lat":43.30596,"lon":5.37209,"is_reserved":false,"is_disabled":false,"rental_uris":{"android":"levelo://app?vid=11a9676f-af5a-491d-9e5b-9f7ae52235e2","ios":"levelo://app?vid=11a9676f-af5a-491d-9e5b-9f7ae52235e2"},"vehicle_type_id":"4","last_reported":1747393710,"current_range_meters":12000,"station_id":"ce4bgqh2rcd13ifvqc4g","pricing_plan_id":"cebpf4jnsgd1na2vs0mg"},{"bike_id":"6d886103-344e-431a-ac80-7f62879d2f7c","system_id":"levelo_inurba_marseille","lat":43.22932,"lon":5.35378,"is_reserved":false,"is_disabled":false,"rental_uris":{"android":"levelo://app?vid=6d886103-344e-431a-ac80-7f62879d2f7c","ios":"levelo://app?vid=6d886103-344e-431a-ac80-7f62879d2f7c"},"vehicle_type_id":"4","last_reported":1747393710,"current_range_meters":12000,"station_id":"cpo3532slgdg3j2ikp40","pricing_plan_id":"cebpf4jnsgd1na2vs0mg"},{"bike_id":"765e0cfb-c888-4327-a53d-5a7e4b9b7d45","system_id":"levelo_inurba_marseille","lat":43.31351,"lon":5.36703,"is_reserved":false,"is_disabled":false,"rental_uris":{"android":"levelo://app?vid=765e0cfb-c888-4327-a53d-5a7e4b9b7d45","ios":"levelo://app?vid=765e0cfb-c888-4327-a53d-5a7e4b9b7d45"},"vehicle_type_id":"4","last_reported":1747393710,"current_range_meters":12400,"station_id":"ce4bgr92rcd13ifvqc6g","pricing_plan_id":"cebpf4jnsgd1na2vs0mg"},{"bike_id":"a5f9a89b-e8a5-49df-ac96-a30dd4bb49ed","system_id":"levelo_inurba_marseille","lat":43.308898,"lon":5.371945,"is_reserved":false,"is_disabled":false,"rental_uris":{"android":"levelo://app?vid=a5f9a89b-e8a5-49df-ac96-a30dd4bb49ed","ios":"levelo://app?vid=a5f9a89b-e8a5-49df-ac96-a30dd4bb49ed"},"vehicle_type_id":"4","last_reported":1747393710,"current_range_meters":12800,"station_id":"ce4bguh2rcd13ifvqckg","pricing_plan_id":"cebpf4jnsgd1na2vs0mg"},{"bike_id":"9c0e8b51-2d17-47ed-9a15-29fdb46f8dc5","system_id":"levelo_inurba_marseille","lat":43.2584,"lon":5.39388,"is_reserved":false,"is_disabled":false,"rental_uris":{"android":"levelo://app?vid=9c0e8b51-2d17-47ed-9a15-29fdb46f8dc5","ios":"levelo://app?vid=9c0e8b51-2d17-47ed-9a15-29fdb46f8dc5"},"vehicle_type_id":"4","last_reported":1747393710,"current_range_meters":12800,"station_id":"ce4bhip2rcd13ifvqft0","pricing_plan_id":"cebpf4jnsgd1na2vs0mg"},{"bike_id":"8cac971f-4531-4d26-8ffa-538d22405728","system_id":"levelo_inurba_marseille","lat":43.25087,"lon":5.39526,"is_reserved":false,"is_disabled":false,"rental_uris":{"android":"levelo://app?vid=8cac971f-4531-4d26-8ffa-538d22405728","ios":"levelo://app?vid=8cac971f-4531-4d26-8ffa-538d22405728"},"vehicle_type_id":"4","last_reported":1747393710,"current_range_meters":12800,"station_id":"ce4bhm12rcd13ifvqgkg","pricing_plan_id":"cebpf4jnsgd1na2vs0mg"},{"bike_id":"312dd0ac-ea33-4a63-8971-482fa0673e1c","system_id":"levelo_inurba_marseille","lat":43.32661,"lon":5.40994,"is_reserved":false,"is_disabled":false,"rental_uris":{"android":"levelo://app?vid=312dd0ac-ea33-4a63-8971-482fa0673e1c","ios":"levelo://app?vid=312dd0ac-ea33-4a63-8971-482fa0673e1c"},"vehicle_type_id":"4","last_reported":1747393710,"current_range_meters":12800,"station_id":"ce4bhpp2rcd13ifvqhgg","pricing_plan_id":"cebpf4jnsgd1na2vs0mg"},{"bike_id":"36d0b2c9-0697-4770-9db1-46cc4560b12f","system_id":"levelo_inurba_marseille","lat":43.32663,"lon":5.40986,"is_reserved":false,"is_disabled":false,"rental_uris":{"android":"levelo://app?vid=36d0b2c9-0697-4770-9db1-46cc4560b12f","ios":"levelo://app?vid=36d0b2c9-0697-4770-9db1-46cc4560b12f"},"vehicle_type_id":"4","last_reported":1747393710,"current_range_meters":12800,"station_id":"ce4bhpp2rcd13ifvqhgg","pricing_plan_id":"cebpf4jnsgd1na2vs0mg"},{"bike_id":"de7fe459-5970-444e-8e2e-be5a9bcca3c5","system_id":"levelo_inurba_marseille","lat":43.32339,"lon":5.40618,"is_reserved":false,"is_disabled":false,"rental_uris":{"android":"levelo://app?vid=de7fe459-5970-444e-8e2e-be5a9bcca3c5","ios":"levelo://app?vid=de7fe459-5970-444e-8e2e-be5a9bcca3c5"},"vehicle_type_id":"4","last_reported":1747393710,"current_range_meters":12800,"station_id":"ce4bhq92rcd13ifvqhjg","pricing_plan_id":"cebpf4jnsgd1na2vs0mg"},{"bike_id":"d1cddb25-ab93-4f2d-921e-2a283a6d084b","system_id":"levelo_inurba_marseille","lat":43.30142,"lon":5.38072,"is_reserved":false,"is_disabled":false,"rental_uris":{"android":"levelo://app?vid=d1cddb25-ab93-4f2d-921e-2a283a6d084b","ios":"levelo://app?vid=d1cddb25-ab93-4f2d-921e-2a283a6d084b"},"vehicle_type_id":"4","last_reported":1747393710,"current_range_meters":13600,"station_id":"ce4bgjp2rcd13ifvqbh0","pricing_plan_id":"cebpf4jnsgd1na2vs0mg"},{"bike_id":"57d45fd7-48c0-4636-890b-be726602f33c","system_id":"levelo_inurba_marseille","lat":43.29786,"lon":5.37089,"is_reserved":false,"is_disabled":false,"rental_uris":{"android":"levelo://app?vid=57d45fd7-48c0-4636-890b-be726602f33c","ios":"levelo://app?vid=57d45fd7-48c0-4636-890b-be726602f33c"},"vehicle_type_id":"4","last_reported":1747393710,"current_range_meters":13600,"station_id":"ce4bgop2rcd13ifvqc1g","pricing_plan_id":"cebpf4jnsgd1na2vs0mg"},{"bike_id":"086497d5-b541-4f2d-a197-7bc0a9fd8183","system_id":"levelo_inurba_marseille","lat":43.30893,"lon":5.37199,"is_reserved":false,"is_disabled":false,"rental_uris":{"android":"levelo://app?vid=086497d5-b541-4f2d-a197-7bc0a9fd8183","ios":"levelo://app?vid=086497d5-b541-4f2d-a197-7bc0a9fd8183"},"vehicle_type_id":"4","last_reported":1747393710,"current_range_meters":13600,"station_id":"ce4bguh2rcd13ifvqckg","pricing_plan_id":"cebpf4jnsgd1na2vs0mg"},{"bike_id":"0c24d09f-ee1b-4d83-af33-562b6b2ca194","system_id":"levelo_inurba_marseille","lat":43.3237,"lon":5.38878,"is_reserved":false,"is_disabled":false,"rental_uris":{"android":"levelo://app?vid=0c24d09f-ee1b-4d83-af33-562b6b2ca194","ios":"levelo://app?vid=0c24d09f-ee1b-4d83-af33-562b6b2ca194"},"vehicle_type_id":"4","last_reported":1747393710,"current_range_meters":13600,"station_id":"ce4bhqp2rcd13ifvqhog","pricing_plan_id":"cebpf4jnsgd1na2vs0mg"},{"bike_id":"a75417bf-c733-4bde-abba-dd7434d01611","system_id":"levelo_inurba_marseille","lat":43.27624,"lon":5.36111,"is_reserved":false,"is_disabled":false,"rental_uris":{"android":"levelo://app?vid=a75417bf-c733-4bde-abba-dd7434d01611","ios":"levelo://app?vid=a75417bf-c733-4bde-abba-dd7434d01611"},"vehicle_type_id":"4","last_reported":1747393710,"current_range_meters":14000,"station_id":"ce4bgj92rcd13ifvqbe0","pricing_plan_id":"cebpf4jnsgd1na2vs0mg"},{"bike_id":"75b19f5e-9cd0-480b-b5c4-2a4932027eed","system_id":"levelo_inurba_marseille","lat":43.31686,"lon":5.40472,"is_reserved":false,"is_disabled":false,"rental_uris":{"android":"levelo://app?vid=75b19f5e-9cd0-480b-b5c4-2a4932027eed","ios":"levelo://app?vid=75b19f5e-9cd0-480b-b5c4-2a4932027eed"},"vehicle_type_id":"4","last_reported":1747393710,"current_range_meters":14000,"station_id":"ce4bh012rcd13ifvqd00","pricing_plan_id":"cebpf4jnsgd1na2vs0mg"},{"bike_id":"ee8325ee-a110-45ce-8d60-a02e6bed048e","system_id":"levelo_inurba_marseille","lat":43.23192,"lon":5.35554,"is_reserved":false,"is_disabled":false,"rental_uris":{"android":"levelo://app?vid=ee8325ee-a110-45ce-8d60-a02e6bed048e","ios":"levelo://app?vid=ee8325ee-a110-45ce-8d60-a02e6bed048e"},"vehicle_type_id":"4","last_reported":1747393710,"current_range_meters":14000,"station_id":"ce4bhu92rcd13ifvqi70","pricing_plan_id":"cebpf4jnsgd1na2vs0mg"},{"bike_id":"4c50a1f4-9b8f-4402-81a6-4b92fac2f424","system_id":"levelo_inurba_marseille","lat":43.32319,"lon":5.36698,"is_reserved":false,"is_disabled":false,"rental_uris":{"android":"levelo://app?vid=4c50a1f4-9b8f-4402-81a6-4b92fac2f424","ios":"levelo://app?vid=4c50a1f4-9b8f-4402-81a6-4b92fac2f424"},"vehicle_type_id":"4","last_reported":1747393710,"current_range_meters":14400,"station_id":"","pricing_plan_id":"cebpf4jnsgd1na2vs0mg"},{"bike_id":"3873b14f-cf85-40c2-a5ee-b159102313b1","system_id":"levelo_inurba_marseille","lat":43.27491,"lon":5.42461,"is_reserved":false,"is_disabled":false,"rental_uris":{"android":"levelo://app?vid=3873b14f-cf85-40c2-a5ee-b159102313b1","ios":"levelo://app?vid=3873b14f-cf85-40c2-a5ee-b159102313b1"},"vehicle_type_id":"4","last_reported":1747393710,"current_range_meters":14400,"station_id":"ce4bhn92rcd13ifvqgrg","pricing_plan_id":"cebpf4jnsgd1na2vs0mg"},{"bike_id":"6a35cb82-28ac-4a70-aa2c-ca599cda9b36","system_id":"levelo_inurba_marseille","lat":43.28153,"lon":5.42645,"is_reserved":false,"is_disabled":false,"rental_uris":{"android":"levelo://app?vid=6a35cb82-28ac-4a70-aa2c-ca599cda9b36","ios":"levelo://app?vid=6a35cb82-28ac-4a70-aa2c-ca599cda9b36"},"vehicle_type_id":"4","last_reported":1747393710,"current_range_meters":14400,"station_id":"ce4bhnh2rcd13ifvqgug","pricing_plan_id":"cebpf4jnsgd1na2vs0mg"},{"bike_id":"88378c0e-4dd9-4f14-b2c9-5746129a3668","system_id":"levelo_inurba_marseille","lat":43.32484,"lon":5.36568,"is_reserved":false,"is_disabled":false,"rental_uris":{"android":"levelo://app?vid=88378c0e-4dd9-4f14-b2c9-5746129a3668","ios":"levelo://app?vid=88378c0e-4dd9-4f14-b2c9-5746129a3668"},"vehicle_type_id":"4","last_reported":1747393710,"current_range_meters":14400,"station_id":"ce4bhs12rcd13ifvqhvg","pricing_plan_id":"cebpf4jnsgd1na2vs0mg"},{"bike_id":"6b492da6-1390-4ad5-a659-d045195f5dbc","system_id":"levelo_inurba_marseille","lat":43.26934,"lon":5.40261,"is_reserved":false,"is_disabled":false,"rental_uris":{"android":"levelo://app?vid=6b492da6-1390-4ad5-a659-d045195f5dbc","ios":"levelo://app?vid=6b492da6-1390-4ad5-a659-d045195f5dbc"},"vehicle_type_id":"4","last_reported":1747393710,"current_range_meters":14400,"station_id":"cjm6bp8fraef2m0cb0m0","pricing_plan_id":"cebpf4jnsgd1na2vs0mg"},{"bike_id":"5241a758-5e7e-4727-9ed1-3ec725e43d59","system_id":"levelo_inurba_marseille","lat":43.21751,"lon":5.34608,"is_reserved":false,"is_disabled":false,"rental_uris":{"android":"levelo://app?vid=5241a758-5e7e-4727-9ed1-3ec725e43d59","ios":"levelo://app?vid=5241a758-5e7e-4727-9ed1-3ec725e43d59"},"vehicle_type_id":"4","last_reported":1747393710,"current_range_meters":14400,"station_id":"st_cvj6r9ubvosntc0bgbag","pricing_plan_id":"cebpf4jnsgd1na2vs0mg"},{"bike_id":"225d88a7-bbb1-45c7-845f-1fd1816815a2","system_id":"levelo_inurba_marseille","lat":43.34681,"lon":5.34553,"is_reserved":false,"is_disabled":false,"rental_uris":{"android":"levelo://app?vid=225d88a7-bbb1-45c7-845f-1fd1816815a2","ios":"levelo://app?vid=225d88a7-bbb1-45c7-845f-1fd1816815a2"},"vehicle_type_id":"4","last_reported":1747393710,"current_range_meters":14800,"station_id":"","pricing_plan_id":"cebpf4jnsgd1na2vs0mg"},{"bike_id":"a0ba9c21-9ed3-4a31-83d7-90e84cde287d","system_id":"levelo_inurba_marseille","lat":43.26961,"lon":5.40181,"is_reserved":false,"is_disabled":false,"rental_uris":{"android":"levelo://app?vid=a0ba9c21-9ed3-4a31-83d7-90e84cde287d","ios":"levelo://app?vid=a0ba9c21-9ed3-4a31-83d7-90e84cde287d"},"vehicle_type_id":"4","last_reported":1747393710,"current_range_meters":14800,"station_id":"","pricing_plan_id":"cebpf4jnsgd1na2vs0mg"},{"bike_id":"4de3bc40-c55a-42a3-a89d-582b7dfebd3c","system_id":"levelo_inurba_marseille","lat":43.29513,"lon":5.39386,"is_reserved":false,"is_disabled":false,"rental_uris":{"android":"levelo://app?vid=4de3bc40-c55a-42a3-a89d-582b7dfebd3c","ios":"levelo://app?vid=4de3bc40-c55a-42a3-a89d-582b7dfebd3c"},"vehicle_type_id":"4","last_reported":1747393710,"current_range_meters":14800,"station_id":"ce4bh292rcd13ifvqdf0","pricing_plan_id":"cebpf4jnsgd1na2vs0mg"},{"bike_id":"e11c08d9-8beb-4399-814b-66c11dd86e4d","system_id":"levelo_inurba_marseille","lat":43.25502,"lon":5.3766,"is_reserved":false,"is_disabled":false,"rental_uris":{"android":"levelo://app?vid=e11c08d9-8beb-4399-814b-66c11dd86e4d","ios":"levelo://app?vid=e11c08d9-8beb-4399-814b-66c11dd86e4d"},"vehicle_type_id":"4","last_reported":1747393710,"current_range_meters":14800,"station_id":"ce4bhh12rcd13ifvqff0","pricing_plan_id":"cebpf4jnsgd1na2vs0mg"},{"bike_id":"7c2f3fc4-21ba-4a03-ac61-ae18fc4619d9","system_id":"levelo_inurba_marseille","lat":43.21191,"lon":5.350736,"is_reserved":false,"is_disabled":false,"rental_uris":{"android":"levelo://app?vid=7c2f3fc4-21ba-4a03-ac61-ae18fc4619d9","ios":"levelo://app?vid=7c2f3fc4-21ba-4a03-ac61-ae18fc4619d9"},"vehicle_type_id":"4","last_reported":1747393710,"current_range_meters":14800,"station_id":"st_cvj6sg6p6f1abm77japg","pricing_plan_id":"cebpf4jnsgd1na2vs0mg"},{"bike_id":"6d812bb8-7c84-4b9d-aa7e-2e32f2e0ab84","system_id":"levelo_inurba_marseille","lat":43.2393,"lon":5.3756,"is_reserved":false,"is_disabled":false,"rental_uris":{"android":"levelo://app?vid=6d812bb8-7c84-4b9d-aa7e-2e32f2e0ab84","ios":"levelo://app?vid=6d812bb8-7c84-4b9d-aa7e-2e32f2e0ab84"},"vehicle_type_id":"4","last_reported":1747393710,"current_range_meters":15200,"station_id":"","pricing_plan_id":"cebpf4jnsgd1na2vs0mg"},{"bike_id":"fb691759-c1d0-4bca-b625-bfe47a6ceed7","system_id":"levelo_inurba_marseille","lat":43.29289,"lon":5.38211,"is_reserved":false,"is_disabled":false,"rental_uris":{"android":"levelo://app?vid=fb691759-c1d0-4bca-b625-bfe47a6ceed7","ios":"levelo://app?vid=fb691759-c1d0-4bca-b625-bfe47a6ceed7"},"vehicle_type_id":"4","last_reported":1747393710,"current_range_meters":15200,"station_id":"","pricing_plan_id":"cebpf4jnsgd1na2vs0mg"},{"bike_id":"c9314141-a64d-4c4b-b085-7a5e77fbcfa9","system_id":"levelo_inurba_marseille","lat":43.30259,"lon":5.40084,"is_reserved":false,"is_disabled":false,"rental_uris":{"android":"levelo://app?vid=c9314141-a64d-4c4b-b085-7a5e77fbcfa9","ios":"levelo://app?vid=c9314141-a64d-4c4b-b085-7a5e77fbcfa9"},"vehicle_type_id":"4","last_reported":1747393710,"current_range_meters":15200,"station_id":"ce4bgvh2rcd13ifvqcs0","pricing_plan_id":"cebpf4jnsgd1na2vs0mg"},{"bike_id":"4e3a03aa-945b-4829-8b07-c0e144b11524","system_id":"levelo_inurba_marseille","lat":43.26194,"lon":5.37449,"is_reserved":false,"is_disabled":false,"rental_uris":{"android":"levelo://app?vid=4e3a03aa-945b-4829-8b07-c0e144b11524","ios":"levelo://app?vid=4e3a03aa-945b-4829-8b07-c0e144b11524"},"vehicle_type_id":"4","last_reported":1747393710,"current_range_meters":15200,"station_id":"ce4bhgp2rcd13ifvqfc0","pricing_plan_id":"cebpf4jnsgd1na2vs0mg"},{"bike_id":"0aa0dc3f-5317-4847-bf7a-289e56f76976","system_id":"levelo_inurba_marseille","lat":43.29192,"lon":5.35794,"is_reserved":false,"is_disabled":false,"rental_uris":{"android":"levelo://app?vid=0aa0dc3f-5317-4847-bf7a-289e56f76976","ios":"levelo://app?vid=0aa0dc3f-5317-4847-bf7a-289e56f76976"},"vehicle_type_id":"4","last_reported":1747393710,"current_range_meters":16000,"station_id":"ce4bhb12rcd13ifvqel0","pricing_plan_id":"cebpf4jnsgd1na2vs0mg"},{"bike_id":"8101f480-f29a-46a7-ad44-fbe51283b3b0","system_id":"levelo_inurba_marseille","lat":43.27809,"lon":5.40704,"is_reserved":false,"is_disabled":false,"rental_uris":{"android":"levelo://app?vid=8101f480-f29a-46a7-ad44-fbe51283b3b0","ios":"levelo://app?vid=8101f480-f29a-46a7-ad44-fbe51283b3b0"},"vehicle_type_id":"4","last_reported":1747393710,"current_range_meters":16000,"station_id":"ce4bhnh2rcd13ifvqgtg","pricing_plan_id":"cebpf4jnsgd1na2vs0mg"},{"bike_id":"612049a1-f710-4ecf-8710-234c0af44baa","system_id":"levelo_inurba_marseille","lat":43.25717,"lon":5.41117,"is_reserved":false,"is_disabled":false,"rental_uris":{"android":"levelo://app?vid=612049a1-f710-4ecf-8710-234c0af44baa","ios":"levelo://app?vid=612049a1-f710-4ecf-8710-234c0af44baa"},"vehicle_type_id":"4","last_reported":1747393710,"current_range_meters":16400,"station_id":"ce4bhkp2rcd13ifvqgd0","pricing_plan_id":"cebpf4jnsgd1na2vs0mg"},{"bike_id":"d9cf0daf-2b8c-44c0-ad88-67a126aa883b","system_id":"levelo_inurba_marseille","lat":43.25914,"lon":5.40866,"is_reserved":false,"is_disabled":false,"rental_uris":{"android":"levelo://app?vid=d9cf0daf-2b8c-44c0-ad88-67a126aa883b","ios":"levelo://app?vid=d9cf0daf-2b8c-44c0-ad88-67a126aa883b"},"vehicle_type_id":"4","last_reported":1747393710,"current_range_meters":16400,"station_id":"ce4bhm92rcd13ifvqglg","pricing_plan_id":"cebpf4jnsgd1na2vs0mg"},{"bike_id":"16748ab3-36ff-4772-bfcc-45d7b9aee659","system_id":"levelo_inurba_marseille","lat":43.27495,"lon":5.4245,"is_reserved":false,"is_disabled":false,"rental_uris":{"android":"levelo://app?vid=16748ab3-36ff-4772-bfcc-45d7b9aee659","ios":"levelo://app?vid=16748ab3-36ff-4772-bfcc-45d7b9aee659"},"vehicle_type_id":"4","last_reported":1747393710,"current_range_meters":16400,"station_id":"ce4bhn92rcd13ifvqgrg","pricing_plan_id":"cebpf4jnsgd1na2vs0mg"},{"bike_id":"385e683f-73df-4760-9ecb-0f2abdd208e1","system_id":"levelo_inurba_marseille","lat":43.268007,"lon":5.402727,"is_reserved":false,"is_disabled":false,"rental_uris":{"android":"levelo://app?vid=385e683f-73df-4760-9ecb-0f2abdd208e1","ios":"levelo://app?vid=385e683f-73df-4760-9ecb-0f2abdd208e1"},"vehicle_type_id":"4","last_reported":1747393710,"current_range_meters":16400,"station_id":"ce501612rcd8frsf0b60","pricing_plan_id":"cebpf4jnsgd1na2vs0mg"},{"bike_id":"55adc4b6-feb4-4b74-9bf4-31a05054f308","system_id":"levelo_inurba_marseille","lat":43.29877,"lon":5.39735,"is_reserved":false,"is_disabled":false,"rental_uris":{"android":"levelo://app?vid=55adc4b6-feb4-4b74-9bf4-31a05054f308","ios":"levelo://app?vid=55adc4b6-feb4-4b74-9bf4-31a05054f308"},"vehicle_type_id":"4","last_reported":1747393710,"current_range_meters":16800,"station_id":"ce4bh0h2rcd13ifvqd50","pricing_plan_id":"cebpf4jnsgd1na2vs0mg"},{"bike_id":"f3015bb4-1065-414c-b179-dcd63af86dfc","system_id":"levelo_inurba_marseille","lat":43.27066,"lon":5.402612,"is_reserved":false,"is_disabled":false,"rental_uris":{"android":"levelo://app?vid=f3015bb4-1065-414c-b179-dcd63af86dfc","ios":"levelo://app?vid=f3015bb4-1065-414c-b179-dcd63af86dfc"},"vehicle_type_id":"4","last_reported":1747393710,"current_range_meters":16800,"station_id":"ce4bhk92rcd13ifvqgc0","pricing_plan_id":"cebpf4jnsgd1na2vs0mg"},{"bike_id":"9a887af0-8edf-4c55-b22d-71a1c1b5486c","system_id":"levelo_inurba_marseille","lat":43.27996,"lon":5.41663,"is_reserved":false,"is_disabled":false,"rental_uris":{"android":"levelo://app?vid=9a887af0-8edf-4c55-b22d-71a1c1b5486c","ios":"levelo://app?vid=9a887af0-8edf-4c55-b22d-71a1c1b5486c"},"vehicle_type_id":"4","last_reported":1747393710,"current_range_meters":16800,"station_id":"ce4bho12rcd13ifvqh1g","pricing_plan_id":"cebpf4jnsgd1na2vs0mg"},{"bike_id":"98106b70-6f8a-476d-962a-f2bed2e52f0a","system_id":"levelo_inurba_marseille","lat":43.32106,"lon":5.36774,"is_reserved":false,"is_disabled":false,"rental_uris":{"android":"levelo://app?vid=98106b70-6f8a-476d-962a-f2bed2e52f0a","ios":"levelo://app?vid=98106b70-6f8a-476d-962a-f2bed2e52f0a"},"vehicle_type_id":"4","last_reported":1747393710,"current_range_meters":16800,"station_id":"ce4bhrh2rcd13ifvqhug","pricing_plan_id":"cebpf4jnsgd1na2vs0mg"},{"bike_id":"564dea41-2dc1-46c1-bac4-5023899447e9","system_id":"levelo_inurba_marseille","lat":43.33212,"lon":5.38988,"is_reserved":false,"is_disabled":false,"rental_uris":{"android":"levelo://app?vid=564dea41-2dc1-46c1-bac4-5023899447e9","ios":"levelo://app?vid=564dea41-2dc1-46c1-bac4-5023899447e9"},"vehicle_type_id":"4","last_reported":1747393710,"current_range_meters":17200,"station_id":"","pricing_plan_id":"cebpf4jnsgd1na2vs0mg"},{"bike_id":"f4da6ce8-cdf2-4643-88b1-2481db796223","system_id":"levelo_inurba_marseille","lat":43.295973,"lon":5.374993,"is_reserved":false,"is_disabled":false,"rental_uris":{"android":"levelo://app?vid=f4da6ce8-cdf2-4643-88b1-2481db796223","ios":"levelo://app?vid=f4da6ce8-cdf2-4643-88b1-2481db796223"},"vehicle_type_id":"4","last_reported":1747393710,"current_range_meters":17200,"station_id":"ce4bgh92rcd13ifvqb50","pricing_plan_id":"cebpf4jnsgd1na2vs0mg"},{"bike_id":"513a574b-1b8c-4b31-9d05-4c4ae592408e","system_id":"levelo_inurba_marseille","lat":43.29369,"lon":5.37838,"is_reserved":false,"is_disabled":false,"rental_uris":{"android":"levelo://app?vid=513a574b-1b8c-4b31-9d05-4c4ae592408e","ios":"levelo://app?vid=513a574b-1b8c-4b31-9d05-4c4ae592408e"},"vehicle_type_id":"4","last_reported":1747393710,"current_range_meters":17200,"station_id":"ce4bgjh2rcd13ifvqbf0","pricing_plan_id":"cebpf4jnsgd1na2vs0mg"},{"bike_id":"14b36eca-1823-453e-b465-51a98c2290e8","system_id":"levelo_inurba_marseille","lat":43.27056,"lon":5.4026,"is_reserved":false,"is_disabled":false,"rental_uris":{"android":"levelo://app?vid=14b36eca-1823-453e-b465-51a98c2290e8","ios":"levelo://app?vid=14b36eca-1823-453e-b465-51a98c2290e8"},"vehicle_type_id":"4","last_reported":1747393710,"current_range_meters":17200,"station_id":"ce4bhk92rcd13ifvqgc0","pricing_plan_id":"cebpf4jnsgd1na2vs0mg"},{"bike_id":"852ea9ac-6507-488a-87c5-b27d54b34b2e","system_id":"levelo_inurba_marseille","lat":43.28149,"lon":5.42631,"is_reserved":false,"is_disabled":false,"rental_uris":{"android":"levelo://app?vid=852ea9ac-6507-488a-87c5-b27d54b34b2e","ios":"levelo://app?vid=852ea9ac-6507-488a-87c5-b27d54b34b2e"},"vehicle_type_id":"4","last_reported":1747393710,"current_range_meters":17200,"station_id":"ce4bhnh2rcd13ifvqgug","pricing_plan_id":"cebpf4jnsgd1na2vs0mg"},{"bike_id":"c8a38f2f-aa6b-4b35-a189-77439d458a3a","system_id":"levelo_inurba_marseille","lat":43.284893,"lon":5.389323,"is_reserved":false,"is_disabled":false,"rental_uris":{"android":"levelo://app?vid=c8a38f2f-aa6b-4b35-a189-77439d458a3a","ios":"levelo://app?vid=c8a38f2f-aa6b-4b35-a189-77439d458a3a"},"vehicle_type_id":"4","last_reported":1747393710,"current_range_meters":17600,"station_id":"","pricing_plan_id":"cebpf4jnsgd1na2vs0mg"},{"bike_id":"12c91722-ead0-420b-be3b-c61e40b06e07","system_id":"levelo_inurba_marseille","lat":43.30996,"lon":5.37071,"is_reserved":false,"is_disabled":false,"rental_uris":{"android":"levelo://app?vid=12c91722-ead0-420b-be3b-c61e40b06e07","ios":"levelo://app?vid=12c91722-ead0-420b-be3b-c61e40b06e07"},"vehicle_type_id":"4","last_reported":1747393710,"current_range_meters":17600,"station_id":"","pricing_plan_id":"cebpf4jnsgd1na2vs0mg"},{"bike_id":"607ef6d8-ddd8-4f26-aa03-18da956e6c66","system_id":"levelo_inurba_marseille","lat":43.292691,"lon":5.384303,"is_reserved":false,"is_disabled":false,"rental_uris":{"android":"levelo://app?vid=607ef6d8-ddd8-4f26-aa03-18da956e6c66","ios":"levelo://app?vid=607ef6d8-ddd8-4f26-aa03-18da956e6c66"},"vehicle_type_id":"4","last_reported":1747393710,"current_range_meters":17600,"station_id":"ce4bh0p2rcd13ifvqd70","pricing_plan_id":"cebpf4jnsgd1na2vs0mg"},{"bike_id":"8c415fb2-967f-4590-b4d0-eb43e316d66c","system_id":"levelo_inurba_marseille","lat":43.29261,"lon":5.40907,"is_reserved":false,"is_disabled":false,"rental_uris":{"android":"levelo://app?vid=8c415fb2-967f-4590-b4d0-eb43e316d66c","ios":"levelo://app?vid=8c415fb2-967f-4590-b4d0-eb43e316d66c"},"vehicle_type_id":"4","last_reported":1747393710,"current_range_meters":17600,"station_id":"ce4bh192rcd13ifvqdc0","pricing_plan_id":"cebpf4jnsgd1na2vs0mg"},{"bike_id":"6efc77d1-fe9c-4e60-a463-8a4c88cab314","system_id":"levelo_inurba_marseille","lat":43.29063,"lon":5.39922,"is_reserved":false,"is_disabled":false,"rental_uris":{"android":"levelo://app?vid=6efc77d1-fe9c-4e60-a463-8a4c88cab314","ios":"levelo://app?vid=6efc77d1-fe9c-4e60-a463-8a4c88cab314"},"vehicle_type_id":"4","last_reported":1747393710,"current_range_meters":17600,"station_id":"ce4bh392rcd13ifvqdm0","pricing_plan_id":"cebpf4jnsgd1na2vs0mg"},{"bike_id":"96e5c242-fe90-4340-8571-acd924c4dfdf","system_id":"levelo_inurba_marseille","lat":43.29021,"lon":5.3863,"is_reserved":false,"is_disabled":false,"rental_uris":{"android":"levelo://app?vid=96e5c242-fe90-4340-8571-acd924c4dfdf","ios":"levelo://app?vid=96e5c242-fe90-4340-8571-acd924c4dfdf"},"vehicle_type_id":"4","last_reported":1747393710,"current_range_meters":17600,"station_id":"ce4bh4p2rcd13ifvqe0g","pricing_plan_id":"cebpf4jnsgd1na2vs0mg"},{"bike_id":"5a6c49aa-8259-4856-aa5c-bd1988e9c652","system_id":"levelo_inurba_marseille","lat":43.29266,"lon":5.38445,"is_reserved":false,"is_disabled":false,"rental_uris":{"android":"levelo://app?vid=5a6c49aa-8259-4856-aa5c-bd1988e9c652","ios":"levelo://app?vid=5a6c49aa-8259-4856-aa5c-bd1988e9c652"},"vehicle_type_id":"4","last_reported":1747393710,"current_range_meters":17600,"station_id":"ce4bh692rcd13ifvqea0","pricing_plan_id":"cebpf4jnsgd1na2vs0mg"},{"bike_id":"0cacb4fd-6ef6-4f76-a0e4-1eb65d4f5f64","system_id":"levelo_inurba_marseille","lat":43.289911,"lon":5.366273,"is_reserved":false,"is_disabled":false,"rental_uris":{"android":"levelo://app?vid=0cacb4fd-6ef6-4f76-a0e4-1eb65d4f5f64","ios":"levelo://app?vid=0cacb4fd-6ef6-4f76-a0e4-1eb65d4f5f64"},"vehicle_type_id":"4","last_reported":1747393710,"current_range_meters":17600,"station_id":"ce4bhb12rcd13ifvqem0","pricing_plan_id":"cebpf4jnsgd1na2vs0mg"},{"bike_id":"81ce395a-ca1c-43fa-b284-1ab7159452ff","system_id":"levelo_inurba_marseille","lat":43.25911,"lon":5.40842,"is_reserved":false,"is_disabled":false,"rental_uris":{"android":"levelo://app?vid=81ce395a-ca1c-43fa-b284-1ab7159452ff","ios":"levelo://app?vid=81ce395a-ca1c-43fa-b284-1ab7159452ff"},"vehicle_type_id":"4","last_reported":1747393710,"current_range_meters":17600,"station_id":"ce4bhm92rcd13ifvqglg","pricing_plan_id":"cebpf4jnsgd1na2vs0mg"},{"bike_id":"d22d430e-dbbe-4296-a267-2bf4b5e9f9aa","system_id":"levelo_inurba_marseille","lat":43.34136,"lon":5.409405,"is_reserved":false,"is_disabled":false,"rental_uris":{"android":"levelo://app?vid=d22d430e-dbbe-4296-a267-2bf4b5e9f9aa","ios":"levelo://app?vid=d22d430e-dbbe-4296-a267-2bf4b5e9f9aa"},"vehicle_type_id":"4","last_reported":1747393710,"current_range_meters":17600,"station_id":"ce4bhqh2rcd13ifvqhlg","pricing_plan_id":"cebpf4jnsgd1na2vs0mg"},{"bike_id":"0b4dab94-79cc-49be-8085-fb2124a86407","system_id":"levelo_inurba_marseille","lat":43.321084,"lon":5.367749,"is_reserved":false,"is_disabled":false,"rental_uris":{"android":"levelo://app?vid=0b4dab94-79cc-49be-8085-fb2124a86407","ios":"levelo://app?vid=0b4dab94-79cc-49be-8085-fb2124a86407"},"vehicle_type_id":"4","last_reported":1747393710,"current_range_meters":17600,"station_id":"ce4bhrh2rcd13ifvqhug","pricing_plan_id":"cebpf4jnsgd1na2vs0mg"},{"bike_id":"d4a68f67-accc-4132-becd-c45a42937a18","system_id":"levelo_inurba_marseille","lat":43.29254,"lon":5.37614,"is_reserved":false,"is_disabled":false,"rental_uris":{"android":"levelo://app?vid=d4a68f67-accc-4132-becd-c45a42937a18","ios":"levelo://app?vid=d4a68f67-accc-4132-becd-c45a42937a18"},"vehicle_type_id":"4","last_reported":1747393710,"current_range_meters":18000,"station_id":"ce4bgi12rcd13ifvqb80","pricing_plan_id":"cebpf4jnsgd1na2vs0mg"},{"bike_id":"2da9f3c9-79f1-4857-b39a-405852b9c829","system_id":"levelo_inurba_marseille","lat":43.28675,"lon":5.38659,"is_reserved":false,"is_disabled":false,"rental_uris":{"android":"levelo://app?vid=2da9f3c9-79f1-4857-b39a-405852b9c829","ios":"levelo://app?vid=2da9f3c9-79f1-4857-b39a-405852b9c829"},"vehicle_type_id":"4","last_reported":1747393710,"current_range_meters":18000,"station_id":"ce4bh492rcd13ifvqdug","pricing_plan_id":"cebpf4jnsgd1na2vs0mg"},{"bike_id":"5fbcbaa1-1cca-4cac-89e9-548e77b61c8e","system_id":"levelo_inurba_marseille","lat":43.27938,"lon":5.41039,"is_reserved":false,"is_disabled":false,"rental_uris":{"android":"levelo://app?vid=5fbcbaa1-1cca-4cac-89e9-548e77b61c8e","ios":"levelo://app?vid=5fbcbaa1-1cca-4cac-89e9-548e77b61c8e"},"vehicle_type_id":"4","last_reported":1747393710,"current_range_meters":18000,"station_id":"ce4bhnp2rcd13ifvqh0g","pricing_plan_id":"cebpf4jnsgd1na2vs0mg"},{"bike_id":"46576045-65e8-4382-872d-0c67c8b2931a","system_id":"levelo_inurba_marseille","lat":43.24168,"lon":5.36383,"is_reserved":false,"is_disabled":false,"rental_uris":{"android":"levelo://app?vid=46576045-65e8-4382-872d-0c67c8b2931a","ios":"levelo://app?vid=46576045-65e8-4382-872d-0c67c8b2931a"},"vehicle_type_id":"4","last_reported":1747393710,"current_range_meters":18000,"station_id":"cpo36qri1sfpv3e86is0","pricing_plan_id":"cebpf4jnsgd1na2vs0mg"},{"bike_id":"9b7ad114-f9b9-470b-8df9-e92decdb49ff","system_id":"levelo_inurba_marseille","lat":43.24159,"lon":5.36411,"is_reserved":false,"is_disabled":false,"rental_uris":{"android":"levelo://app?vid=9b7ad114-f9b9-470b-8df9-e92decdb49ff","ios":"levelo://app?vid=9b7ad114-f9b9-470b-8df9-e92decdb49ff"},"vehicle_type_id":"4","last_reported":1747393710,"current_range_meters":18000,"station_id":"cpo36qri1sfpv3e86is0","pricing_plan_id":"cebpf4jnsgd1na2vs0mg"},{"bike_id":"8005e5db-5a91-4b96-ab71-9a9b74d5332e","system_id":"levelo_inurba_marseille","lat":43.29891,"lon":5.38881,"is_reserved":false,"is_disabled":false,"rental_uris":{"android":"levelo://app?vid=8005e5db-5a91-4b96-ab71-9a9b74d5332e","ios":"levelo://app?vid=8005e5db-5a91-4b96-ab71-9a9b74d5332e"},"vehicle_type_id":"4","last_reported":1747393710,"current_range_meters":18800,"station_id":"ce4bh392rcd13ifvqdl0","pricing_plan_id":"cebpf4jnsgd1na2vs0mg"},{"bike_id":"bfaf2b70-e4c6-46c9-a093-5b06a25bd047","system_id":"levelo_inurba_marseille","lat":43.282555,"lon":5.399221,"is_reserved":false,"is_disabled":false,"rental_uris":{"android":"levelo://app?vid=bfaf2b70-e4c6-46c9-a093-5b06a25bd047","ios":"levelo://app?vid=bfaf2b70-e4c6-46c9-a093-5b06a25bd047"},"vehicle_type_id":"4","last_reported":1747393710,"current_range_meters":18800,"station_id":"ce4bh392rcd13ifvqdm0","pricing_plan_id":"cebpf4jnsgd1na2vs0mg"},{"bike_id":"00bd8c96-83f1-4d61-9586-9da6bf35abf0","system_id":"levelo_inurba_marseille","lat":43.29185,"lon":5.35798,"is_reserved":false,"is_disabled":false,"rental_uris":{"android":"levelo://app?vid=00bd8c96-83f1-4d61-9586-9da6bf35abf0","ios":"levelo://app?vid=00bd8c96-83f1-4d61-9586-9da6bf35abf0"},"vehicle_type_id":"4","last_reported":1747393710,"current_range_meters":18800,"station_id":"ce4bhb12rcd13ifvqel0","pricing_plan_id":"cebpf4jnsgd1na2vs0mg"},{"bike_id":"996a3362-897a-4136-a117-5e8a5b577b1a","system_id":"levelo_inurba_marseille","lat":43.27428,"lon":5.39418,"is_reserved":false,"is_disabled":false,"rental_uris":{"android":"levelo://app?vid=996a3362-897a-4136-a117-5e8a5b577b1a","ios":"levelo://app?vid=996a3362-897a-4136-a117-5e8a5b577b1a"},"vehicle_type_id":"4","last_reported":1747393710,"current_range_meters":18800,"station_id":"ce4bhdp2rcd13ifvqf20","pricing_plan_id":"cebpf4jnsgd1na2vs0mg"},{"bike_id":"372fd5e1-8418-43c4-937a-d7da47f77dfe","system_id":"levelo_inurba_marseille","lat":43.27338,"lon":5.39076,"is_reserved":false,"is_disabled":false,"rental_uris":{"android":"levelo://app?vid=372fd5e1-8418-43c4-937a-d7da47f77dfe","ios":"levelo://app?vid=372fd5e1-8418-43c4-937a-d7da47f77dfe"},"vehicle_type_id":"4","last_reported":1747393710,"current_range_meters":18800,"station_id":"ce4bhgp2rcd13ifvqfe0","pricing_plan_id":"cebpf4jnsgd1na2vs0mg"},{"bike_id":"5b501422-576a-40be-98be-c3076abbcee2","system_id":"levelo_inurba_marseille","lat":43.320386,"lon":5.415656,"is_reserved":false,"is_disabled":false,"rental_uris":{"android":"levelo://app?vid=5b501422-576a-40be-98be-c3076abbcee2","ios":"levelo://app?vid=5b501422-576a-40be-98be-c3076abbcee2"},"vehicle_type_id":"4","last_reported":1747393710,"current_range_meters":18800,"station_id":"ce4bhq92rcd13ifvqhkg","pricing_plan_id":"cebpf4jnsgd1na2vs0mg"},{"bike_id":"dd575c41-fca8-4ded-bd7b-e5a9ced13f9e","system_id":"levelo_inurba_marseille","lat":43.30531,"lon":5.36553,"is_reserved":false,"is_disabled":false,"rental_uris":{"android":"levelo://app?vid=dd575c41-fca8-4ded-bd7b-e5a9ced13f9e","ios":"levelo://app?vid=dd575c41-fca8-4ded-bd7b-e5a9ced13f9e"},"vehicle_type_id":"4","last_reported":1747393710,"current_range_meters":19200,"station_id":"ce4bgs12rcd13ifvqcag","pricing_plan_id":"cebpf4jnsgd1na2vs0mg"},{"bike_id":"4fd62101-cc34-4354-8ba3-638982b34a86","system_id":"levelo_inurba_marseille","lat":43.28957,"lon":5.36394,"is_reserved":false,"is_disabled":false,"rental_uris":{"android":"levelo://app?vid=4fd62101-cc34-4354-8ba3-638982b34a86","ios":"levelo://app?vid=4fd62101-cc34-4354-8ba3-638982b34a86"},"vehicle_type_id":"4","last_reported":1747393710,"current_range_meters":19200,"station_id":"ce4bhc92rcd13ifvqetg","pricing_plan_id":"cebpf4jnsgd1na2vs0mg"},{"bike_id":"ada7c924-821e-4313-8c53-a9f953402e47","system_id":"levelo_inurba_marseille","lat":43.29615,"lon":5.37711,"is_reserved":false,"is_disabled":false,"rental_uris":{"android":"levelo://app?vid=ada7c924-821e-4313-8c53-a9f953402e47","ios":"levelo://app?vid=ada7c924-821e-4313-8c53-a9f953402e47"},"vehicle_type_id":"4","last_reported":1747393710,"current_range_meters":19600,"station_id":"ce4bgi92rcd13ifvqb90","pricing_plan_id":"cebpf4jnsgd1na2vs0mg"},{"bike_id":"1c034ea3-212c-4d7a-86f6-31c895bd347f","system_id":"levelo_inurba_marseille","lat":43.29037,"lon":5.39951,"is_reserved":false,"is_disabled":false,"rental_uris":{"android":"levelo://app?vid=1c034ea3-212c-4d7a-86f6-31c895bd347f","ios":"levelo://app?vid=1c034ea3-212c-4d7a-86f6-31c895bd347f"},"vehicle_type_id":"4","last_reported":1747393710,"current_range_meters":19600,"station_id":"ce4bh392rcd13ifvqdm0","pricing_plan_id":"cebpf4jnsgd1na2vs0mg"},{"bike_id":"ef6f5f59-f18d-44d6-a502-07bbeb10d606","system_id":"levelo_inurba_marseille","lat":43.292694,"lon":5.368441,"is_reserved":false,"is_disabled":false,"rental_uris":{"android":"levelo://app?vid=ef6f5f59-f18d-44d6-a502-07bbeb10d606","ios":"levelo://app?vid=ef6f5f59-f18d-44d6-a502-07bbeb10d606"},"vehicle_type_id":"4","last_reported":1747393710,"current_range_meters":19600,"station_id":"ce4bhbp2rcd13ifvqesg","pricing_plan_id":"cebpf4jnsgd1na2vs0mg"},{"bike_id":"512db903-9559-40c7-8902-6a98e3c8c53c","system_id":"levelo_inurba_marseille","lat":43.32941,"lon":5.38962,"is_reserved":false,"is_disabled":false,"rental_uris":{"android":"levelo://app?vid=512db903-9559-40c7-8902-6a98e3c8c53c","ios":"levelo://app?vid=512db903-9559-40c7-8902-6a98e3c8c53c"},"vehicle_type_id":"4","last_reported":1747393710,"current_range_meters":20000,"station_id":"","pricing_plan_id":"cebpf4jnsgd1na2vs0mg"},{"bike_id":"1be26261-33de-4b75-9ac5-674be4da47dc","system_id":"levelo_inurba_marseille","lat":43.30883,"lon":5.37177,"is_reserved":false,"is_disabled":false,"rental_uris":{"android":"levelo://app?vid=1be26261-33de-4b75-9ac5-674be4da47dc","ios":"levelo://app?vid=1be26261-33de-4b75-9ac5-674be4da47dc"},"vehicle_type_id":"4","last_reported":1747393710,"current_range_meters":20000,"station_id":"ce4bguh2rcd13ifvqckg","pricing_plan_id":"cebpf4jnsgd1na2vs0mg"},{"bike_id":"4c15b00e-ce52-482a-a767-cfc45b6ef207","system_id":"levelo_inurba_marseille","lat":43.30592,"lon":5.39363,"is_reserved":false,"is_disabled":false,"rental_uris":{"android":"levelo://app?vid=4c15b00e-ce52-482a-a767-cfc45b6ef207","ios":"levelo://app?vid=4c15b00e-ce52-482a-a767-cfc45b6ef207"},"vehicle_type_id":"4","last_reported":1747393710,"current_range_meters":20000,"station_id":"ce4bh0p2rcd13ifvqd80","pricing_plan_id":"cebpf4jnsgd1na2vs0mg"},{"bike_id":"36c38849-1aa7-4d33-b5af-ed5962538437","system_id":"levelo_inurba_marseille","lat":43.26482,"lon":5.39545,"is_reserved":false,"is_disabled":false,"rental_uris":{"android":"levelo://app?vid=36c38849-1aa7-4d33-b5af-ed5962538437","ios":"levelo://app?vid=36c38849-1aa7-4d33-b5af-ed5962538437"},"vehicle_type_id":"4","last_reported":1747393710,"current_range_meters":20000,"station_id":"ce4bhi12rcd13ifvqfq0","pricing_plan_id":"cebpf4jnsgd1na2vs0mg"},{"bike_id":"d32fbd5e-db4a-44c5-b1c1-2052f4bcb96a","system_id":"levelo_inurba_marseille","lat":43.27811,"lon":5.40708,"is_reserved":false,"is_disabled":false,"rental_uris":{"android":"levelo://app?vid=d32fbd5e-db4a-44c5-b1c1-2052f4bcb96a","ios":"levelo://app?vid=d32fbd5e-db4a-44c5-b1c1-2052f4bcb96a"},"vehicle_type_id":"4","last_reported":1747393710,"current_range_meters":20000,"station_id":"ce4bhnh2rcd13ifvqgtg","pricing_plan_id":"cebpf4jnsgd1na2vs0mg"},{"bike_id":"462b5739-db0c-4f45-ab29-842115c77cfe","system_id":"levelo_inurba_marseille","lat":43.286061,"lon":5.370619,"is_reserved":false,"is_disabled":false,"rental_uris":{"android":"levelo://app?vid=462b5739-db0c-4f45-ab29-842115c77cfe","ios":"levelo://app?vid=462b5739-db0c-4f45-ab29-842115c77cfe"},"vehicle_type_id":"4","last_reported":1747393710,"current_range_meters":20000,"station_id":"ce4bht12rcd13ifvqi60","pricing_plan_id":"cebpf4jnsgd1na2vs0mg"},{"bike_id":"ccd61b99-df41-43ed-bf13-07a90b1e2058","system_id":"levelo_inurba_marseille","lat":43.30462,"lon":5.3791,"is_reserved":false,"is_disabled":false,"rental_uris":{"android":"levelo://app?vid=ccd61b99-df41-43ed-bf13-07a90b1e2058","ios":"levelo://app?vid=ccd61b99-df41-43ed-bf13-07a90b1e2058"},"vehicle_type_id":"4","last_reported":1747393710,"current_range_meters":20400,"station_id":"ce4bgup2rcd13ifvqcn0","pricing_plan_id":"cebpf4jnsgd1na2vs0mg"},{"bike_id":"e642034a-5878-4f5c-9b4d-c875c51b35de","system_id":"levelo_inurba_marseille","lat":43.30253,"lon":5.40072,"is_reserved":false,"is_disabled":false,"rental_uris":{"android":"levelo://app?vid=e642034a-5878-4f5c-9b4d-c875c51b35de","ios":"levelo://app?vid=e642034a-5878-4f5c-9b4d-c875c51b35de"},"vehicle_type_id":"4","last_reported":1747393710,"current_range_meters":20400,"station_id":"ce4bgvh2rcd13ifvqcs0","pricing_plan_id":"cebpf4jnsgd1na2vs0mg"},{"bike_id":"7f412afb-2cc0-4a9c-a567-a3dabbf9e13c","system_id":"levelo_inurba_marseille","lat":43.31329,"lon":5.39685,"is_reserved":false,"is_disabled":false,"rental_uris":{"android":"levelo://app?vid=7f412afb-2cc0-4a9c-a567-a3dabbf9e13c","ios":"levelo://app?vid=7f412afb-2cc0-4a9c-a567-a3dabbf9e13c"},"vehicle_type_id":"4","last_reported":1747393710,"current_range_meters":20400,"station_id":"ce4bgvp2rcd13ifvqcu0","pricing_plan_id":"cebpf4jnsgd1na2vs0mg"},{"bike_id":"f2f57b95-16bd-4d64-8331-221b02d17b02","system_id":"levelo_inurba_marseille","lat":43.28351,"lon":5.38101,"is_reserved":false,"is_disabled":false,"rental_uris":{"android":"levelo://app?vid=f2f57b95-16bd-4d64-8331-221b02d17b02","ios":"levelo://app?vid=f2f57b95-16bd-4d64-8331-221b02d17b02"},"vehicle_type_id":"4","last_reported":1747393710,"current_range_meters":20400,"station_id":"ce4bh412rcd13ifvqdr0","pricing_plan_id":"cebpf4jnsgd1na2vs0mg"},{"bike_id":"3754db99-09df-461c-83e3-f9f2dc95d806","system_id":"levelo_inurba_marseille","lat":43.26954,"lon":5.38627,"is_reserved":false,"is_disabled":false,"rental_uris":{"android":"levelo://app?vid=3754db99-09df-461c-83e3-f9f2dc95d806","ios":"levelo://app?vid=3754db99-09df-461c-83e3-f9f2dc95d806"},"vehicle_type_id":"4","last_reported":1747393710,"current_range_meters":20400,"station_id":"ce4bhh92rcd13ifvqfh0","pricing_plan_id":"cebpf4jnsgd1na2vs0mg"},{"bike_id":"43593794-e90e-4091-9a20-c3ed6c73fc3e","system_id":"levelo_inurba_marseille","lat":43.30419,"lon":5.41287,"is_reserved":false,"is_disabled":false,"rental_uris":{"android":"levelo://app?vid=43593794-e90e-4091-9a20-c3ed6c73fc3e","ios":"levelo://app?vid=43593794-e90e-4091-9a20-c3ed6c73fc3e"},"vehicle_type_id":"4","last_reported":1747393710,"current_range_meters":20400,"station_id":"ce4bhop2rcd13ifvqh8g","pricing_plan_id":"cebpf4jnsgd1na2vs0mg"},{"bike_id":"78fb60cd-24e3-4c35-9b93-c850f1e037b4","system_id":"levelo_inurba_marseille","lat":43.30881,"lon":5.37184,"is_reserved":false,"is_disabled":false,"rental_uris":{"android":"levelo://app?vid=78fb60cd-24e3-4c35-9b93-c850f1e037b4","ios":"levelo://app?vid=78fb60cd-24e3-4c35-9b93-c850f1e037b4"},"vehicle_type_id":"4","last_reported":1747393710,"current_range_meters":20800,"station_id":"ce4bguh2rcd13ifvqckg","pricing_plan_id":"cebpf4jnsgd1na2vs0mg"},{"bike_id":"2eaecf64-0131-47b3-87c8-33afb9725ce4","system_id":"levelo_inurba_marseille","lat":43.29097,"lon":5.38111,"is_reserved":false,"is_disabled":false,"rental_uris":{"android":"levelo://app?vid=2eaecf64-0131-47b3-87c8-33afb9725ce4","ios":"levelo://app?vid=2eaecf64-0131-47b3-87c8-33afb9725ce4"},"vehicle_type_id":"4","last_reported":1747393710,"current_range_meters":20800,"station_id":"ce4bh512rcd13ifvqe2g","pricing_plan_id":"cebpf4jnsgd1na2vs0mg"},{"bike_id":"3e277f7c-a3e9-4a5a-bc73-5d77a3f423e0","system_id":"levelo_inurba_marseille","lat":43.29205,"lon":5.40107,"is_reserved":false,"is_disabled":false,"rental_uris":{"android":"levelo://app?vid=3e277f7c-a3e9-4a5a-bc73-5d77a3f423e0","ios":"levelo://app?vid=3e277f7c-a3e9-4a5a-bc73-5d77a3f423e0"},"vehicle_type_id":"4","last_reported":1747393710,"current_range_meters":21600,"station_id":"","pricing_plan_id":"cebpf4jnsgd1na2vs0mg"},{"bike_id":"617b11ef-c59d-43b2-b06e-11ed103bddad","system_id":"levelo_inurba_marseille","lat":43.30193,"lon":5.3661,"is_reserved":false,"is_disabled":false,"rental_uris":{"android":"levelo://app?vid=617b11ef-c59d-43b2-b06e-11ed103bddad","ios":"levelo://app?vid=617b11ef-c59d-43b2-b06e-11ed103bddad"},"vehicle_type_id":"4","last_reported":1747393710,"current_range_meters":21600,"station_id":"ce4bgrh2rcd13ifvqc8g","pricing_plan_id":"cebpf4jnsgd1na2vs0mg"},{"bike_id":"19b2f3dd-edb2-47d7-9394-d39e9cd28458","system_id":"levelo_inurba_marseille","lat":43.29273,"lon":5.36841,"is_reserved":false,"is_disabled":false,"rental_uris":{"android":"levelo://app?vid=19b2f3dd-edb2-47d7-9394-d39e9cd28458","ios":"levelo://app?vid=19b2f3dd-edb2-47d7-9394-d39e9cd28458"},"vehicle_type_id":"4","last_reported":1747393710,"current_range_meters":21600,"station_id":"ce4bhbp2rcd13ifvqesg","pricing_plan_id":"cebpf4jnsgd1na2vs0mg"},{"bike_id":"13b86de8-07b4-48ab-ad57-b0073bf3763f","system_id":"levelo_inurba_marseille","lat":43.25713,"lon":5.4111,"is_reserved":false,"is_disabled":false,"rental_uris":{"android":"levelo://app?vid=13b86de8-07b4-48ab-ad57-b0073bf3763f","ios":"levelo://app?vid=13b86de8-07b4-48ab-ad57-b0073bf3763f"},"vehicle_type_id":"4","last_reported":1747393710,"current_range_meters":21600,"station_id":"ce4bhkp2rcd13ifvqgd0","pricing_plan_id":"cebpf4jnsgd1na2vs0mg"},{"bike_id":"df19a046-bc8f-4751-980f-3fc4c19f613a","system_id":"levelo_inurba_marseille","lat":43.27494,"lon":5.42453,"is_reserved":false,"is_disabled":false,"rental_uris":{"android":"levelo://app?vid=df19a046-bc8f-4751-980f-3fc4c19f613a","ios":"levelo://app?vid=df19a046-bc8f-4751-980f-3fc4c19f613a"},"vehicle_type_id":"4","last_reported":1747393710,"current_range_meters":21600,"station_id":"ce4bhn92rcd13ifvqgrg","pricing_plan_id":"cebpf4jnsgd1na2vs0mg"},{"bike_id":"ba49636d-5d10-4efe-8e3a-e657d9279858","system_id":"levelo_inurba_marseille","lat":43.27491,"lon":5.42448,"is_reserved":false,"is_disabled":false,"rental_uris":{"android":"levelo://app?vid=ba49636d-5d10-4efe-8e3a-e657d9279858","ios":"levelo://app?vid=ba49636d-5d10-4efe-8e3a-e657d9279858"},"vehicle_type_id":"4","last_reported":1747393710,"current_range_meters":21600,"station_id":"ce4bhn92rcd13ifvqgrg","pricing_plan_id":"cebpf4jnsgd1na2vs0mg"},{"bike_id":"9df85b20-c7d0-47d2-a218-438bf5e00318","system_id":"levelo_inurba_marseille","lat":43.27513,"lon":5.42435,"is_reserved":false,"is_disabled":false,"rental_uris":{"android":"levelo://app?vid=9df85b20-c7d0-47d2-a218-438bf5e00318","ios":"levelo://app?vid=9df85b20-c7d0-47d2-a218-438bf5e00318"},"vehicle_type_id":"4","last_reported":1747393710,"current_range_meters":21600,"station_id":"ce4bhn92rcd13ifvqgrg","pricing_plan_id":"cebpf4jnsgd1na2vs0mg"},{"bike_id":"244cd4a3-95cd-423b-860b-4114d14c66d7","system_id":"levelo_inurba_marseille","lat":43.29962,"lon":5.41318,"is_reserved":false,"is_disabled":false,"rental_uris":{"android":"levelo://app?vid=244cd4a3-95cd-423b-860b-4114d14c66d7","ios":"levelo://app?vid=244cd4a3-95cd-423b-860b-4114d14c66d7"},"vehicle_type_id":"4","last_reported":1747393710,"current_range_meters":21600,"station_id":"ce4bhp12rcd13ifvqh9g","pricing_plan_id":"cebpf4jnsgd1na2vs0mg"},{"bike_id":"a114f2a9-440c-4462-9aa9-6cd8b55930c2","system_id":"levelo_inurba_marseille","lat":43.31682,"lon":5.40477,"is_reserved":false,"is_disabled":false,"rental_uris":{"android":"levelo://app?vid=a114f2a9-440c-4462-9aa9-6cd8b55930c2","ios":"levelo://app?vid=a114f2a9-440c-4462-9aa9-6cd8b55930c2"},"vehicle_type_id":"4","last_reported":1747393710,"current_range_meters":22000,"station_id":"ce4bh012rcd13ifvqd00","pricing_plan_id":"cebpf4jnsgd1na2vs0mg"},{"bike_id":"885e3837-267a-4a1d-bf3f-fb571ce52065","system_id":"levelo_inurba_marseille","lat":43.265701,"lon":5.389963,"is_reserved":false,"is_disabled":false,"rental_uris":{"android":"levelo://app?vid=885e3837-267a-4a1d-bf3f-fb571ce52065","ios":"levelo://app?vid=885e3837-267a-4a1d-bf3f-fb571ce52065"},"vehicle_type_id":"4","last_reported":1747393710,"current_range_meters":22000,"station_id":"ce4bhe12rcd13ifvqf30","pricing_plan_id":"cebpf4jnsgd1na2vs0mg"},{"bike_id":"ed0e9b5f-6a62-471b-b727-3e543da6d9ae","system_id":"levelo_inurba_marseille","lat":43.241755,"lon":5.39733,"is_reserved":false,"is_disabled":false,"rental_uris":{"android":"levelo://app?vid=ed0e9b5f-6a62-471b-b727-3e543da6d9ae","ios":"levelo://app?vid=ed0e9b5f-6a62-471b-b727-3e543da6d9ae"},"vehicle_type_id":"4","last_reported":1747393710,"current_range_meters":22000,"station_id":"ce4bhn12rcd13ifvqgpg","pricing_plan_id":"cebpf4jnsgd1na2vs0mg"},{"bike_id":"4df021ed-f1f8-475b-8edf-dd2aeb71309d","system_id":"levelo_inurba_marseille","lat":43.2781,"lon":5.40691,"is_reserved":false,"is_disabled":false,"rental_uris":{"android":"levelo://app?vid=4df021ed-f1f8-475b-8edf-dd2aeb71309d","ios":"levelo://app?vid=4df021ed-f1f8-475b-8edf-dd2aeb71309d"},"vehicle_type_id":"4","last_reported":1747393710,"current_range_meters":22000,"station_id":"ce4bhnh2rcd13ifvqgtg","pricing_plan_id":"cebpf4jnsgd1na2vs0mg"},{"bike_id":"6a760570-5c0a-49e1-a559-4bd57e18c7b8","system_id":"levelo_inurba_marseille","lat":43.26164,"lon":5.42057,"is_reserved":false,"is_disabled":false,"rental_uris":{"android":"levelo://app?vid=6a760570-5c0a-49e1-a559-4bd57e18c7b8","ios":"levelo://app?vid=6a760570-5c0a-49e1-a559-4bd57e18c7b8"},"vehicle_type_id":"4","last_reported":1747393710,"current_range_meters":22400,"station_id":"","pricing_plan_id":"cebpf4jnsgd1na2vs0mg"},{"bike_id":"c3df9206-9c19-4bc1-9beb-c5a217139ffa","system_id":"levelo_inurba_marseille","lat":43.30595,"lon":5.37195,"is_reserved":false,"is_disabled":false,"rental_uris":{"android":"levelo://app?vid=c3df9206-9c19-4bc1-9beb-c5a217139ffa","ios":"levelo://app?vid=c3df9206-9c19-4bc1-9beb-c5a217139ffa"},"vehicle_type_id":"4","last_reported":1747393710,"current_range_meters":22400,"station_id":"ce4bgqh2rcd13ifvqc4g","pricing_plan_id":"cebpf4jnsgd1na2vs0mg"},{"bike_id":"a4834fd7-8a4e-4c8e-8b0f-4d4e7ba7e49b","system_id":"levelo_inurba_marseille","lat":43.28108,"lon":5.37837,"is_reserved":false,"is_disabled":false,"rental_uris":{"android":"levelo://app?vid=a4834fd7-8a4e-4c8e-8b0f-4d4e7ba7e49b","ios":"levelo://app?vid=a4834fd7-8a4e-4c8e-8b0f-4d4e7ba7e49b"},"vehicle_type_id":"4","last_reported":1747393710,"current_range_meters":22400,"station_id":"ce4bha12rcd13ifvqee0","pricing_plan_id":"cebpf4jnsgd1na2vs0mg"},{"bike_id":"0374ddeb-603b-4778-ad67-dc1cf319257f","system_id":"levelo_inurba_marseille","lat":43.273197,"lon":5.39066,"is_reserved":false,"is_disabled":false,"rental_uris":{"android":"levelo://app?vid=0374ddeb-603b-4778-ad67-dc1cf319257f","ios":"levelo://app?vid=0374ddeb-603b-4778-ad67-dc1cf319257f"},"vehicle_type_id":"4","last_reported":1747393710,"current_range_meters":22400,"station_id":"ce4bhgp2rcd13ifvqfe0","pricing_plan_id":"cebpf4jnsgd1na2vs0mg"},{"bike_id":"8d1b5b78-2ae5-4a2e-a7e1-ffb6ff1f9f0d","system_id":"levelo_inurba_marseille","lat":43.27209,"lon":5.39173,"is_reserved":false,"is_disabled":false,"rental_uris":{"android":"levelo://app?vid=8d1b5b78-2ae5-4a2e-a7e1-ffb6ff1f9f0d","ios":"levelo://app?vid=8d1b5b78-2ae5-4a2e-a7e1-ffb6ff1f9f0d"},"vehicle_type_id":"4","last_reported":1747393710,"current_range_meters":22400,"station_id":"ce4bhhp2rcd13ifvqfm0","pricing_plan_id":"cebpf4jnsgd1na2vs0mg"},{"bike_id":"ce456a01-5b64-42a0-85ae-29f9d30fb739","system_id":"levelo_inurba_marseille","lat":43.29776,"lon":5.37105,"is_reserved":false,"is_disabled":false,"rental_uris":{"android":"levelo://app?vid=ce456a01-5b64-42a0-85ae-29f9d30fb739","ios":"levelo://app?vid=ce456a01-5b64-42a0-85ae-29f9d30fb739"},"vehicle_type_id":"4","last_reported":1747393710,"current_range_meters":22800,"station_id":"ce4bgop2rcd13ifvqc1g","pricing_plan_id":"cebpf4jnsgd1na2vs0mg"},{"bike_id":"1ae8fcd6-2ed1-4365-9e2e-5b67cffee360","system_id":"levelo_inurba_marseille","lat":43.30529,"lon":5.36697,"is_reserved":false,"is_disabled":false,"rental_uris":{"android":"levelo://app?vid=1ae8fcd6-2ed1-4365-9e2e-5b67cffee360","ios":"levelo://app?vid=1ae8fcd6-2ed1-4365-9e2e-5b67cffee360"},"vehicle_type_id":"4","last_reported":1747393710,"current_range_meters":22800,"station_id":"ce4bgrp2rcd13ifvqc9g","pricing_plan_id":"cebpf4jnsgd1na2vs0mg"},{"bike_id":"3f234980-8f5c-4126-869b-50a7440eeb00","system_id":"levelo_inurba_marseille","lat":43.24389,"lon":5.37062,"is_reserved":false,"is_disabled":false,"rental_uris":{"android":"levelo://app?vid=3f234980-8f5c-4126-869b-50a7440eeb00","ios":"levelo://app?vid=3f234980-8f5c-4126-869b-50a7440eeb00"},"vehicle_type_id":"4","last_reported":1747393710,"current_range_meters":22800,"station_id":"ce4bhhh2rcd13ifvqfk0","pricing_plan_id":"cebpf4jnsgd1na2vs0mg"},{"bike_id":"973033e6-4af2-4a2e-ad36-f70e80df52f0","system_id":"levelo_inurba_marseille","lat":43.29919,"lon":5.37452,"is_reserved":false,"is_disabled":false,"rental_uris":{"android":"levelo://app?vid=973033e6-4af2-4a2e-ad36-f70e80df52f0","ios":"levelo://app?vid=973033e6-4af2-4a2e-ad36-f70e80df52f0"},"vehicle_type_id":"4","last_reported":1747393710,"current_range_meters":23200,"station_id":"ce4bgjh2rcd13ifvqbg0","pricing_plan_id":"cebpf4jnsgd1na2vs0mg"},{"bike_id":"ca1b31a1-e63f-4ac3-8150-eff0076e9bbb","system_id":"levelo_inurba_marseille","lat":43.31224,"lon":5.36865,"is_reserved":false,"is_disabled":false,"rental_uris":{"android":"levelo://app?vid=ca1b31a1-e63f-4ac3-8150-eff0076e9bbb","ios":"levelo://app?vid=ca1b31a1-e63f-4ac3-8150-eff0076e9bbb"},"vehicle_type_id":"4","last_reported":1747393710,"current_range_meters":23200,"station_id":"ce4bgl92rcd13ifvqbq0","pricing_plan_id":"cebpf4jnsgd1na2vs0mg"},{"bike_id":"25286277-65ff-447f-bca2-a3b5a63753c5","system_id":"levelo_inurba_marseille","lat":43.26777,"lon":5.39414,"is_reserved":false,"is_disabled":false,"rental_uris":{"android":"levelo://app?vid=25286277-65ff-447f-bca2-a3b5a63753c5","ios":"levelo://app?vid=25286277-65ff-447f-bca2-a3b5a63753c5"},"vehicle_type_id":"4","last_reported":1747393710,"current_range_meters":23200,"station_id":"ce4bhh12rcd13ifvqfg0","pricing_plan_id":"cebpf4jnsgd1na2vs0mg"},{"bike_id":"c1a2edd5-13f2-4ce2-836f-0f1598b3978d","system_id":"levelo_inurba_marseille","lat":43.272088,"lon":5.391778,"is_reserved":false,"is_disabled":false,"rental_uris":{"android":"levelo://app?vid=c1a2edd5-13f2-4ce2-836f-0f1598b3978d","ios":"levelo://app?vid=c1a2edd5-13f2-4ce2-836f-0f1598b3978d"},"vehicle_type_id":"4","last_reported":1747393710,"current_range_meters":23200,"station_id":"ce4bhhp2rcd13ifvqfm0","pricing_plan_id":"cebpf4jnsgd1na2vs0mg"},{"bike_id":"11ba9a9a-9d48-417d-bcb9-ffebe98e16c2","system_id":"levelo_inurba_marseille","lat":43.30916,"lon":5.36832,"is_reserved":false,"is_disabled":false,"rental_uris":{"android":"levelo://app?vid=11ba9a9a-9d48-417d-bcb9-ffebe98e16c2","ios":"levelo://app?vid=11ba9a9a-9d48-417d-bcb9-ffebe98e16c2"},"vehicle_type_id":"4","last_reported":1747393710,"current_range_meters":24000,"station_id":"ce4bgn92rcd13ifvqbvg","pricing_plan_id":"cebpf4jnsgd1na2vs0mg"},{"bike_id":"cd1c3f83-4c07-427a-9a66-8e0ec1b185c8","system_id":"levelo_inurba_marseille","lat":43.31329,"lon":5.3971,"is_reserved":false,"is_disabled":false,"rental_uris":{"android":"levelo://app?vid=cd1c3f83-4c07-427a-9a66-8e0ec1b185c8","ios":"levelo://app?vid=cd1c3f83-4c07-427a-9a66-8e0ec1b185c8"},"vehicle_type_id":"4","last_reported":1747393710,"current_range_meters":24000,"station_id":"ce4bgvp2rcd13ifvqcu0","pricing_plan_id":"cebpf4jnsgd1na2vs0mg"},{"bike_id":"097a629e-41ba-4599-9b8a-0d7da1cb35bf","system_id":"levelo_inurba_marseille","lat":43.30881,"lon":5.39656,"is_reserved":false,"is_disabled":false,"rental_uris":{"android":"levelo://app?vid=097a629e-41ba-4599-9b8a-0d7da1cb35bf","ios":"levelo://app?vid=097a629e-41ba-4599-9b8a-0d7da1cb35bf"},"vehicle_type_id":"4","last_reported":1747393710,"current_range_meters":24000,"station_id":"ce4bh012rcd13ifvqcv0","pricing_plan_id":"cebpf4jnsgd1na2vs0mg"},{"bike_id":"efa8f805-5135-43e8-aef0-fc140c426004","system_id":"levelo_inurba_marseille","lat":43.30588,"lon":5.39351,"is_reserved":false,"is_disabled":false,"rental_uris":{"android":"levelo://app?vid=efa8f805-5135-43e8-aef0-fc140c426004","ios":"levelo://app?vid=efa8f805-5135-43e8-aef0-fc140c426004"},"vehicle_type_id":"4","last_reported":1747393710,"current_range_meters":24000,"station_id":"ce4bh0p2rcd13ifvqd80","pricing_plan_id":"cebpf4jnsgd1na2vs0mg"},{"bike_id":"926551e9-4881-44e3-969e-901adbef5138","system_id":"levelo_inurba_marseille","lat":43.258119,"lon":5.394382,"is_reserved":false,"is_disabled":false,"rental_uris":{"android":"levelo://app?vid=926551e9-4881-44e3-969e-901adbef5138","ios":"levelo://app?vid=926551e9-4881-44e3-969e-901adbef5138"},"vehicle_type_id":"4","last_reported":1747393710,"current_range_meters":24000,"station_id":"ce4bhip2rcd13ifvqft0","pricing_plan_id":"cebpf4jnsgd1na2vs0mg"},{"bike_id":"2bb8c4f2-929c-4ce0-9fad-3a2b1895cfaa","system_id":"levelo_inurba_marseille","lat":43.31711,"lon":5.43713,"is_reserved":false,"is_disabled":false,"rental_uris":{"android":"levelo://app?vid=2bb8c4f2-929c-4ce0-9fad-3a2b1895cfaa","ios":"levelo://app?vid=2bb8c4f2-929c-4ce0-9fad-3a2b1895cfaa"},"vehicle_type_id":"4","last_reported":1747393710,"current_range_meters":24000,"station_id":"ce4bhp92rcd13ifvqhcg","pricing_plan_id":"cebpf4jnsgd1na2vs0mg"},{"bike_id":"54fb5dd7-8f21-4363-ada4-243d7bc95b3b","system_id":"levelo_inurba_marseille","lat":43.32654,"lon":5.40976,"is_reserved":false,"is_disabled":false,"rental_uris":{"android":"levelo://app?vid=54fb5dd7-8f21-4363-ada4-243d7bc95b3b","ios":"levelo://app?vid=54fb5dd7-8f21-4363-ada4-243d7bc95b3b"},"vehicle_type_id":"4","last_reported":1747393710,"current_range_meters":24000,"station_id":"ce4bhpp2rcd13ifvqhgg","pricing_plan_id":"cebpf4jnsgd1na2vs0mg"},{"bike_id":"ac5cf0e7-0047-4184-a947-61c1221a383b","system_id":"levelo_inurba_marseille","lat":43.32492,"lon":5.36538,"is_reserved":false,"is_disabled":false,"rental_uris":{"android":"levelo://app?vid=ac5cf0e7-0047-4184-a947-61c1221a383b","ios":"levelo://app?vid=ac5cf0e7-0047-4184-a947-61c1221a383b"},"vehicle_type_id":"4","last_reported":1747393710,"current_range_meters":24000,"station_id":"ce4bhs12rcd13ifvqhvg","pricing_plan_id":"cebpf4jnsgd1na2vs0mg"},{"bike_id":"fb92171a-2658-4d3f-aa8a-bf50b89efe44","system_id":"levelo_inurba_marseille","lat":43.29602,"lon":5.381037,"is_reserved":false,"is_disabled":false,"rental_uris":{"android":"levelo://app?vid=fb92171a-2658-4d3f-aa8a-bf50b89efe44","ios":"levelo://app?vid=fb92171a-2658-4d3f-aa8a-bf50b89efe44"},"vehicle_type_id":"4","last_reported":1747393710,"current_range_meters":24400,"station_id":"ce4bgl12rcd13ifvqbo0","pricing_plan_id":"cebpf4jnsgd1na2vs0mg"},{"bike_id":"c03c5b39-0ad3-4154-83c5-f757bc34c638","system_id":"levelo_inurba_marseille","lat":43.29931,"lon":5.36543,"is_reserved":false,"is_disabled":false,"rental_uris":{"android":"levelo://app?vid=c03c5b39-0ad3-4154-83c5-f757bc34c638","ios":"levelo://app?vid=c03c5b39-0ad3-4154-83c5-f757bc34c638"},"vehicle_type_id":"4","last_reported":1747393710,"current_range_meters":24400,"station_id":"ce4bgm92rcd13ifvqbr0","pricing_plan_id":"cebpf4jnsgd1na2vs0mg"},{"bike_id":"157b08e3-6a8c-44cb-ac16-b6dd3be076a6","system_id":"levelo_inurba_marseille","lat":43.309041,"lon":5.368581,"is_reserved":false,"is_disabled":false,"rental_uris":{"android":"levelo://app?vid=157b08e3-6a8c-44cb-ac16-b6dd3be076a6","ios":"levelo://app?vid=157b08e3-6a8c-44cb-ac16-b6dd3be076a6"},"vehicle_type_id":"4","last_reported":1747393710,"current_range_meters":24400,"station_id":"ce4bgn92rcd13ifvqbvg","pricing_plan_id":"cebpf4jnsgd1na2vs0mg"},{"bike_id":"ddfee8f5-eab7-4a84-bb96-1c5a2306f1c8","system_id":"levelo_inurba_marseille","lat":43.29863,"lon":5.36276,"is_reserved":false,"is_disabled":false,"rental_uris":{"android":"levelo://app?vid=ddfee8f5-eab7-4a84-bb96-1c5a2306f1c8","ios":"levelo://app?vid=ddfee8f5-eab7-4a84-bb96-1c5a2306f1c8"},"vehicle_type_id":"4","last_reported":1747393710,"current_range_meters":24400,"station_id":"ce4bgpp2rcd13ifvqc3g","pricing_plan_id":"cebpf4jnsgd1na2vs0mg"},{"bike_id":"06a9579f-bc4f-4f31-818c-09f04e310e5c","system_id":"levelo_inurba_marseille","lat":43.30184,"lon":5.36604,"is_reserved":false,"is_disabled":false,"rental_uris":{"android":"levelo://app?vid=06a9579f-bc4f-4f31-818c-09f04e310e5c","ios":"levelo://app?vid=06a9579f-bc4f-4f31-818c-09f04e310e5c"},"vehicle_type_id":"4","last_reported":1747393710,"current_range_meters":24400,"station_id":"ce4bgrh2rcd13ifvqc8g","pricing_plan_id":"cebpf4jnsgd1na2vs0mg"},{"bike_id":"c21e11ac-43c8-4a61-a797-7843f0bab45b","system_id":"levelo_inurba_marseille","lat":43.30465,"lon":5.37912,"is_reserved":false,"is_disabled":false,"rental_uris":{"android":"levelo://app?vid=c21e11ac-43c8-4a61-a797-7843f0bab45b","ios":"levelo://app?vid=c21e11ac-43c8-4a61-a797-7843f0bab45b"},"vehicle_type_id":"4","last_reported":1747393710,"current_range_meters":24400,"station_id":"ce4bgup2rcd13ifvqcn0","pricing_plan_id":"cebpf4jnsgd1na2vs0mg"},{"bike_id":"d0795646-2f28-4710-aaae-ad16ce61ecea","system_id":"levelo_inurba_marseille","lat":43.31164,"lon":5.38724,"is_reserved":false,"is_disabled":false,"rental_uris":{"android":"levelo://app?vid=d0795646-2f28-4710-aaae-ad16ce61ecea","ios":"levelo://app?vid=d0795646-2f28-4710-aaae-ad16ce61ecea"},"vehicle_type_id":"4","last_reported":1747393710,"current_range_meters":24400,"station_id":"ce4bgv12rcd13ifvqcp0","pricing_plan_id":"cebpf4jnsgd1na2vs0mg"},{"bike_id":"2f1f3b07-e8fb-4776-b7ff-f3fa9012a5ae","system_id":"levelo_inurba_marseille","lat":43.28939,"lon":5.39632,"is_reserved":false,"is_disabled":false,"rental_uris":{"android":"levelo://app?vid=2f1f3b07-e8fb-4776-b7ff-f3fa9012a5ae","ios":"levelo://app?vid=2f1f3b07-e8fb-4776-b7ff-f3fa9012a5ae"},"vehicle_type_id":"4","last_reported":1747393710,"current_range_meters":24400,"station_id":"ce4bh3h2rcd13ifvqdn0","pricing_plan_id":"cebpf4jnsgd1na2vs0mg"},{"bike_id":"37c0d506-b4b0-48b7-a0f5-a0c6af5ab361","system_id":"levelo_inurba_marseille","lat":43.29263,"lon":5.38441,"is_reserved":false,"is_disabled":false,"rental_uris":{"android":"levelo://app?vid=37c0d506-b4b0-48b7-a0f5-a0c6af5ab361","ios":"levelo://app?vid=37c0d506-b4b0-48b7-a0f5-a0c6af5ab361"},"vehicle_type_id":"4","last_reported":1747393710,"current_range_meters":24400,"station_id":"ce4bh692rcd13ifvqea0","pricing_plan_id":"cebpf4jnsgd1na2vs0mg"},{"bike_id":"84ab1ec4-307d-43b3-8d26-50f4675ac2f6","system_id":"levelo_inurba_marseille","lat":43.289441,"lon":5.36387,"is_reserved":false,"is_disabled":false,"rental_uris":{"android":"levelo://app?vid=84ab1ec4-307d-43b3-8d26-50f4675ac2f6","ios":"levelo://app?vid=84ab1ec4-307d-43b3-8d26-50f4675ac2f6"},"vehicle_type_id":"4","last_reported":1747393710,"current_range_meters":24400,"station_id":"ce4bhc92rcd13ifvqetg","pricing_plan_id":"cebpf4jnsgd1na2vs0mg"},{"bike_id":"19456222-7d38-48cf-a950-06daadd07927","system_id":"levelo_inurba_marseille","lat":43.2502,"lon":5.37538,"is_reserved":false,"is_disabled":false,"rental_uris":{"android":"levelo://app?vid=19456222-7d38-48cf-a950-06daadd07927","ios":"levelo://app?vid=19456222-7d38-48cf-a950-06daadd07927"},"vehicle_type_id":"4","last_reported":1747393710,"current_range_meters":24800,"station_id":"","pricing_plan_id":"cebpf4jnsgd1na2vs0mg"},{"bike_id":"c06df823-2c6a-4067-8690-8fead9e37ca0","system_id":"levelo_inurba_marseille","lat":43.29303,"lon":5.37178,"is_reserved":false,"is_disabled":false,"rental_uris":{"android":"levelo://app?vid=c06df823-2c6a-4067-8690-8fead9e37ca0","ios":"levelo://app?vid=c06df823-2c6a-4067-8690-8fead9e37ca0"},"vehicle_type_id":"4","last_reported":1747393710,"current_range_meters":24800,"station_id":"ce4bgh92rcd13ifvqb40","pricing_plan_id":"cebpf4jnsgd1na2vs0mg"},{"bike_id":"f7c3e971-f606-4491-aeac-414630cf7c7d","system_id":"levelo_inurba_marseille","lat":43.28351,"lon":5.38103,"is_reserved":false,"is_disabled":false,"rental_uris":{"android":"levelo://app?vid=f7c3e971-f606-4491-aeac-414630cf7c7d","ios":"levelo://app?vid=f7c3e971-f606-4491-aeac-414630cf7c7d"},"vehicle_type_id":"4","last_reported":1747393710,"current_range_meters":24800,"station_id":"ce4bh412rcd13ifvqdr0","pricing_plan_id":"cebpf4jnsgd1na2vs0mg"},{"bike_id":"60172f8e-fd51-4a42-91cf-9501a08f124a","system_id":"levelo_inurba_marseille","lat":43.29002,"lon":5.35621,"is_reserved":false,"is_disabled":false,"rental_uris":{"android":"levelo://app?vid=60172f8e-fd51-4a42-91cf-9501a08f124a","ios":"levelo://app?vid=60172f8e-fd51-4a42-91cf-9501a08f124a"},"vehicle_type_id":"4","last_reported":1747393710,"current_range_meters":24800,"station_id":"ce4bhb92rcd13ifvqen0","pricing_plan_id":"cebpf4jnsgd1na2vs0mg"},{"bike_id":"98be593b-8329-4ee1-959f-1029c485b999","system_id":"levelo_inurba_marseille","lat":43.26951,"lon":5.38645,"is_reserved":false,"is_disabled":false,"rental_uris":{"android":"levelo://app?vid=98be593b-8329-4ee1-959f-1029c485b999","ios":"levelo://app?vid=98be593b-8329-4ee1-959f-1029c485b999"},"vehicle_type_id":"4","last_reported":1747393710,"current_range_meters":24800,"station_id":"ce4bhh92rcd13ifvqfh0","pricing_plan_id":"cebpf4jnsgd1na2vs0mg"},{"bike_id":"87269db9-e664-4fd4-8aca-b82a2645ed7c","system_id":"levelo_inurba_marseille","lat":43.27571,"lon":5.38414,"is_reserved":false,"is_disabled":false,"rental_uris":{"android":"levelo://app?vid=87269db9-e664-4fd4-8aca-b82a2645ed7c","ios":"levelo://app?vid=87269db9-e664-4fd4-8aca-b82a2645ed7c"},"vehicle_type_id":"4","last_reported":1747393710,"current_range_meters":24800,"station_id":"ce4bhh92rcd13ifvqfi0","pricing_plan_id":"cebpf4jnsgd1na2vs0mg"},{"bike_id":"bc13e404-38c7-4432-91df-a60292d73c5b","system_id":"levelo_inurba_marseille","lat":43.25582,"lon":5.38228,"is_reserved":false,"is_disabled":false,"rental_uris":{"android":"levelo://app?vid=bc13e404-38c7-4432-91df-a60292d73c5b","ios":"levelo://app?vid=bc13e404-38c7-4432-91df-a60292d73c5b"},"vehicle_type_id":"4","last_reported":1747393710,"current_range_meters":24800,"station_id":"ce4bhih2rcd13ifvqfs0","pricing_plan_id":"cebpf4jnsgd1na2vs0mg"},{"bike_id":"24ade2f7-8cec-471e-8320-a11729ecd168","system_id":"levelo_inurba_marseille","lat":43.25931,"lon":5.40903,"is_reserved":false,"is_disabled":false,"rental_uris":{"android":"levelo://app?vid=24ade2f7-8cec-471e-8320-a11729ecd168","ios":"levelo://app?vid=24ade2f7-8cec-471e-8320-a11729ecd168"},"vehicle_type_id":"4","last_reported":1747393710,"current_range_meters":24800,"station_id":"ce4bhm92rcd13ifvqglg","pricing_plan_id":"cebpf4jnsgd1na2vs0mg"},{"bike_id":"5b131ac0-16cb-4e56-a901-a3d07a2622f2","system_id":"levelo_inurba_marseille","lat":43.27812,"lon":5.40709,"is_reserved":false,"is_disabled":false,"rental_uris":{"android":"levelo://app?vid=5b131ac0-16cb-4e56-a901-a3d07a2622f2","ios":"levelo://app?vid=5b131ac0-16cb-4e56-a901-a3d07a2622f2"},"vehicle_type_id":"4","last_reported":1747393710,"current_range_meters":24800,"station_id":"ce4bhnh2rcd13ifvqgtg","pricing_plan_id":"cebpf4jnsgd1na2vs0mg"},{"bike_id":"49605796-ac5b-4aac-995c-555d52f72f3e","system_id":"levelo_inurba_marseille","lat":43.28152,"lon":5.42642,"is_reserved":false,"is_disabled":false,"rental_uris":{"android":"levelo://app?vid=49605796-ac5b-4aac-995c-555d52f72f3e","ios":"levelo://app?vid=49605796-ac5b-4aac-995c-555d52f72f3e"},"vehicle_type_id":"4","last_reported":1747393710,"current_range_meters":24800,"station_id":"ce4bhnh2rcd13ifvqgug","pricing_plan_id":"cebpf4jnsgd1na2vs0mg"},