{"last_updated":1735222096,"ttl":60,"version":"2.2","data":{"bikes":[{"bike_id":"f13396d3-c33c-400b-a127-e49f2e63a62e","system_id":"levelo_inurba_marseille","lat":43.29422,"lon":5.38621,"is_reserved":false,"is_disabled":false,"rental_uris":{"android":"levelo://app?vid=f13396d3-c33c-400b-a127-e49f2e63a62e","ios":"levelo://app?vid=f13396d3-c33c-400b-a127-e49f2e63a62e"},"vehicle_type_id":"4","last_reported":1735222096,"current_range_meters":22000,"station_id":"ce4bh2h2rcd13ifvqdh0","pricing_plan_id":"cebpf4jnsgd1na2vs0mg"},{"bike_id":"69bbbc63-bfe0-4bb9-9cd7-5303ef8c5429","system_id":"levelo_inurba_marseille","lat":43.28978,"lon":5.37834,"is_reserved":false,"is_disabled":false,"rental_uris":{"android":"levelo://app?vid=69bbbc63-bfe0-4bb9-9cd7-5303ef8c5429","ios":"levelo://app?vid=69bbbc63-bfe0-4bb9-9cd7-5303ef8c5429"},"vehicle_type_id":"4","last_reported":1735222096,"current_range_meters":38000,"station_id":"ce4bh9p2rcd13ifvqed0","pricing_plan_id":"cebpf4jnsgd1na2vs0mg"},{"bike_id":"015f3506-0edf-4591-879e-490275f7a7d2","system_id":"levelo_inurba_marseille","lat":43.23963,"lon":5.36626,"is_reserved":false,"is_disabled":false,"rental_uris":{"android":"levelo://app?vid=015f3506-0edf-4591-879e-490275f7a7d2","ios":"levelo://app?vid=015f3506-0edf-4591-879e-490275f7a7d2"},"vehicle_type_id":"4","last_reported":1735222096,"current_range_meters":30400,"station_id":"ce4bhi12rcd13ifvqfp0","pricing_plan_id":"cebpf4jnsgd1na2vs0mg"},{"bike_id":"e42cadac-1a0a-4c38-a31c-f1cf7c6562c6","system_id":"levelo_inurba_marseille","lat":43.28489,"lon":5.38431,"is_reserved":false,"is_disabled":false,"rental_uris":{"android":"levelo://app?vid=e42cadac-1a0a-4c38-a31c-f1cf7c6562c6","ios":"levelo://app?vid=e42cadac-1a0a-4c38-a31c-f1cf7c6562c6"},"vehicle_type_id":"4","last_reported":1735222096,"current_range_meters":36800,"station_id":"ce4bh512rcd13ifvqe3g","pricing_plan_id":"cebpf4jnsgd1na2vs0mg"},{"bike_id":"09ebde6b-25a3-4c03-b15d-039b9892c347","system_id":"levelo_inurba_marseille","lat":43.27208,"lon":5.39173,"is_reserved":false,"is_disabled":false,"rental_uris":{"android":"levelo://app?vid=09ebde6b-25a3-4c03-b15d-039b9892c347","ios":"levelo://app?vid=09ebde6b-25a3-4c03-b15d-039b9892c347"},"vehicle_type_id":"4","last_reported":1735222096,"current_range_meters":23200,"station_id":"ce4bhhp2rcd13ifvqfm0","pricing_plan_id":"cebpf4jnsgd1na2vs0mg"},{"bike_id":"1f14806d-ae11-4061-998c-72dada3be529","system_id":"levelo_inurba_marseille","lat":43.28032,"lon":5.36948,"is_reserved":false,"is_disabled":false,"rental_uris":{"android":"levelo://app?vid=1f14806d-ae11-4061-998c-72dada3be529","ios":"levelo://app?vid=1f14806d-ae11-4061-998c-72dada3be529"},"vehicle_type_id":"4","last_reported":1735222096,"current_range_meters":38800,"station_id":"ce4bha12rcd13ifvqef0","pricing_plan_id":"cebpf4jnsgd1na2vs0mg"},{"bike_id":"2033b327-8c9f-4ebb-9a58-327b5ce05272","system_id":"levelo_inurba_marseille","lat":43.31687,"lon":5.40474,"is_reserved":false,"is_disabled":false,"rental_uris":{"android":"levelo://app?vid=2033b327-8c9f-4ebb-9a58-327b5ce05272","ios":"levelo://app?vid=2033b327-8c9f-4ebb-9a58-327b5ce05272"},"vehicle_type_id":"4","last_reported":1735222096,"current_range_meters":30800,"station_id":"ce4bh012rcd13ifvqd00","pricing_plan_id":"cebpf4jnsgd1na2vs0mg"},{"bike_id":"c4104ae7-6d71-4ed6-97ba-cf7a171100c7","system_id":"levelo_inurba_marseille","lat":43.30938,"lon":5.40154,"is_reserved":false,"is_disabled":false,"rental_uris":{"android":"levelo://app?vid=c4104ae7-6d71-4ed6-97ba-cf7a171100c7","ios":"levelo://app?vid=c4104ae7-6d71-4ed6-97ba-cf7a171100c7"},"vehicle_type_id":"4","last_reported":1735222096,"current_range_meters":25600,"station_id":"ce4bgvp2rcd13ifvqct0","pricing_plan_id":"cebpf4jnsgd1na2vs0mg"},{"bike_id":"d8c854c6-f7ad-479f-bd7b-eeaa7e4fcc66","system_id":"levelo_inurba_marseille","lat":43.28363,"lon":5.38632,"is_reserved":false,"is_disabled":false,"rental_uris":{"android":"levelo://app?vid=d8c854c6-f7ad-479f-bd7b-eeaa7e4fcc66","ios":"levelo://app?vid=d8c854c6-f7ad-479f-bd7b-eeaa7e4fcc66"},"vehicle_type_id":"4","last_reported":1735222096,"current_range_meters":39200,"station_id":"ce4bh492rcd13ifvqdvg","pricing_plan_id":"cebpf4jnsgd1na2vs0mg"},{"bike_id":"e466eb3a-3291-451c-abf2-2b0e751b4651","system_id":"levelo_inurba_marseille","lat":43.33597,"lon":5.4099,"is_reserved":false,"is_disabled":false,"rental_uris":{"android":"levelo://app?vid=e466eb3a-3291-451c-abf2-2b0e751b4651","ios":"levelo://app?vid=e466eb3a-3291-451c-abf2-2b0e751b4651"},"vehicle_type_id":"4","last_reported":1735222096,"current_range_meters":37600,"station_id":"ce4bhqh2rcd13ifvqhmg","pricing_plan_id":"cebpf4jnsgd1na2vs0mg"},{"bike_id":"d0bd85f8-be15-4d35-b411-aa7db25104d6","system_id":"levelo_inurba_marseille","lat":43.24547,"lon":5.39523,"is_reserved":false,"is_disabled":false,"rental_uris":{"android":"levelo://app?vid=d0bd85f8-be15-4d35-b411-aa7db25104d6","ios":"levelo://app?vid=d0bd85f8-be15-4d35-b411-aa7db25104d6"},"vehicle_type_id":"4","last_reported":1735222096,"current_range_meters":39200,"station_id":"ce4bhlp2rcd13ifvqgjg","pricing_plan_id":"cebpf4jnsgd1na2vs0mg"},{"bike_id":"fb83f742-e90f-4d0b-ba4a-f0317cadcdd0","system_id":"levelo_inurba_marseille","lat":43.24654,"lon":5.38917,"is_reserved":false,"is_disabled":false,"rental_uris":{"android":"levelo://app?vid=fb83f742-e90f-4d0b-ba4a-f0317cadcdd0","ios":"levelo://app?vid=fb83f742-e90f-4d0b-ba4a-f0317cadcdd0"},"vehicle_type_id":"4","last_reported":1735222096,"current_range_meters":38800,"station_id":"ce4bhg12rcd13ifvqf60","pricing_plan_id":"cebpf4jnsgd1na2vs0mg"},{"bike_id":"a14d744f-7e07-417c-ab27-34286df72687","system_id":"levelo_inurba_marseille","lat":43.23195,"lon":5.35544,"is_reserved":false,"is_disabled":false,"rental_uris":{"android":"levelo://app?vid=a14d744f-7e07-417c-ab27-34286df72687","ios":"levelo://app?vid=a14d744f-7e07-417c-ab27-34286df72687"},"vehicle_type_id":"4","last_reported":1735222096,"current_range_meters":8000,"station_id":"ce4bhu92rcd13ifvqi70","pricing_plan_id":"cebpf4jnsgd1na2vs0mg"},{"bike_id":"005093bd-bc75-4130-9b81-85c3a4edf08f","system_id":"levelo_inurba_marseille","lat":43.27221,"lon":5.39179,"is_reserved":false,"is_disabled":false,"rental_uris":{"android":"levelo://app?vid=005093bd-bc75-4130-9b81-85c3a4edf08f","ios":"levelo://app?vid=005093bd-bc75-4130-9b81-85c3a4edf08f"},"vehicle_type_id":"4","last_reported":1735222096,"current_range_meters":36000,"station_id":"ce4bhhp2rcd13ifvqfm0","pricing_plan_id":"cebpf4jnsgd1na2vs0mg"},{"bike_id":"b9c83c83-cf96-4e57-b709-6459d0acaf9f","system_id":"levelo_inurba_marseille","lat":43.26806,"lon":5.40255,"is_reserved":false,"is_disabled":false,"rental_uris":{"android":"levelo://app?vid=b9c83c83-cf96-4e57-b709-6459d0acaf9f","ios":"levelo://app?vid=b9c83c83-cf96-4e57-b709-6459d0acaf9f"},"vehicle_type_id":"4","last_reported":1735222096,"current_range_meters":38800,"station_id":"ce501612rcd8frsf0b60","pricing_plan_id":"cebpf4jnsgd1na2vs0mg"},{"bike_id":"23267f0c-d6e2-43b6-8e8d-d55180155fcc","system_id":"levelo_inurba_marseille","lat":43.29923,"lon":5.37464,"is_reserved":false,"is_disabled":false,"rental_uris":{"android":"levelo://app?vid=23267f0c-d6e2-43b6-8e8d-d55180155fcc","ios":"levelo://app?vid=23267f0c-d6e2-43b6-8e8d-d55180155fcc"},"vehicle_type_id":"4","last_reported":1735222096,"current_range_meters":27200,"station_id":"ce4bgjh2rcd13ifvqbg0","pricing_plan_id":"cebpf4jnsgd1na2vs0mg"},{"bike_id":"b6ee9d6c-d1bd-4127-85e6-8d4ce3209754","system_id":"levelo_inurba_marseille","lat":43.31381,"lon":5.36739,"is_reserved":false,"is_disabled":false,"rental_uris":{"android":"levelo://app?vid=b6ee9d6c-d1bd-4127-85e6-8d4ce3209754","ios":"levelo://app?vid=b6ee9d6c-d1bd-4127-85e6-8d4ce3209754"},"vehicle_type_id":"4","last_reported":1735222096,"current_range_meters":38800,"station_id":"ce4bgr92rcd13ifvqc6g","pricing_plan_id":"cebpf4jnsgd1na2vs0mg"},{"bike_id":"d4663405-bee1-476b-a9e6-b188d9eda682","system_id":"levelo_inurba_marseille","lat":43.30378,"lon":5.36723,"is_reserved":false,"is_disabled":false,"rental_uris":{"android":"levelo://app?vid=d4663405-bee1-476b-a9e6-b188d9eda682","ios":"levelo://app?vid=d4663405-bee1-476b-a9e6-b188d9eda682"},"vehicle_type_id":"4","last_reported":1735222096,"current_range_meters":36400,"station_id":"","pricing_plan_id":"cebpf4jnsgd1na2vs0mg"},{"bike_id":"d738dcc0-dcb3-4279-a221-a0d2fe0266cf","system_id":"levelo_inurba_marseille","lat":43.2862,"lon":5.35104,"is_reserved":false,"is_disabled":false,"rental_uris":{"android":"levelo://app?vid=d738dcc0-dcb3-4279-a221-a0d2fe0266cf","ios":"levelo://app?vid=d738dcc0-dcb3-4279-a221-a0d2fe0266cf"},"vehicle_type_id":"4","last_reported":1735222096,"current_range_meters":36400,"station_id":"ce4bhch2rcd13ifvqeug","pricing_plan_id":"cebpf4jnsgd1na2vs0mg"},{"bike_id":"f73ca4ca-7ee5-49ee-a13f-4c38cd424d82","system_id":"levelo_inurba_marseille","lat":43.30878,"lon":5.37191,"is_reserved":false,"is_disabled":false,"rental_uris":{"android":"levelo://app?vid=f73ca4ca-7ee5-49ee-a13f-4c38cd424d82","ios":"levelo://app?vid=f73ca4ca-7ee5-49ee-a13f-4c38cd424d82"},"vehicle_type_id":"4","last_reported":1735222096,"current_range_meters":16000,"station_id":"ce4bguh2rcd13ifvqckg","pricing_plan_id":"cebpf4jnsgd1na2vs0mg"},{"bike_id":"ff891e39-252b-4d4e-8692-37efe0bea514","system_id":"levelo_inurba_marseille","lat":43.27943,"lon":5.41052,"is_reserved":false,"is_disabled":true,"rental_uris":{"android":"levelo://app?vid=ff891e39-252b-4d4e-8692-37efe0bea514","ios":"levelo://app?vid=ff891e39-252b-4d4e-8692-37efe0bea514"},"vehicle_type_id":"4","last_reported":1735222096,"current_range_meters":0,"station_id":"ce4bhnp2rcd13ifvqh0g","pricing_plan_id":"cebpf4jnsgd1na2vs0mg"},{"bike_id":"fae4ce0f-3f83-469f-8019-b63e7c084b20","system_id":"levelo_inurba_marseille","lat":43.3035,"lon":5.4188,"is_reserved":false,"is_disabled":false,"rental_uris":{"android":"levelo://app?vid=fae4ce0f-3f83-469f-8019-b63e7c084b20","ios":"levelo://app?vid=fae4ce0f-3f83-469f-8019-b63e7c084b20"},"vehicle_type_id":"4","last_reported":1735222096,"current_range_meters":38800,"station_id":"ce4bhop2rcd13ifvqh7g","pricing_plan_id":"cebpf4jnsgd1na2vs0mg"},{"bike_id":"54e82adf-653a-40bc-8212-b0e67d34d16f","system_id":"levelo_inurba_marseille","lat":43.29925,"lon":5.36536,"is_reserved":false,"is_disabled":false,"rental_uris":{"android":"levelo://app?vid=54e82adf-653a-40bc-8212-b0e67d34d16f","ios":"levelo://app?vid=54e82adf-653a-40bc-8212-b0e67d34d16f"},"vehicle_type_id":"4","last_reported":1735222096,"current_range_meters":14400,"station_id":"ce4bgm92rcd13ifvqbr0","pricing_plan_id":"cebpf4jnsgd1na2vs0mg"},{"bike_id":"7bf56867-f147-4165-89ee-4c8ea1ec9c93","system_id":"levelo_inurba_marseille","lat":43.299,"lon":5.43642,"is_reserved":false,"is_disabled":false,"rental_uris":{"android":"levelo://app?vid=7bf56867-f147-4165-89ee-4c8ea1ec9c93","ios":"levelo://app?vid=7bf56867-f147-4165-89ee-4c8ea1ec9c93"},"vehicle_type_id":"4","last_reported":1735222096,"current_range_meters":38000,"station_id":"ce4bhpp2rcd13ifvqhfg","pricing_plan_id":"cebpf4jnsgd1na2vs0mg"},{"bike_id":"857344dd-6be1-4d34-90e7-6f62afbbef2e","system_id":"levelo_inurba_marseille","lat":43.32102,"lon":5.36775,"is_reserved":false,"is_disabled":false,"rental_uris":{"android":"levelo://app?vid=857344dd-6be1-4d34-90e7-6f62afbbef2e","ios":"levelo://app?vid=857344dd-6be1-4d34-90e7-6f62afbbef2e"},"vehicle_type_id":"4","last_reported":1735222096,"current_range_meters":11200,"station_id":"ce4bhrh2rcd13ifvqhug","pricing_plan_id":"cebpf4jnsgd1na2vs0mg"},{"bike_id":"8bb784aa-04c9-4996-8ca8-ea4b00c12859","system_id":"levelo_inurba_marseille","lat":43.30214,"lon":5.36689,"is_reserved":false,"is_disabled":false,"rental_uris":{"android":"levelo://app?vid=8bb784aa-04c9-4996-8ca8-ea4b00c12859","ios":"levelo://app?vid=8bb784aa-04c9-4996-8ca8-ea4b00c12859"},"vehicle_type_id":"4","last_reported":1735222096,"current_range_meters":38800,"station_id":"ce4bgrh2rcd13ifvqc8g","pricing_plan_id":"cebpf4jnsgd1na2vs0mg"},{"bike_id":"951a83bc-231c-4e2b-af1d-5ef0d5c3ed80","system_id":"levelo_inurba_marseille","lat":43.29017,"lon":5.3813,"is_reserved":false,"is_disabled":false,"rental_uris":{"android":"levelo://app?vid=951a83bc-231c-4e2b-af1d-5ef0d5c3ed80","ios":"levelo://app?vid=951a83bc-231c-4e2b-af1d-5ef0d5c3ed80"},"vehicle_type_id":"4","last_reported":1735222096,"current_range_meters":38800,"station_id":"ce4bh4p2rcd13ifvqe1g","pricing_plan_id":"cebpf4jnsgd1na2vs0mg"},{"bike_id":"f3aa85d1-5b96-49f5-a947-7c68fe96a831","system_id":"levelo_inurba_marseille","lat":43.31271,"lon":5.40177,"is_reserved":false,"is_disabled":false,"rental_uris":{"android":"levelo://app?vid=f3aa85d1-5b96-49f5-a947-7c68fe96a831","ios":"levelo://app?vid=f3aa85d1-5b96-49f5-a947-7c68fe96a831"},"vehicle_type_id":"4","last_reported":1735222096,"current_range_meters":17600,"station_id":"ce4bh092rcd13ifvqd30","pricing_plan_id":"cebpf4jnsgd1na2vs0mg"},{"bike_id":"339e8ad4-791e-4eed-95f5-5daf1624bc49","system_id":"levelo_inurba_marseille","lat":43.28941,"lon":5.36639,"is_reserved":false,"is_disabled":false,"rental_uris":{"android":"levelo://app?vid=339e8ad4-791e-4eed-95f5-5daf1624bc49","ios":"levelo://app?vid=339e8ad4-791e-4eed-95f5-5daf1624bc49"},"vehicle_type_id":"4","last_reported":1735222096,"current_range_meters":32000,"station_id":"ce4bhap2rcd13ifvqek0","pricing_plan_id":"cebpf4jnsgd1na2vs0mg"},{"bike_id":"7b937713-f03e-4c7d-991e-8f9ccabc7439","system_id":"levelo_inurba_marseille","lat":43.24163,"lon":5.36394,"is_reserved":false,"is_disabled":false,"rental_uris":{"android":"levelo://app?vid=7b937713-f03e-4c7d-991e-8f9ccabc7439","ios":"levelo://app?vid=7b937713-f03e-4c7d-991e-8f9ccabc7439"},"vehicle_type_id":"4","last_reported":1735222096,"current_range_meters":8400,"station_id":"cpo36qri1sfpv3e86is0","pricing_plan_id":"cebpf4jnsgd1na2vs0mg"},{"bike_id":"42d69e0f-677d-4c54-b003-b8dbc3ab5c0a","system_id":"levelo_inurba_marseille","lat":43.30355,"lon":5.4188,"is_reserved":false,"is_disabled":false,"rental_uris":{"android":"levelo://app?vid=42d69e0f-677d-4c54-b003-b8dbc3ab5c0a","ios":"levelo://app?vid=42d69e0f-677d-4c54-b003-b8dbc3ab5c0a"},"vehicle_type_id":"4","last_reported":1735222096,"current_range_meters":37600,"station_id":"ce4bhop2rcd13ifvqh7g","pricing_plan_id":"cebpf4jnsgd1na2vs0mg"},{"bike_id":"ad66ce9d-e2b2-4064-ae7f-fe87403c632b","system_id":"levelo_inurba_marseille","lat":43.23069,"lon":5.35502,"is_reserved":false,"is_disabled":false,"rental_uris":{"android":"levelo://app?vid=ad66ce9d-e2b2-4064-ae7f-fe87403c632b","ios":"levelo://app?vid=ad66ce9d-e2b2-4064-ae7f-fe87403c632b"},"vehicle_type_id":"4","last_reported":1735222096,"current_range_meters":28400,"station_id":"cpo3342slgdg3j2ifvpg","pricing_plan_id":"cebpf4jnsgd1na2vs0mg"},{"bike_id":"b6ec5363-ad8a-429c-ac44-0f88644efa3a","system_id":"levelo_inurba_marseille","lat":43.27214,"lon":5.39203,"is_reserved":false,"is_disabled":false,"rental_uris":{"android":"levelo://app?vid=b6ec5363-ad8a-429c-ac44-0f88644efa3a","ios":"levelo://app?vid=b6ec5363-ad8a-429c-ac44-0f88644efa3a"},"vehicle_type_id":"4","last_reported":1735222096,"current_range_meters":10000,"station_id":"ce4bhhp2rcd13ifvqfm0","pricing_plan_id":"cebpf4jnsgd1na2vs0mg"},{"bike_id":"8dc7feae-e456-496f-bc14-7216ececc50e","system_id":"levelo_inurba_marseille","lat":43.29571,"lon":5.37498,"is_reserved":false,"is_disabled":false,"rental_uris":{"android":"levelo://app?vid=8dc7feae-e456-496f-bc14-7216ececc50e","ios":"levelo://app?vid=8dc7feae-e456-496f-bc14-7216ececc50e"},"vehicle_type_id":"4","last_reported":1735222096,"current_range_meters":19600,"station_id":"ce4bgh92rcd13ifvqb50","pricing_plan_id":"cebpf4jnsgd1na2vs0mg"},{"bike_id":"2eb6fc33-a13d-48fd-a922-9b89b632b88e","system_id":"levelo_inurba_marseille","lat":43.29914,"lon":5.37472,"is_reserved":false,"is_disabled":false,"rental_uris":{"android":"levelo://app?vid=2eb6fc33-a13d-48fd-a922-9b89b632b88e","ios":"levelo://app?vid=2eb6fc33-a13d-48fd-a922-9b89b632b88e"},"vehicle_type_id":"4","last_reported":1735222096,"current_range_meters":34000,"station_id":"ce4bgjh2rcd13ifvqbg0","pricing_plan_id":"cebpf4jnsgd1na2vs0mg"},{"bike_id":"cde5a6f0-d593-42b1-864e-b923ad3f4516","system_id":"levelo_inurba_marseille","lat":43.30581,"lon":5.39353,"is_reserved":false,"is_disabled":false,"rental_uris":{"android":"levelo://app?vid=cde5a6f0-d593-42b1-864e-b923ad3f4516","ios":"levelo://app?vid=cde5a6f0-d593-42b1-864e-b923ad3f4516"},"vehicle_type_id":"4","last_reported":1735222096,"current_range_meters":33600,"station_id":"ce4bh0p2rcd13ifvqd80","pricing_plan_id":"cebpf4jnsgd1na2vs0mg"},{"bike_id":"d0533ccb-11ce-46dc-9cca-daa9f7a4985a","system_id":"levelo_inurba_marseille","lat":43.29553,"lon":5.42289,"is_reserved":false,"is_disabled":false,"rental_uris":{"android":"levelo://app?vid=d0533ccb-11ce-46dc-9cca-daa9f7a4985a","ios":"levelo://app?vid=d0533ccb-11ce-46dc-9cca-daa9f7a4985a"},"vehicle_type_id":"4","last_reported":1735222096,"current_range_meters":38800,"station_id":"ce4bhph2rcd13ifvqhdg","pricing_plan_id":"cebpf4jnsgd1na2vs0mg"},{"bike_id":"70736600-4e4d-4f00-8b12-c697e0da57c9","system_id":"levelo_inurba_marseille","lat":43.29571,"lon":5.37499,"is_reserved":false,"is_disabled":false,"rental_uris":{"android":"levelo://app?vid=70736600-4e4d-4f00-8b12-c697e0da57c9","ios":"levelo://app?vid=70736600-4e4d-4f00-8b12-c697e0da57c9"},"vehicle_type_id":"4","last_reported":1735222096,"current_range_meters":36400,"station_id":"ce4bgh92rcd13ifvqb50","pricing_plan_id":"cebpf4jnsgd1na2vs0mg"},{"bike_id":"f298c7ec-8410-4753-bbca-f7b98c093090","system_id":"levelo_inurba_marseille","lat":43.2961,"lon":5.38111,"is_reserved":false,"is_disabled":false,"rental_uris":{"android":"levelo://app?vid=f298c7ec-8410-4753-bbca-f7b98c093090","ios":"levelo://app?vid=f298c7ec-8410-4753-bbca-f7b98c093090"},"vehicle_type_id":"4","last_reported":1735222096,"current_range_meters":26000,"station_id":"ce4bgl12rcd13ifvqbo0","pricing_plan_id":"cebpf4jnsgd1na2vs0mg"},{"bike_id":"123f768b-fd19-40b2-8801-02690e0fc8b3","system_id":"levelo_inurba_marseille","lat":43.31292,"lon":5.40177,"is_reserved":false,"is_disabled":false,"rental_uris":{"android":"levelo://app?vid=123f768b-fd19-40b2-8801-02690e0fc8b3","ios":"levelo://app?vid=123f768b-fd19-40b2-8801-02690e0fc8b3"},"vehicle_type_id":"4","last_reported":1735222096,"current_range_meters":23200,"station_id":"ce4bh092rcd13ifvqd30","pricing_plan_id":"cebpf4jnsgd1na2vs0mg"},{"bike_id":"b32fb18a-c8a8-4404-98aa-9a585746a89d","system_id":"levelo_inurba_marseille","lat":43.32071,"lon":5.41538,"is_reserved":false,"is_disabled":false,"rental_uris":{"android":"levelo://app?vid=b32fb18a-c8a8-4404-98aa-9a585746a89d","ios":"levelo://app?vid=b32fb18a-c8a8-4404-98aa-9a585746a89d"},"vehicle_type_id":"4","last_reported":1735222096,"current_range_meters":32400,"station_id":"ce4bhq92rcd13ifvqhkg","pricing_plan_id":"cebpf4jnsgd1na2vs0mg"},{"bike_id":"186ab767-dd05-4b5f-9fb0-dc469dc690ba","system_id":"levelo_inurba_marseille","lat":43.2454,"lon":5.39529,"is_reserved":false,"is_disabled":false,"rental_uris":{"android":"levelo://app?vid=186ab767-dd05-4b5f-9fb0-dc469dc690ba","ios":"levelo://app?vid=186ab767-dd05-4b5f-9fb0-dc469dc690ba"},"vehicle_type_id":"4","last_reported":1735222096,"current_range_meters":22000,"station_id":"ce4bhlp2rcd13ifvqgjg","pricing_plan_id":"cebpf4jnsgd1na2vs0mg"},{"bike_id":"7ca2e3d6-4ca3-4d99-b34e-9fb53337dde8","system_id":"levelo_inurba_marseille","lat":43.24166,"lon":5.36388,"is_reserved":false,"is_disabled":false,"rental_uris":{"android":"levelo://app?vid=7ca2e3d6-4ca3-4d99-b34e-9fb53337dde8","ios":"levelo://app?vid=7ca2e3d6-4ca3-4d99-b34e-9fb53337dde8"},"vehicle_type_id":"4","last_reported":1735222096,"current_range_meters":12400,"station_id":"cpo36qri1sfpv3e86is0","pricing_plan_id":"cebpf4jnsgd1na2vs0mg"},{"bike_id":"61b6d437-e950-46a2-8cbf-76c4bc393d6f","system_id":"levelo_inurba_marseille","lat":43.27075,"lon":5.42272,"is_reserved":false,"is_disabled":false,"rental_uris":{"android":"levelo://app?vid=61b6d437-e950-46a2-8cbf-76c4bc393d6f","ios":"levelo://app?vid=61b6d437-e950-46a2-8cbf-76c4bc393d6f"},"vehicle_type_id":"4","last_reported":1735222096,"current_range_meters":9600,"station_id":"ce4bhk92rcd13ifvqgb0","pricing_plan_id":"cebpf4jnsgd1na2vs0mg"},{"bike_id":"ee09bb5a-418e-4e4b-aa9d-02cb6f33df58","system_id":"levelo_inurba_marseille","lat":43.3021,"lon":5.39476,"is_reserved":false,"is_disabled":false,"rental_uris":{"android":"levelo://app?vid=ee09bb5a-418e-4e4b-aa9d-02cb6f33df58","ios":"levelo://app?vid=ee09bb5a-418e-4e4b-aa9d-02cb6f33df58"},"vehicle_type_id":"4","last_reported":1735222096,"current_range_meters":37600,"station_id":"ce4bh0p2rcd13ifvqd70","pricing_plan_id":"cebpf4jnsgd1na2vs0mg"},{"bike_id":"d969c848-adad-4430-86e8-c7bf7606a0a8","system_id":"levelo_inurba_marseille","lat":43.3013,"lon":5.39851,"is_reserved":false,"is_disabled":false,"rental_uris":{"android":"levelo://app?vid=d969c848-adad-4430-86e8-c7bf7606a0a8","ios":"levelo://app?vid=d969c848-adad-4430-86e8-c7bf7606a0a8"},"vehicle_type_id":"4","last_reported":1735222096,"current_range_meters":31200,"station_id":"ce4bh0h2rcd13ifvqd40","pricing_plan_id":"cebpf4jnsgd1na2vs0mg"},{"bike_id":"7ec3319e-e8cc-404b-a9a7-29fe820e2e42","system_id":"levelo_inurba_marseille","lat":43.26206,"lon":5.37444,"is_reserved":false,"is_disabled":false,"rental_uris":{"android":"levelo://app?vid=7ec3319e-e8cc-404b-a9a7-29fe820e2e42","ios":"levelo://app?vid=7ec3319e-e8cc-404b-a9a7-29fe820e2e42"},"vehicle_type_id":"4","last_reported":1735222096,"current_range_meters":20400,"station_id":"ce4bhgp2rcd13ifvqfc0","pricing_plan_id":"cebpf4jnsgd1na2vs0mg"},{"bike_id":"23e25e04-dd29-4836-8ab5-f117edae0dca","system_id":"levelo_inurba_marseille","lat":43.30138,"lon":5.37404,"is_reserved":false,"is_disabled":false,"rental_uris":{"android":"levelo://app?vid=23e25e04-dd29-4836-8ab5-f117edae0dca","ios":"levelo://app?vid=23e25e04-dd29-4836-8ab5-f117edae0dca"},"vehicle_type_id":"4","last_reported":1735222096,"current_range_meters":39200,"station_id":"ce4bgs92rcd13ifvqcc0","pricing_plan_id":"cebpf4jnsgd1na2vs0mg"},{"bike_id":"fe52f4f5-8d2b-41ec-a147-2c223f58d454","system_id":"levelo_inurba_marseille","lat":43.29201,"lon":5.39321,"is_reserved":false,"is_disabled":false,"rental_uris":{"android":"levelo://app?vid=fe52f4f5-8d2b-41ec-a147-2c223f58d454","ios":"levelo://app?vid=fe52f4f5-8d2b-41ec-a147-2c223f58d454"},"vehicle_type_id":"4","last_reported":1735222096,"current_range_meters":38000,"station_id":"ce4bh192rcd13ifvqdd0","pricing_plan_id":"cebpf4jnsgd1na2vs0mg"},{"bike_id":"c97e8bb4-ad61-447a-855c-97d32844b185","system_id":"levelo_inurba_marseille","lat":43.28849,"lon":5.35862,"is_reserved":false,"is_disabled":false,"rental_uris":{"android":"levelo://app?vid=c97e8bb4-ad61-447a-855c-97d32844b185","ios":"levelo://app?vid=c97e8bb4-ad61-447a-855c-97d32844b185"},"vehicle_type_id":"4","last_reported":1735222096,"current_range_meters":34000,"station_id":"ce4bhb12rcd13ifvqem0","pricing_plan_id":"cebpf4jnsgd1na2vs0mg"},{"bike_id":"f028e1f0-c45c-4143-989d-76054351adec","system_id":"levelo_inurba_marseille","lat":43.27671,"lon":5.38891,"is_reserved":false,"is_disabled":false,"rental_uris":{"android":"levelo://app?vid=f028e1f0-c45c-4143-989d-76054351adec","ios":"levelo://app?vid=f028e1f0-c45c-4143-989d-76054351adec"},"vehicle_type_id":"4","last_reported":1735222096,"current_range_meters":37600,"station_id":"ce4bhi12rcd13ifvqfo0","pricing_plan_id":"cebpf4jnsgd1na2vs0mg"},{"bike_id":"e858a2c9-48d6-4be1-a05b-c2746c310003","system_id":"levelo_inurba_marseille","lat":43.31764,"lon":5.39013,"is_reserved":false,"is_disabled":false,"rental_uris":{"android":"levelo://app?vid=e858a2c9-48d6-4be1-a05b-c2746c310003","ios":"levelo://app?vid=e858a2c9-48d6-4be1-a05b-c2746c310003"},"vehicle_type_id":"4","last_reported":1735222096,"current_range_meters":37600,"station_id":"ce4bhqp2rcd13ifvqhng","pricing_plan_id":"cebpf4jnsgd1na2vs0mg"},{"bike_id":"23f223a7-cc44-4227-b5c8-9b31a8c11b36","system_id":"levelo_inurba_marseille","lat":43.32047,"lon":5.41561,"is_reserved":false,"is_disabled":false,"rental_uris":{"android":"levelo://app?vid=23f223a7-cc44-4227-b5c8-9b31a8c11b36","ios":"levelo://app?vid=23f223a7-cc44-4227-b5c8-9b31a8c11b36"},"vehicle_type_id":"4","last_reported":1735222096,"current_range_meters":26000,"station_id":"ce4bhq92rcd13ifvqhkg","pricing_plan_id":"cebpf4jnsgd1na2vs0mg"},{"bike_id":"3701eb95-119a-4459-b81e-05c7e3d2c3f0","system_id":"levelo_inurba_marseille","lat":43.31232,"lon":5.36862,"is_reserved":false,"is_disabled":false,"rental_uris":{"android":"levelo://app?vid=3701eb95-119a-4459-b81e-05c7e3d2c3f0","ios":"levelo://app?vid=3701eb95-119a-4459-b81e-05c7e3d2c3f0"},"vehicle_type_id":"4","last_reported":1735222096,"current_range_meters":24800,"station_id":"ce4bgl92rcd13ifvqbq0","pricing_plan_id":"cebpf4jnsgd1na2vs0mg"},{"bike_id":"af6e3489-9e1d-400c-99e8-75b160778072","system_id":"levelo_inurba_marseille","lat":43.30878,"lon":5.3721,"is_reserved":false,"is_disabled":false,"rental_uris":{"android":"levelo://app?vid=af6e3489-9e1d-400c-99e8-75b160778072","ios":"levelo://app?vid=af6e3489-9e1d-400c-99e8-75b160778072"},"vehicle_type_id":"4","last_reported":1735222096,"current_range_meters":15200,"station_id":"ce4bguh2rcd13ifvqckg","pricing_plan_id":"cebpf4jnsgd1na2vs0mg"},{"bike_id":"aefc4ad1-7b2f-4fcb-a9c2-71d08d505f0e","system_id":"levelo_inurba_marseille","lat":43.24664,"lon":5.38153,"is_reserved":false,"is_disabled":false,"rental_uris":{"android":"levelo://app?vid=aefc4ad1-7b2f-4fcb-a9c2-71d08d505f0e","ios":"levelo://app?vid=aefc4ad1-7b2f-4fcb-a9c2-71d08d505f0e"},"vehicle_type_id":"4","last_reported":1735222096,"current_range_meters":34000,"station_id":"ce4bhih2rcd13ifvqfr0","pricing_plan_id":"cebpf4jnsgd1na2vs0mg"},{"bike_id":"fa7b6f51-07ff-4e1f-ba75-2880fb9ee1b2","system_id":"levelo_inurba_marseille","lat":43.24165,"lon":5.36418,"is_reserved":false,"is_disabled":false,"rental_uris":{"android":"levelo://app?vid=fa7b6f51-07ff-4e1f-ba75-2880fb9ee1b2","ios":"levelo://app?vid=fa7b6f51-07ff-4e1f-ba75-2880fb9ee1b2"},"vehicle_type_id":"4","last_reported":1735222096,"current_range_meters":27200,"station_id":"cpo36qri1sfpv3e86is0","pricing_plan_id":"cebpf4jnsgd1na2vs0mg"},{"bike_id":"a0898d4b-2086-47da-9ba0-4953b8186d9a","system_id":"levelo_inurba_marseille","lat":43.23963,"lon":5.36628,"is_reserved":false,"is_disabled":false,"rental_uris":{"android":"levelo://app?vid=a0898d4b-2086-47da-9ba0-4953b8186d9a","ios":"levelo://app?vid=a0898d4b-2086-47da-9ba0-4953b8186d9a"},"vehicle_type_id":"4","last_reported":1735222096,"current_range_meters":16400,"station_id":"ce4bhi12rcd13ifvqfp0","pricing_plan_id":"cebpf4jnsgd1na2vs0mg"},{"bike_id":"f3b289ca-6888-4f9e-97d7-6cfa987bc296","system_id":"levelo_inurba_marseille","lat":43.27374,"lon":5.36258,"is_reserved":false,"is_disabled":false,"rental_uris":{"android":"levelo://app?vid=f3b289ca-6888-4f9e-97d7-6cfa987bc296","ios":"levelo://app?vid=f3b289ca-6888-4f9e-97d7-6cfa987bc296"},"vehicle_type_id":"4","last_reported":1735222096,"current_range_meters":32400,"station_id":"ce4bhbh2rcd13ifvqeo0","pricing_plan_id":"cebpf4jnsgd1na2vs0mg"},{"bike_id":"3484b42b-fb92-4df7-950c-ba5afdfbc366","system_id":"levelo_inurba_marseille","lat":43.28,"lon":5.40014,"is_reserved":false,"is_disabled":false,"rental_uris":{"android":"levelo://app?vid=3484b42b-fb92-4df7-950c-ba5afdfbc366","ios":"levelo://app?vid=3484b42b-fb92-4df7-950c-ba5afdfbc366"},"vehicle_type_id":"4","last_reported":1735222096,"current_range_meters":22400,"station_id":"ce4bho92rcd13ifvqh4g","pricing_plan_id":"cebpf4jnsgd1na2vs0mg"},{"bike_id":"fd95e767-2640-4fe1-bca6-acf63a8cec58","system_id":"levelo_inurba_marseille","lat":43.27897,"lon":5.4075,"is_reserved":false,"is_disabled":false,"rental_uris":{"android":"levelo://app?vid=fd95e767-2640-4fe1-bca6-acf63a8cec58","ios":"levelo://app?vid=fd95e767-2640-4fe1-bca6-acf63a8cec58"},"vehicle_type_id":"4","last_reported":1735222096,"current_range_meters":16000,"station_id":"","pricing_plan_id":"cebpf4jnsgd1na2vs0mg"},{"bike_id":"35db1759-7777-412c-b855-eebd43e921b4","system_id":"levelo_inurba_marseille","lat":43.29947,"lon":5.37464,"is_reserved":false,"is_disabled":false,"rental_uris":{"android":"levelo://app?vid=35db1759-7777-412c-b855-eebd43e921b4","ios":"levelo://app?vid=35db1759-7777-412c-b855-eebd43e921b4"},"vehicle_type_id":"4","last_reported":1735222096,"current_range_meters":27600,"station_id":"ce4bgjh2rcd13ifvqbg0","pricing_plan_id":"cebpf4jnsgd1na2vs0mg"},{"bike_id":"3076b9fc-ea07-4d8e-bda8-d5e7419e8d55","system_id":"levelo_inurba_marseille","lat":43.27161,"lon":5.4099,"is_reserved":false,"is_disabled":false,"rental_uris":{"android":"levelo://app?vid=3076b9fc-ea07-4d8e-bda8-d5e7419e8d55","ios":"levelo://app?vid=3076b9fc-ea07-4d8e-bda8-d5e7419e8d55"},"vehicle_type_id":"4","last_reported":1735222096,"current_range_meters":18000,"station_id":"ce4bhl12rcd13ifvqgf0","pricing_plan_id":"cebpf4jnsgd1na2vs0mg"},{"bike_id":"097fbffe-cfb2-4bd3-9cee-c3e24274bce5","system_id":"levelo_inurba_marseille","lat":43.30221,"lon":5.39466,"is_reserved":false,"is_disabled":false,"rental_uris":{"android":"levelo://app?vid=097fbffe-cfb2-4bd3-9cee-c3e24274bce5","ios":"levelo://app?vid=097fbffe-cfb2-4bd3-9cee-c3e24274bce5"},"vehicle_type_id":"4","last_reported":1735222096,"current_range_meters":38800,"station_id":"ce4bh0p2rcd13ifvqd70","pricing_plan_id":"cebpf4jnsgd1na2vs0mg"},{"bike_id":"a75bbc23-aa3f-44bd-8bd9-1b76f294eba0","system_id":"levelo_inurba_marseille","lat":43.28482,"lon":5.38563,"is_reserved":false,"is_disabled":false,"rental_uris":{"android":"levelo://app?vid=a75bbc23-aa3f-44bd-8bd9-1b76f294eba0","ios":"levelo://app?vid=a75bbc23-aa3f-44bd-8bd9-1b76f294eba0"},"vehicle_type_id":"4","last_reported":1735222096,"current_range_meters":33200,"station_id":"ce4bh8p2rcd13ifvqeb0","pricing_plan_id":"cebpf4jnsgd1na2vs0mg"},{"bike_id":"f3abb244-9c7c-4c3a-ab06-fabca3a69d49","system_id":"levelo_inurba_marseille","lat":43.29277,"lon":5.36844,"is_reserved":false,"is_disabled":false,"rental_uris":{"android":"levelo://app?vid=f3abb244-9c7c-4c3a-ab06-fabca3a69d49","ios":"levelo://app?vid=f3abb244-9c7c-4c3a-ab06-fabca3a69d49"},"vehicle_type_id":"4","last_reported":1735222096,"current_range_meters":38800,"station_id":"ce4bhbp2rcd13ifvqesg","pricing_plan_id":"cebpf4jnsgd1na2vs0mg"},{"bike_id":"b92770f4-0393-4913-8da2-4927177fb0b6","system_id":"levelo_inurba_marseille","lat":43.30542,"lon":5.38419,"is_reserved":false,"is_disabled":false,"rental_uris":{"android":"levelo://app?vid=b92770f4-0393-4913-8da2-4927177fb0b6","ios":"levelo://app?vid=b92770f4-0393-4913-8da2-4927177fb0b6"},"vehicle_type_id":"4","last_reported":1735222096,"current_range_meters":38000,"station_id":"ce4bgg92rcd13ifvqb30","pricing_plan_id":"cebpf4jnsgd1na2vs0mg"},{"bike_id":"5f8a76e6-d34b-4171-ae8b-f316ea07c0e1","system_id":"levelo_inurba_marseille","lat":43.25499,"lon":5.37652,"is_reserved":false,"is_disabled":false,"rental_uris":{"android":"levelo://app?vid=5f8a76e6-d34b-4171-ae8b-f316ea07c0e1","ios":"levelo://app?vid=5f8a76e6-d34b-4171-ae8b-f316ea07c0e1"},"vehicle_type_id":"4","last_reported":1735222096,"current_range_meters":25200,"station_id":"ce4bhh12rcd13ifvqff0","pricing_plan_id":"cebpf4jnsgd1na2vs0mg"},{"bike_id":"86ae6257-84fd-4e32-b674-f23a136ab287","system_id":"levelo_inurba_marseille","lat":43.289375,"lon":5.39629,"is_reserved":false,"is_disabled":false,"rental_uris":{"android":"levelo://app?vid=86ae6257-84fd-4e32-b674-f23a136ab287","ios":"levelo://app?vid=86ae6257-84fd-4e32-b674-f23a136ab287"},"vehicle_type_id":"4","last_reported":1735222096,"current_range_meters":38800,"station_id":"ce4bh3h2rcd13ifvqdn0","pricing_plan_id":"cebpf4jnsgd1na2vs0mg"},{"bike_id":"09898dd2-84ad-4911-a21d-d1f0823964b3","system_id":"levelo_inurba_marseille","lat":43.2964,"lon":5.37742,"is_reserved":false,"is_disabled":false,"rental_uris":{"android":"levelo://app?vid=09898dd2-84ad-4911-a21d-d1f0823964b3","ios":"levelo://app?vid=09898dd2-84ad-4911-a21d-d1f0823964b3"},"vehicle_type_id":"4","last_reported":1735222096,"current_range_meters":38800,"station_id":"ce4bgi92rcd13ifvqb90","pricing_plan_id":"cebpf4jnsgd1na2vs0mg"},{"bike_id":"60968da4-eb7b-45c8-944b-65c3601ac59f","system_id":"levelo_inurba_marseille","lat":43.296,"lon":5.38108,"is_reserved":false,"is_disabled":false,"rental_uris":{"android":"levelo://app?vid=60968da4-eb7b-45c8-944b-65c3601ac59f","ios":"levelo://app?vid=60968da4-eb7b-45c8-944b-65c3601ac59f"},"vehicle_type_id":"4","last_reported":1735222096,"current_range_meters":26000,"station_id":"ce4bgl12rcd13ifvqbo0","pricing_plan_id":"cebpf4jnsgd1na2vs0mg"},{"bike_id":"136fd5e9-3c1d-4222-8893-20c8f6747e66","system_id":"levelo_inurba_marseille","lat":43.29034,"lon":5.35909,"is_reserved":false,"is_disabled":false,"rental_uris":{"android":"levelo://app?vid=136fd5e9-3c1d-4222-8893-20c8f6747e66","ios":"levelo://app?vid=136fd5e9-3c1d-4222-8893-20c8f6747e66"},"vehicle_type_id":"4","last_reported":1735222096,"current_range_meters":22800,"station_id":"ce4bha92rcd13ifvqeg0","pricing_plan_id":"cebpf4jnsgd1na2vs0mg"},{"bike_id":"7608f1ad-6069-4760-9820-c5af492fd707","system_id":"levelo_inurba_marseille","lat":43.29579,"lon":5.36745,"is_reserved":false,"is_disabled":false,"rental_uris":{"android":"levelo://app?vid=7608f1ad-6069-4760-9820-c5af492fd707","ios":"levelo://app?vid=7608f1ad-6069-4760-9820-c5af492fd707"},"vehicle_type_id":"4","last_reported":1735222096,"current_range_meters":38800,"station_id":"ce4bgph2rcd13ifvqc2g","pricing_plan_id":"cebpf4jnsgd1na2vs0mg"},{"bike_id":"bb55ed15-f4dc-4fc3-94d7-a5f7f759a582","system_id":"levelo_inurba_marseille","lat":43.30306,"lon":5.39188,"is_reserved":false,"is_disabled":false,"rental_uris":{"android":"levelo://app?vid=bb55ed15-f4dc-4fc3-94d7-a5f7f759a582","ios":"levelo://app?vid=bb55ed15-f4dc-4fc3-94d7-a5f7f759a582"},"vehicle_type_id":"4","last_reported":1735222096,"current_range_meters":38800,"station_id":"ce4bgkh2rcd13ifvqbk0","pricing_plan_id":"cebpf4jnsgd1na2vs0mg"},{"bike_id":"96f8971f-b196-4976-b200-b3223571e8ae","system_id":"levelo_inurba_marseille","lat":43.28097,"lon":5.37848,"is_reserved":false,"is_disabled":false,"rental_uris":{"android":"levelo://app?vid=96f8971f-b196-4976-b200-b3223571e8ae","ios":"levelo://app?vid=96f8971f-b196-4976-b200-b3223571e8ae"},"vehicle_type_id":"4","last_reported":1735222096,"current_range_meters":38800,"station_id":"ce4bha12rcd13ifvqee0","pricing_plan_id":"cebpf4jnsgd1na2vs0mg"},{"bike_id":"2ed0c379-21a4-416f-95e6-c6a4adae152d","system_id":"levelo_inurba_marseille","lat":43.29897,"lon":5.381473,"is_reserved":false,"is_disabled":false,"rental_uris":{"android":"levelo://app?vid=2ed0c379-21a4-416f-95e6-c6a4adae152d","ios":"levelo://app?vid=2ed0c379-21a4-416f-95e6-c6a4adae152d"},"vehicle_type_id":"4","last_reported":1735222096,"current_range_meters":27200,"station_id":"ce4bgj12rcd13ifvqbc0","pricing_plan_id":"cebpf4jnsgd1na2vs0mg"},{"bike_id":"6fc39219-982d-4feb-9b3b-e1ba4db40afe","system_id":"levelo_inurba_marseille","lat":43.29612,"lon":5.3809,"is_reserved":false,"is_disabled":false,"rental_uris":{"android":"levelo://app?vid=6fc39219-982d-4feb-9b3b-e1ba4db40afe","ios":"levelo://app?vid=6fc39219-982d-4feb-9b3b-e1ba4db40afe"},"vehicle_type_id":"4","last_reported":1735222096,"current_range_meters":39200,"station_id":"ce4bgl12rcd13ifvqbo0","pricing_plan_id":"cebpf4jnsgd1na2vs0mg"},{"bike_id":"e73e6057-e6e9-407b-a17e-f4e119a96aba","system_id":"levelo_inurba_marseille","lat":43.32108,"lon":5.36777,"is_reserved":false,"is_disabled":false,"rental_uris":{"android":"levelo://app?vid=e73e6057-e6e9-407b-a17e-f4e119a96aba","ios":"levelo://app?vid=e73e6057-e6e9-407b-a17e-f4e119a96aba"},"vehicle_type_id":"4","last_reported":1735222096,"current_range_meters":26800,"station_id":"ce4bhrh2rcd13ifvqhug","pricing_plan_id":"cebpf4jnsgd1na2vs0mg"},{"bike_id":"ab22365c-bdba-4f7c-81a5-7e7ddb1ecf11","system_id":"levelo_inurba_marseille","lat":43.293,"lon":5.37169,"is_reserved":false,"is_disabled":false,"rental_uris":{"android":"levelo://app?vid=ab22365c-bdba-4f7c-81a5-7e7ddb1ecf11","ios":"levelo://app?vid=ab22365c-bdba-4f7c-81a5-7e7ddb1ecf11"},"vehicle_type_id":"4","last_reported":1735222096,"current_range_meters":28800,"station_id":"ce4bgh92rcd13ifvqb40","pricing_plan_id":"cebpf4jnsgd1na2vs0mg"},{"bike_id":"2d9b0978-0957-4b28-a2f1-40ef9a7825a1","system_id":"levelo_inurba_marseille","lat":43.29569,"lon":5.37508,"is_reserved":false,"is_disabled":false,"rental_uris":{"android":"levelo://app?vid=2d9b0978-0957-4b28-a2f1-40ef9a7825a1","ios":"levelo://app?vid=2d9b0978-0957-4b28-a2f1-40ef9a7825a1"},"vehicle_type_id":"4","last_reported":1735222096,"current_range_meters":38800,"station_id":"ce4bgh92rcd13ifvqb50","pricing_plan_id":"cebpf4jnsgd1na2vs0mg"},{"bike_id":"1e95b4b9-682b-4d89-86fd-fa82bf56d1f2","system_id":"levelo_inurba_marseille","lat":43.28614,"lon":5.35106,"is_reserved":false,"is_disabled":false,"rental_uris":{"android":"levelo://app?vid=1e95b4b9-682b-4d89-86fd-fa82bf56d1f2","ios":"levelo://app?vid=1e95b4b9-682b-4d89-86fd-fa82bf56d1f2"},"vehicle_type_id":"4","last_reported":1735222096,"current_range_meters":21600,"station_id":"ce4bhch2rcd13ifvqeug","pricing_plan_id":"cebpf4jnsgd1na2vs0mg"},{"bike_id":"6bdfc4aa-16d8-4b7f-b151-e7dd309fc3ee","system_id":"levelo_inurba_marseille","lat":43.29974,"lon":5.37175,"is_reserved":false,"is_disabled":false,"rental_uris":{"android":"levelo://app?vid=6bdfc4aa-16d8-4b7f-b151-e7dd309fc3ee","ios":"levelo://app?vid=6bdfc4aa-16d8-4b7f-b151-e7dd309fc3ee"},"vehicle_type_id":"4","last_reported":1735222096,"current_range_meters":37600,"station_id":"ce4bgr92rcd13ifvqc7g","pricing_plan_id":"cebpf4jnsgd1na2vs0mg"},{"bike_id":"76bdf9c0-a3eb-452e-a555-b96478b69568","system_id":"levelo_inurba_marseille","lat":43.23194,"lon":5.35545,"is_reserved":false,"is_disabled":false,"rental_uris":{"android":"levelo://app?vid=76bdf9c0-a3eb-452e-a555-b96478b69568","ios":"levelo://app?vid=76bdf9c0-a3eb-452e-a555-b96478b69568"},"vehicle_type_id":"4","last_reported":1735222096,"current_range_meters":4400,"station_id":"ce4bhu92rcd13ifvqi70","pricing_plan_id":"cebpf4jnsgd1na2vs0mg"},{"bike_id":"fa4aab2c-881d-426e-9895-68cab6a2f78f","system_id":"levelo_inurba_marseille","lat":43.32026,"lon":5.41573,"is_reserved":false,"is_disabled":false,"rental_uris":{"android":"levelo://app?vid=fa4aab2c-881d-426e-9895-68cab6a2f78f","ios":"levelo://app?vid=fa4aab2c-881d-426e-9895-68cab6a2f78f"},"vehicle_type_id":"4","last_reported":1735222096,"current_range_meters":36800,"station_id":"ce4bhq92rcd13ifvqhkg","pricing_plan_id":"cebpf4jnsgd1na2vs0mg"},{"bike_id":"65ad4242-af96-43bf-b487-817c5dd49f70","system_id":"levelo_inurba_marseille","lat":43.29369,"lon":5.3785,"is_reserved":false,"is_disabled":false,"rental_uris":{"android":"levelo://app?vid=65ad4242-af96-43bf-b487-817c5dd49f70","ios":"levelo://app?vid=65ad4242-af96-43bf-b487-817c5dd49f70"},"vehicle_type_id":"4","last_reported":1735222096,"current_range_meters":38800,"station_id":"ce4bgjh2rcd13ifvqbf0","pricing_plan_id":"cebpf4jnsgd1na2vs0mg"},{"bike_id":"e3055757-4e5c-471b-bc49-10de19223f16","system_id":"levelo_inurba_marseille","lat":43.32042,"lon":5.41571,"is_reserved":false,"is_disabled":false,"rental_uris":{"android":"levelo://app?vid=e3055757-4e5c-471b-bc49-10de19223f16","ios":"levelo://app?vid=e3055757-4e5c-471b-bc49-10de19223f16"},"vehicle_type_id":"4","last_reported":1735222096,"current_range_meters":38800,"station_id":"ce4bhq92rcd13ifvqhkg","pricing_plan_id":"cebpf4jnsgd1na2vs0mg"},{"bike_id":"2982268b-01aa-4533-a44c-f31fb83c217d","system_id":"levelo_inurba_marseille","lat":43.2794,"lon":5.41041,"is_reserved":false,"is_disabled":false,"rental_uris":{"android":"levelo://app?vid=2982268b-01aa-4533-a44c-f31fb83c217d","ios":"levelo://app?vid=2982268b-01aa-4533-a44c-f31fb83c217d"},"vehicle_type_id":"4","last_reported":1735222096,"current_range_meters":32400,"station_id":"ce4bhnp2rcd13ifvqh0g","pricing_plan_id":"cebpf4jnsgd1na2vs0mg"},{"bike_id":"7e230b65-305b-42e8-a3a0-5884c3d605cc","system_id":"levelo_inurba_marseille","lat":43.24071,"lon":5.37761,"is_reserved":false,"is_disabled":false,"rental_uris":{"android":"levelo://app?vid=7e230b65-305b-42e8-a3a0-5884c3d605cc","ios":"levelo://app?vid=7e230b65-305b-42e8-a3a0-5884c3d605cc"},"vehicle_type_id":"4","last_reported":1735222096,"current_range_meters":6400,"station_id":"ce4bhnp2rcd13ifvqgvg","pricing_plan_id":"cebpf4jnsgd1na2vs0mg"},{"bike_id":"6d25a30b-30d6-41bb-9eba-44bccb93801a","system_id":"levelo_inurba_marseille","lat":43.29199,"lon":5.39319,"is_reserved":false,"is_disabled":false,"rental_uris":{"android":"levelo://app?vid=6d25a30b-30d6-41bb-9eba-44bccb93801a","ios":"levelo://app?vid=6d25a30b-30d6-41bb-9eba-44bccb93801a"},"vehicle_type_id":"4","last_reported":1735222096,"current_range_meters":9200,"station_id":"ce4bh192rcd13ifvqdd0","pricing_plan_id":"cebpf4jnsgd1na2vs0mg"},{"bike_id":"1e7b217a-b027-4110-90d3-48819f0dec1b","system_id":"levelo_inurba_marseille","lat":43.2842,"lon":5.34989,"is_reserved":false,"is_disabled":false,"rental_uris":{"android":"levelo://app?vid=1e7b217a-b027-4110-90d3-48819f0dec1b","ios":"levelo://app?vid=1e7b217a-b027-4110-90d3-48819f0dec1b"},"vehicle_type_id":"4","last_reported":1735222096,"current_range_meters":18800,"station_id":"ce4bhbh2rcd13ifvqepg","pricing_plan_id":"cebpf4jnsgd1na2vs0mg"},{"bike_id":"50e9988d-8c66-43a7-82cb-9818dcb38114","system_id":"levelo_inurba_marseille","lat":43.30423,"lon":5.39757,"is_reserved":false,"is_disabled":false,"rental_uris":{"android":"levelo://app?vid=50e9988d-8c66-43a7-82cb-9818dcb38114","ios":"levelo://app?vid=50e9988d-8c66-43a7-82cb-9818dcb38114"},"vehicle_type_id":"4","last_reported":1735222096,"current_range_meters":38800,"station_id":"ce4bh092rcd13ifvqd20","pricing_plan_id":"cebpf4jnsgd1na2vs0mg"},{"bike_id":"d31240d3-9979-449f-a2b4-47db9b31346e","system_id":"levelo_inurba_marseille","lat":43.28481,"lon":5.38552,"is_reserved":false,"is_disabled":false,"rental_uris":{"android":"levelo://app?vid=d31240d3-9979-449f-a2b4-47db9b31346e","ios":"levelo://app?vid=d31240d3-9979-449f-a2b4-47db9b31346e"},"vehicle_type_id":"4","last_reported":1735222096,"current_range_meters":28400,"station_id":"ce4bh8p2rcd13ifvqeb0","pricing_plan_id":"cebpf4jnsgd1na2vs0mg"},{"bike_id":"dad6db58-f5bc-4da2-b0b4-3d5d1002166b","system_id":"levelo_inurba_marseille","lat":43.32106,"lon":5.36779,"is_reserved":false,"is_disabled":false,"rental_uris":{"android":"levelo://app?vid=dad6db58-f5bc-4da2-b0b4-3d5d1002166b","ios":"levelo://app?vid=dad6db58-f5bc-4da2-b0b4-3d5d1002166b"},"vehicle_type_id":"4","last_reported":1735222096,"current_range_meters":21600,"station_id":"ce4bhrh2rcd13ifvqhug","pricing_plan_id":"cebpf4jnsgd1na2vs0mg"},{"bike_id":"d215e6a3-2dbb-4240-82c4-dbdd5ce5595f","system_id":"levelo_inurba_marseille","lat":43.29911,"lon":5.38152,"is_reserved":false,"is_disabled":false,"rental_uris":{"android":"levelo://app?vid=d215e6a3-2dbb-4240-82c4-dbdd5ce5595f","ios":"levelo://app?vid=d215e6a3-2dbb-4240-82c4-dbdd5ce5595f"},"vehicle_type_id":"4","last_reported":1735222096,"current_range_meters":38000,"station_id":"ce4bgj12rcd13ifvqbc0","pricing_plan_id":"cebpf4jnsgd1na2vs0mg"},{"bike_id":"5288de5a-7b5d-49f6-a273-76e383ab7ff0","system_id":"levelo_inurba_marseille","lat":43.303098,"lon":5.3921,"is_reserved":false,"is_disabled":false,"rental_uris":{"android":"levelo://app?vid=5288de5a-7b5d-49f6-a273-76e383ab7ff0","ios":"levelo://app?vid=5288de5a-7b5d-49f6-a273-76e383ab7ff0"},"vehicle_type_id":"4","last_reported":1735222096,"current_range_meters":16000,"station_id":"ce4bgkh2rcd13ifvqbk0","pricing_plan_id":"cebpf4jnsgd1na2vs0mg"},{"bike_id":"08b36ae4-a5f2-4ac8-86ba-4e3e0bb65a74","system_id":"levelo_inurba_marseille","lat":43.29297,"lon":5.37471,"is_reserved":false,"is_disabled":false,"rental_uris":{"android":"levelo://app?vid=08b36ae4-a5f2-4ac8-86ba-4e3e0bb65a74","ios":"levelo://app?vid=08b36ae4-a5f2-4ac8-86ba-4e3e0bb65a74"},"vehicle_type_id":"4","last_reported":1735222096,"current_range_meters":28800,"station_id":"ce4bgi12rcd13ifvqb70","pricing_plan_id":"cebpf4jnsgd1na2vs0mg"},{"bike_id":"c880705e-1b0a-4ec8-9ef6-ece26fe220cc","system_id":"levelo_inurba_marseille","lat":43.30889,"lon":5.37197,"is_reserved":false,"is_disabled":false,"rental_uris":{"android":"levelo://app?vid=c880705e-1b0a-4ec8-9ef6-ece26fe220cc","ios":"levelo://app?vid=c880705e-1b0a-4ec8-9ef6-ece26fe220cc"},"vehicle_type_id":"4","last_reported":1735222096,"current_range_meters":30000,"station_id":"ce4bguh2rcd13ifvqckg","pricing_plan_id":"cebpf4jnsgd1na2vs0mg"},{"bike_id":"4ffd7b60-3c47-45bc-8928-6a2fd1f7ad0e","system_id":"levelo_inurba_marseille","lat":43.29734,"lon":5.37691,"is_reserved":false,"is_disabled":false,"rental_uris":{"android":"levelo://app?vid=4ffd7b60-3c47-45bc-8928-6a2fd1f7ad0e","ios":"levelo://app?vid=4ffd7b60-3c47-45bc-8928-6a2fd1f7ad0e"},"vehicle_type_id":"4","last_reported":1735222096,"current_range_meters":39200,"station_id":"ce4bgkh2rcd13ifvqbl0","pricing_plan_id":"cebpf4jnsgd1na2vs0mg"},{"bike_id":"3b6607a8-aeb2-44a9-9245-83ce6a1683b2","system_id":"levelo_inurba_marseille","lat":43.27375,"lon":5.36254,"is_reserved":false,"is_disabled":true,"rental_uris":{"android":"levelo://app?vid=3b6607a8-aeb2-44a9-9245-83ce6a1683b2","ios":"levelo://app?vid=3b6607a8-aeb2-44a9-9245-83ce6a1683b2"},"vehicle_type_id":"4","last_reported":1735222096,"current_range_meters":0,"station_id":"ce4bhbh2rcd13ifvqeo0","pricing_plan_id":"cebpf4jnsgd1na2vs0mg"},{"bike_id":"1caf1772-065e-4918-957f-ef903a82b03d","system_id":"levelo_inurba_marseille","lat":43.31069,"lon":5.38367,"is_reserved":false,"is_disabled":false,"rental_uris":{"android":"levelo://app?vid=1caf1772-065e-4918-957f-ef903a82b03d","ios":"levelo://app?vid=1caf1772-065e-4918-957f-ef903a82b03d"},"vehicle_type_id":"4","last_reported":1735222096,"current_range_meters":22800,"station_id":"ce4bgv92rcd13ifvqcr0","pricing_plan_id":"cebpf4jnsgd1na2vs0mg"},{"bike_id":"80ed026c-17f9-438b-be50-69d6a379e713","system_id":"levelo_inurba_marseille","lat":43.295659,"lon":5.375217,"is_reserved":false,"is_disabled":false,"rental_uris":{"android":"levelo://app?vid=80ed026c-17f9-438b-be50-69d6a379e713","ios":"levelo://app?vid=80ed026c-17f9-438b-be50-69d6a379e713"},"vehicle_type_id":"4","last_reported":1735222096,"current_range_meters":38000,"station_id":"ce4bgh92rcd13ifvqb50","pricing_plan_id":"cebpf4jnsgd1na2vs0mg"},{"bike_id":"1866340a-45b4-4bd2-ac73-392a4ecb2e72","system_id":"levelo_inurba_marseille","lat":43.29843,"lon":5.36269,"is_reserved":false,"is_disabled":false,"rental_uris":{"android":"levelo://app?vid=1866340a-45b4-4bd2-ac73-392a4ecb2e72","ios":"levelo://app?vid=1866340a-45b4-4bd2-ac73-392a4ecb2e72"},"vehicle_type_id":"4","last_reported":1735222096,"current_range_meters":38800,"station_id":"ce4bgpp2rcd13ifvqc3g","pricing_plan_id":"cebpf4jnsgd1na2vs0mg"},{"bike_id":"356fdf04-5389-4dea-9842-bb9771f47806","system_id":"levelo_inurba_marseille","lat":43.2962,"lon":5.37718,"is_reserved":false,"is_disabled":false,"rental_uris":{"android":"levelo://app?vid=356fdf04-5389-4dea-9842-bb9771f47806","ios":"levelo://app?vid=356fdf04-5389-4dea-9842-bb9771f47806"},"vehicle_type_id":"4","last_reported":1735222096,"current_range_meters":38800,"station_id":"ce4bgi92rcd13ifvqb90","pricing_plan_id":"cebpf4jnsgd1na2vs0mg"},{"bike_id":"252c52e9-5d50-47ae-9a50-b59bf370b810","system_id":"levelo_inurba_marseille","lat":43.29324,"lon":5.37158,"is_reserved":false,"is_disabled":false,"rental_uris":{"android":"levelo://app?vid=252c52e9-5d50-47ae-9a50-b59bf370b810","ios":"levelo://app?vid=252c52e9-5d50-47ae-9a50-b59bf370b810"},"vehicle_type_id":"4","last_reported":1735222096,"current_range_meters":39200,"station_id":"ce4bgh92rcd13ifvqb40","pricing_plan_id":"cebpf4jnsgd1na2vs0mg"},{"bike_id":"ff152d6a-b6bc-406b-998e-dbf3ad51a72e","system_id":"levelo_inurba_marseille","lat":43.25573,"lon":5.38237,"is_reserved":false,"is_disabled":false,"rental_uris":{"android":"levelo://app?vid=ff152d6a-b6bc-406b-998e-dbf3ad51a72e","ios":"levelo://app?vid=ff152d6a-b6bc-406b-998e-dbf3ad51a72e"},"vehicle_type_id":"4","last_reported":1735222096,"current_range_meters":36000,"station_id":"ce4bhih2rcd13ifvqfs0","pricing_plan_id":"cebpf4jnsgd1na2vs0mg"},{"bike_id":"72f4433a-b028-4e45-ab59-31d664b14844","system_id":"levelo_inurba_marseille","lat":43.27207,"lon":5.39182,"is_reserved":false,"is_disabled":false,"rental_uris":{"android":"levelo://app?vid=72f4433a-b028-4e45-ab59-31d664b14844","ios":"levelo://app?vid=72f4433a-b028-4e45-ab59-31d664b14844"},"vehicle_type_id":"4","last_reported":1735222096,"current_range_meters":17200,"station_id":"ce4bhhp2rcd13ifvqfm0","pricing_plan_id":"cebpf4jnsgd1na2vs0mg"},{"bike_id":"c6834b76-82f1-466a-8b2d-118839d142cc","system_id":"levelo_inurba_marseille","lat":43.29899,"lon":5.43668,"is_reserved":false,"is_disabled":false,"rental_uris":{"android":"levelo://app?vid=c6834b76-82f1-466a-8b2d-118839d142cc","ios":"levelo://app?vid=c6834b76-82f1-466a-8b2d-118839d142cc"},"vehicle_type_id":"4","last_reported":1735222096,"current_range_meters":38800,"station_id":"ce4bhpp2rcd13ifvqhfg","pricing_plan_id":"cebpf4jnsgd1na2vs0mg"},{"bike_id":"13c39096-92de-47dd-a9ee-5b5cda0c5bbc","system_id":"levelo_inurba_marseille","lat":43.24652,"lon":5.3889,"is_reserved":false,"is_disabled":false,"rental_uris":{"android":"levelo://app?vid=13c39096-92de-47dd-a9ee-5b5cda0c5bbc","ios":"levelo://app?vid=13c39096-92de-47dd-a9ee-5b5cda0c5bbc"},"vehicle_type_id":"4","last_reported":1735222096,"current_range_meters":22800,"station_id":"ce4bhg12rcd13ifvqf60","pricing_plan_id":"cebpf4jnsgd1na2vs0mg"},{"bike_id":"1107b56a-98a5-4a01-8449-9eba086fee5a","system_id":"levelo_inurba_marseille","lat":43.2907,"lon":5.39878,"is_reserved":false,"is_disabled":false,"rental_uris":{"android":"levelo://app?vid=1107b56a-98a5-4a01-8449-9eba086fee5a","ios":"levelo://app?vid=1107b56a-98a5-4a01-8449-9eba086fee5a"},"vehicle_type_id":"4","last_reported":1735222096,"current_range_meters":22000,"station_id":"","pricing_plan_id":"cebpf4jnsgd1na2vs0mg"},{"bike_id":"4e4277ec-b79e-43a1-bae0-d0f951c20956","system_id":"levelo_inurba_marseille","lat":43.29791,"lon":5.39335,"is_reserved":false,"is_disabled":false,"rental_uris":{"android":"levelo://app?vid=4e4277ec-b79e-43a1-bae0-d0f951c20956","ios":"levelo://app?vid=4e4277ec-b79e-43a1-bae0-d0f951c20956"},"vehicle_type_id":"4","last_reported":1735222096,"current_range_meters":38800,"station_id":"chh1huq6cuj3fo74tm60","pricing_plan_id":"cebpf4jnsgd1na2vs0mg"},{"bike_id":"6f68edfd-fb24-4919-b968-971a44d10505","system_id":"levelo_inurba_marseille","lat":43.33732,"lon":5.39188,"is_reserved":false,"is_disabled":false,"rental_uris":{"android":"levelo://app?vid=6f68edfd-fb24-4919-b968-971a44d10505","ios":"levelo://app?vid=6f68edfd-fb24-4919-b968-971a44d10505"},"vehicle_type_id":"4","last_reported":1735222096,"current_range_meters":38000,"station_id":"ce4bhr92rcd13ifvqhsg","pricing_plan_id":"cebpf4jnsgd1na2vs0mg"},{"bike_id":"fb0c9f3b-833f-49fb-8b5c-bebb99b75b08","system_id":"levelo_inurba_marseille","lat":43.30307,"lon":5.39203,"is_reserved":false,"is_disabled":false,"rental_uris":{"android":"levelo://app?vid=fb0c9f3b-833f-49fb-8b5c-bebb99b75b08","ios":"levelo://app?vid=fb0c9f3b-833f-49fb-8b5c-bebb99b75b08"},"vehicle_type_id":"4","last_reported":1735222096,"current_range_meters":38800,"station_id":"ce4bgkh2rcd13ifvqbk0","pricing_plan_id":"cebpf4jnsgd1na2vs0mg"},{"bike_id":"e00dfb05-17e3-4fe6-bb2e-302de9c485a7","system_id":"levelo_inurba_marseille","lat":43.29599,"lon":5.38099,"is_reserved":false,"is_disabled":false,"rental_uris":{"android":"levelo://app?vid=e00dfb05-17e3-4fe6-bb2e-302de9c485a7","ios":"levelo://app?vid=e00dfb05-17e3-4fe6-bb2e-302de9c485a7"},"vehicle_type_id":"4","last_reported":1735222096,"current_range_meters":36400,"station_id":"ce4bgl12rcd13ifvqbo0","pricing_plan_id":"cebpf4jnsgd1na2vs0mg"},{"bike_id":"5608df94-b66e-460e-9f45-682a8f36b500","system_id":"levelo_inurba_marseille","lat":43.27004,"lon":5.38972,"is_reserved":false,"is_disabled":false,"rental_uris":{"android":"levelo://app?vid=5608df94-b66e-460e-9f45-682a8f36b500","ios":"levelo://app?vid=5608df94-b66e-460e-9f45-682a8f36b500"},"vehicle_type_id":"4","last_reported":1735222096,"current_range_meters":38800,"station_id":"","pricing_plan_id":"cebpf4jnsgd1na2vs0mg"},{"bike_id":"4e6d0ca2-6374-490a-b48e-6cba90785a4f","system_id":"levelo_inurba_marseille","lat":43.24644,"lon":5.38903,"is_reserved":false,"is_disabled":false,"rental_uris":{"android":"levelo://app?vid=4e6d0ca2-6374-490a-b48e-6cba90785a4f","ios":"levelo://app?vid=4e6d0ca2-6374-490a-b48e-6cba90785a4f"},"vehicle_type_id":"4","last_reported":1735222096,"current_range_meters":11600,"station_id":"ce4bhg12rcd13ifvqf60","pricing_plan_id":"cebpf4jnsgd1na2vs0mg"},{"bike_id":"75dc6cdf-6b2f-4555-98ab-c0d955ac6c33","system_id":"levelo_inurba_marseille","lat":43.29554,"lon":5.37547,"is_reserved":false,"is_disabled":false,"rental_uris":{"android":"levelo://app?vid=75dc6cdf-6b2f-4555-98ab-c0d955ac6c33","ios":"levelo://app?vid=75dc6cdf-6b2f-4555-98ab-c0d955ac6c33"},"vehicle_type_id":"4","last_reported":1735222096,"current_range_meters":16000,"station_id":"ce4bgh92rcd13ifvqb50","pricing_plan_id":"cebpf4jnsgd1na2vs0mg"},{"bike_id":"963b50d8-757b-4c39-84ed-9fb9fa9d8d9e","system_id":"levelo_inurba_marseille","lat":43.29225,"lon":5.36079,"is_reserved":false,"is_disabled":false,"rental_uris":{"android":"levelo://app?vid=963b50d8-757b-4c39-84ed-9fb9fa9d8d9e","ios":"levelo://app?vid=963b50d8-757b-4c39-84ed-9fb9fa9d8d9e"},"vehicle_type_id":"4","last_reported":1735222096,"current_range_meters":27200,"station_id":"ce4bhbh2rcd13ifvqeqg","pricing_plan_id":"cebpf4jnsgd1na2vs0mg"},{"bike_id":"cf71366f-be23-4797-93cf-6dfe19a14fb0","system_id":"levelo_inurba_marseille","lat":43.29789,"lon":5.3809,"is_reserved":false,"is_disabled":false,"rental_uris":{"android":"levelo://app?vid=cf71366f-be23-4797-93cf-6dfe19a14fb0","ios":"levelo://app?vid=cf71366f-be23-4797-93cf-6dfe19a14fb0"},"vehicle_type_id":"4","last_reported":1735222096,"current_range_meters":32800,"station_id":"ce4bgip2rcd13ifvqbb0","pricing_plan_id":"cebpf4jnsgd1na2vs0mg"},{"bike_id":"797752e9-9b8c-41c6-b3b4-1c43170cd15b","system_id":"levelo_inurba_marseille","lat":43.2315,"lon":5.43699,"is_reserved":false,"is_disabled":false,"rental_uris":{"android":"levelo://app?vid=797752e9-9b8c-41c6-b3b4-1c43170cd15b","ios":"levelo://app?vid=797752e9-9b8c-41c6-b3b4-1c43170cd15b"},"vehicle_type_id":"4","last_reported":1735222096,"current_range_meters":8800,"station_id":"ce4bhmp2rcd13ifvqgog","pricing_plan_id":"cebpf4jnsgd1na2vs0mg"},{"bike_id":"40604247-8679-4b68-9682-619d18eba1e2","system_id":"levelo_inurba_marseille","lat":43.26935,"lon":5.40258,"is_reserved":false,"is_disabled":false,"rental_uris":{"android":"levelo://app?vid=40604247-8679-4b68-9682-619d18eba1e2","ios":"levelo://app?vid=40604247-8679-4b68-9682-619d18eba1e2"},"vehicle_type_id":"4","last_reported":1735222096,"current_range_meters":38800,"station_id":"cjm6bp8fraef2m0cb0m0","pricing_plan_id":"cebpf4jnsgd1na2vs0mg"},{"bike_id":"5ca093cb-437c-4e7d-bc7e-09c7ab1b0f93","system_id":"levelo_inurba_marseille","lat":43.29917,"lon":5.3747,"is_reserved":false,"is_disabled":false,"rental_uris":{"android":"levelo://app?vid=5ca093cb-437c-4e7d-bc7e-09c7ab1b0f93","ios":"levelo://app?vid=5ca093cb-437c-4e7d-bc7e-09c7ab1b0f93"},"vehicle_type_id":"4","last_reported":1735222096,"current_range_meters":36800,"station_id":"ce4bgjh2rcd13ifvqbg0","pricing_plan_id":"cebpf4jnsgd1na2vs0mg"},{"bike_id":"41e441a8-4ad2-4bf0-81ba-96c35feaf6d8","system_id":"levelo_inurba_marseille","lat":43.28153,"lon":5.42643,"is_reserved":false,"is_disabled":false,"rental_uris":{"android":"levelo://app?vid=41e441a8-4ad2-4bf0-81ba-96c35feaf6d8","ios":"levelo://app?vid=41e441a8-4ad2-4bf0-81ba-96c35feaf6d8"},"vehicle_type_id":"4","last_reported":1735222096,"current_range_meters":9200,"station_id":"ce4bhnh2rcd13ifvqgug","pricing_plan_id":"cebpf4jnsgd1na2vs0mg"},{"bike_id":"adeb9f24-5201-4746-a674-4bf30daf0224","system_id":"levelo_inurba_marseille","lat":43.29718,"lon":5.36574,"is_reserved":false,"is_disabled":false,"rental_uris":{"android":"levelo://app?vid=adeb9f24-5201-4746-a674-4bf30daf0224","ios":"levelo://app?vid=adeb9f24-5201-4746-a674-4bf30daf0224"},"vehicle_type_id":"4","last_reported":1735222096,"current_range_meters":38800,"station_id":"ce4bgn12rcd13ifvqbt0","pricing_plan_id":"cebpf4jnsgd1na2vs0mg"},{"bike_id":"434c1146-c6ed-430d-a08e-e78346806101","system_id":"levelo_inurba_marseille","lat":43.29525,"lon":5.39403,"is_reserved":false,"is_disabled":false,"rental_uris":{"android":"levelo://app?vid=434c1146-c6ed-430d-a08e-e78346806101","ios":"levelo://app?vid=434c1146-c6ed-430d-a08e-e78346806101"},"vehicle_type_id":"4","last_reported":1735222096,"current_range_meters":35200,"station_id":"ce4bh292rcd13ifvqdf0","pricing_plan_id":"cebpf4jnsgd1na2vs0mg"},{"bike_id":"6a8570d1-eb04-4587-aa7b-7e8a4cf28911","system_id":"levelo_inurba_marseille","lat":43.31333,"lon":5.39693,"is_reserved":false,"is_disabled":false,"rental_uris":{"android":"levelo://app?vid=6a8570d1-eb04-4587-aa7b-7e8a4cf28911","ios":"levelo://app?vid=6a8570d1-eb04-4587-aa7b-7e8a4cf28911"},"vehicle_type_id":"4","last_reported":1735222096,"current_range_meters":32000,"station_id":"ce4bgvp2rcd13ifvqcu0","pricing_plan_id":"cebpf4jnsgd1na2vs0mg"},{"bike_id":"4e04e3c8-bad8-47c2-a784-0c5eba8b5d4f","system_id":"levelo_inurba_marseille","lat":43.27076,"lon":5.42279,"is_reserved":false,"is_disabled":false,"rental_uris":{"android":"levelo://app?vid=4e04e3c8-bad8-47c2-a784-0c5eba8b5d4f","ios":"levelo://app?vid=4e04e3c8-bad8-47c2-a784-0c5eba8b5d4f"},"vehicle_type_id":"4","last_reported":1735222096,"current_range_meters":34800,"station_id":"ce4bhk92rcd13ifvqgb0","pricing_plan_id":"cebpf4jnsgd1na2vs0mg"},{"bike_id":"3964cc91-6b10-4fb9-9b4d-cbe3e8abef97","system_id":"levelo_inurba_marseille","lat":43.30102,"lon":5.39085,"is_reserved":false,"is_disabled":false,"rental_uris":{"android":"levelo://app?vid=3964cc91-6b10-4fb9-9b4d-cbe3e8abef97","ios":"levelo://app?vid=3964cc91-6b10-4fb9-9b4d-cbe3e8abef97"},"vehicle_type_id":"4","last_reported":1735222096,"current_range_meters":37600,"station_id":"ce4bh192rcd13ifvqdb0","pricing_plan_id":"cebpf4jnsgd1na2vs0mg"},{"bike_id":"2ea2828b-4054-4613-b03c-004a3cdbc7d6","system_id":"levelo_inurba_marseille","lat":43.29937,"lon":5.36533,"is_reserved":false,"is_disabled":false,"rental_uris":{"android":"levelo://app?vid=2ea2828b-4054-4613-b03c-004a3cdbc7d6","ios":"levelo://app?vid=2ea2828b-4054-4613-b03c-004a3cdbc7d6"},"vehicle_type_id":"4","last_reported":1735222096,"current_range_meters":37600,"station_id":"ce4bgm92rcd13ifvqbr0","pricing_plan_id":"cebpf4jnsgd1na2vs0mg"},{"bike_id":"235c02dd-a81a-4614-b09e-8ecbb664a04b","system_id":"levelo_inurba_marseille","lat":43.24553,"lon":5.39526,"is_reserved":false,"is_disabled":false,"rental_uris":{"android":"levelo://app?vid=235c02dd-a81a-4614-b09e-8ecbb664a04b","ios":"levelo://app?vid=235c02dd-a81a-4614-b09e-8ecbb664a04b"},"vehicle_type_id":"4","last_reported":1735222096,"current_range_meters":36800,"station_id":"ce4bhlp2rcd13ifvqgjg","pricing_plan_id":"cebpf4jnsgd1na2vs0mg"},{"bike_id":"b72689ea-4af6-42ef-b413-90eee2078247","system_id":"levelo_inurba_marseille","lat":43.305593,"lon":5.365338,"is_reserved":false,"is_disabled":false,"rental_uris":{"android":"levelo://app?vid=b72689ea-4af6-42ef-b413-90eee2078247","ios":"levelo://app?vid=b72689ea-4af6-42ef-b413-90eee2078247"},"vehicle_type_id":"4","last_reported":1735222096,"current_range_meters":19200,"station_id":"ce4bgs12rcd13ifvqcag","pricing_plan_id":"cebpf4jnsgd1na2vs0mg"},{"bike_id":"1f40a696-38bb-4f6b-aa91-057a85650965","system_id":"levelo_inurba_marseille","lat":43.25578,"lon":5.38227,"is_reserved":false,"is_disabled":false,"rental_uris":{"android":"levelo://app?vid=1f40a696-38bb-4f6b-aa91-057a85650965","ios":"levelo://app?vid=1f40a696-38bb-4f6b-aa91-057a85650965"},"vehicle_type_id":"4","last_reported":1735222096,"current_range_meters":20000,"station_id":"ce4bhih2rcd13ifvqfs0","pricing_plan_id":"cebpf4jnsgd1na2vs0mg"},{"bike_id":"9f55c7f3-935c-499f-b7e6-77786320150c","system_id":"levelo_inurba_marseille","lat":43.29934,"lon":5.36541,"is_reserved":false,"is_disabled":false,"rental_uris":{"android":"levelo://app?vid=9f55c7f3-935c-499f-b7e6-77786320150c","ios":"levelo://app?vid=9f55c7f3-935c-499f-b7e6-77786320150c"},"vehicle_type_id":"4","last_reported":1735222096,"current_range_meters":32800,"station_id":"ce4bgm92rcd13ifvqbr0","pricing_plan_id":"cebpf4jnsgd1na2vs0mg"},{"bike_id":"d5c65e19-a8e1-427f-9f35-b9a6f20c2203","system_id":"levelo_inurba_marseille","lat":43.26192,"lon":5.37456,"is_reserved":false,"is_disabled":true,"rental_uris":{"android":"levelo://app?vid=d5c65e19-a8e1-427f-9f35-b9a6f20c2203","ios":"levelo://app?vid=d5c65e19-a8e1-427f-9f35-b9a6f20c2203"},"vehicle_type_id":"4","last_reported":1735222096,"current_range_meters":1200,"station_id":"ce4bhgp2rcd13ifvqfc0","pricing_plan_id":"cebpf4jnsgd1na2vs0mg"},{"bike_id":"f551551b-66de-49d6-950d-435610dd1201","system_id":"levelo_inurba_marseille","lat":43.24401,"lon":5.37054,"is_reserved":false,"is_disabled":false,"rental_uris":{"android":"levelo://app?vid=f551551b-66de-49d6-950d-435610dd1201","ios":"levelo://app?vid=f551551b-66de-49d6-950d-435610dd1201"},"vehicle_type_id":"4","last_reported":1735222096,"current_range_meters":39200,"station_id":"ce4bhhh2rcd13ifvqfk0","pricing_plan_id":"cebpf4jnsgd1na2vs0mg"},{"bike_id":"affaff11-df12-4166-bf6b-e6dfd0c68b23","system_id":"levelo_inurba_marseille","lat":43.30534,"lon":5.36704,"is_reserved":false,"is_disabled":false,"rental_uris":{"android":"levelo://app?vid=affaff11-df12-4166-bf6b-e6dfd0c68b23","ios":"levelo://app?vid=affaff11-df12-4166-bf6b-e6dfd0c68b23"},"vehicle_type_id":"4","last_reported":1735222096,"current_range_meters":28000,"station_id":"ce4bgrp2rcd13ifvqc9g","pricing_plan_id":"cebpf4jnsgd1na2vs0mg"},{"bike_id":"aa5d5d16-a2f6-4c81-8cd4-c9ee96949ae4","system_id":"levelo_inurba_marseille","lat":43.23186,"lon":5.39999,"is_reserved":false,"is_disabled":false,"rental_uris":{"android":"levelo://app?vid=aa5d5d16-a2f6-4c81-8cd4-c9ee96949ae4","ios":"levelo://app?vid=aa5d5d16-a2f6-4c81-8cd4-c9ee96949ae4"},"vehicle_type_id":"4","last_reported":1735222096,"current_range_meters":38800,"station_id":"ce4bhn12rcd13ifvqgqg","pricing_plan_id":"cebpf4jnsgd1na2vs0mg"},{"bike_id":"f12eb93c-d258-40bc-ba9f-19d77f84b7cd","system_id":"levelo_inurba_marseille","lat":43.302412,"lon":5.400815,"is_reserved":false,"is_disabled":false,"rental_uris":{"android":"levelo://app?vid=f12eb93c-d258-40bc-ba9f-19d77f84b7cd","ios":"levelo://app?vid=f12eb93c-d258-40bc-ba9f-19d77f84b7cd"},"vehicle_type_id":"4","last_reported":1735222096,"current_range_meters":36800,"station_id":"ce4bgvh2rcd13ifvqcs0","pricing_plan_id":"cebpf4jnsgd1na2vs0mg"},{"bike_id":"f6d86fef-bca3-475a-818d-f5bed089fe83","system_id":"levelo_inurba_marseille","lat":43.30109,"lon":5.3911,"is_reserved":false,"is_disabled":false,"rental_uris":{"android":"levelo://app?vid=f6d86fef-bca3-475a-818d-f5bed089fe83","ios":"levelo://app?vid=f6d86fef-bca3-475a-818d-f5bed089fe83"},"vehicle_type_id":"4","last_reported":1735222096,"current_range_meters":24000,"station_id":"ce4bh192rcd13ifvqdb0","pricing_plan_id":"cebpf4jnsgd1na2vs0mg"},{"bike_id":"509d6939-a055-4cab-b606-fdeee6645c66","system_id":"levelo_inurba_marseille","lat":43.26504,"lon":5.39542,"is_reserved":false,"is_disabled":false,"rental_uris":{"android":"levelo://app?vid=509d6939-a055-4cab-b606-fdeee6645c66","ios":"levelo://app?vid=509d6939-a055-4cab-b606-fdeee6645c66"},"vehicle_type_id":"4","last_reported":1735222096,"current_range_meters":26800,"station_id":"ce4bhi12rcd13ifvqfq0","pricing_plan_id":"cebpf4jnsgd1na2vs0mg"},{"bike_id":"f9d7a6aa-83a7-4384-8969-5637dd508436","system_id":"levelo_inurba_marseille","lat":43.27811,"lon":5.40708,"is_reserved":false,"is_disabled":false,"rental_uris":{"android":"levelo://app?vid=f9d7a6aa-83a7-4384-8969-5637dd508436","ios":"levelo://app?vid=f9d7a6aa-83a7-4384-8969-5637dd508436"},"vehicle_type_id":"4","last_reported":1735222096,"current_range_meters":32400,"station_id":"ce4bhnh2rcd13ifvqgtg","pricing_plan_id":"cebpf4jnsgd1na2vs0mg"},{"bike_id":"68171d11-2c71-4f19-8f11-f3922b685e8f","system_id":"levelo_inurba_marseille","lat":43.290566,"lon":5.387492,"is_reserved":false,"is_disabled":false,"rental_uris":{"android":"levelo://app?vid=68171d11-2c71-4f19-8f11-f3922b685e8f","ios":"levelo://app?vid=68171d11-2c71-4f19-8f11-f3922b685e8f"},"vehicle_type_id":"4","last_reported":1735222096,"current_range_meters":36400,"station_id":"ce4bh4p2rcd13ifvqe0g","pricing_plan_id":"cebpf4jnsgd1na2vs0mg"},{"bike_id":"673ed0fe-3027-4e1f-9efc-2804b0e32190","system_id":"levelo_inurba_marseille","lat":43.26687,"lon":5.38272,"is_reserved":false,"is_disabled":false,"rental_uris":{"android":"levelo://app?vid=673ed0fe-3027-4e1f-9efc-2804b0e32190","ios":"levelo://app?vid=673ed0fe-3027-4e1f-9efc-2804b0e32190"},"vehicle_type_id":"4","last_reported":1735222096,"current_range_meters":24400,"station_id":"ce4bhg92rcd13ifvqf90","pricing_plan_id":"cebpf4jnsgd1na2vs0mg"},{"bike_id":"565e0598-bf9d-4413-84d2-115cd556f87b","system_id":"levelo_inurba_marseille","lat":43.30434,"lon":5.38955,"is_reserved":false,"is_disabled":false,"rental_uris":{"android":"levelo://app?vid=565e0598-bf9d-4413-84d2-115cd556f87b","ios":"levelo://app?vid=565e0598-bf9d-4413-84d2-115cd556f87b"},"vehicle_type_id":"4","last_reported":1735222096,"current_range_meters":28000,"station_id":"","pricing_plan_id":"cebpf4jnsgd1na2vs0mg"},{"bike_id":"2e48270a-c773-45cd-b6b6-1f931f6c2627","system_id":"levelo_inurba_marseille","lat":43.2989,"lon":5.38915,"is_reserved":false,"is_disabled":false,"rental_uris":{"android":"levelo://app?vid=2e48270a-c773-45cd-b6b6-1f931f6c2627","ios":"levelo://app?vid=2e48270a-c773-45cd-b6b6-1f931f6c2627"},"vehicle_type_id":"4","last_reported":1735222096,"current_range_meters":38800,"station_id":"ce4bh392rcd13ifvqdl0","pricing_plan_id":"cebpf4jnsgd1na2vs0mg"},{"bike_id":"669093f3-9e30-4f27-a07e-489670469d1a","system_id":"levelo_inurba_marseille","lat":43.27893,"lon":5.39614,"is_reserved":false,"is_disabled":false,"rental_uris":{"android":"levelo://app?vid=669093f3-9e30-4f27-a07e-489670469d1a","ios":"levelo://app?vid=669093f3-9e30-4f27-a07e-489670469d1a"},"vehicle_type_id":"4","last_reported":1735222096,"current_range_meters":35600,"station_id":"ce4bhf92rcd13ifvqf40","pricing_plan_id":"cebpf4jnsgd1na2vs0mg"},{"bike_id":"521d3800-ebef-4075-8124-d01a8949d70c","system_id":"levelo_inurba_marseille","lat":43.29622,"lon":5.37727,"is_reserved":false,"is_disabled":false,"rental_uris":{"android":"levelo://app?vid=521d3800-ebef-4075-8124-d01a8949d70c","ios":"levelo://app?vid=521d3800-ebef-4075-8124-d01a8949d70c"},"vehicle_type_id":"4","last_reported":1735222096,"current_range_meters":34000,"station_id":"ce4bgi92rcd13ifvqb90","pricing_plan_id":"cebpf4jnsgd1na2vs0mg"},{"bike_id":"3823bdcc-e977-4fb0-979c-534996202510","system_id":"levelo_inurba_marseille","lat":43.30254,"lon":5.40065,"is_reserved":false,"is_disabled":false,"rental_uris":{"android":"levelo://app?vid=3823bdcc-e977-4fb0-979c-534996202510","ios":"levelo://app?vid=3823bdcc-e977-4fb0-979c-534996202510"},"vehicle_type_id":"4","last_reported":1735222096,"current_range_meters":36400,"station_id":"ce4bgvh2rcd13ifvqcs0","pricing_plan_id":"cebpf4jnsgd1na2vs0mg"},{"bike_id":"5cd3212e-fb06-478b-ae7c-d81ecf928d20","system_id":"levelo_inurba_marseille","lat":43.29572,"lon":5.37511,"is_reserved":false,"is_disabled":false,"rental_uris":{"android":"levelo://app?vid=5cd3212e-fb06-478b-ae7c-d81ecf928d20","ios":"levelo://app?vid=5cd3212e-fb06-478b-ae7c-d81ecf928d20"},"vehicle_type_id":"4","last_reported":1735222096,"current_range_meters":39200,"station_id":"ce4bgh92rcd13ifvqb50","pricing_plan_id":"cebpf4jnsgd1na2vs0mg"},{"bike_id":"49de54fd-b5c2-45e9-a63e-7be116220fd1","system_id":"levelo_inurba_marseille","lat":43.31113,"lon":5.37785,"is_reserved":false,"is_disabled":false,"rental_uris":{"android":"levelo://app?vid=49de54fd-b5c2-45e9-a63e-7be116220fd1","ios":"levelo://app?vid=49de54fd-b5c2-45e9-a63e-7be116220fd1"},"vehicle_type_id":"4","last_reported":1735222096,"current_range_meters":34800,"station_id":"ce4bgt92rcd13ifvqcg0","pricing_plan_id":"cebpf4jnsgd1na2vs0mg"},{"bike_id":"36c94d29-a143-4ca2-8a11-fcf2b617451d","system_id":"levelo_inurba_marseille","lat":43.24804,"lon":5.37453,"is_reserved":false,"is_disabled":false,"rental_uris":{"android":"levelo://app?vid=36c94d29-a143-4ca2-8a11-fcf2b617451d","ios":"levelo://app?vid=36c94d29-a143-4ca2-8a11-fcf2b617451d"},"vehicle_type_id":"4","last_reported":1735222096,"current_range_meters":17200,"station_id":"ce4bhgh2rcd13ifvqfb0","pricing_plan_id":"cebpf4jnsgd1na2vs0mg"},{"bike_id":"a5b95a5f-98a9-4995-beea-39b6756268a8","system_id":"levelo_inurba_marseille","lat":43.27075,"lon":5.42279,"is_reserved":false,"is_disabled":false,"rental_uris":{"android":"levelo://app?vid=a5b95a5f-98a9-4995-beea-39b6756268a8","ios":"levelo://app?vid=a5b95a5f-98a9-4995-beea-39b6756268a8"},"vehicle_type_id":"4","last_reported":1735222096,"current_range_meters":38800,"station_id":"ce4bhk92rcd13ifvqgb0","pricing_plan_id":"cebpf4jnsgd1na2vs0mg"},{"bike_id":"0089825d-bdd9-4c40-bf0e-57b3cbb36429","system_id":"levelo_inurba_marseille","lat":43.30548,"lon":5.36722,"is_reserved":false,"is_disabled":false,"rental_uris":{"android":"levelo://app?vid=0089825d-bdd9-4c40-bf0e-57b3cbb36429","ios":"levelo://app?vid=0089825d-bdd9-4c40-bf0e-57b3cbb36429"},"vehicle_type_id":"4","last_reported":1735222096,"current_range_meters":38800,"station_id":"ce4bgrp2rcd13ifvqc9g","pricing_plan_id":"cebpf4jnsgd1na2vs0mg"},{"bike_id":"dbe6a0e7-5d44-41eb-b0ab-6557395df924","system_id":"levelo_inurba_marseille","lat":43.2962,"lon":5.37718,"is_reserved":false,"is_disabled":false,"rental_uris":{"android":"levelo://app?vid=dbe6a0e7-5d44-41eb-b0ab-6557395df924","ios":"levelo://app?vid=dbe6a0e7-5d44-41eb-b0ab-6557395df924"},"vehicle_type_id":"4","last_reported":1735222096,"current_range_meters":38800,"station_id":"ce4bgi92rcd13ifvqb90","pricing_plan_id":"cebpf4jnsgd1na2vs0mg"},{"bike_id":"3a67933e-239f-454f-8179-7920f4454a7f","system_id":"levelo_inurba_marseille","lat":43.28397,"lon":5.37484,"is_reserved":false,"is_disabled":false,"rental_uris":{"android":"levelo://app?vid=3a67933e-239f-454f-8179-7920f4454a7f","ios":"levelo://app?vid=3a67933e-239f-454f-8179-7920f4454a7f"},"vehicle_type_id":"4","last_reported":1735222096,"current_range_meters":35200,"station_id":"ce4bh412rcd13ifvqds0","pricing_plan_id":"cebpf4jnsgd1na2vs0mg"},{"bike_id":"cdd02b5b-918a-4a31-a10c-767f9b1d2298","system_id":"levelo_inurba_marseille","lat":43.27492,"lon":5.42455,"is_reserved":false,"is_disabled":true,"rental_uris":{"android":"levelo://app?vid=cdd02b5b-918a-4a31-a10c-767f9b1d2298","ios":"levelo://app?vid=cdd02b5b-918a-4a31-a10c-767f9b1d2298"},"vehicle_type_id":"4","last_reported":1735222096,"current_range_meters":0,"station_id":"ce4bhn92rcd13ifvqgrg","pricing_plan_id":"cebpf4jnsgd1na2vs0mg"},{"bike_id":"02b81b93-99a6-444c-8124-27a221adfc2a","system_id":"levelo_inurba_marseille","lat":43.31281,"lon":5.40174,"is_reserved":false,"is_disabled":false,"rental_uris":{"android":"levelo://app?vid=02b81b93-99a6-444c-8124-27a221adfc2a","ios":"levelo://app?vid=02b81b93-99a6-444c-8124-27a221adfc2a"},"vehicle_type_id":"4","last_reported":1735222096,"current_range_meters":27600,"station_id":"ce4bh092rcd13ifvqd30","pricing_plan_id":"cebpf4jnsgd1na2vs0mg"},{"bike_id":"4f5db02c-99f9-460e-a880-3ca7100df048","system_id":"levelo_inurba_marseille","lat":43.27439,"lon":5.39423,"is_reserved":false,"is_disabled":false,"rental_uris":{"android":"levelo://app?vid=4f5db02c-99f9-460e-a880-3ca7100df048","ios":"levelo://app?vid=4f5db02c-99f9-460e-a880-3ca7100df048"},"vehicle_type_id":"4","last_reported":1735222096,"current_range_meters":38800,"station_id":"ce4bhdp2rcd13ifvqf20","pricing_plan_id":"cebpf4jnsgd1na2vs0mg"},{"bike_id":"d92ce413-4a40-4ff0-95ab-ebe054e256bf","system_id":"levelo_inurba_marseille","lat":43.27942,"lon":5.41038,"is_reserved":false,"is_disabled":true,"rental_uris":{"android":"levelo://app?vid=d92ce413-4a40-4ff0-95ab-ebe054e256bf","ios":"levelo://app?vid=d92ce413-4a40-4ff0-95ab-ebe054e256bf"},"vehicle_type_id":"4","last_reported":1735222096,"current_range_meters":800,"station_id":"ce4bhnp2rcd13ifvqh0g","pricing_plan_id":"cebpf4jnsgd1na2vs0mg"},{"bike_id":"22513807-c9e6-4543-9326-9e632d88e775","system_id":"levelo_inurba_marseille","lat":43.30309,"lon":5.36905,"is_reserved":false,"is_disabled":false,"rental_uris":{"android":"levelo://app?vid=22513807-c9e6-4543-9326-9e632d88e775","ios":"levelo://app?vid=22513807-c9e6-4543-9326-9e632d88e775"},"vehicle_type_id":"4","last_reported":1735222096,"current_range_meters":11200,"station_id":"ce4bgqh2rcd13ifvqc5g","pricing_plan_id":"cebpf4jnsgd1na2vs0mg"},{"bike_id":"097fb1a5-94f2-4063-8652-6a84092db380","system_id":"levelo_inurba_marseille","lat":43.29527,"lon":5.38539,"is_reserved":false,"is_disabled":false,"rental_uris":{"android":"levelo://app?vid=097fb1a5-94f2-4063-8652-6a84092db380","ios":"levelo://app?vid=097fb1a5-94f2-4063-8652-6a84092db380"},"vehicle_type_id":"4","last_reported":1735222096,"current_range_meters":9200,"station_id":"ce4bgih2rcd13ifvqba0","pricing_plan_id":"cebpf4jnsgd1na2vs0mg"},{"bike_id":"d02905ce-cc58-43d3-b141-1e588c588f53","system_id":"levelo_inurba_marseille","lat":43.27613,"lon":5.36099,"is_reserved":false,"is_disabled":false,"rental_uris":{"android":"levelo://app?vid=d02905ce-cc58-43d3-b141-1e588c588f53","ios":"levelo://app?vid=d02905ce-cc58-43d3-b141-1e588c588f53"},"vehicle_type_id":"4","last_reported":1735222096,"current_range_meters":29600,"station_id":"ce4bgj92rcd13ifvqbe0","pricing_plan_id":"cebpf4jnsgd1na2vs0mg"},{"bike_id":"be913148-f7c7-4ad3-ae5a-f2ec4be3d194","system_id":"levelo_inurba_marseille","lat":43.29261,"lon":5.40911,"is_reserved":false,"is_disabled":false,"rental_uris":{"android":"levelo://app?vid=be913148-f7c7-4ad3-ae5a-f2ec4be3d194","ios":"levelo://app?vid=be913148-f7c7-4ad3-ae5a-f2ec4be3d194"},"vehicle_type_id":"4","last_reported":1735222096,"current_range_meters":36800,"station_id":"ce4bh192rcd13ifvqdc0","pricing_plan_id":"cebpf4jnsgd1na2vs0mg"},{"bike_id":"f48a31c5-7ac5-4db9-a487-f29d0d3d18d7","system_id":"levelo_inurba_marseille","lat":43.29806,"lon":5.38095,"is_reserved":false,"is_disabled":false,"rental_uris":{"android":"levelo://app?vid=f48a31c5-7ac5-4db9-a487-f29d0d3d18d7","ios":"levelo://app?vid=f48a31c5-7ac5-4db9-a487-f29d0d3d18d7"},"vehicle_type_id":"4","last_reported":1735222096,"current_range_meters":18800,"station_id":"ce4bgip2rcd13ifvqbb0","pricing_plan_id":"cebpf4jnsgd1na2vs0mg"},{"bike_id":"b07e0204-2c57-49d1-a1f7-320de8610e25","system_id":"levelo_inurba_marseille","lat":43.29402,"lon":5.37344,"is_reserved":false,"is_disabled":true,"rental_uris":{"android":"levelo://app?vid=b07e0204-2c57-49d1-a1f7-320de8610e25","ios":"levelo://app?vid=b07e0204-2c57-49d1-a1f7-320de8610e25"},"vehicle_type_id":"4","last_reported":1735222096,"current_range_meters":10000,"station_id":"","pricing_plan_id":"cebpf4jnsgd1na2vs0mg"},{"bike_id":"ca8ae58d-7cde-4450-9687-184913a7560e","system_id":"levelo_inurba_marseille","lat":43.30907,"lon":5.36854,"is_reserved":false,"is_disabled":false,"rental_uris":{"android":"levelo://app?vid=ca8ae58d-7cde-4450-9687-184913a7560e","ios":"levelo://app?vid=ca8ae58d-7cde-4450-9687-184913a7560e"},"vehicle_type_id":"4","last_reported":1735222096,"current_range_meters":38800,"station_id":"ce4bgn92rcd13ifvqbvg","pricing_plan_id":"cebpf4jnsgd1na2vs0mg"},{"bike_id":"9d49c05f-0fd6-43f7-973f-c7f9dbb8dd66","system_id":"levelo_inurba_marseille","lat":43.30541,"lon":5.36692,"is_reserved":false,"is_disabled":false,"rental_uris":{"android":"levelo://app?vid=9d49c05f-0fd6-43f7-973f-c7f9dbb8dd66","ios":"levelo://app?vid=9d49c05f-0fd6-43f7-973f-c7f9dbb8dd66"},"vehicle_type_id":"4","last_reported":1735222096,"current_range_meters":30400,"station_id":"ce4bgrp2rcd13ifvqc9g","pricing_plan_id":"cebpf4jnsgd1na2vs0mg"},{"bike_id":"7bc03ac8-4c06-4fc8-8a77-5fac57e03405","system_id":"levelo_inurba_marseille","lat":43.2953,"lon":5.38537,"is_reserved":false,"is_disabled":false,"rental_uris":{"android":"levelo://app?vid=7bc03ac8-4c06-4fc8-8a77-5fac57e03405","ios":"levelo://app?vid=7bc03ac8-4c06-4fc8-8a77-5fac57e03405"},"vehicle_type_id":"4","last_reported":1735222096,"current_range_meters":32800,"station_id":"ce4bgih2rcd13ifvqba0","pricing_plan_id":"cebpf4jnsgd1na2vs0mg"},{"bike_id":"d051bf13-7445-45ad-86d7-0bc2c858622c","system_id":"levelo_inurba_marseille","lat":43.29203,"lon":5.35816,"is_reserved":false,"is_disabled":false,"rental_uris":{"android":"levelo://app?vid=d051bf13-7445-45ad-86d7-0bc2c858622c","ios":"levelo://app?vid=d051bf13-7445-45ad-86d7-0bc2c858622c"},"vehicle_type_id":"4","last_reported":1735222096,"current_range_meters":28000,"station_id":"ce4bhb12rcd13ifvqel0","pricing_plan_id":"cebpf4jnsgd1na2vs0mg"},{"bike_id":"6bf37fa6-c3eb-46d3-9bf0-e16bf1cc08b7","system_id":"levelo_inurba_marseille","lat":43.29518,"lon":5.37493,"is_reserved":false,"is_disabled":false,"rental_uris":{"android":"levelo://app?vid=6bf37fa6-c3eb-46d3-9bf0-e16bf1cc08b7","ios":"levelo://app?vid=6bf37fa6-c3eb-46d3-9bf0-e16bf1cc08b7"},"vehicle_type_id":"4","last_reported":1735222096,"current_range_meters":39200,"station_id":"ce4bgkp2rcd13ifvqbmg","pricing_plan_id":"cebpf4jnsgd1na2vs0mg"},{"bike_id":"43f7e734-263c-460e-a5d5-9f3194a8a7de","system_id":"levelo_inurba_marseille","lat":43.30129,"lon":5.39875,"is_reserved":false,"is_disabled":false,"rental_uris":{"android":"levelo://app?vid=43f7e734-263c-460e-a5d5-9f3194a8a7de","ios":"levelo://app?vid=43f7e734-263c-460e-a5d5-9f3194a8a7de"},"vehicle_type_id":"4","last_reported":1735222096,"current_range_meters":38800,"station_id":"ce4bh0h2rcd13ifvqd40","pricing_plan_id":"cebpf4jnsgd1na2vs0mg"},{"bike_id":"71160096-1f78-4a01-8bd7-5e65b9e0ac95","system_id":"levelo_inurba_marseille","lat":43.26204,"lon":5.37927,"is_reserved":false,"is_disabled":true,"rental_uris":{"android":"levelo://app?vid=71160096-1f78-4a01-8bd7-5e65b9e0ac95","ios":"levelo://app?vid=71160096-1f78-4a01-8bd7-5e65b9e0ac95"},"vehicle_type_id":"4","last_reported":1735222096,"current_range_meters":800,"station_id":"ce4bhjp2rcd13ifvqg90","pricing_plan_id":"cebpf4jnsgd1na2vs0mg"},{"bike_id":"2ff14c8d-e17c-4f24-bcbe-f5f9542fe4f5","system_id":"levelo_inurba_marseille","lat":43.309571,"lon":5.390376,"is_reserved":false,"is_disabled":false,"rental_uris":{"android":"levelo://app?vid=2ff14c8d-e17c-4f24-bcbe-f5f9542fe4f5","ios":"levelo://app?vid=2ff14c8d-e17c-4f24-bcbe-f5f9542fe4f5"},"vehicle_type_id":"4","last_reported":1735222096,"current_range_meters":36800,"station_id":"ce4bgup2rcd13ifvqco0","pricing_plan_id":"cebpf4jnsgd1na2vs0mg"},{"bike_id":"d05e567c-c259-4bef-aaec-2b74975b96c4","system_id":"levelo_inurba_marseille","lat":43.28475,"lon":5.3841,"is_reserved":false,"is_disabled":false,"rental_uris":{"android":"levelo://app?vid=d05e567c-c259-4bef-aaec-2b74975b96c4","ios":"levelo://app?vid=d05e567c-c259-4bef-aaec-2b74975b96c4"},"vehicle_type_id":"4","last_reported":1735222096,"current_range_meters":39200,"station_id":"ce4bh512rcd13ifvqe3g","pricing_plan_id":"cebpf4jnsgd1na2vs0mg"},{"bike_id":"59751aa6-369e-4913-9b81-c36d32759cce","system_id":"levelo_inurba_marseille","lat":43.32337,"lon":5.40621,"is_reserved":false,"is_disabled":false,"rental_uris":{"android":"levelo://app?vid=59751aa6-369e-4913-9b81-c36d32759cce","ios":"levelo://app?vid=59751aa6-369e-4913-9b81-c36d32759cce"},"vehicle_type_id":"4","last_reported":1735222096,"current_range_meters":34800,"station_id":"ce4bhq92rcd13ifvqhjg","pricing_plan_id":"cebpf4jnsgd1na2vs0mg"},{"bike_id":"d51b3c1a-89f7-46d4-8fd1-92ee24954818","system_id":"levelo_inurba_marseille","lat":43.29438,"lon":5.39758,"is_reserved":false,"is_disabled":false,"rental_uris":{"android":"levelo://app?vid=d51b3c1a-89f7-46d4-8fd1-92ee24954818","ios":"levelo://app?vid=d51b3c1a-89f7-46d4-8fd1-92ee24954818"},"vehicle_type_id":"4","last_reported":1735222096,"current_range_meters":8800,"station_id":"ce4bh3h2rcd13ifvqdo0","pricing_plan_id":"cebpf4jnsgd1na2vs0mg"},{"bike_id":"dda65ac8-8d64-45c8-923b-7c11f156fdc0","system_id":"levelo_inurba_marseille","lat":43.24171,"lon":5.39734,"is_reserved":false,"is_disabled":false,"rental_uris":{"android":"levelo://app?vid=dda65ac8-8d64-45c8-923b-7c11f156fdc0","ios":"levelo://app?vid=dda65ac8-8d64-45c8-923b-7c11f156fdc0"},"vehicle_type_id":"4","last_reported":1735222096,"current_range_meters":36800,"station_id":"ce4bhn12rcd13ifvqgpg","pricing_plan_id":"cebpf4jnsgd1na2vs0mg"},{"bike_id":"5758a74f-7a53-4d31-bd8e-c261dbb7346f","system_id":"levelo_inurba_marseille","lat":43.29087,"lon":5.3816,"is_reserved":false,"is_disabled":false,"rental_uris":{"android":"levelo://app?vid=5758a74f-7a53-4d31-bd8e-c261dbb7346f","ios":"levelo://app?vid=5758a74f-7a53-4d31-bd8e-c261dbb7346f"},"vehicle_type_id":"4","last_reported":1735222096,"current_range_meters":38800,"station_id":"ce4bh512rcd13ifvqe2g","pricing_plan_id":"cebpf4jnsgd1na2vs0mg"},{"bike_id":"6fddf6a9-b5c4-4b31-ab3d-6a64a29448f0","system_id":"levelo_inurba_marseille","lat":43.29301,"lon":5.37156,"is_reserved":false,"is_disabled":false,"rental_uris":{"android":"levelo://app?vid=6fddf6a9-b5c4-4b31-ab3d-6a64a29448f0","ios":"levelo://app?vid=6fddf6a9-b5c4-4b31-ab3d-6a64a29448f0"},"vehicle_type_id":"4","last_reported":1735222096,"current_range_meters":17600,"station_id":"ce4bgh92rcd13ifvqb40","pricing_plan_id":"cebpf4jnsgd1na2vs0mg"},{"bike_id":"c9751a8a-79d3-40c3-84a6-e2e10badf950","system_id":"levelo_inurba_marseille","lat":43.29888,"lon":5.38151,"is_reserved":false,"is_disabled":false,"rental_uris":{"android":"levelo://app?vid=c9751a8a-79d3-40c3-84a6-e2e10badf950","ios":"levelo://app?vid=c9751a8a-79d3-40c3-84a6-e2e10badf950"},"vehicle_type_id":"4","last_reported":1735222096,"current_range_meters":38400,"station_id":"ce4bgj12rcd13ifvqbc0","pricing_plan_id":"cebpf4jnsgd1na2vs0mg"},{"bike_id":"4344e0d8-d4f9-4528-93ac-9e29fe2e8f7d","system_id":"levelo_inurba_marseille","lat":43.30535,"lon":5.36708,"is_reserved":false,"is_disabled":false,"rental_uris":{"android":"levelo://app?vid=4344e0d8-d4f9-4528-93ac-9e29fe2e8f7d","ios":"levelo://app?vid=4344e0d8-d4f9-4528-93ac-9e29fe2e8f7d"},"vehicle_type_id":"4","last_reported":1735222096,"current_range_meters":32000,"station_id":"ce4bgrp2rcd13ifvqc9g","pricing_plan_id":"cebpf4jnsgd1na2vs0mg"},{"bike_id":"526c3b21-f659-466e-a14d-5675dcf072b5","system_id":"levelo_inurba_marseille","lat":43.27064,"lon":5.42283,"is_reserved":false,"is_disabled":false,"rental_uris":{"android":"levelo://app?vid=526c3b21-f659-466e-a14d-5675dcf072b5","ios":"levelo://app?vid=526c3b21-f659-466e-a14d-5675dcf072b5"},"vehicle_type_id":"4","last_reported":1735222096,"current_range_meters":30800,"station_id":"ce4bhk92rcd13ifvqgb0","pricing_plan_id":"cebpf4jnsgd1na2vs0mg"},{"bike_id":"6bca16b1-3eb4-4299-91bc-9740eea99592","system_id":"levelo_inurba_marseille","lat":43.29845,"lon":5.36271,"is_reserved":false,"is_disabled":false,"rental_uris":{"android":"levelo://app?vid=6bca16b1-3eb4-4299-91bc-9740eea99592","ios":"levelo://app?vid=6bca16b1-3eb4-4299-91bc-9740eea99592"},"vehicle_type_id":"4","last_reported":1735222096,"current_range_meters":38800,"station_id":"ce4bgpp2rcd13ifvqc3g","pricing_plan_id":"cebpf4jnsgd1na2vs0mg"},{"bike_id":"5d44366f-50e8-400d-a478-e0c6805a85de","system_id":"levelo_inurba_marseille","lat":43.31277,"lon":5.40168,"is_reserved":false,"is_disabled":false,"rental_uris":{"android":"levelo://app?vid=5d44366f-50e8-400d-a478-e0c6805a85de","ios":"levelo://app?vid=5d44366f-50e8-400d-a478-e0c6805a85de"},"vehicle_type_id":"4","last_reported":1735222096,"current_range_meters":24800,"station_id":"ce4bh092rcd13ifvqd30","pricing_plan_id":"cebpf4jnsgd1na2vs0mg"},{"bike_id":"3710efbe-9454-4d57-951d-2631d48572bc","system_id":"levelo_inurba_marseille","lat":43.30889,"lon":5.372,"is_reserved":false,"is_disabled":false,"rental_uris":{"android":"levelo://app?vid=3710efbe-9454-4d57-951d-2631d48572bc","ios":"levelo://app?vid=3710efbe-9454-4d57-951d-2631d48572bc"},"vehicle_type_id":"4","last_reported":1735222096,"current_range_meters":12400,"station_id":"ce4bguh2rcd13ifvqckg","pricing_plan_id":"cebpf4jnsgd1na2vs0mg"},{"bike_id":"d2c9be38-249e-4b27-9723-1b3fc710d846","system_id":"levelo_inurba_marseille","lat":43.26803,"lon":5.40263,"is_reserved":false,"is_disabled":false,"rental_uris":{"android":"levelo://app?vid=d2c9be38-249e-4b27-9723-1b3fc710d846","ios":"levelo://app?vid=d2c9be38-249e-4b27-9723-1b3fc710d846"},"vehicle_type_id":"4","last_reported":1735222096,"current_range_meters":38400,"station_id":"ce501612rcd8frsf0b60","pricing_plan_id":"cebpf4jnsgd1na2vs0mg"},{"bike_id":"abb6f3f1-c9e4-4600-bf62-12f84f815612","system_id":"levelo_inurba_marseille","lat":43.28352,"lon":5.38107,"is_reserved":false,"is_disabled":false,"rental_uris":{"android":"levelo://app?vid=abb6f3f1-c9e4-4600-bf62-12f84f815612","ios":"levelo://app?vid=abb6f3f1-c9e4-4600-bf62-12f84f815612"},"vehicle_type_id":"4","last_reported":1735222096,"current_range_meters":39200,"station_id":"ce4bh412rcd13ifvqdr0","pricing_plan_id":"cebpf4jnsgd1na2vs0mg"},{"bike_id":"58db204d-5ace-4718-acf1-d935af39829a","system_id":"levelo_inurba_marseille","lat":43.29621,"lon":5.37171,"is_reserved":false,"is_disabled":false,"rental_uris":{"android":"levelo://app?vid=58db204d-5ace-4718-acf1-d935af39829a","ios":"levelo://app?vid=58db204d-5ace-4718-acf1-d935af39829a"},"vehicle_type_id":"4","last_reported":1735222096,"current_range_meters":38800,"station_id":"ce4bgnh2rcd13ifvqc0g","pricing_plan_id":"cebpf4jnsgd1na2vs0mg"},{"bike_id":"4e232ca3-7964-4580-80b9-29dc4d81398a","system_id":"levelo_inurba_marseille","lat":43.32056,"lon":5.41551,"is_reserved":false,"is_disabled":false,"rental_uris":{"android":"levelo://app?vid=4e232ca3-7964-4580-80b9-29dc4d81398a","ios":"levelo://app?vid=4e232ca3-7964-4580-80b9-29dc4d81398a"},"vehicle_type_id":"4","last_reported":1735222096,"current_range_meters":34000,"station_id":"ce4bhq92rcd13ifvqhkg","pricing_plan_id":"cebpf4jnsgd1na2vs0mg"},{"bike_id":"aaa78394-0f83-4d1b-bc11-2e06bb634e07","system_id":"levelo_inurba_marseille","lat":43.28151,"lon":5.42655,"is_reserved":false,"is_disabled":false,"rental_uris":{"android":"levelo://app?vid=aaa78394-0f83-4d1b-bc11-2e06bb634e07","ios":"levelo://app?vid=aaa78394-0f83-4d1b-bc11-2e06bb634e07"},"vehicle_type_id":"4","last_reported":1735222096,"current_range_meters":20800,"station_id":"ce4bhnh2rcd13ifvqgug","pricing_plan_id":"cebpf4jnsgd1na2vs0mg"},{"bike_id":"24d8041a-7437-43a0-ab7c-6a87c22cc63c","system_id":"levelo_inurba_marseille","lat":43.29305,"lon":5.37172,"is_reserved":false,"is_disabled":false,"rental_uris":{"android":"levelo://app?vid=24d8041a-7437-43a0-ab7c-6a87c22cc63c","ios":"levelo://app?vid=24d8041a-7437-43a0-ab7c-6a87c22cc63c"},"vehicle_type_id":"4","last_reported":1735222096,"current_range_meters":23200,"station_id":"ce4bgh92rcd13ifvqb40","pricing_plan_id":"cebpf4jnsgd1na2vs0mg"},{"bike_id":"eb94956d-a37a-47d9-bfab-17deeb9d48aa","system_id":"levelo_inurba_marseille","lat":43.28615,"lon":5.37065,"is_reserved":false,"is_disabled":false,"rental_uris":{"android":"levelo://app?vid=eb94956d-a37a-47d9-bfab-17deeb9d48aa","ios":"levelo://app?vid=eb94956d-a37a-47d9-bfab-17deeb9d48aa"},"vehicle_type_id":"4","last_reported":1735222096,"current_range_meters":38000,"station_id":"ce4bht12rcd13ifvqi60","pricing_plan_id":"cebpf4jnsgd1na2vs0mg"},{"bike_id":"01ca7c27-0f17-4fed-9221-1c60f0124f9c","system_id":"levelo_inurba_marseille","lat":43.286621,"lon":5.386701,"is_reserved":false,"is_disabled":false,"rental_uris":{"android":"levelo://app?vid=01ca7c27-0f17-4fed-9221-1c60f0124f9c","ios":"levelo://app?vid=01ca7c27-0f17-4fed-9221-1c60f0124f9c"},"vehicle_type_id":"4","last_reported":1735222096,"current_range_meters":38800,"station_id":"ce4bh492rcd13ifvqdug","pricing_plan_id":"cebpf4jnsgd1na2vs0mg"},{"bike_id":"9da590cf-9e0b-4ae4-a009-5d750badc2c9","system_id":"levelo_inurba_marseille","lat":43.28033,"lon":5.36945,"is_reserved":false,"is_disabled":false,"rental_uris":{"android":"levelo://app?vid=9da590cf-9e0b-4ae4-a009-5d750badc2c9","ios":"levelo://app?vid=9da590cf-9e0b-4ae4-a009-5d750badc2c9"},"vehicle_type_id":"4","last_reported":1735222096,"current_range_meters":36000,"station_id":"ce4bha12rcd13ifvqef0","pricing_plan_id":"cebpf4jnsgd1na2vs0mg"},{"bike_id":"4e80fb69-89fc-4bc8-b1e4-f13a99f2e910","system_id":"levelo_inurba_marseille","lat":43.28522,"lon":5.38543,"is_reserved":false,"is_disabled":false,"rental_uris":{"android":"levelo://app?vid=4e80fb69-89fc-4bc8-b1e4-f13a99f2e910","ios":"levelo://app?vid=4e80fb69-89fc-4bc8-b1e4-f13a99f2e910"},"vehicle_type_id":"4","last_reported":1735222096,"current_range_meters":37600,"station_id":"ce4bh8p2rcd13ifvqeb0","pricing_plan_id":"cebpf4jnsgd1na2vs0mg"},{"bike_id":"ec3f8186-a764-4e8c-a21b-2f9464123659","system_id":"levelo_inurba_marseille","lat":43.29228,"lon":5.36078,"is_reserved":false,"is_disabled":false,"rental_uris":{"android":"levelo://app?vid=ec3f8186-a764-4e8c-a21b-2f9464123659","ios":"levelo://app?vid=ec3f8186-a764-4e8c-a21b-2f9464123659"},"vehicle_type_id":"4","last_reported":1735222096,"current_range_meters":11200,"station_id":"ce4bhbh2rcd13ifvqeqg","pricing_plan_id":"cebpf4jnsgd1na2vs0mg"},{"bike_id":"4f0978bb-2568-4421-9860-b196c4f6425f","system_id":"levelo_inurba_marseille","lat":43.29279,"lon":5.36846,"is_reserved":false,"is_disabled":false,"rental_uris":{"android":"levelo://app?vid=4f0978bb-2568-4421-9860-b196c4f6425f","ios":"levelo://app?vid=4f0978bb-2568-4421-9860-b196c4f6425f"},"vehicle_type_id":"4","last_reported":1735222096,"current_range_meters":25200,"station_id":"ce4bhbp2rcd13ifvqesg","pricing_plan_id":"cebpf4jnsgd1na2vs0mg"},{"bike_id":"2cca7a4c-2861-4c49-80ab-3fd5edea29ec","system_id":"levelo_inurba_marseille","lat":43.296,"lon":5.37345,"is_reserved":false,"is_disabled":false,"rental_uris":{"android":"levelo://app?vid=2cca7a4c-2861-4c49-80ab-3fd5edea29ec","ios":"levelo://app?vid=2cca7a4c-2861-4c49-80ab-3fd5edea29ec"},"vehicle_type_id":"4","last_reported":1735222096,"current_range_meters":32400,"station_id":"","pricing_plan_id":"cebpf4jnsgd1na2vs0mg"},{"bike_id":"df9f86e5-8b71-480d-8db2-926bac71cefd","system_id":"levelo_inurba_marseille","lat":43.28665,"lon":5.36352,"is_reserved":false,"is_disabled":false,"rental_uris":{"android":"levelo://app?vid=df9f86e5-8b71-480d-8db2-926bac71cefd","ios":"levelo://app?vid=df9f86e5-8b71-480d-8db2-926bac71cefd"},"vehicle_type_id":"4","last_reported":1735222096,"current_range_meters":37600,"station_id":"ce4bhah2rcd13ifvqej0","pricing_plan_id":"cebpf4jnsgd1na2vs0mg"},{"bike_id":"c2df5758-fb91-48c7-8ba4-66c2e9558c1a","system_id":"levelo_inurba_marseille","lat":43.29195,"lon":5.35801,"is_reserved":false,"is_disabled":false,"rental_uris":{"android":"levelo://app?vid=c2df5758-fb91-48c7-8ba4-66c2e9558c1a","ios":"levelo://app?vid=c2df5758-fb91-48c7-8ba4-66c2e9558c1a"},"vehicle_type_id":"4","last_reported":1735222096,"current_range_meters":37600,"station_id":"ce4bhb12rcd13ifvqel0","pricing_plan_id":"cebpf4jnsgd1na2vs0mg"},{"bike_id":"2e49d9e4-f97b-4159-a72c-ba533a760568","system_id":"levelo_inurba_marseille","lat":43.30869,"lon":5.3964,"is_reserved":false,"is_disabled":false,"rental_uris":{"android":"levelo://app?vid=2e49d9e4-f97b-4159-a72c-ba533a760568","ios":"levelo://app?vid=2e49d9e4-f97b-4159-a72c-ba533a760568"},"vehicle_type_id":"4","last_reported":1735222096,"current_range_meters":22800,"station_id":"ce4bh012rcd13ifvqcv0","pricing_plan_id":"cebpf4jnsgd1na2vs0mg"},{"bike_id":"3d4db564-8634-4b4e-88e9-4eb0a7ccac66","system_id":"levelo_inurba_marseille","lat":43.26955,"lon":5.38637,"is_reserved":false,"is_disabled":false,"rental_uris":{"android":"levelo://app?vid=3d4db564-8634-4b4e-88e9-4eb0a7ccac66","ios":"levelo://app?vid=3d4db564-8634-4b4e-88e9-4eb0a7ccac66"},"vehicle_type_id":"4","last_reported":1735222096,"current_range_meters":30800,"station_id":"ce4bhh92rcd13ifvqfh0","pricing_plan_id":"cebpf4jnsgd1na2vs0mg"},{"bike_id":"b0a18d06-1002-4baf-906d-b04071543c58","system_id":"levelo_inurba_marseille","lat":43.30611,"lon":5.37252,"is_reserved":false,"is_disabled":false,"rental_uris":{"android":"levelo://app?vid=b0a18d06-1002-4baf-906d-b04071543c58","ios":"levelo://app?vid=b0a18d06-1002-4baf-906d-b04071543c58"},"vehicle_type_id":"4","last_reported":1735222096,"current_range_meters":37600,"station_id":"ce4bgqh2rcd13ifvqc4g","pricing_plan_id":"cebpf4jnsgd1na2vs0mg"},{"bike_id":"e8c5ec79-d360-453e-a5a9-07904c439161","system_id":"levelo_inurba_marseille","lat":43.34161,"lon":5.40907,"is_reserved":false,"is_disabled":false,"rental_uris":{"android":"levelo://app?vid=e8c5ec79-d360-453e-a5a9-07904c439161","ios":"levelo://app?vid=e8c5ec79-d360-453e-a5a9-07904c439161"},"vehicle_type_id":"4","last_reported":1735222096,"current_range_meters":28400,"station_id":"ce4bhqh2rcd13ifvqhlg","pricing_plan_id":"cebpf4jnsgd1na2vs0mg"},{"bike_id":"dc9ec512-cf7e-4169-ab0a-62a57b1b5699","system_id":"levelo_inurba_marseille","lat":43.30333,"lon":5.36905,"is_reserved":false,"is_disabled":false,"rental_uris":{"android":"levelo://app?vid=dc9ec512-cf7e-4169-ab0a-62a57b1b5699","ios":"levelo://app?vid=dc9ec512-cf7e-4169-ab0a-62a57b1b5699"},"vehicle_type_id":"4","last_reported":1735222096,"current_range_meters":37600,"station_id":"ce4bgqh2rcd13ifvqc5g","pricing_plan_id":"cebpf4jnsgd1na2vs0mg"},{"bike_id":"8489053c-46c5-4e78-9708-8c7f2f0c9a79","system_id":"levelo_inurba_marseille","lat":43.30589,"lon":5.3936,"is_reserved":false,"is_disabled":false,"rental_uris":{"android":"levelo://app?vid=8489053c-46c5-4e78-9708-8c7f2f0c9a79","ios":"levelo://app?vid=8489053c-46c5-4e78-9708-8c7f2f0c9a79"},"vehicle_type_id":"4","last_reported":1735222096,"current_range_meters":36000,"station_id":"ce4bh0p2rcd13ifvqd80","pricing_plan_id":"cebpf4jnsgd1na2vs0mg"},{"bike_id":"441c8311-0c47-449c-9802-2d24792eb261","system_id":"levelo_inurba_marseille","lat":43.30426,"lon":5.39754,"is_reserved":false,"is_disabled":false,"rental_uris":{"android":"levelo://app?vid=441c8311-0c47-449c-9802-2d24792eb261","ios":"levelo://app?vid=441c8311-0c47-449c-9802-2d24792eb261"},"vehicle_type_id":"4","last_reported":1735222096,"current_range_meters":38800,"station_id":"ce4bh092rcd13ifvqd20","pricing_plan_id":"cebpf4jnsgd1na2vs0mg"},{"bike_id":"a45cc20c-848a-4e4b-9d4b-ce3f993dff05","system_id":"levelo_inurba_marseille","lat":43.29518,"lon":5.39406,"is_reserved":false,"is_disabled":false,"rental_uris":{"android":"levelo://app?vid=a45cc20c-848a-4e4b-9d4b-ce3f993dff05","ios":"levelo://app?vid=a45cc20c-848a-4e4b-9d4b-ce3f993dff05"},"vehicle_type_id":"4","last_reported":1735222096,"current_range_meters":39200,"station_id":"ce4bh292rcd13ifvqdf0","pricing_plan_id":"cebpf4jnsgd1na2vs0mg"},{"bike_id":"c85bb4e7-e77d-4741-bec8-1bcd3860a1b0","system_id":"levelo_inurba_marseille","lat":43.295793,"lon":5.367397,"is_reserved":false,"is_disabled":false,"rental_uris":{"android":"levelo://app?vid=c85bb4e7-e77d-4741-bec8-1bcd3860a1b0","ios":"levelo://app?vid=c85bb4e7-e77d-4741-bec8-1bcd3860a1b0"},"vehicle_type_id":"4","last_reported":1735222096,"current_range_meters":34000,"station_id":"ce4bgph2rcd13ifvqc2g","pricing_plan_id":"cebpf4jnsgd1na2vs0mg"},{"bike_id":"6b611ed0-2918-407a-a113-cafbd62e34eb","system_id":"levelo_inurba_marseille","lat":43.30464,"lon":5.37906,"is_reserved":false,"is_disabled":false,"rental_uris":{"android":"levelo://app?vid=6b611ed0-2918-407a-a113-cafbd62e34eb","ios":"levelo://app?vid=6b611ed0-2918-407a-a113-cafbd62e34eb"},"vehicle_type_id":"4","last_reported":1735222096,"current_range_meters":36000,"station_id":"ce4bgup2rcd13ifvqcn0","pricing_plan_id":"cebpf4jnsgd1na2vs0mg"},{"bike_id":"491a606a-5a0e-411b-9789-9c74b8b5e4f2","system_id":"levelo_inurba_marseille","lat":43.25834,"lon":5.39446,"is_reserved":false,"is_disabled":false,"rental_uris":{"android":"levelo://app?vid=491a606a-5a0e-411b-9789-9c74b8b5e4f2","ios":"levelo://app?vid=491a606a-5a0e-411b-9789-9c74b8b5e4f2"},"vehicle_type_id":"4","last_reported":1735222096,"current_range_meters":38800,"station_id":"ce4bhip2rcd13ifvqft0","pricing_plan_id":"cebpf4jnsgd1na2vs0mg"},{"bike_id":"dac94ecf-3203-4c89-acc0-21c14e979588","system_id":"levelo_inurba_marseille","lat":43.26692,"lon":5.38291,"is_reserved":false,"is_disabled":false,"rental_uris":{"android":"levelo://app?vid=dac94ecf-3203-4c89-acc0-21c14e979588","ios":"levelo://app?vid=dac94ecf-3203-4c89-acc0-21c14e979588"},"vehicle_type_id":"4","last_reported":1735222096,"current_range_meters":6400,"station_id":"ce4bhg92rcd13ifvqf90","pricing_plan_id":"cebpf4jnsgd1na2vs0mg"},{"bike_id":"f0cafae0-f29d-4301-add9-cbd6aefdfe71","system_id":"levelo_inurba_marseille","lat":43.27064,"lon":5.42276,"is_reserved":false,"is_disabled":false,"rental_uris":{"android":"levelo://app?vid=f0cafae0-f29d-4301-add9-cbd6aefdfe71","ios":"levelo://app?vid=f0cafae0-f29d-4301-add9-cbd6aefdfe71"},"vehicle_type_id":"4","last_reported":1735222096,"current_range_meters":32400,"station_id":"ce4bhk92rcd13ifvqgb0","pricing_plan_id":"cebpf4jnsgd1na2vs0mg"},{"bike_id":"dec28b72-e189-451a-bcdc-100178e93785","system_id":"levelo_inurba_marseille","lat":43.28031,"lon":5.36936,"is_reserved":false,"is_disabled":false,"rental_uris":{"android":"levelo://app?vid=dec28b72-e189-451a-bcdc-100178e93785","ios":"levelo://app?vid=dec28b72-e189-451a-bcdc-100178e93785"},"vehicle_type_id":"4","last_reported":1735222096,"current_range_meters":38800,"station_id":"ce4bha12rcd13ifvqef0","pricing_plan_id":"cebpf4jnsgd1na2vs0mg"},{"bike_id":"fef93d15-0f35-4c67-a1ce-2ca3328df560","system_id":"levelo_inurba_marseille","lat":43.28094,"lon":5.37856,"is_reserved":false,"is_disabled":false,"rental_uris":{"android":"levelo://app?vid=fef93d15-0f35-4c67-a1ce-2ca3328df560","ios":"levelo://app?vid=fef93d15-0f35-4c67-a1ce-2ca3328df560"},"vehicle_type_id":"4","last_reported":1735222096,"current_range_meters":39200,"station_id":"ce4bha12rcd13ifvqee0","pricing_plan_id":"cebpf4jnsgd1na2vs0mg"},{"bike_id":"2e5f245f-a212-4703-8779-d13b7cb6ebbf","system_id":"levelo_inurba_marseille","lat":43.29438,"lon":5.39757,"is_reserved":false,"is_disabled":false,"rental_uris":{"android":"levelo://app?vid=2e5f245f-a212-4703-8779-d13b7cb6ebbf","ios":"levelo://app?vid=2e5f245f-a212-4703-8779-d13b7cb6ebbf"},"vehicle_type_id":"4","last_reported":1735222096,"current_range_meters":11600,"station_id":"ce4bh3h2rcd13ifvqdo0","pricing_plan_id":"cebpf4jnsgd1na2vs0mg"},{"bike_id":"7b1c41a3-6a2e-4420-a856-9b0139eb480b","system_id":"levelo_inurba_marseille","lat":43.27488,"lon":5.42455,"is_reserved":false,"is_disabled":true,"rental_uris":{"android":"levelo://app?vid=7b1c41a3-6a2e-4420-a856-9b0139eb480b","ios":"levelo://app?vid=7b1c41a3-6a2e-4420-a856-9b0139eb480b"},"vehicle_type_id":"4","last_reported":1735222096,"current_range_meters":0,"station_id":"ce4bhn92rcd13ifvqgrg","pricing_plan_id":"cebpf4jnsgd1na2vs0mg"},{"bike_id":"f5785e76-582b-4626-9d3e-1206d1517ecd","system_id":"levelo_inurba_marseille","lat":43.30211,"lon":5.39483,"is_reserved":false,"is_disabled":false,"rental_uris":{"android":"levelo://app?vid=f5785e76-582b-4626-9d3e-1206d1517ecd","ios":"levelo://app?vid=f5785e76-582b-4626-9d3e-1206d1517ecd"},"vehicle_type_id":"4","last_reported":1735222096,"current_range_meters":33200,"station_id":"ce4bh0p2rcd13ifvqd70","pricing_plan_id":"cebpf4jnsgd1na2vs0mg"},{"bike_id":"012a7886-754a-458d-baaa-135571da9a55","system_id":"levelo_inurba_marseille","lat":43.337444,"lon":5.374475,"is_reserved":false,"is_disabled":false,"rental_uris":{"android":"levelo://app?vid=012a7886-754a-458d-baaa-135571da9a55","ios":"levelo://app?vid=012a7886-754a-458d-baaa-135571da9a55"},"vehicle_type_id":"4","last_reported":1735222096,"current_range_meters":19200,"station_id":"","pricing_plan_id":"cebpf4jnsgd1na2vs0mg"},{"bike_id":"5d15041c-a6fc-462c-b3b2-8bac24755397","system_id":"levelo_inurba_marseille","lat":43.2706,"lon":5.40291,"is_reserved":false,"is_disabled":false,"rental_uris":{"android":"levelo://app?vid=5d15041c-a6fc-462c-b3b2-8bac24755397","ios":"levelo://app?vid=5d15041c-a6fc-462c-b3b2-8bac24755397"},"vehicle_type_id":"4","last_reported":1735222096,"current_range_meters":18800,"station_id":"ce4bhk92rcd13ifvqgc0","pricing_plan_id":"cebpf4jnsgd1na2vs0mg"},