{"last_updated":1773347003,"ttl":60,"version":"2.2","data":{"bikes":[{"bike_id":"493861fc-c4c2-4ad4-914e-ae0e2e19f3da","system_id":"levelo_inurba_marseille","lat":43.288597,"lon":5.425291,"is_reserved":false,"is_disabled":false,"rental_uris":{"android":"levelo://app?vid=493861fc-c4c2-4ad4-914e-ae0e2e19f3da","ios":"levelo://app?vid=493861fc-c4c2-4ad4-914e-ae0e2e19f3da"},"vehicle_type_id":"4","last_reported":1773347003,"current_range_meters":38000,"station_id":"","pricing_plan_id":"cebpf4jnsgd1na2vs0mg"},{"bike_id":"79f992a0-e000-4f37-bad7-b6fa0cbde89a","system_id":"levelo_inurba_marseille","lat":43.288601,"lon":5.425289,"is_reserved":false,"is_disabled":false,"rental_uris":{"android":"levelo://app?vid=79f992a0-e000-4f37-bad7-b6fa0cbde89a","ios":"levelo://app?vid=79f992a0-e000-4f37-bad7-b6fa0cbde89a"},"vehicle_type_id":"4","last_reported":1773347003,"current_range_meters":36800,"station_id":"","pricing_plan_id":"cebpf4jnsgd1na2vs0mg"},{"bike_id":"d5838c39-8fec-4657-84ef-87dd8342aa65","system_id":"levelo_inurba_marseille","lat":43.337444,"lon":5.374475,"is_reserved":false,"is_disabled":false,"rental_uris":{"android":"levelo://app?vid=d5838c39-8fec-4657-84ef-87dd8342aa65","ios":"levelo://app?vid=d5838c39-8fec-4657-84ef-87dd8342aa65"},"vehicle_type_id":"4","last_reported":1773347003,"current_range_meters":36800,"station_id":"","pricing_plan_id":"cebpf4jnsgd1na2vs0mg"},{"bike_id":"b5cfabe3-2dfb-486c-8498-b22744a76850","system_id":"levelo_inurba_marseille","lat":43.28859,"lon":5.42534,"is_reserved":false,"is_disabled":false,"rental_uris":{"android":"levelo://app?vid=b5cfabe3-2dfb-486c-8498-b22744a76850","ios":"levelo://app?vid=b5cfabe3-2dfb-486c-8498-b22744a76850"},"vehicle_type_id":"4","last_reported":1773347003,"current_range_meters":38000,"station_id":"","pricing_plan_id":"cebpf4jnsgd1na2vs0mg"},{"bike_id":"887a611e-a528-4f2c-a4c2-5887179d9469","system_id":"levelo_inurba_marseille","lat":43.288599,"lon":5.425284,"is_reserved":false,"is_disabled":false,"rental_uris":{"android":"levelo://app?vid=887a611e-a528-4f2c-a4c2-5887179d9469","ios":"levelo://app?vid=887a611e-a528-4f2c-a4c2-5887179d9469"},"vehicle_type_id":"4","last_reported":1773347003,"current_range_meters":36800,"station_id":"","pricing_plan_id":"cebpf4jnsgd1na2vs0mg"},{"bike_id":"17984069-bd35-4eba-82a0-dfa278df53c1","system_id":"levelo_inurba_marseille","lat":43.2886,"lon":5.42532,"is_reserved":false,"is_disabled":false,"rental_uris":{"android":"levelo://app?vid=17984069-bd35-4eba-82a0-dfa278df53c1","ios":"levelo://app?vid=17984069-bd35-4eba-82a0-dfa278df53c1"},"vehicle_type_id":"4","last_reported":1773347003,"current_range_meters":36000,"station_id":"","pricing_plan_id":"cebpf4jnsgd1na2vs0mg"},{"bike_id":"f0874945-d35d-4779-8a71-a43b78f56b57","system_id":"levelo_inurba_marseille","lat":43.28859,"lon":5.42531,"is_reserved":false,"is_disabled":false,"rental_uris":{"android":"levelo://app?vid=f0874945-d35d-4779-8a71-a43b78f56b57","ios":"levelo://app?vid=f0874945-d35d-4779-8a71-a43b78f56b57"},"vehicle_type_id":"4","last_reported":1773347003,"current_range_meters":38000,"station_id":"","pricing_plan_id":"cebpf4jnsgd1na2vs0mg"},{"bike_id":"2835f10b-e9e3-4ef3-8d53-470320a39b1d","system_id":"levelo_inurba_marseille","lat":43.337444,"lon":5.374475,"is_reserved":false,"is_disabled":false,"rental_uris":{"android":"levelo://app?vid=2835f10b-e9e3-4ef3-8d53-470320a39b1d","ios":"levelo://app?vid=2835f10b-e9e3-4ef3-8d53-470320a39b1d"},"vehicle_type_id":"4","last_reported":1773347003,"current_range_meters":37600,"station_id":"","pricing_plan_id":"cebpf4jnsgd1na2vs0mg"},{"bike_id":"90a4b6cb-5097-4007-8716-aac158e013cd","system_id":"levelo_inurba_marseille","lat":43.337444,"lon":5.374475,"is_reserved":false,"is_disabled":false,"rental_uris":{"android":"levelo://app?vid=90a4b6cb-5097-4007-8716-aac158e013cd","ios":"levelo://app?vid=90a4b6cb-5097-4007-8716-aac158e013cd"},"vehicle_type_id":"4","last_reported":1773347003,"current_range_meters":36000,"station_id":"","pricing_plan_id":"cebpf4jnsgd1na2vs0mg"},{"bike_id":"40709ab9-da05-448b-8695-2c4a8c68b96e","system_id":"levelo_inurba_marseille","lat":43.288601,"lon":5.425289,"is_reserved":false,"is_disabled":false,"rental_uris":{"android":"levelo://app?vid=40709ab9-da05-448b-8695-2c4a8c68b96e","ios":"levelo://app?vid=40709ab9-da05-448b-8695-2c4a8c68b96e"},"vehicle_type_id":"4","last_reported":1773347003,"current_range_meters":34800,"station_id":"","pricing_plan_id":"cebpf4jnsgd1na2vs0mg"},{"bike_id":"332f7874-3078-4c2b-a909-39cc7a7877fe","system_id":"levelo_inurba_marseille","lat":43.2886,"lon":5.42536,"is_reserved":false,"is_disabled":false,"rental_uris":{"android":"levelo://app?vid=332f7874-3078-4c2b-a909-39cc7a7877fe","ios":"levelo://app?vid=332f7874-3078-4c2b-a909-39cc7a7877fe"},"vehicle_type_id":"4","last_reported":1773347003,"current_range_meters":39200,"station_id":"","pricing_plan_id":"cebpf4jnsgd1na2vs0mg"},{"bike_id":"974f1080-8662-4cb5-be38-4ce30f376ce3","system_id":"levelo_inurba_marseille","lat":43.288603,"lon":5.425289,"is_reserved":false,"is_disabled":false,"rental_uris":{"android":"levelo://app?vid=974f1080-8662-4cb5-be38-4ce30f376ce3","ios":"levelo://app?vid=974f1080-8662-4cb5-be38-4ce30f376ce3"},"vehicle_type_id":"4","last_reported":1773347003,"current_range_meters":36800,"station_id":"","pricing_plan_id":"cebpf4jnsgd1na2vs0mg"},{"bike_id":"69fdb9a1-65fe-46b5-8bd7-f7cf3127a839","system_id":"levelo_inurba_marseille","lat":43.337444,"lon":5.374475,"is_reserved":false,"is_disabled":false,"rental_uris":{"android":"levelo://app?vid=69fdb9a1-65fe-46b5-8bd7-f7cf3127a839","ios":"levelo://app?vid=69fdb9a1-65fe-46b5-8bd7-f7cf3127a839"},"vehicle_type_id":"4","last_reported":1773347003,"current_range_meters":39200,"station_id":"","pricing_plan_id":"cebpf4jnsgd1na2vs0mg"},{"bike_id":"79be8740-4eba-422b-8f9b-f60a06e9f3df","system_id":"levelo_inurba_marseille","lat":43.244674,"lon":5.425287,"is_reserved":false,"is_disabled":false,"rental_uris":{"android":"levelo://app?vid=79be8740-4eba-422b-8f9b-f60a06e9f3df","ios":"levelo://app?vid=79be8740-4eba-422b-8f9b-f60a06e9f3df"},"vehicle_type_id":"4","last_reported":1773347003,"current_range_meters":38800,"station_id":"st_d4a3vfp97mjs738cd8kg","pricing_plan_id":"cebpf4jnsgd1na2vs0mg"},{"bike_id":"39764a64-7da4-4395-a398-5699e85e0bbc","system_id":"levelo_inurba_marseille","lat":43.31049,"lon":5.37148,"is_reserved":false,"is_disabled":false,"rental_uris":{"android":"levelo://app?vid=39764a64-7da4-4395-a398-5699e85e0bbc","ios":"levelo://app?vid=39764a64-7da4-4395-a398-5699e85e0bbc"},"vehicle_type_id":"4","last_reported":1773347003,"current_range_meters":36800,"station_id":"st_d4kl2rp97mjs73e7tdfg","pricing_plan_id":"cebpf4jnsgd1na2vs0mg"},{"bike_id":"157aa091-b593-420b-96d5-28b748773f92","system_id":"levelo_inurba_marseille","lat":43.337444,"lon":5.374475,"is_reserved":false,"is_disabled":false,"rental_uris":{"android":"levelo://app?vid=157aa091-b593-420b-96d5-28b748773f92","ios":"levelo://app?vid=157aa091-b593-420b-96d5-28b748773f92"},"vehicle_type_id":"4","last_reported":1773347003,"current_range_meters":37600,"station_id":"st_d4kl2rp97mjs73e7tdfg","pricing_plan_id":"cebpf4jnsgd1na2vs0mg"},{"bike_id":"cf7d4603-f8ed-4661-b328-74483665373f","system_id":"levelo_inurba_marseille","lat":43.337444,"lon":5.374475,"is_reserved":false,"is_disabled":false,"rental_uris":{"android":"levelo://app?vid=cf7d4603-f8ed-4661-b328-74483665373f","ios":"levelo://app?vid=cf7d4603-f8ed-4661-b328-74483665373f"},"vehicle_type_id":"4","last_reported":1773347003,"current_range_meters":33600,"station_id":"st_d4a3vfp97mjs738cd8kg","pricing_plan_id":"cebpf4jnsgd1na2vs0mg"},{"bike_id":"e27c3077-a6de-4fc6-ad1d-ced60c0a6d6a","system_id":"levelo_inurba_marseille","lat":43.24475,"lon":5.42525,"is_reserved":false,"is_disabled":false,"rental_uris":{"android":"levelo://app?vid=e27c3077-a6de-4fc6-ad1d-ced60c0a6d6a","ios":"levelo://app?vid=e27c3077-a6de-4fc6-ad1d-ced60c0a6d6a"},"vehicle_type_id":"4","last_reported":1773347003,"current_range_meters":37600,"station_id":"st_d4a3vfp97mjs738cd8kg","pricing_plan_id":"cebpf4jnsgd1na2vs0mg"},{"bike_id":"f875a718-c7fe-49d0-bd8b-d6cb4ec9a311","system_id":"levelo_inurba_marseille","lat":43.244674,"lon":5.425292,"is_reserved":false,"is_disabled":false,"rental_uris":{"android":"levelo://app?vid=f875a718-c7fe-49d0-bd8b-d6cb4ec9a311","ios":"levelo://app?vid=f875a718-c7fe-49d0-bd8b-d6cb4ec9a311"},"vehicle_type_id":"4","last_reported":1773347003,"current_range_meters":36800,"station_id":"st_d4a3vfp97mjs738cd8kg","pricing_plan_id":"cebpf4jnsgd1na2vs0mg"},{"bike_id":"ecda99f2-a3d8-49e9-b8e5-14d7b353dcc3","system_id":"levelo_inurba_marseille","lat":43.31049,"lon":5.37139,"is_reserved":false,"is_disabled":false,"rental_uris":{"android":"levelo://app?vid=ecda99f2-a3d8-49e9-b8e5-14d7b353dcc3","ios":"levelo://app?vid=ecda99f2-a3d8-49e9-b8e5-14d7b353dcc3"},"vehicle_type_id":"4","last_reported":1773347003,"current_range_meters":36800,"station_id":"st_d4kl2rp97mjs73e7tdfg","pricing_plan_id":"cebpf4jnsgd1na2vs0mg"},{"bike_id":"15878746-faf0-4b30-bc02-f6324941f108","system_id":"levelo_inurba_marseille","lat":43.310449,"lon":5.37161,"is_reserved":false,"is_disabled":false,"rental_uris":{"android":"levelo://app?vid=15878746-faf0-4b30-bc02-f6324941f108","ios":"levelo://app?vid=15878746-faf0-4b30-bc02-f6324941f108"},"vehicle_type_id":"4","last_reported":1773347003,"current_range_meters":36800,"station_id":"st_d4kl2rp97mjs73e7tdfg","pricing_plan_id":"cebpf4jnsgd1na2vs0mg"},{"bike_id":"783850c4-6567-4d88-a277-fd4e7b89d80b","system_id":"levelo_inurba_marseille","lat":43.337444,"lon":5.374475,"is_reserved":false,"is_disabled":false,"rental_uris":{"android":"levelo://app?vid=783850c4-6567-4d88-a277-fd4e7b89d80b","ios":"levelo://app?vid=783850c4-6567-4d88-a277-fd4e7b89d80b"},"vehicle_type_id":"4","last_reported":1773347003,"current_range_meters":37600,"station_id":"","pricing_plan_id":"cebpf4jnsgd1na2vs0mg"},{"bike_id":"a6ad2532-8728-469a-92f4-78fce5874ae3","system_id":"levelo_inurba_marseille","lat":43.31042,"lon":5.3718,"is_reserved":false,"is_disabled":false,"rental_uris":{"android":"levelo://app?vid=a6ad2532-8728-469a-92f4-78fce5874ae3","ios":"levelo://app?vid=a6ad2532-8728-469a-92f4-78fce5874ae3"},"vehicle_type_id":"4","last_reported":1773347003,"current_range_meters":36800,"station_id":"st_d4kl2rp97mjs73e7tdfg","pricing_plan_id":"cebpf4jnsgd1na2vs0mg"},{"bike_id":"b548aaff-386d-49ed-871c-6b556813b79f","system_id":"levelo_inurba_marseille","lat":43.31041,"lon":5.37181,"is_reserved":false,"is_disabled":false,"rental_uris":{"android":"levelo://app?vid=b548aaff-386d-49ed-871c-6b556813b79f","ios":"levelo://app?vid=b548aaff-386d-49ed-871c-6b556813b79f"},"vehicle_type_id":"4","last_reported":1773347003,"current_range_meters":37600,"station_id":"st_d4kl2rp97mjs73e7tdfg","pricing_plan_id":"cebpf4jnsgd1na2vs0mg"},{"bike_id":"eb129c9e-7494-4c9b-9b10-a089c443c478","system_id":"levelo_inurba_marseille","lat":43.31051,"lon":5.37168,"is_reserved":false,"is_disabled":false,"rental_uris":{"android":"levelo://app?vid=eb129c9e-7494-4c9b-9b10-a089c443c478","ios":"levelo://app?vid=eb129c9e-7494-4c9b-9b10-a089c443c478"},"vehicle_type_id":"4","last_reported":1773347003,"current_range_meters":36400,"station_id":"st_d4kl2rp97mjs73e7tdfg","pricing_plan_id":"cebpf4jnsgd1na2vs0mg"},{"bike_id":"030e2d0e-a74b-46cb-8992-7d61402e3627","system_id":"levelo_inurba_marseille","lat":43.31052,"lon":5.37166,"is_reserved":false,"is_disabled":false,"rental_uris":{"android":"levelo://app?vid=030e2d0e-a74b-46cb-8992-7d61402e3627","ios":"levelo://app?vid=030e2d0e-a74b-46cb-8992-7d61402e3627"},"vehicle_type_id":"4","last_reported":1773347003,"current_range_meters":36400,"station_id":"st_d4kl2rp97mjs73e7tdfg","pricing_plan_id":"cebpf4jnsgd1na2vs0mg"},{"bike_id":"bba29ecd-557e-485a-870b-18bd5e3898e2","system_id":"levelo_inurba_marseille","lat":43.31044,"lon":5.37162,"is_reserved":false,"is_disabled":false,"rental_uris":{"android":"levelo://app?vid=bba29ecd-557e-485a-870b-18bd5e3898e2","ios":"levelo://app?vid=bba29ecd-557e-485a-870b-18bd5e3898e2"},"vehicle_type_id":"4","last_reported":1773347003,"current_range_meters":36800,"station_id":"st_d4kl2rp97mjs73e7tdfg","pricing_plan_id":"cebpf4jnsgd1na2vs0mg"},{"bike_id":"20a690a1-4011-408b-b3e0-68c970cfb964","system_id":"levelo_inurba_marseille","lat":43.31048,"lon":5.37169,"is_reserved":false,"is_disabled":false,"rental_uris":{"android":"levelo://app?vid=20a690a1-4011-408b-b3e0-68c970cfb964","ios":"levelo://app?vid=20a690a1-4011-408b-b3e0-68c970cfb964"},"vehicle_type_id":"4","last_reported":1773347003,"current_range_meters":38800,"station_id":"st_d4kl2rp97mjs73e7tdfg","pricing_plan_id":"cebpf4jnsgd1na2vs0mg"},{"bike_id":"7a1db723-935a-4b2f-aad8-be0cd41744a8","system_id":"levelo_inurba_marseille","lat":43.31032,"lon":5.37181,"is_reserved":false,"is_disabled":false,"rental_uris":{"android":"levelo://app?vid=7a1db723-935a-4b2f-aad8-be0cd41744a8","ios":"levelo://app?vid=7a1db723-935a-4b2f-aad8-be0cd41744a8"},"vehicle_type_id":"4","last_reported":1773347003,"current_range_meters":37600,"station_id":"st_d4kl2rp97mjs73e7tdfg","pricing_plan_id":"cebpf4jnsgd1na2vs0mg"},{"bike_id":"1d9ad82f-6475-4921-b897-908fc3b413e0","system_id":"levelo_inurba_marseille","lat":43.31053,"lon":5.37167,"is_reserved":false,"is_disabled":false,"rental_uris":{"android":"levelo://app?vid=1d9ad82f-6475-4921-b897-908fc3b413e0","ios":"levelo://app?vid=1d9ad82f-6475-4921-b897-908fc3b413e0"},"vehicle_type_id":"4","last_reported":1773347003,"current_range_meters":34800,"station_id":"st_d4kl2rp97mjs73e7tdfg","pricing_plan_id":"cebpf4jnsgd1na2vs0mg"},{"bike_id":"f473effd-c352-4923-94c8-da5b8039c46a","system_id":"levelo_inurba_marseille","lat":43.31047,"lon":5.37174,"is_reserved":false,"is_disabled":false,"rental_uris":{"android":"levelo://app?vid=f473effd-c352-4923-94c8-da5b8039c46a","ios":"levelo://app?vid=f473effd-c352-4923-94c8-da5b8039c46a"},"vehicle_type_id":"4","last_reported":1773347003,"current_range_meters":36800,"station_id":"st_d4kl2rp97mjs73e7tdfg","pricing_plan_id":"cebpf4jnsgd1na2vs0mg"},{"bike_id":"ef4a5d21-60fb-4481-bbff-45dc096a6565","system_id":"levelo_inurba_marseille","lat":43.31045,"lon":5.37158,"is_reserved":false,"is_disabled":false,"rental_uris":{"android":"levelo://app?vid=ef4a5d21-60fb-4481-bbff-45dc096a6565","ios":"levelo://app?vid=ef4a5d21-60fb-4481-bbff-45dc096a6565"},"vehicle_type_id":"4","last_reported":1773347003,"current_range_meters":37600,"station_id":"st_d4kl2rp97mjs73e7tdfg","pricing_plan_id":"cebpf4jnsgd1na2vs0mg"},{"bike_id":"331cf85d-be2f-4ba2-9184-bf296949362a","system_id":"levelo_inurba_marseille","lat":43.31046,"lon":5.37185,"is_reserved":false,"is_disabled":false,"rental_uris":{"android":"levelo://app?vid=331cf85d-be2f-4ba2-9184-bf296949362a","ios":"levelo://app?vid=331cf85d-be2f-4ba2-9184-bf296949362a"},"vehicle_type_id":"4","last_reported":1773347003,"current_range_meters":38800,"station_id":"st_d4kl2rp97mjs73e7tdfg","pricing_plan_id":"cebpf4jnsgd1na2vs0mg"},{"bike_id":"1147d303-df36-41b8-879f-11fa02372ba9","system_id":"levelo_inurba_marseille","lat":43.31035,"lon":5.37171,"is_reserved":false,"is_disabled":false,"rental_uris":{"android":"levelo://app?vid=1147d303-df36-41b8-879f-11fa02372ba9","ios":"levelo://app?vid=1147d303-df36-41b8-879f-11fa02372ba9"},"vehicle_type_id":"4","last_reported":1773347003,"current_range_meters":36800,"station_id":"st_d4kl2rp97mjs73e7tdfg","pricing_plan_id":"cebpf4jnsgd1na2vs0mg"},{"bike_id":"4e9347a3-c7e5-412c-969a-5ac8c698635f","system_id":"levelo_inurba_marseille","lat":43.31042,"lon":5.37174,"is_reserved":false,"is_disabled":false,"rental_uris":{"android":"levelo://app?vid=4e9347a3-c7e5-412c-969a-5ac8c698635f","ios":"levelo://app?vid=4e9347a3-c7e5-412c-969a-5ac8c698635f"},"vehicle_type_id":"4","last_reported":1773347003,"current_range_meters":36800,"station_id":"st_d4kl2rp97mjs73e7tdfg","pricing_plan_id":"cebpf4jnsgd1na2vs0mg"},{"bike_id":"26019605-8d80-44f1-a366-22a6865070bb","system_id":"levelo_inurba_marseille","lat":43.29929,"lon":5.36516,"is_reserved":false,"is_disabled":false,"rental_uris":{"android":"levelo://app?vid=26019605-8d80-44f1-a366-22a6865070bb","ios":"levelo://app?vid=26019605-8d80-44f1-a366-22a6865070bb"},"vehicle_type_id":"4","last_reported":1773347003,"current_range_meters":28800,"station_id":"ce4bgm92rcd13ifvqbr0","pricing_plan_id":"cebpf4jnsgd1na2vs0mg"},{"bike_id":"41afa58b-a54e-42a1-b9ef-1df677d58fa7","system_id":"levelo_inurba_marseille","lat":43.290009,"lon":5.356161,"is_reserved":false,"is_disabled":false,"rental_uris":{"android":"levelo://app?vid=41afa58b-a54e-42a1-b9ef-1df677d58fa7","ios":"levelo://app?vid=41afa58b-a54e-42a1-b9ef-1df677d58fa7"},"vehicle_type_id":"4","last_reported":1773347003,"current_range_meters":39200,"station_id":"ce4bhb92rcd13ifvqen0","pricing_plan_id":"cebpf4jnsgd1na2vs0mg"},{"bike_id":"6a906307-d2b9-4e79-a7aa-e4bd81817826","system_id":"levelo_inurba_marseille","lat":43.27395,"lon":5.36268,"is_reserved":false,"is_disabled":false,"rental_uris":{"android":"levelo://app?vid=6a906307-d2b9-4e79-a7aa-e4bd81817826","ios":"levelo://app?vid=6a906307-d2b9-4e79-a7aa-e4bd81817826"},"vehicle_type_id":"4","last_reported":1773347003,"current_range_meters":3600,"station_id":"ce4bhbh2rcd13ifvqeo0","pricing_plan_id":"cebpf4jnsgd1na2vs0mg"},{"bike_id":"fe90cec3-38fb-49e4-be27-7996428a3178","system_id":"levelo_inurba_marseille","lat":43.25724,"lon":5.41121,"is_reserved":false,"is_disabled":false,"rental_uris":{"android":"levelo://app?vid=fe90cec3-38fb-49e4-be27-7996428a3178","ios":"levelo://app?vid=fe90cec3-38fb-49e4-be27-7996428a3178"},"vehicle_type_id":"4","last_reported":1773347003,"current_range_meters":35200,"station_id":"ce4bhkp2rcd13ifvqgd0","pricing_plan_id":"cebpf4jnsgd1na2vs0mg"},{"bike_id":"af1fcd4a-f45f-400a-ba1f-a400a0d2f9b8","system_id":"levelo_inurba_marseille","lat":43.28619,"lon":5.35108,"is_reserved":false,"is_disabled":false,"rental_uris":{"android":"levelo://app?vid=af1fcd4a-f45f-400a-ba1f-a400a0d2f9b8","ios":"levelo://app?vid=af1fcd4a-f45f-400a-ba1f-a400a0d2f9b8"},"vehicle_type_id":"4","last_reported":1773347003,"current_range_meters":11200,"station_id":"ce4bhch2rcd13ifvqeug","pricing_plan_id":"cebpf4jnsgd1na2vs0mg"},{"bike_id":"38a78b95-febb-4708-aab5-230addf5f4d0","system_id":"levelo_inurba_marseille","lat":43.32271,"lon":5.3825,"is_reserved":false,"is_disabled":false,"rental_uris":{"android":"levelo://app?vid=38a78b95-febb-4708-aab5-230addf5f4d0","ios":"levelo://app?vid=38a78b95-febb-4708-aab5-230addf5f4d0"},"vehicle_type_id":"4","last_reported":1773347003,"current_range_meters":28000,"station_id":"ce4bhr12rcd13ifvqhqg","pricing_plan_id":"cebpf4jnsgd1na2vs0mg"},{"bike_id":"92fb41fe-7603-49ec-a816-3eeb022f29fc","system_id":"levelo_inurba_marseille","lat":43.23196,"lon":5.40005,"is_reserved":false,"is_disabled":false,"rental_uris":{"android":"levelo://app?vid=92fb41fe-7603-49ec-a816-3eeb022f29fc","ios":"levelo://app?vid=92fb41fe-7603-49ec-a816-3eeb022f29fc"},"vehicle_type_id":"4","last_reported":1773347003,"current_range_meters":24800,"station_id":"ce4bhn12rcd13ifvqgqg","pricing_plan_id":"cebpf4jnsgd1na2vs0mg"},{"bike_id":"501ac3ce-4e32-4f11-9ff0-40917641f71f","system_id":"levelo_inurba_marseille","lat":43.33021,"lon":5.39046,"is_reserved":false,"is_disabled":false,"rental_uris":{"android":"levelo://app?vid=501ac3ce-4e32-4f11-9ff0-40917641f71f","ios":"levelo://app?vid=501ac3ce-4e32-4f11-9ff0-40917641f71f"},"vehicle_type_id":"4","last_reported":1773347003,"current_range_meters":35600,"station_id":"ce4bhr92rcd13ifvqhrg","pricing_plan_id":"cebpf4jnsgd1na2vs0mg"},{"bike_id":"9faea34b-1c48-4a1b-8f51-2bafe5184a50","system_id":"levelo_inurba_marseille","lat":43.28471,"lon":5.48396,"is_reserved":false,"is_disabled":false,"rental_uris":{"android":"levelo://app?vid=9faea34b-1c48-4a1b-8f51-2bafe5184a50","ios":"levelo://app?vid=9faea34b-1c48-4a1b-8f51-2bafe5184a50"},"vehicle_type_id":"4","last_reported":1773347003,"current_range_meters":30000,"station_id":"","pricing_plan_id":"cebpf4jnsgd1na2vs0mg"},{"bike_id":"bd0135ea-2cde-4c88-9947-7d16e31861df","system_id":"levelo_inurba_marseille","lat":43.30722,"lon":5.36792,"is_reserved":false,"is_disabled":false,"rental_uris":{"android":"levelo://app?vid=bd0135ea-2cde-4c88-9947-7d16e31861df","ios":"levelo://app?vid=bd0135ea-2cde-4c88-9947-7d16e31861df"},"vehicle_type_id":"4","last_reported":1773347003,"current_range_meters":27600,"station_id":"","pricing_plan_id":"cebpf4jnsgd1na2vs0mg"},{"bike_id":"498f2051-6dbd-4b61-b8cb-4412c924c72e","system_id":"levelo_inurba_marseille","lat":43.30625,"lon":5.37208,"is_reserved":false,"is_disabled":false,"rental_uris":{"android":"levelo://app?vid=498f2051-6dbd-4b61-b8cb-4412c924c72e","ios":"levelo://app?vid=498f2051-6dbd-4b61-b8cb-4412c924c72e"},"vehicle_type_id":"4","last_reported":1773347003,"current_range_meters":25600,"station_id":"ce4bgqh2rcd13ifvqc4g","pricing_plan_id":"cebpf4jnsgd1na2vs0mg"},{"bike_id":"84dcc6f6-2dd2-481a-828a-44a67450c5bb","system_id":"levelo_inurba_marseille","lat":43.2894,"lon":5.36637,"is_reserved":false,"is_disabled":true,"rental_uris":{"android":"levelo://app?vid=84dcc6f6-2dd2-481a-828a-44a67450c5bb","ios":"levelo://app?vid=84dcc6f6-2dd2-481a-828a-44a67450c5bb"},"vehicle_type_id":"4","last_reported":1773347003,"current_range_meters":800,"station_id":"ce4bhap2rcd13ifvqek0","pricing_plan_id":"cebpf4jnsgd1na2vs0mg"},{"bike_id":"c943c8f2-fd97-497f-b02c-47e60712859d","system_id":"levelo_inurba_marseille","lat":43.25841,"lon":5.39417,"is_reserved":false,"is_disabled":false,"rental_uris":{"android":"levelo://app?vid=c943c8f2-fd97-497f-b02c-47e60712859d","ios":"levelo://app?vid=c943c8f2-fd97-497f-b02c-47e60712859d"},"vehicle_type_id":"4","last_reported":1773347003,"current_range_meters":22400,"station_id":"ce4bhip2rcd13ifvqft0","pricing_plan_id":"cebpf4jnsgd1na2vs0mg"},{"bike_id":"ceb13d27-9438-4e2f-842c-ab2387368224","system_id":"levelo_inurba_marseille","lat":43.30201,"lon":5.39484,"is_reserved":false,"is_disabled":false,"rental_uris":{"android":"levelo://app?vid=ceb13d27-9438-4e2f-842c-ab2387368224","ios":"levelo://app?vid=ceb13d27-9438-4e2f-842c-ab2387368224"},"vehicle_type_id":"4","last_reported":1773347003,"current_range_meters":40000,"station_id":"ce4bh0p2rcd13ifvqd70","pricing_plan_id":"cebpf4jnsgd1na2vs0mg"},{"bike_id":"edf8aa76-11db-42ef-8e7e-bb421e84e25d","system_id":"levelo_inurba_marseille","lat":43.29945,"lon":5.37449,"is_reserved":false,"is_disabled":false,"rental_uris":{"android":"levelo://app?vid=edf8aa76-11db-42ef-8e7e-bb421e84e25d","ios":"levelo://app?vid=edf8aa76-11db-42ef-8e7e-bb421e84e25d"},"vehicle_type_id":"4","last_reported":1773347003,"current_range_meters":38000,"station_id":"ce4bgjh2rcd13ifvqbg0","pricing_plan_id":"cebpf4jnsgd1na2vs0mg"},{"bike_id":"ef6673b2-fd93-4dcd-a504-171dc7d5968d","system_id":"levelo_inurba_marseille","lat":43.29905,"lon":5.37411,"is_reserved":false,"is_disabled":false,"rental_uris":{"android":"levelo://app?vid=ef6673b2-fd93-4dcd-a504-171dc7d5968d","ios":"levelo://app?vid=ef6673b2-fd93-4dcd-a504-171dc7d5968d"},"vehicle_type_id":"4","last_reported":1773347003,"current_range_meters":34000,"station_id":"","pricing_plan_id":"cebpf4jnsgd1na2vs0mg"},{"bike_id":"67871f80-8e5b-4eba-b9cb-18f3261ef672","system_id":"levelo_inurba_marseille","lat":43.29551,"lon":5.38532,"is_reserved":false,"is_disabled":false,"rental_uris":{"android":"levelo://app?vid=67871f80-8e5b-4eba-b9cb-18f3261ef672","ios":"levelo://app?vid=67871f80-8e5b-4eba-b9cb-18f3261ef672"},"vehicle_type_id":"4","last_reported":1773347003,"current_range_meters":27200,"station_id":"ce4bgih2rcd13ifvqba0","pricing_plan_id":"cebpf4jnsgd1na2vs0mg"},{"bike_id":"c0e778de-76d2-4d92-a7f7-3c777a27001a","system_id":"levelo_inurba_marseille","lat":43.29595,"lon":5.38089,"is_reserved":false,"is_disabled":true,"rental_uris":{"android":"levelo://app?vid=c0e778de-76d2-4d92-a7f7-3c777a27001a","ios":"levelo://app?vid=c0e778de-76d2-4d92-a7f7-3c777a27001a"},"vehicle_type_id":"4","last_reported":1773347003,"current_range_meters":16000,"station_id":"ce4bgl12rcd13ifvqbo0","pricing_plan_id":"cebpf4jnsgd1na2vs0mg"},{"bike_id":"20bf681e-dd28-42a1-94f9-defeb2767863","system_id":"levelo_inurba_marseille","lat":43.25861,"lon":5.39911,"is_reserved":false,"is_disabled":false,"rental_uris":{"android":"levelo://app?vid=20bf681e-dd28-42a1-94f9-defeb2767863","ios":"levelo://app?vid=20bf681e-dd28-42a1-94f9-defeb2767863"},"vehicle_type_id":"4","last_reported":1773347003,"current_range_meters":24800,"station_id":"ce4bhl92rcd13ifvqghg","pricing_plan_id":"cebpf4jnsgd1na2vs0mg"},{"bike_id":"6a0de880-30e4-4115-8b8d-d4225b8128fe","system_id":"levelo_inurba_marseille","lat":43.29521,"lon":5.38557,"is_reserved":false,"is_disabled":false,"rental_uris":{"android":"levelo://app?vid=6a0de880-30e4-4115-8b8d-d4225b8128fe","ios":"levelo://app?vid=6a0de880-30e4-4115-8b8d-d4225b8128fe"},"vehicle_type_id":"4","last_reported":1773347003,"current_range_meters":39200,"station_id":"ce4bgih2rcd13ifvqba0","pricing_plan_id":"cebpf4jnsgd1na2vs0mg"},{"bike_id":"47f2105c-ec17-47dd-b471-2c4fe8d7f1f4","system_id":"levelo_inurba_marseille","lat":43.28926,"lon":5.38403,"is_reserved":false,"is_disabled":false,"rental_uris":{"android":"levelo://app?vid=47f2105c-ec17-47dd-b471-2c4fe8d7f1f4","ios":"levelo://app?vid=47f2105c-ec17-47dd-b471-2c4fe8d7f1f4"},"vehicle_type_id":"4","last_reported":1773347003,"current_range_meters":30000,"station_id":"ce4bh612rcd13ifvqe6g","pricing_plan_id":"cebpf4jnsgd1na2vs0mg"},{"bike_id":"82223718-4bad-4b52-9dea-abcf1f20b16e","system_id":"levelo_inurba_marseille","lat":43.2929,"lon":5.40114,"is_reserved":false,"is_disabled":false,"rental_uris":{"android":"levelo://app?vid=82223718-4bad-4b52-9dea-abcf1f20b16e","ios":"levelo://app?vid=82223718-4bad-4b52-9dea-abcf1f20b16e"},"vehicle_type_id":"4","last_reported":1773347003,"current_range_meters":16000,"station_id":"ce4bh312rcd13ifvqdk0","pricing_plan_id":"cebpf4jnsgd1na2vs0mg"},{"bike_id":"0b8bfc47-9d7d-485e-bfb6-6251bec0afa1","system_id":"levelo_inurba_marseille","lat":43.28473,"lon":5.39172,"is_reserved":false,"is_disabled":false,"rental_uris":{"android":"levelo://app?vid=0b8bfc47-9d7d-485e-bfb6-6251bec0afa1","ios":"levelo://app?vid=0b8bfc47-9d7d-485e-bfb6-6251bec0afa1"},"vehicle_type_id":"4","last_reported":1773347003,"current_range_meters":24800,"station_id":"ce4bhoh2rcd13ifvqh5g","pricing_plan_id":"cebpf4jnsgd1na2vs0mg"},{"bike_id":"8bfc023e-a496-4d3d-9988-519c9b89587b","system_id":"levelo_inurba_marseille","lat":43.29187,"lon":5.39333,"is_reserved":false,"is_disabled":false,"rental_uris":{"android":"levelo://app?vid=8bfc023e-a496-4d3d-9988-519c9b89587b","ios":"levelo://app?vid=8bfc023e-a496-4d3d-9988-519c9b89587b"},"vehicle_type_id":"4","last_reported":1773347003,"current_range_meters":36800,"station_id":"ce4bh192rcd13ifvqdd0","pricing_plan_id":"cebpf4jnsgd1na2vs0mg"},{"bike_id":"463c9dfb-55cb-4643-98a9-63f734d95af1","system_id":"levelo_inurba_marseille","lat":43.28554,"lon":5.44097,"is_reserved":false,"is_disabled":false,"rental_uris":{"android":"levelo://app?vid=463c9dfb-55cb-4643-98a9-63f734d95af1","ios":"levelo://app?vid=463c9dfb-55cb-4643-98a9-63f734d95af1"},"vehicle_type_id":"4","last_reported":1773347003,"current_range_meters":34800,"station_id":"st_d3j3df2ikq2c7380ej80","pricing_plan_id":"cebpf4jnsgd1na2vs0mg"},{"bike_id":"1be54c69-6d2c-4415-ba9e-c9ead353d966","system_id":"levelo_inurba_marseille","lat":43.24167,"lon":5.36405,"is_reserved":false,"is_disabled":false,"rental_uris":{"android":"levelo://app?vid=1be54c69-6d2c-4415-ba9e-c9ead353d966","ios":"levelo://app?vid=1be54c69-6d2c-4415-ba9e-c9ead353d966"},"vehicle_type_id":"4","last_reported":1773347003,"current_range_meters":28800,"station_id":"cpo36qri1sfpv3e86is0","pricing_plan_id":"cebpf4jnsgd1na2vs0mg"},{"bike_id":"c5433ff8-918f-4cd1-b9dc-eaa009d6d6f4","system_id":"levelo_inurba_marseille","lat":43.24946,"lon":5.40501,"is_reserved":false,"is_disabled":false,"rental_uris":{"android":"levelo://app?vid=c5433ff8-918f-4cd1-b9dc-eaa009d6d6f4","ios":"levelo://app?vid=c5433ff8-918f-4cd1-b9dc-eaa009d6d6f4"},"vehicle_type_id":"4","last_reported":1773347003,"current_range_meters":24000,"station_id":"st_d2ngiaodas8pm72gd1h0","pricing_plan_id":"cebpf4jnsgd1na2vs0mg"},{"bike_id":"d2ad3383-f643-4d26-b90f-617cf364e9d2","system_id":"levelo_inurba_marseille","lat":43.29267,"lon":5.38451,"is_reserved":false,"is_disabled":false,"rental_uris":{"android":"levelo://app?vid=d2ad3383-f643-4d26-b90f-617cf364e9d2","ios":"levelo://app?vid=d2ad3383-f643-4d26-b90f-617cf364e9d2"},"vehicle_type_id":"4","last_reported":1773347003,"current_range_meters":24000,"station_id":"ce4bh692rcd13ifvqea0","pricing_plan_id":"cebpf4jnsgd1na2vs0mg"},{"bike_id":"8b010353-2360-4a8a-9b76-14130d745a42","system_id":"levelo_inurba_marseille","lat":43.27822,"lon":5.407,"is_reserved":false,"is_disabled":false,"rental_uris":{"android":"levelo://app?vid=8b010353-2360-4a8a-9b76-14130d745a42","ios":"levelo://app?vid=8b010353-2360-4a8a-9b76-14130d745a42"},"vehicle_type_id":"4","last_reported":1773347003,"current_range_meters":8400,"station_id":"ce4bhnh2rcd13ifvqgtg","pricing_plan_id":"cebpf4jnsgd1na2vs0mg"},{"bike_id":"23f0850e-3475-4ec1-926f-f043a4da49f1","system_id":"levelo_inurba_marseille","lat":43.29872,"lon":5.3974,"is_reserved":false,"is_disabled":false,"rental_uris":{"android":"levelo://app?vid=23f0850e-3475-4ec1-926f-f043a4da49f1","ios":"levelo://app?vid=23f0850e-3475-4ec1-926f-f043a4da49f1"},"vehicle_type_id":"4","last_reported":1773347003,"current_range_meters":20400,"station_id":"ce4bh0h2rcd13ifvqd50","pricing_plan_id":"cebpf4jnsgd1na2vs0mg"},{"bike_id":"05d75212-fcf3-49b0-8115-8d0b3b1fe208","system_id":"levelo_inurba_marseille","lat":43.29523,"lon":5.3904,"is_reserved":false,"is_disabled":false,"rental_uris":{"android":"levelo://app?vid=05d75212-fcf3-49b0-8115-8d0b3b1fe208","ios":"levelo://app?vid=05d75212-fcf3-49b0-8115-8d0b3b1fe208"},"vehicle_type_id":"4","last_reported":1773347003,"current_range_meters":14400,"station_id":"ce4bh3p2rcd13ifvqdp0","pricing_plan_id":"cebpf4jnsgd1na2vs0mg"},{"bike_id":"e5992785-f891-4eb7-b8cf-ab9dacd9c960","system_id":"levelo_inurba_marseille","lat":43.23039,"lon":5.35502,"is_reserved":false,"is_disabled":false,"rental_uris":{"android":"levelo://app?vid=e5992785-f891-4eb7-b8cf-ab9dacd9c960","ios":"levelo://app?vid=e5992785-f891-4eb7-b8cf-ab9dacd9c960"},"vehicle_type_id":"4","last_reported":1773347003,"current_range_meters":37600,"station_id":"cpo3342slgdg3j2ifvpg","pricing_plan_id":"cebpf4jnsgd1na2vs0mg"},{"bike_id":"748502a6-ebda-492b-9758-aa3915e37546","system_id":"levelo_inurba_marseille","lat":43.30133,"lon":5.39887,"is_reserved":false,"is_disabled":false,"rental_uris":{"android":"levelo://app?vid=748502a6-ebda-492b-9758-aa3915e37546","ios":"levelo://app?vid=748502a6-ebda-492b-9758-aa3915e37546"},"vehicle_type_id":"4","last_reported":1773347003,"current_range_meters":31200,"station_id":"ce4bh0h2rcd13ifvqd40","pricing_plan_id":"cebpf4jnsgd1na2vs0mg"},{"bike_id":"d2fbe1d8-ed29-48c3-bec2-1014a298e2cb","system_id":"levelo_inurba_marseille","lat":43.26497,"lon":5.39534,"is_reserved":false,"is_disabled":false,"rental_uris":{"android":"levelo://app?vid=d2fbe1d8-ed29-48c3-bec2-1014a298e2cb","ios":"levelo://app?vid=d2fbe1d8-ed29-48c3-bec2-1014a298e2cb"},"vehicle_type_id":"4","last_reported":1773347003,"current_range_meters":39200,"station_id":"ce4bhi12rcd13ifvqfq0","pricing_plan_id":"cebpf4jnsgd1na2vs0mg"},{"bike_id":"19cf181d-fdab-4dcd-904f-fe72ce92f234","system_id":"levelo_inurba_marseille","lat":43.24807,"lon":5.37467,"is_reserved":false,"is_disabled":false,"rental_uris":{"android":"levelo://app?vid=19cf181d-fdab-4dcd-904f-fe72ce92f234","ios":"levelo://app?vid=19cf181d-fdab-4dcd-904f-fe72ce92f234"},"vehicle_type_id":"4","last_reported":1773347003,"current_range_meters":28800,"station_id":"ce4bhgh2rcd13ifvqfb0","pricing_plan_id":"cebpf4jnsgd1na2vs0mg"},{"bike_id":"f9f8932c-e5b7-4975-ad2e-a66ee74edd53","system_id":"levelo_inurba_marseille","lat":43.27208,"lon":5.39185,"is_reserved":false,"is_disabled":false,"rental_uris":{"android":"levelo://app?vid=f9f8932c-e5b7-4975-ad2e-a66ee74edd53","ios":"levelo://app?vid=f9f8932c-e5b7-4975-ad2e-a66ee74edd53"},"vehicle_type_id":"4","last_reported":1773347003,"current_range_meters":38800,"station_id":"ce4bhhp2rcd13ifvqfm0","pricing_plan_id":"cebpf4jnsgd1na2vs0mg"},{"bike_id":"184b1f72-b72e-4150-b7f3-4b394e3faa9e","system_id":"levelo_inurba_marseille","lat":43.29252,"lon":5.38439,"is_reserved":false,"is_disabled":false,"rental_uris":{"android":"levelo://app?vid=184b1f72-b72e-4150-b7f3-4b394e3faa9e","ios":"levelo://app?vid=184b1f72-b72e-4150-b7f3-4b394e3faa9e"},"vehicle_type_id":"4","last_reported":1773347003,"current_range_meters":33600,"station_id":"ce4bh692rcd13ifvqea0","pricing_plan_id":"cebpf4jnsgd1na2vs0mg"},{"bike_id":"2d139dbe-4a51-46ac-bf7e-5e630dc6608b","system_id":"levelo_inurba_marseille","lat":43.30913,"lon":5.38277,"is_reserved":false,"is_disabled":false,"rental_uris":{"android":"levelo://app?vid=2d139dbe-4a51-46ac-bf7e-5e630dc6608b","ios":"levelo://app?vid=2d139dbe-4a51-46ac-bf7e-5e630dc6608b"},"vehicle_type_id":"4","last_reported":1773347003,"current_range_meters":13600,"station_id":"","pricing_plan_id":"cebpf4jnsgd1na2vs0mg"},{"bike_id":"f283c710-9bcb-4e19-8eea-6c929eb07878","system_id":"levelo_inurba_marseille","lat":43.29527,"lon":5.37499,"is_reserved":false,"is_disabled":true,"rental_uris":{"android":"levelo://app?vid=f283c710-9bcb-4e19-8eea-6c929eb07878","ios":"levelo://app?vid=f283c710-9bcb-4e19-8eea-6c929eb07878"},"vehicle_type_id":"4","last_reported":1773347003,"current_range_meters":39200,"station_id":"ce4bgkp2rcd13ifvqbmg","pricing_plan_id":"cebpf4jnsgd1na2vs0mg"},{"bike_id":"d6ffe75a-ba8c-4166-80e1-ae75c8abdf83","system_id":"levelo_inurba_marseille","lat":43.30801,"lon":5.38148,"is_reserved":false,"is_disabled":false,"rental_uris":{"android":"levelo://app?vid=d6ffe75a-ba8c-4166-80e1-ae75c8abdf83","ios":"levelo://app?vid=d6ffe75a-ba8c-4166-80e1-ae75c8abdf83"},"vehicle_type_id":"4","last_reported":1773347003,"current_range_meters":6000,"station_id":"ce4bgt12rcd13ifvqce0","pricing_plan_id":"cebpf4jnsgd1na2vs0mg"},{"bike_id":"17ce7070-d813-4eaf-a544-6259968aa271","system_id":"levelo_inurba_marseille","lat":43.31109,"lon":5.36899,"is_reserved":false,"is_disabled":false,"rental_uris":{"android":"levelo://app?vid=17ce7070-d813-4eaf-a544-6259968aa271","ios":"levelo://app?vid=17ce7070-d813-4eaf-a544-6259968aa271"},"vehicle_type_id":"4","last_reported":1773347003,"current_range_meters":4400,"station_id":"","pricing_plan_id":"cebpf4jnsgd1na2vs0mg"},{"bike_id":"bdea4757-afc1-44db-84f1-7dc81ac4fac4","system_id":"levelo_inurba_marseille","lat":43.29181,"lon":5.35787,"is_reserved":false,"is_disabled":true,"rental_uris":{"android":"levelo://app?vid=bdea4757-afc1-44db-84f1-7dc81ac4fac4","ios":"levelo://app?vid=bdea4757-afc1-44db-84f1-7dc81ac4fac4"},"vehicle_type_id":"4","last_reported":1773347003,"current_range_meters":25200,"station_id":"ce4bhb12rcd13ifvqel0","pricing_plan_id":"cebpf4jnsgd1na2vs0mg"},{"bike_id":"6cedc732-8a34-4579-a2b2-1d0889bfac20","system_id":"levelo_inurba_marseille","lat":43.28622,"lon":5.35106,"is_reserved":false,"is_disabled":false,"rental_uris":{"android":"levelo://app?vid=6cedc732-8a34-4579-a2b2-1d0889bfac20","ios":"levelo://app?vid=6cedc732-8a34-4579-a2b2-1d0889bfac20"},"vehicle_type_id":"4","last_reported":1773347003,"current_range_meters":29600,"station_id":"ce4bhch2rcd13ifvqeug","pricing_plan_id":"cebpf4jnsgd1na2vs0mg"},{"bike_id":"90efc849-458b-47c9-a27d-bbc0dc83c03b","system_id":"levelo_inurba_marseille","lat":43.26819,"lon":5.40228,"is_reserved":false,"is_disabled":false,"rental_uris":{"android":"levelo://app?vid=90efc849-458b-47c9-a27d-bbc0dc83c03b","ios":"levelo://app?vid=90efc849-458b-47c9-a27d-bbc0dc83c03b"},"vehicle_type_id":"4","last_reported":1773347003,"current_range_meters":39200,"station_id":"ce501612rcd8frsf0b60","pricing_plan_id":"cebpf4jnsgd1na2vs0mg"},{"bike_id":"566d1d1a-0852-4e0d-907b-e1334e0d6bf9","system_id":"levelo_inurba_marseille","lat":43.23791,"lon":5.36628,"is_reserved":false,"is_disabled":false,"rental_uris":{"android":"levelo://app?vid=566d1d1a-0852-4e0d-907b-e1334e0d6bf9","ios":"levelo://app?vid=566d1d1a-0852-4e0d-907b-e1334e0d6bf9"},"vehicle_type_id":"4","last_reported":1773347003,"current_range_meters":38400,"station_id":"st_d3nk18o9ro0c73en2l3g","pricing_plan_id":"cebpf4jnsgd1na2vs0mg"},{"bike_id":"9ae4a329-a1f5-477d-bc12-4893aa80c621","system_id":"levelo_inurba_marseille","lat":43.30334,"lon":5.40437,"is_reserved":false,"is_disabled":false,"rental_uris":{"android":"levelo://app?vid=9ae4a329-a1f5-477d-bc12-4893aa80c621","ios":"levelo://app?vid=9ae4a329-a1f5-477d-bc12-4893aa80c621"},"vehicle_type_id":"4","last_reported":1773347003,"current_range_meters":19600,"station_id":"ce4bh012rcd13ifvqd10","pricing_plan_id":"cebpf4jnsgd1na2vs0mg"},{"bike_id":"f96117d6-7d22-4b57-9564-78f617580e63","system_id":"levelo_inurba_marseille","lat":43.29224,"lon":5.35813,"is_reserved":false,"is_disabled":false,"rental_uris":{"android":"levelo://app?vid=f96117d6-7d22-4b57-9564-78f617580e63","ios":"levelo://app?vid=f96117d6-7d22-4b57-9564-78f617580e63"},"vehicle_type_id":"4","last_reported":1773347003,"current_range_meters":12400,"station_id":"ce4bhb12rcd13ifvqel0","pricing_plan_id":"cebpf4jnsgd1na2vs0mg"},{"bike_id":"fb61eaf5-1ce9-4b0d-8a96-2453ae9d1705","system_id":"levelo_inurba_marseille","lat":43.29727,"lon":5.38119,"is_reserved":false,"is_disabled":false,"rental_uris":{"android":"levelo://app?vid=fb61eaf5-1ce9-4b0d-8a96-2453ae9d1705","ios":"levelo://app?vid=fb61eaf5-1ce9-4b0d-8a96-2453ae9d1705"},"vehicle_type_id":"4","last_reported":1773347003,"current_range_meters":6000,"station_id":"","pricing_plan_id":"cebpf4jnsgd1na2vs0mg"},{"bike_id":"3574d99f-42cd-4f45-aac1-6135db3091d5","system_id":"levelo_inurba_marseille","lat":43.28075,"lon":5.39655,"is_reserved":false,"is_disabled":false,"rental_uris":{"android":"levelo://app?vid=3574d99f-42cd-4f45-aac1-6135db3091d5","ios":"levelo://app?vid=3574d99f-42cd-4f45-aac1-6135db3091d5"},"vehicle_type_id":"4","last_reported":1773347003,"current_range_meters":36800,"station_id":"ce4bho12rcd13ifvqh2g","pricing_plan_id":"cebpf4jnsgd1na2vs0mg"},{"bike_id":"1c573354-cf53-44d3-9111-eb37080df88e","system_id":"levelo_inurba_marseille","lat":43.31591,"lon":5.37365,"is_reserved":false,"is_disabled":false,"rental_uris":{"android":"levelo://app?vid=1c573354-cf53-44d3-9111-eb37080df88e","ios":"levelo://app?vid=1c573354-cf53-44d3-9111-eb37080df88e"},"vehicle_type_id":"4","last_reported":1773347003,"current_range_meters":8400,"station_id":"","pricing_plan_id":"cebpf4jnsgd1na2vs0mg"},{"bike_id":"61658cb4-fecd-4930-90e2-92bade25636d","system_id":"levelo_inurba_marseille","lat":43.30612,"lon":5.37207,"is_reserved":false,"is_disabled":false,"rental_uris":{"android":"levelo://app?vid=61658cb4-fecd-4930-90e2-92bade25636d","ios":"levelo://app?vid=61658cb4-fecd-4930-90e2-92bade25636d"},"vehicle_type_id":"4","last_reported":1773347003,"current_range_meters":30000,"station_id":"ce4bgqh2rcd13ifvqc4g","pricing_plan_id":"cebpf4jnsgd1na2vs0mg"},{"bike_id":"47f2e489-1d72-4bd7-ad5b-8eca934a82fc","system_id":"levelo_inurba_marseille","lat":43.24663,"lon":5.38167,"is_reserved":false,"is_disabled":false,"rental_uris":{"android":"levelo://app?vid=47f2e489-1d72-4bd7-ad5b-8eca934a82fc","ios":"levelo://app?vid=47f2e489-1d72-4bd7-ad5b-8eca934a82fc"},"vehicle_type_id":"4","last_reported":1773347003,"current_range_meters":17200,"station_id":"ce4bhih2rcd13ifvqfr0","pricing_plan_id":"cebpf4jnsgd1na2vs0mg"},{"bike_id":"dd9ca74e-2fb4-495b-96fb-5d616ddda3b7","system_id":"levelo_inurba_marseille","lat":43.2954,"lon":5.37507,"is_reserved":false,"is_disabled":false,"rental_uris":{"android":"levelo://app?vid=dd9ca74e-2fb4-495b-96fb-5d616ddda3b7","ios":"levelo://app?vid=dd9ca74e-2fb4-495b-96fb-5d616ddda3b7"},"vehicle_type_id":"4","last_reported":1773347003,"current_range_meters":28800,"station_id":"ce4bgkp2rcd13ifvqbmg","pricing_plan_id":"cebpf4jnsgd1na2vs0mg"},{"bike_id":"c97c393c-d0e9-4f0f-905e-6f9973de52a4","system_id":"levelo_inurba_marseille","lat":43.27919,"lon":5.39578,"is_reserved":false,"is_disabled":false,"rental_uris":{"android":"levelo://app?vid=c97c393c-d0e9-4f0f-905e-6f9973de52a4","ios":"levelo://app?vid=c97c393c-d0e9-4f0f-905e-6f9973de52a4"},"vehicle_type_id":"4","last_reported":1773347003,"current_range_meters":11200,"station_id":"ce4bhf92rcd13ifvqf40","pricing_plan_id":"cebpf4jnsgd1na2vs0mg"},{"bike_id":"98a69b82-3426-4662-b314-8ddb62a05de5","system_id":"levelo_inurba_marseille","lat":43.30075,"lon":5.43743,"is_reserved":false,"is_disabled":false,"rental_uris":{"android":"levelo://app?vid=98a69b82-3426-4662-b314-8ddb62a05de5","ios":"levelo://app?vid=98a69b82-3426-4662-b314-8ddb62a05de5"},"vehicle_type_id":"4","last_reported":1773347003,"current_range_meters":10800,"station_id":"","pricing_plan_id":"cebpf4jnsgd1na2vs0mg"},{"bike_id":"a0758522-0d2e-4a8c-8a3b-9a02faec8c48","system_id":"levelo_inurba_marseille","lat":43.29874,"lon":5.39741,"is_reserved":false,"is_disabled":false,"rental_uris":{"android":"levelo://app?vid=a0758522-0d2e-4a8c-8a3b-9a02faec8c48","ios":"levelo://app?vid=a0758522-0d2e-4a8c-8a3b-9a02faec8c48"},"vehicle_type_id":"4","last_reported":1773347003,"current_range_meters":10000,"station_id":"ce4bh0h2rcd13ifvqd50","pricing_plan_id":"cebpf4jnsgd1na2vs0mg"},{"bike_id":"6d46d896-6c3a-4673-b63b-8458d88a7207","system_id":"levelo_inurba_marseille","lat":43.28916,"lon":5.36372,"is_reserved":false,"is_disabled":false,"rental_uris":{"android":"levelo://app?vid=6d46d896-6c3a-4673-b63b-8458d88a7207","ios":"levelo://app?vid=6d46d896-6c3a-4673-b63b-8458d88a7207"},"vehicle_type_id":"4","last_reported":1773347003,"current_range_meters":36800,"station_id":"ce4bhc92rcd13ifvqetg","pricing_plan_id":"cebpf4jnsgd1na2vs0mg"},{"bike_id":"a5eb7e2e-f45f-42c7-8ba3-bf76c2472338","system_id":"levelo_inurba_marseille","lat":43.30207,"lon":5.39438,"is_reserved":false,"is_disabled":false,"rental_uris":{"android":"levelo://app?vid=a5eb7e2e-f45f-42c7-8ba3-bf76c2472338","ios":"levelo://app?vid=a5eb7e2e-f45f-42c7-8ba3-bf76c2472338"},"vehicle_type_id":"4","last_reported":1773347003,"current_range_meters":18000,"station_id":"ce4bh0p2rcd13ifvqd70","pricing_plan_id":"cebpf4jnsgd1na2vs0mg"},{"bike_id":"cd33ed53-4cb6-425f-862a-680ff5e54cc1","system_id":"levelo_inurba_marseille","lat":43.30228,"lon":5.3705,"is_reserved":false,"is_disabled":false,"rental_uris":{"android":"levelo://app?vid=cd33ed53-4cb6-425f-862a-680ff5e54cc1","ios":"levelo://app?vid=cd33ed53-4cb6-425f-862a-680ff5e54cc1"},"vehicle_type_id":"4","last_reported":1773347003,"current_range_meters":33600,"station_id":"","pricing_plan_id":"cebpf4jnsgd1na2vs0mg"},{"bike_id":"6516a7e3-f949-4aab-a60f-5e84bde99216","system_id":"levelo_inurba_marseille","lat":43.29705,"lon":5.36559,"is_reserved":false,"is_disabled":false,"rental_uris":{"android":"levelo://app?vid=6516a7e3-f949-4aab-a60f-5e84bde99216","ios":"levelo://app?vid=6516a7e3-f949-4aab-a60f-5e84bde99216"},"vehicle_type_id":"4","last_reported":1773347003,"current_range_meters":38000,"station_id":"ce4bgn12rcd13ifvqbt0","pricing_plan_id":"cebpf4jnsgd1na2vs0mg"},{"bike_id":"950bab55-74a0-4c68-94d8-f7bcf82fb789","system_id":"levelo_inurba_marseille","lat":43.2782,"lon":5.40718,"is_reserved":false,"is_disabled":false,"rental_uris":{"android":"levelo://app?vid=950bab55-74a0-4c68-94d8-f7bcf82fb789","ios":"levelo://app?vid=950bab55-74a0-4c68-94d8-f7bcf82fb789"},"vehicle_type_id":"4","last_reported":1773347003,"current_range_meters":34000,"station_id":"ce4bhnh2rcd13ifvqgtg","pricing_plan_id":"cebpf4jnsgd1na2vs0mg"},{"bike_id":"c2f40725-1ed9-4d1d-87ac-56a67ffd2ae7","system_id":"levelo_inurba_marseille","lat":43.26065,"lon":5.39399,"is_reserved":false,"is_disabled":false,"rental_uris":{"android":"levelo://app?vid=c2f40725-1ed9-4d1d-87ac-56a67ffd2ae7","ios":"levelo://app?vid=c2f40725-1ed9-4d1d-87ac-56a67ffd2ae7"},"vehicle_type_id":"4","last_reported":1773347003,"current_range_meters":16400,"station_id":"ce4bhh92rcd13ifvqfj0","pricing_plan_id":"cebpf4jnsgd1na2vs0mg"},{"bike_id":"34d03cc1-4b05-425c-9629-1731093ef7d7","system_id":"levelo_inurba_marseille","lat":43.29273,"lon":5.37145,"is_reserved":false,"is_disabled":false,"rental_uris":{"android":"levelo://app?vid=34d03cc1-4b05-425c-9629-1731093ef7d7","ios":"levelo://app?vid=34d03cc1-4b05-425c-9629-1731093ef7d7"},"vehicle_type_id":"4","last_reported":1773347003,"current_range_meters":14400,"station_id":"ce4bgh92rcd13ifvqb40","pricing_plan_id":"cebpf4jnsgd1na2vs0mg"},{"bike_id":"6d1a4920-8e11-4bfa-8529-40727e99424c","system_id":"levelo_inurba_marseille","lat":43.27971,"lon":5.38701,"is_reserved":false,"is_disabled":false,"rental_uris":{"android":"levelo://app?vid=6d1a4920-8e11-4bfa-8529-40727e99424c","ios":"levelo://app?vid=6d1a4920-8e11-4bfa-8529-40727e99424c"},"vehicle_type_id":"4","last_reported":1773347003,"current_range_meters":18800,"station_id":"ce4bhg12rcd13ifvqf80","pricing_plan_id":"cebpf4jnsgd1na2vs0mg"},{"bike_id":"05fa37af-0792-4d18-b58b-4668400518b4","system_id":"levelo_inurba_marseille","lat":43.24092,"lon":5.37752,"is_reserved":false,"is_disabled":false,"rental_uris":{"android":"levelo://app?vid=05fa37af-0792-4d18-b58b-4668400518b4","ios":"levelo://app?vid=05fa37af-0792-4d18-b58b-4668400518b4"},"vehicle_type_id":"4","last_reported":1773347003,"current_range_meters":36000,"station_id":"ce4bhnp2rcd13ifvqgvg","pricing_plan_id":"cebpf4jnsgd1na2vs0mg"},{"bike_id":"91fd971a-e95c-4480-bf20-ce7812403500","system_id":"levelo_inurba_marseille","lat":43.27048,"lon":5.38305,"is_reserved":false,"is_disabled":false,"rental_uris":{"android":"levelo://app?vid=91fd971a-e95c-4480-bf20-ce7812403500","ios":"levelo://app?vid=91fd971a-e95c-4480-bf20-ce7812403500"},"vehicle_type_id":"4","last_reported":1773347003,"current_range_meters":16400,"station_id":"st_d3n2fo6cfp8s73cte1j0","pricing_plan_id":"cebpf4jnsgd1na2vs0mg"},{"bike_id":"7711e5f1-6e58-4a75-82b2-020c6ee655ef","system_id":"levelo_inurba_marseille","lat":43.30607,"lon":5.39335,"is_reserved":false,"is_disabled":false,"rental_uris":{"android":"levelo://app?vid=7711e5f1-6e58-4a75-82b2-020c6ee655ef","ios":"levelo://app?vid=7711e5f1-6e58-4a75-82b2-020c6ee655ef"},"vehicle_type_id":"4","last_reported":1773347003,"current_range_meters":36000,"station_id":"ce4bh0p2rcd13ifvqd80","pricing_plan_id":"cebpf4jnsgd1na2vs0mg"},{"bike_id":"58050a15-c5ad-4992-9d53-ca68c740d72b","system_id":"levelo_inurba_marseille","lat":43.30312,"lon":5.39207,"is_reserved":false,"is_disabled":true,"rental_uris":{"android":"levelo://app?vid=58050a15-c5ad-4992-9d53-ca68c740d72b","ios":"levelo://app?vid=58050a15-c5ad-4992-9d53-ca68c740d72b"},"vehicle_type_id":"4","last_reported":1773347003,"current_range_meters":20800,"station_id":"ce4bgkh2rcd13ifvqbk0","pricing_plan_id":"cebpf4jnsgd1na2vs0mg"},{"bike_id":"988db3b8-861f-418c-a7ec-7ae78131696e","system_id":"levelo_inurba_marseille","lat":43.24683,"lon":5.43346,"is_reserved":false,"is_disabled":false,"rental_uris":{"android":"levelo://app?vid=988db3b8-861f-418c-a7ec-7ae78131696e","ios":"levelo://app?vid=988db3b8-861f-418c-a7ec-7ae78131696e"},"vehicle_type_id":"4","last_reported":1773347003,"current_range_meters":25200,"station_id":"","pricing_plan_id":"cebpf4jnsgd1na2vs0mg"},{"bike_id":"b61cadaf-492c-4a7f-9edc-04379d033dbf","system_id":"levelo_inurba_marseille","lat":43.2979,"lon":5.38102,"is_reserved":false,"is_disabled":false,"rental_uris":{"android":"levelo://app?vid=b61cadaf-492c-4a7f-9edc-04379d033dbf","ios":"levelo://app?vid=b61cadaf-492c-4a7f-9edc-04379d033dbf"},"vehicle_type_id":"4","last_reported":1773347003,"current_range_meters":39200,"station_id":"ce4bgip2rcd13ifvqbb0","pricing_plan_id":"cebpf4jnsgd1na2vs0mg"},{"bike_id":"dd854777-f378-4132-94e6-63027cc18b82","system_id":"levelo_inurba_marseille","lat":43.29727,"lon":5.41059,"is_reserved":false,"is_disabled":false,"rental_uris":{"android":"levelo://app?vid=dd854777-f378-4132-94e6-63027cc18b82","ios":"levelo://app?vid=dd854777-f378-4132-94e6-63027cc18b82"},"vehicle_type_id":"4","last_reported":1773347003,"current_range_meters":22800,"station_id":"","pricing_plan_id":"cebpf4jnsgd1na2vs0mg"},{"bike_id":"8834cff0-6eb6-47a0-89df-f92f2d188784","system_id":"levelo_inurba_marseille","lat":43.29637,"lon":5.38807,"is_reserved":false,"is_disabled":false,"rental_uris":{"android":"levelo://app?vid=8834cff0-6eb6-47a0-89df-f92f2d188784","ios":"levelo://app?vid=8834cff0-6eb6-47a0-89df-f92f2d188784"},"vehicle_type_id":"4","last_reported":1773347003,"current_range_meters":27200,"station_id":"","pricing_plan_id":"cebpf4jnsgd1na2vs0mg"},{"bike_id":"35a82536-c165-4433-a2e7-59ec0df78006","system_id":"levelo_inurba_marseille","lat":43.32383,"lon":5.38882,"is_reserved":false,"is_disabled":false,"rental_uris":{"android":"levelo://app?vid=35a82536-c165-4433-a2e7-59ec0df78006","ios":"levelo://app?vid=35a82536-c165-4433-a2e7-59ec0df78006"},"vehicle_type_id":"4","last_reported":1773347003,"current_range_meters":3600,"station_id":"ce4bhqp2rcd13ifvqhog","pricing_plan_id":"cebpf4jnsgd1na2vs0mg"},{"bike_id":"85b5b118-e47b-4adc-aa0c-e9bbc2d708e9","system_id":"levelo_inurba_marseille","lat":43.27397,"lon":5.42479,"is_reserved":false,"is_disabled":false,"rental_uris":{"android":"levelo://app?vid=85b5b118-e47b-4adc-aa0c-e9bbc2d708e9","ios":"levelo://app?vid=85b5b118-e47b-4adc-aa0c-e9bbc2d708e9"},"vehicle_type_id":"4","last_reported":1773347003,"current_range_meters":17200,"station_id":"","pricing_plan_id":"cebpf4jnsgd1na2vs0mg"},{"bike_id":"2bfad22e-a84d-4ec7-8c60-301b2abafffe","system_id":"levelo_inurba_marseille","lat":43.30909,"lon":5.36853,"is_reserved":false,"is_disabled":false,"rental_uris":{"android":"levelo://app?vid=2bfad22e-a84d-4ec7-8c60-301b2abafffe","ios":"levelo://app?vid=2bfad22e-a84d-4ec7-8c60-301b2abafffe"},"vehicle_type_id":"4","last_reported":1773347003,"current_range_meters":26000,"station_id":"ce4bgn92rcd13ifvqbvg","pricing_plan_id":"cebpf4jnsgd1na2vs0mg"},{"bike_id":"532f1fe9-6384-4056-88f3-ddfdd084688a","system_id":"levelo_inurba_marseille","lat":43.28979,"lon":5.42582,"is_reserved":false,"is_disabled":false,"rental_uris":{"android":"levelo://app?vid=532f1fe9-6384-4056-88f3-ddfdd084688a","ios":"levelo://app?vid=532f1fe9-6384-4056-88f3-ddfdd084688a"},"vehicle_type_id":"4","last_reported":1773347003,"current_range_meters":29600,"station_id":"","pricing_plan_id":"cebpf4jnsgd1na2vs0mg"},{"bike_id":"08506998-8ae7-4962-89f3-6ccd37448f52","system_id":"levelo_inurba_marseille","lat":43.29295,"lon":5.36821,"is_reserved":false,"is_disabled":false,"rental_uris":{"android":"levelo://app?vid=08506998-8ae7-4962-89f3-6ccd37448f52","ios":"levelo://app?vid=08506998-8ae7-4962-89f3-6ccd37448f52"},"vehicle_type_id":"4","last_reported":1773347003,"current_range_meters":9200,"station_id":"ce4bhbp2rcd13ifvqesg","pricing_plan_id":"cebpf4jnsgd1na2vs0mg"},{"bike_id":"bd108c0a-2aa4-4697-8083-b96a642b271a","system_id":"levelo_inurba_marseille","lat":43.28351,"lon":5.38095,"is_reserved":false,"is_disabled":false,"rental_uris":{"android":"levelo://app?vid=bd108c0a-2aa4-4697-8083-b96a642b271a","ios":"levelo://app?vid=bd108c0a-2aa4-4697-8083-b96a642b271a"},"vehicle_type_id":"4","last_reported":1773347003,"current_range_meters":19200,"station_id":"ce4bh412rcd13ifvqdr0","pricing_plan_id":"cebpf4jnsgd1na2vs0mg"},{"bike_id":"452441a4-fd17-4cb2-8173-05348912ffe5","system_id":"levelo_inurba_marseille","lat":43.25506,"lon":5.37633,"is_reserved":false,"is_disabled":false,"rental_uris":{"android":"levelo://app?vid=452441a4-fd17-4cb2-8173-05348912ffe5","ios":"levelo://app?vid=452441a4-fd17-4cb2-8173-05348912ffe5"},"vehicle_type_id":"4","last_reported":1773347003,"current_range_meters":39200,"station_id":"ce4bhh12rcd13ifvqff0","pricing_plan_id":"cebpf4jnsgd1na2vs0mg"},{"bike_id":"714b8057-ec12-4240-acd3-7f97fc6b2ebc","system_id":"levelo_inurba_marseille","lat":43.29781,"lon":5.37066,"is_reserved":false,"is_disabled":false,"rental_uris":{"android":"levelo://app?vid=714b8057-ec12-4240-acd3-7f97fc6b2ebc","ios":"levelo://app?vid=714b8057-ec12-4240-acd3-7f97fc6b2ebc"},"vehicle_type_id":"4","last_reported":1773347003,"current_range_meters":14800,"station_id":"ce4bgop2rcd13ifvqc1g","pricing_plan_id":"cebpf4jnsgd1na2vs0mg"},{"bike_id":"937425a6-6b1f-4d7a-a720-58bd8c05238c","system_id":"levelo_inurba_marseille","lat":43.29396,"lon":5.37923,"is_reserved":false,"is_disabled":false,"rental_uris":{"android":"levelo://app?vid=937425a6-6b1f-4d7a-a720-58bd8c05238c","ios":"levelo://app?vid=937425a6-6b1f-4d7a-a720-58bd8c05238c"},"vehicle_type_id":"4","last_reported":1773347003,"current_range_meters":34800,"station_id":"","pricing_plan_id":"cebpf4jnsgd1na2vs0mg"},{"bike_id":"64987c27-f305-4d9c-82ad-26bef65383d9","system_id":"levelo_inurba_marseille","lat":43.27993,"lon":5.41658,"is_reserved":false,"is_disabled":false,"rental_uris":{"android":"levelo://app?vid=64987c27-f305-4d9c-82ad-26bef65383d9","ios":"levelo://app?vid=64987c27-f305-4d9c-82ad-26bef65383d9"},"vehicle_type_id":"4","last_reported":1773347003,"current_range_meters":12000,"station_id":"ce4bho12rcd13ifvqh1g","pricing_plan_id":"cebpf4jnsgd1na2vs0mg"},{"bike_id":"50d5b07f-fe88-4c4b-a84d-54e834eca7a5","system_id":"levelo_inurba_marseille","lat":43.28051,"lon":5.36939,"is_reserved":false,"is_disabled":false,"rental_uris":{"android":"levelo://app?vid=50d5b07f-fe88-4c4b-a84d-54e834eca7a5","ios":"levelo://app?vid=50d5b07f-fe88-4c4b-a84d-54e834eca7a5"},"vehicle_type_id":"4","last_reported":1773347003,"current_range_meters":33200,"station_id":"ce4bha12rcd13ifvqef0","pricing_plan_id":"cebpf4jnsgd1na2vs0mg"},{"bike_id":"53b6e2aa-5130-4368-9b3f-cfe30b0e707c","system_id":"levelo_inurba_marseille","lat":43.30324,"lon":5.40429,"is_reserved":false,"is_disabled":false,"rental_uris":{"android":"levelo://app?vid=53b6e2aa-5130-4368-9b3f-cfe30b0e707c","ios":"levelo://app?vid=53b6e2aa-5130-4368-9b3f-cfe30b0e707c"},"vehicle_type_id":"4","last_reported":1773347003,"current_range_meters":30000,"station_id":"ce4bh012rcd13ifvqd10","pricing_plan_id":"cebpf4jnsgd1na2vs0mg"},{"bike_id":"b94c3b6d-7912-4bb7-bd16-b874ff101a3d","system_id":"levelo_inurba_marseille","lat":43.24803,"lon":5.37452,"is_reserved":false,"is_disabled":false,"rental_uris":{"android":"levelo://app?vid=b94c3b6d-7912-4bb7-bd16-b874ff101a3d","ios":"levelo://app?vid=b94c3b6d-7912-4bb7-bd16-b874ff101a3d"},"vehicle_type_id":"4","last_reported":1773347003,"current_range_meters":25200,"station_id":"ce4bhgh2rcd13ifvqfb0","pricing_plan_id":"cebpf4jnsgd1na2vs0mg"},{"bike_id":"54afb379-a9b4-4af3-8a9e-239b9433228c","system_id":"levelo_inurba_marseille","lat":43.29898,"lon":5.43683,"is_reserved":false,"is_disabled":false,"rental_uris":{"android":"levelo://app?vid=54afb379-a9b4-4af3-8a9e-239b9433228c","ios":"levelo://app?vid=54afb379-a9b4-4af3-8a9e-239b9433228c"},"vehicle_type_id":"4","last_reported":1773347003,"current_range_meters":28000,"station_id":"ce4bhpp2rcd13ifvqhfg","pricing_plan_id":"cebpf4jnsgd1na2vs0mg"},{"bike_id":"1866c223-50ab-4283-b8a6-28a247e511e9","system_id":"levelo_inurba_marseille","lat":43.33114,"lon":5.36522,"is_reserved":false,"is_disabled":false,"rental_uris":{"android":"levelo://app?vid=1866c223-50ab-4283-b8a6-28a247e511e9","ios":"levelo://app?vid=1866c223-50ab-4283-b8a6-28a247e511e9"},"vehicle_type_id":"4","last_reported":1773347003,"current_range_meters":38000,"station_id":"","pricing_plan_id":"cebpf4jnsgd1na2vs0mg"},{"bike_id":"54a39cfc-a5ce-4979-aed5-b71f4c6e4857","system_id":"levelo_inurba_marseille","lat":43.29026,"lon":5.38642,"is_reserved":false,"is_disabled":false,"rental_uris":{"android":"levelo://app?vid=54a39cfc-a5ce-4979-aed5-b71f4c6e4857","ios":"levelo://app?vid=54a39cfc-a5ce-4979-aed5-b71f4c6e4857"},"vehicle_type_id":"4","last_reported":1773347003,"current_range_meters":10800,"station_id":"ce4bh4p2rcd13ifvqe0g","pricing_plan_id":"cebpf4jnsgd1na2vs0mg"},{"bike_id":"6077e93d-e21b-49e2-850a-6aab8bee75af","system_id":"levelo_inurba_marseille","lat":43.29923,"lon":5.37462,"is_reserved":false,"is_disabled":false,"rental_uris":{"android":"levelo://app?vid=6077e93d-e21b-49e2-850a-6aab8bee75af","ios":"levelo://app?vid=6077e93d-e21b-49e2-850a-6aab8bee75af"},"vehicle_type_id":"4","last_reported":1773347003,"current_range_meters":39200,"station_id":"ce4bgjh2rcd13ifvqbg0","pricing_plan_id":"cebpf4jnsgd1na2vs0mg"},{"bike_id":"58622676-75ce-48ef-b32a-ec505bb9dd92","system_id":"levelo_inurba_marseille","lat":43.31388,"lon":5.38471,"is_reserved":false,"is_disabled":false,"rental_uris":{"android":"levelo://app?vid=58622676-75ce-48ef-b32a-ec505bb9dd92","ios":"levelo://app?vid=58622676-75ce-48ef-b32a-ec505bb9dd92"},"vehicle_type_id":"4","last_reported":1773347003,"current_range_meters":33600,"station_id":"ce4bgt92rcd13ifvqcf0","pricing_plan_id":"cebpf4jnsgd1na2vs0mg"},{"bike_id":"85027943-df55-416f-9da1-ea4ca84b0bd0","system_id":"levelo_inurba_marseille","lat":43.29172,"lon":5.37156,"is_reserved":false,"is_disabled":false,"rental_uris":{"android":"levelo://app?vid=85027943-df55-416f-9da1-ea4ca84b0bd0","ios":"levelo://app?vid=85027943-df55-416f-9da1-ea4ca84b0bd0"},"vehicle_type_id":"4","last_reported":1773347003,"current_range_meters":35200,"station_id":"ce4bha92rcd13ifvqeh0","pricing_plan_id":"cebpf4jnsgd1na2vs0mg"},{"bike_id":"d0eebcb7-9745-4c49-a9e4-a6e32a030f1c","system_id":"levelo_inurba_marseille","lat":43.25575,"lon":5.38243,"is_reserved":false,"is_disabled":false,"rental_uris":{"android":"levelo://app?vid=d0eebcb7-9745-4c49-a9e4-a6e32a030f1c","ios":"levelo://app?vid=d0eebcb7-9745-4c49-a9e4-a6e32a030f1c"},"vehicle_type_id":"4","last_reported":1773347003,"current_range_meters":30000,"station_id":"ce4bhih2rcd13ifvqfs0","pricing_plan_id":"cebpf4jnsgd1na2vs0mg"},{"bike_id":"d2bcd2b3-b9c0-44b8-b65e-328220c5307e","system_id":"levelo_inurba_marseille","lat":43.29116,"lon":5.43276,"is_reserved":false,"is_disabled":false,"rental_uris":{"android":"levelo://app?vid=d2bcd2b3-b9c0-44b8-b65e-328220c5307e","ios":"levelo://app?vid=d2bcd2b3-b9c0-44b8-b65e-328220c5307e"},"vehicle_type_id":"4","last_reported":1773347003,"current_range_meters":38800,"station_id":"","pricing_plan_id":"cebpf4jnsgd1na2vs0mg"},{"bike_id":"2cfb7bc1-ec62-4155-a8fb-fcdb094aa3f6","system_id":"levelo_inurba_marseille","lat":43.29667,"lon":5.37643,"is_reserved":false,"is_disabled":true,"rental_uris":{"android":"levelo://app?vid=2cfb7bc1-ec62-4155-a8fb-fcdb094aa3f6","ios":"levelo://app?vid=2cfb7bc1-ec62-4155-a8fb-fcdb094aa3f6"},"vehicle_type_id":"4","last_reported":1773347003,"current_range_meters":1600,"station_id":"","pricing_plan_id":"cebpf4jnsgd1na2vs0mg"},{"bike_id":"801e310e-d83e-452a-827b-f0f43a0c1cca","system_id":"levelo_inurba_marseille","lat":43.28157,"lon":5.42606,"is_reserved":false,"is_disabled":false,"rental_uris":{"android":"levelo://app?vid=801e310e-d83e-452a-827b-f0f43a0c1cca","ios":"levelo://app?vid=801e310e-d83e-452a-827b-f0f43a0c1cca"},"vehicle_type_id":"4","last_reported":1773347003,"current_range_meters":23200,"station_id":"ce4bhnh2rcd13ifvqgug","pricing_plan_id":"cebpf4jnsgd1na2vs0mg"},{"bike_id":"a50db47c-b4f2-4a58-ae7d-0a4f7384612e","system_id":"levelo_inurba_marseille","lat":43.29913,"lon":5.37533,"is_reserved":false,"is_disabled":false,"rental_uris":{"android":"levelo://app?vid=a50db47c-b4f2-4a58-ae7d-0a4f7384612e","ios":"levelo://app?vid=a50db47c-b4f2-4a58-ae7d-0a4f7384612e"},"vehicle_type_id":"4","last_reported":1773347003,"current_range_meters":31200,"station_id":"ce4bgjh2rcd13ifvqbg0","pricing_plan_id":"cebpf4jnsgd1na2vs0mg"},{"bike_id":"896440e6-cef8-4268-bb86-ac2c6e2de747","system_id":"levelo_inurba_marseille","lat":43.28479,"lon":5.48398,"is_reserved":false,"is_disabled":false,"rental_uris":{"android":"levelo://app?vid=896440e6-cef8-4268-bb86-ac2c6e2de747","ios":"levelo://app?vid=896440e6-cef8-4268-bb86-ac2c6e2de747"},"vehicle_type_id":"4","last_reported":1773347003,"current_range_meters":28400,"station_id":"","pricing_plan_id":"cebpf4jnsgd1na2vs0mg"},{"bike_id":"85926095-37c9-42c9-b424-84364cf9a0a9","system_id":"levelo_inurba_marseille","lat":43.2885,"lon":5.35852,"is_reserved":false,"is_disabled":false,"rental_uris":{"android":"levelo://app?vid=85926095-37c9-42c9-b424-84364cf9a0a9","ios":"levelo://app?vid=85926095-37c9-42c9-b424-84364cf9a0a9"},"vehicle_type_id":"4","last_reported":1773347003,"current_range_meters":39200,"station_id":"ce4bhb12rcd13ifvqem0","pricing_plan_id":"cebpf4jnsgd1na2vs0mg"},{"bike_id":"f638d4e1-d21e-4a82-9602-77dd36bc6d43","system_id":"levelo_inurba_marseille","lat":43.28342,"lon":5.38119,"is_reserved":false,"is_disabled":false,"rental_uris":{"android":"levelo://app?vid=f638d4e1-d21e-4a82-9602-77dd36bc6d43","ios":"levelo://app?vid=f638d4e1-d21e-4a82-9602-77dd36bc6d43"},"vehicle_type_id":"4","last_reported":1773347003,"current_range_meters":20000,"station_id":"ce4bh412rcd13ifvqdr0","pricing_plan_id":"cebpf4jnsgd1na2vs0mg"},{"bike_id":"2c1215f2-9624-4e50-bbbb-a53264cdd31e","system_id":"levelo_inurba_marseille","lat":43.28462,"lon":5.48396,"is_reserved":false,"is_disabled":false,"rental_uris":{"android":"levelo://app?vid=2c1215f2-9624-4e50-bbbb-a53264cdd31e","ios":"levelo://app?vid=2c1215f2-9624-4e50-bbbb-a53264cdd31e"},"vehicle_type_id":"4","last_reported":1773347003,"current_range_meters":16000,"station_id":"","pricing_plan_id":"cebpf4jnsgd1na2vs0mg"},{"bike_id":"6c55389e-fb6b-4acd-b05e-739edebd2301","system_id":"levelo_inurba_marseille","lat":43.31067,"lon":5.37164,"is_reserved":false,"is_disabled":false,"rental_uris":{"android":"levelo://app?vid=6c55389e-fb6b-4acd-b05e-739edebd2301","ios":"levelo://app?vid=6c55389e-fb6b-4acd-b05e-739edebd2301"},"vehicle_type_id":"4","last_reported":1773347003,"current_range_meters":38000,"station_id":"st_d4kl2rp97mjs73e7tdfg","pricing_plan_id":"cebpf4jnsgd1na2vs0mg"},{"bike_id":"c1db54c2-038e-4f3d-a503-c0e3fc6c96ed","system_id":"levelo_inurba_marseille","lat":43.33549,"lon":5.3746,"is_reserved":false,"is_disabled":false,"rental_uris":{"android":"levelo://app?vid=c1db54c2-038e-4f3d-a503-c0e3fc6c96ed","ios":"levelo://app?vid=c1db54c2-038e-4f3d-a503-c0e3fc6c96ed"},"vehicle_type_id":"4","last_reported":1773347003,"current_range_meters":14400,"station_id":"st_d46tts09ee8s73dlu43g","pricing_plan_id":"cebpf4jnsgd1na2vs0mg"},{"bike_id":"a0ab89fd-d4e3-4039-8377-577b0acf001d","system_id":"levelo_inurba_marseille","lat":43.24368,"lon":5.44133,"is_reserved":false,"is_disabled":true,"rental_uris":{"android":"levelo://app?vid=a0ab89fd-d4e3-4039-8377-577b0acf001d","ios":"levelo://app?vid=a0ab89fd-d4e3-4039-8377-577b0acf001d"},"vehicle_type_id":"4","last_reported":1773347003,"current_range_meters":8000,"station_id":"","pricing_plan_id":"cebpf4jnsgd1na2vs0mg"},{"bike_id":"a5f0fcf2-4428-466f-8d7e-9ffbba7bbbc4","system_id":"levelo_inurba_marseille","lat":43.29897,"lon":5.39744,"is_reserved":false,"is_disabled":false,"rental_uris":{"android":"levelo://app?vid=a5f0fcf2-4428-466f-8d7e-9ffbba7bbbc4","ios":"levelo://app?vid=a5f0fcf2-4428-466f-8d7e-9ffbba7bbbc4"},"vehicle_type_id":"4","last_reported":1773347003,"current_range_meters":16400,"station_id":"ce4bh0h2rcd13ifvqd50","pricing_plan_id":"cebpf4jnsgd1na2vs0mg"},{"bike_id":"c7465550-e94f-4578-a2c2-feafba493079","system_id":"levelo_inurba_marseille","lat":43.30686,"lon":5.37067,"is_reserved":false,"is_disabled":true,"rental_uris":{"android":"levelo://app?vid=c7465550-e94f-4578-a2c2-feafba493079","ios":"levelo://app?vid=c7465550-e94f-4578-a2c2-feafba493079"},"vehicle_type_id":"4","last_reported":1773347003,"current_range_meters":1200,"station_id":"","pricing_plan_id":"cebpf4jnsgd1na2vs0mg"},{"bike_id":"2b9c7f90-371a-41f5-9f74-03355f4ede66","system_id":"levelo_inurba_marseille","lat":43.28416,"lon":5.37501,"is_reserved":false,"is_disabled":false,"rental_uris":{"android":"levelo://app?vid=2b9c7f90-371a-41f5-9f74-03355f4ede66","ios":"levelo://app?vid=2b9c7f90-371a-41f5-9f74-03355f4ede66"},"vehicle_type_id":"4","last_reported":1773347003,"current_range_meters":32400,"station_id":"ce4bh412rcd13ifvqds0","pricing_plan_id":"cebpf4jnsgd1na2vs0mg"},{"bike_id":"074abf32-ac3f-4657-8880-be02438a7ff0","system_id":"levelo_inurba_marseille","lat":43.23188,"lon":5.3997,"is_reserved":false,"is_disabled":false,"rental_uris":{"android":"levelo://app?vid=074abf32-ac3f-4657-8880-be02438a7ff0","ios":"levelo://app?vid=074abf32-ac3f-4657-8880-be02438a7ff0"},"vehicle_type_id":"4","last_reported":1773347003,"current_range_meters":40000,"station_id":"ce4bhn12rcd13ifvqgqg","pricing_plan_id":"cebpf4jnsgd1na2vs0mg"},{"bike_id":"345a8b78-6003-49bc-a386-06d6df357dab","system_id":"levelo_inurba_marseille","lat":43.29034,"lon":5.38655,"is_reserved":false,"is_disabled":false,"rental_uris":{"android":"levelo://app?vid=345a8b78-6003-49bc-a386-06d6df357dab","ios":"levelo://app?vid=345a8b78-6003-49bc-a386-06d6df357dab"},"vehicle_type_id":"4","last_reported":1773347003,"current_range_meters":24000,"station_id":"ce4bh4p2rcd13ifvqe0g","pricing_plan_id":"cebpf4jnsgd1na2vs0mg"},{"bike_id":"e8b7d766-9ece-4870-a1b8-5b316a1b8e67","system_id":"levelo_inurba_marseille","lat":43.22556,"lon":5.4164,"is_reserved":false,"is_disabled":false,"rental_uris":{"android":"levelo://app?vid=e8b7d766-9ece-4870-a1b8-5b316a1b8e67","ios":"levelo://app?vid=e8b7d766-9ece-4870-a1b8-5b316a1b8e67"},"vehicle_type_id":"4","last_reported":1773347003,"current_range_meters":13600,"station_id":"st_d2o4gvlbi1j2169b742g","pricing_plan_id":"cebpf4jnsgd1na2vs0mg"},{"bike_id":"d6e33741-be01-4184-a659-f0a031ff17ef","system_id":"levelo_inurba_marseille","lat":43.28208,"lon":5.39049,"is_reserved":false,"is_disabled":true,"rental_uris":{"android":"levelo://app?vid=d6e33741-be01-4184-a659-f0a031ff17ef","ios":"levelo://app?vid=d6e33741-be01-4184-a659-f0a031ff17ef"},"vehicle_type_id":"4","last_reported":1773347003,"current_range_meters":38000,"station_id":"ce4bhn92rcd13ifvqgsg","pricing_plan_id":"cebpf4jnsgd1na2vs0mg"},{"bike_id":"7829957c-d6d0-4e67-9596-f2c0eb93d3a3","system_id":"levelo_inurba_marseille","lat":43.24646,"lon":5.38891,"is_reserved":false,"is_disabled":false,"rental_uris":{"android":"levelo://app?vid=7829957c-d6d0-4e67-9596-f2c0eb93d3a3","ios":"levelo://app?vid=7829957c-d6d0-4e67-9596-f2c0eb93d3a3"},"vehicle_type_id":"4","last_reported":1773347003,"current_range_meters":21600,"station_id":"ce4bhg12rcd13ifvqf60","pricing_plan_id":"cebpf4jnsgd1na2vs0mg"},{"bike_id":"9e204256-2c9a-4574-8b2c-581758c6488d","system_id":"levelo_inurba_marseille","lat":43.2708,"lon":5.42317,"is_reserved":false,"is_disabled":false,"rental_uris":{"android":"levelo://app?vid=9e204256-2c9a-4574-8b2c-581758c6488d","ios":"levelo://app?vid=9e204256-2c9a-4574-8b2c-581758c6488d"},"vehicle_type_id":"4","last_reported":1773347003,"current_range_meters":12800,"station_id":"ce4bhk92rcd13ifvqgb0","pricing_plan_id":"cebpf4jnsgd1na2vs0mg"},{"bike_id":"e50c6797-fb66-441b-97d0-c7fbbc3eb9c6","system_id":"levelo_inurba_marseille","lat":43.31737,"lon":5.4372,"is_reserved":false,"is_disabled":false,"rental_uris":{"android":"levelo://app?vid=e50c6797-fb66-441b-97d0-c7fbbc3eb9c6","ios":"levelo://app?vid=e50c6797-fb66-441b-97d0-c7fbbc3eb9c6"},"vehicle_type_id":"4","last_reported":1773347003,"current_range_meters":25200,"station_id":"ce4bhp92rcd13ifvqhcg","pricing_plan_id":"cebpf4jnsgd1na2vs0mg"},{"bike_id":"dd413861-db9a-4d2e-8677-c21c6090eb71","system_id":"levelo_inurba_marseille","lat":43.29567,"lon":5.39981,"is_reserved":false,"is_disabled":false,"rental_uris":{"android":"levelo://app?vid=dd413861-db9a-4d2e-8677-c21c6090eb71","ios":"levelo://app?vid=dd413861-db9a-4d2e-8677-c21c6090eb71"},"vehicle_type_id":"4","last_reported":1773347003,"current_range_meters":33600,"station_id":"ce4bh312rcd13ifvqdj0","pricing_plan_id":"cebpf4jnsgd1na2vs0mg"},{"bike_id":"e1a567ea-8ddb-4718-be58-0ee3ac742fe9","system_id":"levelo_inurba_marseille","lat":43.3113,"lon":5.3776,"is_reserved":false,"is_disabled":false,"rental_uris":{"android":"levelo://app?vid=e1a567ea-8ddb-4718-be58-0ee3ac742fe9","ios":"levelo://app?vid=e1a567ea-8ddb-4718-be58-0ee3ac742fe9"},"vehicle_type_id":"4","last_reported":1773347003,"current_range_meters":28800,"station_id":"ce4bgt92rcd13ifvqcg0","pricing_plan_id":"cebpf4jnsgd1na2vs0mg"},{"bike_id":"95d1c9fd-c8e2-46c4-a894-cc37cf1e2a5f","system_id":"levelo_inurba_marseille","lat":43.3082,"lon":5.3817,"is_reserved":false,"is_disabled":false,"rental_uris":{"android":"levelo://app?vid=95d1c9fd-c8e2-46c4-a894-cc37cf1e2a5f","ios":"levelo://app?vid=95d1c9fd-c8e2-46c4-a894-cc37cf1e2a5f"},"vehicle_type_id":"4","last_reported":1773347003,"current_range_meters":10800,"station_id":"ce4bgt12rcd13ifvqce0","pricing_plan_id":"cebpf4jnsgd1na2vs0mg"},{"bike_id":"6f0a3cc3-6813-4500-a3c6-047f7386dff2","system_id":"levelo_inurba_marseille","lat":43.27187,"lon":5.40981,"is_reserved":false,"is_disabled":false,"rental_uris":{"android":"levelo://app?vid=6f0a3cc3-6813-4500-a3c6-047f7386dff2","ios":"levelo://app?vid=6f0a3cc3-6813-4500-a3c6-047f7386dff2"},"vehicle_type_id":"4","last_reported":1773347003,"current_range_meters":39200,"station_id":"ce4bhl12rcd13ifvqgf0","pricing_plan_id":"cebpf4jnsgd1na2vs0mg"},{"bike_id":"52eb5f97-e1d1-4a98-80c5-6518ebe81a91","system_id":"levelo_inurba_marseille","lat":43.27892,"lon":5.38022,"is_reserved":false,"is_disabled":false,"rental_uris":{"android":"levelo://app?vid=52eb5f97-e1d1-4a98-80c5-6518ebe81a91","ios":"levelo://app?vid=52eb5f97-e1d1-4a98-80c5-6518ebe81a91"},"vehicle_type_id":"4","last_reported":1773347003,"current_range_meters":36400,"station_id":"ce4bhf92rcd13ifvqf50","pricing_plan_id":"cebpf4jnsgd1na2vs0mg"},{"bike_id":"7c5d90d1-8ba7-4d11-a859-9263fa5d367b","system_id":"levelo_inurba_marseille","lat":43.337444,"lon":5.374475,"is_reserved":false,"is_disabled":true,"rental_uris":{"android":"levelo://app?vid=7c5d90d1-8ba7-4d11-a859-9263fa5d367b","ios":"levelo://app?vid=7c5d90d1-8ba7-4d11-a859-9263fa5d367b"},"vehicle_type_id":"4","last_reported":1773347003,"current_range_meters":6000,"station_id":"","pricing_plan_id":"cebpf4jnsgd1na2vs0mg"},{"bike_id":"1fdc5e31-482d-45cd-b868-48b238ba2e13","system_id":"levelo_inurba_marseille","lat":43.2943,"lon":5.39739,"is_reserved":false,"is_disabled":false,"rental_uris":{"android":"levelo://app?vid=1fdc5e31-482d-45cd-b868-48b238ba2e13","ios":"levelo://app?vid=1fdc5e31-482d-45cd-b868-48b238ba2e13"},"vehicle_type_id":"4","last_reported":1773347003,"current_range_meters":22400,"station_id":"ce4bh3h2rcd13ifvqdo0","pricing_plan_id":"cebpf4jnsgd1na2vs0mg"},{"bike_id":"3ac2bdc9-a42d-415a-a559-872497e3d520","system_id":"levelo_inurba_marseille","lat":43.31491,"lon":5.3731,"is_reserved":false,"is_disabled":false,"rental_uris":{"android":"levelo://app?vid=3ac2bdc9-a42d-415a-a559-872497e3d520","ios":"levelo://app?vid=3ac2bdc9-a42d-415a-a559-872497e3d520"},"vehicle_type_id":"4","last_reported":1773347003,"current_range_meters":17200,"station_id":"ce4bgt12rcd13ifvqcd0","pricing_plan_id":"cebpf4jnsgd1na2vs0mg"},{"bike_id":"f62cbee2-12e5-4cdd-bfbc-04088f9f32fa","system_id":"levelo_inurba_marseille","lat":43.28483,"lon":5.48393,"is_reserved":false,"is_disabled":false,"rental_uris":{"android":"levelo://app?vid=f62cbee2-12e5-4cdd-bfbc-04088f9f32fa","ios":"levelo://app?vid=f62cbee2-12e5-4cdd-bfbc-04088f9f32fa"},"vehicle_type_id":"4","last_reported":1773347003,"current_range_meters":14000,"station_id":"","pricing_plan_id":"cebpf4jnsgd1na2vs0mg"},{"bike_id":"417f56ab-a693-48a1-9a01-08fefab7c6bf","system_id":"levelo_inurba_marseille","lat":43.28891,"lon":5.38001,"is_reserved":false,"is_disabled":false,"rental_uris":{"android":"levelo://app?vid=417f56ab-a693-48a1-9a01-08fefab7c6bf","ios":"levelo://app?vid=417f56ab-a693-48a1-9a01-08fefab7c6bf"},"vehicle_type_id":"4","last_reported":1773347003,"current_range_meters":8000,"station_id":"","pricing_plan_id":"cebpf4jnsgd1na2vs0mg"},{"bike_id":"395d112b-77e5-4176-9073-517d3b41bc93","system_id":"levelo_inurba_marseille","lat":43.2781,"lon":5.40721,"is_reserved":false,"is_disabled":false,"rental_uris":{"android":"levelo://app?vid=395d112b-77e5-4176-9073-517d3b41bc93","ios":"levelo://app?vid=395d112b-77e5-4176-9073-517d3b41bc93"},"vehicle_type_id":"4","last_reported":1773347003,"current_range_meters":3200,"station_id":"ce4bhnh2rcd13ifvqgtg","pricing_plan_id":"cebpf4jnsgd1na2vs0mg"},{"bike_id":"8a1abf3f-cc2b-42bf-b1b6-ce8af145558d","system_id":"levelo_inurba_marseille","lat":43.30941,"lon":5.41089,"is_reserved":false,"is_disabled":false,"rental_uris":{"android":"levelo://app?vid=8a1abf3f-cc2b-42bf-b1b6-ce8af145558d","ios":"levelo://app?vid=8a1abf3f-cc2b-42bf-b1b6-ce8af145558d"},"vehicle_type_id":"4","last_reported":1773347003,"current_range_meters":35200,"station_id":"","pricing_plan_id":"cebpf4jnsgd1na2vs0mg"},{"bike_id":"c23dc481-3ca2-42c0-8f9f-0d7f549d4b8a","system_id":"levelo_inurba_marseille","lat":43.29756,"lon":5.37086,"is_reserved":false,"is_disabled":false,"rental_uris":{"android":"levelo://app?vid=c23dc481-3ca2-42c0-8f9f-0d7f549d4b8a","ios":"levelo://app?vid=c23dc481-3ca2-42c0-8f9f-0d7f549d4b8a"},"vehicle_type_id":"4","last_reported":1773347003,"current_range_meters":32800,"station_id":"ce4bgop2rcd13ifvqc1g","pricing_plan_id":"cebpf4jnsgd1na2vs0mg"},{"bike_id":"e824a880-56b7-440e-8a54-db91d8597347","system_id":"levelo_inurba_marseille","lat":43.23193,"lon":5.35539,"is_reserved":false,"is_disabled":false,"rental_uris":{"android":"levelo://app?vid=e824a880-56b7-440e-8a54-db91d8597347","ios":"levelo://app?vid=e824a880-56b7-440e-8a54-db91d8597347"},"vehicle_type_id":"4","last_reported":1773347003,"current_range_meters":14400,"station_id":"ce4bhu92rcd13ifvqi70","pricing_plan_id":"cebpf4jnsgd1na2vs0mg"},{"bike_id":"ba3a231f-10a0-4302-b0e7-08f11861cd04","system_id":"levelo_inurba_marseille","lat":43.28477,"lon":5.48387,"is_reserved":false,"is_disabled":false,"rental_uris":{"android":"levelo://app?vid=ba3a231f-10a0-4302-b0e7-08f11861cd04","ios":"levelo://app?vid=ba3a231f-10a0-4302-b0e7-08f11861cd04"},"vehicle_type_id":"4","last_reported":1773347003,"current_range_meters":36000,"station_id":"","pricing_plan_id":"cebpf4jnsgd1na2vs0mg"},{"bike_id":"b795eaca-af14-4d70-adef-a33cf1253704","system_id":"levelo_inurba_marseille","lat":43.28365,"lon":5.38623,"is_reserved":false,"is_disabled":true,"rental_uris":{"android":"levelo://app?vid=b795eaca-af14-4d70-adef-a33cf1253704","ios":"levelo://app?vid=b795eaca-af14-4d70-adef-a33cf1253704"},"vehicle_type_id":"4","last_reported":1773347003,"current_range_meters":1600,"station_id":"ce4bh492rcd13ifvqdvg","pricing_plan_id":"cebpf4jnsgd1na2vs0mg"},{"bike_id":"5c985332-cd85-4515-8980-2f3374582f1e","system_id":"levelo_inurba_marseille","lat":43.31118,"lon":5.36955,"is_reserved":false,"is_disabled":false,"rental_uris":{"android":"levelo://app?vid=5c985332-cd85-4515-8980-2f3374582f1e","ios":"levelo://app?vid=5c985332-cd85-4515-8980-2f3374582f1e"},"vehicle_type_id":"4","last_reported":1773347003,"current_range_meters":9600,"station_id":"","pricing_plan_id":"cebpf4jnsgd1na2vs0mg"},{"bike_id":"352c9f7d-89b4-42e5-9e2e-76d972a274bd","system_id":"levelo_inurba_marseille","lat":43.28901,"lon":5.42913,"is_reserved":false,"is_disabled":false,"rental_uris":{"android":"levelo://app?vid=352c9f7d-89b4-42e5-9e2e-76d972a274bd","ios":"levelo://app?vid=352c9f7d-89b4-42e5-9e2e-76d972a274bd"},"vehicle_type_id":"4","last_reported":1773347003,"current_range_meters":6400,"station_id":"","pricing_plan_id":"cebpf4jnsgd1na2vs0mg"},{"bike_id":"150f1968-1661-43c1-904c-0f2ae38351ec","system_id":"levelo_inurba_marseille","lat":43.31091,"lon":5.37792,"is_reserved":false,"is_disabled":false,"rental_uris":{"android":"levelo://app?vid=150f1968-1661-43c1-904c-0f2ae38351ec","ios":"levelo://app?vid=150f1968-1661-43c1-904c-0f2ae38351ec"},"vehicle_type_id":"4","last_reported":1773347003,"current_range_meters":33600,"station_id":"ce4bgt92rcd13ifvqcg0","pricing_plan_id":"cebpf4jnsgd1na2vs0mg"},{"bike_id":"c59a5209-1b70-42df-8250-859beecf23e1","system_id":"levelo_inurba_marseille","lat":43.23191,"lon":5.35547,"is_reserved":false,"is_disabled":false,"rental_uris":{"android":"levelo://app?vid=c59a5209-1b70-42df-8250-859beecf23e1","ios":"levelo://app?vid=c59a5209-1b70-42df-8250-859beecf23e1"},"vehicle_type_id":"4","last_reported":1773347003,"current_range_meters":40000,"station_id":"ce4bhu92rcd13ifvqi70","pricing_plan_id":"cebpf4jnsgd1na2vs0mg"},{"bike_id":"e96914ea-9f49-45f4-990f-f623d343ff11","system_id":"levelo_inurba_marseille","lat":43.29217,"lon":5.36068,"is_reserved":false,"is_disabled":true,"rental_uris":{"android":"levelo://app?vid=e96914ea-9f49-45f4-990f-f623d343ff11","ios":"levelo://app?vid=e96914ea-9f49-45f4-990f-f623d343ff11"},"vehicle_type_id":"4","last_reported":1773347003,"current_range_meters":8400,"station_id":"ce4bhbh2rcd13ifvqeqg","pricing_plan_id":"cebpf4jnsgd1na2vs0mg"},{"bike_id":"c224dada-3837-4b2a-afb6-a06ac527f328","system_id":"levelo_inurba_marseille","lat":43.23193,"lon":5.3555,"is_reserved":false,"is_disabled":false,"rental_uris":{"android":"levelo://app?vid=c224dada-3837-4b2a-afb6-a06ac527f328","ios":"levelo://app?vid=c224dada-3837-4b2a-afb6-a06ac527f328"},"vehicle_type_id":"4","last_reported":1773347003,"current_range_meters":14400,"station_id":"ce4bhu92rcd13ifvqi70","pricing_plan_id":"cebpf4jnsgd1na2vs0mg"},{"bike_id":"fed428a6-a508-4132-94d7-783075e10fe3","system_id":"levelo_inurba_marseille","lat":43.32361,"lon":5.36726,"is_reserved":false,"is_disabled":false,"rental_uris":{"android":"levelo://app?vid=fed428a6-a508-4132-94d7-783075e10fe3","ios":"levelo://app?vid=fed428a6-a508-4132-94d7-783075e10fe3"},"vehicle_type_id":"4","last_reported":1773347003,"current_range_meters":38000,"station_id":"ce4bhsh2rcd13ifvqi2g","pricing_plan_id":"cebpf4jnsgd1na2vs0mg"},{"bike_id":"ea00e583-ef30-402a-aac4-1bed2c6ab8e2","system_id":"levelo_inurba_marseille","lat":43.21727,"lon":5.34623,"is_reserved":false,"is_disabled":false,"rental_uris":{"android":"levelo://app?vid=ea00e583-ef30-402a-aac4-1bed2c6ab8e2","ios":"levelo://app?vid=ea00e583-ef30-402a-aac4-1bed2c6ab8e2"},"vehicle_type_id":"4","last_reported":1773347003,"current_range_meters":27600,"station_id":"st_cvj6r9ubvosntc0bgbag","pricing_plan_id":"cebpf4jnsgd1na2vs0mg"},{"bike_id":"56fb3145-dc1a-4ad4-9a39-fcb71a836b26","system_id":"levelo_inurba_marseille","lat":43.27815,"lon":5.40706,"is_reserved":false,"is_disabled":false,"rental_uris":{"android":"levelo://app?vid=56fb3145-dc1a-4ad4-9a39-fcb71a836b26","ios":"levelo://app?vid=56fb3145-dc1a-4ad4-9a39-fcb71a836b26"},"vehicle_type_id":"4","last_reported":1773347003,"current_range_meters":12800,"station_id":"ce4bhnh2rcd13ifvqgtg","pricing_plan_id":"cebpf4jnsgd1na2vs0mg"},{"bike_id":"ea96b6eb-8d9f-431a-b04d-209f4015c2d4","system_id":"levelo_inurba_marseille","lat":43.24161,"lon":5.36409,"is_reserved":false,"is_disabled":false,"rental_uris":{"android":"levelo://app?vid=ea96b6eb-8d9f-431a-b04d-209f4015c2d4","ios":"levelo://app?vid=ea96b6eb-8d9f-431a-b04d-209f4015c2d4"},"vehicle_type_id":"4","last_reported":1773347003,"current_range_meters":14000,"station_id":"cpo36qri1sfpv3e86is0","pricing_plan_id":"cebpf4jnsgd1na2vs0mg"},{"bike_id":"adff5eac-6459-4951-a912-87211509a83d","system_id":"levelo_inurba_marseille","lat":43.28846,"lon":5.3585,"is_reserved":false,"is_disabled":false,"rental_uris":{"android":"levelo://app?vid=adff5eac-6459-4951-a912-87211509a83d","ios":"levelo://app?vid=adff5eac-6459-4951-a912-87211509a83d"},"vehicle_type_id":"4","last_reported":1773347003,"current_range_meters":39200,"station_id":"ce4bhb12rcd13ifvqem0","pricing_plan_id":"cebpf4jnsgd1na2vs0mg"},{"bike_id":"3f5cef7d-3b71-4bec-87d3-64e5cdad9afd","system_id":"levelo_inurba_marseille","lat":43.26192,"lon":5.37931,"is_reserved":false,"is_disabled":false,"rental_uris":{"android":"levelo://app?vid=3f5cef7d-3b71-4bec-87d3-64e5cdad9afd","ios":"levelo://app?vid=3f5cef7d-3b71-4bec-87d3-64e5cdad9afd"},"vehicle_type_id":"4","last_reported":1773347003,"current_range_meters":8800,"station_id":"ce4bhjp2rcd13ifvqg90","pricing_plan_id":"cebpf4jnsgd1na2vs0mg"},{"bike_id":"8d962b3b-c288-4345-ac1e-5630aae73ac2","system_id":"levelo_inurba_marseille","lat":43.29326,"lon":5.37167,"is_reserved":false,"is_disabled":false,"rental_uris":{"android":"levelo://app?vid=8d962b3b-c288-4345-ac1e-5630aae73ac2","ios":"levelo://app?vid=8d962b3b-c288-4345-ac1e-5630aae73ac2"},"vehicle_type_id":"4","last_reported":1773347003,"current_range_meters":23200,"station_id":"ce4bgh92rcd13ifvqb40","pricing_plan_id":"cebpf4jnsgd1na2vs0mg"},{"bike_id":"e8e891cf-164b-4375-8667-e5eaa1ef09df","system_id":"levelo_inurba_marseille","lat":43.31759,"lon":5.39009,"is_reserved":false,"is_disabled":false,"rental_uris":{"android":"levelo://app?vid=e8e891cf-164b-4375-8667-e5eaa1ef09df","ios":"levelo://app?vid=e8e891cf-164b-4375-8667-e5eaa1ef09df"},"vehicle_type_id":"4","last_reported":1773347003,"current_range_meters":33600,"station_id":"ce4bhqp2rcd13ifvqhng","pricing_plan_id":"cebpf4jnsgd1na2vs0mg"},{"bike_id":"71215890-b208-4949-a1ef-27199c05f5b4","system_id":"levelo_inurba_marseille","lat":43.31544,"lon":5.38866,"is_reserved":false,"is_disabled":false,"rental_uris":{"android":"levelo://app?vid=71215890-b208-4949-a1ef-27199c05f5b4","ios":"levelo://app?vid=71215890-b208-4949-a1ef-27199c05f5b4"},"vehicle_type_id":"4","last_reported":1773347003,"current_range_meters":20800,"station_id":"","pricing_plan_id":"cebpf4jnsgd1na2vs0mg"},{"bike_id":"81bf774e-3b11-4116-be16-dff3a5e79805","system_id":"levelo_inurba_marseille","lat":43.28721,"lon":5.36081,"is_reserved":false,"is_disabled":false,"rental_uris":{"android":"levelo://app?vid=81bf774e-3b11-4116-be16-dff3a5e79805","ios":"levelo://app?vid=81bf774e-3b11-4116-be16-dff3a5e79805"},"vehicle_type_id":"4","last_reported":1773347003,"current_range_meters":6800,"station_id":"cki0cbj6b192h4jlfktg","pricing_plan_id":"cebpf4jnsgd1na2vs0mg"},{"bike_id":"d5ece74b-a795-4a6a-ac4d-3724b90374e7","system_id":"levelo_inurba_marseille","lat":43.281051,"lon":5.378385,"is_reserved":false,"is_disabled":false,"rental_uris":{"android":"levelo://app?vid=d5ece74b-a795-4a6a-ac4d-3724b90374e7","ios":"levelo://app?vid=d5ece74b-a795-4a6a-ac4d-3724b90374e7"},"vehicle_type_id":"4","last_reported":1773347003,"current_range_meters":14000,"station_id":"ce4bha12rcd13ifvqee0","pricing_plan_id":"cebpf4jnsgd1na2vs0mg"},{"bike_id":"a4fdab30-e2f6-4246-a63f-60fb81d99580","system_id":"levelo_inurba_marseille","lat":43.29861,"lon":5.39738,"is_reserved":false,"is_disabled":false,"rental_uris":{"android":"levelo://app?vid=a4fdab30-e2f6-4246-a63f-60fb81d99580","ios":"levelo://app?vid=a4fdab30-e2f6-4246-a63f-60fb81d99580"},"vehicle_type_id":"4","last_reported":1773347003,"current_range_meters":35600,"station_id":"ce4bh0h2rcd13ifvqd50","pricing_plan_id":"cebpf4jnsgd1na2vs0mg"},{"bike_id":"0623d3e8-8e06-48f4-9ba1-80d3579a4110","system_id":"levelo_inurba_marseille","lat":43.28105,"lon":5.37864,"is_reserved":false,"is_disabled":false,"rental_uris":{"android":"levelo://app?vid=0623d3e8-8e06-48f4-9ba1-80d3579a4110","ios":"levelo://app?vid=0623d3e8-8e06-48f4-9ba1-80d3579a4110"},"vehicle_type_id":"4","last_reported":1773347003,"current_range_meters":6400,"station_id":"ce4bha12rcd13ifvqee0","pricing_plan_id":"cebpf4jnsgd1na2vs0mg"},{"bike_id":"5f24ad05-f8bb-464f-a684-4b00abf8005a","system_id":"levelo_inurba_marseille","lat":43.29982,"lon":5.38539,"is_reserved":false,"is_disabled":false,"rental_uris":{"android":"levelo://app?vid=5f24ad05-f8bb-464f-a684-4b00abf8005a","ios":"levelo://app?vid=5f24ad05-f8bb-464f-a684-4b00abf8005a"},"vehicle_type_id":"4","last_reported":1773347003,"current_range_meters":14400,"station_id":"ce4bgj92rcd13ifvqbd0","pricing_plan_id":"cebpf4jnsgd1na2vs0mg"},{"bike_id":"eb7402b0-d2c7-4043-aa11-cd75870274a3","system_id":"levelo_inurba_marseille","lat":43.26809,"lon":5.40243,"is_reserved":false,"is_disabled":false,"rental_uris":{"android":"levelo://app?vid=eb7402b0-d2c7-4043-aa11-cd75870274a3","ios":"levelo://app?vid=eb7402b0-d2c7-4043-aa11-cd75870274a3"},"vehicle_type_id":"4","last_reported":1773347003,"current_range_meters":40000,"station_id":"ce501612rcd8frsf0b60","pricing_plan_id":"cebpf4jnsgd1na2vs0mg"},{"bike_id":"478db013-6086-44e9-9b97-2eab7bc9a642","system_id":"levelo_inurba_marseille","lat":43.27902,"lon":5.39604,"is_reserved":false,"is_disabled":false,"rental_uris":{"android":"levelo://app?vid=478db013-6086-44e9-9b97-2eab7bc9a642","ios":"levelo://app?vid=478db013-6086-44e9-9b97-2eab7bc9a642"},"vehicle_type_id":"4","last_reported":1773347003,"current_range_meters":40000,"station_id":"ce4bhf92rcd13ifvqf40","pricing_plan_id":"cebpf4jnsgd1na2vs0mg"},{"bike_id":"f207a57f-fabb-4b8d-92d0-32e12278d897","system_id":"levelo_inurba_marseille","lat":43.25722,"lon":5.41113,"is_reserved":false,"is_disabled":false,"rental_uris":{"android":"levelo://app?vid=f207a57f-fabb-4b8d-92d0-32e12278d897","ios":"levelo://app?vid=f207a57f-fabb-4b8d-92d0-32e12278d897"},"vehicle_type_id":"4","last_reported":1773347003,"current_range_meters":20800,"station_id":"ce4bhkp2rcd13ifvqgd0","pricing_plan_id":"cebpf4jnsgd1na2vs0mg"},{"bike_id":"39c348ea-6dfe-4a57-81bd-720e7531649a","system_id":"levelo_inurba_marseille","lat":43.2903,"lon":5.38639,"is_reserved":false,"is_disabled":false,"rental_uris":{"android":"levelo://app?vid=39c348ea-6dfe-4a57-81bd-720e7531649a","ios":"levelo://app?vid=39c348ea-6dfe-4a57-81bd-720e7531649a"},"vehicle_type_id":"4","last_reported":1773347003,"current_range_meters":39200,"station_id":"ce4bh4p2rcd13ifvqe0g","pricing_plan_id":"cebpf4jnsgd1na2vs0mg"},{"bike_id":"17092a17-ecc2-4869-9543-a7b9eb4bf6ef","system_id":"levelo_inurba_marseille","lat":43.21186,"lon":5.35082,"is_reserved":false,"is_disabled":false,"rental_uris":{"android":"levelo://app?vid=17092a17-ecc2-4869-9543-a7b9eb4bf6ef","ios":"levelo://app?vid=17092a17-ecc2-4869-9543-a7b9eb4bf6ef"},"vehicle_type_id":"4","last_reported":1773347003,"current_range_meters":11200,"station_id":"st_cvj6sg6p6f1abm77japg","pricing_plan_id":"cebpf4jnsgd1na2vs0mg"},{"bike_id":"0a2f9b28-6219-4106-b011-3026133a767c","system_id":"levelo_inurba_marseille","lat":43.29562,"lon":5.38168,"is_reserved":false,"is_disabled":true,"rental_uris":{"android":"levelo://app?vid=0a2f9b28-6219-4106-b011-3026133a767c","ios":"levelo://app?vid=0a2f9b28-6219-4106-b011-3026133a767c"},"vehicle_type_id":"4","last_reported":1773347003,"current_range_meters":33200,"station_id":"","pricing_plan_id":"cebpf4jnsgd1na2vs0mg"},{"bike_id":"a1f09277-e6a5-4fd5-b342-fa86eaa2b051","system_id":"levelo_inurba_marseille","lat":43.29872,"lon":5.44053,"is_reserved":false,"is_disabled":false,"rental_uris":{"android":"levelo://app?vid=a1f09277-e6a5-4fd5-b342-fa86eaa2b051","ios":"levelo://app?vid=a1f09277-e6a5-4fd5-b342-fa86eaa2b051"},"vehicle_type_id":"4","last_reported":1773347003,"current_range_meters":19200,"station_id":"st_d3jp68qikq2c7381ktn0","pricing_plan_id":"cebpf4jnsgd1na2vs0mg"},{"bike_id":"97bcfeac-2126-494f-9ed9-6b67f1b064a2","system_id":"levelo_inurba_marseille","lat":43.2744,"lon":5.39381,"is_reserved":false,"is_disabled":true,"rental_uris":{"android":"levelo://app?vid=97bcfeac-2126-494f-9ed9-6b67f1b064a2","ios":"levelo://app?vid=97bcfeac-2126-494f-9ed9-6b67f1b064a2"},"vehicle_type_id":"4","last_reported":1773347003,"current_range_meters":16400,"station_id":"ce4bhdp2rcd13ifvqf20","pricing_plan_id":"cebpf4jnsgd1na2vs0mg"},{"bike_id":"6e0b0aa5-87a1-4737-820e-285f6efc96ee","system_id":"levelo_inurba_marseille","lat":43.28607,"lon":5.35114,"is_reserved":false,"is_disabled":false,"rental_uris":{"android":"levelo://app?vid=6e0b0aa5-87a1-4737-820e-285f6efc96ee","ios":"levelo://app?vid=6e0b0aa5-87a1-4737-820e-285f6efc96ee"},"vehicle_type_id":"4","last_reported":1773347003,"current_range_meters":16400,"station_id":"ce4bhch2rcd13ifvqeug","pricing_plan_id":"cebpf4jnsgd1na2vs0mg"},{"bike_id":"c73dc152-9938-46ce-972e-77003c30697b","system_id":"levelo_inurba_marseille","lat":43.25848,"lon":5.39423,"is_reserved":false,"is_disabled":false,"rental_uris":{"android":"levelo://app?vid=c73dc152-9938-46ce-972e-77003c30697b","ios":"levelo://app?vid=c73dc152-9938-46ce-972e-77003c30697b"},"vehicle_type_id":"4","last_reported":1773347003,"current_range_meters":36000,"station_id":"ce4bhip2rcd13ifvqft0","pricing_plan_id":"cebpf4jnsgd1na2vs0mg"},{"bike_id":"268aefa2-6343-458a-937b-4e3e958cc0ed","system_id":"levelo_inurba_marseille","lat":43.27816,"lon":5.40691,"is_reserved":false,"is_disabled":false,"rental_uris":{"android":"levelo://app?vid=268aefa2-6343-458a-937b-4e3e958cc0ed","ios":"levelo://app?vid=268aefa2-6343-458a-937b-4e3e958cc0ed"},"vehicle_type_id":"4","last_reported":1773347003,"current_range_meters":40000,"station_id":"ce4bhnh2rcd13ifvqgtg","pricing_plan_id":"cebpf4jnsgd1na2vs0mg"},{"bike_id":"2f84fe93-1733-4055-8f64-6874cc1494ae","system_id":"levelo_inurba_marseille","lat":43.27826,"lon":5.40706,"is_reserved":false,"is_disabled":false,"rental_uris":{"android":"levelo://app?vid=2f84fe93-1733-4055-8f64-6874cc1494ae","ios":"levelo://app?vid=2f84fe93-1733-4055-8f64-6874cc1494ae"},"vehicle_type_id":"4","last_reported":1773347003,"current_range_meters":37600,"station_id":"ce4bhnh2rcd13ifvqgtg","pricing_plan_id":"cebpf4jnsgd1na2vs0mg"},{"bike_id":"a975d39d-4a14-4e0c-8235-9aa6495c9757","system_id":"levelo_inurba_marseille","lat":43.27396,"lon":5.42518,"is_reserved":false,"is_disabled":false,"rental_uris":{"android":"levelo://app?vid=a975d39d-4a14-4e0c-8235-9aa6495c9757","ios":"levelo://app?vid=a975d39d-4a14-4e0c-8235-9aa6495c9757"},"vehicle_type_id":"4","last_reported":1773347003,"current_range_meters":28800,"station_id":"","pricing_plan_id":"cebpf4jnsgd1na2vs0mg"},{"bike_id":"aa81096f-0238-4da5-9bb1-19ffb49b251d","system_id":"levelo_inurba_marseille","lat":43.29276,"lon":5.38421,"is_reserved":false,"is_disabled":false,"rental_uris":{"android":"levelo://app?vid=aa81096f-0238-4da5-9bb1-19ffb49b251d","ios":"levelo://app?vid=aa81096f-0238-4da5-9bb1-19ffb49b251d"},"vehicle_type_id":"4","last_reported":1773347003,"current_range_meters":28000,"station_id":"ce4bh692rcd13ifvqea0","pricing_plan_id":"cebpf4jnsgd1na2vs0mg"},{"bike_id":"3ae50866-943e-48e2-9688-a094c4facf44","system_id":"levelo_inurba_marseille","lat":43.29789,"lon":5.39359,"is_reserved":false,"is_disabled":false,"rental_uris":{"android":"levelo://app?vid=3ae50866-943e-48e2-9688-a094c4facf44","ios":"levelo://app?vid=3ae50866-943e-48e2-9688-a094c4facf44"},"vehicle_type_id":"4","last_reported":1773347003,"current_range_meters":36800,"station_id":"chh1huq6cuj3fo74tm60","pricing_plan_id":"cebpf4jnsgd1na2vs0mg"},{"bike_id":"0e60f8ad-af00-4139-bc28-41c3e0493fc5","system_id":"levelo_inurba_marseille","lat":43.32654,"lon":5.40993,"is_reserved":false,"is_disabled":false,"rental_uris":{"android":"levelo://app?vid=0e60f8ad-af00-4139-bc28-41c3e0493fc5","ios":"levelo://app?vid=0e60f8ad-af00-4139-bc28-41c3e0493fc5"},"vehicle_type_id":"4","last_reported":1773347003,"current_range_meters":38000,"station_id":"ce4bhpp2rcd13ifvqhgg","pricing_plan_id":"cebpf4jnsgd1na2vs0mg"},{"bike_id":"8353becb-09ec-45b5-a24b-8f6218c436aa","system_id":"levelo_inurba_marseille","lat":43.24178,"lon":5.39724,"is_reserved":false,"is_disabled":true,"rental_uris":{"android":"levelo://app?vid=8353becb-09ec-45b5-a24b-8f6218c436aa","ios":"levelo://app?vid=8353becb-09ec-45b5-a24b-8f6218c436aa"},"vehicle_type_id":"4","last_reported":1773347003,"current_range_meters":6400,"station_id":"ce4bhn12rcd13ifvqgpg","pricing_plan_id":"cebpf4jnsgd1na2vs0mg"},{"bike_id":"e3f6fa89-ae56-409c-b4cb-2c97aeb57adf","system_id":"levelo_inurba_marseille","lat":43.296,"lon":5.38103,"is_reserved":false,"is_disabled":false,"rental_uris":{"android":"levelo://app?vid=e3f6fa89-ae56-409c-b4cb-2c97aeb57adf","ios":"levelo://app?vid=e3f6fa89-ae56-409c-b4cb-2c97aeb57adf"},"vehicle_type_id":"4","last_reported":1773347003,"current_range_meters":14400,"station_id":"ce4bgl12rcd13ifvqbo0","pricing_plan_id":"cebpf4jnsgd1na2vs0mg"},{"bike_id":"e2a2c31c-8ec3-4c93-959c-b4b9a8436b60","system_id":"levelo_inurba_marseille","lat":43.29261,"lon":5.38435,"is_reserved":false,"is_disabled":false,"rental_uris":{"android":"levelo://app?vid=e2a2c31c-8ec3-4c93-959c-b4b9a8436b60","ios":"levelo://app?vid=e2a2c31c-8ec3-4c93-959c-b4b9a8436b60"},"vehicle_type_id":"4","last_reported":1773347003,"current_range_meters":34800,"station_id":"ce4bh692rcd13ifvqea0","pricing_plan_id":"cebpf4jnsgd1na2vs0mg"},{"bike_id":"0c34106c-4583-4059-b9e4-f4efc8a9ac37","system_id":"levelo_inurba_marseille","lat":43.29258,"lon":5.38421,"is_reserved":false,"is_disabled":false,"rental_uris":{"android":"levelo://app?vid=0c34106c-4583-4059-b9e4-f4efc8a9ac37","ios":"levelo://app?vid=0c34106c-4583-4059-b9e4-f4efc8a9ac37"},"vehicle_type_id":"4","last_reported":1773347003,"current_range_meters":35200,"station_id":"ce4bh692rcd13ifvqea0","pricing_plan_id":"cebpf4jnsgd1na2vs0mg"},{"bike_id":"c6e41b0e-a7f4-4243-a48f-6e68bec7d728","system_id":"levelo_inurba_marseille","lat":43.28951,"lon":5.3638,"is_reserved":false,"is_disabled":true,"rental_uris":{"android":"levelo://app?vid=c6e41b0e-a7f4-4243-a48f-6e68bec7d728","ios":"levelo://app?vid=c6e41b0e-a7f4-4243-a48f-6e68bec7d728"},"vehicle_type_id":"4","last_reported":1773347003,"current_range_meters":35200,"station_id":"ce4bhc92rcd13ifvqetg","pricing_plan_id":"cebpf4jnsgd1na2vs0mg"},{"bike_id":"bd478b7c-bdf7-4c5f-a41e-8134b3e52ddd","system_id":"levelo_inurba_marseille","lat":43.282668,"lon":5.350537,"is_reserved":false,"is_disabled":false,"rental_uris":{"android":"levelo://app?vid=bd478b7c-bdf7-4c5f-a41e-8134b3e52ddd","ios":"levelo://app?vid=bd478b7c-bdf7-4c5f-a41e-8134b3e52ddd"},"vehicle_type_id":"4","last_reported":1773347003,"current_range_meters":8400,"station_id":"ce4bhbp2rcd13ifvqerg","pricing_plan_id":"cebpf4jnsgd1na2vs0mg"},{"bike_id":"a63d22a1-9803-47da-97c5-9eb5069b8019","system_id":"levelo_inurba_marseille","lat":43.25832,"lon":5.39427,"is_reserved":false,"is_disabled":false,"rental_uris":{"android":"levelo://app?vid=a63d22a1-9803-47da-97c5-9eb5069b8019","ios":"levelo://app?vid=a63d22a1-9803-47da-97c5-9eb5069b8019"},"vehicle_type_id":"4","last_reported":1773347003,"current_range_meters":36400,"station_id":"ce4bhip2rcd13ifvqft0","pricing_plan_id":"cebpf4jnsgd1na2vs0mg"},{"bike_id":"7edacbfd-2331-463d-8052-f5a3cd23d277","system_id":"levelo_inurba_marseille","lat":43.24455,"lon":5.42524,"is_reserved":false,"is_disabled":false,"rental_uris":{"android":"levelo://app?vid=7edacbfd-2331-463d-8052-f5a3cd23d277","ios":"levelo://app?vid=7edacbfd-2331-463d-8052-f5a3cd23d277"},"vehicle_type_id":"4","last_reported":1773347003,"current_range_meters":28800,"station_id":"st_d4a3vfp97mjs738cd8kg","pricing_plan_id":"cebpf4jnsgd1na2vs0mg"},{"bike_id":"51b47fcd-fbcc-4dd1-8979-4a1e5bf0914d","system_id":"levelo_inurba_marseille","lat":43.31196,"lon":5.36684,"is_reserved":false,"is_disabled":false,"rental_uris":{"android":"levelo://app?vid=51b47fcd-fbcc-4dd1-8979-4a1e5bf0914d","ios":"levelo://app?vid=51b47fcd-fbcc-4dd1-8979-4a1e5bf0914d"},"vehicle_type_id":"4","last_reported":1773347003,"current_range_meters":29600,"station_id":"","pricing_plan_id":"cebpf4jnsgd1na2vs0mg"},{"bike_id":"82451975-68fc-4735-a647-12ad73617286","system_id":"levelo_inurba_marseille","lat":43.30613,"lon":5.37228,"is_reserved":false,"is_disabled":false,"rental_uris":{"android":"levelo://app?vid=82451975-68fc-4735-a647-12ad73617286","ios":"levelo://app?vid=82451975-68fc-4735-a647-12ad73617286"},"vehicle_type_id":"4","last_reported":1773347003,"current_range_meters":40000,"station_id":"ce4bgqh2rcd13ifvqc4g","pricing_plan_id":"cebpf4jnsgd1na2vs0mg"},{"bike_id":"8b2e521b-1101-44fe-9d4a-0344f080c81c","system_id":"levelo_inurba_marseille","lat":43.28479,"lon":5.48396,"is_reserved":false,"is_disabled":false,"rental_uris":{"android":"levelo://app?vid=8b2e521b-1101-44fe-9d4a-0344f080c81c","ios":"levelo://app?vid=8b2e521b-1101-44fe-9d4a-0344f080c81c"},"vehicle_type_id":"4","last_reported":1773347003,"current_range_meters":32400,"station_id":"","pricing_plan_id":"cebpf4jnsgd1na2vs0mg"},{"bike_id":"bcacd82e-9654-4f53-af8f-ff08c9670cfb","system_id":"levelo_inurba_marseille","lat":43.23411,"lon":5.41167,"is_reserved":false,"is_disabled":false,"rental_uris":{"android":"levelo://app?vid=bcacd82e-9654-4f53-af8f-ff08c9670cfb","ios":"levelo://app?vid=bcacd82e-9654-4f53-af8f-ff08c9670cfb"},"vehicle_type_id":"4","last_reported":1773347003,"current_range_meters":29600,"station_id":"","pricing_plan_id":"cebpf4jnsgd1na2vs0mg"},{"bike_id":"1697678c-c8a4-4c47-ade7-901915c540a8","system_id":"levelo_inurba_marseille","lat":43.29602,"lon":5.38099,"is_reserved":false,"is_disabled":true,"rental_uris":{"android":"levelo://app?vid=1697678c-c8a4-4c47-ade7-901915c540a8","ios":"levelo://app?vid=1697678c-c8a4-4c47-ade7-901915c540a8"},"vehicle_type_id":"4","last_reported":1773347003,"current_range_meters":38400,"station_id":"ce4bgl12rcd13ifvqbo0","pricing_plan_id":"cebpf4jnsgd1na2vs0mg"},{"bike_id":"8f71006c-2348-4841-8ce0-b156640e9e6a","system_id":"levelo_inurba_marseille","lat":43.28603,"lon":5.35098,"is_reserved":false,"is_disabled":false,"rental_uris":{"android":"levelo://app?vid=8f71006c-2348-4841-8ce0-b156640e9e6a","ios":"levelo://app?vid=8f71006c-2348-4841-8ce0-b156640e9e6a"},"vehicle_type_id":"4","last_reported":1773347003,"current_range_meters":8800,"station_id":"ce4bhch2rcd13ifvqeug","pricing_plan_id":"cebpf4jnsgd1na2vs0mg"},{"bike_id":"928ede9f-d7b3-4b92-b54e-1233891752ff","system_id":"levelo_inurba_marseille","lat":43.3302,"lon":5.39041,"is_reserved":false,"is_disabled":false,"rental_uris":{"android":"levelo://app?vid=928ede9f-d7b3-4b92-b54e-1233891752ff","ios":"levelo://app?vid=928ede9f-d7b3-4b92-b54e-1233891752ff"},"vehicle_type_id":"4","last_reported":1773347003,"current_range_meters":10000,"station_id":"ce4bhr92rcd13ifvqhrg","pricing_plan_id":"cebpf4jnsgd1na2vs0mg"},{"bike_id":"41bb1547-7eea-4439-8de4-4c699b90c7af","system_id":"levelo_inurba_marseille","lat":43.26578,"lon":5.4032,"is_reserved":false,"is_disabled":false,"rental_uris":{"android":"levelo://app?vid=41bb1547-7eea-4439-8de4-4c699b90c7af","ios":"levelo://app?vid=41bb1547-7eea-4439-8de4-4c699b90c7af"},"vehicle_type_id":"4","last_reported":1773347003,"current_range_meters":32000,"station_id":"ce4bhmp2rcd13ifvqgng","pricing_plan_id":"cebpf4jnsgd1na2vs0mg"},{"bike_id":"279b31e6-f012-4d9c-a7c8-086a36e72b5f","system_id":"levelo_inurba_marseille","lat":43.29526,"lon":5.3855,"is_reserved":false,"is_disabled":true,"rental_uris":{"android":"levelo://app?vid=279b31e6-f012-4d9c-a7c8-086a36e72b5f","ios":"levelo://app?vid=279b31e6-f012-4d9c-a7c8-086a36e72b5f"},"vehicle_type_id":"4","last_reported":1773347003,"current_range_meters":18800,"station_id":"ce4bgih2rcd13ifvqba0","pricing_plan_id":"cebpf4jnsgd1na2vs0mg"},{"bike_id":"8cb18c02-9074-4f7e-83f0-8e5266c7a460","system_id":"levelo_inurba_marseille","lat":43.24672,"lon":5.3818,"is_reserved":false,"is_disabled":false,"rental_uris":{"android":"levelo://app?vid=8cb18c02-9074-4f7e-83f0-8e5266c7a460","ios":"levelo://app?vid=8cb18c02-9074-4f7e-83f0-8e5266c7a460"},"vehicle_type_id":"4","last_reported":1773347003,"current_range_meters":16000,"station_id":"ce4bhih2rcd13ifvqfr0","pricing_plan_id":"cebpf4jnsgd1na2vs0mg"},{"bike_id":"1a138e41-89a4-43f0-a2a8-c03e39bfeccc","system_id":"levelo_inurba_marseille","lat":43.28425,"lon":5.34996,"is_reserved":false,"is_disabled":false,"rental_uris":{"android":"levelo://app?vid=1a138e41-89a4-43f0-a2a8-c03e39bfeccc","ios":"levelo://app?vid=1a138e41-89a4-43f0-a2a8-c03e39bfeccc"},"vehicle_type_id":"4","last_reported":1773347003,"current_range_meters":38800,"station_id":"ce4bhbh2rcd13ifvqepg","pricing_plan_id":"cebpf4jnsgd1na2vs0mg"},{"bike_id":"c2390bbc-ed39-45c5-9f2a-b8a83a668278","system_id":"levelo_inurba_marseille","lat":43.27643,"lon":5.36115,"is_reserved":false,"is_disabled":false,"rental_uris":{"android":"levelo://app?vid=c2390bbc-ed39-45c5-9f2a-b8a83a668278","ios":"levelo://app?vid=c2390bbc-ed39-45c5-9f2a-b8a83a668278"},"vehicle_type_id":"4","last_reported":1773347003,"current_range_meters":40000,"station_id":"ce4bgj92rcd13ifvqbe0","pricing_plan_id":"cebpf4jnsgd1na2vs0mg"},{"bike_id":"52887c40-7e75-4c58-9e5a-0ca4ef239990","system_id":"levelo_inurba_marseille","lat":43.31496,"lon":5.373,"is_reserved":false,"is_disabled":false,"rental_uris":{"android":"levelo://app?vid=52887c40-7e75-4c58-9e5a-0ca4ef239990","ios":"levelo://app?vid=52887c40-7e75-4c58-9e5a-0ca4ef239990"},