{"last_updated":1704992793,"ttl":30,"version":"2.2","data":{"bikes":[{"bike_id":"69f2111b-ecc5-4509-92f7-392520ad1972","system_id":"levelo_inurba_marseille","lat":43.312239,"lon":5.368562,"is_reserved":false,"is_disabled":false,"rental_uris":{"android":"levelo://app?vid=69f2111b-ecc5-4509-92f7-392520ad1972","ios":"levelo://app?vid=69f2111b-ecc5-4509-92f7-392520ad1972"},"vehicle_type_id":"4","last_reported":1704992793,"current_range_meters":9200,"station_id":"ce4bgl92rcd13ifvqbq0","pricing_plan_id":"free"},{"bike_id":"5ea51556-9d69-4baf-aaa7-f85420c025e9","system_id":"levelo_inurba_marseille","lat":43.312239,"lon":5.368562,"is_reserved":false,"is_disabled":false,"rental_uris":{"android":"levelo://app?vid=5ea51556-9d69-4baf-aaa7-f85420c025e9","ios":"levelo://app?vid=5ea51556-9d69-4baf-aaa7-f85420c025e9"},"vehicle_type_id":"4","last_reported":1704992793,"current_range_meters":14400,"station_id":"ce4bgl92rcd13ifvqbq0","pricing_plan_id":"free"},{"bike_id":"500f3baa-78ff-49fa-9e16-ac28560d367c","system_id":"levelo_inurba_marseille","lat":43.312239,"lon":5.368562,"is_reserved":false,"is_disabled":false,"rental_uris":{"android":"levelo://app?vid=500f3baa-78ff-49fa-9e16-ac28560d367c","ios":"levelo://app?vid=500f3baa-78ff-49fa-9e16-ac28560d367c"},"vehicle_type_id":"4","last_reported":1704992793,"current_range_meters":2000,"station_id":"ce4bgl92rcd13ifvqbq0","pricing_plan_id":"free"},{"bike_id":"2f7f7806-2042-4e6f-b6bb-3ac62ee9e25e","system_id":"levelo_inurba_marseille","lat":43.312239,"lon":5.368562,"is_reserved":false,"is_disabled":false,"rental_uris":{"android":"levelo://app?vid=2f7f7806-2042-4e6f-b6bb-3ac62ee9e25e","ios":"levelo://app?vid=2f7f7806-2042-4e6f-b6bb-3ac62ee9e25e"},"vehicle_type_id":"4","last_reported":1704992793,"current_range_meters":30800,"station_id":"ce4bgl92rcd13ifvqbq0","pricing_plan_id":"free"},{"bike_id":"7b3b699f-3f99-4e35-89af-d56ef1f73cc7","system_id":"levelo_inurba_marseille","lat":43.31503,"lon":5.37288,"is_reserved":false,"is_disabled":false,"rental_uris":{"android":"levelo://app?vid=7b3b699f-3f99-4e35-89af-d56ef1f73cc7","ios":"levelo://app?vid=7b3b699f-3f99-4e35-89af-d56ef1f73cc7"},"vehicle_type_id":"4","last_reported":1704992793,"current_range_meters":20000,"station_id":"ce4bgt12rcd13ifvqcd0","pricing_plan_id":"free"},{"bike_id":"ee87465e-af59-4e49-8fb0-6eed62c0cd36","system_id":"levelo_inurba_marseille","lat":43.314811,"lon":5.373103,"is_reserved":false,"is_disabled":false,"rental_uris":{"android":"levelo://app?vid=ee87465e-af59-4e49-8fb0-6eed62c0cd36","ios":"levelo://app?vid=ee87465e-af59-4e49-8fb0-6eed62c0cd36"},"vehicle_type_id":"4","last_reported":1704992793,"current_range_meters":20800,"station_id":"ce4bgt12rcd13ifvqcd0","pricing_plan_id":"free"},{"bike_id":"f54302a4-dbfa-41af-bd7e-6227809daae3","system_id":"levelo_inurba_marseille","lat":43.314811,"lon":5.373104,"is_reserved":false,"is_disabled":false,"rental_uris":{"android":"levelo://app?vid=f54302a4-dbfa-41af-bd7e-6227809daae3","ios":"levelo://app?vid=f54302a4-dbfa-41af-bd7e-6227809daae3"},"vehicle_type_id":"4","last_reported":1704992793,"current_range_meters":28400,"station_id":"ce4bgt12rcd13ifvqcd0","pricing_plan_id":"free"},{"bike_id":"1b1239c3-7b11-4916-9b71-c720da4f30bb","system_id":"levelo_inurba_marseille","lat":43.311131,"lon":5.377651,"is_reserved":false,"is_disabled":false,"rental_uris":{"android":"levelo://app?vid=1b1239c3-7b11-4916-9b71-c720da4f30bb","ios":"levelo://app?vid=1b1239c3-7b11-4916-9b71-c720da4f30bb"},"vehicle_type_id":"4","last_reported":1704992793,"current_range_meters":28000,"station_id":"ce4bgt92rcd13ifvqcg0","pricing_plan_id":"free"},{"bike_id":"5387248f-ea09-4595-b430-ff14b3b4f713","system_id":"levelo_inurba_marseille","lat":43.311131,"lon":5.377651,"is_reserved":false,"is_disabled":false,"rental_uris":{"android":"levelo://app?vid=5387248f-ea09-4595-b430-ff14b3b4f713","ios":"levelo://app?vid=5387248f-ea09-4595-b430-ff14b3b4f713"},"vehicle_type_id":"4","last_reported":1704992793,"current_range_meters":20000,"station_id":"ce4bgt92rcd13ifvqcg0","pricing_plan_id":"free"},{"bike_id":"b2b58420-147e-4e09-911d-405524aab1f7","system_id":"levelo_inurba_marseille","lat":43.311131,"lon":5.377651,"is_reserved":false,"is_disabled":false,"rental_uris":{"android":"levelo://app?vid=b2b58420-147e-4e09-911d-405524aab1f7","ios":"levelo://app?vid=b2b58420-147e-4e09-911d-405524aab1f7"},"vehicle_type_id":"4","last_reported":1704992793,"current_range_meters":26800,"station_id":"ce4bgt92rcd13ifvqcg0","pricing_plan_id":"free"},{"bike_id":"b83a2785-cd6f-4bee-b6aa-0dbd89552600","system_id":"levelo_inurba_marseille","lat":43.30798,"lon":5.37645,"is_reserved":false,"is_disabled":false,"rental_uris":{"android":"levelo://app?vid=b83a2785-cd6f-4bee-b6aa-0dbd89552600","ios":"levelo://app?vid=b83a2785-cd6f-4bee-b6aa-0dbd89552600"},"vehicle_type_id":"4","last_reported":1704992793,"current_range_meters":25600,"station_id":"ce4bgv92rcd13ifvqcq0","pricing_plan_id":"free"},{"bike_id":"92de907d-f2a7-425a-a220-775b0124ae29","system_id":"levelo_inurba_marseille","lat":43.307945,"lon":5.376487,"is_reserved":false,"is_disabled":false,"rental_uris":{"android":"levelo://app?vid=92de907d-f2a7-425a-a220-775b0124ae29","ios":"levelo://app?vid=92de907d-f2a7-425a-a220-775b0124ae29"},"vehicle_type_id":"4","last_reported":1704992793,"current_range_meters":10000,"station_id":"ce4bgv92rcd13ifvqcq0","pricing_plan_id":"free"},{"bike_id":"30a0dfc9-087b-4356-ac22-4c68023b1981","system_id":"levelo_inurba_marseille","lat":43.307945,"lon":5.376487,"is_reserved":false,"is_disabled":false,"rental_uris":{"android":"levelo://app?vid=30a0dfc9-087b-4356-ac22-4c68023b1981","ios":"levelo://app?vid=30a0dfc9-087b-4356-ac22-4c68023b1981"},"vehicle_type_id":"4","last_reported":1704992793,"current_range_meters":24400,"station_id":"ce4bgv92rcd13ifvqcq0","pricing_plan_id":"free"},{"bike_id":"6037dcd5-149c-4903-b2fd-d261e491b3b8","system_id":"levelo_inurba_marseille","lat":43.317075,"lon":5.377367,"is_reserved":false,"is_disabled":false,"rental_uris":{"android":"levelo://app?vid=6037dcd5-149c-4903-b2fd-d261e491b3b8","ios":"levelo://app?vid=6037dcd5-149c-4903-b2fd-d261e491b3b8"},"vehicle_type_id":"4","last_reported":1704992793,"current_range_meters":11600,"station_id":"ce4bgth2rcd13ifvqch0","pricing_plan_id":"free"},{"bike_id":"4d461b85-1a0e-4623-8399-e9448b273b12","system_id":"levelo_inurba_marseille","lat":43.317075,"lon":5.377367,"is_reserved":false,"is_disabled":false,"rental_uris":{"android":"levelo://app?vid=4d461b85-1a0e-4623-8399-e9448b273b12","ios":"levelo://app?vid=4d461b85-1a0e-4623-8399-e9448b273b12"},"vehicle_type_id":"4","last_reported":1704992793,"current_range_meters":31200,"station_id":"ce4bgth2rcd13ifvqch0","pricing_plan_id":"free"},{"bike_id":"1c5ff360-7eb4-4dc3-ae5a-4c1f95661c89","system_id":"levelo_inurba_marseille","lat":43.317075,"lon":5.377367,"is_reserved":false,"is_disabled":false,"rental_uris":{"android":"levelo://app?vid=1c5ff360-7eb4-4dc3-ae5a-4c1f95661c89","ios":"levelo://app?vid=1c5ff360-7eb4-4dc3-ae5a-4c1f95661c89"},"vehicle_type_id":"4","last_reported":1704992793,"current_range_meters":20000,"station_id":"ce4bgth2rcd13ifvqch0","pricing_plan_id":"free"},{"bike_id":"4fb6c33f-6a2d-4cb9-b5f5-71a4f8b0b1b3","system_id":"levelo_inurba_marseille","lat":43.31709,"lon":5.377564,"is_reserved":false,"is_disabled":false,"rental_uris":{"android":"levelo://app?vid=4fb6c33f-6a2d-4cb9-b5f5-71a4f8b0b1b3","ios":"levelo://app?vid=4fb6c33f-6a2d-4cb9-b5f5-71a4f8b0b1b3"},"vehicle_type_id":"4","last_reported":1704992793,"current_range_meters":24400,"station_id":"ce4bgth2rcd13ifvqch0","pricing_plan_id":"free"},{"bike_id":"4703778a-a799-41e5-b078-4160f07f1fec","system_id":"levelo_inurba_marseille","lat":43.317075,"lon":5.377367,"is_reserved":false,"is_disabled":false,"rental_uris":{"android":"levelo://app?vid=4703778a-a799-41e5-b078-4160f07f1fec","ios":"levelo://app?vid=4703778a-a799-41e5-b078-4160f07f1fec"},"vehicle_type_id":"4","last_reported":1704992793,"current_range_meters":23600,"station_id":"ce4bgth2rcd13ifvqch0","pricing_plan_id":"free"},{"bike_id":"444849f0-e3eb-421a-ba61-87cd848eda7b","system_id":"levelo_inurba_marseille","lat":43.31538,"lon":5.38025,"is_reserved":false,"is_disabled":false,"rental_uris":{"android":"levelo://app?vid=444849f0-e3eb-421a-ba61-87cd848eda7b","ios":"levelo://app?vid=444849f0-e3eb-421a-ba61-87cd848eda7b"},"vehicle_type_id":"4","last_reported":1704992793,"current_range_meters":24000,"station_id":"ce4bhsp2rcd13ifvqi50","pricing_plan_id":"free"},{"bike_id":"1f870116-b2d4-4ef6-91b7-023cb8587099","system_id":"levelo_inurba_marseille","lat":43.300827,"lon":5.365856,"is_reserved":false,"is_disabled":false,"rental_uris":{"android":"levelo://app?vid=1f870116-b2d4-4ef6-91b7-023cb8587099","ios":"levelo://app?vid=1f870116-b2d4-4ef6-91b7-023cb8587099"},"vehicle_type_id":"4","last_reported":1704992793,"current_range_meters":8400,"station_id":"","pricing_plan_id":"free"},{"bike_id":"d67a9692-4209-4ab8-894a-e96cd1211d97","system_id":"levelo_inurba_marseille","lat":43.32478,"lon":5.36564,"is_reserved":false,"is_disabled":false,"rental_uris":{"android":"levelo://app?vid=d67a9692-4209-4ab8-894a-e96cd1211d97","ios":"levelo://app?vid=d67a9692-4209-4ab8-894a-e96cd1211d97"},"vehicle_type_id":"4","last_reported":1704992793,"current_range_meters":26000,"station_id":"ce4bhs12rcd13ifvqhvg","pricing_plan_id":"free"},{"bike_id":"5e2c9d6a-6f8a-49b5-bc98-a2690a4ce8d4","system_id":"levelo_inurba_marseille","lat":43.302841,"lon":5.376939,"is_reserved":false,"is_disabled":false,"rental_uris":{"android":"levelo://app?vid=5e2c9d6a-6f8a-49b5-bc98-a2690a4ce8d4","ios":"levelo://app?vid=5e2c9d6a-6f8a-49b5-bc98-a2690a4ce8d4"},"vehicle_type_id":"4","last_reported":1704992793,"current_range_meters":30800,"station_id":"","pricing_plan_id":"free"},{"bike_id":"9c33977d-5347-40f4-99de-d76782e12f27","system_id":"levelo_inurba_marseille","lat":43.30143,"lon":5.37413,"is_reserved":false,"is_disabled":false,"rental_uris":{"android":"levelo://app?vid=9c33977d-5347-40f4-99de-d76782e12f27","ios":"levelo://app?vid=9c33977d-5347-40f4-99de-d76782e12f27"},"vehicle_type_id":"4","last_reported":1704992793,"current_range_meters":7200,"station_id":"ce4bgs92rcd13ifvqcc0","pricing_plan_id":"free"},{"bike_id":"92c5ae1e-a8fe-4470-8ba0-8c647ea21378","system_id":"levelo_inurba_marseille","lat":43.313571,"lon":5.384829,"is_reserved":false,"is_disabled":false,"rental_uris":{"android":"levelo://app?vid=92c5ae1e-a8fe-4470-8ba0-8c647ea21378","ios":"levelo://app?vid=92c5ae1e-a8fe-4470-8ba0-8c647ea21378"},"vehicle_type_id":"4","last_reported":1704992793,"current_range_meters":25200,"station_id":"ce4bgt92rcd13ifvqcf0","pricing_plan_id":"free"},{"bike_id":"ce69bfaa-d49b-4308-a891-4e2bb9076ab8","system_id":"levelo_inurba_marseille","lat":43.299724,"lon":5.371829,"is_reserved":false,"is_disabled":false,"rental_uris":{"android":"levelo://app?vid=ce69bfaa-d49b-4308-a891-4e2bb9076ab8","ios":"levelo://app?vid=ce69bfaa-d49b-4308-a891-4e2bb9076ab8"},"vehicle_type_id":"4","last_reported":1704992793,"current_range_meters":31200,"station_id":"ce4bgr92rcd13ifvqc7g","pricing_plan_id":"free"},{"bike_id":"e455938c-487a-41eb-926d-8d306bd7f29d","system_id":"levelo_inurba_marseille","lat":43.299724,"lon":5.371829,"is_reserved":false,"is_disabled":false,"rental_uris":{"android":"levelo://app?vid=e455938c-487a-41eb-926d-8d306bd7f29d","ios":"levelo://app?vid=e455938c-487a-41eb-926d-8d306bd7f29d"},"vehicle_type_id":"4","last_reported":1704992793,"current_range_meters":29600,"station_id":"ce4bgr92rcd13ifvqc7g","pricing_plan_id":"free"},{"bike_id":"872d8857-50dc-42cd-be4d-f00501a0af0c","system_id":"levelo_inurba_marseille","lat":43.299724,"lon":5.371829,"is_reserved":false,"is_disabled":false,"rental_uris":{"android":"levelo://app?vid=872d8857-50dc-42cd-be4d-f00501a0af0c","ios":"levelo://app?vid=872d8857-50dc-42cd-be4d-f00501a0af0c"},"vehicle_type_id":"4","last_reported":1704992793,"current_range_meters":24000,"station_id":"ce4bgr92rcd13ifvqc7g","pricing_plan_id":"free"},{"bike_id":"5e3ae350-92fc-4f1a-91e5-fca6c6157e9c","system_id":"levelo_inurba_marseille","lat":43.314305,"lon":5.385497,"is_reserved":false,"is_disabled":false,"rental_uris":{"android":"levelo://app?vid=5e3ae350-92fc-4f1a-91e5-fca6c6157e9c","ios":"levelo://app?vid=5e3ae350-92fc-4f1a-91e5-fca6c6157e9c"},"vehicle_type_id":"4","last_reported":1704992793,"current_range_meters":4000,"station_id":"","pricing_plan_id":"free"},{"bike_id":"85576727-0b95-4003-83c8-311edd0535e8","system_id":"levelo_inurba_marseille","lat":43.29844,"lon":5.36266,"is_reserved":false,"is_disabled":false,"rental_uris":{"android":"levelo://app?vid=85576727-0b95-4003-83c8-311edd0535e8","ios":"levelo://app?vid=85576727-0b95-4003-83c8-311edd0535e8"},"vehicle_type_id":"4","last_reported":1704992793,"current_range_meters":28400,"station_id":"ce4bgpp2rcd13ifvqc3g","pricing_plan_id":"free"},{"bike_id":"c86e66ac-6cca-462e-b102-00deea093d7d","system_id":"levelo_inurba_marseille","lat":43.311722,"lon":5.387247,"is_reserved":false,"is_disabled":false,"rental_uris":{"android":"levelo://app?vid=c86e66ac-6cca-462e-b102-00deea093d7d","ios":"levelo://app?vid=c86e66ac-6cca-462e-b102-00deea093d7d"},"vehicle_type_id":"4","last_reported":1704992793,"current_range_meters":26800,"station_id":"ce4bgv12rcd13ifvqcp0","pricing_plan_id":"free"},{"bike_id":"b04c1462-1005-49ca-b38f-a17047c9efe3","system_id":"levelo_inurba_marseille","lat":43.31161,"lon":5.38723,"is_reserved":false,"is_disabled":false,"rental_uris":{"android":"levelo://app?vid=b04c1462-1005-49ca-b38f-a17047c9efe3","ios":"levelo://app?vid=b04c1462-1005-49ca-b38f-a17047c9efe3"},"vehicle_type_id":"4","last_reported":1704992793,"current_range_meters":2400,"station_id":"ce4bgv12rcd13ifvqcp0","pricing_plan_id":"free"},{"bike_id":"aad6a19f-61f4-427d-a171-3c58528baf16","system_id":"levelo_inurba_marseille","lat":43.311722,"lon":5.387247,"is_reserved":false,"is_disabled":false,"rental_uris":{"android":"levelo://app?vid=aad6a19f-61f4-427d-a171-3c58528baf16","ios":"levelo://app?vid=aad6a19f-61f4-427d-a171-3c58528baf16"},"vehicle_type_id":"4","last_reported":1704992793,"current_range_meters":20800,"station_id":"ce4bgv12rcd13ifvqcp0","pricing_plan_id":"free"},{"bike_id":"26ded470-2121-4c58-b83b-67b0cd7cbe01","system_id":"levelo_inurba_marseille","lat":43.297794,"lon":5.370888,"is_reserved":false,"is_disabled":false,"rental_uris":{"android":"levelo://app?vid=26ded470-2121-4c58-b83b-67b0cd7cbe01","ios":"levelo://app?vid=26ded470-2121-4c58-b83b-67b0cd7cbe01"},"vehicle_type_id":"4","last_reported":1704992793,"current_range_meters":20800,"station_id":"ce4bgop2rcd13ifvqc1g","pricing_plan_id":"free"},{"bike_id":"c0c847ea-83f0-4e06-9678-e7646050a3c7","system_id":"levelo_inurba_marseille","lat":43.322872,"lon":5.382756,"is_reserved":false,"is_disabled":false,"rental_uris":{"android":"levelo://app?vid=c0c847ea-83f0-4e06-9678-e7646050a3c7","ios":"levelo://app?vid=c0c847ea-83f0-4e06-9678-e7646050a3c7"},"vehicle_type_id":"4","last_reported":1704992793,"current_range_meters":31200,"station_id":"ce4bhr12rcd13ifvqhqg","pricing_plan_id":"free"},{"bike_id":"99703e51-6741-4acf-b1f4-6ddcca56d0f3","system_id":"levelo_inurba_marseille","lat":43.297794,"lon":5.370888,"is_reserved":false,"is_disabled":false,"rental_uris":{"android":"levelo://app?vid=99703e51-6741-4acf-b1f4-6ddcca56d0f3","ios":"levelo://app?vid=99703e51-6741-4acf-b1f4-6ddcca56d0f3"},"vehicle_type_id":"4","last_reported":1704992793,"current_range_meters":25600,"station_id":"ce4bgop2rcd13ifvqc1g","pricing_plan_id":"free"},{"bike_id":"1229937f-b15f-4120-8710-32f074f3579a","system_id":"levelo_inurba_marseille","lat":43.322872,"lon":5.382756,"is_reserved":false,"is_disabled":false,"rental_uris":{"android":"levelo://app?vid=1229937f-b15f-4120-8710-32f074f3579a","ios":"levelo://app?vid=1229937f-b15f-4120-8710-32f074f3579a"},"vehicle_type_id":"4","last_reported":1704992793,"current_range_meters":25200,"station_id":"ce4bhr12rcd13ifvqhqg","pricing_plan_id":"free"},{"bike_id":"8aa9446f-04a1-44b2-bc1a-70577ab3021a","system_id":"levelo_inurba_marseille","lat":43.322872,"lon":5.382756,"is_reserved":false,"is_disabled":false,"rental_uris":{"android":"levelo://app?vid=8aa9446f-04a1-44b2-bc1a-70577ab3021a","ios":"levelo://app?vid=8aa9446f-04a1-44b2-bc1a-70577ab3021a"},"vehicle_type_id":"4","last_reported":1704992793,"current_range_meters":26800,"station_id":"ce4bhr12rcd13ifvqhqg","pricing_plan_id":"free"},{"bike_id":"37230247-9ff4-43f8-976c-bfd885c364cc","system_id":"levelo_inurba_marseille","lat":43.322872,"lon":5.382756,"is_reserved":false,"is_disabled":false,"rental_uris":{"android":"levelo://app?vid=37230247-9ff4-43f8-976c-bfd885c364cc","ios":"levelo://app?vid=37230247-9ff4-43f8-976c-bfd885c364cc"},"vehicle_type_id":"4","last_reported":1704992793,"current_range_meters":30400,"station_id":"ce4bhr12rcd13ifvqhqg","pricing_plan_id":"free"},{"bike_id":"e6e19d0e-3869-49dd-9909-3855cba4b479","system_id":"levelo_inurba_marseille","lat":43.297794,"lon":5.370888,"is_reserved":false,"is_disabled":false,"rental_uris":{"android":"levelo://app?vid=e6e19d0e-3869-49dd-9909-3855cba4b479","ios":"levelo://app?vid=e6e19d0e-3869-49dd-9909-3855cba4b479"},"vehicle_type_id":"4","last_reported":1704992793,"current_range_meters":30000,"station_id":"ce4bgop2rcd13ifvqc1g","pricing_plan_id":"free"},{"bike_id":"3f3f31e2-e233-487e-9612-a517b56f0180","system_id":"levelo_inurba_marseille","lat":43.297774,"lon":5.370875,"is_reserved":false,"is_disabled":false,"rental_uris":{"android":"levelo://app?vid=3f3f31e2-e233-487e-9612-a517b56f0180","ios":"levelo://app?vid=3f3f31e2-e233-487e-9612-a517b56f0180"},"vehicle_type_id":"4","last_reported":1704992793,"current_range_meters":26800,"station_id":"ce4bgop2rcd13ifvqc1g","pricing_plan_id":"free"},{"bike_id":"fb45f142-a2e6-4b54-b6fd-5660ca2c1fe5","system_id":"levelo_inurba_marseille","lat":43.328233,"lon":5.366775,"is_reserved":false,"is_disabled":false,"rental_uris":{"android":"levelo://app?vid=fb45f142-a2e6-4b54-b6fd-5660ca2c1fe5","ios":"levelo://app?vid=fb45f142-a2e6-4b54-b6fd-5660ca2c1fe5"},"vehicle_type_id":"4","last_reported":1704992793,"current_range_meters":18000,"station_id":"ce4bhs92rcd13ifvqi0g","pricing_plan_id":"free"},{"bike_id":"d68ce626-ef98-4d52-b3b3-f34d703a806b","system_id":"levelo_inurba_marseille","lat":43.32826,"lon":5.36697,"is_reserved":false,"is_disabled":false,"rental_uris":{"android":"levelo://app?vid=d68ce626-ef98-4d52-b3b3-f34d703a806b","ios":"levelo://app?vid=d68ce626-ef98-4d52-b3b3-f34d703a806b"},"vehicle_type_id":"4","last_reported":1704992793,"current_range_meters":20400,"station_id":"ce4bhs92rcd13ifvqi0g","pricing_plan_id":"free"},{"bike_id":"b7ebc9b3-3a49-46b9-adee-6e1c48bb2e7c","system_id":"levelo_inurba_marseille","lat":43.297163,"lon":5.365866,"is_reserved":false,"is_disabled":false,"rental_uris":{"android":"levelo://app?vid=b7ebc9b3-3a49-46b9-adee-6e1c48bb2e7c","ios":"levelo://app?vid=b7ebc9b3-3a49-46b9-adee-6e1c48bb2e7c"},"vehicle_type_id":"4","last_reported":1704992793,"current_range_meters":30800,"station_id":"ce4bgn12rcd13ifvqbt0","pricing_plan_id":"free"},{"bike_id":"a70069dc-f773-452d-9d3a-320d0014d11e","system_id":"levelo_inurba_marseille","lat":43.328262,"lon":5.366788,"is_reserved":false,"is_disabled":false,"rental_uris":{"android":"levelo://app?vid=a70069dc-f773-452d-9d3a-320d0014d11e","ios":"levelo://app?vid=a70069dc-f773-452d-9d3a-320d0014d11e"},"vehicle_type_id":"4","last_reported":1704992793,"current_range_meters":13200,"station_id":"ce4bhs92rcd13ifvqi0g","pricing_plan_id":"free"},{"bike_id":"331410e4-8362-40e5-8b58-6a53f46a25bd","system_id":"levelo_inurba_marseille","lat":43.328281,"lon":5.366745,"is_reserved":false,"is_disabled":false,"rental_uris":{"android":"levelo://app?vid=331410e4-8362-40e5-8b58-6a53f46a25bd","ios":"levelo://app?vid=331410e4-8362-40e5-8b58-6a53f46a25bd"},"vehicle_type_id":"4","last_reported":1704992793,"current_range_meters":27200,"station_id":"ce4bhs92rcd13ifvqi0g","pricing_plan_id":"free"},{"bike_id":"68fb1e16-a9bd-4b64-9d7b-d0e67ffc0fc2","system_id":"levelo_inurba_marseille","lat":43.297163,"lon":5.365866,"is_reserved":false,"is_disabled":false,"rental_uris":{"android":"levelo://app?vid=68fb1e16-a9bd-4b64-9d7b-d0e67ffc0fc2","ios":"levelo://app?vid=68fb1e16-a9bd-4b64-9d7b-d0e67ffc0fc2"},"vehicle_type_id":"4","last_reported":1704992793,"current_range_meters":19200,"station_id":"ce4bgn12rcd13ifvqbt0","pricing_plan_id":"free"},{"bike_id":"b417e045-2acd-45ab-8543-5d87cc32d878","system_id":"levelo_inurba_marseille","lat":43.328298,"lon":5.366712,"is_reserved":false,"is_disabled":false,"rental_uris":{"android":"levelo://app?vid=b417e045-2acd-45ab-8543-5d87cc32d878","ios":"levelo://app?vid=b417e045-2acd-45ab-8543-5d87cc32d878"},"vehicle_type_id":"4","last_reported":1704992793,"current_range_meters":24800,"station_id":"ce4bhs92rcd13ifvqi0g","pricing_plan_id":"free"},{"bike_id":"1f1a5220-6426-49f4-89de-c9c79ed6428d","system_id":"levelo_inurba_marseille","lat":43.3283,"lon":5.36678,"is_reserved":false,"is_disabled":false,"rental_uris":{"android":"levelo://app?vid=1f1a5220-6426-49f4-89de-c9c79ed6428d","ios":"levelo://app?vid=1f1a5220-6426-49f4-89de-c9c79ed6428d"},"vehicle_type_id":"4","last_reported":1704992793,"current_range_meters":26400,"station_id":"ce4bhs92rcd13ifvqi0g","pricing_plan_id":"free"},{"bike_id":"7b9958fe-cb69-4b86-8077-c6eefd22d5f1","system_id":"levelo_inurba_marseille","lat":43.3283,"lon":5.36676,"is_reserved":false,"is_disabled":false,"rental_uris":{"android":"levelo://app?vid=7b9958fe-cb69-4b86-8077-c6eefd22d5f1","ios":"levelo://app?vid=7b9958fe-cb69-4b86-8077-c6eefd22d5f1"},"vehicle_type_id":"4","last_reported":1704992793,"current_range_meters":25600,"station_id":"ce4bhs92rcd13ifvqi0g","pricing_plan_id":"free"},{"bike_id":"30f8693f-6be0-48b2-9028-bcba9d6c72a0","system_id":"levelo_inurba_marseille","lat":43.328303,"lon":5.366754,"is_reserved":false,"is_disabled":false,"rental_uris":{"android":"levelo://app?vid=30f8693f-6be0-48b2-9028-bcba9d6c72a0","ios":"levelo://app?vid=30f8693f-6be0-48b2-9028-bcba9d6c72a0"},"vehicle_type_id":"4","last_reported":1704992793,"current_range_meters":30000,"station_id":"ce4bhs92rcd13ifvqi0g","pricing_plan_id":"free"},{"bike_id":"e1e3a1c2-ded9-4b32-80b4-852bd4467a76","system_id":"levelo_inurba_marseille","lat":43.328316,"lon":5.366732,"is_reserved":false,"is_disabled":false,"rental_uris":{"android":"levelo://app?vid=e1e3a1c2-ded9-4b32-80b4-852bd4467a76","ios":"levelo://app?vid=e1e3a1c2-ded9-4b32-80b4-852bd4467a76"},"vehicle_type_id":"4","last_reported":1704992793,"current_range_meters":16400,"station_id":"ce4bhs92rcd13ifvqi0g","pricing_plan_id":"free"},{"bike_id":"41efb721-1cfb-4428-84da-a8b78b5fd8b3","system_id":"levelo_inurba_marseille","lat":43.297163,"lon":5.365866,"is_reserved":false,"is_disabled":false,"rental_uris":{"android":"levelo://app?vid=41efb721-1cfb-4428-84da-a8b78b5fd8b3","ios":"levelo://app?vid=41efb721-1cfb-4428-84da-a8b78b5fd8b3"},"vehicle_type_id":"4","last_reported":1704992793,"current_range_meters":9600,"station_id":"ce4bgn12rcd13ifvqbt0","pricing_plan_id":"free"},{"bike_id":"ef7bcaa0-cc81-4e08-af4b-aa4d543a0b88","system_id":"levelo_inurba_marseille","lat":43.297163,"lon":5.365866,"is_reserved":false,"is_disabled":false,"rental_uris":{"android":"levelo://app?vid=ef7bcaa0-cc81-4e08-af4b-aa4d543a0b88","ios":"levelo://app?vid=ef7bcaa0-cc81-4e08-af4b-aa4d543a0b88"},"vehicle_type_id":"4","last_reported":1704992793,"current_range_meters":28000,"station_id":"ce4bgn12rcd13ifvqbt0","pricing_plan_id":"free"},{"bike_id":"0e21c0e1-cd91-41f5-a668-23429ce9066e","system_id":"levelo_inurba_marseille","lat":43.296801,"lon":5.372822,"is_reserved":false,"is_disabled":false,"rental_uris":{"android":"levelo://app?vid=0e21c0e1-cd91-41f5-a668-23429ce9066e","ios":"levelo://app?vid=0e21c0e1-cd91-41f5-a668-23429ce9066e"},"vehicle_type_id":"4","last_reported":1704992793,"current_range_meters":7200,"station_id":"","pricing_plan_id":"free"},{"bike_id":"45eee4bd-6800-43d9-acf2-6485fca420f1","system_id":"levelo_inurba_marseille","lat":43.296035,"lon":5.367875,"is_reserved":false,"is_disabled":false,"rental_uris":{"android":"levelo://app?vid=45eee4bd-6800-43d9-acf2-6485fca420f1","ios":"levelo://app?vid=45eee4bd-6800-43d9-acf2-6485fca420f1"},"vehicle_type_id":"4","last_reported":1704992793,"current_range_meters":18400,"station_id":"","pricing_plan_id":"free"},{"bike_id":"4d0b89df-2027-42e6-9322-8a987f194ae8","system_id":"levelo_inurba_marseille","lat":43.29573,"lon":5.367355,"is_reserved":false,"is_disabled":false,"rental_uris":{"android":"levelo://app?vid=4d0b89df-2027-42e6-9322-8a987f194ae8","ios":"levelo://app?vid=4d0b89df-2027-42e6-9322-8a987f194ae8"},"vehicle_type_id":"4","last_reported":1704992793,"current_range_meters":27200,"station_id":"ce4bgph2rcd13ifvqc2g","pricing_plan_id":"free"},{"bike_id":"6429c4dc-f471-492f-ac67-72bf68fd7ef9","system_id":"levelo_inurba_marseille","lat":43.296921,"lon":5.376579,"is_reserved":false,"is_disabled":false,"rental_uris":{"android":"levelo://app?vid=6429c4dc-f471-492f-ac67-72bf68fd7ef9","ios":"levelo://app?vid=6429c4dc-f471-492f-ac67-72bf68fd7ef9"},"vehicle_type_id":"4","last_reported":1704992793,"current_range_meters":21200,"station_id":"ce4bgkh2rcd13ifvqbl0","pricing_plan_id":"free"},{"bike_id":"f4b7b3a8-7e21-4a35-88cf-5cf3dd35801f","system_id":"levelo_inurba_marseille","lat":43.296921,"lon":5.376579,"is_reserved":false,"is_disabled":false,"rental_uris":{"android":"levelo://app?vid=f4b7b3a8-7e21-4a35-88cf-5cf3dd35801f","ios":"levelo://app?vid=f4b7b3a8-7e21-4a35-88cf-5cf3dd35801f"},"vehicle_type_id":"4","last_reported":1704992793,"current_range_meters":19200,"station_id":"ce4bgkh2rcd13ifvqbl0","pricing_plan_id":"free"},{"bike_id":"e77e9c6d-5a79-4c47-851b-a0e7008da905","system_id":"levelo_inurba_marseille","lat":43.296921,"lon":5.376579,"is_reserved":false,"is_disabled":false,"rental_uris":{"android":"levelo://app?vid=e77e9c6d-5a79-4c47-851b-a0e7008da905","ios":"levelo://app?vid=e77e9c6d-5a79-4c47-851b-a0e7008da905"},"vehicle_type_id":"4","last_reported":1704992793,"current_range_meters":7200,"station_id":"ce4bgkh2rcd13ifvqbl0","pricing_plan_id":"free"},{"bike_id":"b9470094-4555-4f89-9bb3-8b648ab442a3","system_id":"levelo_inurba_marseille","lat":43.299202,"lon":5.381513,"is_reserved":false,"is_disabled":false,"rental_uris":{"android":"levelo://app?vid=b9470094-4555-4f89-9bb3-8b648ab442a3","ios":"levelo://app?vid=b9470094-4555-4f89-9bb3-8b648ab442a3"},"vehicle_type_id":"4","last_reported":1704992793,"current_range_meters":9600,"station_id":"","pricing_plan_id":"free"},{"bike_id":"28415176-8d43-4a80-afff-081ce6f91c45","system_id":"levelo_inurba_marseille","lat":43.296935,"lon":5.376544,"is_reserved":false,"is_disabled":false,"rental_uris":{"android":"levelo://app?vid=28415176-8d43-4a80-afff-081ce6f91c45","ios":"levelo://app?vid=28415176-8d43-4a80-afff-081ce6f91c45"},"vehicle_type_id":"4","last_reported":1704992793,"current_range_meters":26800,"station_id":"ce4bgkh2rcd13ifvqbl0","pricing_plan_id":"free"},{"bike_id":"0cb3b330-a374-4a7f-9b77-aa2ec7a945a8","system_id":"levelo_inurba_marseille","lat":43.296921,"lon":5.376579,"is_reserved":false,"is_disabled":false,"rental_uris":{"android":"levelo://app?vid=0cb3b330-a374-4a7f-9b77-aa2ec7a945a8","ios":"levelo://app?vid=0cb3b330-a374-4a7f-9b77-aa2ec7a945a8"},"vehicle_type_id":"4","last_reported":1704992793,"current_range_meters":17600,"station_id":"ce4bgkh2rcd13ifvqbl0","pricing_plan_id":"free"},{"bike_id":"1b74400c-e6ee-4f90-91ec-87e0c680ac50","system_id":"levelo_inurba_marseille","lat":43.317557,"lon":5.390173,"is_reserved":false,"is_disabled":false,"rental_uris":{"android":"levelo://app?vid=1b74400c-e6ee-4f90-91ec-87e0c680ac50","ios":"levelo://app?vid=1b74400c-e6ee-4f90-91ec-87e0c680ac50"},"vehicle_type_id":"4","last_reported":1704992793,"current_range_meters":27600,"station_id":"ce4bhqp2rcd13ifvqhng","pricing_plan_id":"free"},{"bike_id":"1cc29d1a-8abe-4d61-a2ad-cf9c1a806937","system_id":"levelo_inurba_marseille","lat":43.29796,"lon":5.38094,"is_reserved":false,"is_disabled":false,"rental_uris":{"android":"levelo://app?vid=1cc29d1a-8abe-4d61-a2ad-cf9c1a806937","ios":"levelo://app?vid=1cc29d1a-8abe-4d61-a2ad-cf9c1a806937"},"vehicle_type_id":"4","last_reported":1704992793,"current_range_meters":20000,"station_id":"ce4bgip2rcd13ifvqbb0","pricing_plan_id":"free"},{"bike_id":"e48e4715-2769-4b21-ae3b-0d78dded91ff","system_id":"levelo_inurba_marseille","lat":43.2957,"lon":5.37493,"is_reserved":false,"is_disabled":false,"rental_uris":{"android":"levelo://app?vid=e48e4715-2769-4b21-ae3b-0d78dded91ff","ios":"levelo://app?vid=e48e4715-2769-4b21-ae3b-0d78dded91ff"},"vehicle_type_id":"4","last_reported":1704992793,"current_range_meters":27600,"station_id":"ce4bgh92rcd13ifvqb50","pricing_plan_id":"free"},{"bike_id":"b786293c-5281-4fe8-9702-41e38caad737","system_id":"levelo_inurba_marseille","lat":43.298037,"lon":5.381066,"is_reserved":false,"is_disabled":false,"rental_uris":{"android":"levelo://app?vid=b786293c-5281-4fe8-9702-41e38caad737","ios":"levelo://app?vid=b786293c-5281-4fe8-9702-41e38caad737"},"vehicle_type_id":"4","last_reported":1704992793,"current_range_meters":30800,"station_id":"ce4bgip2rcd13ifvqbb0","pricing_plan_id":"free"},{"bike_id":"c1bf5953-6180-4f1c-bd99-9bce376bf72b","system_id":"levelo_inurba_marseille","lat":43.304278,"lon":5.388868,"is_reserved":false,"is_disabled":false,"rental_uris":{"android":"levelo://app?vid=c1bf5953-6180-4f1c-bd99-9bce376bf72b","ios":"levelo://app?vid=c1bf5953-6180-4f1c-bd99-9bce376bf72b"},"vehicle_type_id":"4","last_reported":1704992793,"current_range_meters":7600,"station_id":"ce4bgk12rcd13ifvqbi0","pricing_plan_id":"free"},{"bike_id":"ab875398-ec49-43d2-a077-3aa92ee53ee2","system_id":"levelo_inurba_marseille","lat":43.295748,"lon":5.37522,"is_reserved":false,"is_disabled":false,"rental_uris":{"android":"levelo://app?vid=ab875398-ec49-43d2-a077-3aa92ee53ee2","ios":"levelo://app?vid=ab875398-ec49-43d2-a077-3aa92ee53ee2"},"vehicle_type_id":"4","last_reported":1704992793,"current_range_meters":2000,"station_id":"ce4bgh92rcd13ifvqb50","pricing_plan_id":"free"},{"bike_id":"06d3c780-7950-485b-ac1e-292e97aa63d1","system_id":"levelo_inurba_marseille","lat":43.295748,"lon":5.37522,"is_reserved":false,"is_disabled":false,"rental_uris":{"android":"levelo://app?vid=06d3c780-7950-485b-ac1e-292e97aa63d1","ios":"levelo://app?vid=06d3c780-7950-485b-ac1e-292e97aa63d1"},"vehicle_type_id":"4","last_reported":1704992793,"current_range_meters":24800,"station_id":"ce4bgh92rcd13ifvqb50","pricing_plan_id":"free"},{"bike_id":"0be32fb7-3983-4c88-84bb-abd8692a415a","system_id":"levelo_inurba_marseille","lat":43.296263,"lon":5.377094,"is_reserved":false,"is_disabled":false,"rental_uris":{"android":"levelo://app?vid=0be32fb7-3983-4c88-84bb-abd8692a415a","ios":"levelo://app?vid=0be32fb7-3983-4c88-84bb-abd8692a415a"},"vehicle_type_id":"4","last_reported":1704992793,"current_range_meters":28400,"station_id":"ce4bgi92rcd13ifvqb90","pricing_plan_id":"free"},{"bike_id":"49822569-61b9-4cd2-945a-30bcc0c2a499","system_id":"levelo_inurba_marseille","lat":43.295279,"lon":5.375048,"is_reserved":false,"is_disabled":false,"rental_uris":{"android":"levelo://app?vid=49822569-61b9-4cd2-945a-30bcc0c2a499","ios":"levelo://app?vid=49822569-61b9-4cd2-945a-30bcc0c2a499"},"vehicle_type_id":"4","last_reported":1704992793,"current_range_meters":5200,"station_id":"ce4bgkp2rcd13ifvqbmg","pricing_plan_id":"free"},{"bike_id":"5ca911e9-9160-430c-ab83-20e8d1265853","system_id":"levelo_inurba_marseille","lat":43.295279,"lon":5.375048,"is_reserved":false,"is_disabled":false,"rental_uris":{"android":"levelo://app?vid=5ca911e9-9160-430c-ab83-20e8d1265853","ios":"levelo://app?vid=5ca911e9-9160-430c-ab83-20e8d1265853"},"vehicle_type_id":"4","last_reported":1704992793,"current_range_meters":28800,"station_id":"ce4bgkp2rcd13ifvqbmg","pricing_plan_id":"free"},{"bike_id":"c8f36cbf-d130-4463-9aa9-3753114e1bb0","system_id":"levelo_inurba_marseille","lat":43.295279,"lon":5.375048,"is_reserved":false,"is_disabled":false,"rental_uris":{"android":"levelo://app?vid=c8f36cbf-d130-4463-9aa9-3753114e1bb0","ios":"levelo://app?vid=c8f36cbf-d130-4463-9aa9-3753114e1bb0"},"vehicle_type_id":"4","last_reported":1704992793,"current_range_meters":23200,"station_id":"ce4bgkp2rcd13ifvqbmg","pricing_plan_id":"free"},{"bike_id":"38fb15e2-97fd-4f68-ae2d-4c0fe510a864","system_id":"levelo_inurba_marseille","lat":43.323694,"lon":5.388672,"is_reserved":false,"is_disabled":false,"rental_uris":{"android":"levelo://app?vid=38fb15e2-97fd-4f68-ae2d-4c0fe510a864","ios":"levelo://app?vid=38fb15e2-97fd-4f68-ae2d-4c0fe510a864"},"vehicle_type_id":"4","last_reported":1704992793,"current_range_meters":21600,"station_id":"ce4bhqp2rcd13ifvqhog","pricing_plan_id":"free"},{"bike_id":"53bcccdd-f8f4-4713-a7f0-5bfceffa3b71","system_id":"levelo_inurba_marseille","lat":43.32367,"lon":5.388836,"is_reserved":false,"is_disabled":false,"rental_uris":{"android":"levelo://app?vid=53bcccdd-f8f4-4713-a7f0-5bfceffa3b71","ios":"levelo://app?vid=53bcccdd-f8f4-4713-a7f0-5bfceffa3b71"},"vehicle_type_id":"4","last_reported":1704992793,"current_range_meters":25600,"station_id":"ce4bhqp2rcd13ifvqhog","pricing_plan_id":"free"},{"bike_id":"cafe7be7-3bdd-4002-988b-fcafc6455e75","system_id":"levelo_inurba_marseille","lat":43.32367,"lon":5.388836,"is_reserved":false,"is_disabled":false,"rental_uris":{"android":"levelo://app?vid=cafe7be7-3bdd-4002-988b-fcafc6455e75","ios":"levelo://app?vid=cafe7be7-3bdd-4002-988b-fcafc6455e75"},"vehicle_type_id":"4","last_reported":1704992793,"current_range_meters":17200,"station_id":"ce4bhqp2rcd13ifvqhog","pricing_plan_id":"free"},{"bike_id":"c7855a59-39c1-4341-9257-1f0a6e40a20a","system_id":"levelo_inurba_marseille","lat":43.32367,"lon":5.388836,"is_reserved":false,"is_disabled":false,"rental_uris":{"android":"levelo://app?vid=c7855a59-39c1-4341-9257-1f0a6e40a20a","ios":"levelo://app?vid=c7855a59-39c1-4341-9257-1f0a6e40a20a"},"vehicle_type_id":"4","last_reported":1704992793,"current_range_meters":11200,"station_id":"ce4bhqp2rcd13ifvqhog","pricing_plan_id":"free"},{"bike_id":"556a4a10-46c7-4faa-a5cd-846a5cf46bed","system_id":"levelo_inurba_marseille","lat":43.32367,"lon":5.388836,"is_reserved":false,"is_disabled":false,"rental_uris":{"android":"levelo://app?vid=556a4a10-46c7-4faa-a5cd-846a5cf46bed","ios":"levelo://app?vid=556a4a10-46c7-4faa-a5cd-846a5cf46bed"},"vehicle_type_id":"4","last_reported":1704992793,"current_range_meters":28000,"station_id":"ce4bhqp2rcd13ifvqhog","pricing_plan_id":"free"},{"bike_id":"0ab7a87b-f568-4965-a7d5-d547f8364640","system_id":"levelo_inurba_marseille","lat":43.32363,"lon":5.388842,"is_reserved":false,"is_disabled":false,"rental_uris":{"android":"levelo://app?vid=0ab7a87b-f568-4965-a7d5-d547f8364640","ios":"levelo://app?vid=0ab7a87b-f568-4965-a7d5-d547f8364640"},"vehicle_type_id":"4","last_reported":1704992793,"current_range_meters":8800,"station_id":"ce4bhqp2rcd13ifvqhog","pricing_plan_id":"free"},{"bike_id":"a543be44-eb65-4189-aa5a-bf347333dea9","system_id":"levelo_inurba_marseille","lat":43.32367,"lon":5.388836,"is_reserved":false,"is_disabled":false,"rental_uris":{"android":"levelo://app?vid=a543be44-eb65-4189-aa5a-bf347333dea9","ios":"levelo://app?vid=a543be44-eb65-4189-aa5a-bf347333dea9"},"vehicle_type_id":"4","last_reported":1704992793,"current_range_meters":28800,"station_id":"ce4bhqp2rcd13ifvqhog","pricing_plan_id":"free"},{"bike_id":"5b7ef1a3-a12c-4144-815b-274e83c02169","system_id":"levelo_inurba_marseille","lat":43.32367,"lon":5.388836,"is_reserved":false,"is_disabled":false,"rental_uris":{"android":"levelo://app?vid=5b7ef1a3-a12c-4144-815b-274e83c02169","ios":"levelo://app?vid=5b7ef1a3-a12c-4144-815b-274e83c02169"},"vehicle_type_id":"4","last_reported":1704992793,"current_range_meters":14400,"station_id":"ce4bhqp2rcd13ifvqhog","pricing_plan_id":"free"},{"bike_id":"83466757-55a1-43f3-ad37-0db2fa94c736","system_id":"levelo_inurba_marseille","lat":43.32367,"lon":5.388836,"is_reserved":false,"is_disabled":false,"rental_uris":{"android":"levelo://app?vid=83466757-55a1-43f3-ad37-0db2fa94c736","ios":"levelo://app?vid=83466757-55a1-43f3-ad37-0db2fa94c736"},"vehicle_type_id":"4","last_reported":1704992793,"current_range_meters":22400,"station_id":"ce4bhqp2rcd13ifvqhog","pricing_plan_id":"free"},{"bike_id":"be57e941-5db8-46ca-b957-29f201eb1fcc","system_id":"levelo_inurba_marseille","lat":43.29601,"lon":5.381084,"is_reserved":false,"is_disabled":false,"rental_uris":{"android":"levelo://app?vid=be57e941-5db8-46ca-b957-29f201eb1fcc","ios":"levelo://app?vid=be57e941-5db8-46ca-b957-29f201eb1fcc"},"vehicle_type_id":"4","last_reported":1704992793,"current_range_meters":20800,"station_id":"ce4bgl12rcd13ifvqbo0","pricing_plan_id":"free"},{"bike_id":"27aa1856-312f-499d-a794-234d592fb1d3","system_id":"levelo_inurba_marseille","lat":43.293259,"lon":5.371586,"is_reserved":false,"is_disabled":false,"rental_uris":{"android":"levelo://app?vid=27aa1856-312f-499d-a794-234d592fb1d3","ios":"levelo://app?vid=27aa1856-312f-499d-a794-234d592fb1d3"},"vehicle_type_id":"4","last_reported":1704992793,"current_range_meters":25600,"station_id":"ce4bgh92rcd13ifvqb40","pricing_plan_id":"free"},{"bike_id":"4e5300c3-2a5a-4e7d-94e4-978ea56f2c92","system_id":"levelo_inurba_marseille","lat":43.292749,"lon":5.368402,"is_reserved":false,"is_disabled":false,"rental_uris":{"android":"levelo://app?vid=4e5300c3-2a5a-4e7d-94e4-978ea56f2c92","ios":"levelo://app?vid=4e5300c3-2a5a-4e7d-94e4-978ea56f2c92"},"vehicle_type_id":"4","last_reported":1704992793,"current_range_meters":9600,"station_id":"ce4bhbp2rcd13ifvqesg","pricing_plan_id":"free"},{"bike_id":"041d056b-7d97-49a4-ac82-4a5cf7f0017e","system_id":"levelo_inurba_marseille","lat":43.29269,"lon":5.36839,"is_reserved":false,"is_disabled":false,"rental_uris":{"android":"levelo://app?vid=041d056b-7d97-49a4-ac82-4a5cf7f0017e","ios":"levelo://app?vid=041d056b-7d97-49a4-ac82-4a5cf7f0017e"},"vehicle_type_id":"4","last_reported":1704992793,"current_range_meters":10400,"station_id":"ce4bhbp2rcd13ifvqesg","pricing_plan_id":"free"},{"bike_id":"ff7a0bc6-cb56-490e-a360-88acb9ba8eed","system_id":"levelo_inurba_marseille","lat":43.291994,"lon":5.392907,"is_reserved":false,"is_disabled":false,"rental_uris":{"android":"levelo://app?vid=ff7a0bc6-cb56-490e-a360-88acb9ba8eed","ios":"levelo://app?vid=ff7a0bc6-cb56-490e-a360-88acb9ba8eed"},"vehicle_type_id":"4","last_reported":1704992793,"current_range_meters":1200,"station_id":"ce4bh192rcd13ifvqdd0","pricing_plan_id":"free"},{"bike_id":"5881b7b6-6b36-4b21-a38b-e457f5ec977f","system_id":"levelo_inurba_marseille","lat":43.293009,"lon":5.374584,"is_reserved":false,"is_disabled":false,"rental_uris":{"android":"levelo://app?vid=5881b7b6-6b36-4b21-a38b-e457f5ec977f","ios":"levelo://app?vid=5881b7b6-6b36-4b21-a38b-e457f5ec977f"},"vehicle_type_id":"4","last_reported":1704992793,"current_range_meters":29600,"station_id":"ce4bgi12rcd13ifvqb70","pricing_plan_id":"free"},{"bike_id":"e044535e-0bed-4609-9719-6ec75f95de10","system_id":"levelo_inurba_marseille","lat":43.293009,"lon":5.374584,"is_reserved":false,"is_disabled":false,"rental_uris":{"android":"levelo://app?vid=e044535e-0bed-4609-9719-6ec75f95de10","ios":"levelo://app?vid=e044535e-0bed-4609-9719-6ec75f95de10"},"vehicle_type_id":"4","last_reported":1704992793,"current_range_meters":29600,"station_id":"ce4bgi12rcd13ifvqb70","pricing_plan_id":"free"},{"bike_id":"4d217b16-a1ba-429f-994b-abaa5e5b6032","system_id":"levelo_inurba_marseille","lat":43.29379,"lon":5.37852,"is_reserved":false,"is_disabled":false,"rental_uris":{"android":"levelo://app?vid=4d217b16-a1ba-429f-994b-abaa5e5b6032","ios":"levelo://app?vid=4d217b16-a1ba-429f-994b-abaa5e5b6032"},"vehicle_type_id":"4","last_reported":1704992793,"current_range_meters":0,"station_id":"ce4bgjh2rcd13ifvqbf0","pricing_plan_id":"free"},{"bike_id":"0dcc3580-80fd-44de-a414-f3ea857cf662","system_id":"levelo_inurba_marseille","lat":43.292311,"lon":5.360731,"is_reserved":false,"is_disabled":false,"rental_uris":{"android":"levelo://app?vid=0dcc3580-80fd-44de-a414-f3ea857cf662","ios":"levelo://app?vid=0dcc3580-80fd-44de-a414-f3ea857cf662"},"vehicle_type_id":"4","last_reported":1704992793,"current_range_meters":10400,"station_id":"ce4bhbh2rcd13ifvqeqg","pricing_plan_id":"free"},{"bike_id":"28fd77ed-7885-474c-a399-634499cac8e7","system_id":"levelo_inurba_marseille","lat":43.300852,"lon":5.390859,"is_reserved":false,"is_disabled":false,"rental_uris":{"android":"levelo://app?vid=28fd77ed-7885-474c-a399-634499cac8e7","ios":"levelo://app?vid=28fd77ed-7885-474c-a399-634499cac8e7"},"vehicle_type_id":"4","last_reported":1704992793,"current_range_meters":22800,"station_id":"ce4bh192rcd13ifvqdb0","pricing_plan_id":"free"},{"bike_id":"b5aa80e4-beee-47c3-aadb-357ed4ac51d1","system_id":"levelo_inurba_marseille","lat":43.300852,"lon":5.390859,"is_reserved":false,"is_disabled":false,"rental_uris":{"android":"levelo://app?vid=b5aa80e4-beee-47c3-aadb-357ed4ac51d1","ios":"levelo://app?vid=b5aa80e4-beee-47c3-aadb-357ed4ac51d1"},"vehicle_type_id":"4","last_reported":1704992793,"current_range_meters":11200,"station_id":"ce4bh192rcd13ifvqdb0","pricing_plan_id":"free"},{"bike_id":"2a875c5d-1f29-407b-9c54-c27f395d0601","system_id":"levelo_inurba_marseille","lat":43.300852,"lon":5.390859,"is_reserved":false,"is_disabled":false,"rental_uris":{"android":"levelo://app?vid=2a875c5d-1f29-407b-9c54-c27f395d0601","ios":"levelo://app?vid=2a875c5d-1f29-407b-9c54-c27f395d0601"},"vehicle_type_id":"4","last_reported":1704992793,"current_range_meters":20400,"station_id":"ce4bh192rcd13ifvqdb0","pricing_plan_id":"free"},{"bike_id":"71db6d6b-b955-499e-b748-3453a5cc82c6","system_id":"levelo_inurba_marseille","lat":43.30085,"lon":5.390856,"is_reserved":false,"is_disabled":false,"rental_uris":{"android":"levelo://app?vid=71db6d6b-b955-499e-b748-3453a5cc82c6","ios":"levelo://app?vid=71db6d6b-b955-499e-b748-3453a5cc82c6"},"vehicle_type_id":"4","last_reported":1704992793,"current_range_meters":18800,"station_id":"ce4bh192rcd13ifvqdb0","pricing_plan_id":"free"},{"bike_id":"fd9ced8a-60d1-4899-a66c-da64f9a03701","system_id":"levelo_inurba_marseille","lat":43.30085,"lon":5.390856,"is_reserved":false,"is_disabled":false,"rental_uris":{"android":"levelo://app?vid=fd9ced8a-60d1-4899-a66c-da64f9a03701","ios":"levelo://app?vid=fd9ced8a-60d1-4899-a66c-da64f9a03701"},"vehicle_type_id":"4","last_reported":1704992793,"current_range_meters":4800,"station_id":"ce4bh192rcd13ifvqdb0","pricing_plan_id":"free"},{"bike_id":"a672b234-ed28-43fb-a413-09c663883f40","system_id":"levelo_inurba_marseille","lat":43.291671,"lon":5.371575,"is_reserved":false,"is_disabled":false,"rental_uris":{"android":"levelo://app?vid=a672b234-ed28-43fb-a413-09c663883f40","ios":"levelo://app?vid=a672b234-ed28-43fb-a413-09c663883f40"},"vehicle_type_id":"4","last_reported":1704992793,"current_range_meters":22800,"station_id":"ce4bha92rcd13ifvqeh0","pricing_plan_id":"free"},{"bike_id":"de56557d-c14c-4636-9655-25edb9b638fb","system_id":"levelo_inurba_marseille","lat":43.29874,"lon":5.38897,"is_reserved":false,"is_disabled":false,"rental_uris":{"android":"levelo://app?vid=de56557d-c14c-4636-9655-25edb9b638fb","ios":"levelo://app?vid=de56557d-c14c-4636-9655-25edb9b638fb"},"vehicle_type_id":"4","last_reported":1704992793,"current_range_meters":18800,"station_id":"","pricing_plan_id":"free"},{"bike_id":"65384567-57f1-4b4d-a323-ac10b0636e11","system_id":"levelo_inurba_marseille","lat":43.29878,"lon":5.38907,"is_reserved":false,"is_disabled":false,"rental_uris":{"android":"levelo://app?vid=65384567-57f1-4b4d-a323-ac10b0636e11","ios":"levelo://app?vid=65384567-57f1-4b4d-a323-ac10b0636e11"},"vehicle_type_id":"4","last_reported":1704992793,"current_range_meters":27200,"station_id":"","pricing_plan_id":"free"},{"bike_id":"189f0b2d-c920-4311-97fb-cb4178a536ce","system_id":"levelo_inurba_marseille","lat":43.291675,"lon":5.371583,"is_reserved":false,"is_disabled":false,"rental_uris":{"android":"levelo://app?vid=189f0b2d-c920-4311-97fb-cb4178a536ce","ios":"levelo://app?vid=189f0b2d-c920-4311-97fb-cb4178a536ce"},"vehicle_type_id":"4","last_reported":1704992793,"current_range_meters":30000,"station_id":"ce4bha92rcd13ifvqeh0","pricing_plan_id":"free"},{"bike_id":"2b7b92f0-8dfc-468b-b42f-bd945286fe8a","system_id":"levelo_inurba_marseille","lat":43.29867,"lon":5.38903,"is_reserved":false,"is_disabled":false,"rental_uris":{"android":"levelo://app?vid=2b7b92f0-8dfc-468b-b42f-bd945286fe8a","ios":"levelo://app?vid=2b7b92f0-8dfc-468b-b42f-bd945286fe8a"},"vehicle_type_id":"4","last_reported":1704992793,"current_range_meters":22000,"station_id":"","pricing_plan_id":"free"},{"bike_id":"fa90f463-1b70-495e-8fb4-456a5738a650","system_id":"levelo_inurba_marseille","lat":43.309038,"lon":5.396546,"is_reserved":false,"is_disabled":false,"rental_uris":{"android":"levelo://app?vid=fa90f463-1b70-495e-8fb4-456a5738a650","ios":"levelo://app?vid=fa90f463-1b70-495e-8fb4-456a5738a650"},"vehicle_type_id":"4","last_reported":1704992793,"current_range_meters":31600,"station_id":"ce4bh012rcd13ifvqcv0","pricing_plan_id":"free"},{"bike_id":"df06ddd8-7f64-49f9-a54a-ba6261bd9a39","system_id":"levelo_inurba_marseille","lat":43.309038,"lon":5.396546,"is_reserved":false,"is_disabled":false,"rental_uris":{"android":"levelo://app?vid=df06ddd8-7f64-49f9-a54a-ba6261bd9a39","ios":"levelo://app?vid=df06ddd8-7f64-49f9-a54a-ba6261bd9a39"},"vehicle_type_id":"4","last_reported":1704992793,"current_range_meters":23200,"station_id":"ce4bh012rcd13ifvqcv0","pricing_plan_id":"free"},{"bike_id":"7845b520-7e6e-4673-9036-7626ff2e4dc3","system_id":"levelo_inurba_marseille","lat":43.291994,"lon":5.357886,"is_reserved":false,"is_disabled":false,"rental_uris":{"android":"levelo://app?vid=7845b520-7e6e-4673-9036-7626ff2e4dc3","ios":"levelo://app?vid=7845b520-7e6e-4673-9036-7626ff2e4dc3"},"vehicle_type_id":"4","last_reported":1704992793,"current_range_meters":18800,"station_id":"ce4bhb12rcd13ifvqel0","pricing_plan_id":"free"},{"bike_id":"25e73d19-1a29-4693-80c2-5157b3beecfe","system_id":"levelo_inurba_marseille","lat":43.309038,"lon":5.396546,"is_reserved":false,"is_disabled":false,"rental_uris":{"android":"levelo://app?vid=25e73d19-1a29-4693-80c2-5157b3beecfe","ios":"levelo://app?vid=25e73d19-1a29-4693-80c2-5157b3beecfe"},"vehicle_type_id":"4","last_reported":1704992793,"current_range_meters":31600,"station_id":"ce4bh012rcd13ifvqcv0","pricing_plan_id":"free"},{"bike_id":"8c676976-0020-4a55-a252-2e5abbde0b6a","system_id":"levelo_inurba_marseille","lat":43.291994,"lon":5.357886,"is_reserved":false,"is_disabled":false,"rental_uris":{"android":"levelo://app?vid=8c676976-0020-4a55-a252-2e5abbde0b6a","ios":"levelo://app?vid=8c676976-0020-4a55-a252-2e5abbde0b6a"},"vehicle_type_id":"4","last_reported":1704992793,"current_range_meters":20400,"station_id":"ce4bhb12rcd13ifvqel0","pricing_plan_id":"free"},{"bike_id":"efaa0343-1899-4ef3-a98d-678dbf4253c1","system_id":"levelo_inurba_marseille","lat":43.309038,"lon":5.396546,"is_reserved":false,"is_disabled":false,"rental_uris":{"android":"levelo://app?vid=efaa0343-1899-4ef3-a98d-678dbf4253c1","ios":"levelo://app?vid=efaa0343-1899-4ef3-a98d-678dbf4253c1"},"vehicle_type_id":"4","last_reported":1704992793,"current_range_meters":18800,"station_id":"ce4bh012rcd13ifvqcv0","pricing_plan_id":"free"},{"bike_id":"43e3c829-2deb-43ef-8b69-a848c378c386","system_id":"levelo_inurba_marseille","lat":43.313291,"lon":5.396838,"is_reserved":false,"is_disabled":false,"rental_uris":{"android":"levelo://app?vid=43e3c829-2deb-43ef-8b69-a848c378c386","ios":"levelo://app?vid=43e3c829-2deb-43ef-8b69-a848c378c386"},"vehicle_type_id":"4","last_reported":1704992793,"current_range_meters":23600,"station_id":"ce4bgvp2rcd13ifvqcu0","pricing_plan_id":"free"},{"bike_id":"3945c867-4c23-483d-9b90-fbb78eb575c0","system_id":"levelo_inurba_marseille","lat":43.313291,"lon":5.396838,"is_reserved":false,"is_disabled":false,"rental_uris":{"android":"levelo://app?vid=3945c867-4c23-483d-9b90-fbb78eb575c0","ios":"levelo://app?vid=3945c867-4c23-483d-9b90-fbb78eb575c0"},"vehicle_type_id":"4","last_reported":1704992793,"current_range_meters":18400,"station_id":"ce4bgvp2rcd13ifvqcu0","pricing_plan_id":"free"},{"bike_id":"a46ac0a0-15f6-49ab-90cb-31e315446361","system_id":"levelo_inurba_marseille","lat":43.313316,"lon":5.396898,"is_reserved":false,"is_disabled":false,"rental_uris":{"android":"levelo://app?vid=a46ac0a0-15f6-49ab-90cb-31e315446361","ios":"levelo://app?vid=a46ac0a0-15f6-49ab-90cb-31e315446361"},"vehicle_type_id":"4","last_reported":1704992793,"current_range_meters":0,"station_id":"ce4bgvp2rcd13ifvqcu0","pricing_plan_id":"free"},{"bike_id":"bc41725d-f855-415e-83e4-ec0f53f8b549","system_id":"levelo_inurba_marseille","lat":43.309038,"lon":5.396546,"is_reserved":false,"is_disabled":false,"rental_uris":{"android":"levelo://app?vid=bc41725d-f855-415e-83e4-ec0f53f8b549","ios":"levelo://app?vid=bc41725d-f855-415e-83e4-ec0f53f8b549"},"vehicle_type_id":"4","last_reported":1704992793,"current_range_meters":29200,"station_id":"ce4bh012rcd13ifvqcv0","pricing_plan_id":"free"},{"bike_id":"f80fc99a-68ea-452a-b734-7339aaff13d0","system_id":"levelo_inurba_marseille","lat":43.313291,"lon":5.396838,"is_reserved":false,"is_disabled":false,"rental_uris":{"android":"levelo://app?vid=f80fc99a-68ea-452a-b734-7339aaff13d0","ios":"levelo://app?vid=f80fc99a-68ea-452a-b734-7339aaff13d0"},"vehicle_type_id":"4","last_reported":1704992793,"current_range_meters":19200,"station_id":"ce4bgvp2rcd13ifvqcu0","pricing_plan_id":"free"},{"bike_id":"004934bb-9a26-4b3a-a1bf-15fd65e58837","system_id":"levelo_inurba_marseille","lat":43.309047,"lon":5.396551,"is_reserved":false,"is_disabled":false,"rental_uris":{"android":"levelo://app?vid=004934bb-9a26-4b3a-a1bf-15fd65e58837","ios":"levelo://app?vid=004934bb-9a26-4b3a-a1bf-15fd65e58837"},"vehicle_type_id":"4","last_reported":1704992793,"current_range_meters":20800,"station_id":"ce4bh012rcd13ifvqcv0","pricing_plan_id":"free"},{"bike_id":"91588c73-9909-49ca-9a8c-1f12a33d6370","system_id":"levelo_inurba_marseille","lat":43.29529,"lon":5.385581,"is_reserved":false,"is_disabled":false,"rental_uris":{"android":"levelo://app?vid=91588c73-9909-49ca-9a8c-1f12a33d6370","ios":"levelo://app?vid=91588c73-9909-49ca-9a8c-1f12a33d6370"},"vehicle_type_id":"4","last_reported":1704992793,"current_range_meters":30400,"station_id":"ce4bgih2rcd13ifvqba0","pricing_plan_id":"free"},{"bike_id":"b7e02d27-2a64-400d-937a-f5b113d28e9d","system_id":"levelo_inurba_marseille","lat":43.29529,"lon":5.385581,"is_reserved":false,"is_disabled":false,"rental_uris":{"android":"levelo://app?vid=b7e02d27-2a64-400d-937a-f5b113d28e9d","ios":"levelo://app?vid=b7e02d27-2a64-400d-937a-f5b113d28e9d"},"vehicle_type_id":"4","last_reported":1704992793,"current_range_meters":31600,"station_id":"ce4bgih2rcd13ifvqba0","pricing_plan_id":"free"},{"bike_id":"4f7c21dc-32a2-4c2f-8215-c13b44dff7b5","system_id":"levelo_inurba_marseille","lat":43.295322,"lon":5.385488,"is_reserved":false,"is_disabled":false,"rental_uris":{"android":"levelo://app?vid=4f7c21dc-32a2-4c2f-8215-c13b44dff7b5","ios":"levelo://app?vid=4f7c21dc-32a2-4c2f-8215-c13b44dff7b5"},"vehicle_type_id":"4","last_reported":1704992793,"current_range_meters":28400,"station_id":"ce4bgih2rcd13ifvqba0","pricing_plan_id":"free"},{"bike_id":"b8384aea-8308-4b87-834b-733eea578f5a","system_id":"levelo_inurba_marseille","lat":43.29529,"lon":5.385581,"is_reserved":false,"is_disabled":false,"rental_uris":{"android":"levelo://app?vid=b8384aea-8308-4b87-834b-733eea578f5a","ios":"levelo://app?vid=b8384aea-8308-4b87-834b-733eea578f5a"},"vehicle_type_id":"4","last_reported":1704992793,"current_range_meters":24000,"station_id":"ce4bgih2rcd13ifvqba0","pricing_plan_id":"free"},{"bike_id":"89d90f19-63b8-4eff-9a9f-cbb1b0f57918","system_id":"levelo_inurba_marseille","lat":43.290779,"lon":5.371482,"is_reserved":false,"is_disabled":false,"rental_uris":{"android":"levelo://app?vid=89d90f19-63b8-4eff-9a9f-cbb1b0f57918","ios":"levelo://app?vid=89d90f19-63b8-4eff-9a9f-cbb1b0f57918"},"vehicle_type_id":"4","last_reported":1704992793,"current_range_meters":0,"station_id":"ce4bh5p2rcd13ifvqe4g","pricing_plan_id":"free"},{"bike_id":"a260db7e-6b63-4b18-9615-494be698e34b","system_id":"levelo_inurba_marseille","lat":43.290779,"lon":5.371482,"is_reserved":false,"is_disabled":false,"rental_uris":{"android":"levelo://app?vid=a260db7e-6b63-4b18-9615-494be698e34b","ios":"levelo://app?vid=a260db7e-6b63-4b18-9615-494be698e34b"},"vehicle_type_id":"4","last_reported":1704992793,"current_range_meters":31200,"station_id":"ce4bh5p2rcd13ifvqe4g","pricing_plan_id":"free"},{"bike_id":"31465364-7b2d-481e-8993-9b4d7a6cdb6a","system_id":"levelo_inurba_marseille","lat":43.303002,"lon":5.392142,"is_reserved":false,"is_disabled":false,"rental_uris":{"android":"levelo://app?vid=31465364-7b2d-481e-8993-9b4d7a6cdb6a","ios":"levelo://app?vid=31465364-7b2d-481e-8993-9b4d7a6cdb6a"},"vehicle_type_id":"4","last_reported":1704992793,"current_range_meters":7200,"station_id":"ce4bgkh2rcd13ifvqbk0","pricing_plan_id":"free"},{"bike_id":"c75084a1-7d2b-4517-8fb9-c14c559104de","system_id":"levelo_inurba_marseille","lat":43.302008,"lon":5.394694,"is_reserved":false,"is_disabled":false,"rental_uris":{"android":"levelo://app?vid=c75084a1-7d2b-4517-8fb9-c14c559104de","ios":"levelo://app?vid=c75084a1-7d2b-4517-8fb9-c14c559104de"},"vehicle_type_id":"4","last_reported":1704992793,"current_range_meters":20000,"station_id":"ce4bh0p2rcd13ifvqd70","pricing_plan_id":"free"},{"bike_id":"cef8676a-efd5-42fb-b299-a9986467b58a","system_id":"levelo_inurba_marseille","lat":43.290631,"lon":5.359244,"is_reserved":false,"is_disabled":false,"rental_uris":{"android":"levelo://app?vid=cef8676a-efd5-42fb-b299-a9986467b58a","ios":"levelo://app?vid=cef8676a-efd5-42fb-b299-a9986467b58a"},"vehicle_type_id":"4","last_reported":1704992793,"current_range_meters":24800,"station_id":"ce4bha92rcd13ifvqeg0","pricing_plan_id":"free"},{"bike_id":"43633bce-59b1-472d-9b0a-87641dd44036","system_id":"levelo_inurba_marseille","lat":43.290624,"lon":5.359245,"is_reserved":false,"is_disabled":false,"rental_uris":{"android":"levelo://app?vid=43633bce-59b1-472d-9b0a-87641dd44036","ios":"levelo://app?vid=43633bce-59b1-472d-9b0a-87641dd44036"},"vehicle_type_id":"4","last_reported":1704992793,"current_range_meters":22000,"station_id":"ce4bha92rcd13ifvqeg0","pricing_plan_id":"free"},{"bike_id":"21b0a5dd-db0f-415b-82e7-b626a12dd804","system_id":"levelo_inurba_marseille","lat":43.290624,"lon":5.359245,"is_reserved":false,"is_disabled":false,"rental_uris":{"android":"levelo://app?vid=21b0a5dd-db0f-415b-82e7-b626a12dd804","ios":"levelo://app?vid=21b0a5dd-db0f-415b-82e7-b626a12dd804"},"vehicle_type_id":"4","last_reported":1704992793,"current_range_meters":17600,"station_id":"ce4bha92rcd13ifvqeg0","pricing_plan_id":"free"},{"bike_id":"d87d62f5-7c71-4ec2-9bca-f24c80bd63d3","system_id":"levelo_inurba_marseille","lat":43.294153,"lon":5.386305,"is_reserved":false,"is_disabled":false,"rental_uris":{"android":"levelo://app?vid=d87d62f5-7c71-4ec2-9bca-f24c80bd63d3","ios":"levelo://app?vid=d87d62f5-7c71-4ec2-9bca-f24c80bd63d3"},"vehicle_type_id":"4","last_reported":1704992793,"current_range_meters":16400,"station_id":"ce4bh2h2rcd13ifvqdh0","pricing_plan_id":"free"},{"bike_id":"717c4150-1bb9-48af-af0a-ba5b8fafceb5","system_id":"levelo_inurba_marseille","lat":43.294162,"lon":5.386292,"is_reserved":false,"is_disabled":false,"rental_uris":{"android":"levelo://app?vid=717c4150-1bb9-48af-af0a-ba5b8fafceb5","ios":"levelo://app?vid=717c4150-1bb9-48af-af0a-ba5b8fafceb5"},"vehicle_type_id":"4","last_reported":1704992793,"current_range_meters":10400,"station_id":"ce4bh2h2rcd13ifvqdh0","pricing_plan_id":"free"},{"bike_id":"3427fdce-5212-4f35-b005-5542cd7e1cf8","system_id":"levelo_inurba_marseille","lat":43.289184,"lon":5.366408,"is_reserved":false,"is_disabled":false,"rental_uris":{"android":"levelo://app?vid=3427fdce-5212-4f35-b005-5542cd7e1cf8","ios":"levelo://app?vid=3427fdce-5212-4f35-b005-5542cd7e1cf8"},"vehicle_type_id":"4","last_reported":1704992793,"current_range_meters":8800,"station_id":"ce4bhap2rcd13ifvqek0","pricing_plan_id":"free"},{"bike_id":"f99160a9-d77b-46d7-b67f-b03ec591714e","system_id":"levelo_inurba_marseille","lat":43.289184,"lon":5.366408,"is_reserved":false,"is_disabled":false,"rental_uris":{"android":"levelo://app?vid=f99160a9-d77b-46d7-b67f-b03ec591714e","ios":"levelo://app?vid=f99160a9-d77b-46d7-b67f-b03ec591714e"},"vehicle_type_id":"4","last_reported":1704992793,"current_range_meters":16400,"station_id":"ce4bhap2rcd13ifvqek0","pricing_plan_id":"free"},{"bike_id":"d717acf6-49c1-40ab-8a23-02c8ff23fb87","system_id":"levelo_inurba_marseille","lat":43.289184,"lon":5.366408,"is_reserved":false,"is_disabled":false,"rental_uris":{"android":"levelo://app?vid=d717acf6-49c1-40ab-8a23-02c8ff23fb87","ios":"levelo://app?vid=d717acf6-49c1-40ab-8a23-02c8ff23fb87"},"vehicle_type_id":"4","last_reported":1704992793,"current_range_meters":21200,"station_id":"ce4bhap2rcd13ifvqek0","pricing_plan_id":"free"},{"bike_id":"2772a70a-7d5b-4b2f-b69a-4aaf3ac835d2","system_id":"levelo_inurba_marseille","lat":43.292642,"lon":5.384254,"is_reserved":false,"is_disabled":false,"rental_uris":{"android":"levelo://app?vid=2772a70a-7d5b-4b2f-b69a-4aaf3ac835d2","ios":"levelo://app?vid=2772a70a-7d5b-4b2f-b69a-4aaf3ac835d2"},"vehicle_type_id":"4","last_reported":1704992793,"current_range_meters":10400,"station_id":"ce4bh692rcd13ifvqea0","pricing_plan_id":"free"},{"bike_id":"108dc83a-6c64-452d-b011-aad941983f44","system_id":"levelo_inurba_marseille","lat":43.292644,"lon":5.384257,"is_reserved":false,"is_disabled":false,"rental_uris":{"android":"levelo://app?vid=108dc83a-6c64-452d-b011-aad941983f44","ios":"levelo://app?vid=108dc83a-6c64-452d-b011-aad941983f44"},"vehicle_type_id":"4","last_reported":1704992793,"current_range_meters":22000,"station_id":"ce4bh692rcd13ifvqea0","pricing_plan_id":"free"},{"bike_id":"9a6053f8-70da-4b71-8e61-2098466270e4","system_id":"levelo_inurba_marseille","lat":43.30423,"lon":5.3976,"is_reserved":false,"is_disabled":false,"rental_uris":{"android":"levelo://app?vid=9a6053f8-70da-4b71-8e61-2098466270e4","ios":"levelo://app?vid=9a6053f8-70da-4b71-8e61-2098466270e4"},"vehicle_type_id":"4","last_reported":1704992793,"current_range_meters":16800,"station_id":"ce4bh092rcd13ifvqd20","pricing_plan_id":"free"},{"bike_id":"67f18a50-f7c7-41c7-834f-b016dfbcdc90","system_id":"levelo_inurba_marseille","lat":43.30642,"lon":5.401031,"is_reserved":false,"is_disabled":false,"rental_uris":{"android":"levelo://app?vid=67f18a50-f7c7-41c7-834f-b016dfbcdc90","ios":"levelo://app?vid=67f18a50-f7c7-41c7-834f-b016dfbcdc90"},"vehicle_type_id":"4","last_reported":1704992793,"current_range_meters":6800,"station_id":"ce4bh112rcd13ifvqda0","pricing_plan_id":"free"},{"bike_id":"80599f20-d75d-4d26-a842-764dcc8e0cfe","system_id":"levelo_inurba_marseille","lat":43.33009,"lon":5.390305,"is_reserved":false,"is_disabled":false,"rental_uris":{"android":"levelo://app?vid=80599f20-d75d-4d26-a842-764dcc8e0cfe","ios":"levelo://app?vid=80599f20-d75d-4d26-a842-764dcc8e0cfe"},"vehicle_type_id":"4","last_reported":1704992793,"current_range_meters":18000,"station_id":"","pricing_plan_id":"free"},{"bike_id":"fe108f99-4139-4020-acb3-711e6f40cdcf","system_id":"levelo_inurba_marseille","lat":43.295169,"lon":5.390426,"is_reserved":false,"is_disabled":false,"rental_uris":{"android":"levelo://app?vid=fe108f99-4139-4020-acb3-711e6f40cdcf","ios":"levelo://app?vid=fe108f99-4139-4020-acb3-711e6f40cdcf"},"vehicle_type_id":"4","last_reported":1704992793,"current_range_meters":31200,"station_id":"ce4bh3p2rcd13ifvqdp0","pricing_plan_id":"free"},{"bike_id":"f075a941-d4ba-4711-bdaa-989dd4b0bb45","system_id":"levelo_inurba_marseille","lat":43.295169,"lon":5.390426,"is_reserved":false,"is_disabled":false,"rental_uris":{"android":"levelo://app?vid=f075a941-d4ba-4711-bdaa-989dd4b0bb45","ios":"levelo://app?vid=f075a941-d4ba-4711-bdaa-989dd4b0bb45"},"vehicle_type_id":"4","last_reported":1704992793,"current_range_meters":28000,"station_id":"ce4bh3p2rcd13ifvqdp0","pricing_plan_id":"free"},{"bike_id":"d0823403-2070-4163-bec2-e8fbdaa17087","system_id":"levelo_inurba_marseille","lat":43.297861,"lon":5.393523,"is_reserved":false,"is_disabled":false,"rental_uris":{"android":"levelo://app?vid=d0823403-2070-4163-bec2-e8fbdaa17087","ios":"levelo://app?vid=d0823403-2070-4163-bec2-e8fbdaa17087"},"vehicle_type_id":"4","last_reported":1704992793,"current_range_meters":23200,"station_id":"chh1huq6cuj3fo74tm60","pricing_plan_id":"free"},{"bike_id":"29877edf-f914-4818-a395-be7aee9e9d72","system_id":"levelo_inurba_marseille","lat":43.33022,"lon":5.39036,"is_reserved":false,"is_disabled":false,"rental_uris":{"android":"levelo://app?vid=29877edf-f914-4818-a395-be7aee9e9d72","ios":"levelo://app?vid=29877edf-f914-4818-a395-be7aee9e9d72"},"vehicle_type_id":"4","last_reported":1704992793,"current_range_meters":20000,"station_id":"","pricing_plan_id":"free"},{"bike_id":"0904bcbe-6b2e-4fb4-84b3-9666a350d09e","system_id":"levelo_inurba_marseille","lat":43.330204,"lon":5.390382,"is_reserved":false,"is_disabled":false,"rental_uris":{"android":"levelo://app?vid=0904bcbe-6b2e-4fb4-84b3-9666a350d09e","ios":"levelo://app?vid=0904bcbe-6b2e-4fb4-84b3-9666a350d09e"},"vehicle_type_id":"4","last_reported":1704992793,"current_range_meters":11600,"station_id":"","pricing_plan_id":"free"},{"bike_id":"25702906-a58f-4c81-82f1-e6d6f2a31f77","system_id":"levelo_inurba_marseille","lat":43.330225,"lon":5.390358,"is_reserved":false,"is_disabled":false,"rental_uris":{"android":"levelo://app?vid=25702906-a58f-4c81-82f1-e6d6f2a31f77","ios":"levelo://app?vid=25702906-a58f-4c81-82f1-e6d6f2a31f77"},"vehicle_type_id":"4","last_reported":1704992793,"current_range_meters":16400,"station_id":"","pricing_plan_id":"free"},{"bike_id":"9ff5941f-d86b-4d3a-8d9b-6e95602c207f","system_id":"levelo_inurba_marseille","lat":43.295169,"lon":5.390426,"is_reserved":false,"is_disabled":false,"rental_uris":{"android":"levelo://app?vid=9ff5941f-d86b-4d3a-8d9b-6e95602c207f","ios":"levelo://app?vid=9ff5941f-d86b-4d3a-8d9b-6e95602c207f"},"vehicle_type_id":"4","last_reported":1704992793,"current_range_meters":28400,"station_id":"ce4bh3p2rcd13ifvqdp0","pricing_plan_id":"free"},{"bike_id":"4e808507-0e18-4e18-9ea4-5dafe1ce4990","system_id":"levelo_inurba_marseille","lat":43.295169,"lon":5.390426,"is_reserved":false,"is_disabled":false,"rental_uris":{"android":"levelo://app?vid=4e808507-0e18-4e18-9ea4-5dafe1ce4990","ios":"levelo://app?vid=4e808507-0e18-4e18-9ea4-5dafe1ce4990"},"vehicle_type_id":"4","last_reported":1704992793,"current_range_meters":21200,"station_id":"ce4bh3p2rcd13ifvqdp0","pricing_plan_id":"free"},{"bike_id":"c8dfd4e1-b8a2-4a47-81f8-65e2d2497f1d","system_id":"levelo_inurba_marseille","lat":43.33017,"lon":5.39046,"is_reserved":false,"is_disabled":false,"rental_uris":{"android":"levelo://app?vid=c8dfd4e1-b8a2-4a47-81f8-65e2d2497f1d","ios":"levelo://app?vid=c8dfd4e1-b8a2-4a47-81f8-65e2d2497f1d"},"vehicle_type_id":"4","last_reported":1704992793,"current_range_meters":30400,"station_id":"","pricing_plan_id":"free"},{"bike_id":"e7dcaaa9-cc06-45af-bfbd-9ecd35e01aae","system_id":"levelo_inurba_marseille","lat":43.330199,"lon":5.390465,"is_reserved":false,"is_disabled":false,"rental_uris":{"android":"levelo://app?vid=e7dcaaa9-cc06-45af-bfbd-9ecd35e01aae","ios":"levelo://app?vid=e7dcaaa9-cc06-45af-bfbd-9ecd35e01aae"},"vehicle_type_id":"4","last_reported":1704992793,"current_range_meters":18000,"station_id":"","pricing_plan_id":"free"},{"bike_id":"8fe359a3-7109-4a83-a4f9-b0904a0a2302","system_id":"levelo_inurba_marseille","lat":43.33026,"lon":5.39039,"is_reserved":false,"is_disabled":false,"rental_uris":{"android":"levelo://app?vid=8fe359a3-7109-4a83-a4f9-b0904a0a2302","ios":"levelo://app?vid=8fe359a3-7109-4a83-a4f9-b0904a0a2302"},"vehicle_type_id":"4","last_reported":1704992793,"current_range_meters":19200,"station_id":"","pricing_plan_id":"free"},{"bike_id":"25fbee09-e328-4565-8086-dfd5d4b4a0ab","system_id":"levelo_inurba_marseille","lat":43.295169,"lon":5.390426,"is_reserved":false,"is_disabled":false,"rental_uris":{"android":"levelo://app?vid=25fbee09-e328-4565-8086-dfd5d4b4a0ab","ios":"levelo://app?vid=25fbee09-e328-4565-8086-dfd5d4b4a0ab"},"vehicle_type_id":"4","last_reported":1704992793,"current_range_meters":23200,"station_id":"ce4bh3p2rcd13ifvqdp0","pricing_plan_id":"free"},{"bike_id":"e0fc462b-d274-4653-b05d-8e799e350e05","system_id":"levelo_inurba_marseille","lat":43.295169,"lon":5.390426,"is_reserved":false,"is_disabled":false,"rental_uris":{"android":"levelo://app?vid=e0fc462b-d274-4653-b05d-8e799e350e05","ios":"levelo://app?vid=e0fc462b-d274-4653-b05d-8e799e350e05"},"vehicle_type_id":"4","last_reported":1704992793,"current_range_meters":22000,"station_id":"ce4bh3p2rcd13ifvqdp0","pricing_plan_id":"free"},{"bike_id":"57a9e790-e938-4953-a578-654c8db7c6b3","system_id":"levelo_inurba_marseille","lat":43.295169,"lon":5.390426,"is_reserved":false,"is_disabled":false,"rental_uris":{"android":"levelo://app?vid=57a9e790-e938-4953-a578-654c8db7c6b3","ios":"levelo://app?vid=57a9e790-e938-4953-a578-654c8db7c6b3"},"vehicle_type_id":"4","last_reported":1704992793,"current_range_meters":21600,"station_id":"ce4bh3p2rcd13ifvqdp0","pricing_plan_id":"free"},{"bike_id":"e7563d82-2e3d-42f8-abe5-63a03148a63f","system_id":"levelo_inurba_marseille","lat":43.28856,"lon":5.358371,"is_reserved":false,"is_disabled":false,"rental_uris":{"android":"levelo://app?vid=e7563d82-2e3d-42f8-abe5-63a03148a63f","ios":"levelo://app?vid=e7563d82-2e3d-42f8-abe5-63a03148a63f"},"vehicle_type_id":"4","last_reported":1704992793,"current_range_meters":20800,"station_id":"ce4bhb12rcd13ifvqem0","pricing_plan_id":"free"},{"bike_id":"9d418d29-254f-4faa-9412-cc45ca0ba2d7","system_id":"levelo_inurba_marseille","lat":43.312873,"lon":5.401646,"is_reserved":false,"is_disabled":false,"rental_uris":{"android":"levelo://app?vid=9d418d29-254f-4faa-9412-cc45ca0ba2d7","ios":"levelo://app?vid=9d418d29-254f-4faa-9412-cc45ca0ba2d7"},"vehicle_type_id":"4","last_reported":1704992793,"current_range_meters":27200,"station_id":"ce4bh092rcd13ifvqd30","pricing_plan_id":"free"},{"bike_id":"dd401ffe-c0da-4f7a-8d65-b8fce458540e","system_id":"levelo_inurba_marseille","lat":43.3374,"lon":5.37448,"is_reserved":false,"is_disabled":false,"rental_uris":{"android":"levelo://app?vid=dd401ffe-c0da-4f7a-8d65-b8fce458540e","ios":"levelo://app?vid=dd401ffe-c0da-4f7a-8d65-b8fce458540e"},"vehicle_type_id":"4","last_reported":1704992793,"current_range_meters":22800,"station_id":"","pricing_plan_id":"free"},{"bike_id":"640217e1-caa8-48b6-b30c-7f2a7a56db15","system_id":"levelo_inurba_marseille","lat":43.30937,"lon":5.40136,"is_reserved":false,"is_disabled":false,"rental_uris":{"android":"levelo://app?vid=640217e1-caa8-48b6-b30c-7f2a7a56db15","ios":"levelo://app?vid=640217e1-caa8-48b6-b30c-7f2a7a56db15"},"vehicle_type_id":"4","last_reported":1704992793,"current_range_meters":24800,"station_id":"ce4bgvp2rcd13ifvqct0","pricing_plan_id":"free"},{"bike_id":"f481ef2c-f442-421b-be8c-fb1c4d039a61","system_id":"levelo_inurba_marseille","lat":43.309371,"lon":5.401449,"is_reserved":false,"is_disabled":false,"rental_uris":{"android":"levelo://app?vid=f481ef2c-f442-421b-be8c-fb1c4d039a61","ios":"levelo://app?vid=f481ef2c-f442-421b-be8c-fb1c4d039a61"},"vehicle_type_id":"4","last_reported":1704992793,"current_range_meters":18400,"station_id":"ce4bgvp2rcd13ifvqct0","pricing_plan_id":"free"},{"bike_id":"00013623-5361-4b74-9040-a4d9aa055b64","system_id":"levelo_inurba_marseille","lat":43.309371,"lon":5.401449,"is_reserved":false,"is_disabled":false,"rental_uris":{"android":"levelo://app?vid=00013623-5361-4b74-9040-a4d9aa055b64","ios":"levelo://app?vid=00013623-5361-4b74-9040-a4d9aa055b64"},"vehicle_type_id":"4","last_reported":1704992793,"current_range_meters":25600,"station_id":"ce4bgvp2rcd13ifvqct0","pricing_plan_id":"free"},{"bike_id":"7dbbd0d0-0fe0-4a7e-bce3-6765ff51695c","system_id":"levelo_inurba_marseille","lat":43.312759,"lon":5.401709,"is_reserved":false,"is_disabled":false,"rental_uris":{"android":"levelo://app?vid=7dbbd0d0-0fe0-4a7e-bce3-6765ff51695c","ios":"levelo://app?vid=7dbbd0d0-0fe0-4a7e-bce3-6765ff51695c"},"vehicle_type_id":"4","last_reported":1704992793,"current_range_meters":30000,"station_id":"ce4bh092rcd13ifvqd30","pricing_plan_id":"free"},{"bike_id":"1ea174e6-03c4-4c85-9fd9-62c969f7a5f3","system_id":"levelo_inurba_marseille","lat":43.309371,"lon":5.401449,"is_reserved":false,"is_disabled":false,"rental_uris":{"android":"levelo://app?vid=1ea174e6-03c4-4c85-9fd9-62c969f7a5f3","ios":"levelo://app?vid=1ea174e6-03c4-4c85-9fd9-62c969f7a5f3"},"vehicle_type_id":"4","last_reported":1704992793,"current_range_meters":28400,"station_id":"ce4bgvp2rcd13ifvqct0","pricing_plan_id":"free"},{"bike_id":"d4632afc-35e3-4069-86f7-ff142e5cadb3","system_id":"levelo_inurba_marseille","lat":43.312691,"lon":5.401729,"is_reserved":false,"is_disabled":false,"rental_uris":{"android":"levelo://app?vid=d4632afc-35e3-4069-86f7-ff142e5cadb3","ios":"levelo://app?vid=d4632afc-35e3-4069-86f7-ff142e5cadb3"},"vehicle_type_id":"4","last_reported":1704992793,"current_range_meters":13600,"station_id":"ce4bh092rcd13ifvqd30","pricing_plan_id":"free"},{"bike_id":"94e23f1b-dbf5-4680-8560-03f0ad22de3d","system_id":"levelo_inurba_marseille","lat":43.3091,"lon":5.40137,"is_reserved":false,"is_disabled":false,"rental_uris":{"android":"levelo://app?vid=94e23f1b-dbf5-4680-8560-03f0ad22de3d","ios":"levelo://app?vid=94e23f1b-dbf5-4680-8560-03f0ad22de3d"},"vehicle_type_id":"4","last_reported":1704992793,"current_range_meters":13200,"station_id":"ce4bgvp2rcd13ifvqct0","pricing_plan_id":"free"},{"bike_id":"15ea7858-b2ed-4d73-b95a-779a48b45d34","system_id":"levelo_inurba_marseille","lat":43.312605,"lon":5.401745,"is_reserved":false,"is_disabled":false,"rental_uris":{"android":"levelo://app?vid=15ea7858-b2ed-4d73-b95a-779a48b45d34","ios":"levelo://app?vid=15ea7858-b2ed-4d73-b95a-779a48b45d34"},"vehicle_type_id":"4","last_reported":1704992793,"current_range_meters":17200,"station_id":"ce4bh092rcd13ifvqd30","pricing_plan_id":"free"},{"bike_id":"d977fa02-4383-45bb-b005-e18c525e392a","system_id":"levelo_inurba_marseille","lat":43.337461,"lon":5.374583,"is_reserved":false,"is_disabled":false,"rental_uris":{"android":"levelo://app?vid=d977fa02-4383-45bb-b005-e18c525e392a","ios":"levelo://app?vid=d977fa02-4383-45bb-b005-e18c525e392a"},"vehicle_type_id":"4","last_reported":1704992793,"current_range_meters":21600,"station_id":"","pricing_plan_id":"free"},{"bike_id":"afdb4d06-b2e3-4fbb-b398-43c1a3b99dd1","system_id":"levelo_inurba_marseille","lat":43.309371,"lon":5.401449,"is_reserved":false,"is_disabled":false,"rental_uris":{"android":"levelo://app?vid=afdb4d06-b2e3-4fbb-b398-43c1a3b99dd1","ios":"levelo://app?vid=afdb4d06-b2e3-4fbb-b398-43c1a3b99dd1"},"vehicle_type_id":"4","last_reported":1704992793,"current_range_meters":25600,"station_id":"ce4bgvp2rcd13ifvqct0","pricing_plan_id":"free"},{"bike_id":"e7159978-ccca-4b3f-841b-c3f8ec92da80","system_id":"levelo_inurba_marseille","lat":43.30661,"lon":5.40076,"is_reserved":false,"is_disabled":false,"rental_uris":{"android":"levelo://app?vid=e7159978-ccca-4b3f-841b-c3f8ec92da80","ios":"levelo://app?vid=e7159978-ccca-4b3f-841b-c3f8ec92da80"},"vehicle_type_id":"4","last_reported":1704992793,"current_range_meters":5600,"station_id":"ce4bh112rcd13ifvqda0","pricing_plan_id":"free"},{"bike_id":"2d31d90c-18cc-493a-ad93-91a966057af0","system_id":"levelo_inurba_marseille","lat":43.337499,"lon":5.374548,"is_reserved":false,"is_disabled":false,"rental_uris":{"android":"levelo://app?vid=2d31d90c-18cc-493a-ad93-91a966057af0","ios":"levelo://app?vid=2d31d90c-18cc-493a-ad93-91a966057af0"},"vehicle_type_id":"4","last_reported":1704992793,"current_range_meters":27600,"station_id":"","pricing_plan_id":"free"},{"bike_id":"15c01c23-3c22-46c9-bb23-24928aec6336","system_id":"levelo_inurba_marseille","lat":43.30929,"lon":5.40148,"is_reserved":false,"is_disabled":false,"rental_uris":{"android":"levelo://app?vid=15c01c23-3c22-46c9-bb23-24928aec6336","ios":"levelo://app?vid=15c01c23-3c22-46c9-bb23-24928aec6336"},"vehicle_type_id":"4","last_reported":1704992793,"current_range_meters":25600,"station_id":"ce4bgvp2rcd13ifvqct0","pricing_plan_id":"free"},{"bike_id":"e6b414c9-54ac-4a4b-905d-e8b009155f7d","system_id":"levelo_inurba_marseille","lat":43.337519,"lon":5.374551,"is_reserved":false,"is_disabled":false,"rental_uris":{"android":"levelo://app?vid=e6b414c9-54ac-4a4b-905d-e8b009155f7d","ios":"levelo://app?vid=e6b414c9-54ac-4a4b-905d-e8b009155f7d"},"vehicle_type_id":"4","last_reported":1704992793,"current_range_meters":26000,"station_id":"","pricing_plan_id":"free"},{"bike_id":"cb019ca3-9e8d-480b-9ad5-8ee476f75c25","system_id":"levelo_inurba_marseille","lat":43.306412,"lon":5.401035,"is_reserved":false,"is_disabled":false,"rental_uris":{"android":"levelo://app?vid=cb019ca3-9e8d-480b-9ad5-8ee476f75c25","ios":"levelo://app?vid=cb019ca3-9e8d-480b-9ad5-8ee476f75c25"},"vehicle_type_id":"4","last_reported":1704992793,"current_range_meters":23600,"station_id":"ce4bh112rcd13ifvqda0","pricing_plan_id":"free"},{"bike_id":"1dacac17-d2bc-497f-99d5-e12744329d09","system_id":"levelo_inurba_marseille","lat":43.306412,"lon":5.401035,"is_reserved":false,"is_disabled":false,"rental_uris":{"android":"levelo://app?vid=1dacac17-d2bc-497f-99d5-e12744329d09","ios":"levelo://app?vid=1dacac17-d2bc-497f-99d5-e12744329d09"},"vehicle_type_id":"4","last_reported":1704992793,"current_range_meters":23200,"station_id":"ce4bh112rcd13ifvqda0","pricing_plan_id":"free"},{"bike_id":"27d43ea9-fc6e-4aff-bca5-883f14746cc7","system_id":"levelo_inurba_marseille","lat":43.33759,"lon":5.37444,"is_reserved":false,"is_disabled":false,"rental_uris":{"android":"levelo://app?vid=27d43ea9-fc6e-4aff-bca5-883f14746cc7","ios":"levelo://app?vid=27d43ea9-fc6e-4aff-bca5-883f14746cc7"},"vehicle_type_id":"4","last_reported":1704992793,"current_range_meters":24000,"station_id":"","pricing_plan_id":"free"},{"bike_id":"a9824bca-b0dd-47e1-823f-a61b3552cfdc","system_id":"levelo_inurba_marseille","lat":43.306412,"lon":5.401035,"is_reserved":false,"is_disabled":false,"rental_uris":{"android":"levelo://app?vid=a9824bca-b0dd-47e1-823f-a61b3552cfdc","ios":"levelo://app?vid=a9824bca-b0dd-47e1-823f-a61b3552cfdc"},"vehicle_type_id":"4","last_reported":1704992793,"current_range_meters":25200,"station_id":"ce4bh112rcd13ifvqda0","pricing_plan_id":"free"},{"bike_id":"aa28edd3-cfbd-4060-bbda-015c7a92b019","system_id":"levelo_inurba_marseille","lat":43.306412,"lon":5.401035,"is_reserved":false,"is_disabled":false,"rental_uris":{"android":"levelo://app?vid=aa28edd3-cfbd-4060-bbda-015c7a92b019","ios":"levelo://app?vid=aa28edd3-cfbd-4060-bbda-015c7a92b019"},"vehicle_type_id":"4","last_reported":1704992793,"current_range_meters":19600,"station_id":"ce4bh112rcd13ifvqda0","pricing_plan_id":"free"},{"bike_id":"d36fd3df-c904-43c8-887c-2f1b72ca9146","system_id":"levelo_inurba_marseille","lat":43.306412,"lon":5.401035,"is_reserved":false,"is_disabled":false,"rental_uris":{"android":"levelo://app?vid=d36fd3df-c904-43c8-887c-2f1b72ca9146","ios":"levelo://app?vid=d36fd3df-c904-43c8-887c-2f1b72ca9146"},"vehicle_type_id":"4","last_reported":1704992793,"current_range_meters":4400,"station_id":"ce4bh112rcd13ifvqda0","pricing_plan_id":"free"},{"bike_id":"9176773c-59fd-49e1-9d66-ce92f88ef3ce","system_id":"levelo_inurba_marseille","lat":43.301117,"lon":5.398795,"is_reserved":false,"is_disabled":false,"rental_uris":{"android":"levelo://app?vid=9176773c-59fd-49e1-9d66-ce92f88ef3ce","ios":"levelo://app?vid=9176773c-59fd-49e1-9d66-ce92f88ef3ce"},"vehicle_type_id":"4","last_reported":1704992793,"current_range_meters":24000,"station_id":"ce4bh0h2rcd13ifvqd40","pricing_plan_id":"free"},{"bike_id":"b101111f-3e99-4963-8062-7ef611795266","system_id":"levelo_inurba_marseille","lat":43.301117,"lon":5.398795,"is_reserved":false,"is_disabled":false,"rental_uris":{"android":"levelo://app?vid=b101111f-3e99-4963-8062-7ef611795266","ios":"levelo://app?vid=b101111f-3e99-4963-8062-7ef611795266"},"vehicle_type_id":"4","last_reported":1704992793,"current_range_meters":22400,"station_id":"ce4bh0h2rcd13ifvqd40","pricing_plan_id":"free"},{"bike_id":"365b8234-6461-42f0-bcc4-cd777d70ce4c","system_id":"levelo_inurba_marseille","lat":43.301117,"lon":5.398795,"is_reserved":false,"is_disabled":false,"rental_uris":{"android":"levelo://app?vid=365b8234-6461-42f0-bcc4-cd777d70ce4c","ios":"levelo://app?vid=365b8234-6461-42f0-bcc4-cd777d70ce4c"},"vehicle_type_id":"4","last_reported":1704992793,"current_range_meters":8800,"station_id":"ce4bh0h2rcd13ifvqd40","pricing_plan_id":"free"},{"bike_id":"46489c8a-0c15-4a12-ba65-410d85213865","system_id":"levelo_inurba_marseille","lat":43.301117,"lon":5.398795,"is_reserved":false,"is_disabled":false,"rental_uris":{"android":"levelo://app?vid=46489c8a-0c15-4a12-ba65-410d85213865","ios":"levelo://app?vid=46489c8a-0c15-4a12-ba65-410d85213865"},"vehicle_type_id":"4","last_reported":1704992793,"current_range_meters":7600,"station_id":"ce4bh0h2rcd13ifvqd40","pricing_plan_id":"free"},{"bike_id":"c5c48f76-9372-4c4c-8a8a-3549f1214b17","system_id":"levelo_inurba_marseille","lat":43.28731,"lon":5.36075,"is_reserved":false,"is_disabled":false,"rental_uris":{"android":"levelo://app?vid=c5c48f76-9372-4c4c-8a8a-3549f1214b17","ios":"levelo://app?vid=c5c48f76-9372-4c4c-8a8a-3549f1214b17"},"vehicle_type_id":"4","last_reported":1704992793,"current_range_meters":24000,"station_id":"cki0cbj6b192h4jlfktg","pricing_plan_id":"free"},{"bike_id":"f816511f-4333-47e0-96cd-49d5ae266af3","system_id":"levelo_inurba_marseille","lat":43.28727,"lon":5.36078,"is_reserved":false,"is_disabled":false,"rental_uris":{"android":"levelo://app?vid=f816511f-4333-47e0-96cd-49d5ae266af3","ios":"levelo://app?vid=f816511f-4333-47e0-96cd-49d5ae266af3"},"vehicle_type_id":"4","last_reported":1704992793,"current_range_meters":20400,"station_id":"cki0cbj6b192h4jlfktg","pricing_plan_id":"free"},{"bike_id":"f3682688-b079-4f02-8c11-8db7ac98b34e","system_id":"levelo_inurba_marseille","lat":43.287265,"lon":5.360795,"is_reserved":false,"is_disabled":false,"rental_uris":{"android":"levelo://app?vid=f3682688-b079-4f02-8c11-8db7ac98b34e","ios":"levelo://app?vid=f3682688-b079-4f02-8c11-8db7ac98b34e"},"vehicle_type_id":"4","last_reported":1704992793,"current_range_meters":24000,"station_id":"cki0cbj6b192h4jlfktg","pricing_plan_id":"free"},{"bike_id":"2931a760-e2e3-4d8c-9b87-991b606f7d0e","system_id":"levelo_inurba_marseille","lat":43.301117,"lon":5.398795,"is_reserved":false,"is_disabled":false,"rental_uris":{"android":"levelo://app?vid=2931a760-e2e3-4d8c-9b87-991b606f7d0e","ios":"levelo://app?vid=2931a760-e2e3-4d8c-9b87-991b606f7d0e"},"vehicle_type_id":"4","last_reported":1704992793,"current_range_meters":11200,"station_id":"ce4bh0h2rcd13ifvqd40","pricing_plan_id":"free"},{"bike_id":"4f5ff04e-5c8f-493c-81b7-0a2c0143c7af","system_id":"levelo_inurba_marseille","lat":43.28727,"lon":5.36078,"is_reserved":false,"is_disabled":false,"rental_uris":{"android":"levelo://app?vid=4f5ff04e-5c8f-493c-81b7-0a2c0143c7af","ios":"levelo://app?vid=4f5ff04e-5c8f-493c-81b7-0a2c0143c7af"},"vehicle_type_id":"4","last_reported":1704992793,"current_range_meters":21600,"station_id":"cki0cbj6b192h4jlfktg","pricing_plan_id":"free"},{"bike_id":"4bf17863-3658-41cd-8c41-f18cb8074f52","system_id":"levelo_inurba_marseille","lat":43.2872,"lon":5.36081,"is_reserved":false,"is_disabled":false,"rental_uris":{"android":"levelo://app?vid=4bf17863-3658-41cd-8c41-f18cb8074f52","ios":"levelo://app?vid=4bf17863-3658-41cd-8c41-f18cb8074f52"},"vehicle_type_id":"4","last_reported":1704992793,"current_range_meters":21200,"station_id":"cki0cbj6b192h4jlfktg","pricing_plan_id":"free"},{"bike_id":"0defa5b7-4c04-437c-93fe-e203038e12be","system_id":"levelo_inurba_marseille","lat":43.286961,"lon":5.373785,"is_reserved":false,"is_disabled":false,"rental_uris":{"android":"levelo://app?vid=0defa5b7-4c04-437c-93fe-e203038e12be","ios":"levelo://app?vid=0defa5b7-4c04-437c-93fe-e203038e12be"},"vehicle_type_id":"4","last_reported":1704992793,"current_range_meters":19200,"station_id":"ce4bh3p2rcd13ifvqdq0","pricing_plan_id":"free"},{"bike_id":"bcd704db-c310-4be7-80db-f0148cc1ce24","system_id":"levelo_inurba_marseille","lat":43.298681,"lon":5.397225,"is_reserved":false,"is_disabled":false,"rental_uris":{"android":"levelo://app?vid=bcd704db-c310-4be7-80db-f0148cc1ce24","ios":"levelo://app?vid=bcd704db-c310-4be7-80db-f0148cc1ce24"},"vehicle_type_id":"4","last_reported":1704992793,"current_range_meters":17600,"station_id":"ce4bh0h2rcd13ifvqd50","pricing_plan_id":"free"},{"bike_id":"031c60b3-d39a-48e0-b48a-7db3b7fb3505","system_id":"levelo_inurba_marseille","lat":43.298681,"lon":5.397225,"is_reserved":false,"is_disabled":false,"rental_uris":{"android":"levelo://app?vid=031c60b3-d39a-48e0-b48a-7db3b7fb3505","ios":"levelo://app?vid=031c60b3-d39a-48e0-b48a-7db3b7fb3505"},"vehicle_type_id":"4","last_reported":1704992793,"current_range_meters":31200,"station_id":"ce4bh0h2rcd13ifvqd50","pricing_plan_id":"free"},{"bike_id":"bb703dea-890c-4207-b8f8-6111f59e1730","system_id":"levelo_inurba_marseille","lat":43.28666,"lon":5.36365,"is_reserved":false,"is_disabled":false,"rental_uris":{"android":"levelo://app?vid=bb703dea-890c-4207-b8f8-6111f59e1730","ios":"levelo://app?vid=bb703dea-890c-4207-b8f8-6111f59e1730"},"vehicle_type_id":"4","last_reported":1704992793,"current_range_meters":28400,"station_id":"ce4bhah2rcd13ifvqej0","pricing_plan_id":"free"},{"bike_id":"5faa7b76-0d0d-4a8c-b5fd-cf0ed3a6f650","system_id":"levelo_inurba_marseille","lat":43.286591,"lon":5.363346,"is_reserved":false,"is_disabled":false,"rental_uris":{"android":"levelo://app?vid=5faa7b76-0d0d-4a8c-b5fd-cf0ed3a6f650","ios":"levelo://app?vid=5faa7b76-0d0d-4a8c-b5fd-cf0ed3a6f650"},"vehicle_type_id":"4","last_reported":1704992793,"current_range_meters":30800,"station_id":"ce4bhah2rcd13ifvqej0","pricing_plan_id":"free"},{"bike_id":"22593200-bf57-434a-94c7-8844d1ab7bfc","system_id":"levelo_inurba_marseille","lat":43.295196,"lon":5.39397,"is_reserved":false,"is_disabled":false,"rental_uris":{"android":"levelo://app?vid=22593200-bf57-434a-94c7-8844d1ab7bfc","ios":"levelo://app?vid=22593200-bf57-434a-94c7-8844d1ab7bfc"},"vehicle_type_id":"4","last_reported":1704992793,"current_range_meters":7200,"station_id":"ce4bh292rcd13ifvqdf0","pricing_plan_id":"free"},{"bike_id":"5276bc79-4442-437d-aa99-865fc9dd010f","system_id":"levelo_inurba_marseille","lat":43.286593,"lon":5.363346,"is_reserved":false,"is_disabled":false,"rental_uris":{"android":"levelo://app?vid=5276bc79-4442-437d-aa99-865fc9dd010f","ios":"levelo://app?vid=5276bc79-4442-437d-aa99-865fc9dd010f"},"vehicle_type_id":"4","last_reported":1704992793,"current_range_meters":16800,"station_id":"ce4bhah2rcd13ifvqej0","pricing_plan_id":"free"},{"bike_id":"6fbcf9c1-a38e-433a-aeaf-1b8b96c5c8ab","system_id":"levelo_inurba_marseille","lat":43.295194,"lon":5.39397,"is_reserved":false,"is_disabled":false,"rental_uris":{"android":"levelo://app?vid=6fbcf9c1-a38e-433a-aeaf-1b8b96c5c8ab","ios":"levelo://app?vid=6fbcf9c1-a38e-433a-aeaf-1b8b96c5c8ab"},"vehicle_type_id":"4","last_reported":1704992793,"current_range_meters":10000,"station_id":"ce4bh292rcd13ifvqdf0","pricing_plan_id":"free"},{"bike_id":"122eb961-7805-4ed7-a835-416eb7a35997","system_id":"levelo_inurba_marseille","lat":43.295196,"lon":5.39397,"is_reserved":false,"is_disabled":false,"rental_uris":{"android":"levelo://app?vid=122eb961-7805-4ed7-a835-416eb7a35997","ios":"levelo://app?vid=122eb961-7805-4ed7-a835-416eb7a35997"},"vehicle_type_id":"4","last_reported":1704992793,"current_range_meters":2800,"station_id":"ce4bh292rcd13ifvqdf0","pricing_plan_id":"free"},{"bike_id":"13bff07e-6b53-4718-b916-f23a986d17d0","system_id":"levelo_inurba_marseille","lat":43.295196,"lon":5.39397,"is_reserved":false,"is_disabled":false,"rental_uris":{"android":"levelo://app?vid=13bff07e-6b53-4718-b916-f23a986d17d0","ios":"levelo://app?vid=13bff07e-6b53-4718-b916-f23a986d17d0"},"vehicle_type_id":"4","last_reported":1704992793,"current_range_meters":3200,"station_id":"ce4bh292rcd13ifvqdf0","pricing_plan_id":"free"},{"bike_id":"49e44bf6-32e1-439e-b9d3-d43cad41b40e","system_id":"levelo_inurba_marseille","lat":43.295194,"lon":5.39397,"is_reserved":false,"is_disabled":false,"rental_uris":{"android":"levelo://app?vid=49e44bf6-32e1-439e-b9d3-d43cad41b40e","ios":"levelo://app?vid=49e44bf6-32e1-439e-b9d3-d43cad41b40e"},"vehicle_type_id":"4","last_reported":1704992793,"current_range_meters":6000,"station_id":"ce4bh292rcd13ifvqdf0","pricing_plan_id":"free"},{"bike_id":"90602230-869f-4333-aae3-f4ab93024b77","system_id":"levelo_inurba_marseille","lat":43.289307,"lon":5.38406,"is_reserved":false,"is_disabled":false,"rental_uris":{"android":"levelo://app?vid=90602230-869f-4333-aae3-f4ab93024b77","ios":"levelo://app?vid=90602230-869f-4333-aae3-f4ab93024b77"},"vehicle_type_id":"4","last_reported":1704992793,"current_range_meters":28400,"station_id":"ce4bh612rcd13ifvqe6g","pricing_plan_id":"free"},{"bike_id":"12105deb-a663-4b83-8ef0-6d5a07983d0d","system_id":"levelo_inurba_marseille","lat":43.289307,"lon":5.38406,"is_reserved":false,"is_disabled":false,"rental_uris":{"android":"levelo://app?vid=12105deb-a663-4b83-8ef0-6d5a07983d0d","ios":"levelo://app?vid=12105deb-a663-4b83-8ef0-6d5a07983d0d"},"vehicle_type_id":"4","last_reported":1704992793,"current_range_meters":24400,"station_id":"ce4bh612rcd13ifvqe6g","pricing_plan_id":"free"},{"bike_id":"2796a74d-53a8-452a-a3a6-79043c36da56","system_id":"levelo_inurba_marseille","lat":43.302759,"lon":5.400793,"is_reserved":false,"is_disabled":false,"rental_uris":{"android":"levelo://app?vid=2796a74d-53a8-452a-a3a6-79043c36da56","ios":"levelo://app?vid=2796a74d-53a8-452a-a3a6-79043c36da56"},"vehicle_type_id":"4","last_reported":1704992793,"current_range_meters":3200,"station_id":"ce4bgvh2rcd13ifvqcs0","pricing_plan_id":"free"},{"bike_id":"77712f63-8b90-4c44-81ef-0c6604ba0cbb","system_id":"levelo_inurba_marseille","lat":43.290345,"lon":5.38646,"is_reserved":false,"is_disabled":false,"rental_uris":{"android":"levelo://app?vid=77712f63-8b90-4c44-81ef-0c6604ba0cbb","ios":"levelo://app?vid=77712f63-8b90-4c44-81ef-0c6604ba0cbb"},"vehicle_type_id":"4","last_reported":1704992793,"current_range_meters":20000,"station_id":"ce4bh4p2rcd13ifvqe0g","pricing_plan_id":"free"},{"bike_id":"fabcfe42-7a90-4968-95f5-5cc6be2afc5a","system_id":"levelo_inurba_marseille","lat":43.286039,"lon":5.370681,"is_reserved":false,"is_disabled":false,"rental_uris":{"android":"levelo://app?vid=fabcfe42-7a90-4968-95f5-5cc6be2afc5a","ios":"levelo://app?vid=fabcfe42-7a90-4968-95f5-5cc6be2afc5a"},"vehicle_type_id":"4","last_reported":1704992793,"current_range_meters":13200,"station_id":"ce4bht12rcd13ifvqi60","pricing_plan_id":"free"},{"bike_id":"4284a1dc-6d48-41e8-956f-f8ed2bd5eba3","system_id":"levelo_inurba_marseille","lat":43.286039,"lon":5.370679,"is_reserved":false,"is_disabled":false,"rental_uris":{"android":"levelo://app?vid=4284a1dc-6d48-41e8-956f-f8ed2bd5eba3","ios":"levelo://app?vid=4284a1dc-6d48-41e8-956f-f8ed2bd5eba3"},"vehicle_type_id":"4","last_reported":1704992793,"current_range_meters":30800,"station_id":"ce4bht12rcd13ifvqi60","pricing_plan_id":"free"},{"bike_id":"2d155b1e-ef74-4d9a-bce4-146b88786709","system_id":"levelo_inurba_marseille","lat":43.284534,"lon":5.358662,"is_reserved":false,"is_disabled":false,"rental_uris":{"android":"levelo://app?vid=2d155b1e-ef74-4d9a-bce4-146b88786709","ios":"levelo://app?vid=2d155b1e-ef74-4d9a-bce4-146b88786709"},"vehicle_type_id":"4","last_reported":1704992793,"current_range_meters":0,"station_id":"ce4bhah2rcd13ifvqei0","pricing_plan_id":"free"},{"bike_id":"3b510622-2e69-4dcb-b1fd-661373ad4ee9","system_id":"levelo_inurba_marseille","lat":43.316882,"lon":5.404667,"is_reserved":false,"is_disabled":false,"rental_uris":{"android":"levelo://app?vid=3b510622-2e69-4dcb-b1fd-661373ad4ee9","ios":"levelo://app?vid=3b510622-2e69-4dcb-b1fd-661373ad4ee9"},"vehicle_type_id":"4","last_reported":1704992793,"current_range_meters":21200,"station_id":"ce4bh012rcd13ifvqd00","pricing_plan_id":"free"},{"bike_id":"36407712-549d-4e59-a773-bb2438e51645","system_id":"levelo_inurba_marseille","lat":43.316884,"lon":5.40467,"is_reserved":false,"is_disabled":false,"rental_uris":{"android":"levelo://app?vid=36407712-549d-4e59-a773-bb2438e51645","ios":"levelo://app?vid=36407712-549d-4e59-a773-bb2438e51645"},"vehicle_type_id":"4","last_reported":1704992793,"current_range_meters":20000,"station_id":"ce4bh012rcd13ifvqd00","pricing_plan_id":"free"},{"bike_id":"af6f7988-b13c-491c-b61c-b9ca3bf84dbd","system_id":"levelo_inurba_marseille","lat":43.316808,"lon":5.404695,"is_reserved":false,"is_disabled":false,"rental_uris":{"android":"levelo://app?vid=af6f7988-b13c-491c-b61c-b9ca3bf84dbd","ios":"levelo://app?vid=af6f7988-b13c-491c-b61c-b9ca3bf84dbd"},"vehicle_type_id":"4","last_reported":1704992793,"current_range_meters":2000,"station_id":"ce4bh012rcd13ifvqd00","pricing_plan_id":"free"},{"bike_id":"1f4f0323-40ef-43e5-8af7-11bcb993a67e","system_id":"levelo_inurba_marseille","lat":43.316828,"lon":5.404723,"is_reserved":false,"is_disabled":false,"rental_uris":{"android":"levelo://app?vid=1f4f0323-40ef-43e5-8af7-11bcb993a67e","ios":"levelo://app?vid=1f4f0323-40ef-43e5-8af7-11bcb993a67e"},"vehicle_type_id":"4","last_reported":1704992793,"current_range_meters":28000,"station_id":"ce4bh012rcd13ifvqd00","pricing_plan_id":"free"},{"bike_id":"904fa5c8-7c9c-48b1-b005-c52c4b775b28","system_id":"levelo_inurba_marseille","lat":43.291994,"lon":5.392907,"is_reserved":false,"is_disabled":false,"rental_uris":{"android":"levelo://app?vid=904fa5c8-7c9c-48b1-b005-c52c4b775b28","ios":"levelo://app?vid=904fa5c8-7c9c-48b1-b005-c52c4b775b28"},"vehicle_type_id":"4","last_reported":1704992793,"current_range_meters":30000,"station_id":"ce4bh192rcd13ifvqdd0","pricing_plan_id":"free"},{"bike_id":"b4ac8a75-41ad-4a05-8ea8-94476528dd85","system_id":"levelo_inurba_marseille","lat":43.291994,"lon":5.392907,"is_reserved":false,"is_disabled":false,"rental_uris":{"android":"levelo://app?vid=b4ac8a75-41ad-4a05-8ea8-94476528dd85","ios":"levelo://app?vid=b4ac8a75-41ad-4a05-8ea8-94476528dd85"},"vehicle_type_id":"4","last_reported":1704992793,"current_range_meters":30800,"station_id":"ce4bh192rcd13ifvqdd0","pricing_plan_id":"free"},{"bike_id":"c7483a54-cd47-430f-99e3-316b2afcfa12","system_id":"levelo_inurba_marseille","lat":43.291994,"lon":5.392907,"is_reserved":false,"is_disabled":false,"rental_uris":{"android":"levelo://app?vid=c7483a54-cd47-430f-99e3-316b2afcfa12","ios":"levelo://app?vid=c7483a54-cd47-430f-99e3-316b2afcfa12"},"vehicle_type_id":"4","last_reported":1704992793,"current_range_meters":6000,"station_id":"ce4bh192rcd13ifvqdd0","pricing_plan_id":"free"},{"bike_id":"5e5448ac-cea3-4898-bcb6-44b67b4d618a","system_id":"levelo_inurba_marseille","lat":43.291994,"lon":5.392907,"is_reserved":false,"is_disabled":false,"rental_uris":{"android":"levelo://app?vid=5e5448ac-cea3-4898-bcb6-44b67b4d618a","ios":"levelo://app?vid=5e5448ac-cea3-4898-bcb6-44b67b4d618a"},"vehicle_type_id":"4","last_reported":1704992793,"current_range_meters":19600,"station_id":"ce4bh192rcd13ifvqdd0","pricing_plan_id":"free"},{"bike_id":"cf969c66-8956-4a85-bb71-1020f56c6f36","system_id":"levelo_inurba_marseille","lat":43.291994,"lon":5.392907,"is_reserved":false,"is_disabled":false,"rental_uris":{"android":"levelo://app?vid=cf969c66-8956-4a85-bb71-1020f56c6f36","ios":"levelo://app?vid=cf969c66-8956-4a85-bb71-1020f56c6f36"},"vehicle_type_id":"4","last_reported":1704992793,"current_range_meters":23200,"station_id":"ce4bh192rcd13ifvqdd0","pricing_plan_id":"free"},{"bike_id":"8382e444-b666-4d60-8a01-9510d8722321","system_id":"levelo_inurba_marseille","lat":43.291994,"lon":5.392907,"is_reserved":false,"is_disabled":false,"rental_uris":{"android":"levelo://app?vid=8382e444-b666-4d60-8a01-9510d8722321","ios":"levelo://app?vid=8382e444-b666-4d60-8a01-9510d8722321"},"vehicle_type_id":"4","last_reported":1704992793,"current_range_meters":25600,"station_id":"ce4bh192rcd13ifvqdd0","pricing_plan_id":"free"},{"bike_id":"c27dac45-ea45-4df7-89dd-a6f203f6d26d","system_id":"levelo_inurba_marseille","lat":43.294314,"lon":5.397498,"is_reserved":false,"is_disabled":false,"rental_uris":{"android":"levelo://app?vid=c27dac45-ea45-4df7-89dd-a6f203f6d26d","ios":"levelo://app?vid=c27dac45-ea45-4df7-89dd-a6f203f6d26d"},"vehicle_type_id":"4","last_reported":1704992793,"current_range_meters":20800,"station_id":"ce4bh3h2rcd13ifvqdo0","pricing_plan_id":"free"},{"bike_id":"61974334-e3fe-45cf-bf03-a3f2202ab418","system_id":"levelo_inurba_marseille","lat":43.284534,"lon":5.358662,"is_reserved":false,"is_disabled":false,"rental_uris":{"android":"levelo://app?vid=61974334-e3fe-45cf-bf03-a3f2202ab418","ios":"levelo://app?vid=61974334-e3fe-45cf-bf03-a3f2202ab418"},"vehicle_type_id":"4","last_reported":1704992793,"current_range_meters":0,"station_id":"ce4bhah2rcd13ifvqei0","pricing_plan_id":"free"},{"bike_id":"a1eedda0-ce76-4f2a-8abd-2ebd442a86fd","system_id":"levelo_inurba_marseille","lat":43.294314,"lon":5.397498,"is_reserved":false,"is_disabled":false,"rental_uris":{"android":"levelo://app?vid=a1eedda0-ce76-4f2a-8abd-2ebd442a86fd","ios":"levelo://app?vid=a1eedda0-ce76-4f2a-8abd-2ebd442a86fd"},"vehicle_type_id":"4","last_reported":1704992793,"current_range_meters":23600,"station_id":"ce4bh3h2rcd13ifvqdo0","pricing_plan_id":"free"},{"bike_id":"50f9abda-4c25-4bf1-95d5-544eed8ee25b","system_id":"levelo_inurba_marseille","lat":43.294314,"lon":5.397498,"is_reserved":false,"is_disabled":false,"rental_uris":{"android":"levelo://app?vid=50f9abda-4c25-4bf1-95d5-544eed8ee25b","ios":"levelo://app?vid=50f9abda-4c25-4bf1-95d5-544eed8ee25b"},"vehicle_type_id":"4","last_reported":1704992793,"current_range_meters":24800,"station_id":"ce4bh3h2rcd13ifvqdo0","pricing_plan_id":"free"},{"bike_id":"e43bad22-44ac-4eff-a90f-95bf13d3c061","system_id":"levelo_inurba_marseille","lat":43.28619,"lon":5.35103,"is_reserved":false,"is_disabled":false,"rental_uris":{"android":"levelo://app?vid=e43bad22-44ac-4eff-a90f-95bf13d3c061","ios":"levelo://app?vid=e43bad22-44ac-4eff-a90f-95bf13d3c061"},"vehicle_type_id":"4","last_reported":1704992793,"current_range_meters":19200,"station_id":"ce4bhch2rcd13ifvqeug","pricing_plan_id":"free"},{"bike_id":"650b9ce7-32b8-4853-b616-13abb5f9aeca","system_id":"levelo_inurba_marseille","lat":43.285848,"lon":5.350787,"is_reserved":false,"is_disabled":false,"rental_uris":{"android":"levelo://app?vid=650b9ce7-32b8-4853-b616-13abb5f9aeca","ios":"levelo://app?vid=650b9ce7-32b8-4853-b616-13abb5f9aeca"},"vehicle_type_id":"4","last_reported":1704992793,"current_range_meters":3200,"station_id":"ce4bhch2rcd13ifvqeug","pricing_plan_id":"free"},{"bike_id":"d0e880c9-498a-41da-a728-58f581250601","system_id":"levelo_inurba_marseille","lat":43.28614,"lon":5.35101,"is_reserved":false,"is_disabled":false,"rental_uris":{"android":"levelo://app?vid=d0e880c9-498a-41da-a728-58f581250601","ios":"levelo://app?vid=d0e880c9-498a-41da-a728-58f581250601"},"vehicle_type_id":"4","last_reported":1704992793,"current_range_meters":26800,"station_id":"ce4bhch2rcd13ifvqeug","pricing_plan_id":"free"},{"bike_id":"e2943d5b-4dcb-4f31-8145-cd90dee9e43b","system_id":"levelo_inurba_marseille","lat":43.295713,"lon":5.399639,"is_reserved":false,"is_disabled":false,"rental_uris":{"android":"levelo://app?vid=e2943d5b-4dcb-4f31-8145-cd90dee9e43b","ios":"levelo://app?vid=e2943d5b-4dcb-4f31-8145-cd90dee9e43b"},"vehicle_type_id":"4","last_reported":1704992793,"current_range_meters":21200,"station_id":"ce4bh312rcd13ifvqdj0","pricing_plan_id":"free"},{"bike_id":"54dd1dab-e954-4d72-9225-0eade68ae7b1","system_id":"levelo_inurba_marseille","lat":43.28679,"lon":5.38649,"is_reserved":false,"is_disabled":false,"rental_uris":{"android":"levelo://app?vid=54dd1dab-e954-4d72-9225-0eade68ae7b1","ios":"levelo://app?vid=54dd1dab-e954-4d72-9225-0eade68ae7b1"},"vehicle_type_id":"4","last_reported":1704992793,"current_range_meters":14800,"station_id":"ce4bh492rcd13ifvqdug","pricing_plan_id":"free"},{"bike_id":"ec609a1e-9cf1-4f3c-81d5-3c1fdb78210e","system_id":"levelo_inurba_marseille","lat":43.286595,"lon":5.386795,"is_reserved":false,"is_disabled":false,"rental_uris":{"android":"levelo://app?vid=ec609a1e-9cf1-4f3c-81d5-3c1fdb78210e","ios":"levelo://app?vid=ec609a1e-9cf1-4f3c-81d5-3c1fdb78210e"},"vehicle_type_id":"4","last_reported":1704992793,"current_range_meters":20800,"station_id":"ce4bh492rcd13ifvqdug","pricing_plan_id":"free"},{"bike_id":"e2626392-8da8-4ab1-a86f-c48da854e0a5","system_id":"levelo_inurba_marseille","lat":43.2868,"lon":5.38664,"is_reserved":false,"is_disabled":false,"rental_uris":{"android":"levelo://app?vid=e2626392-8da8-4ab1-a86f-c48da854e0a5","ios":"levelo://app?vid=e2626392-8da8-4ab1-a86f-c48da854e0a5"},"vehicle_type_id":"4","last_reported":1704992793,"current_range_meters":24400,"station_id":"ce4bh492rcd13ifvqdug","pricing_plan_id":"free"},{"bike_id":"1e9d4b80-12f3-4c11-a797-2de808b7111e","system_id":"levelo_inurba_marseille","lat":43.286595,"lon":5.386795,"is_reserved":false,"is_disabled":false,"rental_uris":{"android":"levelo://app?vid=1e9d4b80-12f3-4c11-a797-2de808b7111e","ios":"levelo://app?vid=1e9d4b80-12f3-4c11-a797-2de808b7111e"},"vehicle_type_id":"4","last_reported":1704992793,"current_range_meters":16400,"station_id":"ce4bh492rcd13ifvqdug","pricing_plan_id":"free"},{"bike_id":"9e67a56d-4a50-42ac-918d-cc03608df176","system_id":"levelo_inurba_marseille","lat":43.28677,"lon":5.38664,"is_reserved":false,"is_disabled":false,"rental_uris":{"android":"levelo://app?vid=9e67a56d-4a50-42ac-918d-cc03608df176","ios":"levelo://app?vid=9e67a56d-4a50-42ac-918d-cc03608df176"},"vehicle_type_id":"4","last_reported":1704992793,"current_range_meters":30400,"station_id":"ce4bh492rcd13ifvqdug","pricing_plan_id":"free"},{"bike_id":"4fff38b9-c5bc-4506-a48b-c6b05f80cbaf","system_id":"levelo_inurba_marseille","lat":43.286803,"lon":5.386807,"is_reserved":false,"is_disabled":false,"rental_uris":{"android":"levelo://app?vid=4fff38b9-c5bc-4506-a48b-c6b05f80cbaf","ios":"levelo://app?vid=4fff38b9-c5bc-4506-a48b-c6b05f80cbaf"},"vehicle_type_id":"4","last_reported":1704992793,"current_range_meters":9200,"station_id":"ce4bh492rcd13ifvqdug","pricing_plan_id":"free"},{"bike_id":"713a4e1b-19a7-43d0-bfdc-e8f01ebf4ed6","system_id":"levelo_inurba_marseille","lat":43.286666,"lon":5.386638,"is_reserved":false,"is_disabled":false,"rental_uris":{"android":"levelo://app?vid=713a4e1b-19a7-43d0-bfdc-e8f01ebf4ed6","ios":"levelo://app?vid=713a4e1b-19a7-43d0-bfdc-e8f01ebf4ed6"},"vehicle_type_id":"4","last_reported":1704992793,"current_range_meters":20000,"station_id":"ce4bh492rcd13ifvqdug","pricing_plan_id":"free"},{"bike_id":"11aa701d-4e3f-4727-bc01-9ae700fad80f","system_id":"levelo_inurba_marseille","lat":43.286595,"lon":5.386795,"is_reserved":false,"is_disabled":false,"rental_uris":{"android":"levelo://app?vid=11aa701d-4e3f-4727-bc01-9ae700fad80f","ios":"levelo://app?vid=11aa701d-4e3f-4727-bc01-9ae700fad80f"},"vehicle_type_id":"4","last_reported":1704992793,"current_range_meters":23200,"station_id":"ce4bh492rcd13ifvqdug","pricing_plan_id":"free"},{"bike_id":"f6dc86dd-7551-450d-838d-0da3eb575a93","system_id":"levelo_inurba_marseille","lat":43.28669,"lon":5.38673,"is_reserved":false,"is_disabled":false,"rental_uris":{"android":"levelo://app?vid=f6dc86dd-7551-450d-838d-0da3eb575a93","ios":"levelo://app?vid=f6dc86dd-7551-450d-838d-0da3eb575a93"},"vehicle_type_id":"4","last_reported":1704992793,"current_range_meters":19600,"station_id":"ce4bh492rcd13ifvqdug","pricing_plan_id":"free"},{"bike_id":"4d494381-f149-49a7-8b92-3b63c42f76e4","system_id":"levelo_inurba_marseille","lat":43.337168,"lon":5.391825,"is_reserved":false,"is_disabled":false,"rental_uris":{"android":"levelo://app?vid=4d494381-f149-49a7-8b92-3b63c42f76e4","ios":"levelo://app?vid=4d494381-f149-49a7-8b92-3b63c42f76e4"},