{"last_updated":1701822951,"ttl":30,"version":"2.2","data":{"bikes":[{"bike_id":"15c6e4c7-34fd-47bc-b7c5-c72bb47c608a","system_id":"levelo_inurba_marseille","lat":43.308958,"lon":5.371904,"is_reserved":false,"is_disabled":false,"rental_uris":{"android":"levelo://app?vid=15c6e4c7-34fd-47bc-b7c5-c72bb47c608a","ios":"levelo://app?vid=15c6e4c7-34fd-47bc-b7c5-c72bb47c608a"},"vehicle_type_id":"4","last_reported":1701822951,"current_range_meters":0,"station_id":"ce4bguh2rcd13ifvqckg","pricing_plan_id":"free"},{"bike_id":"5f27c924-e3b9-4809-82b0-7611a46791ac","system_id":"levelo_inurba_marseille","lat":43.309039,"lon":5.371797,"is_reserved":false,"is_disabled":false,"rental_uris":{"android":"levelo://app?vid=5f27c924-e3b9-4809-82b0-7611a46791ac","ios":"levelo://app?vid=5f27c924-e3b9-4809-82b0-7611a46791ac"},"vehicle_type_id":"4","last_reported":1701822951,"current_range_meters":27200,"station_id":"ce4bguh2rcd13ifvqckg","pricing_plan_id":"free"},{"bike_id":"b065b12a-ef87-47d8-8ac6-a38844050d40","system_id":"levelo_inurba_marseille","lat":43.319338,"lon":5.372928,"is_reserved":false,"is_disabled":false,"rental_uris":{"android":"levelo://app?vid=b065b12a-ef87-47d8-8ac6-a38844050d40","ios":"levelo://app?vid=b065b12a-ef87-47d8-8ac6-a38844050d40"},"vehicle_type_id":"4","last_reported":1701822951,"current_range_meters":0,"station_id":"","pricing_plan_id":"free"},{"bike_id":"0998ea92-ad75-45d6-b23c-30711119caeb","system_id":"levelo_inurba_marseille","lat":43.311125,"lon":5.377624,"is_reserved":false,"is_disabled":false,"rental_uris":{"android":"levelo://app?vid=0998ea92-ad75-45d6-b23c-30711119caeb","ios":"levelo://app?vid=0998ea92-ad75-45d6-b23c-30711119caeb"},"vehicle_type_id":"4","last_reported":1701822951,"current_range_meters":21600,"station_id":"ce4bgt92rcd13ifvqcg0","pricing_plan_id":"free"},{"bike_id":"dfd0ad29-97a2-485d-ad77-77c32b01b460","system_id":"levelo_inurba_marseille","lat":43.311142,"lon":5.377692,"is_reserved":false,"is_disabled":false,"rental_uris":{"android":"levelo://app?vid=dfd0ad29-97a2-485d-ad77-77c32b01b460","ios":"levelo://app?vid=dfd0ad29-97a2-485d-ad77-77c32b01b460"},"vehicle_type_id":"4","last_reported":1701822951,"current_range_meters":12400,"station_id":"ce4bgt92rcd13ifvqcg0","pricing_plan_id":"free"},{"bike_id":"3161e1f1-28a1-4cad-b6dd-f555ab23d4f3","system_id":"levelo_inurba_marseille","lat":43.307945,"lon":5.376487,"is_reserved":false,"is_disabled":false,"rental_uris":{"android":"levelo://app?vid=3161e1f1-28a1-4cad-b6dd-f555ab23d4f3","ios":"levelo://app?vid=3161e1f1-28a1-4cad-b6dd-f555ab23d4f3"},"vehicle_type_id":"4","last_reported":1701822951,"current_range_meters":28400,"station_id":"ce4bgv92rcd13ifvqcq0","pricing_plan_id":"free"},{"bike_id":"662383e0-0c4e-45cb-bb4a-bdc9c39e1252","system_id":"levelo_inurba_marseille","lat":43.307945,"lon":5.376487,"is_reserved":false,"is_disabled":false,"rental_uris":{"android":"levelo://app?vid=662383e0-0c4e-45cb-bb4a-bdc9c39e1252","ios":"levelo://app?vid=662383e0-0c4e-45cb-bb4a-bdc9c39e1252"},"vehicle_type_id":"4","last_reported":1701822951,"current_range_meters":27200,"station_id":"ce4bgv92rcd13ifvqcq0","pricing_plan_id":"free"},{"bike_id":"62ef9776-d359-478d-b2b0-5317c40b882c","system_id":"levelo_inurba_marseille","lat":43.317075,"lon":5.377367,"is_reserved":false,"is_disabled":false,"rental_uris":{"android":"levelo://app?vid=62ef9776-d359-478d-b2b0-5317c40b882c","ios":"levelo://app?vid=62ef9776-d359-478d-b2b0-5317c40b882c"},"vehicle_type_id":"4","last_reported":1701822951,"current_range_meters":23600,"station_id":"ce4bgth2rcd13ifvqch0","pricing_plan_id":"free"},{"bike_id":"fb6fd937-527b-4585-9058-0dfdc6436ac8","system_id":"levelo_inurba_marseille","lat":43.31351,"lon":5.37909,"is_reserved":false,"is_disabled":false,"rental_uris":{"android":"levelo://app?vid=fb6fd937-527b-4585-9058-0dfdc6436ac8","ios":"levelo://app?vid=fb6fd937-527b-4585-9058-0dfdc6436ac8"},"vehicle_type_id":"4","last_reported":1701822951,"current_range_meters":8400,"station_id":"","pricing_plan_id":"free"},{"bike_id":"ffea7a07-434f-49ab-b2db-4814e8ea403f","system_id":"levelo_inurba_marseille","lat":43.30314,"lon":5.36921,"is_reserved":false,"is_disabled":false,"rental_uris":{"android":"levelo://app?vid=ffea7a07-434f-49ab-b2db-4814e8ea403f","ios":"levelo://app?vid=ffea7a07-434f-49ab-b2db-4814e8ea403f"},"vehicle_type_id":"4","last_reported":1701822951,"current_range_meters":19200,"station_id":"ce4bgqh2rcd13ifvqc5g","pricing_plan_id":"free"},{"bike_id":"a358d0fa-137f-4f7d-aa81-828c9c5f203e","system_id":"levelo_inurba_marseille","lat":43.301939,"lon":5.366286,"is_reserved":false,"is_disabled":false,"rental_uris":{"android":"levelo://app?vid=a358d0fa-137f-4f7d-aa81-828c9c5f203e","ios":"levelo://app?vid=a358d0fa-137f-4f7d-aa81-828c9c5f203e"},"vehicle_type_id":"4","last_reported":1701822951,"current_range_meters":16400,"station_id":"ce4bgrh2rcd13ifvqc8g","pricing_plan_id":"free"},{"bike_id":"a6691109-b6b5-408c-ba43-8e995cf35333","system_id":"levelo_inurba_marseille","lat":43.30803,"lon":5.38152,"is_reserved":false,"is_disabled":false,"rental_uris":{"android":"levelo://app?vid=a6691109-b6b5-408c-ba43-8e995cf35333","ios":"levelo://app?vid=a6691109-b6b5-408c-ba43-8e995cf35333"},"vehicle_type_id":"4","last_reported":1701822951,"current_range_meters":0,"station_id":"ce4bgt12rcd13ifvqce0","pricing_plan_id":"free"},{"bike_id":"0b126d31-abdc-4caf-9174-0d80365520bb","system_id":"levelo_inurba_marseille","lat":43.308012,"lon":5.381511,"is_reserved":false,"is_disabled":false,"rental_uris":{"android":"levelo://app?vid=0b126d31-abdc-4caf-9174-0d80365520bb","ios":"levelo://app?vid=0b126d31-abdc-4caf-9174-0d80365520bb"},"vehicle_type_id":"4","last_reported":1701822951,"current_range_meters":14400,"station_id":"ce4bgt12rcd13ifvqce0","pricing_plan_id":"free"},{"bike_id":"5b244e44-6e57-4c8d-8fce-9a80fb1c5ff9","system_id":"levelo_inurba_marseille","lat":43.308012,"lon":5.381511,"is_reserved":false,"is_disabled":false,"rental_uris":{"android":"levelo://app?vid=5b244e44-6e57-4c8d-8fce-9a80fb1c5ff9","ios":"levelo://app?vid=5b244e44-6e57-4c8d-8fce-9a80fb1c5ff9"},"vehicle_type_id":"4","last_reported":1701822951,"current_range_meters":10400,"station_id":"ce4bgt12rcd13ifvqce0","pricing_plan_id":"free"},{"bike_id":"cb5b1feb-bfeb-4352-b758-1b09fc33d49c","system_id":"levelo_inurba_marseille","lat":43.30457,"lon":5.37898,"is_reserved":false,"is_disabled":false,"rental_uris":{"android":"levelo://app?vid=cb5b1feb-bfeb-4352-b758-1b09fc33d49c","ios":"levelo://app?vid=cb5b1feb-bfeb-4352-b758-1b09fc33d49c"},"vehicle_type_id":"4","last_reported":1701822951,"current_range_meters":0,"station_id":"ce4bgup2rcd13ifvqcn0","pricing_plan_id":"free"},{"bike_id":"ab542b0a-b258-4b62-baed-c4ff4b3a7961","system_id":"levelo_inurba_marseille","lat":43.324771,"lon":5.36557,"is_reserved":false,"is_disabled":false,"rental_uris":{"android":"levelo://app?vid=ab542b0a-b258-4b62-baed-c4ff4b3a7961","ios":"levelo://app?vid=ab542b0a-b258-4b62-baed-c4ff4b3a7961"},"vehicle_type_id":"4","last_reported":1701822951,"current_range_meters":30800,"station_id":"ce4bhs12rcd13ifvqhvg","pricing_plan_id":"free"},{"bike_id":"03237ad7-a920-4829-baa4-68967d9ea60f","system_id":"levelo_inurba_marseille","lat":43.301429,"lon":5.37413,"is_reserved":false,"is_disabled":false,"rental_uris":{"android":"levelo://app?vid=03237ad7-a920-4829-baa4-68967d9ea60f","ios":"levelo://app?vid=03237ad7-a920-4829-baa4-68967d9ea60f"},"vehicle_type_id":"4","last_reported":1701822951,"current_range_meters":18800,"station_id":"ce4bgs92rcd13ifvqcc0","pricing_plan_id":"free"},{"bike_id":"826277f8-5101-4324-8796-cd80240091c9","system_id":"levelo_inurba_marseille","lat":43.30143,"lon":5.37413,"is_reserved":false,"is_disabled":false,"rental_uris":{"android":"levelo://app?vid=826277f8-5101-4324-8796-cd80240091c9","ios":"levelo://app?vid=826277f8-5101-4324-8796-cd80240091c9"},"vehicle_type_id":"4","last_reported":1701822951,"current_range_meters":23600,"station_id":"ce4bgs92rcd13ifvqcc0","pricing_plan_id":"free"},{"bike_id":"65f8fa65-6ae7-4e94-86fb-6a8a6a019c04","system_id":"levelo_inurba_marseille","lat":43.319935,"lon":5.381699,"is_reserved":false,"is_disabled":false,"rental_uris":{"android":"levelo://app?vid=65f8fa65-6ae7-4e94-86fb-6a8a6a019c04","ios":"levelo://app?vid=65f8fa65-6ae7-4e94-86fb-6a8a6a019c04"},"vehicle_type_id":"4","last_reported":1701822951,"current_range_meters":12000,"station_id":"ce4bhr12rcd13ifvqhpg","pricing_plan_id":"free"},{"bike_id":"062c9487-5458-4221-af20-eb36aa552b3c","system_id":"levelo_inurba_marseille","lat":43.319935,"lon":5.381699,"is_reserved":false,"is_disabled":false,"rental_uris":{"android":"levelo://app?vid=062c9487-5458-4221-af20-eb36aa552b3c","ios":"levelo://app?vid=062c9487-5458-4221-af20-eb36aa552b3c"},"vehicle_type_id":"4","last_reported":1701822951,"current_range_meters":0,"station_id":"ce4bhr12rcd13ifvqhpg","pricing_plan_id":"free"},{"bike_id":"1e44eb00-5254-457d-b804-b536ef4db324","system_id":"levelo_inurba_marseille","lat":43.319935,"lon":5.381699,"is_reserved":false,"is_disabled":false,"rental_uris":{"android":"levelo://app?vid=1e44eb00-5254-457d-b804-b536ef4db324","ios":"levelo://app?vid=1e44eb00-5254-457d-b804-b536ef4db324"},"vehicle_type_id":"4","last_reported":1701822951,"current_range_meters":13600,"station_id":"ce4bhr12rcd13ifvqhpg","pricing_plan_id":"free"},{"bike_id":"a7503af2-3416-42b0-89b3-360ea5b90ea2","system_id":"levelo_inurba_marseille","lat":43.319935,"lon":5.381699,"is_reserved":false,"is_disabled":false,"rental_uris":{"android":"levelo://app?vid=a7503af2-3416-42b0-89b3-360ea5b90ea2","ios":"levelo://app?vid=a7503af2-3416-42b0-89b3-360ea5b90ea2"},"vehicle_type_id":"4","last_reported":1701822951,"current_range_meters":26800,"station_id":"ce4bhr12rcd13ifvqhpg","pricing_plan_id":"free"},{"bike_id":"bd082ecf-686f-49c5-a30a-7ea43132642a","system_id":"levelo_inurba_marseille","lat":43.313571,"lon":5.384829,"is_reserved":false,"is_disabled":false,"rental_uris":{"android":"levelo://app?vid=bd082ecf-686f-49c5-a30a-7ea43132642a","ios":"levelo://app?vid=bd082ecf-686f-49c5-a30a-7ea43132642a"},"vehicle_type_id":"4","last_reported":1701822951,"current_range_meters":400,"station_id":"ce4bgt92rcd13ifvqcf0","pricing_plan_id":"free"},{"bike_id":"c76d68d9-2c83-49cf-aa18-ff9dce30c25e","system_id":"levelo_inurba_marseille","lat":43.313571,"lon":5.384829,"is_reserved":false,"is_disabled":false,"rental_uris":{"android":"levelo://app?vid=c76d68d9-2c83-49cf-aa18-ff9dce30c25e","ios":"levelo://app?vid=c76d68d9-2c83-49cf-aa18-ff9dce30c25e"},"vehicle_type_id":"4","last_reported":1701822951,"current_range_meters":28800,"station_id":"ce4bgt92rcd13ifvqcf0","pricing_plan_id":"free"},{"bike_id":"96a50488-726c-45cc-b484-a5022842dac2","system_id":"levelo_inurba_marseille","lat":43.313571,"lon":5.384829,"is_reserved":false,"is_disabled":false,"rental_uris":{"android":"levelo://app?vid=96a50488-726c-45cc-b484-a5022842dac2","ios":"levelo://app?vid=96a50488-726c-45cc-b484-a5022842dac2"},"vehicle_type_id":"4","last_reported":1701822951,"current_range_meters":30400,"station_id":"ce4bgt92rcd13ifvqcf0","pricing_plan_id":"free"},{"bike_id":"6e607b17-1217-44c5-8f8a-73f5ac3b1d18","system_id":"levelo_inurba_marseille","lat":43.299222,"lon":5.365554,"is_reserved":false,"is_disabled":false,"rental_uris":{"android":"levelo://app?vid=6e607b17-1217-44c5-8f8a-73f5ac3b1d18","ios":"levelo://app?vid=6e607b17-1217-44c5-8f8a-73f5ac3b1d18"},"vehicle_type_id":"4","last_reported":1701822951,"current_range_meters":4400,"station_id":"ce4bgm92rcd13ifvqbr0","pricing_plan_id":"free"},{"bike_id":"1b950a42-d251-46e5-bab1-0206f892f762","system_id":"levelo_inurba_marseille","lat":43.305364,"lon":5.384119,"is_reserved":false,"is_disabled":false,"rental_uris":{"android":"levelo://app?vid=1b950a42-d251-46e5-bab1-0206f892f762","ios":"levelo://app?vid=1b950a42-d251-46e5-bab1-0206f892f762"},"vehicle_type_id":"4","last_reported":1701822951,"current_range_meters":22400,"station_id":"ce4bgg92rcd13ifvqb30","pricing_plan_id":"free"},{"bike_id":"2e76f4ec-4c49-4885-84df-273462419ffe","system_id":"levelo_inurba_marseille","lat":43.311722,"lon":5.387247,"is_reserved":false,"is_disabled":false,"rental_uris":{"android":"levelo://app?vid=2e76f4ec-4c49-4885-84df-273462419ffe","ios":"levelo://app?vid=2e76f4ec-4c49-4885-84df-273462419ffe"},"vehicle_type_id":"4","last_reported":1701822951,"current_range_meters":14800,"station_id":"ce4bgv12rcd13ifvqcp0","pricing_plan_id":"free"},{"bike_id":"5ca457cb-b5e6-4a28-97ea-d8bc25420337","system_id":"levelo_inurba_marseille","lat":43.299155,"lon":5.374607,"is_reserved":false,"is_disabled":false,"rental_uris":{"android":"levelo://app?vid=5ca457cb-b5e6-4a28-97ea-d8bc25420337","ios":"levelo://app?vid=5ca457cb-b5e6-4a28-97ea-d8bc25420337"},"vehicle_type_id":"4","last_reported":1701822951,"current_range_meters":0,"station_id":"ce4bgjh2rcd13ifvqbg0","pricing_plan_id":"free"},{"bike_id":"67852f4d-774f-407a-a048-b68cb15b4e2f","system_id":"levelo_inurba_marseille","lat":43.311722,"lon":5.387247,"is_reserved":false,"is_disabled":false,"rental_uris":{"android":"levelo://app?vid=67852f4d-774f-407a-a048-b68cb15b4e2f","ios":"levelo://app?vid=67852f4d-774f-407a-a048-b68cb15b4e2f"},"vehicle_type_id":"4","last_reported":1701822951,"current_range_meters":8800,"station_id":"ce4bgv12rcd13ifvqcp0","pricing_plan_id":"free"},{"bike_id":"826d4cd9-9206-4dc1-be62-b3f38580d984","system_id":"levelo_inurba_marseille","lat":43.311722,"lon":5.387247,"is_reserved":false,"is_disabled":false,"rental_uris":{"android":"levelo://app?vid=826d4cd9-9206-4dc1-be62-b3f38580d984","ios":"levelo://app?vid=826d4cd9-9206-4dc1-be62-b3f38580d984"},"vehicle_type_id":"4","last_reported":1701822951,"current_range_meters":13200,"station_id":"ce4bgv12rcd13ifvqcp0","pricing_plan_id":"free"},{"bike_id":"b07e9eb8-9f3c-4333-9dcc-1fdd05ca7509","system_id":"levelo_inurba_marseille","lat":43.31173,"lon":5.38718,"is_reserved":false,"is_disabled":false,"rental_uris":{"android":"levelo://app?vid=b07e9eb8-9f3c-4333-9dcc-1fdd05ca7509","ios":"levelo://app?vid=b07e9eb8-9f3c-4333-9dcc-1fdd05ca7509"},"vehicle_type_id":"4","last_reported":1701822951,"current_range_meters":15200,"station_id":"ce4bgv12rcd13ifvqcp0","pricing_plan_id":"free"},{"bike_id":"7d8005c6-46e4-426f-b718-71bb16b59421","system_id":"levelo_inurba_marseille","lat":43.311722,"lon":5.387247,"is_reserved":false,"is_disabled":false,"rental_uris":{"android":"levelo://app?vid=7d8005c6-46e4-426f-b718-71bb16b59421","ios":"levelo://app?vid=7d8005c6-46e4-426f-b718-71bb16b59421"},"vehicle_type_id":"4","last_reported":1701822951,"current_range_meters":21600,"station_id":"ce4bgv12rcd13ifvqcp0","pricing_plan_id":"free"},{"bike_id":"c591e47b-b453-49bb-8a54-18d732d15761","system_id":"levelo_inurba_marseille","lat":43.311722,"lon":5.387247,"is_reserved":false,"is_disabled":false,"rental_uris":{"android":"levelo://app?vid=c591e47b-b453-49bb-8a54-18d732d15761","ios":"levelo://app?vid=c591e47b-b453-49bb-8a54-18d732d15761"},"vehicle_type_id":"4","last_reported":1701822951,"current_range_meters":26000,"station_id":"ce4bgv12rcd13ifvqcp0","pricing_plan_id":"free"},{"bike_id":"3611eab9-ed88-408f-b94d-b09812a4463e","system_id":"levelo_inurba_marseille","lat":43.32288,"lon":5.38266,"is_reserved":false,"is_disabled":false,"rental_uris":{"android":"levelo://app?vid=3611eab9-ed88-408f-b94d-b09812a4463e","ios":"levelo://app?vid=3611eab9-ed88-408f-b94d-b09812a4463e"},"vehicle_type_id":"4","last_reported":1701822951,"current_range_meters":24400,"station_id":"ce4bhr12rcd13ifvqhqg","pricing_plan_id":"free"},{"bike_id":"b4879a0b-f87c-476b-ba9f-57011b8686d8","system_id":"levelo_inurba_marseille","lat":43.298218,"lon":5.374416,"is_reserved":false,"is_disabled":false,"rental_uris":{"android":"levelo://app?vid=b4879a0b-f87c-476b-ba9f-57011b8686d8","ios":"levelo://app?vid=b4879a0b-f87c-476b-ba9f-57011b8686d8"},"vehicle_type_id":"4","last_reported":1701822951,"current_range_meters":15600,"station_id":"","pricing_plan_id":"free"},{"bike_id":"8146f9b5-b15a-4a68-934b-8d7fdd7ab4e5","system_id":"levelo_inurba_marseille","lat":43.316035,"lon":5.387775,"is_reserved":false,"is_disabled":false,"rental_uris":{"android":"levelo://app?vid=8146f9b5-b15a-4a68-934b-8d7fdd7ab4e5","ios":"levelo://app?vid=8146f9b5-b15a-4a68-934b-8d7fdd7ab4e5"},"vehicle_type_id":"4","last_reported":1701822951,"current_range_meters":20000,"station_id":"","pricing_plan_id":"free"},{"bike_id":"d750d82e-395a-4902-8872-a62e0d37e6ef","system_id":"levelo_inurba_marseille","lat":43.32832,"lon":5.36685,"is_reserved":false,"is_disabled":false,"rental_uris":{"android":"levelo://app?vid=d750d82e-395a-4902-8872-a62e0d37e6ef","ios":"levelo://app?vid=d750d82e-395a-4902-8872-a62e0d37e6ef"},"vehicle_type_id":"4","last_reported":1701822951,"current_range_meters":2800,"station_id":"ce4bhs92rcd13ifvqi0g","pricing_plan_id":"free"},{"bike_id":"fad051df-9150-4866-a68e-71dc1b88d26f","system_id":"levelo_inurba_marseille","lat":43.316538,"lon":5.38954,"is_reserved":false,"is_disabled":false,"rental_uris":{"android":"levelo://app?vid=fad051df-9150-4866-a68e-71dc1b88d26f","ios":"levelo://app?vid=fad051df-9150-4866-a68e-71dc1b88d26f"},"vehicle_type_id":"4","last_reported":1701822951,"current_range_meters":11200,"station_id":"","pricing_plan_id":"free"},{"bike_id":"6b06cc57-06d6-4dc8-94d3-2a3dbdb86d2d","system_id":"levelo_inurba_marseille","lat":43.317579,"lon":5.390007,"is_reserved":false,"is_disabled":false,"rental_uris":{"android":"levelo://app?vid=6b06cc57-06d6-4dc8-94d3-2a3dbdb86d2d","ios":"levelo://app?vid=6b06cc57-06d6-4dc8-94d3-2a3dbdb86d2d"},"vehicle_type_id":"4","last_reported":1701822951,"current_range_meters":26800,"station_id":"ce4bhqp2rcd13ifvqhng","pricing_plan_id":"free"},{"bike_id":"5042a46e-8b93-4018-8fdd-4a48bc3c8436","system_id":"levelo_inurba_marseille","lat":43.317557,"lon":5.390173,"is_reserved":false,"is_disabled":false,"rental_uris":{"android":"levelo://app?vid=5042a46e-8b93-4018-8fdd-4a48bc3c8436","ios":"levelo://app?vid=5042a46e-8b93-4018-8fdd-4a48bc3c8436"},"vehicle_type_id":"4","last_reported":1701822951,"current_range_meters":23600,"station_id":"ce4bhqp2rcd13ifvqhng","pricing_plan_id":"free"},{"bike_id":"4a7d648e-4869-45ed-9885-42883cc8e914","system_id":"levelo_inurba_marseille","lat":43.317557,"lon":5.390173,"is_reserved":false,"is_disabled":false,"rental_uris":{"android":"levelo://app?vid=4a7d648e-4869-45ed-9885-42883cc8e914","ios":"levelo://app?vid=4a7d648e-4869-45ed-9885-42883cc8e914"},"vehicle_type_id":"4","last_reported":1701822951,"current_range_meters":30400,"station_id":"ce4bhqp2rcd13ifvqhng","pricing_plan_id":"free"},{"bike_id":"d2a92b6e-cced-44cc-b892-5460c7ffdf0f","system_id":"levelo_inurba_marseille","lat":43.304274,"lon":5.388873,"is_reserved":false,"is_disabled":false,"rental_uris":{"android":"levelo://app?vid=d2a92b6e-cced-44cc-b892-5460c7ffdf0f","ios":"levelo://app?vid=d2a92b6e-cced-44cc-b892-5460c7ffdf0f"},"vehicle_type_id":"4","last_reported":1701822951,"current_range_meters":23600,"station_id":"ce4bgk12rcd13ifvqbi0","pricing_plan_id":"free"},{"bike_id":"901ad813-d661-4663-aa13-7d18a5f786a4","system_id":"levelo_inurba_marseille","lat":43.304274,"lon":5.388873,"is_reserved":false,"is_disabled":false,"rental_uris":{"android":"levelo://app?vid=901ad813-d661-4663-aa13-7d18a5f786a4","ios":"levelo://app?vid=901ad813-d661-4663-aa13-7d18a5f786a4"},"vehicle_type_id":"4","last_reported":1701822951,"current_range_meters":31200,"station_id":"ce4bgk12rcd13ifvqbi0","pricing_plan_id":"free"},{"bike_id":"4e9bf7c3-34f1-467d-a2b8-bfeadbb8845c","system_id":"levelo_inurba_marseille","lat":43.299717,"lon":5.384845,"is_reserved":false,"is_disabled":false,"rental_uris":{"android":"levelo://app?vid=4e9bf7c3-34f1-467d-a2b8-bfeadbb8845c","ios":"levelo://app?vid=4e9bf7c3-34f1-467d-a2b8-bfeadbb8845c"},"vehicle_type_id":"4","last_reported":1701822951,"current_range_meters":26000,"station_id":"ce4bgj92rcd13ifvqbd0","pricing_plan_id":"free"},{"bike_id":"384c93a9-f8bf-40cb-af12-2ca71f5c33a6","system_id":"levelo_inurba_marseille","lat":43.299707,"lon":5.384859,"is_reserved":false,"is_disabled":false,"rental_uris":{"android":"levelo://app?vid=384c93a9-f8bf-40cb-af12-2ca71f5c33a6","ios":"levelo://app?vid=384c93a9-f8bf-40cb-af12-2ca71f5c33a6"},"vehicle_type_id":"4","last_reported":1701822951,"current_range_meters":30000,"station_id":"ce4bgj92rcd13ifvqbd0","pricing_plan_id":"free"},{"bike_id":"b8dd85b6-33db-497a-a812-3d411cc80858","system_id":"levelo_inurba_marseille","lat":43.32356,"lon":5.38886,"is_reserved":false,"is_disabled":false,"rental_uris":{"android":"levelo://app?vid=b8dd85b6-33db-497a-a812-3d411cc80858","ios":"levelo://app?vid=b8dd85b6-33db-497a-a812-3d411cc80858"},"vehicle_type_id":"4","last_reported":1701822951,"current_range_meters":16800,"station_id":"ce4bhqp2rcd13ifvqhog","pricing_plan_id":"free"},{"bike_id":"b5c6bbcd-4e62-45d7-bd56-0fe49da68897","system_id":"levelo_inurba_marseille","lat":43.32367,"lon":5.388836,"is_reserved":false,"is_disabled":false,"rental_uris":{"android":"levelo://app?vid=b5c6bbcd-4e62-45d7-bd56-0fe49da68897","ios":"levelo://app?vid=b5c6bbcd-4e62-45d7-bd56-0fe49da68897"},"vehicle_type_id":"4","last_reported":1701822951,"current_range_meters":5200,"station_id":"ce4bhqp2rcd13ifvqhog","pricing_plan_id":"free"},{"bike_id":"c3643ac2-cdd1-4bd1-99e6-62e33012d634","system_id":"levelo_inurba_marseille","lat":43.323649,"lon":5.388851,"is_reserved":false,"is_disabled":false,"rental_uris":{"android":"levelo://app?vid=c3643ac2-cdd1-4bd1-99e6-62e33012d634","ios":"levelo://app?vid=c3643ac2-cdd1-4bd1-99e6-62e33012d634"},"vehicle_type_id":"4","last_reported":1701822951,"current_range_meters":10000,"station_id":"ce4bhqp2rcd13ifvqhog","pricing_plan_id":"free"},{"bike_id":"07967f1e-00b3-4d63-8ab5-24c06e141a86","system_id":"levelo_inurba_marseille","lat":43.32363,"lon":5.38888,"is_reserved":false,"is_disabled":false,"rental_uris":{"android":"levelo://app?vid=07967f1e-00b3-4d63-8ab5-24c06e141a86","ios":"levelo://app?vid=07967f1e-00b3-4d63-8ab5-24c06e141a86"},"vehicle_type_id":"4","last_reported":1701822951,"current_range_meters":15200,"station_id":"ce4bhqp2rcd13ifvqhog","pricing_plan_id":"free"},{"bike_id":"abe84497-fb17-455f-b511-71d1ec1fd3ce","system_id":"levelo_inurba_marseille","lat":43.323637,"lon":5.388933,"is_reserved":false,"is_disabled":false,"rental_uris":{"android":"levelo://app?vid=abe84497-fb17-455f-b511-71d1ec1fd3ce","ios":"levelo://app?vid=abe84497-fb17-455f-b511-71d1ec1fd3ce"},"vehicle_type_id":"4","last_reported":1701822951,"current_range_meters":7200,"station_id":"ce4bhqp2rcd13ifvqhog","pricing_plan_id":"free"},{"bike_id":"5a0cff86-7cd5-43e3-8f86-6d908ace4bfe","system_id":"levelo_inurba_marseille","lat":43.292795,"lon":5.368405,"is_reserved":false,"is_disabled":false,"rental_uris":{"android":"levelo://app?vid=5a0cff86-7cd5-43e3-8f86-6d908ace4bfe","ios":"levelo://app?vid=5a0cff86-7cd5-43e3-8f86-6d908ace4bfe"},"vehicle_type_id":"4","last_reported":1701822951,"current_range_meters":0,"station_id":"ce4bhbp2rcd13ifvqesg","pricing_plan_id":"free"},{"bike_id":"18971369-6b11-4e82-ae2c-84f6c38e190c","system_id":"levelo_inurba_marseille","lat":43.298764,"lon":5.388973,"is_reserved":false,"is_disabled":false,"rental_uris":{"android":"levelo://app?vid=18971369-6b11-4e82-ae2c-84f6c38e190c","ios":"levelo://app?vid=18971369-6b11-4e82-ae2c-84f6c38e190c"},"vehicle_type_id":"4","last_reported":1701822951,"current_range_meters":19600,"station_id":"ce4bh392rcd13ifvqdl0","pricing_plan_id":"free"},{"bike_id":"af97967f-6678-4674-8882-d81a9822b670","system_id":"levelo_inurba_marseille","lat":43.309047,"lon":5.396551,"is_reserved":false,"is_disabled":false,"rental_uris":{"android":"levelo://app?vid=af97967f-6678-4674-8882-d81a9822b670","ios":"levelo://app?vid=af97967f-6678-4674-8882-d81a9822b670"},"vehicle_type_id":"4","last_reported":1701822951,"current_range_meters":0,"station_id":"ce4bh012rcd13ifvqcv0","pricing_plan_id":"free"},{"bike_id":"fcaa958b-7ece-402e-b9f4-c8ec46fe5504","system_id":"levelo_inurba_marseille","lat":43.309038,"lon":5.396546,"is_reserved":false,"is_disabled":false,"rental_uris":{"android":"levelo://app?vid=fcaa958b-7ece-402e-b9f4-c8ec46fe5504","ios":"levelo://app?vid=fcaa958b-7ece-402e-b9f4-c8ec46fe5504"},"vehicle_type_id":"4","last_reported":1701822951,"current_range_meters":400,"station_id":"ce4bh012rcd13ifvqcv0","pricing_plan_id":"free"},{"bike_id":"98196808-4411-4bf1-9441-0003cee21794","system_id":"levelo_inurba_marseille","lat":43.309038,"lon":5.396546,"is_reserved":false,"is_disabled":false,"rental_uris":{"android":"levelo://app?vid=98196808-4411-4bf1-9441-0003cee21794","ios":"levelo://app?vid=98196808-4411-4bf1-9441-0003cee21794"},"vehicle_type_id":"4","last_reported":1701822951,"current_range_meters":14400,"station_id":"ce4bh012rcd13ifvqcv0","pricing_plan_id":"free"},{"bike_id":"946b83b1-6594-4ba2-b0ee-6e46c88d93c7","system_id":"levelo_inurba_marseille","lat":43.309047,"lon":5.396551,"is_reserved":false,"is_disabled":false,"rental_uris":{"android":"levelo://app?vid=946b83b1-6594-4ba2-b0ee-6e46c88d93c7","ios":"levelo://app?vid=946b83b1-6594-4ba2-b0ee-6e46c88d93c7"},"vehicle_type_id":"4","last_reported":1701822951,"current_range_meters":30800,"station_id":"ce4bh012rcd13ifvqcv0","pricing_plan_id":"free"},{"bike_id":"78ea6990-f686-4c61-82c7-eaebb75e942e","system_id":"levelo_inurba_marseille","lat":43.291926,"lon":5.35793,"is_reserved":false,"is_disabled":false,"rental_uris":{"android":"levelo://app?vid=78ea6990-f686-4c61-82c7-eaebb75e942e","ios":"levelo://app?vid=78ea6990-f686-4c61-82c7-eaebb75e942e"},"vehicle_type_id":"4","last_reported":1701822951,"current_range_meters":0,"station_id":"ce4bhb12rcd13ifvqel0","pricing_plan_id":"free"},{"bike_id":"ffb926bb-ab7d-4119-918a-65388cc15d78","system_id":"levelo_inurba_marseille","lat":43.309038,"lon":5.396546,"is_reserved":false,"is_disabled":false,"rental_uris":{"android":"levelo://app?vid=ffb926bb-ab7d-4119-918a-65388cc15d78","ios":"levelo://app?vid=ffb926bb-ab7d-4119-918a-65388cc15d78"},"vehicle_type_id":"4","last_reported":1701822951,"current_range_meters":27200,"station_id":"ce4bh012rcd13ifvqcv0","pricing_plan_id":"free"},{"bike_id":"a2e9d989-58ac-448f-b34c-d1eae8e4d3cc","system_id":"levelo_inurba_marseille","lat":43.31316,"lon":5.39692,"is_reserved":false,"is_disabled":false,"rental_uris":{"android":"levelo://app?vid=a2e9d989-58ac-448f-b34c-d1eae8e4d3cc","ios":"levelo://app?vid=a2e9d989-58ac-448f-b34c-d1eae8e4d3cc"},"vehicle_type_id":"4","last_reported":1701822951,"current_range_meters":30000,"station_id":"ce4bgvp2rcd13ifvqcu0","pricing_plan_id":"free"},{"bike_id":"1c8dbf4b-07b1-402f-8e55-b205406e5857","system_id":"levelo_inurba_marseille","lat":43.313291,"lon":5.396838,"is_reserved":false,"is_disabled":false,"rental_uris":{"android":"levelo://app?vid=1c8dbf4b-07b1-402f-8e55-b205406e5857","ios":"levelo://app?vid=1c8dbf4b-07b1-402f-8e55-b205406e5857"},"vehicle_type_id":"4","last_reported":1701822951,"current_range_meters":2400,"station_id":"ce4bgvp2rcd13ifvqcu0","pricing_plan_id":"free"},{"bike_id":"8ce91b26-a046-42c6-8925-f25f5ce5a055","system_id":"levelo_inurba_marseille","lat":43.313246,"lon":5.396958,"is_reserved":false,"is_disabled":false,"rental_uris":{"android":"levelo://app?vid=8ce91b26-a046-42c6-8925-f25f5ce5a055","ios":"levelo://app?vid=8ce91b26-a046-42c6-8925-f25f5ce5a055"},"vehicle_type_id":"4","last_reported":1701822951,"current_range_meters":30800,"station_id":"ce4bgvp2rcd13ifvqcu0","pricing_plan_id":"free"},{"bike_id":"f287bc70-d05d-423d-9328-888c011300a7","system_id":"levelo_inurba_marseille","lat":43.313291,"lon":5.396838,"is_reserved":false,"is_disabled":false,"rental_uris":{"android":"levelo://app?vid=f287bc70-d05d-423d-9328-888c011300a7","ios":"levelo://app?vid=f287bc70-d05d-423d-9328-888c011300a7"},"vehicle_type_id":"4","last_reported":1701822951,"current_range_meters":28800,"station_id":"ce4bgvp2rcd13ifvqcu0","pricing_plan_id":"free"},{"bike_id":"8fc2057a-f690-4630-9c17-98f66c2f4574","system_id":"levelo_inurba_marseille","lat":43.309047,"lon":5.396551,"is_reserved":false,"is_disabled":false,"rental_uris":{"android":"levelo://app?vid=8fc2057a-f690-4630-9c17-98f66c2f4574","ios":"levelo://app?vid=8fc2057a-f690-4630-9c17-98f66c2f4574"},"vehicle_type_id":"4","last_reported":1701822951,"current_range_meters":22000,"station_id":"ce4bh012rcd13ifvqcv0","pricing_plan_id":"free"},{"bike_id":"cabc6523-fa00-4338-bf96-283b6ca588f4","system_id":"levelo_inurba_marseille","lat":43.309047,"lon":5.396551,"is_reserved":false,"is_disabled":false,"rental_uris":{"android":"levelo://app?vid=cabc6523-fa00-4338-bf96-283b6ca588f4","ios":"levelo://app?vid=cabc6523-fa00-4338-bf96-283b6ca588f4"},"vehicle_type_id":"4","last_reported":1701822951,"current_range_meters":18000,"station_id":"ce4bh012rcd13ifvqcv0","pricing_plan_id":"free"},{"bike_id":"c0a0166f-8fb1-4ce1-9a11-e0319a91b4f7","system_id":"levelo_inurba_marseille","lat":43.294153,"lon":5.386305,"is_reserved":false,"is_disabled":false,"rental_uris":{"android":"levelo://app?vid=c0a0166f-8fb1-4ce1-9a11-e0319a91b4f7","ios":"levelo://app?vid=c0a0166f-8fb1-4ce1-9a11-e0319a91b4f7"},"vehicle_type_id":"4","last_reported":1701822951,"current_range_meters":3200,"station_id":"ce4bh2h2rcd13ifvqdh0","pricing_plan_id":"free"},{"bike_id":"3a2dda2e-3aab-4d0e-a954-793f1706ec09","system_id":"levelo_inurba_marseille","lat":43.302737,"lon":5.396367,"is_reserved":false,"is_disabled":false,"rental_uris":{"android":"levelo://app?vid=3a2dda2e-3aab-4d0e-a954-793f1706ec09","ios":"levelo://app?vid=3a2dda2e-3aab-4d0e-a954-793f1706ec09"},"vehicle_type_id":"4","last_reported":1701822951,"current_range_meters":22000,"station_id":"","pricing_plan_id":"free"},{"bike_id":"f68e2c8b-de08-4ad7-b342-74483183b5be","system_id":"levelo_inurba_marseille","lat":43.330337,"lon":5.389375,"is_reserved":false,"is_disabled":false,"rental_uris":{"android":"levelo://app?vid=f68e2c8b-de08-4ad7-b342-74483183b5be","ios":"levelo://app?vid=f68e2c8b-de08-4ad7-b342-74483183b5be"},"vehicle_type_id":"4","last_reported":1701822951,"current_range_meters":29200,"station_id":"ce4bhr92rcd13ifvqhrg","pricing_plan_id":"free"},{"bike_id":"f3ed1ae1-6ef9-4e2a-8152-8fec3a85d615","system_id":"levelo_inurba_marseille","lat":43.288466,"lon":5.358408,"is_reserved":false,"is_disabled":false,"rental_uris":{"android":"levelo://app?vid=f3ed1ae1-6ef9-4e2a-8152-8fec3a85d615","ios":"levelo://app?vid=f3ed1ae1-6ef9-4e2a-8152-8fec3a85d615"},"vehicle_type_id":"4","last_reported":1701822951,"current_range_meters":0,"station_id":"ce4bhb12rcd13ifvqem0","pricing_plan_id":"free"},{"bike_id":"de139938-7635-4fb2-95a5-c12f2450bafb","system_id":"levelo_inurba_marseille","lat":43.309371,"lon":5.401449,"is_reserved":false,"is_disabled":false,"rental_uris":{"android":"levelo://app?vid=de139938-7635-4fb2-95a5-c12f2450bafb","ios":"levelo://app?vid=de139938-7635-4fb2-95a5-c12f2450bafb"},"vehicle_type_id":"4","last_reported":1701822951,"current_range_meters":9200,"station_id":"ce4bgvp2rcd13ifvqct0","pricing_plan_id":"free"},{"bike_id":"b1da507f-59bc-4bfa-9de7-dd18b0d37739","system_id":"levelo_inurba_marseille","lat":43.337492,"lon":5.374504,"is_reserved":false,"is_disabled":false,"rental_uris":{"android":"levelo://app?vid=b1da507f-59bc-4bfa-9de7-dd18b0d37739","ios":"levelo://app?vid=b1da507f-59bc-4bfa-9de7-dd18b0d37739"},"vehicle_type_id":"4","last_reported":1701822951,"current_range_meters":29600,"station_id":"","pricing_plan_id":"free"},{"bike_id":"2fbea006-0d22-445c-bfc1-d379dcddc1c1","system_id":"levelo_inurba_marseille","lat":43.337465,"lon":5.374711,"is_reserved":false,"is_disabled":false,"rental_uris":{"android":"levelo://app?vid=2fbea006-0d22-445c-bfc1-d379dcddc1c1","ios":"levelo://app?vid=2fbea006-0d22-445c-bfc1-d379dcddc1c1"},"vehicle_type_id":"4","last_reported":1701822951,"current_range_meters":26800,"station_id":"","pricing_plan_id":"free"},{"bike_id":"dc8a7487-5d8c-4b9a-b199-dd6d36dc7383","system_id":"levelo_inurba_marseille","lat":43.306412,"lon":5.401035,"is_reserved":false,"is_disabled":false,"rental_uris":{"android":"levelo://app?vid=dc8a7487-5d8c-4b9a-b199-dd6d36dc7383","ios":"levelo://app?vid=dc8a7487-5d8c-4b9a-b199-dd6d36dc7383"},"vehicle_type_id":"4","last_reported":1701822951,"current_range_meters":22800,"station_id":"ce4bh112rcd13ifvqda0","pricing_plan_id":"free"},{"bike_id":"24191eff-c9ff-4bd4-9603-3311aa7dbd0d","system_id":"levelo_inurba_marseille","lat":43.306412,"lon":5.401035,"is_reserved":false,"is_disabled":false,"rental_uris":{"android":"levelo://app?vid=24191eff-c9ff-4bd4-9603-3311aa7dbd0d","ios":"levelo://app?vid=24191eff-c9ff-4bd4-9603-3311aa7dbd0d"},"vehicle_type_id":"4","last_reported":1701822951,"current_range_meters":24400,"station_id":"ce4bh112rcd13ifvqda0","pricing_plan_id":"free"},{"bike_id":"61e94894-252e-4e6e-9735-b09eceabfad5","system_id":"levelo_inurba_marseille","lat":43.337466,"lon":5.374806,"is_reserved":false,"is_disabled":false,"rental_uris":{"android":"levelo://app?vid=61e94894-252e-4e6e-9735-b09eceabfad5","ios":"levelo://app?vid=61e94894-252e-4e6e-9735-b09eceabfad5"},"vehicle_type_id":"4","last_reported":1701822951,"current_range_meters":31200,"station_id":"","pricing_plan_id":"free"},{"bike_id":"2c27349c-a08e-4864-afc6-9e12897c0efb","system_id":"levelo_inurba_marseille","lat":43.309215,"lon":5.401478,"is_reserved":false,"is_disabled":false,"rental_uris":{"android":"levelo://app?vid=2c27349c-a08e-4864-afc6-9e12897c0efb","ios":"levelo://app?vid=2c27349c-a08e-4864-afc6-9e12897c0efb"},"vehicle_type_id":"4","last_reported":1701822951,"current_range_meters":1600,"station_id":"ce4bgvp2rcd13ifvqct0","pricing_plan_id":"free"},{"bike_id":"a01a8d62-3f82-430f-8cbf-bf5e5048b82c","system_id":"levelo_inurba_marseille","lat":43.33753,"lon":5.374541,"is_reserved":false,"is_disabled":false,"rental_uris":{"android":"levelo://app?vid=a01a8d62-3f82-430f-8cbf-bf5e5048b82c","ios":"levelo://app?vid=a01a8d62-3f82-430f-8cbf-bf5e5048b82c"},"vehicle_type_id":"4","last_reported":1701822951,"current_range_meters":24400,"station_id":"","pricing_plan_id":"free"},{"bike_id":"1fe99cf3-0500-4767-8fa7-0ca5b9e65ba2","system_id":"levelo_inurba_marseille","lat":43.306412,"lon":5.401035,"is_reserved":false,"is_disabled":false,"rental_uris":{"android":"levelo://app?vid=1fe99cf3-0500-4767-8fa7-0ca5b9e65ba2","ios":"levelo://app?vid=1fe99cf3-0500-4767-8fa7-0ca5b9e65ba2"},"vehicle_type_id":"4","last_reported":1701822951,"current_range_meters":9600,"station_id":"ce4bh112rcd13ifvqda0","pricing_plan_id":"free"},{"bike_id":"053e96a7-e398-4a99-ae07-b85253a3d4c4","system_id":"levelo_inurba_marseille","lat":43.306412,"lon":5.401035,"is_reserved":false,"is_disabled":false,"rental_uris":{"android":"levelo://app?vid=053e96a7-e398-4a99-ae07-b85253a3d4c4","ios":"levelo://app?vid=053e96a7-e398-4a99-ae07-b85253a3d4c4"},"vehicle_type_id":"4","last_reported":1701822951,"current_range_meters":4800,"station_id":"ce4bh112rcd13ifvqda0","pricing_plan_id":"free"},{"bike_id":"94559e2c-f22c-4ac5-af24-05076ed30144","system_id":"levelo_inurba_marseille","lat":43.33757,"lon":5.37458,"is_reserved":false,"is_disabled":false,"rental_uris":{"android":"levelo://app?vid=94559e2c-f22c-4ac5-af24-05076ed30144","ios":"levelo://app?vid=94559e2c-f22c-4ac5-af24-05076ed30144"},"vehicle_type_id":"4","last_reported":1701822951,"current_range_meters":28800,"station_id":"","pricing_plan_id":"free"},{"bike_id":"f0464f50-e84c-41e8-8839-9b31e220379c","system_id":"levelo_inurba_marseille","lat":43.337636,"lon":5.374851,"is_reserved":false,"is_disabled":false,"rental_uris":{"android":"levelo://app?vid=f0464f50-e84c-41e8-8839-9b31e220379c","ios":"levelo://app?vid=f0464f50-e84c-41e8-8839-9b31e220379c"},"vehicle_type_id":"4","last_reported":1701822951,"current_range_meters":30400,"station_id":"","pricing_plan_id":"free"},{"bike_id":"9a1e2a86-2307-443e-8986-35b02223d9a7","system_id":"levelo_inurba_marseille","lat":43.33764,"lon":5.37483,"is_reserved":false,"is_disabled":false,"rental_uris":{"android":"levelo://app?vid=9a1e2a86-2307-443e-8986-35b02223d9a7","ios":"levelo://app?vid=9a1e2a86-2307-443e-8986-35b02223d9a7"},"vehicle_type_id":"4","last_reported":1701822951,"current_range_meters":18000,"station_id":"","pricing_plan_id":"free"},{"bike_id":"298a6d4b-b828-4564-a38b-d597d0316a14","system_id":"levelo_inurba_marseille","lat":43.30642,"lon":5.401031,"is_reserved":false,"is_disabled":false,"rental_uris":{"android":"levelo://app?vid=298a6d4b-b828-4564-a38b-d597d0316a14","ios":"levelo://app?vid=298a6d4b-b828-4564-a38b-d597d0316a14"},"vehicle_type_id":"4","last_reported":1701822951,"current_range_meters":22800,"station_id":"ce4bh112rcd13ifvqda0","pricing_plan_id":"free"},{"bike_id":"5376b66c-ef5f-4a6e-b6eb-13040305bf9f","system_id":"levelo_inurba_marseille","lat":43.33769,"lon":5.3747,"is_reserved":false,"is_disabled":false,"rental_uris":{"android":"levelo://app?vid=5376b66c-ef5f-4a6e-b6eb-13040305bf9f","ios":"levelo://app?vid=5376b66c-ef5f-4a6e-b6eb-13040305bf9f"},"vehicle_type_id":"4","last_reported":1701822951,"current_range_meters":0,"station_id":"","pricing_plan_id":"free"},{"bike_id":"7219e02c-5e23-48ee-8dc7-5a2658fa9e15","system_id":"levelo_inurba_marseille","lat":43.337734,"lon":5.374738,"is_reserved":false,"is_disabled":false,"rental_uris":{"android":"levelo://app?vid=7219e02c-5e23-48ee-8dc7-5a2658fa9e15","ios":"levelo://app?vid=7219e02c-5e23-48ee-8dc7-5a2658fa9e15"},"vehicle_type_id":"4","last_reported":1701822951,"current_range_meters":1200,"station_id":"","pricing_plan_id":"free"},{"bike_id":"4be98fa3-91c1-42d7-bd8d-e8b8bdab14e7","system_id":"levelo_inurba_marseille","lat":43.29601,"lon":5.381084,"is_reserved":false,"is_disabled":false,"rental_uris":{"android":"levelo://app?vid=4be98fa3-91c1-42d7-bd8d-e8b8bdab14e7","ios":"levelo://app?vid=4be98fa3-91c1-42d7-bd8d-e8b8bdab14e7"},"vehicle_type_id":"4","last_reported":1701822951,"current_range_meters":27200,"station_id":"ce4bgl12rcd13ifvqbo0","pricing_plan_id":"free"},{"bike_id":"3dac0827-ce72-4b0a-8dc1-8e13ba446dd9","system_id":"levelo_inurba_marseille","lat":43.301117,"lon":5.398795,"is_reserved":false,"is_disabled":false,"rental_uris":{"android":"levelo://app?vid=3dac0827-ce72-4b0a-8dc1-8e13ba446dd9","ios":"levelo://app?vid=3dac0827-ce72-4b0a-8dc1-8e13ba446dd9"},"vehicle_type_id":"4","last_reported":1701822951,"current_range_meters":20400,"station_id":"ce4bh0h2rcd13ifvqd40","pricing_plan_id":"free"},{"bike_id":"b1c44fb3-b780-4346-9631-da6afb4f789a","system_id":"levelo_inurba_marseille","lat":43.28727,"lon":5.36078,"is_reserved":false,"is_disabled":false,"rental_uris":{"android":"levelo://app?vid=b1c44fb3-b780-4346-9631-da6afb4f789a","ios":"levelo://app?vid=b1c44fb3-b780-4346-9631-da6afb4f789a"},"vehicle_type_id":"4","last_reported":1701822951,"current_range_meters":26000,"station_id":"cki0cbj6b192h4jlfktg","pricing_plan_id":"free"},{"bike_id":"3bc4e755-50b2-4f94-97bc-8e003e63d446","system_id":"levelo_inurba_marseille","lat":43.28727,"lon":5.36078,"is_reserved":false,"is_disabled":false,"rental_uris":{"android":"levelo://app?vid=3bc4e755-50b2-4f94-97bc-8e003e63d446","ios":"levelo://app?vid=3bc4e755-50b2-4f94-97bc-8e003e63d446"},"vehicle_type_id":"4","last_reported":1701822951,"current_range_meters":30000,"station_id":"cki0cbj6b192h4jlfktg","pricing_plan_id":"free"},{"bike_id":"05b9f037-9b98-4f3e-b7f5-f037052989da","system_id":"levelo_inurba_marseille","lat":43.28724,"lon":5.36086,"is_reserved":false,"is_disabled":false,"rental_uris":{"android":"levelo://app?vid=05b9f037-9b98-4f3e-b7f5-f037052989da","ios":"levelo://app?vid=05b9f037-9b98-4f3e-b7f5-f037052989da"},"vehicle_type_id":"4","last_reported":1701822951,"current_range_meters":19200,"station_id":"cki0cbj6b192h4jlfktg","pricing_plan_id":"free"},{"bike_id":"9b501635-88a4-472d-8ffa-8ee0f6c887d4","system_id":"levelo_inurba_marseille","lat":43.28727,"lon":5.36078,"is_reserved":false,"is_disabled":false,"rental_uris":{"android":"levelo://app?vid=9b501635-88a4-472d-8ffa-8ee0f6c887d4","ios":"levelo://app?vid=9b501635-88a4-472d-8ffa-8ee0f6c887d4"},"vehicle_type_id":"4","last_reported":1701822951,"current_range_meters":22000,"station_id":"cki0cbj6b192h4jlfktg","pricing_plan_id":"free"},{"bike_id":"1658dd3b-9f05-49bc-82a4-60882e063b01","system_id":"levelo_inurba_marseille","lat":43.28727,"lon":5.36078,"is_reserved":false,"is_disabled":false,"rental_uris":{"android":"levelo://app?vid=1658dd3b-9f05-49bc-82a4-60882e063b01","ios":"levelo://app?vid=1658dd3b-9f05-49bc-82a4-60882e063b01"},"vehicle_type_id":"4","last_reported":1701822951,"current_range_meters":22000,"station_id":"cki0cbj6b192h4jlfktg","pricing_plan_id":"free"},{"bike_id":"9c861999-47ed-40f5-ab0c-4689b8b8b5e6","system_id":"levelo_inurba_marseille","lat":43.2872,"lon":5.36085,"is_reserved":false,"is_disabled":false,"rental_uris":{"android":"levelo://app?vid=9c861999-47ed-40f5-ab0c-4689b8b8b5e6","ios":"levelo://app?vid=9c861999-47ed-40f5-ab0c-4689b8b8b5e6"},"vehicle_type_id":"4","last_reported":1701822951,"current_range_meters":11200,"station_id":"cki0cbj6b192h4jlfktg","pricing_plan_id":"free"},{"bike_id":"a71dbc1b-d212-48d8-9ab5-75edcba29853","system_id":"levelo_inurba_marseille","lat":43.28717,"lon":5.36079,"is_reserved":false,"is_disabled":false,"rental_uris":{"android":"levelo://app?vid=a71dbc1b-d212-48d8-9ab5-75edcba29853","ios":"levelo://app?vid=a71dbc1b-d212-48d8-9ab5-75edcba29853"},"vehicle_type_id":"4","last_reported":1701822951,"current_range_meters":18000,"station_id":"cki0cbj6b192h4jlfktg","pricing_plan_id":"free"},{"bike_id":"235ea772-999e-4135-b664-a90b9a3c6d74","system_id":"levelo_inurba_marseille","lat":43.287063,"lon":5.373847,"is_reserved":false,"is_disabled":false,"rental_uris":{"android":"levelo://app?vid=235ea772-999e-4135-b664-a90b9a3c6d74","ios":"levelo://app?vid=235ea772-999e-4135-b664-a90b9a3c6d74"},"vehicle_type_id":"4","last_reported":1701822951,"current_range_meters":30800,"station_id":"ce4bh3p2rcd13ifvqdq0","pricing_plan_id":"free"},{"bike_id":"48d0aa4f-bc16-4c70-9d33-cc64066e93bb","system_id":"levelo_inurba_marseille","lat":43.287047,"lon":5.37391,"is_reserved":false,"is_disabled":false,"rental_uris":{"android":"levelo://app?vid=48d0aa4f-bc16-4c70-9d33-cc64066e93bb","ios":"levelo://app?vid=48d0aa4f-bc16-4c70-9d33-cc64066e93bb"},"vehicle_type_id":"4","last_reported":1701822951,"current_range_meters":0,"station_id":"ce4bh3p2rcd13ifvqdq0","pricing_plan_id":"free"},{"bike_id":"fd1307ec-f816-4c49-ace4-f060394290ad","system_id":"levelo_inurba_marseille","lat":43.298681,"lon":5.397225,"is_reserved":false,"is_disabled":false,"rental_uris":{"android":"levelo://app?vid=fd1307ec-f816-4c49-ace4-f060394290ad","ios":"levelo://app?vid=fd1307ec-f816-4c49-ace4-f060394290ad"},"vehicle_type_id":"4","last_reported":1701822951,"current_range_meters":21200,"station_id":"ce4bh0h2rcd13ifvqd50","pricing_plan_id":"free"},{"bike_id":"322b6931-0027-409c-a27e-233f8bb64e3f","system_id":"levelo_inurba_marseille","lat":43.298681,"lon":5.397225,"is_reserved":false,"is_disabled":false,"rental_uris":{"android":"levelo://app?vid=322b6931-0027-409c-a27e-233f8bb64e3f","ios":"levelo://app?vid=322b6931-0027-409c-a27e-233f8bb64e3f"},"vehicle_type_id":"4","last_reported":1701822951,"current_range_meters":22800,"station_id":"ce4bh0h2rcd13ifvqd50","pricing_plan_id":"free"},{"bike_id":"2f873562-1c11-432d-bd22-a4c73abe85da","system_id":"levelo_inurba_marseille","lat":43.28698,"lon":5.37383,"is_reserved":false,"is_disabled":false,"rental_uris":{"android":"levelo://app?vid=2f873562-1c11-432d-bd22-a4c73abe85da","ios":"levelo://app?vid=2f873562-1c11-432d-bd22-a4c73abe85da"},"vehicle_type_id":"4","last_reported":1701822951,"current_range_meters":4000,"station_id":"ce4bh3p2rcd13ifvqdq0","pricing_plan_id":"free"},{"bike_id":"1fbd3ca7-eb6e-41e3-85f0-c65b53cd56fd","system_id":"levelo_inurba_marseille","lat":43.286591,"lon":5.363346,"is_reserved":false,"is_disabled":false,"rental_uris":{"android":"levelo://app?vid=1fbd3ca7-eb6e-41e3-85f0-c65b53cd56fd","ios":"levelo://app?vid=1fbd3ca7-eb6e-41e3-85f0-c65b53cd56fd"},"vehicle_type_id":"4","last_reported":1701822951,"current_range_meters":29600,"station_id":"ce4bhah2rcd13ifvqej0","pricing_plan_id":"free"},{"bike_id":"c1e27a33-181e-4a5d-8f16-b8e469d2e9ab","system_id":"levelo_inurba_marseille","lat":43.286954,"lon":5.373977,"is_reserved":false,"is_disabled":false,"rental_uris":{"android":"levelo://app?vid=c1e27a33-181e-4a5d-8f16-b8e469d2e9ab","ios":"levelo://app?vid=c1e27a33-181e-4a5d-8f16-b8e469d2e9ab"},"vehicle_type_id":"4","last_reported":1701822951,"current_range_meters":22000,"station_id":"ce4bh3p2rcd13ifvqdq0","pricing_plan_id":"free"},{"bike_id":"8fc8e62c-0e03-494b-bde9-a35bc1b703ff","system_id":"levelo_inurba_marseille","lat":43.306412,"lon":5.401035,"is_reserved":false,"is_disabled":false,"rental_uris":{"android":"levelo://app?vid=8fc8e62c-0e03-494b-bde9-a35bc1b703ff","ios":"levelo://app?vid=8fc8e62c-0e03-494b-bde9-a35bc1b703ff"},"vehicle_type_id":"4","last_reported":1701822951,"current_range_meters":22400,"station_id":"ce4bh112rcd13ifvqda0","pricing_plan_id":"free"},{"bike_id":"377edaf2-a03f-485e-8dfc-662d69a5852c","system_id":"levelo_inurba_marseille","lat":43.284538,"lon":5.358657,"is_reserved":false,"is_disabled":false,"rental_uris":{"android":"levelo://app?vid=377edaf2-a03f-485e-8dfc-662d69a5852c","ios":"levelo://app?vid=377edaf2-a03f-485e-8dfc-662d69a5852c"},"vehicle_type_id":"4","last_reported":1701822951,"current_range_meters":31600,"station_id":"ce4bhah2rcd13ifvqei0","pricing_plan_id":"free"},{"bike_id":"8ecdd6d8-318d-48d6-b323-0a270a0205b8","system_id":"levelo_inurba_marseille","lat":43.284538,"lon":5.358657,"is_reserved":false,"is_disabled":false,"rental_uris":{"android":"levelo://app?vid=8ecdd6d8-318d-48d6-b323-0a270a0205b8","ios":"levelo://app?vid=8ecdd6d8-318d-48d6-b323-0a270a0205b8"},"vehicle_type_id":"4","last_reported":1701822951,"current_range_meters":31200,"station_id":"ce4bhah2rcd13ifvqei0","pricing_plan_id":"free"},{"bike_id":"f56f8be2-ebde-4d23-8461-f7a6797dcf91","system_id":"levelo_inurba_marseille","lat":43.284538,"lon":5.358657,"is_reserved":false,"is_disabled":false,"rental_uris":{"android":"levelo://app?vid=f56f8be2-ebde-4d23-8461-f7a6797dcf91","ios":"levelo://app?vid=f56f8be2-ebde-4d23-8461-f7a6797dcf91"},"vehicle_type_id":"4","last_reported":1701822951,"current_range_meters":31200,"station_id":"ce4bhah2rcd13ifvqei0","pricing_plan_id":"free"},{"bike_id":"2c0a492b-091c-456e-8699-d46e88668379","system_id":"levelo_inurba_marseille","lat":43.284538,"lon":5.358657,"is_reserved":false,"is_disabled":false,"rental_uris":{"android":"levelo://app?vid=2c0a492b-091c-456e-8699-d46e88668379","ios":"levelo://app?vid=2c0a492b-091c-456e-8699-d46e88668379"},"vehicle_type_id":"4","last_reported":1701822951,"current_range_meters":18000,"station_id":"ce4bhah2rcd13ifvqei0","pricing_plan_id":"free"},{"bike_id":"8666040e-b6eb-4b35-8626-e4aaade3e572","system_id":"levelo_inurba_marseille","lat":43.284534,"lon":5.358662,"is_reserved":false,"is_disabled":false,"rental_uris":{"android":"levelo://app?vid=8666040e-b6eb-4b35-8626-e4aaade3e572","ios":"levelo://app?vid=8666040e-b6eb-4b35-8626-e4aaade3e572"},"vehicle_type_id":"4","last_reported":1701822951,"current_range_meters":28400,"station_id":"ce4bhah2rcd13ifvqei0","pricing_plan_id":"free"},{"bike_id":"eab4f3b7-3094-4a59-b9ed-1e57c9953003","system_id":"levelo_inurba_marseille","lat":43.294314,"lon":5.397498,"is_reserved":false,"is_disabled":false,"rental_uris":{"android":"levelo://app?vid=eab4f3b7-3094-4a59-b9ed-1e57c9953003","ios":"levelo://app?vid=eab4f3b7-3094-4a59-b9ed-1e57c9953003"},"vehicle_type_id":"4","last_reported":1701822951,"current_range_meters":10000,"station_id":"ce4bh3h2rcd13ifvqdo0","pricing_plan_id":"free"},{"bike_id":"51c79b9f-7d85-4db7-b30c-7d97acf8cc13","system_id":"levelo_inurba_marseille","lat":43.284538,"lon":5.358657,"is_reserved":false,"is_disabled":false,"rental_uris":{"android":"levelo://app?vid=51c79b9f-7d85-4db7-b30c-7d97acf8cc13","ios":"levelo://app?vid=51c79b9f-7d85-4db7-b30c-7d97acf8cc13"},"vehicle_type_id":"4","last_reported":1701822951,"current_range_meters":20800,"station_id":"ce4bhah2rcd13ifvqei0","pricing_plan_id":"free"},{"bike_id":"23e20ab3-3c32-4bb8-b269-6448f0753884","system_id":"levelo_inurba_marseille","lat":43.284534,"lon":5.358662,"is_reserved":false,"is_disabled":false,"rental_uris":{"android":"levelo://app?vid=23e20ab3-3c32-4bb8-b269-6448f0753884","ios":"levelo://app?vid=23e20ab3-3c32-4bb8-b269-6448f0753884"},"vehicle_type_id":"4","last_reported":1701822951,"current_range_meters":31600,"station_id":"ce4bhah2rcd13ifvqei0","pricing_plan_id":"free"},{"bike_id":"15a282c0-db38-4075-8cbb-b8ce32797b67","system_id":"levelo_inurba_marseille","lat":43.284534,"lon":5.358662,"is_reserved":false,"is_disabled":false,"rental_uris":{"android":"levelo://app?vid=15a282c0-db38-4075-8cbb-b8ce32797b67","ios":"levelo://app?vid=15a282c0-db38-4075-8cbb-b8ce32797b67"},"vehicle_type_id":"4","last_reported":1701822951,"current_range_meters":23200,"station_id":"ce4bhah2rcd13ifvqei0","pricing_plan_id":"free"},{"bike_id":"2abedbcc-388c-48ad-a06d-cc82bfc9c312","system_id":"levelo_inurba_marseille","lat":43.284538,"lon":5.358657,"is_reserved":false,"is_disabled":false,"rental_uris":{"android":"levelo://app?vid=2abedbcc-388c-48ad-a06d-cc82bfc9c312","ios":"levelo://app?vid=2abedbcc-388c-48ad-a06d-cc82bfc9c312"},"vehicle_type_id":"4","last_reported":1701822951,"current_range_meters":18800,"station_id":"ce4bhah2rcd13ifvqei0","pricing_plan_id":"free"},{"bike_id":"09b15766-8b34-40c9-b158-0f2792346433","system_id":"levelo_inurba_marseille","lat":43.284538,"lon":5.358657,"is_reserved":false,"is_disabled":false,"rental_uris":{"android":"levelo://app?vid=09b15766-8b34-40c9-b158-0f2792346433","ios":"levelo://app?vid=09b15766-8b34-40c9-b158-0f2792346433"},"vehicle_type_id":"4","last_reported":1701822951,"current_range_meters":15600,"station_id":"ce4bhah2rcd13ifvqei0","pricing_plan_id":"free"},{"bike_id":"073a4a5a-86ff-4e22-8802-80beab51a553","system_id":"levelo_inurba_marseille","lat":43.284534,"lon":5.358662,"is_reserved":false,"is_disabled":false,"rental_uris":{"android":"levelo://app?vid=073a4a5a-86ff-4e22-8802-80beab51a553","ios":"levelo://app?vid=073a4a5a-86ff-4e22-8802-80beab51a553"},"vehicle_type_id":"4","last_reported":1701822951,"current_range_meters":15600,"station_id":"ce4bhah2rcd13ifvqei0","pricing_plan_id":"free"},{"bike_id":"a867505a-c221-403a-bba6-7f68373835b5","system_id":"levelo_inurba_marseille","lat":43.285848,"lon":5.350787,"is_reserved":false,"is_disabled":false,"rental_uris":{"android":"levelo://app?vid=a867505a-c221-403a-bba6-7f68373835b5","ios":"levelo://app?vid=a867505a-c221-403a-bba6-7f68373835b5"},"vehicle_type_id":"4","last_reported":1701822951,"current_range_meters":17200,"station_id":"ce4bhch2rcd13ifvqeug","pricing_plan_id":"free"},{"bike_id":"ae6a84b2-fc63-4102-a6ef-6589c2e49662","system_id":"levelo_inurba_marseille","lat":43.283998,"lon":5.375062,"is_reserved":false,"is_disabled":false,"rental_uris":{"android":"levelo://app?vid=ae6a84b2-fc63-4102-a6ef-6589c2e49662","ios":"levelo://app?vid=ae6a84b2-fc63-4102-a6ef-6589c2e49662"},"vehicle_type_id":"4","last_reported":1701822951,"current_range_meters":1200,"station_id":"ce4bh412rcd13ifvqds0","pricing_plan_id":"free"},{"bike_id":"b722d9b2-f3c7-4178-bd3f-c0b8e0497bdb","system_id":"levelo_inurba_marseille","lat":43.295713,"lon":5.399639,"is_reserved":false,"is_disabled":false,"rental_uris":{"android":"levelo://app?vid=b722d9b2-f3c7-4178-bd3f-c0b8e0497bdb","ios":"levelo://app?vid=b722d9b2-f3c7-4178-bd3f-c0b8e0497bdb"},"vehicle_type_id":"4","last_reported":1701822951,"current_range_meters":30800,"station_id":"ce4bh312rcd13ifvqdj0","pricing_plan_id":"free"},{"bike_id":"84e4792a-eb54-459a-a304-c81edc3d6510","system_id":"levelo_inurba_marseille","lat":43.2868,"lon":5.38657,"is_reserved":false,"is_disabled":false,"rental_uris":{"android":"levelo://app?vid=84e4792a-eb54-459a-a304-c81edc3d6510","ios":"levelo://app?vid=84e4792a-eb54-459a-a304-c81edc3d6510"},"vehicle_type_id":"4","last_reported":1701822951,"current_range_meters":20400,"station_id":"ce4bh492rcd13ifvqdug","pricing_plan_id":"free"},{"bike_id":"db920be0-fb0f-4fdb-91ad-92736490ed79","system_id":"levelo_inurba_marseille","lat":43.32334,"lon":5.40616,"is_reserved":false,"is_disabled":false,"rental_uris":{"android":"levelo://app?vid=db920be0-fb0f-4fdb-91ad-92736490ed79","ios":"levelo://app?vid=db920be0-fb0f-4fdb-91ad-92736490ed79"},"vehicle_type_id":"4","last_reported":1701822951,"current_range_meters":27600,"station_id":"ce4bhq92rcd13ifvqhjg","pricing_plan_id":"free"},{"bike_id":"5ed9654f-19be-4d9b-ae4f-ec963a893820","system_id":"levelo_inurba_marseille","lat":43.284793,"lon":5.384119,"is_reserved":false,"is_disabled":false,"rental_uris":{"android":"levelo://app?vid=5ed9654f-19be-4d9b-ae4f-ec963a893820","ios":"levelo://app?vid=5ed9654f-19be-4d9b-ae4f-ec963a893820"},"vehicle_type_id":"4","last_reported":1701822951,"current_range_meters":23200,"station_id":"ce4bh512rcd13ifvqe3g","pricing_plan_id":"free"},{"bike_id":"28ac34e8-d457-46a9-871d-9969864298e2","system_id":"levelo_inurba_marseille","lat":43.284787,"lon":5.384116,"is_reserved":false,"is_disabled":false,"rental_uris":{"android":"levelo://app?vid=28ac34e8-d457-46a9-871d-9969864298e2","ios":"levelo://app?vid=28ac34e8-d457-46a9-871d-9969864298e2"},"vehicle_type_id":"4","last_reported":1701822951,"current_range_meters":29200,"station_id":"ce4bh512rcd13ifvqe3g","pricing_plan_id":"free"},{"bike_id":"5050b9ff-74f9-4a14-8513-e3a7b57aae00","system_id":"levelo_inurba_marseille","lat":43.297946,"lon":5.404063,"is_reserved":false,"is_disabled":false,"rental_uris":{"android":"levelo://app?vid=5050b9ff-74f9-4a14-8513-e3a7b57aae00","ios":"levelo://app?vid=5050b9ff-74f9-4a14-8513-e3a7b57aae00"},"vehicle_type_id":"4","last_reported":1701822951,"current_range_meters":28000,"station_id":"ce4bh112rcd13ifvqd90","pricing_plan_id":"free"},{"bike_id":"611aa79a-0a83-4ab7-a112-13ee77ddbdf2","system_id":"levelo_inurba_marseille","lat":43.283494,"lon":5.380945,"is_reserved":false,"is_disabled":false,"rental_uris":{"android":"levelo://app?vid=611aa79a-0a83-4ab7-a112-13ee77ddbdf2","ios":"levelo://app?vid=611aa79a-0a83-4ab7-a112-13ee77ddbdf2"},"vehicle_type_id":"4","last_reported":1701822951,"current_range_meters":29200,"station_id":"ce4bh412rcd13ifvqdr0","pricing_plan_id":"free"},{"bike_id":"9738ce5d-832a-4280-a550-2a00396f74a3","system_id":"levelo_inurba_marseille","lat":43.284217,"lon":5.349697,"is_reserved":false,"is_disabled":false,"rental_uris":{"android":"levelo://app?vid=9738ce5d-832a-4280-a550-2a00396f74a3","ios":"levelo://app?vid=9738ce5d-832a-4280-a550-2a00396f74a3"},"vehicle_type_id":"4","last_reported":1701822951,"current_range_meters":17200,"station_id":"ce4bhbh2rcd13ifvqepg","pricing_plan_id":"free"},{"bike_id":"18cf44bf-f3c4-4ca7-8c5a-9dac8c5c9a94","system_id":"levelo_inurba_marseille","lat":43.289363,"lon":5.396322,"is_reserved":false,"is_disabled":false,"rental_uris":{"android":"levelo://app?vid=18cf44bf-f3c4-4ca7-8c5a-9dac8c5c9a94","ios":"levelo://app?vid=18cf44bf-f3c4-4ca7-8c5a-9dac8c5c9a94"},"vehicle_type_id":"4","last_reported":1701822951,"current_range_meters":30000,"station_id":"ce4bh3h2rcd13ifvqdn0","pricing_plan_id":"free"},{"bike_id":"59bbb630-b9b5-40a2-be7a-9960104c3558","system_id":"levelo_inurba_marseille","lat":43.282754,"lon":5.350519,"is_reserved":false,"is_disabled":false,"rental_uris":{"android":"levelo://app?vid=59bbb630-b9b5-40a2-be7a-9960104c3558","ios":"levelo://app?vid=59bbb630-b9b5-40a2-be7a-9960104c3558"},"vehicle_type_id":"4","last_reported":1701822951,"current_range_meters":29600,"station_id":"ce4bhbp2rcd13ifvqerg","pricing_plan_id":"free"},{"bike_id":"c0a71a16-8f8c-4483-b1b5-a5cad912ed6d","system_id":"levelo_inurba_marseille","lat":43.282744,"lon":5.350533,"is_reserved":false,"is_disabled":false,"rental_uris":{"android":"levelo://app?vid=c0a71a16-8f8c-4483-b1b5-a5cad912ed6d","ios":"levelo://app?vid=c0a71a16-8f8c-4483-b1b5-a5cad912ed6d"},"vehicle_type_id":"4","last_reported":1701822951,"current_range_meters":20000,"station_id":"ce4bhbp2rcd13ifvqerg","pricing_plan_id":"free"},{"bike_id":"75972282-15cc-44bc-b5ff-d20e6063f1de","system_id":"levelo_inurba_marseille","lat":43.28039,"lon":5.369297,"is_reserved":false,"is_disabled":false,"rental_uris":{"android":"levelo://app?vid=75972282-15cc-44bc-b5ff-d20e6063f1de","ios":"levelo://app?vid=75972282-15cc-44bc-b5ff-d20e6063f1de"},"vehicle_type_id":"4","last_reported":1701822951,"current_range_meters":20400,"station_id":"ce4bha12rcd13ifvqef0","pricing_plan_id":"free"},{"bike_id":"d646aa68-9c4d-43d0-ba82-1619c0e4ff50","system_id":"levelo_inurba_marseille","lat":43.282744,"lon":5.350533,"is_reserved":false,"is_disabled":false,"rental_uris":{"android":"levelo://app?vid=d646aa68-9c4d-43d0-ba82-1619c0e4ff50","ios":"levelo://app?vid=d646aa68-9c4d-43d0-ba82-1619c0e4ff50"},"vehicle_type_id":"4","last_reported":1701822951,"current_range_meters":26000,"station_id":"ce4bhbp2rcd13ifvqerg","pricing_plan_id":"free"},{"bike_id":"54ed5a7f-9259-47f8-a381-3ea9ad9e4f00","system_id":"levelo_inurba_marseille","lat":43.28039,"lon":5.369297,"is_reserved":false,"is_disabled":false,"rental_uris":{"android":"levelo://app?vid=54ed5a7f-9259-47f8-a381-3ea9ad9e4f00","ios":"levelo://app?vid=54ed5a7f-9259-47f8-a381-3ea9ad9e4f00"},"vehicle_type_id":"4","last_reported":1701822951,"current_range_meters":12800,"station_id":"ce4bha12rcd13ifvqef0","pricing_plan_id":"free"},{"bike_id":"fa4c094d-7c46-426d-b881-1f52f22868da","system_id":"levelo_inurba_marseille","lat":43.28039,"lon":5.369297,"is_reserved":false,"is_disabled":false,"rental_uris":{"android":"levelo://app?vid=fa4c094d-7c46-426d-b881-1f52f22868da","ios":"levelo://app?vid=fa4c094d-7c46-426d-b881-1f52f22868da"},"vehicle_type_id":"4","last_reported":1701822951,"current_range_meters":18800,"station_id":"ce4bha12rcd13ifvqef0","pricing_plan_id":"free"},{"bike_id":"183f539f-3181-4fd4-82d7-e1df942ed36d","system_id":"levelo_inurba_marseille","lat":43.28039,"lon":5.369297,"is_reserved":false,"is_disabled":false,"rental_uris":{"android":"levelo://app?vid=183f539f-3181-4fd4-82d7-e1df942ed36d","ios":"levelo://app?vid=183f539f-3181-4fd4-82d7-e1df942ed36d"},"vehicle_type_id":"4","last_reported":1701822951,"current_range_meters":2800,"station_id":"ce4bha12rcd13ifvqef0","pricing_plan_id":"free"},{"bike_id":"3e63bd18-083f-433f-90d8-accbcf1dd2cc","system_id":"levelo_inurba_marseille","lat":43.28039,"lon":5.369297,"is_reserved":false,"is_disabled":false,"rental_uris":{"android":"levelo://app?vid=3e63bd18-083f-433f-90d8-accbcf1dd2cc","ios":"levelo://app?vid=3e63bd18-083f-433f-90d8-accbcf1dd2cc"},"vehicle_type_id":"4","last_reported":1701822951,"current_range_meters":22800,"station_id":"ce4bha12rcd13ifvqef0","pricing_plan_id":"free"},{"bike_id":"d0bafeee-cd82-42c1-8eb0-fee1993cdf35","system_id":"levelo_inurba_marseille","lat":43.283453,"lon":5.386445,"is_reserved":false,"is_disabled":false,"rental_uris":{"android":"levelo://app?vid=d0bafeee-cd82-42c1-8eb0-fee1993cdf35","ios":"levelo://app?vid=d0bafeee-cd82-42c1-8eb0-fee1993cdf35"},"vehicle_type_id":"4","last_reported":1701822951,"current_range_meters":11600,"station_id":"ce4bh492rcd13ifvqdvg","pricing_plan_id":"free"},{"bike_id":"07e45ffb-536b-4d5f-90ef-e68954c5fde9","system_id":"levelo_inurba_marseille","lat":43.281044,"lon":5.378308,"is_reserved":false,"is_disabled":false,"rental_uris":{"android":"levelo://app?vid=07e45ffb-536b-4d5f-90ef-e68954c5fde9","ios":"levelo://app?vid=07e45ffb-536b-4d5f-90ef-e68954c5fde9"},"vehicle_type_id":"4","last_reported":1701822951,"current_range_meters":27200,"station_id":"ce4bha12rcd13ifvqee0","pricing_plan_id":"free"},{"bike_id":"246b6c1c-0e9b-4fca-90e3-8a24aee6d6e5","system_id":"levelo_inurba_marseille","lat":43.284462,"lon":5.392121,"is_reserved":false,"is_disabled":false,"rental_uris":{"android":"levelo://app?vid=246b6c1c-0e9b-4fca-90e3-8a24aee6d6e5","ios":"levelo://app?vid=246b6c1c-0e9b-4fca-90e3-8a24aee6d6e5"},"vehicle_type_id":"4","last_reported":1701822951,"current_range_meters":26400,"station_id":"ce4bhoh2rcd13ifvqh5g","pricing_plan_id":"free"},{"bike_id":"3b4ac1c6-6cbf-4e90-b601-9d8596040740","system_id":"levelo_inurba_marseille","lat":43.284462,"lon":5.392121,"is_reserved":false,"is_disabled":false,"rental_uris":{"android":"levelo://app?vid=3b4ac1c6-6cbf-4e90-b601-9d8596040740","ios":"levelo://app?vid=3b4ac1c6-6cbf-4e90-b601-9d8596040740"},"vehicle_type_id":"4","last_reported":1701822951,"current_range_meters":11600,"station_id":"ce4bhoh2rcd13ifvqh5g","pricing_plan_id":"free"},{"bike_id":"e8014cea-c9dd-4195-91da-914c84f626a2","system_id":"levelo_inurba_marseille","lat":43.284462,"lon":5.392121,"is_reserved":false,"is_disabled":false,"rental_uris":{"android":"levelo://app?vid=e8014cea-c9dd-4195-91da-914c84f626a2","ios":"levelo://app?vid=e8014cea-c9dd-4195-91da-914c84f626a2"},"vehicle_type_id":"4","last_reported":1701822951,"current_range_meters":11200,"station_id":"ce4bhoh2rcd13ifvqh5g","pricing_plan_id":"free"},{"bike_id":"69fa9f5d-f813-4ecf-b767-80aa965e71ed","system_id":"levelo_inurba_marseille","lat":43.284462,"lon":5.392121,"is_reserved":false,"is_disabled":false,"rental_uris":{"android":"levelo://app?vid=69fa9f5d-f813-4ecf-b767-80aa965e71ed","ios":"levelo://app?vid=69fa9f5d-f813-4ecf-b767-80aa965e71ed"},"vehicle_type_id":"4","last_reported":1701822951,"current_range_meters":15200,"station_id":"ce4bhoh2rcd13ifvqh5g","pricing_plan_id":"free"},{"bike_id":"b03d3379-3aea-49d3-a5ac-5ae96e10a08d","system_id":"levelo_inurba_marseille","lat":43.28573,"lon":5.394992,"is_reserved":false,"is_disabled":false,"rental_uris":{"android":"levelo://app?vid=b03d3379-3aea-49d3-a5ac-5ae96e10a08d","ios":"levelo://app?vid=b03d3379-3aea-49d3-a5ac-5ae96e10a08d"},"vehicle_type_id":"4","last_reported":1701822951,"current_range_meters":15200,"station_id":"ce4bh292rcd13ifvqdg0","pricing_plan_id":"free"},{"bike_id":"537b6760-696d-4ecd-93fb-02bd18532c61","system_id":"levelo_inurba_marseille","lat":43.28573,"lon":5.394992,"is_reserved":false,"is_disabled":false,"rental_uris":{"android":"levelo://app?vid=537b6760-696d-4ecd-93fb-02bd18532c61","ios":"levelo://app?vid=537b6760-696d-4ecd-93fb-02bd18532c61"},"vehicle_type_id":"4","last_reported":1701822951,"current_range_meters":29200,"station_id":"ce4bh292rcd13ifvqdg0","pricing_plan_id":"free"},{"bike_id":"2f5c4560-0878-4aff-b74b-f90e1e833532","system_id":"levelo_inurba_marseille","lat":43.326605,"lon":5.409903,"is_reserved":false,"is_disabled":false,"rental_uris":{"android":"levelo://app?vid=2f5c4560-0878-4aff-b74b-f90e1e833532","ios":"levelo://app?vid=2f5c4560-0878-4aff-b74b-f90e1e833532"},"vehicle_type_id":"4","last_reported":1701822951,"current_range_meters":26800,"station_id":"ce4bhpp2rcd13ifvqhgg","pricing_plan_id":"free"},{"bike_id":"486efaf5-0116-4223-967f-075be4dc6679","system_id":"levelo_inurba_marseille","lat":43.279087,"lon":5.380114,"is_reserved":false,"is_disabled":false,"rental_uris":{"android":"levelo://app?vid=486efaf5-0116-4223-967f-075be4dc6679","ios":"levelo://app?vid=486efaf5-0116-4223-967f-075be4dc6679"},"vehicle_type_id":"4","last_reported":1701822951,"current_range_meters":28000,"station_id":"ce4bhf92rcd13ifvqf50","pricing_plan_id":"free"},{"bike_id":"5bdf052e-fe2c-47ce-ac13-84edc28fef3b","system_id":"levelo_inurba_marseille","lat":43.287154,"lon":5.399979,"is_reserved":false,"is_disabled":false,"rental_uris":{"android":"levelo://app?vid=5bdf052e-fe2c-47ce-ac13-84edc28fef3b","ios":"levelo://app?vid=5bdf052e-fe2c-47ce-ac13-84edc28fef3b"},"vehicle_type_id":"4","last_reported":1701822951,"current_range_meters":31600,"station_id":"ce4bho92rcd13ifvqh3g","pricing_plan_id":"free"},{"bike_id":"ab73616d-85c7-4a96-a27e-8fb02af0733b","system_id":"levelo_inurba_marseille","lat":43.287154,"lon":5.399979,"is_reserved":false,"is_disabled":false,"rental_uris":{"android":"levelo://app?vid=ab73616d-85c7-4a96-a27e-8fb02af0733b","ios":"levelo://app?vid=ab73616d-85c7-4a96-a27e-8fb02af0733b"},"vehicle_type_id":"4","last_reported":1701822951,"current_range_meters":16800,"station_id":"ce4bho92rcd13ifvqh3g","pricing_plan_id":"free"},{"bike_id":"d46ebe5f-53fd-402a-975e-a6661698e060","system_id":"levelo_inurba_marseille","lat":43.320045,"lon":5.415048,"is_reserved":false,"is_disabled":false,"rental_uris":{"android":"levelo://app?vid=d46ebe5f-53fd-402a-975e-a6661698e060","ios":"levelo://app?vid=d46ebe5f-53fd-402a-975e-a6661698e060"},"vehicle_type_id":"4","last_reported":1701822951,"current_range_meters":25600,"station_id":"ce4bhq92rcd13ifvqhkg","pricing_plan_id":"free"},{"bike_id":"ed9165b6-9343-4194-b429-02400d728936","system_id":"levelo_inurba_marseille","lat":43.279742,"lon":5.38744,"is_reserved":false,"is_disabled":false,"rental_uris":{"android":"levelo://app?vid=ed9165b6-9343-4194-b429-02400d728936","ios":"levelo://app?vid=ed9165b6-9343-4194-b429-02400d728936"},"vehicle_type_id":"4","last_reported":1701822951,"current_range_meters":30000,"station_id":"ce4bhg12rcd13ifvqf80","pricing_plan_id":"free"},{"bike_id":"d2ab3a38-6fad-41ec-b12a-6d372ba03be8","system_id":"levelo_inurba_marseille","lat":43.320045,"lon":5.415048,"is_reserved":false,"is_disabled":false,"rental_uris":{"android":"levelo://app?vid=d2ab3a38-6fad-41ec-b12a-6d372ba03be8","ios":"levelo://app?vid=d2ab3a38-6fad-41ec-b12a-6d372ba03be8"},"vehicle_type_id":"4","last_reported":1701822951,"current_range_meters":27600,"station_id":"ce4bhq92rcd13ifvqhkg","pricing_plan_id":"free"},{"bike_id":"d5f6e73f-c04b-4893-aaf5-d187974d0a2d","system_id":"levelo_inurba_marseille","lat":43.27957,"lon":5.38709,"is_reserved":false,"is_disabled":false,"rental_uris":{"android":"levelo://app?vid=d5f6e73f-c04b-4893-aaf5-d187974d0a2d","ios":"levelo://app?vid=d5f6e73f-c04b-4893-aaf5-d187974d0a2d"},"vehicle_type_id":"4","last_reported":1701822951,"current_range_meters":5200,"station_id":"ce4bhg12rcd13ifvqf80","pricing_plan_id":"free"},{"bike_id":"e5d6c46c-88df-4016-89e2-55665425c00c","system_id":"levelo_inurba_marseille","lat":43.320045,"lon":5.415046,"is_reserved":false,"is_disabled":false,"rental_uris":{"android":"levelo://app?vid=e5d6c46c-88df-4016-89e2-55665425c00c","ios":"levelo://app?vid=e5d6c46c-88df-4016-89e2-55665425c00c"},"vehicle_type_id":"4","last_reported":1701822951,"current_range_meters":30400,"station_id":"ce4bhq92rcd13ifvqhkg","pricing_plan_id":"free"},{"bike_id":"4fcc6f08-3b05-4a6c-a797-d66e356cfa7c","system_id":"levelo_inurba_marseille","lat":43.292569,"lon":5.409107,"is_reserved":false,"is_disabled":false,"rental_uris":{"android":"levelo://app?vid=4fcc6f08-3b05-4a6c-a797-d66e356cfa7c","ios":"levelo://app?vid=4fcc6f08-3b05-4a6c-a797-d66e356cfa7c"},"vehicle_type_id":"4","last_reported":1701822951,"current_range_meters":30400,"station_id":"ce4bh192rcd13ifvqdc0","pricing_plan_id":"free"},{"bike_id":"8d37f3f3-cafe-41b3-93ac-86502e716d0e","system_id":"levelo_inurba_marseille","lat":43.292569,"lon":5.409107,"is_reserved":false,"is_disabled":false,"rental_uris":{"android":"levelo://app?vid=8d37f3f3-cafe-41b3-93ac-86502e716d0e","ios":"levelo://app?vid=8d37f3f3-cafe-41b3-93ac-86502e716d0e"},"vehicle_type_id":"4","last_reported":1701822951,"current_range_meters":30400,"station_id":"ce4bh192rcd13ifvqdc0","pricing_plan_id":"free"},{"bike_id":"140b8ec6-aa09-43f1-9b46-72dda8328aa4","system_id":"levelo_inurba_marseille","lat":43.292571,"lon":5.409107,"is_reserved":false,"is_disabled":false,"rental_uris":{"android":"levelo://app?vid=140b8ec6-aa09-43f1-9b46-72dda8328aa4","ios":"levelo://app?vid=140b8ec6-aa09-43f1-9b46-72dda8328aa4"},"vehicle_type_id":"4","last_reported":1701822951,"current_range_meters":24400,"station_id":"ce4bh192rcd13ifvqdc0","pricing_plan_id":"free"},{"bike_id":"66900054-2c43-4986-be1a-34ce600d185f","system_id":"levelo_inurba_marseille","lat":43.280784,"lon":5.396622,"is_reserved":false,"is_disabled":false,"rental_uris":{"android":"levelo://app?vid=66900054-2c43-4986-be1a-34ce600d185f","ios":"levelo://app?vid=66900054-2c43-4986-be1a-34ce600d185f"},"vehicle_type_id":"4","last_reported":1701822951,"current_range_meters":18800,"station_id":"ce4bho12rcd13ifvqh2g","pricing_plan_id":"free"},{"bike_id":"e653648a-b829-4301-bab0-7c830288dee0","system_id":"levelo_inurba_marseille","lat":43.303837,"lon":5.418724,"is_reserved":false,"is_disabled":false,"rental_uris":{"android":"levelo://app?vid=e653648a-b829-4301-bab0-7c830288dee0","ios":"levelo://app?vid=e653648a-b829-4301-bab0-7c830288dee0"},"vehicle_type_id":"4","last_reported":1701822951,"current_range_meters":29200,"station_id":"ce4bhop2rcd13ifvqh7g","pricing_plan_id":"free"},{"bike_id":"277807d3-0fac-4204-a839-b8ca8c686400","system_id":"levelo_inurba_marseille","lat":43.303837,"lon":5.418724,"is_reserved":false,"is_disabled":false,"rental_uris":{"android":"levelo://app?vid=277807d3-0fac-4204-a839-b8ca8c686400","ios":"levelo://app?vid=277807d3-0fac-4204-a839-b8ca8c686400"},"vehicle_type_id":"4","last_reported":1701822951,"current_range_meters":3600,"station_id":"ce4bhop2rcd13ifvqh7g","pricing_plan_id":"free"},{"bike_id":"8d3318de-ae70-4d4c-a0c3-af014cb01a56","system_id":"levelo_inurba_marseille","lat":43.278401,"lon":5.392152,"is_reserved":false,"is_disabled":false,"rental_uris":{"android":"levelo://app?vid=8d3318de-ae70-4d4c-a0c3-af014cb01a56","ios":"levelo://app?vid=8d3318de-ae70-4d4c-a0c3-af014cb01a56"},"vehicle_type_id":"4","last_reported":1701822951,"current_range_meters":25200,"station_id":"ce4bhjp2rcd13ifvqga0","pricing_plan_id":"free"},{"bike_id":"f6def740-c529-48fa-9ea7-749c5a705d12","system_id":"levelo_inurba_marseille","lat":43.278401,"lon":5.392152,"is_reserved":false,"is_disabled":false,"rental_uris":{"android":"levelo://app?vid=f6def740-c529-48fa-9ea7-749c5a705d12","ios":"levelo://app?vid=f6def740-c529-48fa-9ea7-749c5a705d12"},"vehicle_type_id":"4","last_reported":1701822951,"current_range_meters":25600,"station_id":"ce4bhjp2rcd13ifvqga0","pricing_plan_id":"free"},{"bike_id":"836698bf-0593-4c6f-a29c-25959d245d4a","system_id":"levelo_inurba_marseille","lat":43.273613,"lon":5.362705,"is_reserved":false,"is_disabled":false,"rental_uris":{"android":"levelo://app?vid=836698bf-0593-4c6f-a29c-25959d245d4a","ios":"levelo://app?vid=836698bf-0593-4c6f-a29c-25959d245d4a"},"vehicle_type_id":"4","last_reported":1701822951,"current_range_meters":26800,"station_id":"ce4bhbh2rcd13ifvqeo0","pricing_plan_id":"free"},{"bike_id":"9fd44b34-882b-417d-a6b8-bfa85ff544cf","system_id":"levelo_inurba_marseille","lat":43.33612,"lon":5.410321,"is_reserved":false,"is_disabled":false,"rental_uris":{"android":"levelo://app?vid=9fd44b34-882b-417d-a6b8-bfa85ff544cf","ios":"levelo://app?vid=9fd44b34-882b-417d-a6b8-bfa85ff544cf"},"vehicle_type_id":"4","last_reported":1701822951,"current_range_meters":6800,"station_id":"ce4bhqh2rcd13ifvqhmg","pricing_plan_id":"free"},{"bike_id":"12c1afc5-04dc-4029-a1f1-7bc8aa21e0c8","system_id":"levelo_inurba_marseille","lat":43.276771,"lon":5.388799,"is_reserved":false,"is_disabled":false,"rental_uris":{"android":"levelo://app?vid=12c1afc5-04dc-4029-a1f1-7bc8aa21e0c8","ios":"levelo://app?vid=12c1afc5-04dc-4029-a1f1-7bc8aa21e0c8"},"vehicle_type_id":"4","last_reported":1701822951,"current_range_meters":25600,"station_id":"ce4bhi12rcd13ifvqfo0","pricing_plan_id":"free"},{"bike_id":"b1e0d68f-b5ce-4efc-a11d-bb9890d3062f","system_id":"levelo_inurba_marseille","lat":43.27871,"lon":5.394958,"is_reserved":false,"is_disabled":false,"rental_uris":{"android":"levelo://app?vid=b1e0d68f-b5ce-4efc-a11d-bb9890d3062f","ios":"levelo://app?vid=b1e0d68f-b5ce-4efc-a11d-bb9890d3062f"},"vehicle_type_id":"4","last_reported":1701822951,"current_range_meters":27200,"station_id":"","pricing_plan_id":"free"},{"bike_id":"2c337d2b-cceb-4a65-b16d-e1c20cfe6466","system_id":"levelo_inurba_marseille","lat":43.279975,"lon":5.40009,"is_reserved":false,"is_disabled":false,"rental_uris":{"android":"levelo://app?vid=2c337d2b-cceb-4a65-b16d-e1c20cfe6466","ios":"levelo://app?vid=2c337d2b-cceb-4a65-b16d-e1c20cfe6466"},"vehicle_type_id":"4","last_reported":1701822951,"current_range_meters":30000,"station_id":"ce4bho92rcd13ifvqh4g","pricing_plan_id":"free"},{"bike_id":"4f3c361f-dc39-4eb2-8cb4-572b7625ae11","system_id":"levelo_inurba_marseille","lat":43.27994,"lon":5.400208,"is_reserved":false,"is_disabled":false,"rental_uris":{"android":"levelo://app?vid=4f3c361f-dc39-4eb2-8cb4-572b7625ae11","ios":"levelo://app?vid=4f3c361f-dc39-4eb2-8cb4-572b7625ae11"},"vehicle_type_id":"4","last_reported":1701822951,"current_range_meters":10400,"station_id":"ce4bho92rcd13ifvqh4g","pricing_plan_id":"free"},{"bike_id":"5c10bde1-24aa-4e39-bdd5-9dcf98042632","system_id":"levelo_inurba_marseille","lat":43.317121,"lon":5.423936,"is_reserved":false,"is_disabled":false,"rental_uris":{"android":"levelo://app?vid=5c10bde1-24aa-4e39-bdd5-9dcf98042632","ios":"levelo://app?vid=5c10bde1-24aa-4e39-bdd5-9dcf98042632"},"vehicle_type_id":"4","last_reported":1701822951,"current_range_meters":28400,"station_id":"ce4bhp92rcd13ifvqhbg","pricing_plan_id":"free"},{"bike_id":"989a01d2-f2a9-4c11-8a79-9792d64b5413","system_id":"levelo_inurba_marseille","lat":43.27622,"lon":5.39483,"is_reserved":false,"is_disabled":false,"rental_uris":{"android":"levelo://app?vid=989a01d2-f2a9-4c11-8a79-9792d64b5413","ios":"levelo://app?vid=989a01d2-f2a9-4c11-8a79-9792d64b5413"},"vehicle_type_id":"4","last_reported":1701822951,"current_range_meters":10800,"station_id":"","pricing_plan_id":"free"},{"bike_id":"354d4287-7d7e-4bcb-93a2-6e310ddd5d92","system_id":"levelo_inurba_marseille","lat":43.310785,"lon":5.424305,"is_reserved":false,"is_disabled":false,"rental_uris":{"android":"levelo://app?vid=354d4287-7d7e-4bcb-93a2-6e310ddd5d92","ios":"levelo://app?vid=354d4287-7d7e-4bcb-93a2-6e310ddd5d92"},"vehicle_type_id":"4","last_reported":1701822951,"current_range_meters":25200,"station_id":"ce4bhp92rcd13ifvqhag","pricing_plan_id":"free"},{"bike_id":"dd6b756e-3032-4bf3-8729-0e0248edbc6c","system_id":"levelo_inurba_marseille","lat":43.317121,"lon":5.423936,"is_reserved":false,"is_disabled":false,"rental_uris":{"android":"levelo://app?vid=dd6b756e-3032-4bf3-8729-0e0248edbc6c","ios":"levelo://app?vid=dd6b756e-3032-4bf3-8729-0e0248edbc6c"},"vehicle_type_id":"4","last_reported":1701822951,"current_range_meters":30400,"station_id":"ce4bhp92rcd13ifvqhbg","pricing_plan_id":"free"},{"bike_id":"35583fe3-d19c-4d33-bdaf-ce96ce3f04aa","system_id":"levelo_inurba_marseille","lat":43.340804,"lon":5.410219,"is_reserved":false,"is_disabled":false,"rental_uris":{"android":"levelo://app?vid=35583fe3-d19c-4d33-bdaf-ce96ce3f04aa","ios":"levelo://app?vid=35583fe3-d19c-4d33-bdaf-ce96ce3f04aa"},"vehicle_type_id":"4","last_reported":1701822951,"current_range_meters":10000,"station_id":"ce4bhqh2rcd13ifvqhlg","pricing_plan_id":"free"},{"bike_id":"910fd3aa-d2e0-4553-894a-6161d41c7fcd","system_id":"levelo_inurba_marseille","lat":43.275673,"lon":5.3954,"is_reserved":false,"is_disabled":false,"rental_uris":{"android":"levelo://app?vid=910fd3aa-d2e0-4553-894a-6161d41c7fcd","ios":"levelo://app?vid=910fd3aa-d2e0-4553-894a-6161d41c7fcd"},"vehicle_type_id":"4","last_reported":1701822951,"current_range_meters":4800,"station_id":"","pricing_plan_id":"free"},{"bike_id":"ab3cea41-20c5-4dad-8c4b-1d1da6b6b0b7","system_id":"levelo_inurba_marseille","lat":43.273125,"lon":5.390731,"is_reserved":false,"is_disabled":false,"rental_uris":{"android":"levelo://app?vid=ab3cea41-20c5-4dad-8c4b-1d1da6b6b0b7","ios":"levelo://app?vid=ab3cea41-20c5-4dad-8c4b-1d1da6b6b0b7"},"vehicle_type_id":"4","last_reported":1701822951,"current_range_meters":14000,"station_id":"ce4bhgp2rcd13ifvqfe0","pricing_plan_id":"free"},{"bike_id":"0debc1b1-b0b0-4512-99aa-fb482d2414d0","system_id":"levelo_inurba_marseille","lat":43.273129,"lon":5.390725,"is_reserved":false,"is_disabled":false,"rental_uris":{"android":"levelo://app?vid=0debc1b1-b0b0-4512-99aa-fb482d2414d0","ios":"levelo://app?vid=0debc1b1-b0b0-4512-99aa-fb482d2414d0"},"vehicle_type_id":"4","last_reported":1701822951,"current_range_meters":23200,"station_id":"ce4bhgp2rcd13ifvqfe0","pricing_plan_id":"free"},{"bike_id":"8e6c03ab-3d95-4647-9347-859334921d66","system_id":"levelo_inurba_marseille","lat":43.274099,"lon":5.394019,"is_reserved":false,"is_disabled":false,"rental_uris":{"android":"levelo://app?vid=8e6c03ab-3d95-4647-9347-859334921d66","ios":"levelo://app?vid=8e6c03ab-3d95-4647-9347-859334921d66"},"vehicle_type_id":"4","last_reported":1701822951,"current_range_meters":28000,"station_id":"ce4bhdp2rcd13ifvqf20","pricing_plan_id":"free"},{"bike_id":"f260e719-2c7a-4462-9fef-55bbbaae44fa","system_id":"levelo_inurba_marseille","lat":43.272116,"lon":5.391747,"is_reserved":false,"is_disabled":false,"rental_uris":{"android":"levelo://app?vid=f260e719-2c7a-4462-9fef-55bbbaae44fa","ios":"levelo://app?vid=f260e719-2c7a-4462-9fef-55bbbaae44fa"},"vehicle_type_id":"4","last_reported":1701822951,"current_range_meters":28400,"station_id":"ce4bhhp2rcd13ifvqfm0","pricing_plan_id":"free"},{"bike_id":"4aaafaa4-5992-4d41-aca4-45ea537c3e9e","system_id":"levelo_inurba_marseille","lat":43.27214,"lon":5.3925,"is_reserved":false,"is_disabled":false,"rental_uris":{"android":"levelo://app?vid=4aaafaa4-5992-4d41-aca4-45ea537c3e9e","ios":"levelo://app?vid=4aaafaa4-5992-4d41-aca4-45ea537c3e9e"},"vehicle_type_id":"4","last_reported":1701822951,"current_range_meters":15200,"station_id":"","pricing_plan_id":"free"},{"bike_id":"2366e37e-c385-42f1-97be-f93069a110e5","system_id":"levelo_inurba_marseille","lat":43.279465,"lon":5.410561,"is_reserved":false,"is_disabled":false,"rental_uris":{"android":"levelo://app?vid=2366e37e-c385-42f1-97be-f93069a110e5","ios":"levelo://app?vid=2366e37e-c385-42f1-97be-f93069a110e5"},"vehicle_type_id":"4","last_reported":1701822951,"current_range_meters":14800,"station_id":"ce4bhnp2rcd13ifvqh0g","pricing_plan_id":"free"},{"bike_id":"a6f33f78-b9bb-4932-80af-5b43dd5bb9d9","system_id":"levelo_inurba_marseille","lat":43.269319,"lon":5.389397,"is_reserved":false,"is_disabled":false,"rental_uris":{"android":"levelo://app?vid=a6f33f78-b9bb-4932-80af-5b43dd5bb9d9","ios":"levelo://app?vid=a6f33f78-b9bb-4932-80af-5b43dd5bb9d9"},"vehicle_type_id":"4","last_reported":1701822951,"current_range_meters":25600,"station_id":"ce4bhhh2rcd13ifvqfl0","pricing_plan_id":"free"},{"bike_id":"8e50a2a3-63a6-454e-bfc7-0d30cf65c822","system_id":"levelo_inurba_marseille","lat":43.308051,"lon":5.43527,"is_reserved":false,"is_disabled":false,"rental_uris":{"android":"levelo://app?vid=8e50a2a3-63a6-454e-bfc7-0d30cf65c822","ios":"levelo://app?vid=8e50a2a3-63a6-454e-bfc7-0d30cf65c822"},"vehicle_type_id":"4","last_reported":1701822951,"current_range_meters":30800,"station_id":"ce4bhph2rcd13ifvqheg","pricing_plan_id":"free"},{"bike_id":"cebe32b0-24a9-40e6-97b2-e78ed3669aae","system_id":"levelo_inurba_marseille","lat":43.265569,"lon":5.390047,"is_reserved":false,"is_disabled":false,"rental_uris":{"android":"levelo://app?vid=cebe32b0-24a9-40e6-97b2-e78ed3669aae","ios":"levelo://app?vid=cebe32b0-24a9-40e6-97b2-e78ed3669aae"},"vehicle_type_id":"4","last_reported":1701822951,"current_range_meters":15600,"station_id":"ce4bhe12rcd13ifvqf30","pricing_plan_id":"free"},{"bike_id":"8813dbba-e27a-4b7d-8a9d-a2969baa525d","system_id":"levelo_inurba_marseille","lat":43.26562,"lon":5.3901,"is_reserved":false,"is_disabled":false,"rental_uris":{"android":"levelo://app?vid=8813dbba-e27a-4b7d-8a9d-a2969baa525d","ios":"levelo://app?vid=8813dbba-e27a-4b7d-8a9d-a2969baa525d"},"vehicle_type_id":"4","last_reported":1701822951,"current_range_meters":6000,"station_id":"ce4bhe12rcd13ifvqf30","pricing_plan_id":"free"},{"bike_id":"8ddb55f7-c130-4e14-ad3f-0b255083145d","system_id":"levelo_inurba_marseille","lat":43.26941,"lon":5.40257,"is_reserved":false,"is_disabled":false,"rental_uris":{"android":"levelo://app?vid=8ddb55f7-c130-4e14-ad3f-0b255083145d","ios":"levelo://app?vid=8ddb55f7-c130-4e14-ad3f-0b255083145d"},"vehicle_type_id":"4","last_reported":1701822951,"current_range_meters":9200,"station_id":"cjm6bp8fraef2m0cb0m0","pricing_plan_id":"free"},{"bike_id":"626647f3-e12f-4ae8-a68e-f1cf40963aa9","system_id":"levelo_inurba_marseille","lat":43.26949,"lon":5.40262,"is_reserved":false,"is_disabled":false,"rental_uris":{"android":"levelo://app?vid=626647f3-e12f-4ae8-a68e-f1cf40963aa9","ios":"levelo://app?vid=626647f3-e12f-4ae8-a68e-f1cf40963aa9"},"vehicle_type_id":"4","last_reported":1701822951,"current_range_meters":8400,"station_id":"cjm6bp8fraef2m0cb0m0","pricing_plan_id":"free"},{"bike_id":"4da8d4ff-cca1-4bbf-8bff-5890c75198a3","system_id":"levelo_inurba_marseille","lat":43.261838,"lon":5.374426,"is_reserved":false,"is_disabled":false,"rental_uris":{"android":"levelo://app?vid=4da8d4ff-cca1-4bbf-8bff-5890c75198a3","ios":"levelo://app?vid=4da8d4ff-cca1-4bbf-8bff-5890c75198a3"},"vehicle_type_id":"4","last_reported":1701822951,"current_range_meters":24400,"station_id":"ce4bhgp2rcd13ifvqfc0","pricing_plan_id":"free"},{"bike_id":"9ac7abeb-89e8-41a4-9fbb-7ef51af7ee65","system_id":"levelo_inurba_marseille","lat":43.317104,"lon":5.436818,"is_reserved":false,"is_disabled":false,"rental_uris":{"android":"levelo://app?vid=9ac7abeb-89e8-41a4-9fbb-7ef51af7ee65","ios":"levelo://app?vid=9ac7abeb-89e8-41a4-9fbb-7ef51af7ee65"},"vehicle_type_id":"4","last_reported":1701822951,"current_range_meters":28800,"station_id":"ce4bhp92rcd13ifvqhcg","pricing_plan_id":"free"},{"bike_id":"4f34044e-b6b5-4f45-aa26-16b610aacef7","system_id":"levelo_inurba_marseille","lat":43.317104,"lon":5.436818,"is_reserved":false,"is_disabled":false,"rental_uris":{"android":"levelo://app?vid=4f34044e-b6b5-4f45-aa26-16b610aacef7","ios":"levelo://app?vid=4f34044e-b6b5-4f45-aa26-16b610aacef7"},"vehicle_type_id":"4","last_reported":1701822951,"current_range_meters":30400,"station_id":"ce4bhp92rcd13ifvqhcg","pricing_plan_id":"free"},{"bike_id":"ce63206a-4c55-4867-9ae3-5b995ed6f84c","system_id":"levelo_inurba_marseille","lat":43.271368,"lon":5.40928,"is_reserved":false,"is_disabled":false,"rental_uris":{"android":"levelo://app?vid=ce63206a-4c55-4867-9ae3-5b995ed6f84c","ios":"levelo://app?vid=ce63206a-4c55-4867-9ae3-5b995ed6f84c"},"vehicle_type_id":"4","last_reported":1701822951,"current_range_meters":28800,"station_id":"ce4bhl12rcd13ifvqgf0","pricing_plan_id":"free"},{"bike_id":"37038aca-97ca-4cb2-81d0-9a4826818ca5","system_id":"levelo_inurba_marseille","lat":43.26202,"lon":5.379299,"is_reserved":false,"is_disabled":false,"rental_uris":{"android":"levelo://app?vid=37038aca-97ca-4cb2-81d0-9a4826818ca5","ios":"levelo://app?vid=37038aca-97ca-4cb2-81d0-9a4826818ca5"},"vehicle_type_id":"4","last_reported":1701822951,"current_range_meters":28000,"station_id":"ce4bhjp2rcd13ifvqg90","pricing_plan_id":"free"},{"bike_id":"da966aee-446d-419d-82fa-15da7f2fb1f2","system_id":"levelo_inurba_marseille","lat":43.271368,"lon":5.40928,"is_reserved":false,"is_disabled":false,"rental_uris":{"android":"levelo://app?vid=da966aee-446d-419d-82fa-15da7f2fb1f2","ios":"levelo://app?vid=da966aee-446d-419d-82fa-15da7f2fb1f2"},"vehicle_type_id":"4","last_reported":1701822951,"current_range_meters":19200,"station_id":"ce4bhl12rcd13ifvqgf0","pricing_plan_id":"free"},{"bike_id":"c767e99e-1927-4c14-b7fe-3da9a58a3d73","system_id":"levelo_inurba_marseille","lat":43.267959,"lon":5.402687,"is_reserved":false,"is_disabled":false,"rental_uris":{"android":"levelo://app?vid=c767e99e-1927-4c14-b7fe-3da9a58a3d73","ios":"levelo://app?vid=c767e99e-1927-4c14-b7fe-3da9a58a3d73"},"vehicle_type_id":"4","last_reported":1701822951,"current_range_meters":26800,"station_id":"ce501612rcd8frsf0b60","pricing_plan_id":"free"},{"bike_id":"16076b9d-08c1-4b78-aef5-4c8ec51413f4","system_id":"levelo_inurba_marseille","lat":43.298768,"lon":5.43643,"is_reserved":false,"is_disabled":false,"rental_uris":{"android":"levelo://app?vid=16076b9d-08c1-4b78-aef5-4c8ec51413f4","ios":"levelo://app?vid=16076b9d-08c1-4b78-aef5-4c8ec51413f4"},"vehicle_type_id":"4","last_reported":1701822951,"current_range_meters":16400,"station_id":"ce4bhpp2rcd13ifvqhfg","pricing_plan_id":"free"},{"bike_id":"c54cd023-a6f2-4d68-aabc-4be9f862ccbb","system_id":"levelo_inurba_marseille","lat":43.298768,"lon":5.43643,"is_reserved":false,"is_disabled":false,"rental_uris":{"android":"levelo://app?vid=c54cd023-a6f2-4d68-aabc-4be9f862ccbb","ios":"levelo://app?vid=c54cd023-a6f2-4d68-aabc-4be9f862ccbb"},"vehicle_type_id":"4","last_reported":1701822951,"current_range_meters":31200,"station_id":"ce4bhpp2rcd13ifvqhfg","pricing_plan_id":"free"},{"bike_id":"ee3f0752-b275-4948-a5e5-3ea20bb15c3f","system_id":"levelo_inurba_marseille","lat":43.2607,"lon":5.393983,"is_reserved":false,"is_disabled":false,"rental_uris":{"android":"levelo://app?vid=ee3f0752-b275-4948-a5e5-3ea20bb15c3f","ios":"levelo://app?vid=ee3f0752-b275-4948-a5e5-3ea20bb15c3f"},"vehicle_type_id":"4","last_reported":1701822951,"current_range_meters":24000,"station_id":"ce4bhh92rcd13ifvqfj0","pricing_plan_id":"free"},{"bike_id":"17f04a7c-4c0d-410b-8b98-175b327b84b8","system_id":"levelo_inurba_marseille","lat":43.258224,"lon":5.394369,"is_reserved":false,"is_disabled":false,"rental_uris":{"android":"levelo://app?vid=17f04a7c-4c0d-410b-8b98-175b327b84b8","ios":"levelo://app?vid=17f04a7c-4c0d-410b-8b98-175b327b84b8"},"vehicle_type_id":"4","last_reported":1701822951,"current_range_meters":30400,"station_id":"ce4bhip2rcd13ifvqft0","pricing_plan_id":"free"},{"bike_id":"c808fd05-3396-47eb-a8be-22cb6b8a77b4","system_id":"levelo_inurba_marseille","lat":43.270721,"lon":5.422764,"is_reserved":false,"is_disabled":false,"rental_uris":{"android":"levelo://app?vid=c808fd05-3396-47eb-a8be-22cb6b8a77b4","ios":"levelo://app?vid=c808fd05-3396-47eb-a8be-22cb6b8a77b4"},"vehicle_type_id":"4","last_reported":1701822951,"current_range_meters":21200,"station_id":"ce4bhk92rcd13ifvqgb0","pricing_plan_id":"free"},{"bike_id":"247af584-b3f4-42a0-9236-07d89794d35d","system_id":"levelo_inurba_marseille","lat":43.270721,"lon":5.422764,"is_reserved":false,"is_disabled":false,"rental_uris":{"android":"levelo://app?vid=247af584-b3f4-42a0-9236-07d89794d35d","ios":"levelo://app?vid=247af584-b3f4-42a0-9236-07d89794d35d"},"vehicle_type_id":"4","last_reported":1701822951,"current_range_meters":28000,"station_id":"ce4bhk92rcd13ifvqgb0","pricing_plan_id":"free"},{"bike_id":"8fc31891-07e7-42e9-9ea3-99bdd8d73bf3","system_id":"levelo_inurba_marseille","lat":43.27066,"lon":5.42281,"is_reserved":false,"is_disabled":false,"rental_uris":{"android":"levelo://app?vid=8fc31891-07e7-42e9-9ea3-99bdd8d73bf3","ios":"levelo://app?vid=8fc31891-07e7-42e9-9ea3-99bdd8d73bf3"},"vehicle_type_id":"4","last_reported":1701822951,"current_range_meters":20800,"station_id":"ce4bhk92rcd13ifvqgb0","pricing_plan_id":"free"},{"bike_id":"8b3d6b5e-cefe-45c0-903d-452bb75449c8","system_id":"levelo_inurba_marseille","lat":43.25933,"lon":5.40915,"is_reserved":false,"is_disabled":false,"rental_uris":{"android":"levelo://app?vid=8b3d6b5e-cefe-45c0-903d-452bb75449c8","ios":"levelo://app?vid=8b3d6b5e-cefe-45c0-903d-452bb75449c8"},"vehicle_type_id":"4","last_reported":1701822951,"current_range_meters":14800,"station_id":"ce4bhm92rcd13ifvqglg","pricing_plan_id":"free"},{"bike_id":"85461d52-108f-4674-9751-e4e6d032a0f3","system_id":"levelo_inurba_marseille","lat":43.257079,"lon":5.411051,"is_reserved":false,"is_disabled":false,"rental_uris":{"android":"levelo://app?vid=85461d52-108f-4674-9751-e4e6d032a0f3","ios":"levelo://app?vid=85461d52-108f-4674-9751-e4e6d032a0f3"},"vehicle_type_id":"4","last_reported":1701822951,"current_range_meters":12800,"station_id":"ce4bhkp2rcd13ifvqgd0","pricing_plan_id":"free"},{"bike_id":"d9778b34-be45-4a9e-815f-34fa65ab33d0","system_id":"levelo_inurba_marseille","lat":43.257079,"lon":5.411051,"is_reserved":false,"is_disabled":false,"rental_uris":{"android":"levelo://app?vid=d9778b34-be45-4a9e-815f-34fa65ab33d0","ios":"levelo://app?vid=d9778b34-be45-4a9e-815f-34fa65ab33d0"},"vehicle_type_id":"4","last_reported":1701822951,"current_range_meters":25200,"station_id":"ce4bhkp2rcd13ifvqgd0","pricing_plan_id":"free"},{"bike_id":"9831ea30-a414-4016-af10-11af522b70bf","system_id":"levelo_inurba_marseille","lat":43.25711,"lon":5.41109,"is_reserved":false,"is_disabled":false,"rental_uris":{"android":"levelo://app?vid=9831ea30-a414-4016-af10-11af522b70bf","ios":"levelo://app?vid=9831ea30-a414-4016-af10-11af522b70bf"},"vehicle_type_id":"4","last_reported":1701822951,"current_range_meters":26400,"station_id":"ce4bhkp2rcd13ifvqgd0","pricing_plan_id":"free"},{"bike_id":"41b314fe-f153-4859-ab5f-b5fb41d78049","system_id":"levelo_inurba_marseille","lat":43.25001,"lon":5.38916,"is_reserved":false,"is_disabled":false,"rental_uris":{"android":"levelo://app?vid=41b314fe-f153-4859-ab5f-b5fb41d78049","ios":"levelo://app?vid=41b314fe-f153-4859-ab5f-b5fb41d78049"},"vehicle_type_id":"4","last_reported":1701822951,"current_range_meters":20800,"station_id":"ce4bhgp2rcd13ifvqfd0","pricing_plan_id":"free"},{"bike_id":"fe139a46-b394-4f90-a721-da43cd164fb5","system_id":"levelo_inurba_marseille","lat":43.250009,"lon":5.389195,"is_reserved":false,"is_disabled":false,"rental_uris":{"android":"levelo://app?vid=fe139a46-b394-4f90-a721-da43cd164fb5","ios":"levelo://app?vid=fe139a46-b394-4f90-a721-da43cd164fb5"},"vehicle_type_id":"4","last_reported":1701822951,"current_range_meters":26000,"station_id":"ce4bhgp2rcd13ifvqfd0","pricing_plan_id":"free"},{"bike_id":"cd974829-e7ba-4c3e-8574-9c9abd6d45f3","system_id":"levelo_inurba_marseille","lat":43.2479,"lon":5.374457,"is_reserved":false,"is_disabled":false,"rental_uris":{"android":"levelo://app?vid=cd974829-e7ba-4c3e-8574-9c9abd6d45f3","ios":"levelo://app?vid=cd974829-e7ba-4c3e-8574-9c9abd6d45f3"},"vehicle_type_id":"4","last_reported":1701822951,"current_range_meters":24000,"station_id":"ce4bhgh2rcd13ifvqfb0","pricing_plan_id":"free"},{"bike_id":"96da180c-7b6f-4c60-8c7c-dbf05c2d449c","system_id":"levelo_inurba_marseille","lat":43.250966,"lon":5.395186,"is_reserved":false,"is_disabled":false,"rental_uris":{"android":"levelo://app?vid=96da180c-7b6f-4c60-8c7c-dbf05c2d449c","ios":"levelo://app?vid=96da180c-7b6f-4c60-8c7c-dbf05c2d449c"},"vehicle_type_id":"4","last_reported":1701822951,"current_range_meters":25600,"station_id":"ce4bhm12rcd13ifvqgkg","pricing_plan_id":"free"},{"bike_id":"12cbe630-05b0-4088-92e4-99c0ab782742","system_id":"levelo_inurba_marseille","lat":43.25083,"lon":5.39518,"is_reserved":false,"is_disabled":false,"rental_uris":{"android":"levelo://app?vid=12cbe630-05b0-4088-92e4-99c0ab782742","ios":"levelo://app?vid=12cbe630-05b0-4088-92e4-99c0ab782742"},"vehicle_type_id":"4","last_reported":1701822951,"current_range_meters":18800,"station_id":"ce4bhm12rcd13ifvqgkg","pricing_plan_id":"free"},{"bike_id":"e68cfafb-784c-4d25-b8a5-401a4f504e08","system_id":"levelo_inurba_marseille","lat":43.24669,"lon":5.3817,"is_reserved":false,"is_disabled":false,"rental_uris":{"android":"levelo://app?vid=e68cfafb-784c-4d25-b8a5-401a4f504e08","ios":"levelo://app?vid=e68cfafb-784c-4d25-b8a5-401a4f504e08"},"vehicle_type_id":"4","last_reported":1701822951,"current_range_meters":9200,"station_id":"ce4bhih2rcd13ifvqfr0","pricing_plan_id":"free"},{"bike_id":"c403e136-25ea-4b1e-bfc3-ca48b6becec5","system_id":"levelo_inurba_marseille","lat":43.24693,"lon":5.382096,"is_reserved":false,"is_disabled":false,"rental_uris":{"android":"levelo://app?vid=c403e136-25ea-4b1e-bfc3-ca48b6becec5","ios":"levelo://app?vid=c403e136-25ea-4b1e-bfc3-ca48b6becec5"},"vehicle_type_id":"4","last_reported":1701822951,"current_range_meters":28400,"station_id":"ce4bhih2rcd13ifvqfr0","pricing_plan_id":"free"},{"bike_id":"2d806185-ffad-417a-84b3-a2e69bec5c0e","system_id":"levelo_inurba_marseille","lat":43.24693,"lon":5.382096,"is_reserved":false,"is_disabled":false,"rental_uris":{"android":"levelo://app?vid=2d806185-ffad-417a-84b3-a2e69bec5c0e","ios":"levelo://app?vid=2d806185-ffad-417a-84b3-a2e69bec5c0e"},"vehicle_type_id":"4","last_reported":1701822951,"current_range_meters":1200,"station_id":"ce4bhih2rcd13ifvqfr0","pricing_plan_id":"free"},{"bike_id":"7fa12c18-a7c6-491a-85c1-eafba9158c72","system_id":"levelo_inurba_marseille","lat":43.24666,"lon":5.38157,"is_reserved":false,"is_disabled":false,"rental_uris":{"android":"levelo://app?vid=7fa12c18-a7c6-491a-85c1-eafba9158c72","ios":"levelo://app?vid=7fa12c18-a7c6-491a-85c1-eafba9158c72"},"vehicle_type_id":"4","last_reported":1701822951,"current_range_meters":24400,"station_id":"ce4bhih2rcd13ifvqfr0","pricing_plan_id":"free"},{"bike_id":"9604456b-7edc-4a91-b91c-eca3cb9c0e41","system_id":"levelo_inurba_marseille","lat":43.25102,"lon":5.403214,"is_reserved":false,"is_disabled":false,"rental_uris":{"android":"levelo://app?vid=9604456b-7edc-4a91-b91c-eca3cb9c0e41","ios":"levelo://app?vid=9604456b-7edc-4a91-b91c-eca3cb9c0e41"},"vehicle_type_id":"4","last_reported":1701822951,"current_range_meters":28400,"station_id":"ce4bhlh2rcd13ifvqgig","pricing_plan_id":"free"},{"bike_id":"997fd2e8-a739-42e8-907b-cbaffd16bd36","system_id":"levelo_inurba_marseille","lat":43.240623,"lon":5.377642,"is_reserved":false,"is_disabled":false,"rental_uris":{"android":"levelo://app?vid=997fd2e8-a739-42e8-907b-cbaffd16bd36","ios":"levelo://app?vid=997fd2e8-a739-42e8-907b-cbaffd16bd36"},"vehicle_type_id":"4","last_reported":1701822951,"current_range_meters":31200,"station_id":"ce4bhnp2rcd13ifvqgvg","pricing_plan_id":"free"},{"bike_id":"ee8c0082-cb54-4c25-8ad0-88221a3ae898","system_id":"levelo_inurba_marseille","lat":43.240623,"lon":5.377642,"is_reserved":false,"is_disabled":false,"rental_uris":{"android":"levelo://app?vid=ee8c0082-cb54-4c25-8ad0-88221a3ae898","ios":"levelo://app?vid=ee8c0082-cb54-4c25-8ad0-88221a3ae898"},"vehicle_type_id":"4","last_reported":1701822951,"current_range_meters":17600,"station_id":"ce4bhnp2rcd13ifvqgvg","pricing_plan_id":"free"},{"bike_id":"d7cdcc88-c2b1-419f-87e2-d0246c5882a9","system_id":"levelo_inurba_marseille","lat":43.239588,"lon":5.366238,"is_reserved":false,"is_disabled":false,"rental_uris":{"android":"levelo://app?vid=d7cdcc88-c2b1-419f-87e2-d0246c5882a9","ios":"levelo://app?vid=d7cdcc88-c2b1-419f-87e2-d0246c5882a9"},"vehicle_type_id":"4","last_reported":1701822951,"current_range_meters":27600,"station_id":"ce4bhi12rcd13ifvqfp0","pricing_plan_id":"free"},{"bike_id":"1998587d-5bb1-4c48-8dfc-63edbcaf2960","system_id":"levelo_inurba_marseille","lat":43.239588,"lon":5.366238,"is_reserved":false,"is_disabled":false,"rental_uris":{"android":"levelo://app?vid=1998587d-5bb1-4c48-8dfc-63edbcaf2960","ios":"levelo://app?vid=1998587d-5bb1-4c48-8dfc-63edbcaf2960"},"vehicle_type_id":"4","last_reported":1701822951,"current_range_meters":16400,"station_id":"ce4bhi12rcd13ifvqfp0","pricing_plan_id":"free"},{"bike_id":"04b00323-44dc-4556-add8-5a131157a4f0","system_id":"levelo_inurba_marseille","lat":43.243938,"lon":5.4017,"is_reserved":false,"is_disabled":false,"rental_uris":{"android":"levelo://app?vid=04b00323-44dc-4556-add8-5a131157a4f0","ios":"levelo://app?vid=04b00323-44dc-4556-add8-5a131157a4f0"},"vehicle_type_id":"4","last_reported":1701822951,"current_range_meters":0,"station_id":"","pricing_plan_id":"free"},{"bike_id":"b647ae29-4a45-4e8d-986c-9155e46c40e4","system_id":"levelo_inurba_marseille","lat":43.231923,"lon":5.355545,"is_reserved":false,"is_disabled":false,"rental_uris":{"android":"levelo://app?vid=b647ae29-4a45-4e8d-986c-9155e46c40e4","ios":"levelo://app?vid=b647ae29-4a45-4e8d-986c-9155e46c40e4"},"vehicle_type_id":"4","last_reported":1701822951,"current_range_meters":19200,"station_id":"ce4bhu92rcd13ifvqi70","pricing_plan_id":"free"},{"bike_id":"e2fb0602-0025-4bc2-a80e-ca4c6079bddc","system_id":"levelo_inurba_marseille","lat":43.231923,"lon":5.355545,"is_reserved":false,"is_disabled":false,"rental_uris":{"android":"levelo://app?vid=e2fb0602-0025-4bc2-a80e-ca4c6079bddc","ios":"levelo://app?vid=e2fb0602-0025-4bc2-a80e-ca4c6079bddc"},"vehicle_type_id":"4","last_reported":1701822951,"current_range_meters":4800,"station_id":"ce4bhu92rcd13ifvqi70","pricing_plan_id":"free"},{"bike_id":"d868c0b5-242c-4b9f-b108-cbde91aaec79","system_id":"levelo_inurba_marseille","lat":43.231923,"lon":5.355545,"is_reserved":false,"is_disabled":false,"rental_uris":{"android":"levelo://app?vid=d868c0b5-242c-4b9f-b108-cbde91aaec79","ios":"levelo://app?vid=d868c0b5-242c-4b9f-b108-cbde91aaec79"},"vehicle_type_id":"4","last_reported":1701822951,"current_range_meters":22800,"station_id":"ce4bhu92rcd13ifvqi70","pricing_plan_id":"free"},{"bike_id":"7ae9092d-f687-4103-895b-5b378b9914a3","system_id":"levelo_inurba_marseille","lat":43.231931,"lon":5.355581,"is_reserved":false,"is_disabled":false,"rental_uris":{"android":"levelo://app?vid=7ae9092d-f687-4103-895b-5b378b9914a3","ios":"levelo://app?vid=7ae9092d-f687-4103-895b-5b378b9914a3"},"vehicle_type_id":"4","last_reported":1701822951,"current_range_meters":0,"station_id":"ce4bhu92rcd13ifvqi70","pricing_plan_id":"free"},{"bike_id":"cf3102c4-88e0-4a41-86b7-69a76932d3e6","system_id":"levelo_inurba_marseille","lat":43.231923,"lon":5.355545,"is_reserved":false,"is_disabled":false,"rental_uris":{"android":"levelo://app?vid=cf3102c4-88e0-4a41-86b7-69a76932d3e6","ios":"levelo://app?vid=cf3102c4-88e0-4a41-86b7-69a76932d3e6"},"vehicle_type_id":"4","last_reported":1701822951,"current_range_meters":31200,"station_id":"ce4bhu92rcd13ifvqi70","pricing_plan_id":"free"},{"bike_id":"b988d3fe-c649-4089-ae26-b7efbdfc136a","system_id":"levelo_inurba_marseille","lat":43.231794,"lon":5.400052,"is_reserved":false,"is_disabled":false,"rental_uris":{"android":"levelo://app?vid=b988d3fe-c649-4089-ae26-b7efbdfc136a","ios":"levelo://app?vid=b988d3fe-c649-4089-ae26-b7efbdfc136a"},"vehicle_type_id":"4","last_reported":1701822951,"current_range_meters":31200,"station_id":"ce4bhn12rcd13ifvqgqg","pricing_plan_id":"free"},{"bike_id":"db400c51-e35e-4f62-a493-369a291a0fc1","system_id":"levelo_inurba_marseille","lat":43.231793,"lon":5.400044,"is_reserved":false,"is_disabled":false,"rental_uris":{"android":"levelo://app?vid=db400c51-e35e-4f62-a493-369a291a0fc1","ios":"levelo://app?vid=db400c51-e35e-4f62-a493-369a291a0fc1"},"vehicle_type_id":"4","last_reported":1701822951,"current_range_meters":31200,"station_id":"ce4bhn12rcd13ifvqgqg","pricing_plan_id":"free"},{"bike_id":"dc29a285-2eb7-4eea-83a6-73eca831345a","system_id":"levelo_inurba_marseille","lat":43.231794,"lon":5.400052,"is_reserved":false,"is_disabled":false,"rental_uris":{"android":"levelo://app?vid=dc29a285-2eb7-4eea-83a6-73eca831345a","ios":"levelo://app?vid=dc29a285-2eb7-4eea-83a6-73eca831345a"},"vehicle_type_id":"4","last_reported":1701822951,"current_range_meters":29600,"station_id":"ce4bhn12rcd13ifvqgqg","pricing_plan_id":"free"},{"bike_id":"0dd66fb6-1882-4f21-a454-8b54abe523cd","system_id":"levelo_inurba_marseille","lat":43.231562,"lon":5.436933,"is_reserved":false,"is_disabled":false,"rental_uris":{"android":"levelo://app?vid=0dd66fb6-1882-4f21-a454-8b54abe523cd","ios":"levelo://app?vid=0dd66fb6-1882-4f21-a454-8b54abe523cd"},"vehicle_type_id":"4","last_reported":1701822951,"current_range_meters":0,"station_id":"ce4bhmp2rcd13ifvqgog","pricing_plan_id":"free"}]}}