{"last_updated":1698577483,"ttl":30,"version":"2.2","data":{"bikes":[{"bike_id":"c5a8f0c0-3ac3-4450-9954-3363b557424f","system_id":"levelo_inurba_marseille","lat":43.312239,"lon":5.368562,"is_reserved":false,"is_disabled":false,"rental_uris":{"android":"levelo://app?vid=c5a8f0c0-3ac3-4450-9954-3363b557424f","ios":"levelo://app?vid=c5a8f0c0-3ac3-4450-9954-3363b557424f"},"vehicle_type_id":"4","last_reported":1698577483,"current_range_meters":30400,"station_id":"ce4bgl92rcd13ifvqbq0","pricing_plan_id":"free"},{"bike_id":"b1cb48cb-22d4-4cd4-97b0-038c1cf723b7","system_id":"levelo_inurba_marseille","lat":43.315186,"lon":5.371432,"is_reserved":false,"is_disabled":false,"rental_uris":{"android":"levelo://app?vid=b1cb48cb-22d4-4cd4-97b0-038c1cf723b7","ios":"levelo://app?vid=b1cb48cb-22d4-4cd4-97b0-038c1cf723b7"},"vehicle_type_id":"4","last_reported":1698577483,"current_range_meters":15600,"station_id":"","pricing_plan_id":"free"},{"bike_id":"0694d837-0d48-4b05-a407-93c9bd4ed575","system_id":"levelo_inurba_marseille","lat":43.314811,"lon":5.373103,"is_reserved":false,"is_disabled":false,"rental_uris":{"android":"levelo://app?vid=0694d837-0d48-4b05-a407-93c9bd4ed575","ios":"levelo://app?vid=0694d837-0d48-4b05-a407-93c9bd4ed575"},"vehicle_type_id":"4","last_reported":1698577483,"current_range_meters":7200,"station_id":"ce4bgt12rcd13ifvqcd0","pricing_plan_id":"free"},{"bike_id":"184aac20-7041-4e1b-b2de-3cd452f3eb66","system_id":"levelo_inurba_marseille","lat":43.314811,"lon":5.373104,"is_reserved":false,"is_disabled":false,"rental_uris":{"android":"levelo://app?vid=184aac20-7041-4e1b-b2de-3cd452f3eb66","ios":"levelo://app?vid=184aac20-7041-4e1b-b2de-3cd452f3eb66"},"vehicle_type_id":"4","last_reported":1698577483,"current_range_meters":29600,"station_id":"ce4bgt12rcd13ifvqcd0","pricing_plan_id":"free"},{"bike_id":"10931109-a530-41ea-ac47-b15bb44f7b6f","system_id":"levelo_inurba_marseille","lat":43.30884,"lon":5.37191,"is_reserved":false,"is_disabled":false,"rental_uris":{"android":"levelo://app?vid=10931109-a530-41ea-ac47-b15bb44f7b6f","ios":"levelo://app?vid=10931109-a530-41ea-ac47-b15bb44f7b6f"},"vehicle_type_id":"4","last_reported":1698577483,"current_range_meters":23200,"station_id":"ce4bguh2rcd13ifvqckg","pricing_plan_id":"free"},{"bike_id":"97780b42-d7c3-4f86-a061-a88cc6e6905f","system_id":"levelo_inurba_marseille","lat":43.305514,"lon":5.367003,"is_reserved":false,"is_disabled":false,"rental_uris":{"android":"levelo://app?vid=97780b42-d7c3-4f86-a061-a88cc6e6905f","ios":"levelo://app?vid=97780b42-d7c3-4f86-a061-a88cc6e6905f"},"vehicle_type_id":"4","last_reported":1698577483,"current_range_meters":20800,"station_id":"ce4bgrp2rcd13ifvqc9g","pricing_plan_id":"free"},{"bike_id":"6e2082b5-adb2-4bec-bcd5-ea1b6a24dffa","system_id":"levelo_inurba_marseille","lat":43.30534,"lon":5.36728,"is_reserved":false,"is_disabled":false,"rental_uris":{"android":"levelo://app?vid=6e2082b5-adb2-4bec-bcd5-ea1b6a24dffa","ios":"levelo://app?vid=6e2082b5-adb2-4bec-bcd5-ea1b6a24dffa"},"vehicle_type_id":"4","last_reported":1698577483,"current_range_meters":26400,"station_id":"ce4bgrp2rcd13ifvqc9g","pricing_plan_id":"free"},{"bike_id":"f252b071-dddd-4e5f-ad07-506846af6d1a","system_id":"levelo_inurba_marseille","lat":43.305714,"lon":5.365633,"is_reserved":false,"is_disabled":false,"rental_uris":{"android":"levelo://app?vid=f252b071-dddd-4e5f-ad07-506846af6d1a","ios":"levelo://app?vid=f252b071-dddd-4e5f-ad07-506846af6d1a"},"vehicle_type_id":"4","last_reported":1698577483,"current_range_meters":15200,"station_id":"ce4bgs12rcd13ifvqcag","pricing_plan_id":"free"},{"bike_id":"1d245fae-b7bd-49ab-b055-cce8177b67c8","system_id":"levelo_inurba_marseille","lat":43.30538,"lon":5.36534,"is_reserved":false,"is_disabled":false,"rental_uris":{"android":"levelo://app?vid=1d245fae-b7bd-49ab-b055-cce8177b67c8","ios":"levelo://app?vid=1d245fae-b7bd-49ab-b055-cce8177b67c8"},"vehicle_type_id":"4","last_reported":1698577483,"current_range_meters":14400,"station_id":"ce4bgs12rcd13ifvqcag","pricing_plan_id":"free"},{"bike_id":"c696c613-289f-4ebd-9366-827e62958f75","system_id":"levelo_inurba_marseille","lat":43.305989,"lon":5.37225,"is_reserved":false,"is_disabled":false,"rental_uris":{"android":"levelo://app?vid=c696c613-289f-4ebd-9366-827e62958f75","ios":"levelo://app?vid=c696c613-289f-4ebd-9366-827e62958f75"},"vehicle_type_id":"4","last_reported":1698577483,"current_range_meters":26800,"station_id":"ce4bgqh2rcd13ifvqc4g","pricing_plan_id":"free"},{"bike_id":"930dcc7f-3cb2-4fdc-8405-a831124cbd3a","system_id":"levelo_inurba_marseille","lat":43.305989,"lon":5.37225,"is_reserved":false,"is_disabled":false,"rental_uris":{"android":"levelo://app?vid=930dcc7f-3cb2-4fdc-8405-a831124cbd3a","ios":"levelo://app?vid=930dcc7f-3cb2-4fdc-8405-a831124cbd3a"},"vehicle_type_id":"4","last_reported":1698577483,"current_range_meters":20000,"station_id":"ce4bgqh2rcd13ifvqc4g","pricing_plan_id":"free"},{"bike_id":"fc6fc194-f20a-4d71-90fd-0f83a1b1d458","system_id":"levelo_inurba_marseille","lat":43.30304,"lon":5.368987,"is_reserved":false,"is_disabled":false,"rental_uris":{"android":"levelo://app?vid=fc6fc194-f20a-4d71-90fd-0f83a1b1d458","ios":"levelo://app?vid=fc6fc194-f20a-4d71-90fd-0f83a1b1d458"},"vehicle_type_id":"4","last_reported":1698577483,"current_range_meters":0,"station_id":"ce4bgqh2rcd13ifvqc5g","pricing_plan_id":"free"},{"bike_id":"82667b7d-def4-431e-9733-e781074f261c","system_id":"levelo_inurba_marseille","lat":43.303046,"lon":5.368981,"is_reserved":false,"is_disabled":false,"rental_uris":{"android":"levelo://app?vid=82667b7d-def4-431e-9733-e781074f261c","ios":"levelo://app?vid=82667b7d-def4-431e-9733-e781074f261c"},"vehicle_type_id":"4","last_reported":1698577483,"current_range_meters":22000,"station_id":"ce4bgqh2rcd13ifvqc5g","pricing_plan_id":"free"},{"bike_id":"c8743d09-6f28-4aac-91cc-2f9facaa9f44","system_id":"levelo_inurba_marseille","lat":43.315373,"lon":5.380326,"is_reserved":false,"is_disabled":false,"rental_uris":{"android":"levelo://app?vid=c8743d09-6f28-4aac-91cc-2f9facaa9f44","ios":"levelo://app?vid=c8743d09-6f28-4aac-91cc-2f9facaa9f44"},"vehicle_type_id":"4","last_reported":1698577483,"current_range_meters":0,"station_id":"ce4bhsp2rcd13ifvqi50","pricing_plan_id":"free"},{"bike_id":"76ccd7e9-5a84-4823-97ba-75798160fcd4","system_id":"levelo_inurba_marseille","lat":43.31537,"lon":5.38035,"is_reserved":false,"is_disabled":false,"rental_uris":{"android":"levelo://app?vid=76ccd7e9-5a84-4823-97ba-75798160fcd4","ios":"levelo://app?vid=76ccd7e9-5a84-4823-97ba-75798160fcd4"},"vehicle_type_id":"4","last_reported":1698577483,"current_range_meters":22800,"station_id":"ce4bhsp2rcd13ifvqi50","pricing_plan_id":"free"},{"bike_id":"5442b524-376a-43c6-af99-3ff6e8e8d870","system_id":"levelo_inurba_marseille","lat":43.301939,"lon":5.366286,"is_reserved":false,"is_disabled":false,"rental_uris":{"android":"levelo://app?vid=5442b524-376a-43c6-af99-3ff6e8e8d870","ios":"levelo://app?vid=5442b524-376a-43c6-af99-3ff6e8e8d870"},"vehicle_type_id":"4","last_reported":1698577483,"current_range_meters":30800,"station_id":"ce4bgrh2rcd13ifvqc8g","pricing_plan_id":"free"},{"bike_id":"e3f253a1-9788-4492-938f-39b642fbd881","system_id":"levelo_inurba_marseille","lat":43.3245,"lon":5.36788,"is_reserved":false,"is_disabled":false,"rental_uris":{"android":"levelo://app?vid=e3f253a1-9788-4492-938f-39b642fbd881","ios":"levelo://app?vid=e3f253a1-9788-4492-938f-39b642fbd881"},"vehicle_type_id":"4","last_reported":1698577483,"current_range_meters":6400,"station_id":"","pricing_plan_id":"free"},{"bike_id":"9538248b-e7a6-43c2-a59c-09124b889647","system_id":"levelo_inurba_marseille","lat":43.304606,"lon":5.379026,"is_reserved":false,"is_disabled":false,"rental_uris":{"android":"levelo://app?vid=9538248b-e7a6-43c2-a59c-09124b889647","ios":"levelo://app?vid=9538248b-e7a6-43c2-a59c-09124b889647"},"vehicle_type_id":"4","last_reported":1698577483,"current_range_meters":28400,"station_id":"ce4bgup2rcd13ifvqcn0","pricing_plan_id":"free"},{"bike_id":"02eacc63-9dc1-442b-a266-99cb1db53bcf","system_id":"levelo_inurba_marseille","lat":43.304606,"lon":5.379026,"is_reserved":false,"is_disabled":false,"rental_uris":{"android":"levelo://app?vid=02eacc63-9dc1-442b-a266-99cb1db53bcf","ios":"levelo://app?vid=02eacc63-9dc1-442b-a266-99cb1db53bcf"},"vehicle_type_id":"4","last_reported":1698577483,"current_range_meters":24000,"station_id":"ce4bgup2rcd13ifvqcn0","pricing_plan_id":"free"},{"bike_id":"b1ee3c5e-7c49-4ba7-b698-74a321542638","system_id":"levelo_inurba_marseille","lat":43.304606,"lon":5.379026,"is_reserved":false,"is_disabled":false,"rental_uris":{"android":"levelo://app?vid=b1ee3c5e-7c49-4ba7-b698-74a321542638","ios":"levelo://app?vid=b1ee3c5e-7c49-4ba7-b698-74a321542638"},"vehicle_type_id":"4","last_reported":1698577483,"current_range_meters":31200,"station_id":"ce4bgup2rcd13ifvqcn0","pricing_plan_id":"free"},{"bike_id":"d797f1e6-f3ca-4ad7-8b56-5ed6191da53c","system_id":"levelo_inurba_marseille","lat":43.304606,"lon":5.379026,"is_reserved":false,"is_disabled":false,"rental_uris":{"android":"levelo://app?vid=d797f1e6-f3ca-4ad7-8b56-5ed6191da53c","ios":"levelo://app?vid=d797f1e6-f3ca-4ad7-8b56-5ed6191da53c"},"vehicle_type_id":"4","last_reported":1698577483,"current_range_meters":27200,"station_id":"ce4bgup2rcd13ifvqcn0","pricing_plan_id":"free"},{"bike_id":"7d59652f-a29d-4033-91f9-ecf733b5265f","system_id":"levelo_inurba_marseille","lat":43.304606,"lon":5.379026,"is_reserved":false,"is_disabled":false,"rental_uris":{"android":"levelo://app?vid=7d59652f-a29d-4033-91f9-ecf733b5265f","ios":"levelo://app?vid=7d59652f-a29d-4033-91f9-ecf733b5265f"},"vehicle_type_id":"4","last_reported":1698577483,"current_range_meters":26800,"station_id":"ce4bgup2rcd13ifvqcn0","pricing_plan_id":"free"},{"bike_id":"26d9d402-b7d6-4a1e-b014-75756bfad296","system_id":"levelo_inurba_marseille","lat":43.304606,"lon":5.379026,"is_reserved":false,"is_disabled":false,"rental_uris":{"android":"levelo://app?vid=26d9d402-b7d6-4a1e-b014-75756bfad296","ios":"levelo://app?vid=26d9d402-b7d6-4a1e-b014-75756bfad296"},"vehicle_type_id":"4","last_reported":1698577483,"current_range_meters":3200,"station_id":"ce4bgup2rcd13ifvqcn0","pricing_plan_id":"free"},{"bike_id":"8d5ce356-34db-4887-be07-589179fe72ca","system_id":"levelo_inurba_marseille","lat":43.304606,"lon":5.379026,"is_reserved":false,"is_disabled":false,"rental_uris":{"android":"levelo://app?vid=8d5ce356-34db-4887-be07-589179fe72ca","ios":"levelo://app?vid=8d5ce356-34db-4887-be07-589179fe72ca"},"vehicle_type_id":"4","last_reported":1698577483,"current_range_meters":22400,"station_id":"ce4bgup2rcd13ifvqcn0","pricing_plan_id":"free"},{"bike_id":"0504a1db-afc1-4687-9b09-0b3b04dc3292","system_id":"levelo_inurba_marseille","lat":43.304606,"lon":5.379026,"is_reserved":false,"is_disabled":false,"rental_uris":{"android":"levelo://app?vid=0504a1db-afc1-4687-9b09-0b3b04dc3292","ios":"levelo://app?vid=0504a1db-afc1-4687-9b09-0b3b04dc3292"},"vehicle_type_id":"4","last_reported":1698577483,"current_range_meters":27600,"station_id":"ce4bgup2rcd13ifvqcn0","pricing_plan_id":"free"},{"bike_id":"81e1d4f0-599a-4028-b2de-779dc6431879","system_id":"levelo_inurba_marseille","lat":43.304606,"lon":5.379026,"is_reserved":false,"is_disabled":false,"rental_uris":{"android":"levelo://app?vid=81e1d4f0-599a-4028-b2de-779dc6431879","ios":"levelo://app?vid=81e1d4f0-599a-4028-b2de-779dc6431879"},"vehicle_type_id":"4","last_reported":1698577483,"current_range_meters":25200,"station_id":"ce4bgup2rcd13ifvqcn0","pricing_plan_id":"free"},{"bike_id":"80869315-7823-4742-bbb7-f3541179027d","system_id":"levelo_inurba_marseille","lat":43.304606,"lon":5.379026,"is_reserved":false,"is_disabled":false,"rental_uris":{"android":"levelo://app?vid=80869315-7823-4742-bbb7-f3541179027d","ios":"levelo://app?vid=80869315-7823-4742-bbb7-f3541179027d"},"vehicle_type_id":"4","last_reported":1698577483,"current_range_meters":22000,"station_id":"ce4bgup2rcd13ifvqcn0","pricing_plan_id":"free"},{"bike_id":"ad56f7be-28bc-4e2d-b289-06b022b05ac2","system_id":"levelo_inurba_marseille","lat":43.302861,"lon":5.376874,"is_reserved":false,"is_disabled":false,"rental_uris":{"android":"levelo://app?vid=ad56f7be-28bc-4e2d-b289-06b022b05ac2","ios":"levelo://app?vid=ad56f7be-28bc-4e2d-b289-06b022b05ac2"},"vehicle_type_id":"4","last_reported":1698577483,"current_range_meters":4000,"station_id":"ce4bguh2rcd13ifvqcj0","pricing_plan_id":"free"},{"bike_id":"a1fbf8ad-8abf-469b-b962-189f8b8a0f12","system_id":"levelo_inurba_marseille","lat":43.302784,"lon":5.377158,"is_reserved":false,"is_disabled":false,"rental_uris":{"android":"levelo://app?vid=a1fbf8ad-8abf-469b-b962-189f8b8a0f12","ios":"levelo://app?vid=a1fbf8ad-8abf-469b-b962-189f8b8a0f12"},"vehicle_type_id":"4","last_reported":1698577483,"current_range_meters":31200,"station_id":"ce4bguh2rcd13ifvqcj0","pricing_plan_id":"free"},{"bike_id":"409440c6-a8b4-4816-82f5-9ea11af194f4","system_id":"levelo_inurba_marseille","lat":43.301429,"lon":5.37413,"is_reserved":false,"is_disabled":false,"rental_uris":{"android":"levelo://app?vid=409440c6-a8b4-4816-82f5-9ea11af194f4","ios":"levelo://app?vid=409440c6-a8b4-4816-82f5-9ea11af194f4"},"vehicle_type_id":"4","last_reported":1698577483,"current_range_meters":25200,"station_id":"ce4bgs92rcd13ifvqcc0","pricing_plan_id":"free"},{"bike_id":"16a6a5ab-da95-4486-925c-cbce9247e606","system_id":"levelo_inurba_marseille","lat":43.319985,"lon":5.381655,"is_reserved":false,"is_disabled":false,"rental_uris":{"android":"levelo://app?vid=16a6a5ab-da95-4486-925c-cbce9247e606","ios":"levelo://app?vid=16a6a5ab-da95-4486-925c-cbce9247e606"},"vehicle_type_id":"4","last_reported":1698577483,"current_range_meters":6800,"station_id":"ce4bhr12rcd13ifvqhpg","pricing_plan_id":"free"},{"bike_id":"d84a7461-f88f-4de3-9e7e-fc8869889568","system_id":"levelo_inurba_marseille","lat":43.29935,"lon":5.36529,"is_reserved":false,"is_disabled":false,"rental_uris":{"android":"levelo://app?vid=d84a7461-f88f-4de3-9e7e-fc8869889568","ios":"levelo://app?vid=d84a7461-f88f-4de3-9e7e-fc8869889568"},"vehicle_type_id":"4","last_reported":1698577483,"current_range_meters":16400,"station_id":"","pricing_plan_id":"free"},{"bike_id":"0df551c5-4eaa-483f-963e-abfaa4724a18","system_id":"levelo_inurba_marseille","lat":43.299333,"lon":5.36546,"is_reserved":false,"is_disabled":false,"rental_uris":{"android":"levelo://app?vid=0df551c5-4eaa-483f-963e-abfaa4724a18","ios":"levelo://app?vid=0df551c5-4eaa-483f-963e-abfaa4724a18"},"vehicle_type_id":"4","last_reported":1698577483,"current_range_meters":5600,"station_id":"ce4bgm92rcd13ifvqbr0","pricing_plan_id":"free"},{"bike_id":"ae26a8e1-11e4-450c-a3e4-bb85bdd37107","system_id":"levelo_inurba_marseille","lat":43.29932,"lon":5.36548,"is_reserved":false,"is_disabled":false,"rental_uris":{"android":"levelo://app?vid=ae26a8e1-11e4-450c-a3e4-bb85bdd37107","ios":"levelo://app?vid=ae26a8e1-11e4-450c-a3e4-bb85bdd37107"},"vehicle_type_id":"4","last_reported":1698577483,"current_range_meters":15200,"station_id":"ce4bgm92rcd13ifvqbr0","pricing_plan_id":"free"},{"bike_id":"b3af8715-167e-4e96-b1a5-2d68ef453475","system_id":"levelo_inurba_marseille","lat":43.29931,"lon":5.36555,"is_reserved":false,"is_disabled":false,"rental_uris":{"android":"levelo://app?vid=b3af8715-167e-4e96-b1a5-2d68ef453475","ios":"levelo://app?vid=b3af8715-167e-4e96-b1a5-2d68ef453475"},"vehicle_type_id":"4","last_reported":1698577483,"current_range_meters":22000,"station_id":"ce4bgm92rcd13ifvqbr0","pricing_plan_id":"free"},{"bike_id":"5ba66772-20b6-408d-a6c3-0df1cd4bb678","system_id":"levelo_inurba_marseille","lat":43.3264,"lon":5.367334,"is_reserved":false,"is_disabled":false,"rental_uris":{"android":"levelo://app?vid=5ba66772-20b6-408d-a6c3-0df1cd4bb678","ios":"levelo://app?vid=5ba66772-20b6-408d-a6c3-0df1cd4bb678"},"vehicle_type_id":"4","last_reported":1698577483,"current_range_meters":14400,"station_id":"","pricing_plan_id":"free"},{"bike_id":"4ba5901d-be6a-4c8f-a9db-8d75bb5c2af9","system_id":"levelo_inurba_marseille","lat":43.297774,"lon":5.370875,"is_reserved":false,"is_disabled":false,"rental_uris":{"android":"levelo://app?vid=4ba5901d-be6a-4c8f-a9db-8d75bb5c2af9","ios":"levelo://app?vid=4ba5901d-be6a-4c8f-a9db-8d75bb5c2af9"},"vehicle_type_id":"4","last_reported":1698577483,"current_range_meters":31200,"station_id":"ce4bgop2rcd13ifvqc1g","pricing_plan_id":"free"},{"bike_id":"8205172b-5755-408d-b92c-166d38c91628","system_id":"levelo_inurba_marseille","lat":43.305364,"lon":5.384119,"is_reserved":false,"is_disabled":false,"rental_uris":{"android":"levelo://app?vid=8205172b-5755-408d-b92c-166d38c91628","ios":"levelo://app?vid=8205172b-5755-408d-b92c-166d38c91628"},"vehicle_type_id":"4","last_reported":1698577483,"current_range_meters":30800,"station_id":"ce4bgg92rcd13ifvqb30","pricing_plan_id":"free"},{"bike_id":"0f1588fb-189d-4fae-9d66-a96081520626","system_id":"levelo_inurba_marseille","lat":43.298525,"lon":5.362846,"is_reserved":false,"is_disabled":false,"rental_uris":{"android":"levelo://app?vid=0f1588fb-189d-4fae-9d66-a96081520626","ios":"levelo://app?vid=0f1588fb-189d-4fae-9d66-a96081520626"},"vehicle_type_id":"4","last_reported":1698577483,"current_range_meters":23200,"station_id":"ce4bgpp2rcd13ifvqc3g","pricing_plan_id":"free"},{"bike_id":"a74f46af-b930-4a51-b2e9-4253ea7f7469","system_id":"levelo_inurba_marseille","lat":43.29852,"lon":5.36281,"is_reserved":false,"is_disabled":false,"rental_uris":{"android":"levelo://app?vid=a74f46af-b930-4a51-b2e9-4253ea7f7469","ios":"levelo://app?vid=a74f46af-b930-4a51-b2e9-4253ea7f7469"},"vehicle_type_id":"4","last_reported":1698577483,"current_range_meters":28400,"station_id":"ce4bgpp2rcd13ifvqc3g","pricing_plan_id":"free"},{"bike_id":"382061e8-0a2e-4040-9e4c-f71a13db295f","system_id":"levelo_inurba_marseille","lat":43.305456,"lon":5.384247,"is_reserved":false,"is_disabled":false,"rental_uris":{"android":"levelo://app?vid=382061e8-0a2e-4040-9e4c-f71a13db295f","ios":"levelo://app?vid=382061e8-0a2e-4040-9e4c-f71a13db295f"},"vehicle_type_id":"4","last_reported":1698577483,"current_range_meters":30800,"station_id":"ce4bgg92rcd13ifvqb30","pricing_plan_id":"free"},{"bike_id":"cc6fa94d-be13-420e-a5af-b4d8907834d5","system_id":"levelo_inurba_marseille","lat":43.305364,"lon":5.384119,"is_reserved":false,"is_disabled":false,"rental_uris":{"android":"levelo://app?vid=cc6fa94d-be13-420e-a5af-b4d8907834d5","ios":"levelo://app?vid=cc6fa94d-be13-420e-a5af-b4d8907834d5"},"vehicle_type_id":"4","last_reported":1698577483,"current_range_meters":26000,"station_id":"ce4bgg92rcd13ifvqb30","pricing_plan_id":"free"},{"bike_id":"3fcacc43-fada-46a3-b78b-468e6db38f90","system_id":"levelo_inurba_marseille","lat":43.29848,"lon":5.36282,"is_reserved":false,"is_disabled":false,"rental_uris":{"android":"levelo://app?vid=3fcacc43-fada-46a3-b78b-468e6db38f90","ios":"levelo://app?vid=3fcacc43-fada-46a3-b78b-468e6db38f90"},"vehicle_type_id":"4","last_reported":1698577483,"current_range_meters":11200,"station_id":"ce4bgpp2rcd13ifvqc3g","pricing_plan_id":"free"},{"bike_id":"4b287e7b-da9b-4cdf-b324-359a387f352d","system_id":"levelo_inurba_marseille","lat":43.298433,"lon":5.362774,"is_reserved":false,"is_disabled":false,"rental_uris":{"android":"levelo://app?vid=4b287e7b-da9b-4cdf-b324-359a387f352d","ios":"levelo://app?vid=4b287e7b-da9b-4cdf-b324-359a387f352d"},"vehicle_type_id":"4","last_reported":1698577483,"current_range_meters":26800,"station_id":"ce4bgpp2rcd13ifvqc3g","pricing_plan_id":"free"},{"bike_id":"f22e0330-083e-43a3-bbd7-912cdd401c9d","system_id":"levelo_inurba_marseille","lat":43.29846,"lon":5.36288,"is_reserved":false,"is_disabled":false,"rental_uris":{"android":"levelo://app?vid=f22e0330-083e-43a3-bbd7-912cdd401c9d","ios":"levelo://app?vid=f22e0330-083e-43a3-bbd7-912cdd401c9d"},"vehicle_type_id":"4","last_reported":1698577483,"current_range_meters":20800,"station_id":"ce4bgpp2rcd13ifvqc3g","pricing_plan_id":"free"},{"bike_id":"fce2de8c-1ab6-45e3-a9f8-69a0e216714c","system_id":"levelo_inurba_marseille","lat":43.298433,"lon":5.362774,"is_reserved":false,"is_disabled":false,"rental_uris":{"android":"levelo://app?vid=fce2de8c-1ab6-45e3-a9f8-69a0e216714c","ios":"levelo://app?vid=fce2de8c-1ab6-45e3-a9f8-69a0e216714c"},"vehicle_type_id":"4","last_reported":1698577483,"current_range_meters":31200,"station_id":"ce4bgpp2rcd13ifvqc3g","pricing_plan_id":"free"},{"bike_id":"af049d68-4ca5-4a26-8f82-6a84454ef337","system_id":"levelo_inurba_marseille","lat":43.298433,"lon":5.362774,"is_reserved":false,"is_disabled":false,"rental_uris":{"android":"levelo://app?vid=af049d68-4ca5-4a26-8f82-6a84454ef337","ios":"levelo://app?vid=af049d68-4ca5-4a26-8f82-6a84454ef337"},"vehicle_type_id":"4","last_reported":1698577483,"current_range_meters":14800,"station_id":"ce4bgpp2rcd13ifvqc3g","pricing_plan_id":"free"},{"bike_id":"e4a6e0d0-4dc7-4c03-9652-126fef8fa95f","system_id":"levelo_inurba_marseille","lat":43.298433,"lon":5.362774,"is_reserved":false,"is_disabled":false,"rental_uris":{"android":"levelo://app?vid=e4a6e0d0-4dc7-4c03-9652-126fef8fa95f","ios":"levelo://app?vid=e4a6e0d0-4dc7-4c03-9652-126fef8fa95f"},"vehicle_type_id":"4","last_reported":1698577483,"current_range_meters":30400,"station_id":"ce4bgpp2rcd13ifvqc3g","pricing_plan_id":"free"},{"bike_id":"088ec99b-ee9b-4601-974a-ec32dff78fe5","system_id":"levelo_inurba_marseille","lat":43.299243,"lon":5.37481,"is_reserved":false,"is_disabled":false,"rental_uris":{"android":"levelo://app?vid=088ec99b-ee9b-4601-974a-ec32dff78fe5","ios":"levelo://app?vid=088ec99b-ee9b-4601-974a-ec32dff78fe5"},"vehicle_type_id":"4","last_reported":1698577483,"current_range_meters":28800,"station_id":"ce4bgjh2rcd13ifvqbg0","pricing_plan_id":"free"},{"bike_id":"23ef33b7-5f15-4880-b52e-080bc32e58c9","system_id":"levelo_inurba_marseille","lat":43.322872,"lon":5.382756,"is_reserved":false,"is_disabled":false,"rental_uris":{"android":"levelo://app?vid=23ef33b7-5f15-4880-b52e-080bc32e58c9","ios":"levelo://app?vid=23ef33b7-5f15-4880-b52e-080bc32e58c9"},"vehicle_type_id":"4","last_reported":1698577483,"current_range_meters":17200,"station_id":"ce4bhr12rcd13ifvqhqg","pricing_plan_id":"free"},{"bike_id":"de3c62df-30bd-453f-beb1-667898b8adcf","system_id":"levelo_inurba_marseille","lat":43.322872,"lon":5.382756,"is_reserved":false,"is_disabled":false,"rental_uris":{"android":"levelo://app?vid=de3c62df-30bd-453f-beb1-667898b8adcf","ios":"levelo://app?vid=de3c62df-30bd-453f-beb1-667898b8adcf"},"vehicle_type_id":"4","last_reported":1698577483,"current_range_meters":22000,"station_id":"ce4bhr12rcd13ifvqhqg","pricing_plan_id":"free"},{"bike_id":"97481b86-63a9-41c0-a0af-2eb4a6ea3d85","system_id":"levelo_inurba_marseille","lat":43.32829,"lon":5.36674,"is_reserved":false,"is_disabled":false,"rental_uris":{"android":"levelo://app?vid=97481b86-63a9-41c0-a0af-2eb4a6ea3d85","ios":"levelo://app?vid=97481b86-63a9-41c0-a0af-2eb4a6ea3d85"},"vehicle_type_id":"4","last_reported":1698577483,"current_range_meters":28800,"station_id":"ce4bhs92rcd13ifvqi0g","pricing_plan_id":"free"},{"bike_id":"2bf09692-7151-4aba-9fa7-8ce1d6106004","system_id":"levelo_inurba_marseille","lat":43.328303,"lon":5.366873,"is_reserved":false,"is_disabled":false,"rental_uris":{"android":"levelo://app?vid=2bf09692-7151-4aba-9fa7-8ce1d6106004","ios":"levelo://app?vid=2bf09692-7151-4aba-9fa7-8ce1d6106004"},"vehicle_type_id":"4","last_reported":1698577483,"current_range_meters":9600,"station_id":"","pricing_plan_id":"free"},{"bike_id":"e1cd1f72-36cf-49bc-99c2-5b9fe1696dc6","system_id":"levelo_inurba_marseille","lat":43.328371,"lon":5.366909,"is_reserved":false,"is_disabled":false,"rental_uris":{"android":"levelo://app?vid=e1cd1f72-36cf-49bc-99c2-5b9fe1696dc6","ios":"levelo://app?vid=e1cd1f72-36cf-49bc-99c2-5b9fe1696dc6"},"vehicle_type_id":"4","last_reported":1698577483,"current_range_meters":2800,"station_id":"ce4bhs92rcd13ifvqi0g","pricing_plan_id":"free"},{"bike_id":"9e186f55-d906-4b54-9553-eed70e222375","system_id":"levelo_inurba_marseille","lat":43.323156,"lon":5.382857,"is_reserved":false,"is_disabled":false,"rental_uris":{"android":"levelo://app?vid=9e186f55-d906-4b54-9553-eed70e222375","ios":"levelo://app?vid=9e186f55-d906-4b54-9553-eed70e222375"},"vehicle_type_id":"4","last_reported":1698577483,"current_range_meters":23600,"station_id":"ce4bhr12rcd13ifvqhqg","pricing_plan_id":"free"},{"bike_id":"825605b3-e978-4a19-b750-6d9f8a11a7e6","system_id":"levelo_inurba_marseille","lat":43.328371,"lon":5.366909,"is_reserved":false,"is_disabled":false,"rental_uris":{"android":"levelo://app?vid=825605b3-e978-4a19-b750-6d9f8a11a7e6","ios":"levelo://app?vid=825605b3-e978-4a19-b750-6d9f8a11a7e6"},"vehicle_type_id":"4","last_reported":1698577483,"current_range_meters":20000,"station_id":"ce4bhs92rcd13ifvqi0g","pricing_plan_id":"free"},{"bike_id":"0e8233d2-0d57-470f-8c07-e9f753046a4f","system_id":"levelo_inurba_marseille","lat":43.323172,"lon":5.382921,"is_reserved":false,"is_disabled":false,"rental_uris":{"android":"levelo://app?vid=0e8233d2-0d57-470f-8c07-e9f753046a4f","ios":"levelo://app?vid=0e8233d2-0d57-470f-8c07-e9f753046a4f"},"vehicle_type_id":"4","last_reported":1698577483,"current_range_meters":28000,"station_id":"ce4bhr12rcd13ifvqhqg","pricing_plan_id":"free"},{"bike_id":"5d872206-1e90-49c4-a71a-0d9d694319c0","system_id":"levelo_inurba_marseille","lat":43.297163,"lon":5.365866,"is_reserved":false,"is_disabled":false,"rental_uris":{"android":"levelo://app?vid=5d872206-1e90-49c4-a71a-0d9d694319c0","ios":"levelo://app?vid=5d872206-1e90-49c4-a71a-0d9d694319c0"},"vehicle_type_id":"4","last_reported":1698577483,"current_range_meters":800,"station_id":"ce4bgn12rcd13ifvqbt0","pricing_plan_id":"free"},{"bike_id":"015d49e3-3eb1-4195-90cd-d3c04972fab1","system_id":"levelo_inurba_marseille","lat":43.297163,"lon":5.365866,"is_reserved":false,"is_disabled":false,"rental_uris":{"android":"levelo://app?vid=015d49e3-3eb1-4195-90cd-d3c04972fab1","ios":"levelo://app?vid=015d49e3-3eb1-4195-90cd-d3c04972fab1"},"vehicle_type_id":"4","last_reported":1698577483,"current_range_meters":27200,"station_id":"ce4bgn12rcd13ifvqbt0","pricing_plan_id":"free"},{"bike_id":"9f2c6b31-c334-4abd-9f01-2d752e0fc261","system_id":"levelo_inurba_marseille","lat":43.296921,"lon":5.376579,"is_reserved":false,"is_disabled":false,"rental_uris":{"android":"levelo://app?vid=9f2c6b31-c334-4abd-9f01-2d752e0fc261","ios":"levelo://app?vid=9f2c6b31-c334-4abd-9f01-2d752e0fc261"},"vehicle_type_id":"4","last_reported":1698577483,"current_range_meters":22400,"station_id":"ce4bgkh2rcd13ifvqbl0","pricing_plan_id":"free"},{"bike_id":"74fdaa04-38d8-4e4b-a8a2-0e6076a4edf4","system_id":"levelo_inurba_marseille","lat":43.296131,"lon":5.370773,"is_reserved":false,"is_disabled":false,"rental_uris":{"android":"levelo://app?vid=74fdaa04-38d8-4e4b-a8a2-0e6076a4edf4","ios":"levelo://app?vid=74fdaa04-38d8-4e4b-a8a2-0e6076a4edf4"},"vehicle_type_id":"4","last_reported":1698577483,"current_range_meters":28400,"station_id":"ce4bgnh2rcd13ifvqc0g","pricing_plan_id":"free"},{"bike_id":"83b07e2d-8ae1-43fa-882e-5256f56d3371","system_id":"levelo_inurba_marseille","lat":43.296129,"lon":5.370777,"is_reserved":false,"is_disabled":false,"rental_uris":{"android":"levelo://app?vid=83b07e2d-8ae1-43fa-882e-5256f56d3371","ios":"levelo://app?vid=83b07e2d-8ae1-43fa-882e-5256f56d3371"},"vehicle_type_id":"4","last_reported":1698577483,"current_range_meters":28800,"station_id":"ce4bgnh2rcd13ifvqc0g","pricing_plan_id":"free"},{"bike_id":"646a9e6b-3b88-4b1c-81f9-78d160160003","system_id":"levelo_inurba_marseille","lat":43.29611,"lon":5.362909,"is_reserved":false,"is_disabled":false,"rental_uris":{"android":"levelo://app?vid=646a9e6b-3b88-4b1c-81f9-78d160160003","ios":"levelo://app?vid=646a9e6b-3b88-4b1c-81f9-78d160160003"},"vehicle_type_id":"4","last_reported":1698577483,"current_range_meters":31200,"station_id":"ce4bgm92rcd13ifvqbr0","pricing_plan_id":"free"},{"bike_id":"d84c61fc-7097-4d45-b419-07152ddc714d","system_id":"levelo_inurba_marseille","lat":43.29586,"lon":5.36751,"is_reserved":false,"is_disabled":false,"rental_uris":{"android":"levelo://app?vid=d84c61fc-7097-4d45-b419-07152ddc714d","ios":"levelo://app?vid=d84c61fc-7097-4d45-b419-07152ddc714d"},"vehicle_type_id":"4","last_reported":1698577483,"current_range_meters":5200,"station_id":"ce4bgph2rcd13ifvqc2g","pricing_plan_id":"free"},{"bike_id":"39fc75aa-07a4-405b-a064-c4ec98add06c","system_id":"levelo_inurba_marseille","lat":43.296129,"lon":5.370777,"is_reserved":false,"is_disabled":false,"rental_uris":{"android":"levelo://app?vid=39fc75aa-07a4-405b-a064-c4ec98add06c","ios":"levelo://app?vid=39fc75aa-07a4-405b-a064-c4ec98add06c"},"vehicle_type_id":"4","last_reported":1698577483,"current_range_meters":30800,"station_id":"ce4bgnh2rcd13ifvqc0g","pricing_plan_id":"free"},{"bike_id":"cc380f13-4b20-43b6-80b6-7b76f7b55df7","system_id":"levelo_inurba_marseille","lat":43.296129,"lon":5.370777,"is_reserved":false,"is_disabled":false,"rental_uris":{"android":"levelo://app?vid=cc380f13-4b20-43b6-80b6-7b76f7b55df7","ios":"levelo://app?vid=cc380f13-4b20-43b6-80b6-7b76f7b55df7"},"vehicle_type_id":"4","last_reported":1698577483,"current_range_meters":31200,"station_id":"ce4bgnh2rcd13ifvqc0g","pricing_plan_id":"free"},{"bike_id":"b820748d-c81c-4c8a-acb5-24ea055c0282","system_id":"levelo_inurba_marseille","lat":43.29573,"lon":5.367355,"is_reserved":false,"is_disabled":false,"rental_uris":{"android":"levelo://app?vid=b820748d-c81c-4c8a-acb5-24ea055c0282","ios":"levelo://app?vid=b820748d-c81c-4c8a-acb5-24ea055c0282"},"vehicle_type_id":"4","last_reported":1698577483,"current_range_meters":13600,"station_id":"ce4bgph2rcd13ifvqc2g","pricing_plan_id":"free"},{"bike_id":"c0f0d5e9-e584-45b0-a6b7-e87b10daee49","system_id":"levelo_inurba_marseille","lat":43.29573,"lon":5.367355,"is_reserved":false,"is_disabled":false,"rental_uris":{"android":"levelo://app?vid=c0f0d5e9-e584-45b0-a6b7-e87b10daee49","ios":"levelo://app?vid=c0f0d5e9-e584-45b0-a6b7-e87b10daee49"},"vehicle_type_id":"4","last_reported":1698577483,"current_range_meters":28000,"station_id":"ce4bgph2rcd13ifvqc2g","pricing_plan_id":"free"},{"bike_id":"1015bae6-9525-427c-ba6d-c0f923f2b093","system_id":"levelo_inurba_marseille","lat":43.29583,"lon":5.3674,"is_reserved":false,"is_disabled":false,"rental_uris":{"android":"levelo://app?vid=1015bae6-9525-427c-ba6d-c0f923f2b093","ios":"levelo://app?vid=1015bae6-9525-427c-ba6d-c0f923f2b093"},"vehicle_type_id":"4","last_reported":1698577483,"current_range_meters":21200,"station_id":"ce4bgph2rcd13ifvqc2g","pricing_plan_id":"free"},{"bike_id":"3fa84dce-f2a9-4b4b-b039-163a54db5875","system_id":"levelo_inurba_marseille","lat":43.29583,"lon":5.36744,"is_reserved":false,"is_disabled":false,"rental_uris":{"android":"levelo://app?vid=3fa84dce-f2a9-4b4b-b039-163a54db5875","ios":"levelo://app?vid=3fa84dce-f2a9-4b4b-b039-163a54db5875"},"vehicle_type_id":"4","last_reported":1698577483,"current_range_meters":22800,"station_id":"ce4bgph2rcd13ifvqc2g","pricing_plan_id":"free"},{"bike_id":"eb229402-418c-4091-8ee3-17abf395ed5a","system_id":"levelo_inurba_marseille","lat":43.295816,"lon":5.367426,"is_reserved":false,"is_disabled":false,"rental_uris":{"android":"levelo://app?vid=eb229402-418c-4091-8ee3-17abf395ed5a","ios":"levelo://app?vid=eb229402-418c-4091-8ee3-17abf395ed5a"},"vehicle_type_id":"4","last_reported":1698577483,"current_range_meters":25200,"station_id":"ce4bgph2rcd13ifvqc2g","pricing_plan_id":"free"},{"bike_id":"d23f3784-e68e-4e92-b534-9c5c66428c7a","system_id":"levelo_inurba_marseille","lat":43.29573,"lon":5.367355,"is_reserved":false,"is_disabled":false,"rental_uris":{"android":"levelo://app?vid=d23f3784-e68e-4e92-b534-9c5c66428c7a","ios":"levelo://app?vid=d23f3784-e68e-4e92-b534-9c5c66428c7a"},"vehicle_type_id":"4","last_reported":1698577483,"current_range_meters":24800,"station_id":"ce4bgph2rcd13ifvqc2g","pricing_plan_id":"free"},{"bike_id":"9f584dbc-40c9-456a-92d4-7f2e39111fcd","system_id":"levelo_inurba_marseille","lat":43.29581,"lon":5.36738,"is_reserved":false,"is_disabled":false,"rental_uris":{"android":"levelo://app?vid=9f584dbc-40c9-456a-92d4-7f2e39111fcd","ios":"levelo://app?vid=9f584dbc-40c9-456a-92d4-7f2e39111fcd"},"vehicle_type_id":"4","last_reported":1698577483,"current_range_meters":31200,"station_id":"ce4bgph2rcd13ifvqc2g","pricing_plan_id":"free"},{"bike_id":"b05c2506-26df-4f8f-88b1-be874dce894d","system_id":"levelo_inurba_marseille","lat":43.295808,"lon":5.367396,"is_reserved":false,"is_disabled":false,"rental_uris":{"android":"levelo://app?vid=b05c2506-26df-4f8f-88b1-be874dce894d","ios":"levelo://app?vid=b05c2506-26df-4f8f-88b1-be874dce894d"},"vehicle_type_id":"4","last_reported":1698577483,"current_range_meters":25600,"station_id":"ce4bgph2rcd13ifvqc2g","pricing_plan_id":"free"},{"bike_id":"5da5c749-5874-4f42-9916-b7c72b2e9d8c","system_id":"levelo_inurba_marseille","lat":43.29573,"lon":5.367355,"is_reserved":false,"is_disabled":false,"rental_uris":{"android":"levelo://app?vid=5da5c749-5874-4f42-9916-b7c72b2e9d8c","ios":"levelo://app?vid=5da5c749-5874-4f42-9916-b7c72b2e9d8c"},"vehicle_type_id":"4","last_reported":1698577483,"current_range_meters":25200,"station_id":"ce4bgph2rcd13ifvqc2g","pricing_plan_id":"free"},{"bike_id":"b8bf0b2b-fce8-4caa-9129-2991f95c76b6","system_id":"levelo_inurba_marseille","lat":43.29573,"lon":5.367355,"is_reserved":false,"is_disabled":false,"rental_uris":{"android":"levelo://app?vid=b8bf0b2b-fce8-4caa-9129-2991f95c76b6","ios":"levelo://app?vid=b8bf0b2b-fce8-4caa-9129-2991f95c76b6"},"vehicle_type_id":"4","last_reported":1698577483,"current_range_meters":25600,"station_id":"ce4bgph2rcd13ifvqc2g","pricing_plan_id":"free"},{"bike_id":"e7cee5f1-649c-49c9-b3d6-91f79055d7ff","system_id":"levelo_inurba_marseille","lat":43.295788,"lon":5.367397,"is_reserved":false,"is_disabled":false,"rental_uris":{"android":"levelo://app?vid=e7cee5f1-649c-49c9-b3d6-91f79055d7ff","ios":"levelo://app?vid=e7cee5f1-649c-49c9-b3d6-91f79055d7ff"},"vehicle_type_id":"4","last_reported":1698577483,"current_range_meters":11200,"station_id":"","pricing_plan_id":"free"},{"bike_id":"f3d0381f-7a2d-409e-a12f-bd3d9095653d","system_id":"levelo_inurba_marseille","lat":43.329673,"lon":5.365468,"is_reserved":false,"is_disabled":false,"rental_uris":{"android":"levelo://app?vid=f3d0381f-7a2d-409e-a12f-bd3d9095653d","ios":"levelo://app?vid=f3d0381f-7a2d-409e-a12f-bd3d9095653d"},"vehicle_type_id":"4","last_reported":1698577483,"current_range_meters":1600,"station_id":"","pricing_plan_id":"free"},{"bike_id":"21c7d586-a251-45c6-b4c4-9a49607eb34d","system_id":"levelo_inurba_marseille","lat":43.29573,"lon":5.367355,"is_reserved":false,"is_disabled":false,"rental_uris":{"android":"levelo://app?vid=21c7d586-a251-45c6-b4c4-9a49607eb34d","ios":"levelo://app?vid=21c7d586-a251-45c6-b4c4-9a49607eb34d"},"vehicle_type_id":"4","last_reported":1698577483,"current_range_meters":31200,"station_id":"ce4bgph2rcd13ifvqc2g","pricing_plan_id":"free"},{"bike_id":"8050b926-dbc0-4b1d-aeef-8a17455e2cc1","system_id":"levelo_inurba_marseille","lat":43.296935,"lon":5.376544,"is_reserved":false,"is_disabled":false,"rental_uris":{"android":"levelo://app?vid=8050b926-dbc0-4b1d-aeef-8a17455e2cc1","ios":"levelo://app?vid=8050b926-dbc0-4b1d-aeef-8a17455e2cc1"},"vehicle_type_id":"4","last_reported":1698577483,"current_range_meters":28000,"station_id":"ce4bgkh2rcd13ifvqbl0","pricing_plan_id":"free"},{"bike_id":"0ba1764c-64ad-4597-b4bc-a77041351e64","system_id":"levelo_inurba_marseille","lat":43.299028,"lon":5.381509,"is_reserved":false,"is_disabled":false,"rental_uris":{"android":"levelo://app?vid=0ba1764c-64ad-4597-b4bc-a77041351e64","ios":"levelo://app?vid=0ba1764c-64ad-4597-b4bc-a77041351e64"},"vehicle_type_id":"4","last_reported":1698577483,"current_range_meters":6800,"station_id":"ce4bgj12rcd13ifvqbc0","pricing_plan_id":"free"},{"bike_id":"83133e8b-8ff3-4c0c-b9d1-cd44ff9a57b0","system_id":"levelo_inurba_marseille","lat":43.309589,"lon":5.390258,"is_reserved":false,"is_disabled":false,"rental_uris":{"android":"levelo://app?vid=83133e8b-8ff3-4c0c-b9d1-cd44ff9a57b0","ios":"levelo://app?vid=83133e8b-8ff3-4c0c-b9d1-cd44ff9a57b0"},"vehicle_type_id":"4","last_reported":1698577483,"current_range_meters":30000,"station_id":"ce4bgup2rcd13ifvqco0","pricing_plan_id":"free"},{"bike_id":"179cb56e-b22b-45c5-a575-c623d0fb3daf","system_id":"levelo_inurba_marseille","lat":43.309589,"lon":5.390258,"is_reserved":false,"is_disabled":false,"rental_uris":{"android":"levelo://app?vid=179cb56e-b22b-45c5-a575-c623d0fb3daf","ios":"levelo://app?vid=179cb56e-b22b-45c5-a575-c623d0fb3daf"},"vehicle_type_id":"4","last_reported":1698577483,"current_range_meters":31200,"station_id":"ce4bgup2rcd13ifvqco0","pricing_plan_id":"free"},{"bike_id":"dbf1072e-955d-4a17-888b-f363b6f7d560","system_id":"levelo_inurba_marseille","lat":43.309589,"lon":5.390258,"is_reserved":false,"is_disabled":false,"rental_uris":{"android":"levelo://app?vid=dbf1072e-955d-4a17-888b-f363b6f7d560","ios":"levelo://app?vid=dbf1072e-955d-4a17-888b-f363b6f7d560"},"vehicle_type_id":"4","last_reported":1698577483,"current_range_meters":31200,"station_id":"ce4bgup2rcd13ifvqco0","pricing_plan_id":"free"},{"bike_id":"41d83fb9-2885-4686-8a9e-4246e9d0cfbb","system_id":"levelo_inurba_marseille","lat":43.309589,"lon":5.390258,"is_reserved":false,"is_disabled":false,"rental_uris":{"android":"levelo://app?vid=41d83fb9-2885-4686-8a9e-4246e9d0cfbb","ios":"levelo://app?vid=41d83fb9-2885-4686-8a9e-4246e9d0cfbb"},"vehicle_type_id":"4","last_reported":1698577483,"current_range_meters":31200,"station_id":"ce4bgup2rcd13ifvqco0","pricing_plan_id":"free"},{"bike_id":"32d50ea9-99df-4d25-a517-5a22ba19dd86","system_id":"levelo_inurba_marseille","lat":43.296825,"lon":5.376975,"is_reserved":false,"is_disabled":false,"rental_uris":{"android":"levelo://app?vid=32d50ea9-99df-4d25-a517-5a22ba19dd86","ios":"levelo://app?vid=32d50ea9-99df-4d25-a517-5a22ba19dd86"},"vehicle_type_id":"4","last_reported":1698577483,"current_range_meters":13200,"station_id":"ce4bgkh2rcd13ifvqbl0","pricing_plan_id":"free"},{"bike_id":"32edb40e-8715-4cfb-8398-8b752b380a87","system_id":"levelo_inurba_marseille","lat":43.296263,"lon":5.377094,"is_reserved":false,"is_disabled":false,"rental_uris":{"android":"levelo://app?vid=32edb40e-8715-4cfb-8398-8b752b380a87","ios":"levelo://app?vid=32edb40e-8715-4cfb-8398-8b752b380a87"},"vehicle_type_id":"4","last_reported":1698577483,"current_range_meters":2400,"station_id":"ce4bgi92rcd13ifvqb90","pricing_plan_id":"free"},{"bike_id":"6810602d-1184-4b9f-b66d-6bd5c7b2466a","system_id":"levelo_inurba_marseille","lat":43.295748,"lon":5.37522,"is_reserved":false,"is_disabled":false,"rental_uris":{"android":"levelo://app?vid=6810602d-1184-4b9f-b66d-6bd5c7b2466a","ios":"levelo://app?vid=6810602d-1184-4b9f-b66d-6bd5c7b2466a"},"vehicle_type_id":"4","last_reported":1698577483,"current_range_meters":31600,"station_id":"ce4bgh92rcd13ifvqb50","pricing_plan_id":"free"},{"bike_id":"db6e541d-1cad-4564-b4e8-fb9d9dbd4fb5","system_id":"levelo_inurba_marseille","lat":43.295279,"lon":5.375048,"is_reserved":false,"is_disabled":false,"rental_uris":{"android":"levelo://app?vid=db6e541d-1cad-4564-b4e8-fb9d9dbd4fb5","ios":"levelo://app?vid=db6e541d-1cad-4564-b4e8-fb9d9dbd4fb5"},"vehicle_type_id":"4","last_reported":1698577483,"current_range_meters":7600,"station_id":"ce4bgkp2rcd13ifvqbmg","pricing_plan_id":"free"},{"bike_id":"a6a0b979-278a-4f39-8fcc-72864d0975a6","system_id":"levelo_inurba_marseille","lat":43.295279,"lon":5.375048,"is_reserved":false,"is_disabled":false,"rental_uris":{"android":"levelo://app?vid=a6a0b979-278a-4f39-8fcc-72864d0975a6","ios":"levelo://app?vid=a6a0b979-278a-4f39-8fcc-72864d0975a6"},"vehicle_type_id":"4","last_reported":1698577483,"current_range_meters":30000,"station_id":"ce4bgkp2rcd13ifvqbmg","pricing_plan_id":"free"},{"bike_id":"05583766-7b3d-4079-beb1-357e501a41cb","system_id":"levelo_inurba_marseille","lat":43.29481,"lon":5.37453,"is_reserved":false,"is_disabled":false,"rental_uris":{"android":"levelo://app?vid=05583766-7b3d-4079-beb1-357e501a41cb","ios":"levelo://app?vid=05583766-7b3d-4079-beb1-357e501a41cb"},"vehicle_type_id":"4","last_reported":1698577483,"current_range_meters":27200,"station_id":"","pricing_plan_id":"free"},{"bike_id":"d141c61b-a06a-4ef3-8e71-8860dd7fe7f1","system_id":"levelo_inurba_marseille","lat":43.29602,"lon":5.381084,"is_reserved":false,"is_disabled":false,"rental_uris":{"android":"levelo://app?vid=d141c61b-a06a-4ef3-8e71-8860dd7fe7f1","ios":"levelo://app?vid=d141c61b-a06a-4ef3-8e71-8860dd7fe7f1"},"vehicle_type_id":"4","last_reported":1698577483,"current_range_meters":12000,"station_id":"ce4bgl12rcd13ifvqbo0","pricing_plan_id":"free"},{"bike_id":"70b2356d-d5fc-4c16-924e-bf942232445f","system_id":"levelo_inurba_marseille","lat":43.29602,"lon":5.381084,"is_reserved":false,"is_disabled":false,"rental_uris":{"android":"levelo://app?vid=70b2356d-d5fc-4c16-924e-bf942232445f","ios":"levelo://app?vid=70b2356d-d5fc-4c16-924e-bf942232445f"},"vehicle_type_id":"4","last_reported":1698577483,"current_range_meters":30400,"station_id":"ce4bgl12rcd13ifvqbo0","pricing_plan_id":"free"},{"bike_id":"9d07223c-099e-49db-aeb7-45fa24ce136c","system_id":"levelo_inurba_marseille","lat":43.293259,"lon":5.371586,"is_reserved":false,"is_disabled":false,"rental_uris":{"android":"levelo://app?vid=9d07223c-099e-49db-aeb7-45fa24ce136c","ios":"levelo://app?vid=9d07223c-099e-49db-aeb7-45fa24ce136c"},"vehicle_type_id":"4","last_reported":1698577483,"current_range_meters":18400,"station_id":"ce4bgh92rcd13ifvqb40","pricing_plan_id":"free"},{"bike_id":"54b7dd19-855e-4774-b03a-7abd2bcf7289","system_id":"levelo_inurba_marseille","lat":43.293259,"lon":5.371586,"is_reserved":false,"is_disabled":false,"rental_uris":{"android":"levelo://app?vid=54b7dd19-855e-4774-b03a-7abd2bcf7289","ios":"levelo://app?vid=54b7dd19-855e-4774-b03a-7abd2bcf7289"},"vehicle_type_id":"4","last_reported":1698577483,"current_range_meters":20400,"station_id":"ce4bgh92rcd13ifvqb40","pricing_plan_id":"free"},{"bike_id":"677b7c6a-93eb-43c2-966e-29d454ea84b0","system_id":"levelo_inurba_marseille","lat":43.29276,"lon":5.36842,"is_reserved":false,"is_disabled":false,"rental_uris":{"android":"levelo://app?vid=677b7c6a-93eb-43c2-966e-29d454ea84b0","ios":"levelo://app?vid=677b7c6a-93eb-43c2-966e-29d454ea84b0"},"vehicle_type_id":"4","last_reported":1698577483,"current_range_meters":4800,"station_id":"ce4bhbp2rcd13ifvqesg","pricing_plan_id":"free"},{"bike_id":"bf812456-6183-4bcc-a5aa-cb6f7c7878bb","system_id":"levelo_inurba_marseille","lat":43.29275,"lon":5.36847,"is_reserved":false,"is_disabled":false,"rental_uris":{"android":"levelo://app?vid=bf812456-6183-4bcc-a5aa-cb6f7c7878bb","ios":"levelo://app?vid=bf812456-6183-4bcc-a5aa-cb6f7c7878bb"},"vehicle_type_id":"4","last_reported":1698577483,"current_range_meters":26000,"station_id":"ce4bhbp2rcd13ifvqesg","pricing_plan_id":"free"},{"bike_id":"f4a49b78-27b0-4b14-a00b-2270cc2d27a6","system_id":"levelo_inurba_marseille","lat":43.29264,"lon":5.36713,"is_reserved":false,"is_disabled":false,"rental_uris":{"android":"levelo://app?vid=f4a49b78-27b0-4b14-a00b-2270cc2d27a6","ios":"levelo://app?vid=f4a49b78-27b0-4b14-a00b-2270cc2d27a6"},"vehicle_type_id":"4","last_reported":1698577483,"current_range_meters":24000,"station_id":"","pricing_plan_id":"free"},{"bike_id":"13541381-a278-43e0-8612-8f2f0ca7951f","system_id":"levelo_inurba_marseille","lat":43.29303,"lon":5.37452,"is_reserved":false,"is_disabled":false,"rental_uris":{"android":"levelo://app?vid=13541381-a278-43e0-8612-8f2f0ca7951f","ios":"levelo://app?vid=13541381-a278-43e0-8612-8f2f0ca7951f"},"vehicle_type_id":"4","last_reported":1698577483,"current_range_meters":0,"station_id":"ce4bgi12rcd13ifvqb70","pricing_plan_id":"free"},{"bike_id":"3177ff17-b928-4d98-ab13-e57d264c4f3e","system_id":"levelo_inurba_marseille","lat":43.305994,"lon":5.393687,"is_reserved":false,"is_disabled":false,"rental_uris":{"android":"levelo://app?vid=3177ff17-b928-4d98-ab13-e57d264c4f3e","ios":"levelo://app?vid=3177ff17-b928-4d98-ab13-e57d264c4f3e"},"vehicle_type_id":"4","last_reported":1698577483,"current_range_meters":18400,"station_id":"ce4bh0p2rcd13ifvqd80","pricing_plan_id":"free"},{"bike_id":"489cd98a-6503-4297-b146-619e19c64b59","system_id":"levelo_inurba_marseille","lat":43.2936,"lon":5.37835,"is_reserved":false,"is_disabled":false,"rental_uris":{"android":"levelo://app?vid=489cd98a-6503-4297-b146-619e19c64b59","ios":"levelo://app?vid=489cd98a-6503-4297-b146-619e19c64b59"},"vehicle_type_id":"4","last_reported":1698577483,"current_range_meters":2800,"station_id":"ce4bgjh2rcd13ifvqbf0","pricing_plan_id":"free"},{"bike_id":"44999510-e1a5-4c6b-93b9-e43c5fda730d","system_id":"levelo_inurba_marseille","lat":43.292311,"lon":5.360731,"is_reserved":false,"is_disabled":false,"rental_uris":{"android":"levelo://app?vid=44999510-e1a5-4c6b-93b9-e43c5fda730d","ios":"levelo://app?vid=44999510-e1a5-4c6b-93b9-e43c5fda730d"},"vehicle_type_id":"4","last_reported":1698577483,"current_range_meters":20800,"station_id":"ce4bhbh2rcd13ifvqeqg","pricing_plan_id":"free"},{"bike_id":"f237e52f-e6dd-43b4-99a7-d7a8075d3159","system_id":"levelo_inurba_marseille","lat":43.298764,"lon":5.388973,"is_reserved":false,"is_disabled":false,"rental_uris":{"android":"levelo://app?vid=f237e52f-e6dd-43b4-99a7-d7a8075d3159","ios":"levelo://app?vid=f237e52f-e6dd-43b4-99a7-d7a8075d3159"},"vehicle_type_id":"4","last_reported":1698577483,"current_range_meters":400,"station_id":"ce4bh392rcd13ifvqdl0","pricing_plan_id":"free"},{"bike_id":"6b1617fd-367a-4871-9a64-3ae75d555b8d","system_id":"levelo_inurba_marseille","lat":43.291675,"lon":5.371583,"is_reserved":false,"is_disabled":false,"rental_uris":{"android":"levelo://app?vid=6b1617fd-367a-4871-9a64-3ae75d555b8d","ios":"levelo://app?vid=6b1617fd-367a-4871-9a64-3ae75d555b8d"},"vehicle_type_id":"4","last_reported":1698577483,"current_range_meters":26800,"station_id":"ce4bha92rcd13ifvqeh0","pricing_plan_id":"free"},{"bike_id":"907d38e2-40cf-4512-a178-2b42896aac82","system_id":"levelo_inurba_marseille","lat":43.291675,"lon":5.371583,"is_reserved":false,"is_disabled":false,"rental_uris":{"android":"levelo://app?vid=907d38e2-40cf-4512-a178-2b42896aac82","ios":"levelo://app?vid=907d38e2-40cf-4512-a178-2b42896aac82"},"vehicle_type_id":"4","last_reported":1698577483,"current_range_meters":28000,"station_id":"ce4bha92rcd13ifvqeh0","pricing_plan_id":"free"},{"bike_id":"ff6f09f3-fe12-4e06-85df-c37623c4a944","system_id":"levelo_inurba_marseille","lat":43.29195,"lon":5.358,"is_reserved":false,"is_disabled":false,"rental_uris":{"android":"levelo://app?vid=ff6f09f3-fe12-4e06-85df-c37623c4a944","ios":"levelo://app?vid=ff6f09f3-fe12-4e06-85df-c37623c4a944"},"vehicle_type_id":"4","last_reported":1698577483,"current_range_meters":25600,"station_id":"ce4bhb12rcd13ifvqel0","pricing_plan_id":"free"},{"bike_id":"a1a026b7-cbb7-43a2-8615-1676af2ac453","system_id":"levelo_inurba_marseille","lat":43.31321,"lon":5.39693,"is_reserved":false,"is_disabled":false,"rental_uris":{"android":"levelo://app?vid=a1a026b7-cbb7-43a2-8615-1676af2ac453","ios":"levelo://app?vid=a1a026b7-cbb7-43a2-8615-1676af2ac453"},"vehicle_type_id":"4","last_reported":1698577483,"current_range_meters":18800,"station_id":"ce4bgvp2rcd13ifvqcu0","pricing_plan_id":"free"},{"bike_id":"aa5dd538-597d-4ce3-8004-e8fbd011baa3","system_id":"levelo_inurba_marseille","lat":43.313291,"lon":5.396838,"is_reserved":false,"is_disabled":false,"rental_uris":{"android":"levelo://app?vid=aa5dd538-597d-4ce3-8004-e8fbd011baa3","ios":"levelo://app?vid=aa5dd538-597d-4ce3-8004-e8fbd011baa3"},"vehicle_type_id":"4","last_reported":1698577483,"current_range_meters":24000,"station_id":"ce4bgvp2rcd13ifvqcu0","pricing_plan_id":"free"},{"bike_id":"014bdd4d-f6c1-4194-837d-b7db4d022ca5","system_id":"levelo_inurba_marseille","lat":43.290779,"lon":5.371482,"is_reserved":false,"is_disabled":false,"rental_uris":{"android":"levelo://app?vid=014bdd4d-f6c1-4194-837d-b7db4d022ca5","ios":"levelo://app?vid=014bdd4d-f6c1-4194-837d-b7db4d022ca5"},"vehicle_type_id":"4","last_reported":1698577483,"current_range_meters":0,"station_id":"ce4bh5p2rcd13ifvqe4g","pricing_plan_id":"free"},{"bike_id":"34098a02-de95-4e09-85d9-bf10d4e8714e","system_id":"levelo_inurba_marseille","lat":43.290779,"lon":5.371482,"is_reserved":false,"is_disabled":false,"rental_uris":{"android":"levelo://app?vid=34098a02-de95-4e09-85d9-bf10d4e8714e","ios":"levelo://app?vid=34098a02-de95-4e09-85d9-bf10d4e8714e"},"vehicle_type_id":"4","last_reported":1698577483,"current_range_meters":24800,"station_id":"ce4bh5p2rcd13ifvqe4g","pricing_plan_id":"free"},{"bike_id":"e62b22d2-fcbf-4896-9c32-20cd851e7a0a","system_id":"levelo_inurba_marseille","lat":43.290779,"lon":5.371482,"is_reserved":false,"is_disabled":false,"rental_uris":{"android":"levelo://app?vid=e62b22d2-fcbf-4896-9c32-20cd851e7a0a","ios":"levelo://app?vid=e62b22d2-fcbf-4896-9c32-20cd851e7a0a"},"vehicle_type_id":"4","last_reported":1698577483,"current_range_meters":31200,"station_id":"ce4bh5p2rcd13ifvqe4g","pricing_plan_id":"free"},{"bike_id":"a2ab41ef-7a60-4235-8e39-f7e3238b0a40","system_id":"levelo_inurba_marseille","lat":43.290779,"lon":5.371482,"is_reserved":false,"is_disabled":false,"rental_uris":{"android":"levelo://app?vid=a2ab41ef-7a60-4235-8e39-f7e3238b0a40","ios":"levelo://app?vid=a2ab41ef-7a60-4235-8e39-f7e3238b0a40"},"vehicle_type_id":"4","last_reported":1698577483,"current_range_meters":7200,"station_id":"ce4bh5p2rcd13ifvqe4g","pricing_plan_id":"free"},{"bike_id":"f0aed339-d3bc-4181-8453-a811f21bbdef","system_id":"levelo_inurba_marseille","lat":43.290779,"lon":5.371482,"is_reserved":false,"is_disabled":false,"rental_uris":{"android":"levelo://app?vid=f0aed339-d3bc-4181-8453-a811f21bbdef","ios":"levelo://app?vid=f0aed339-d3bc-4181-8453-a811f21bbdef"},"vehicle_type_id":"4","last_reported":1698577483,"current_range_meters":21600,"station_id":"ce4bh5p2rcd13ifvqe4g","pricing_plan_id":"free"},{"bike_id":"8e7f2f68-992c-4ec0-9da2-4028ec12d622","system_id":"levelo_inurba_marseille","lat":43.293009,"lon":5.374584,"is_reserved":false,"is_disabled":false,"rental_uris":{"android":"levelo://app?vid=8e7f2f68-992c-4ec0-9da2-4028ec12d622","ios":"levelo://app?vid=8e7f2f68-992c-4ec0-9da2-4028ec12d622"},"vehicle_type_id":"4","last_reported":1698577483,"current_range_meters":26400,"station_id":"ce4bgi12rcd13ifvqb70","pricing_plan_id":"free"},{"bike_id":"29fd4c70-f26b-490f-a8b7-79d917639319","system_id":"levelo_inurba_marseille","lat":43.302008,"lon":5.394694,"is_reserved":false,"is_disabled":false,"rental_uris":{"android":"levelo://app?vid=29fd4c70-f26b-490f-a8b7-79d917639319","ios":"levelo://app?vid=29fd4c70-f26b-490f-a8b7-79d917639319"},"vehicle_type_id":"4","last_reported":1698577483,"current_range_meters":20000,"station_id":"ce4bh0p2rcd13ifvqd70","pricing_plan_id":"free"},{"bike_id":"30e16557-8c77-4cd6-b6e4-7fc12da6ad2b","system_id":"levelo_inurba_marseille","lat":43.290624,"lon":5.359245,"is_reserved":false,"is_disabled":false,"rental_uris":{"android":"levelo://app?vid=30e16557-8c77-4cd6-b6e4-7fc12da6ad2b","ios":"levelo://app?vid=30e16557-8c77-4cd6-b6e4-7fc12da6ad2b"},"vehicle_type_id":"4","last_reported":1698577483,"current_range_meters":15600,"station_id":"ce4bha92rcd13ifvqeg0","pricing_plan_id":"free"},{"bike_id":"c561c5bd-11f0-401c-88c3-559092b52918","system_id":"levelo_inurba_marseille","lat":43.290327,"lon":5.375711,"is_reserved":false,"is_disabled":false,"rental_uris":{"android":"levelo://app?vid=c561c5bd-11f0-401c-88c3-559092b52918","ios":"levelo://app?vid=c561c5bd-11f0-401c-88c3-559092b52918"},"vehicle_type_id":"4","last_reported":1698577483,"current_range_meters":30400,"station_id":"ce4bh692rcd13ifvqe90","pricing_plan_id":"free"},{"bike_id":"b2175f14-ef5c-47a8-a7eb-f1a03d554f5e","system_id":"levelo_inurba_marseille","lat":43.289184,"lon":5.366408,"is_reserved":false,"is_disabled":false,"rental_uris":{"android":"levelo://app?vid=b2175f14-ef5c-47a8-a7eb-f1a03d554f5e","ios":"levelo://app?vid=b2175f14-ef5c-47a8-a7eb-f1a03d554f5e"},"vehicle_type_id":"4","last_reported":1698577483,"current_range_meters":21200,"station_id":"ce4bhap2rcd13ifvqek0","pricing_plan_id":"free"},{"bike_id":"eee87e67-a76f-40da-b38c-84793cf13d5d","system_id":"levelo_inurba_marseille","lat":43.289184,"lon":5.366408,"is_reserved":false,"is_disabled":false,"rental_uris":{"android":"levelo://app?vid=eee87e67-a76f-40da-b38c-84793cf13d5d","ios":"levelo://app?vid=eee87e67-a76f-40da-b38c-84793cf13d5d"},"vehicle_type_id":"4","last_reported":1698577483,"current_range_meters":29600,"station_id":"ce4bhap2rcd13ifvqek0","pricing_plan_id":"free"},{"bike_id":"19fd020e-428b-4370-966c-71f0c03c3517","system_id":"levelo_inurba_marseille","lat":43.289184,"lon":5.366408,"is_reserved":false,"is_disabled":false,"rental_uris":{"android":"levelo://app?vid=19fd020e-428b-4370-966c-71f0c03c3517","ios":"levelo://app?vid=19fd020e-428b-4370-966c-71f0c03c3517"},"vehicle_type_id":"4","last_reported":1698577483,"current_range_meters":26800,"station_id":"ce4bhap2rcd13ifvqek0","pricing_plan_id":"free"},{"bike_id":"5c6e0f49-4812-4e97-8b3b-844d2e918fbb","system_id":"levelo_inurba_marseille","lat":43.289184,"lon":5.366408,"is_reserved":false,"is_disabled":false,"rental_uris":{"android":"levelo://app?vid=5c6e0f49-4812-4e97-8b3b-844d2e918fbb","ios":"levelo://app?vid=5c6e0f49-4812-4e97-8b3b-844d2e918fbb"},"vehicle_type_id":"4","last_reported":1698577483,"current_range_meters":14800,"station_id":"ce4bhap2rcd13ifvqek0","pricing_plan_id":"free"},{"bike_id":"74fc5f39-3352-4cec-9352-33ed84d9d511","system_id":"levelo_inurba_marseille","lat":43.304274,"lon":5.397513,"is_reserved":false,"is_disabled":false,"rental_uris":{"android":"levelo://app?vid=74fc5f39-3352-4cec-9352-33ed84d9d511","ios":"levelo://app?vid=74fc5f39-3352-4cec-9352-33ed84d9d511"},"vehicle_type_id":"4","last_reported":1698577483,"current_range_meters":31200,"station_id":"ce4bh092rcd13ifvqd20","pricing_plan_id":"free"},{"bike_id":"af286a6d-d49b-4114-a047-9052cd19f331","system_id":"levelo_inurba_marseille","lat":43.297934,"lon":5.39353,"is_reserved":false,"is_disabled":false,"rental_uris":{"android":"levelo://app?vid=af286a6d-d49b-4114-a047-9052cd19f331","ios":"levelo://app?vid=af286a6d-d49b-4114-a047-9052cd19f331"},"vehicle_type_id":"4","last_reported":1698577483,"current_range_meters":0,"station_id":"chh1huq6cuj3fo74tm60","pricing_plan_id":"free"},{"bike_id":"ecb796ef-49e6-4742-a3e6-4d2bc94e68e7","system_id":"levelo_inurba_marseille","lat":43.290631,"lon":5.359244,"is_reserved":false,"is_disabled":false,"rental_uris":{"android":"levelo://app?vid=ecb796ef-49e6-4742-a3e6-4d2bc94e68e7","ios":"levelo://app?vid=ecb796ef-49e6-4742-a3e6-4d2bc94e68e7"},"vehicle_type_id":"4","last_reported":1698577483,"current_range_meters":29600,"station_id":"ce4bha92rcd13ifvqeg0","pricing_plan_id":"free"},{"bike_id":"62a7d599-8cf6-4d6f-bf0b-b286dc16fcd8","system_id":"levelo_inurba_marseille","lat":43.306387,"lon":5.400763,"is_reserved":false,"is_disabled":false,"rental_uris":{"android":"levelo://app?vid=62a7d599-8cf6-4d6f-bf0b-b286dc16fcd8","ios":"levelo://app?vid=62a7d599-8cf6-4d6f-bf0b-b286dc16fcd8"},"vehicle_type_id":"4","last_reported":1698577483,"current_range_meters":29600,"station_id":"ce4bh112rcd13ifvqda0","pricing_plan_id":"free"},{"bike_id":"50d86246-078d-46f4-92dc-6fdb1702fcc3","system_id":"levelo_inurba_marseille","lat":43.301117,"lon":5.398795,"is_reserved":false,"is_disabled":false,"rental_uris":{"android":"levelo://app?vid=50d86246-078d-46f4-92dc-6fdb1702fcc3","ios":"levelo://app?vid=50d86246-078d-46f4-92dc-6fdb1702fcc3"},"vehicle_type_id":"4","last_reported":1698577483,"current_range_meters":26800,"station_id":"ce4bh0h2rcd13ifvqd40","pricing_plan_id":"free"},{"bike_id":"40535e2e-ddae-4615-b614-5d4cfdea8514","system_id":"levelo_inurba_marseille","lat":43.301117,"lon":5.398795,"is_reserved":false,"is_disabled":false,"rental_uris":{"android":"levelo://app?vid=40535e2e-ddae-4615-b614-5d4cfdea8514","ios":"levelo://app?vid=40535e2e-ddae-4615-b614-5d4cfdea8514"},"vehicle_type_id":"4","last_reported":1698577483,"current_range_meters":22000,"station_id":"ce4bh0h2rcd13ifvqd40","pricing_plan_id":"free"},{"bike_id":"69040504-ed82-417b-bde3-1f8d0fa37301","system_id":"levelo_inurba_marseille","lat":43.301117,"lon":5.398795,"is_reserved":false,"is_disabled":false,"rental_uris":{"android":"levelo://app?vid=69040504-ed82-417b-bde3-1f8d0fa37301","ios":"levelo://app?vid=69040504-ed82-417b-bde3-1f8d0fa37301"},"vehicle_type_id":"4","last_reported":1698577483,"current_range_meters":26800,"station_id":"ce4bh0h2rcd13ifvqd40","pricing_plan_id":"free"},{"bike_id":"e60447fa-0137-4421-b2a4-feb0f48030d5","system_id":"levelo_inurba_marseille","lat":43.30126,"lon":5.39862,"is_reserved":false,"is_disabled":false,"rental_uris":{"android":"levelo://app?vid=e60447fa-0137-4421-b2a4-feb0f48030d5","ios":"levelo://app?vid=e60447fa-0137-4421-b2a4-feb0f48030d5"},"vehicle_type_id":"4","last_reported":1698577483,"current_range_meters":16000,"station_id":"ce4bh0h2rcd13ifvqd40","pricing_plan_id":"free"},{"bike_id":"9c25b118-3a2e-4a0e-abe8-38854c18e0b3","system_id":"levelo_inurba_marseille","lat":43.295196,"lon":5.39397,"is_reserved":false,"is_disabled":false,"rental_uris":{"android":"levelo://app?vid=9c25b118-3a2e-4a0e-abe8-38854c18e0b3","ios":"levelo://app?vid=9c25b118-3a2e-4a0e-abe8-38854c18e0b3"},"vehicle_type_id":"4","last_reported":1698577483,"current_range_meters":31200,"station_id":"ce4bh292rcd13ifvqdf0","pricing_plan_id":"free"},{"bike_id":"53311aad-70e9-47dd-a3b3-f35db90aafb2","system_id":"levelo_inurba_marseille","lat":43.290314,"lon":5.386367,"is_reserved":false,"is_disabled":false,"rental_uris":{"android":"levelo://app?vid=53311aad-70e9-47dd-a3b3-f35db90aafb2","ios":"levelo://app?vid=53311aad-70e9-47dd-a3b3-f35db90aafb2"},"vehicle_type_id":"4","last_reported":1698577483,"current_range_meters":0,"station_id":"","pricing_plan_id":"free"},{"bike_id":"5d3aac6a-93ba-4af5-93d3-2cffb6233bbd","system_id":"levelo_inurba_marseille","lat":43.302759,"lon":5.400793,"is_reserved":false,"is_disabled":false,"rental_uris":{"android":"levelo://app?vid=5d3aac6a-93ba-4af5-93d3-2cffb6233bbd","ios":"levelo://app?vid=5d3aac6a-93ba-4af5-93d3-2cffb6233bbd"},"vehicle_type_id":"4","last_reported":1698577483,"current_range_meters":17200,"station_id":"ce4bgvh2rcd13ifvqcs0","pricing_plan_id":"free"},{"bike_id":"9193e161-d271-4c9a-9704-feea0daa0b6d","system_id":"levelo_inurba_marseille","lat":43.302759,"lon":5.400793,"is_reserved":false,"is_disabled":false,"rental_uris":{"android":"levelo://app?vid=9193e161-d271-4c9a-9704-feea0daa0b6d","ios":"levelo://app?vid=9193e161-d271-4c9a-9704-feea0daa0b6d"},"vehicle_type_id":"4","last_reported":1698577483,"current_range_meters":31200,"station_id":"ce4bgvh2rcd13ifvqcs0","pricing_plan_id":"free"},{"bike_id":"2db0f29c-3a51-445b-8bbc-abb654fec305","system_id":"levelo_inurba_marseille","lat":43.302759,"lon":5.400793,"is_reserved":false,"is_disabled":false,"rental_uris":{"android":"levelo://app?vid=2db0f29c-3a51-445b-8bbc-abb654fec305","ios":"levelo://app?vid=2db0f29c-3a51-445b-8bbc-abb654fec305"},"vehicle_type_id":"4","last_reported":1698577483,"current_range_meters":18800,"station_id":"ce4bgvh2rcd13ifvqcs0","pricing_plan_id":"free"},{"bike_id":"8e80d87d-8554-431b-b75b-a745f24ab169","system_id":"levelo_inurba_marseille","lat":43.28917,"lon":5.38396,"is_reserved":false,"is_disabled":false,"rental_uris":{"android":"levelo://app?vid=8e80d87d-8554-431b-b75b-a745f24ab169","ios":"levelo://app?vid=8e80d87d-8554-431b-b75b-a745f24ab169"},"vehicle_type_id":"4","last_reported":1698577483,"current_range_meters":2000,"station_id":"ce4bh612rcd13ifvqe6g","pricing_plan_id":"free"},{"bike_id":"8a69f2c3-0653-4b68-8404-2c423d9be164","system_id":"levelo_inurba_marseille","lat":43.286039,"lon":5.370679,"is_reserved":false,"is_disabled":false,"rental_uris":{"android":"levelo://app?vid=8a69f2c3-0653-4b68-8404-2c423d9be164","ios":"levelo://app?vid=8a69f2c3-0653-4b68-8404-2c423d9be164"},"vehicle_type_id":"4","last_reported":1698577483,"current_range_meters":14000,"station_id":"ce4bht12rcd13ifvqi60","pricing_plan_id":"free"},{"bike_id":"fbdcb1e0-46a7-4e62-8cdf-476d91af7452","system_id":"levelo_inurba_marseille","lat":43.28612,"lon":5.37066,"is_reserved":false,"is_disabled":false,"rental_uris":{"android":"levelo://app?vid=fbdcb1e0-46a7-4e62-8cdf-476d91af7452","ios":"levelo://app?vid=fbdcb1e0-46a7-4e62-8cdf-476d91af7452"},"vehicle_type_id":"4","last_reported":1698577483,"current_range_meters":10400,"station_id":"ce4bht12rcd13ifvqi60","pricing_plan_id":"free"},{"bike_id":"785ad611-eb0a-402e-bb59-28f3876be56b","system_id":"levelo_inurba_marseille","lat":43.292644,"lon":5.384257,"is_reserved":false,"is_disabled":false,"rental_uris":{"android":"levelo://app?vid=785ad611-eb0a-402e-bb59-28f3876be56b","ios":"levelo://app?vid=785ad611-eb0a-402e-bb59-28f3876be56b"},"vehicle_type_id":"4","last_reported":1698577483,"current_range_meters":30400,"station_id":"ce4bh692rcd13ifvqea0","pricing_plan_id":"free"},{"bike_id":"e60ace8e-9c8a-4bc5-b325-151690854f44","system_id":"levelo_inurba_marseille","lat":43.291994,"lon":5.392907,"is_reserved":false,"is_disabled":false,"rental_uris":{"android":"levelo://app?vid=e60ace8e-9c8a-4bc5-b325-151690854f44","ios":"levelo://app?vid=e60ace8e-9c8a-4bc5-b325-151690854f44"},"vehicle_type_id":"4","last_reported":1698577483,"current_range_meters":28400,"station_id":"ce4bh192rcd13ifvqdd0","pricing_plan_id":"free"},{"bike_id":"6291c325-633b-45a2-ae60-9be3991004a2","system_id":"levelo_inurba_marseille","lat":43.28619,"lon":5.35104,"is_reserved":false,"is_disabled":false,"rental_uris":{"android":"levelo://app?vid=6291c325-633b-45a2-ae60-9be3991004a2","ios":"levelo://app?vid=6291c325-633b-45a2-ae60-9be3991004a2"},"vehicle_type_id":"4","last_reported":1698577483,"current_range_meters":13200,"station_id":"ce4bhch2rcd13ifvqeug","pricing_plan_id":"free"},{"bike_id":"221223a7-d328-4e18-a83a-462ac224d99f","system_id":"levelo_inurba_marseille","lat":43.284305,"lon":5.358007,"is_reserved":false,"is_disabled":false,"rental_uris":{"android":"levelo://app?vid=221223a7-d328-4e18-a83a-462ac224d99f","ios":"levelo://app?vid=221223a7-d328-4e18-a83a-462ac224d99f"},"vehicle_type_id":"4","last_reported":1698577483,"current_range_meters":3200,"station_id":"","pricing_plan_id":"free"},{"bike_id":"851bb45b-b6dd-4655-8b09-84f0e9094739","system_id":"levelo_inurba_marseille","lat":43.283998,"lon":5.375062,"is_reserved":false,"is_disabled":false,"rental_uris":{"android":"levelo://app?vid=851bb45b-b6dd-4655-8b09-84f0e9094739","ios":"levelo://app?vid=851bb45b-b6dd-4655-8b09-84f0e9094739"},"vehicle_type_id":"4","last_reported":1698577483,"current_range_meters":0,"station_id":"ce4bh412rcd13ifvqds0","pricing_plan_id":"free"},{"bike_id":"00215d60-b573-41be-bb73-1d890044c0f1","system_id":"levelo_inurba_marseille","lat":43.283998,"lon":5.375062,"is_reserved":false,"is_disabled":false,"rental_uris":{"android":"levelo://app?vid=00215d60-b573-41be-bb73-1d890044c0f1","ios":"levelo://app?vid=00215d60-b573-41be-bb73-1d890044c0f1"},"vehicle_type_id":"4","last_reported":1698577483,"current_range_meters":26800,"station_id":"ce4bh412rcd13ifvqds0","pricing_plan_id":"free"},{"bike_id":"e63faddb-36e9-4766-848b-48facdebb1fb","system_id":"levelo_inurba_marseille","lat":43.304296,"lon":5.397513,"is_reserved":false,"is_disabled":false,"rental_uris":{"android":"levelo://app?vid=e63faddb-36e9-4766-848b-48facdebb1fb","ios":"levelo://app?vid=e63faddb-36e9-4766-848b-48facdebb1fb"},"vehicle_type_id":"4","last_reported":1698577483,"current_range_meters":16400,"station_id":"ce4bh092rcd13ifvqd20","pricing_plan_id":"free"},{"bike_id":"227db963-5bac-4d92-a870-48d9877ad385","system_id":"levelo_inurba_marseille","lat":43.283998,"lon":5.375062,"is_reserved":false,"is_disabled":false,"rental_uris":{"android":"levelo://app?vid=227db963-5bac-4d92-a870-48d9877ad385","ios":"levelo://app?vid=227db963-5bac-4d92-a870-48d9877ad385"},"vehicle_type_id":"4","last_reported":1698577483,"current_range_meters":5600,"station_id":"ce4bh412rcd13ifvqds0","pricing_plan_id":"free"},{"bike_id":"15bdef24-340e-4fcc-8b69-a97001c44759","system_id":"levelo_inurba_marseille","lat":43.33717,"lon":5.391857,"is_reserved":false,"is_disabled":false,"rental_uris":{"android":"levelo://app?vid=15bdef24-340e-4fcc-8b69-a97001c44759","ios":"levelo://app?vid=15bdef24-340e-4fcc-8b69-a97001c44759"},"vehicle_type_id":"4","last_reported":1698577483,"current_range_meters":31200,"station_id":"ce4bhr92rcd13ifvqhsg","pricing_plan_id":"free"},{"bike_id":"2f666bbb-190f-4291-ade2-95e2c0cfd815","system_id":"levelo_inurba_marseille","lat":43.325281,"lon":5.405683,"is_reserved":false,"is_disabled":false,"rental_uris":{"android":"levelo://app?vid=2f666bbb-190f-4291-ade2-95e2c0cfd815","ios":"levelo://app?vid=2f666bbb-190f-4291-ade2-95e2c0cfd815"},"vehicle_type_id":"4","last_reported":1698577483,"current_range_meters":14400,"station_id":"","pricing_plan_id":"free"},{"bike_id":"230fa684-ab65-44e3-83d4-a2f0945e526f","system_id":"levelo_inurba_marseille","lat":43.284219,"lon":5.3497,"is_reserved":false,"is_disabled":false,"rental_uris":{"android":"levelo://app?vid=230fa684-ab65-44e3-83d4-a2f0945e526f","ios":"levelo://app?vid=230fa684-ab65-44e3-83d4-a2f0945e526f"},"vehicle_type_id":"4","last_reported":1698577483,"current_range_meters":22800,"station_id":"ce4bhbh2rcd13ifvqepg","pricing_plan_id":"free"},{"bike_id":"659dae1d-7827-4619-8e9b-901fc054b299","system_id":"levelo_inurba_marseille","lat":43.28425,"lon":5.384637,"is_reserved":false,"is_disabled":false,"rental_uris":{"android":"levelo://app?vid=659dae1d-7827-4619-8e9b-901fc054b299","ios":"levelo://app?vid=659dae1d-7827-4619-8e9b-901fc054b299"},"vehicle_type_id":"4","last_reported":1698577483,"current_range_meters":0,"station_id":"","pricing_plan_id":"free"},{"bike_id":"b06468f1-01da-4256-836b-25156c5baeb1","system_id":"levelo_inurba_marseille","lat":43.282754,"lon":5.350519,"is_reserved":false,"is_disabled":false,"rental_uris":{"android":"levelo://app?vid=b06468f1-01da-4256-836b-25156c5baeb1","ios":"levelo://app?vid=b06468f1-01da-4256-836b-25156c5baeb1"},"vehicle_type_id":"4","last_reported":1698577483,"current_range_meters":3200,"station_id":"ce4bhbp2rcd13ifvqerg","pricing_plan_id":"free"},{"bike_id":"edf0d2d0-2184-4b89-b9d8-78f044aec72a","system_id":"levelo_inurba_marseille","lat":43.28039,"lon":5.369297,"is_reserved":false,"is_disabled":false,"rental_uris":{"android":"levelo://app?vid=edf0d2d0-2184-4b89-b9d8-78f044aec72a","ios":"levelo://app?vid=edf0d2d0-2184-4b89-b9d8-78f044aec72a"},"vehicle_type_id":"4","last_reported":1698577483,"current_range_meters":800,"station_id":"ce4bha12rcd13ifvqef0","pricing_plan_id":"free"},{"bike_id":"2b28dc96-718d-4800-bb45-d33624140ef1","system_id":"levelo_inurba_marseille","lat":43.28039,"lon":5.369297,"is_reserved":false,"is_disabled":false,"rental_uris":{"android":"levelo://app?vid=2b28dc96-718d-4800-bb45-d33624140ef1","ios":"levelo://app?vid=2b28dc96-718d-4800-bb45-d33624140ef1"},"vehicle_type_id":"4","last_reported":1698577483,"current_range_meters":17200,"station_id":"ce4bha12rcd13ifvqef0","pricing_plan_id":"free"},{"bike_id":"943be2ed-ffcf-447a-a2ee-46cc0653a8e2","system_id":"levelo_inurba_marseille","lat":43.28039,"lon":5.369297,"is_reserved":false,"is_disabled":false,"rental_uris":{"android":"levelo://app?vid=943be2ed-ffcf-447a-a2ee-46cc0653a8e2","ios":"levelo://app?vid=943be2ed-ffcf-447a-a2ee-46cc0653a8e2"},"vehicle_type_id":"4","last_reported":1698577483,"current_range_meters":27600,"station_id":"ce4bha12rcd13ifvqef0","pricing_plan_id":"free"},{"bike_id":"baf08f1f-18c6-4ffa-a2d8-76603d8e58ec","system_id":"levelo_inurba_marseille","lat":43.28039,"lon":5.369297,"is_reserved":false,"is_disabled":false,"rental_uris":{"android":"levelo://app?vid=baf08f1f-18c6-4ffa-a2d8-76603d8e58ec","ios":"levelo://app?vid=baf08f1f-18c6-4ffa-a2d8-76603d8e58ec"},"vehicle_type_id":"4","last_reported":1698577483,"current_range_meters":5200,"station_id":"ce4bha12rcd13ifvqef0","pricing_plan_id":"free"},{"bike_id":"1ca242fe-6084-4f9b-8b54-35d465872844","system_id":"levelo_inurba_marseille","lat":43.29041,"lon":5.399634,"is_reserved":false,"is_disabled":false,"rental_uris":{"android":"levelo://app?vid=1ca242fe-6084-4f9b-8b54-35d465872844","ios":"levelo://app?vid=1ca242fe-6084-4f9b-8b54-35d465872844"},"vehicle_type_id":"4","last_reported":1698577483,"current_range_meters":20800,"station_id":"ce4bh392rcd13ifvqdm0","pricing_plan_id":"free"},{"bike_id":"d445e7dc-8f39-4198-8d15-1838ad42556e","system_id":"levelo_inurba_marseille","lat":43.296263,"lon":5.40601,"is_reserved":false,"is_disabled":false,"rental_uris":{"android":"levelo://app?vid=d445e7dc-8f39-4198-8d15-1838ad42556e","ios":"levelo://app?vid=d445e7dc-8f39-4198-8d15-1838ad42556e"},"vehicle_type_id":"4","last_reported":1698577483,"current_range_meters":18800,"station_id":"ce4bh0h2rcd13ifvqd60","pricing_plan_id":"free"},{"bike_id":"2ff4290a-953b-40dc-9c7e-2436150f81c2","system_id":"levelo_inurba_marseille","lat":43.281466,"lon":5.383448,"is_reserved":false,"is_disabled":false,"rental_uris":{"android":"levelo://app?vid=2ff4290a-953b-40dc-9c7e-2436150f81c2","ios":"levelo://app?vid=2ff4290a-953b-40dc-9c7e-2436150f81c2"},"vehicle_type_id":"4","last_reported":1698577483,"current_range_meters":5200,"station_id":"","pricing_plan_id":"free"},{"bike_id":"5efb7de0-d861-4b17-8f75-89108e714dbc","system_id":"levelo_inurba_marseille","lat":43.326605,"lon":5.409903,"is_reserved":false,"is_disabled":false,"rental_uris":{"android":"levelo://app?vid=5efb7de0-d861-4b17-8f75-89108e714dbc","ios":"levelo://app?vid=5efb7de0-d861-4b17-8f75-89108e714dbc"},"vehicle_type_id":"4","last_reported":1698577483,"current_range_meters":12400,"station_id":"ce4bhpp2rcd13ifvqhgg","pricing_plan_id":"free"},{"bike_id":"d142e3bf-e3dc-4c11-a5b6-3e698dbca7e0","system_id":"levelo_inurba_marseille","lat":43.320045,"lon":5.415046,"is_reserved":false,"is_disabled":false,"rental_uris":{"android":"levelo://app?vid=d142e3bf-e3dc-4c11-a5b6-3e698dbca7e0","ios":"levelo://app?vid=d142e3bf-e3dc-4c11-a5b6-3e698dbca7e0"},"vehicle_type_id":"4","last_reported":1698577483,"current_range_meters":31200,"station_id":"ce4bhq92rcd13ifvqhkg","pricing_plan_id":"free"},{"bike_id":"4684ad78-e64f-48c1-9158-4f0627dddf6f","system_id":"levelo_inurba_marseille","lat":43.320045,"lon":5.415046,"is_reserved":false,"is_disabled":false,"rental_uris":{"android":"levelo://app?vid=4684ad78-e64f-48c1-9158-4f0627dddf6f","ios":"levelo://app?vid=4684ad78-e64f-48c1-9158-4f0627dddf6f"},"vehicle_type_id":"4","last_reported":1698577483,"current_range_meters":28000,"station_id":"ce4bhq92rcd13ifvqhkg","pricing_plan_id":"free"},{"bike_id":"8f9ed31c-c20e-4868-bbf5-f0e2a1d0580f","system_id":"levelo_inurba_marseille","lat":43.320045,"lon":5.415048,"is_reserved":false,"is_disabled":false,"rental_uris":{"android":"levelo://app?vid=8f9ed31c-c20e-4868-bbf5-f0e2a1d0580f","ios":"levelo://app?vid=8f9ed31c-c20e-4868-bbf5-f0e2a1d0580f"},"vehicle_type_id":"4","last_reported":1698577483,"current_range_meters":22000,"station_id":"ce4bhq92rcd13ifvqhkg","pricing_plan_id":"free"},{"bike_id":"e3d2c9cc-c6f9-4236-b083-c2c335dc163e","system_id":"levelo_inurba_marseille","lat":43.299579,"lon":5.413255,"is_reserved":false,"is_disabled":false,"rental_uris":{"android":"levelo://app?vid=e3d2c9cc-c6f9-4236-b083-c2c335dc163e","ios":"levelo://app?vid=e3d2c9cc-c6f9-4236-b083-c2c335dc163e"},"vehicle_type_id":"4","last_reported":1698577483,"current_range_meters":3200,"station_id":"ce4bhp12rcd13ifvqh9g","pricing_plan_id":"free"},{"bike_id":"0f984dbb-f791-497a-82c4-fc701d13f517","system_id":"levelo_inurba_marseille","lat":43.320045,"lon":5.415048,"is_reserved":false,"is_disabled":false,"rental_uris":{"android":"levelo://app?vid=0f984dbb-f791-497a-82c4-fc701d13f517","ios":"levelo://app?vid=0f984dbb-f791-497a-82c4-fc701d13f517"},"vehicle_type_id":"4","last_reported":1698577483,"current_range_meters":31600,"station_id":"ce4bhq92rcd13ifvqhkg","pricing_plan_id":"free"},{"bike_id":"827ec881-dda3-4244-bf59-0a69d8902f59","system_id":"levelo_inurba_marseille","lat":43.320045,"lon":5.415046,"is_reserved":false,"is_disabled":false,"rental_uris":{"android":"levelo://app?vid=827ec881-dda3-4244-bf59-0a69d8902f59","ios":"levelo://app?vid=827ec881-dda3-4244-bf59-0a69d8902f59"},"vehicle_type_id":"4","last_reported":1698577483,"current_range_meters":26800,"station_id":"ce4bhq92rcd13ifvqhkg","pricing_plan_id":"free"},{"bike_id":"063aab5d-df81-449d-aacd-9053f0eb8bd4","system_id":"levelo_inurba_marseille","lat":43.32033,"lon":5.4157,"is_reserved":false,"is_disabled":false,"rental_uris":{"android":"levelo://app?vid=063aab5d-df81-449d-aacd-9053f0eb8bd4","ios":"levelo://app?vid=063aab5d-df81-449d-aacd-9053f0eb8bd4"},"vehicle_type_id":"4","last_reported":1698577483,"current_range_meters":18800,"station_id":"ce4bhq92rcd13ifvqhkg","pricing_plan_id":"free"},{"bike_id":"d65bc010-cc59-4faa-acd4-123f21edce47","system_id":"levelo_inurba_marseille","lat":43.27613,"lon":5.36106,"is_reserved":false,"is_disabled":false,"rental_uris":{"android":"levelo://app?vid=d65bc010-cc59-4faa-acd4-123f21edce47","ios":"levelo://app?vid=d65bc010-cc59-4faa-acd4-123f21edce47"},"vehicle_type_id":"4","last_reported":1698577483,"current_range_meters":0,"station_id":"ce4bgj92rcd13ifvqbe0","pricing_plan_id":"free"},{"bike_id":"ab441268-3e03-4104-94cc-7705d60c6788","system_id":"levelo_inurba_marseille","lat":43.347892,"lon":5.348552,"is_reserved":false,"is_disabled":false,"rental_uris":{"android":"levelo://app?vid=ab441268-3e03-4104-94cc-7705d60c6788","ios":"levelo://app?vid=ab441268-3e03-4104-94cc-7705d60c6788"},"vehicle_type_id":"4","last_reported":1698577483,"current_range_meters":16000,"station_id":"","pricing_plan_id":"free"},{"bike_id":"cbac91d6-43c6-4f3c-8ea7-3f9855f7c528","system_id":"levelo_inurba_marseille","lat":43.280784,"lon":5.396622,"is_reserved":false,"is_disabled":false,"rental_uris":{"android":"levelo://app?vid=cbac91d6-43c6-4f3c-8ea7-3f9855f7c528","ios":"levelo://app?vid=cbac91d6-43c6-4f3c-8ea7-3f9855f7c528"},"vehicle_type_id":"4","last_reported":1698577483,"current_range_meters":21200,"station_id":"ce4bho12rcd13ifvqh2g","pricing_plan_id":"free"},{"bike_id":"ae99cb89-8c50-4444-a870-c8b3c8313b29","system_id":"levelo_inurba_marseille","lat":43.280784,"lon":5.396622,"is_reserved":false,"is_disabled":false,"rental_uris":{"android":"levelo://app?vid=ae99cb89-8c50-4444-a870-c8b3c8313b29","ios":"levelo://app?vid=ae99cb89-8c50-4444-a870-c8b3c8313b29"},"vehicle_type_id":"4","last_reported":1698577483,"current_range_meters":28800,"station_id":"ce4bho12rcd13ifvqh2g","pricing_plan_id":"free"},{"bike_id":"effde79e-e5f7-4565-a113-daa8e552a83e","system_id":"levelo_inurba_marseille","lat":43.303837,"lon":5.418724,"is_reserved":false,"is_disabled":false,"rental_uris":{"android":"levelo://app?vid=effde79e-e5f7-4565-a113-daa8e552a83e","ios":"levelo://app?vid=effde79e-e5f7-4565-a113-daa8e552a83e"},"vehicle_type_id":"4","last_reported":1698577483,"current_range_meters":27600,"station_id":"ce4bhop2rcd13ifvqh7g","pricing_plan_id":"free"},{"bike_id":"7cc60f39-59a4-489e-8073-4218dd76f0fd","system_id":"levelo_inurba_marseille","lat":43.278399,"lon":5.392139,"is_reserved":false,"is_disabled":false,"rental_uris":{"android":"levelo://app?vid=7cc60f39-59a4-489e-8073-4218dd76f0fd","ios":"levelo://app?vid=7cc60f39-59a4-489e-8073-4218dd76f0fd"},"vehicle_type_id":"4","last_reported":1698577483,"current_range_meters":10400,"station_id":"ce4bhjp2rcd13ifvqga0","pricing_plan_id":"free"},{"bike_id":"8fe6fcc9-4634-4d5f-b953-a9eae0a33beb","system_id":"levelo_inurba_marseille","lat":43.273613,"lon":5.362705,"is_reserved":false,"is_disabled":false,"rental_uris":{"android":"levelo://app?vid=8fe6fcc9-4634-4d5f-b953-a9eae0a33beb","ios":"levelo://app?vid=8fe6fcc9-4634-4d5f-b953-a9eae0a33beb"},"vehicle_type_id":"4","last_reported":1698577483,"current_range_meters":16000,"station_id":"ce4bhbh2rcd13ifvqeo0","pricing_plan_id":"free"},{"bike_id":"9cac4dac-5b56-422e-beb2-6e41a4df125a","system_id":"levelo_inurba_marseille","lat":43.27377,"lon":5.36251,"is_reserved":false,"is_disabled":false,"rental_uris":{"android":"levelo://app?vid=9cac4dac-5b56-422e-beb2-6e41a4df125a","ios":"levelo://app?vid=9cac4dac-5b56-422e-beb2-6e41a4df125a"},"vehicle_type_id":"4","last_reported":1698577483,"current_range_meters":31200,"station_id":"ce4bhbh2rcd13ifvqeo0","pricing_plan_id":"free"},{"bike_id":"3a1a0e80-ca41-4673-8326-26552cfa2130","system_id":"levelo_inurba_marseille","lat":43.273613,"lon":5.362705,"is_reserved":false,"is_disabled":false,"rental_uris":{"android":"levelo://app?vid=3a1a0e80-ca41-4673-8326-26552cfa2130","ios":"levelo://app?vid=3a1a0e80-ca41-4673-8326-26552cfa2130"},"vehicle_type_id":"4","last_reported":1698577483,"current_range_meters":0,"station_id":"ce4bhbh2rcd13ifvqeo0","pricing_plan_id":"free"},{"bike_id":"0c22e4b1-bcdd-41d6-9a71-f30f93eabbc5","system_id":"levelo_inurba_marseille","lat":43.276771,"lon":5.388799,"is_reserved":false,"is_disabled":false,"rental_uris":{"android":"levelo://app?vid=0c22e4b1-bcdd-41d6-9a71-f30f93eabbc5","ios":"levelo://app?vid=0c22e4b1-bcdd-41d6-9a71-f30f93eabbc5"},"vehicle_type_id":"4","last_reported":1698577483,"current_range_meters":19600,"station_id":"ce4bhi12rcd13ifvqfo0","pricing_plan_id":"free"},{"bike_id":"01b14aaf-b7fc-41e8-b11c-f5f9ba41824f","system_id":"levelo_inurba_marseille","lat":43.275293,"lon":5.385795,"is_reserved":false,"is_disabled":false,"rental_uris":{"android":"levelo://app?vid=01b14aaf-b7fc-41e8-b11c-f5f9ba41824f","ios":"levelo://app?vid=01b14aaf-b7fc-41e8-b11c-f5f9ba41824f"},"vehicle_type_id":"4","last_reported":1698577483,"current_range_meters":6400,"station_id":"","pricing_plan_id":"free"},{"bike_id":"b551e140-c728-4830-8633-76944f446eec","system_id":"levelo_inurba_marseille","lat":43.27998,"lon":5.40013,"is_reserved":false,"is_disabled":false,"rental_uris":{"android":"levelo://app?vid=b551e140-c728-4830-8633-76944f446eec","ios":"levelo://app?vid=b551e140-c728-4830-8633-76944f446eec"},"vehicle_type_id":"4","last_reported":1698577483,"current_range_meters":1200,"station_id":"ce4bho92rcd13ifvqh4g","pricing_plan_id":"free"},{"bike_id":"e64ec2c4-5126-435b-ac80-9840575e2e21","system_id":"levelo_inurba_marseille","lat":43.279952,"lon":5.400085,"is_reserved":false,"is_disabled":false,"rental_uris":{"android":"levelo://app?vid=e64ec2c4-5126-435b-ac80-9840575e2e21","ios":"levelo://app?vid=e64ec2c4-5126-435b-ac80-9840575e2e21"},"vehicle_type_id":"4","last_reported":1698577483,"current_range_meters":2800,"station_id":"ce4bho92rcd13ifvqh4g","pricing_plan_id":"free"},{"bike_id":"69af5f81-4e43-4e05-8090-98f54655cd52","system_id":"levelo_inurba_marseille","lat":43.310785,"lon":5.424305,"is_reserved":false,"is_disabled":false,"rental_uris":{"android":"levelo://app?vid=69af5f81-4e43-4e05-8090-98f54655cd52","ios":"levelo://app?vid=69af5f81-4e43-4e05-8090-98f54655cd52"},"vehicle_type_id":"4","last_reported":1698577483,"current_range_meters":32000,"station_id":"ce4bhp92rcd13ifvqhag","pricing_plan_id":"free"},{"bike_id":"c5547a94-5c4c-4dba-8cdf-afe6b163ecda","system_id":"levelo_inurba_marseille","lat":43.310785,"lon":5.424305,"is_reserved":false,"is_disabled":false,"rental_uris":{"android":"levelo://app?vid=c5547a94-5c4c-4dba-8cdf-afe6b163ecda","ios":"levelo://app?vid=c5547a94-5c4c-4dba-8cdf-afe6b163ecda"},"vehicle_type_id":"4","last_reported":1698577483,"current_range_meters":14000,"station_id":"ce4bhp92rcd13ifvqhag","pricing_plan_id":"free"},{"bike_id":"8a2b96c9-70db-40c5-8ffe-c8ce325e8c8f","system_id":"levelo_inurba_marseille","lat":43.310785,"lon":5.424305,"is_reserved":false,"is_disabled":false,"rental_uris":{"android":"levelo://app?vid=8a2b96c9-70db-40c5-8ffe-c8ce325e8c8f","ios":"levelo://app?vid=8a2b96c9-70db-40c5-8ffe-c8ce325e8c8f"},"vehicle_type_id":"4","last_reported":1698577483,"current_range_meters":30000,"station_id":"ce4bhp92rcd13ifvqhag","pricing_plan_id":"free"},{"bike_id":"d58dc1b0-a920-45a9-b8ae-bc43ae7fdaaf","system_id":"levelo_inurba_marseille","lat":43.31078,"lon":5.42434,"is_reserved":false,"is_disabled":false,"rental_uris":{"android":"levelo://app?vid=d58dc1b0-a920-45a9-b8ae-bc43ae7fdaaf","ios":"levelo://app?vid=d58dc1b0-a920-45a9-b8ae-bc43ae7fdaaf"},"vehicle_type_id":"4","last_reported":1698577483,"current_range_meters":14800,"station_id":"ce4bhp92rcd13ifvqhag","pricing_plan_id":"free"},{"bike_id":"10771e27-9dfa-483f-a879-18ff14f74247","system_id":"levelo_inurba_marseille","lat":43.310021,"lon":5.425067,"is_reserved":false,"is_disabled":false,"rental_uris":{"android":"levelo://app?vid=10771e27-9dfa-483f-a879-18ff14f74247","ios":"levelo://app?vid=10771e27-9dfa-483f-a879-18ff14f74247"},"vehicle_type_id":"4","last_reported":1698577483,"current_range_meters":0,"station_id":"","pricing_plan_id":"free"},{"bike_id":"df0d008a-563a-4ec8-9586-d07c09722abe","system_id":"levelo_inurba_marseille","lat":43.273265,"lon":5.390808,"is_reserved":false,"is_disabled":false,"rental_uris":{"android":"levelo://app?vid=df0d008a-563a-4ec8-9586-d07c09722abe","ios":"levelo://app?vid=df0d008a-563a-4ec8-9586-d07c09722abe"},"vehicle_type_id":"4","last_reported":1698577483,"current_range_meters":24400,"station_id":"","pricing_plan_id":"free"},{"bike_id":"87ebf1c5-69f8-4fce-a127-716eb4a71056","system_id":"levelo_inurba_marseille","lat":43.27314,"lon":5.3907,"is_reserved":false,"is_disabled":false,"rental_uris":{"android":"levelo://app?vid=87ebf1c5-69f8-4fce-a127-716eb4a71056","ios":"levelo://app?vid=87ebf1c5-69f8-4fce-a127-716eb4a71056"},"vehicle_type_id":"4","last_reported":1698577483,"current_range_meters":20800,"station_id":"","pricing_plan_id":"free"},{"bike_id":"6fc050bb-363a-45ee-9367-d33015de8c0d","system_id":"levelo_inurba_marseille","lat":43.273196,"lon":5.39089,"is_reserved":false,"is_disabled":false,"rental_uris":{"android":"levelo://app?vid=6fc050bb-363a-45ee-9367-d33015de8c0d","ios":"levelo://app?vid=6fc050bb-363a-45ee-9367-d33015de8c0d"},"vehicle_type_id":"4","last_reported":1698577483,"current_range_meters":8000,"station_id":"","pricing_plan_id":"free"},{"bike_id":"991d6dac-99d7-4d3d-90bc-a29976b65f0c","system_id":"levelo_inurba_marseille","lat":43.274103,"lon":5.394016,"is_reserved":false,"is_disabled":false,"rental_uris":{"android":"levelo://app?vid=991d6dac-99d7-4d3d-90bc-a29976b65f0c","ios":"levelo://app?vid=991d6dac-99d7-4d3d-90bc-a29976b65f0c"},"vehicle_type_id":"4","last_reported":1698577483,"current_range_meters":32000,"station_id":"ce4bhdp2rcd13ifvqf20","pricing_plan_id":"free"},{"bike_id":"985fdf87-a331-4ea6-877e-b4d9c718a4fe","system_id":"levelo_inurba_marseille","lat":43.274103,"lon":5.394016,"is_reserved":false,"is_disabled":false,"rental_uris":{"android":"levelo://app?vid=985fdf87-a331-4ea6-877e-b4d9c718a4fe","ios":"levelo://app?vid=985fdf87-a331-4ea6-877e-b4d9c718a4fe"},"vehicle_type_id":"4","last_reported":1698577483,"current_range_meters":23200,"station_id":"ce4bhdp2rcd13ifvqf20","pricing_plan_id":"free"},{"bike_id":"0cc8da7f-b380-4eec-a072-05fca76e95c5","system_id":"levelo_inurba_marseille","lat":43.274099,"lon":5.394019,"is_reserved":false,"is_disabled":false,"rental_uris":{"android":"levelo://app?vid=0cc8da7f-b380-4eec-a072-05fca76e95c5","ios":"levelo://app?vid=0cc8da7f-b380-4eec-a072-05fca76e95c5"},"vehicle_type_id":"4","last_reported":1698577483,"current_range_meters":16800,"station_id":"ce4bhdp2rcd13ifvqf20","pricing_plan_id":"free"},{"bike_id":"5bd42d27-4828-47fb-bfde-8bc704abab88","system_id":"levelo_inurba_marseille","lat":43.274099,"lon":5.394019,"is_reserved":false,"is_disabled":false,"rental_uris":{"android":"levelo://app?vid=5bd42d27-4828-47fb-bfde-8bc704abab88","ios":"levelo://app?vid=5bd42d27-4828-47fb-bfde-8bc704abab88"},"vehicle_type_id":"4","last_reported":1698577483,"current_range_meters":2400,"station_id":"ce4bhdp2rcd13ifvqf20","pricing_plan_id":"free"},{"bike_id":"e9a434c0-f4a7-4335-ba99-d55e64274ad2","system_id":"levelo_inurba_marseille","lat":43.30413,"lon":5.42544,"is_reserved":false,"is_disabled":false,"rental_uris":{"android":"levelo://app?vid=e9a434c0-f4a7-4335-ba99-d55e64274ad2","ios":"levelo://app?vid=e9a434c0-f4a7-4335-ba99-d55e64274ad2"},"vehicle_type_id":"4","last_reported":1698577483,"current_range_meters":18000,"station_id":"ce4bhoh2rcd13ifvqh6g","pricing_plan_id":"free"},{"bike_id":"291a32c9-e8fe-4c60-819c-bf8d640a2016","system_id":"levelo_inurba_marseille","lat":43.2936,"lon":5.37835,"is_reserved":false,"is_disabled":false,"rental_uris":{"android":"levelo://app?vid=291a32c9-e8fe-4c60-819c-bf8d640a2016","ios":"levelo://app?vid=291a32c9-e8fe-4c60-819c-bf8d640a2016"},"vehicle_type_id":"4","last_reported":1698577483,"current_range_meters":19600,"station_id":"ce4bgjh2rcd13ifvqbf0","pricing_plan_id":"free"},{"bike_id":"39506b38-1b20-4606-8b4d-0987de5d1e6e","system_id":"levelo_inurba_marseille","lat":43.2795,"lon":5.41047,"is_reserved":false,"is_disabled":false,"rental_uris":{"android":"levelo://app?vid=39506b38-1b20-4606-8b4d-0987de5d1e6e","ios":"levelo://app?vid=39506b38-1b20-4606-8b4d-0987de5d1e6e"},"vehicle_type_id":"4","last_reported":1698577483,"current_range_meters":25200,"station_id":"ce4bhnp2rcd13ifvqh0g","pricing_plan_id":"free"},{"bike_id":"891e1734-0f2b-4304-8bd4-989a6a3bbdb4","system_id":"levelo_inurba_marseille","lat":43.279465,"lon":5.410561,"is_reserved":false,"is_disabled":false,"rental_uris":{"android":"levelo://app?vid=891e1734-0f2b-4304-8bd4-989a6a3bbdb4","ios":"levelo://app?vid=891e1734-0f2b-4304-8bd4-989a6a3bbdb4"},"vehicle_type_id":"4","last_reported":1698577483,"current_range_meters":22800,"station_id":"ce4bhnp2rcd13ifvqh0g","pricing_plan_id":"free"},{"bike_id":"d534e110-1b12-438a-8b99-babc796c7e6e","system_id":"levelo_inurba_marseille","lat":43.27948,"lon":5.41049,"is_reserved":false,"is_disabled":false,"rental_uris":{"android":"levelo://app?vid=d534e110-1b12-438a-8b99-babc796c7e6e","ios":"levelo://app?vid=d534e110-1b12-438a-8b99-babc796c7e6e"},"vehicle_type_id":"4","last_reported":1698577483,"current_range_meters":800,"station_id":"ce4bhnp2rcd13ifvqh0g","pricing_plan_id":"free"},{"bike_id":"9d69e8ac-f2c1-4923-9b1f-884e2594e7b5","system_id":"levelo_inurba_marseille","lat":43.269319,"lon":5.389397,"is_reserved":false,"is_disabled":false,"rental_uris":{"android":"levelo://app?vid=9d69e8ac-f2c1-4923-9b1f-884e2594e7b5","ios":"levelo://app?vid=9d69e8ac-f2c1-4923-9b1f-884e2594e7b5"},"vehicle_type_id":"4","last_reported":1698577483,"current_range_meters":0,"station_id":"ce4bhhh2rcd13ifvqfl0","pricing_plan_id":"free"},{"bike_id":"66a46cce-2509-423f-8e36-ccbf8c1330ab","system_id":"levelo_inurba_marseille","lat":43.269319,"lon":5.389397,"is_reserved":false,"is_disabled":false,"rental_uris":{"android":"levelo://app?vid=66a46cce-2509-423f-8e36-ccbf8c1330ab","ios":"levelo://app?vid=66a46cce-2509-423f-8e36-ccbf8c1330ab"},"vehicle_type_id":"4","last_reported":1698577483,"current_range_meters":21200,"station_id":"ce4bhhh2rcd13ifvqfl0","pricing_plan_id":"free"},{"bike_id":"8466dcae-2ff4-4e7b-864c-5e8616090554","system_id":"levelo_inurba_marseille","lat":43.269319,"lon":5.389397,"is_reserved":false,"is_disabled":false,"rental_uris":{"android":"levelo://app?vid=8466dcae-2ff4-4e7b-864c-5e8616090554","ios":"levelo://app?vid=8466dcae-2ff4-4e7b-864c-5e8616090554"},"vehicle_type_id":"4","last_reported":1698577483,"current_range_meters":32000,"station_id":"ce4bhhh2rcd13ifvqfl0","pricing_plan_id":"free"},{"bike_id":"ee283694-0d71-4579-be79-a91f3da936c2","system_id":"levelo_inurba_marseille","lat":43.269319,"lon":5.389397,"is_reserved":false,"is_disabled":false,"rental_uris":{"android":"levelo://app?vid=ee283694-0d71-4579-be79-a91f3da936c2","ios":"levelo://app?vid=ee283694-0d71-4579-be79-a91f3da936c2"},"vehicle_type_id":"4","last_reported":1698577483,"current_range_meters":23600,"station_id":"ce4bhhh2rcd13ifvqfl0","pricing_plan_id":"free"},{"bike_id":"d6c7a7c0-a18e-4011-badc-3e4a27c23973","system_id":"levelo_inurba_marseille","lat":43.269319,"lon":5.389397,"is_reserved":false,"is_disabled":false,"rental_uris":{"android":"levelo://app?vid=d6c7a7c0-a18e-4011-badc-3e4a27c23973","ios":"levelo://app?vid=d6c7a7c0-a18e-4011-badc-3e4a27c23973"},"vehicle_type_id":"4","last_reported":1698577483,"current_range_meters":32000,"station_id":"ce4bhhh2rcd13ifvqfl0","pricing_plan_id":"free"},{"bike_id":"1f8d8db9-5eb5-4a2c-945b-f115104fac9a","system_id":"levelo_inurba_marseille","lat":43.269319,"lon":5.389397,"is_reserved":false,"is_disabled":false,"rental_uris":{"android":"levelo://app?vid=1f8d8db9-5eb5-4a2c-945b-f115104fac9a","ios":"levelo://app?vid=1f8d8db9-5eb5-4a2c-945b-f115104fac9a"},"vehicle_type_id":"4","last_reported":1698577483,"current_range_meters":32000,"station_id":"ce4bhhh2rcd13ifvqfl0","pricing_plan_id":"free"},{"bike_id":"24e2efad-db49-49dc-8e22-696563ad08f5","system_id":"levelo_inurba_marseille","lat":43.26681,"lon":5.382694,"is_reserved":false,"is_disabled":false,"rental_uris":{"android":"levelo://app?vid=24e2efad-db49-49dc-8e22-696563ad08f5","ios":"levelo://app?vid=24e2efad-db49-49dc-8e22-696563ad08f5"},"vehicle_type_id":"4","last_reported":1698577483,"current_range_meters":22000,"station_id":"ce4bhg92rcd13ifvqf90","pricing_plan_id":"free"},{"bike_id":"36fcecc4-66c8-4f07-b677-5eada29f671b","system_id":"levelo_inurba_marseille","lat":43.26681,"lon":5.382694,"is_reserved":false,"is_disabled":false,"rental_uris":{"android":"levelo://app?vid=36fcecc4-66c8-4f07-b677-5eada29f671b","ios":"levelo://app?vid=36fcecc4-66c8-4f07-b677-5eada29f671b"},"vehicle_type_id":"4","last_reported":1698577483,"current_range_meters":19600,"station_id":"ce4bhg92rcd13ifvqf90","pricing_plan_id":"free"},{"bike_id":"7f885b45-daca-43e7-bf58-7257ab1d1d41","system_id":"levelo_inurba_marseille","lat":43.26681,"lon":5.382694,"is_reserved":false,"is_disabled":false,"rental_uris":{"android":"levelo://app?vid=7f885b45-daca-43e7-bf58-7257ab1d1d41","ios":"levelo://app?vid=7f885b45-daca-43e7-bf58-7257ab1d1d41"},"vehicle_type_id":"4","last_reported":1698577483,"current_range_meters":31200,"station_id":"ce4bhg92rcd13ifvqf90","pricing_plan_id":"free"},{"bike_id":"a15e563c-09c6-4c13-9087-4f4078e67933","system_id":"levelo_inurba_marseille","lat":43.26559,"lon":5.37283,"is_reserved":false,"is_disabled":false,"rental_uris":{"android":"levelo://app?vid=a15e563c-09c6-4c13-9087-4f4078e67933","ios":"levelo://app?vid=a15e563c-09c6-4c13-9087-4f4078e67933"},"vehicle_type_id":"4","last_reported":1698577483,"current_range_meters":16400,"station_id":"ce4bhg12rcd13ifvqf70","pricing_plan_id":"free"},{"bike_id":"04261a90-cec1-4c18-ae5f-1d093f7fcd65","system_id":"levelo_inurba_marseille","lat":43.26557,"lon":5.37287,"is_reserved":false,"is_disabled":false,"rental_uris":{"android":"levelo://app?vid=04261a90-cec1-4c18-ae5f-1d093f7fcd65","ios":"levelo://app?vid=04261a90-cec1-4c18-ae5f-1d093f7fcd65"},"vehicle_type_id":"4","last_reported":1698577483,"current_range_meters":14000,"station_id":"ce4bhg12rcd13ifvqf70","pricing_plan_id":"free"},{"bike_id":"04899494-5801-4f31-bd4c-7a27a7bf39d0","system_id":"levelo_inurba_marseille","lat":43.26556,"lon":5.37284,"is_reserved":false,"is_disabled":false,"rental_uris":{"android":"levelo://app?vid=04899494-5801-4f31-bd4c-7a27a7bf39d0","ios":"levelo://app?vid=04899494-5801-4f31-bd4c-7a27a7bf39d0"},"vehicle_type_id":"4","last_reported":1698577483,"current_range_meters":17200,"station_id":"ce4bhg12rcd13ifvqf70","pricing_plan_id":"free"},{"bike_id":"d33fabde-c8c1-419b-b64c-9ef81841f56c","system_id":"levelo_inurba_marseille","lat":43.26554,"lon":5.3728,"is_reserved":false,"is_disabled":false,"rental_uris":{"android":"levelo://app?vid=d33fabde-c8c1-419b-b64c-9ef81841f56c","ios":"levelo://app?vid=d33fabde-c8c1-419b-b64c-9ef81841f56c"},"vehicle_type_id":"4","last_reported":1698577483,"current_range_meters":14000,"station_id":"ce4bhg12rcd13ifvqf70","pricing_plan_id":"free"},{"bike_id":"26e5d886-aaa5-4ce8-84ee-fd3c9d361d90","system_id":"levelo_inurba_marseille","lat":43.26554,"lon":5.37285,"is_reserved":false,"is_disabled":false,"rental_uris":{"android":"levelo://app?vid=26e5d886-aaa5-4ce8-84ee-fd3c9d361d90","ios":"levelo://app?vid=26e5d886-aaa5-4ce8-84ee-fd3c9d361d90"},"vehicle_type_id":"4","last_reported":1698577483,"current_range_meters":9600,"station_id":"ce4bhg12rcd13ifvqf70","pricing_plan_id":"free"},{"bike_id":"e700e72b-31b2-4192-b490-5ad12af8414e","system_id":"levelo_inurba_marseille","lat":43.279968,"lon":5.416606,"is_reserved":false,"is_disabled":false,"rental_uris":{"android":"levelo://app?vid=e700e72b-31b2-4192-b490-5ad12af8414e","ios":"levelo://app?vid=e700e72b-31b2-4192-b490-5ad12af8414e"},"vehicle_type_id":"4","last_reported":1698577483,"current_range_meters":24400,"station_id":"ce4bho12rcd13ifvqh1g","pricing_plan_id":"free"},{"bike_id":"e610933f-f657-4bb4-a514-3746cfe6b8b3","system_id":"levelo_inurba_marseille","lat":43.279925,"lon":5.416553,"is_reserved":false,"is_disabled":false,"rental_uris":{"android":"levelo://app?vid=e610933f-f657-4bb4-a514-3746cfe6b8b3","ios":"levelo://app?vid=e610933f-f657-4bb4-a514-3746cfe6b8b3"},"vehicle_type_id":"4","last_reported":1698577483,"current_range_meters":26800,"station_id":"ce4bho12rcd13ifvqh1g","pricing_plan_id":"free"},{"bike_id":"d76c4b2d-800f-4d30-a8a7-a189376a95c3","system_id":"levelo_inurba_marseille","lat":43.27996,"lon":5.416624,"is_reserved":false,"is_disabled":false,"rental_uris":{"android":"levelo://app?vid=d76c4b2d-800f-4d30-a8a7-a189376a95c3","ios":"levelo://app?vid=d76c4b2d-800f-4d30-a8a7-a189376a95c3"},"vehicle_type_id":"4","last_reported":1698577483,"current_range_meters":29600,"station_id":"ce4bho12rcd13ifvqh1g","pricing_plan_id":"free"},{"bike_id":"aa61373d-dac9-4a79-abc4-d00d02a45848","system_id":"levelo_inurba_marseille","lat":43.279943,"lon":5.416586,"is_reserved":false,"is_disabled":false,"rental_uris":{"android":"levelo://app?vid=aa61373d-dac9-4a79-abc4-d00d02a45848","ios":"levelo://app?vid=aa61373d-dac9-4a79-abc4-d00d02a45848"},"vehicle_type_id":"4","last_reported":1698577483,"current_range_meters":30800,"station_id":"ce4bho12rcd13ifvqh1g","pricing_plan_id":"free"},{"bike_id":"1af4fad7-6e33-44af-a38e-fdc7026da519","system_id":"levelo_inurba_marseille","lat":43.279874,"lon":5.41655,"is_reserved":false,"is_disabled":false,"rental_uris":{"android":"levelo://app?vid=1af4fad7-6e33-44af-a38e-fdc7026da519","ios":"levelo://app?vid=1af4fad7-6e33-44af-a38e-fdc7026da519"},"vehicle_type_id":"4","last_reported":1698577483,"current_range_meters":16400,"station_id":"ce4bho12rcd13ifvqh1g","pricing_plan_id":"free"},{"bike_id":"a627ab3d-3d6d-4b31-a48c-e9678c0e9d3f","system_id":"levelo_inurba_marseille","lat":43.279904,"lon":5.416594,"is_reserved":false,"is_disabled":false,"rental_uris":{"android":"levelo://app?vid=a627ab3d-3d6d-4b31-a48c-e9678c0e9d3f","ios":"levelo://app?vid=a627ab3d-3d6d-4b31-a48c-e9678c0e9d3f"},"vehicle_type_id":"4","last_reported":1698577483,"current_range_meters":28000,"station_id":"ce4bho12rcd13ifvqh1g","pricing_plan_id":"free"},{"bike_id":"02c3d2a3-96a1-40bf-931b-41d3bec661f0","system_id":"levelo_inurba_marseille","lat":43.279914,"lon":5.416621,"is_reserved":false,"is_disabled":false,"rental_uris":{"android":"levelo://app?vid=02c3d2a3-96a1-40bf-931b-41d3bec661f0","ios":"levelo://app?vid=02c3d2a3-96a1-40bf-931b-41d3bec661f0"},"vehicle_type_id":"4","last_reported":1698577483,"current_range_meters":31200,"station_id":"ce4bho12rcd13ifvqh1g","pricing_plan_id":"free"},{"bike_id":"554259c7-86b2-48d7-8047-1aba716418a8","system_id":"levelo_inurba_marseille","lat":43.279918,"lon":5.416636,"is_reserved":false,"is_disabled":false,"rental_uris":{"android":"levelo://app?vid=554259c7-86b2-48d7-8047-1aba716418a8","ios":"levelo://app?vid=554259c7-86b2-48d7-8047-1aba716418a8"},"vehicle_type_id":"4","last_reported":1698577483,"current_range_meters":30000,"station_id":"ce4bho12rcd13ifvqh1g","pricing_plan_id":"free"},{"bike_id":"2687313b-4537-4b0d-956b-7965a5770ee1","system_id":"levelo_inurba_marseille","lat":43.328212,"lon":5.431596,"is_reserved":false,"is_disabled":false,"rental_uris":{"android":"levelo://app?vid=2687313b-4537-4b0d-956b-7965a5770ee1","ios":"levelo://app?vid=2687313b-4537-4b0d-956b-7965a5770ee1"},"vehicle_type_id":"4","last_reported":1698577483,"current_range_meters":16000,"station_id":"","pricing_plan_id":"free"},{"bike_id":"1cb3f577-fb04-4e28-a15d-87951d1577d9","system_id":"levelo_inurba_marseille","lat":43.308051,"lon":5.43527,"is_reserved":false,"is_disabled":false,"rental_uris":{"android":"levelo://app?vid=1cb3f577-fb04-4e28-a15d-87951d1577d9","ios":"levelo://app?vid=1cb3f577-fb04-4e28-a15d-87951d1577d9"},"vehicle_type_id":"4","last_reported":1698577483,"current_range_meters":27200,"station_id":"ce4bhph2rcd13ifvqheg","pricing_plan_id":"free"},{"bike_id":"fddbe896-a5f8-4c20-b734-f3d5c6a121ec","system_id":"levelo_inurba_marseille","lat":43.265611,"lon":5.390036,"is_reserved":false,"is_disabled":false,"rental_uris":{"android":"levelo://app?vid=fddbe896-a5f8-4c20-b734-f3d5c6a121ec","ios":"levelo://app?vid=fddbe896-a5f8-4c20-b734-f3d5c6a121ec"},"vehicle_type_id":"4","last_reported":1698577483,"current_range_meters":29600,"station_id":"ce4bhe12rcd13ifvqf30","pricing_plan_id":"free"},{"bike_id":"6dd8c603-c1e0-4bf3-82f8-571080e2fbdf","system_id":"levelo_inurba_marseille","lat":43.265616,"lon":5.390073,"is_reserved":false,"is_disabled":false,"rental_uris":{"android":"levelo://app?vid=6dd8c603-c1e0-4bf3-82f8-571080e2fbdf","ios":"levelo://app?vid=6dd8c603-c1e0-4bf3-82f8-571080e2fbdf"},"vehicle_type_id":"4","last_reported":1698577483,"current_range_meters":28000,"station_id":"ce4bhe12rcd13ifvqf30","pricing_plan_id":"free"},{"bike_id":"2d46cc0c-65c6-4834-956d-7090ad78794e","system_id":"levelo_inurba_marseille","lat":43.265428,"lon":5.389959,"is_reserved":false,"is_disabled":false,"rental_uris":{"android":"levelo://app?vid=2d46cc0c-65c6-4834-956d-7090ad78794e","ios":"levelo://app?vid=2d46cc0c-65c6-4834-956d-7090ad78794e"},"vehicle_type_id":"4","last_reported":1698577483,"current_range_meters":6800,"station_id":"ce4bhe12rcd13ifvqf30","pricing_plan_id":"free"},{"bike_id":"adc2fc1e-afa2-4d0f-9cd4-294ade194df6","system_id":"levelo_inurba_marseille","lat":43.26955,"lon":5.40244,"is_reserved":false,"is_disabled":false,"rental_uris":{"android":"levelo://app?vid=adc2fc1e-afa2-4d0f-9cd4-294ade194df6","ios":"levelo://app?vid=adc2fc1e-afa2-4d0f-9cd4-294ade194df6"},"vehicle_type_id":"4","last_reported":1698577483,"current_range_meters":2000,"station_id":"cjm6bp8fraef2m0cb0m0","pricing_plan_id":"free"},{"bike_id":"ec6afd31-9e09-427d-9510-e1e5dd939561","system_id":"levelo_inurba_marseille","lat":43.26948,"lon":5.40241,"is_reserved":false,"is_disabled":false,"rental_uris":{"android":"levelo://app?vid=ec6afd31-9e09-427d-9510-e1e5dd939561","ios":"levelo://app?vid=ec6afd31-9e09-427d-9510-e1e5dd939561"},"vehicle_type_id":"4","last_reported":1698577483,"current_range_meters":23600,"station_id":"cjm6bp8fraef2m0cb0m0","pricing_plan_id":"free"},{"bike_id":"d6a5e97b-becd-493c-b7d5-20f66b2bb830","system_id":"levelo_inurba_marseille","lat":43.26949,"lon":5.40244,"is_reserved":false,"is_disabled":false,"rental_uris":{"android":"levelo://app?vid=d6a5e97b-becd-493c-b7d5-20f66b2bb830","ios":"levelo://app?vid=d6a5e97b-becd-493c-b7d5-20f66b2bb830"},"vehicle_type_id":"4","last_reported":1698577483,"current_range_meters":9200,"station_id":"cjm6bp8fraef2m0cb0m0","pricing_plan_id":"free"},{"bike_id":"bc02bd7b-e4c7-4d95-8a56-9a92ee956f4b","system_id":"levelo_inurba_marseille","lat":43.26948,"lon":5.40244,"is_reserved":false,"is_disabled":false,"rental_uris":{"android":"levelo://app?vid=bc02bd7b-e4c7-4d95-8a56-9a92ee956f4b","ios":"levelo://app?vid=bc02bd7b-e4c7-4d95-8a56-9a92ee956f4b"},"vehicle_type_id":"4","last_reported":1698577483,"current_range_meters":0,"station_id":"cjm6bp8fraef2m0cb0m0","pricing_plan_id":"free"},{"bike_id":"d6fb7adb-140d-4810-a0da-4bed24fcbc10","system_id":"levelo_inurba_marseille","lat":43.26948,"lon":5.40247,"is_reserved":false,"is_disabled":false,"rental_uris":{"android":"levelo://app?vid=d6fb7adb-140d-4810-a0da-4bed24fcbc10","ios":"levelo://app?vid=d6fb7adb-140d-4810-a0da-4bed24fcbc10"},"vehicle_type_id":"4","last_reported":1698577483,"current_range_meters":17200,"station_id":"cjm6bp8fraef2m0cb0m0","pricing_plan_id":"free"},