{"last_updated":1736957430,"ttl":60,"version":"2.2","data":{"bikes":[{"bike_id":"8950994e-141b-4c16-ae82-ef1e6827f7d4","system_id":"levelo_inurba_marseille","lat":43.27818,"lon":5.40721,"is_reserved":false,"is_disabled":false,"rental_uris":{"android":"levelo://app?vid=8950994e-141b-4c16-ae82-ef1e6827f7d4","ios":"levelo://app?vid=8950994e-141b-4c16-ae82-ef1e6827f7d4"},"vehicle_type_id":"4","last_reported":1736957431,"current_range_meters":4800,"station_id":"ce4bhnh2rcd13ifvqgtg","pricing_plan_id":"cebpf4jnsgd1na2vs0mg"},{"bike_id":"0a5dd572-506e-4f45-b9af-2a6d1b113c94","system_id":"levelo_inurba_marseille","lat":43.29907,"lon":5.38155,"is_reserved":false,"is_disabled":false,"rental_uris":{"android":"levelo://app?vid=0a5dd572-506e-4f45-b9af-2a6d1b113c94","ios":"levelo://app?vid=0a5dd572-506e-4f45-b9af-2a6d1b113c94"},"vehicle_type_id":"4","last_reported":1736957431,"current_range_meters":7200,"station_id":"ce4bgj12rcd13ifvqbc0","pricing_plan_id":"cebpf4jnsgd1na2vs0mg"},{"bike_id":"9a6b4e17-666c-448f-bef4-cde79c4dfef8","system_id":"levelo_inurba_marseille","lat":43.31109,"lon":5.37769,"is_reserved":false,"is_disabled":false,"rental_uris":{"android":"levelo://app?vid=9a6b4e17-666c-448f-bef4-cde79c4dfef8","ios":"levelo://app?vid=9a6b4e17-666c-448f-bef4-cde79c4dfef8"},"vehicle_type_id":"4","last_reported":1736957431,"current_range_meters":34000,"station_id":"ce4bgt92rcd13ifvqcg0","pricing_plan_id":"cebpf4jnsgd1na2vs0mg"},{"bike_id":"a864ada0-e0da-4d9f-a03e-9d02349f93dd","system_id":"levelo_inurba_marseille","lat":43.29038,"lon":5.35926,"is_reserved":false,"is_disabled":false,"rental_uris":{"android":"levelo://app?vid=a864ada0-e0da-4d9f-a03e-9d02349f93dd","ios":"levelo://app?vid=a864ada0-e0da-4d9f-a03e-9d02349f93dd"},"vehicle_type_id":"4","last_reported":1736957431,"current_range_meters":38800,"station_id":"ce4bha92rcd13ifvqeg0","pricing_plan_id":"cebpf4jnsgd1na2vs0mg"},{"bike_id":"ac2c2595-2fde-4a4c-ba88-aaea33cfe270","system_id":"levelo_inurba_marseille","lat":43.25113,"lon":5.40321,"is_reserved":false,"is_disabled":false,"rental_uris":{"android":"levelo://app?vid=ac2c2595-2fde-4a4c-ba88-aaea33cfe270","ios":"levelo://app?vid=ac2c2595-2fde-4a4c-ba88-aaea33cfe270"},"vehicle_type_id":"4","last_reported":1736957431,"current_range_meters":19600,"station_id":"ce4bhlh2rcd13ifvqgig","pricing_plan_id":"cebpf4jnsgd1na2vs0mg"},{"bike_id":"993cc152-7679-4c95-a167-5ea534d96eac","system_id":"levelo_inurba_marseille","lat":43.34138,"lon":5.409,"is_reserved":false,"is_disabled":false,"rental_uris":{"android":"levelo://app?vid=993cc152-7679-4c95-a167-5ea534d96eac","ios":"levelo://app?vid=993cc152-7679-4c95-a167-5ea534d96eac"},"vehicle_type_id":"4","last_reported":1736957431,"current_range_meters":20800,"station_id":"ce4bhqh2rcd13ifvqhlg","pricing_plan_id":"cebpf4jnsgd1na2vs0mg"},{"bike_id":"5bbdba29-3f63-48a2-9338-63c51c75a5ac","system_id":"levelo_inurba_marseille","lat":43.246482,"lon":5.389008,"is_reserved":false,"is_disabled":true,"rental_uris":{"android":"levelo://app?vid=5bbdba29-3f63-48a2-9338-63c51c75a5ac","ios":"levelo://app?vid=5bbdba29-3f63-48a2-9338-63c51c75a5ac"},"vehicle_type_id":"4","last_reported":1736957431,"current_range_meters":800,"station_id":"ce4bhg12rcd13ifvqf60","pricing_plan_id":"cebpf4jnsgd1na2vs0mg"},{"bike_id":"7fcd2051-aca5-414a-82ff-0cdb2e8bed0c","system_id":"levelo_inurba_marseille","lat":43.27573,"lon":5.3843,"is_reserved":false,"is_disabled":false,"rental_uris":{"android":"levelo://app?vid=7fcd2051-aca5-414a-82ff-0cdb2e8bed0c","ios":"levelo://app?vid=7fcd2051-aca5-414a-82ff-0cdb2e8bed0c"},"vehicle_type_id":"4","last_reported":1736957431,"current_range_meters":30000,"station_id":"ce4bhh92rcd13ifvqfi0","pricing_plan_id":"cebpf4jnsgd1na2vs0mg"},{"bike_id":"4fa358ca-b741-467a-a03f-b8033021b471","system_id":"levelo_inurba_marseille","lat":43.337571,"lon":5.374567,"is_reserved":false,"is_disabled":false,"rental_uris":{"android":"levelo://app?vid=4fa358ca-b741-467a-a03f-b8033021b471","ios":"levelo://app?vid=4fa358ca-b741-467a-a03f-b8033021b471"},"vehicle_type_id":"4","last_reported":1736957431,"current_range_meters":36400,"station_id":"","pricing_plan_id":"cebpf4jnsgd1na2vs0mg"},{"bike_id":"5db5f749-55d7-4666-b989-2cc4222957b1","system_id":"levelo_inurba_marseille","lat":43.28431,"lon":5.39211,"is_reserved":false,"is_disabled":true,"rental_uris":{"android":"levelo://app?vid=5db5f749-55d7-4666-b989-2cc4222957b1","ios":"levelo://app?vid=5db5f749-55d7-4666-b989-2cc4222957b1"},"vehicle_type_id":"4","last_reported":1736957431,"current_range_meters":24000,"station_id":"ce4bhoh2rcd13ifvqh5g","pricing_plan_id":"cebpf4jnsgd1na2vs0mg"},{"bike_id":"2b2cb29b-656b-412b-b107-6e49fdf15518","system_id":"levelo_inurba_marseille","lat":43.27504,"lon":5.42445,"is_reserved":false,"is_disabled":true,"rental_uris":{"android":"levelo://app?vid=2b2cb29b-656b-412b-b107-6e49fdf15518","ios":"levelo://app?vid=2b2cb29b-656b-412b-b107-6e49fdf15518"},"vehicle_type_id":"4","last_reported":1736957431,"current_range_meters":0,"station_id":"ce4bhn92rcd13ifvqgrg","pricing_plan_id":"cebpf4jnsgd1na2vs0mg"},{"bike_id":"12735cc0-5806-4a63-b867-b2c0df2b22b6","system_id":"levelo_inurba_marseille","lat":43.29162,"lon":5.37151,"is_reserved":false,"is_disabled":false,"rental_uris":{"android":"levelo://app?vid=12735cc0-5806-4a63-b867-b2c0df2b22b6","ios":"levelo://app?vid=12735cc0-5806-4a63-b867-b2c0df2b22b6"},"vehicle_type_id":"4","last_reported":1736957431,"current_range_meters":26000,"station_id":"ce4bha92rcd13ifvqeh0","pricing_plan_id":"cebpf4jnsgd1na2vs0mg"},{"bike_id":"04ca7d58-6107-4c23-b020-0d87521c21e5","system_id":"levelo_inurba_marseille","lat":43.29185,"lon":5.35808,"is_reserved":false,"is_disabled":false,"rental_uris":{"android":"levelo://app?vid=04ca7d58-6107-4c23-b020-0d87521c21e5","ios":"levelo://app?vid=04ca7d58-6107-4c23-b020-0d87521c21e5"},"vehicle_type_id":"4","last_reported":1736957431,"current_range_meters":38800,"station_id":"ce4bhb12rcd13ifvqel0","pricing_plan_id":"cebpf4jnsgd1na2vs0mg"},{"bike_id":"e815a81b-bac9-44d8-927b-cad09d4c7319","system_id":"levelo_inurba_marseille","lat":43.27812,"lon":5.40709,"is_reserved":false,"is_disabled":false,"rental_uris":{"android":"levelo://app?vid=e815a81b-bac9-44d8-927b-cad09d4c7319","ios":"levelo://app?vid=e815a81b-bac9-44d8-927b-cad09d4c7319"},"vehicle_type_id":"4","last_reported":1736957431,"current_range_meters":4400,"station_id":"ce4bhnh2rcd13ifvqgtg","pricing_plan_id":"cebpf4jnsgd1na2vs0mg"},{"bike_id":"ccbd796f-0853-4438-83a6-7ee13405bafc","system_id":"levelo_inurba_marseille","lat":43.27827,"lon":5.39203,"is_reserved":false,"is_disabled":true,"rental_uris":{"android":"levelo://app?vid=ccbd796f-0853-4438-83a6-7ee13405bafc","ios":"levelo://app?vid=ccbd796f-0853-4438-83a6-7ee13405bafc"},"vehicle_type_id":"4","last_reported":1736957431,"current_range_meters":800,"station_id":"ce4bhjp2rcd13ifvqga0","pricing_plan_id":"cebpf4jnsgd1na2vs0mg"},{"bike_id":"d87ccf1d-04a2-4124-ab20-2a832bc0fcf4","system_id":"levelo_inurba_marseille","lat":43.29728,"lon":5.37679,"is_reserved":false,"is_disabled":false,"rental_uris":{"android":"levelo://app?vid=d87ccf1d-04a2-4124-ab20-2a832bc0fcf4","ios":"levelo://app?vid=d87ccf1d-04a2-4124-ab20-2a832bc0fcf4"},"vehicle_type_id":"4","last_reported":1736957431,"current_range_meters":36800,"station_id":"ce4bgkh2rcd13ifvqbl0","pricing_plan_id":"cebpf4jnsgd1na2vs0mg"},{"bike_id":"72b104bb-74bd-4330-8833-d9a9e2c4486d","system_id":"levelo_inurba_marseille","lat":43.31324,"lon":5.39694,"is_reserved":false,"is_disabled":false,"rental_uris":{"android":"levelo://app?vid=72b104bb-74bd-4330-8833-d9a9e2c4486d","ios":"levelo://app?vid=72b104bb-74bd-4330-8833-d9a9e2c4486d"},"vehicle_type_id":"4","last_reported":1736957431,"current_range_meters":37600,"station_id":"ce4bgvp2rcd13ifvqcu0","pricing_plan_id":"cebpf4jnsgd1na2vs0mg"},{"bike_id":"b758f913-8ddf-42b4-a9dc-47e155bc1074","system_id":"levelo_inurba_marseille","lat":43.29198,"lon":5.35778,"is_reserved":false,"is_disabled":false,"rental_uris":{"android":"levelo://app?vid=b758f913-8ddf-42b4-a9dc-47e155bc1074","ios":"levelo://app?vid=b758f913-8ddf-42b4-a9dc-47e155bc1074"},"vehicle_type_id":"4","last_reported":1736957431,"current_range_meters":39200,"station_id":"ce4bhb12rcd13ifvqel0","pricing_plan_id":"cebpf4jnsgd1na2vs0mg"},{"bike_id":"a05bd889-5f47-4435-a653-f868055678ed","system_id":"levelo_inurba_marseille","lat":43.249988,"lon":5.389275,"is_reserved":false,"is_disabled":false,"rental_uris":{"android":"levelo://app?vid=a05bd889-5f47-4435-a653-f868055678ed","ios":"levelo://app?vid=a05bd889-5f47-4435-a653-f868055678ed"},"vehicle_type_id":"4","last_reported":1736957431,"current_range_meters":26800,"station_id":"ce4bhgp2rcd13ifvqfd0","pricing_plan_id":"cebpf4jnsgd1na2vs0mg"},{"bike_id":"5dc3dd3e-37d2-4dd0-b33d-d2f8ed1e3625","system_id":"levelo_inurba_marseille","lat":43.259233,"lon":5.408909,"is_reserved":false,"is_disabled":false,"rental_uris":{"android":"levelo://app?vid=5dc3dd3e-37d2-4dd0-b33d-d2f8ed1e3625","ios":"levelo://app?vid=5dc3dd3e-37d2-4dd0-b33d-d2f8ed1e3625"},"vehicle_type_id":"4","last_reported":1736957431,"current_range_meters":6800,"station_id":"ce4bhm92rcd13ifvqglg","pricing_plan_id":"cebpf4jnsgd1na2vs0mg"},{"bike_id":"ce30391b-c7d3-4416-9d1e-aea797233304","system_id":"levelo_inurba_marseille","lat":43.27371,"lon":5.36258,"is_reserved":false,"is_disabled":false,"rental_uris":{"android":"levelo://app?vid=ce30391b-c7d3-4416-9d1e-aea797233304","ios":"levelo://app?vid=ce30391b-c7d3-4416-9d1e-aea797233304"},"vehicle_type_id":"4","last_reported":1736957431,"current_range_meters":33200,"station_id":"ce4bhbh2rcd13ifvqeo0","pricing_plan_id":"cebpf4jnsgd1na2vs0mg"},{"bike_id":"8453db75-3167-4ff1-8aa6-48e00cb37721","system_id":"levelo_inurba_marseille","lat":43.25587,"lon":5.38226,"is_reserved":false,"is_disabled":false,"rental_uris":{"android":"levelo://app?vid=8453db75-3167-4ff1-8aa6-48e00cb37721","ios":"levelo://app?vid=8453db75-3167-4ff1-8aa6-48e00cb37721"},"vehicle_type_id":"4","last_reported":1736957431,"current_range_meters":15200,"station_id":"ce4bhih2rcd13ifvqfs0","pricing_plan_id":"cebpf4jnsgd1na2vs0mg"},{"bike_id":"40238caa-757b-4590-bc2a-b83f512f1f4e","system_id":"levelo_inurba_marseille","lat":43.3153,"lon":5.38037,"is_reserved":false,"is_disabled":false,"rental_uris":{"android":"levelo://app?vid=40238caa-757b-4590-bc2a-b83f512f1f4e","ios":"levelo://app?vid=40238caa-757b-4590-bc2a-b83f512f1f4e"},"vehicle_type_id":"4","last_reported":1736957431,"current_range_meters":10000,"station_id":"ce4bhsp2rcd13ifvqi50","pricing_plan_id":"cebpf4jnsgd1na2vs0mg"},{"bike_id":"6451e2ed-7def-45ea-94da-bf390bc8af85","system_id":"levelo_inurba_marseille","lat":43.250203,"lon":5.389193,"is_reserved":false,"is_disabled":false,"rental_uris":{"android":"levelo://app?vid=6451e2ed-7def-45ea-94da-bf390bc8af85","ios":"levelo://app?vid=6451e2ed-7def-45ea-94da-bf390bc8af85"},"vehicle_type_id":"4","last_reported":1736957431,"current_range_meters":29600,"station_id":"ce4bhgp2rcd13ifvqfd0","pricing_plan_id":"cebpf4jnsgd1na2vs0mg"},{"bike_id":"67005e36-5131-4fff-ab50-035d20a4f619","system_id":"levelo_inurba_marseille","lat":43.30147,"lon":5.381,"is_reserved":false,"is_disabled":false,"rental_uris":{"android":"levelo://app?vid=67005e36-5131-4fff-ab50-035d20a4f619","ios":"levelo://app?vid=67005e36-5131-4fff-ab50-035d20a4f619"},"vehicle_type_id":"4","last_reported":1736957431,"current_range_meters":20000,"station_id":"ce4bgjp2rcd13ifvqbh0","pricing_plan_id":"cebpf4jnsgd1na2vs0mg"},{"bike_id":"1ca2fac6-cdd0-4be6-b761-d0cdd8e2c59f","system_id":"levelo_inurba_marseille","lat":43.26943,"lon":5.4025,"is_reserved":false,"is_disabled":false,"rental_uris":{"android":"levelo://app?vid=1ca2fac6-cdd0-4be6-b761-d0cdd8e2c59f","ios":"levelo://app?vid=1ca2fac6-cdd0-4be6-b761-d0cdd8e2c59f"},"vehicle_type_id":"4","last_reported":1736957431,"current_range_meters":3200,"station_id":"cjm6bp8fraef2m0cb0m0","pricing_plan_id":"cebpf4jnsgd1na2vs0mg"},{"bike_id":"1387e326-3471-4d34-8c16-3f2277450c81","system_id":"levelo_inurba_marseille","lat":43.26208,"lon":5.374435,"is_reserved":false,"is_disabled":false,"rental_uris":{"android":"levelo://app?vid=1387e326-3471-4d34-8c16-3f2277450c81","ios":"levelo://app?vid=1387e326-3471-4d34-8c16-3f2277450c81"},"vehicle_type_id":"4","last_reported":1736957431,"current_range_meters":18800,"station_id":"ce4bhgp2rcd13ifvqfc0","pricing_plan_id":"cebpf4jnsgd1na2vs0mg"},{"bike_id":"bf640603-83b1-45ec-97b9-6f63203dda4b","system_id":"levelo_inurba_marseille","lat":43.28153,"lon":5.42648,"is_reserved":false,"is_disabled":false,"rental_uris":{"android":"levelo://app?vid=bf640603-83b1-45ec-97b9-6f63203dda4b","ios":"levelo://app?vid=bf640603-83b1-45ec-97b9-6f63203dda4b"},"vehicle_type_id":"4","last_reported":1736957431,"current_range_meters":10800,"station_id":"ce4bhnh2rcd13ifvqgug","pricing_plan_id":"cebpf4jnsgd1na2vs0mg"},{"bike_id":"c8334207-f5c0-442a-8167-934adbff4575","system_id":"levelo_inurba_marseille","lat":43.25076,"lon":5.39519,"is_reserved":false,"is_disabled":false,"rental_uris":{"android":"levelo://app?vid=c8334207-f5c0-442a-8167-934adbff4575","ios":"levelo://app?vid=c8334207-f5c0-442a-8167-934adbff4575"},"vehicle_type_id":"4","last_reported":1736957431,"current_range_meters":17600,"station_id":"ce4bhm12rcd13ifvqgkg","pricing_plan_id":"cebpf4jnsgd1na2vs0mg"},{"bike_id":"902edfe6-251a-49fc-8548-2023567b8c62","system_id":"levelo_inurba_marseille","lat":43.30317,"lon":5.36893,"is_reserved":false,"is_disabled":false,"rental_uris":{"android":"levelo://app?vid=902edfe6-251a-49fc-8548-2023567b8c62","ios":"levelo://app?vid=902edfe6-251a-49fc-8548-2023567b8c62"},"vehicle_type_id":"4","last_reported":1736957431,"current_range_meters":39200,"station_id":"ce4bgqh2rcd13ifvqc5g","pricing_plan_id":"cebpf4jnsgd1na2vs0mg"},{"bike_id":"1224dde2-98bc-4489-98b6-e9066f8945f8","system_id":"levelo_inurba_marseille","lat":43.29304,"lon":5.37175,"is_reserved":false,"is_disabled":false,"rental_uris":{"android":"levelo://app?vid=1224dde2-98bc-4489-98b6-e9066f8945f8","ios":"levelo://app?vid=1224dde2-98bc-4489-98b6-e9066f8945f8"},"vehicle_type_id":"4","last_reported":1736957431,"current_range_meters":34000,"station_id":"ce4bgh92rcd13ifvqb40","pricing_plan_id":"cebpf4jnsgd1na2vs0mg"},{"bike_id":"c8e997c0-8580-4d0f-8d9f-0766596381e1","system_id":"levelo_inurba_marseille","lat":43.33918,"lon":5.37562,"is_reserved":false,"is_disabled":true,"rental_uris":{"android":"levelo://app?vid=c8e997c0-8580-4d0f-8d9f-0766596381e1","ios":"levelo://app?vid=c8e997c0-8580-4d0f-8d9f-0766596381e1"},"vehicle_type_id":"4","last_reported":1736957431,"current_range_meters":0,"station_id":"","pricing_plan_id":"cebpf4jnsgd1na2vs0mg"},{"bike_id":"a2736fdb-68f0-46c0-bca0-3d525209c8d7","system_id":"levelo_inurba_marseille","lat":43.28936,"lon":5.36613,"is_reserved":false,"is_disabled":true,"rental_uris":{"android":"levelo://app?vid=a2736fdb-68f0-46c0-bca0-3d525209c8d7","ios":"levelo://app?vid=a2736fdb-68f0-46c0-bca0-3d525209c8d7"},"vehicle_type_id":"4","last_reported":1736957431,"current_range_meters":1600,"station_id":"ce4bhap2rcd13ifvqek0","pricing_plan_id":"cebpf4jnsgd1na2vs0mg"},{"bike_id":"c0921cf0-5ed1-4075-b525-0763614a3f04","system_id":"levelo_inurba_marseille","lat":43.32064,"lon":5.41537,"is_reserved":false,"is_disabled":false,"rental_uris":{"android":"levelo://app?vid=c0921cf0-5ed1-4075-b525-0763614a3f04","ios":"levelo://app?vid=c0921cf0-5ed1-4075-b525-0763614a3f04"},"vehicle_type_id":"4","last_reported":1736957431,"current_range_meters":36000,"station_id":"ce4bhq92rcd13ifvqhkg","pricing_plan_id":"cebpf4jnsgd1na2vs0mg"},{"bike_id":"7a01fbe9-064e-4bb0-9200-81a1eeced978","system_id":"levelo_inurba_marseille","lat":43.24181,"lon":5.36406,"is_reserved":false,"is_disabled":false,"rental_uris":{"android":"levelo://app?vid=7a01fbe9-064e-4bb0-9200-81a1eeced978","ios":"levelo://app?vid=7a01fbe9-064e-4bb0-9200-81a1eeced978"},"vehicle_type_id":"4","last_reported":1736957431,"current_range_meters":12800,"station_id":"cpo36qri1sfpv3e86is0","pricing_plan_id":"cebpf4jnsgd1na2vs0mg"},{"bike_id":"d299f44d-92ef-461c-bddc-23a94b70bb1c","system_id":"levelo_inurba_marseille","lat":43.23178,"lon":5.39998,"is_reserved":false,"is_disabled":false,"rental_uris":{"android":"levelo://app?vid=d299f44d-92ef-461c-bddc-23a94b70bb1c","ios":"levelo://app?vid=d299f44d-92ef-461c-bddc-23a94b70bb1c"},"vehicle_type_id":"4","last_reported":1736957431,"current_range_meters":38800,"station_id":"ce4bhn12rcd13ifvqgqg","pricing_plan_id":"cebpf4jnsgd1na2vs0mg"},{"bike_id":"09e2cd01-9bc5-4015-8e86-5ad53075cb92","system_id":"levelo_inurba_marseille","lat":43.28367,"lon":5.38641,"is_reserved":false,"is_disabled":false,"rental_uris":{"android":"levelo://app?vid=09e2cd01-9bc5-4015-8e86-5ad53075cb92","ios":"levelo://app?vid=09e2cd01-9bc5-4015-8e86-5ad53075cb92"},"vehicle_type_id":"4","last_reported":1736957431,"current_range_meters":15200,"station_id":"ce4bh492rcd13ifvqdvg","pricing_plan_id":"cebpf4jnsgd1na2vs0mg"},{"bike_id":"49805654-6cba-42a1-8c74-d39a8e7f4097","system_id":"levelo_inurba_marseille","lat":43.29779,"lon":5.39347,"is_reserved":false,"is_disabled":false,"rental_uris":{"android":"levelo://app?vid=49805654-6cba-42a1-8c74-d39a8e7f4097","ios":"levelo://app?vid=49805654-6cba-42a1-8c74-d39a8e7f4097"},"vehicle_type_id":"4","last_reported":1736957431,"current_range_meters":27600,"station_id":"chh1huq6cuj3fo74tm60","pricing_plan_id":"cebpf4jnsgd1na2vs0mg"},{"bike_id":"eba0ba9e-1adb-4879-bf0f-a7b7cdf4edac","system_id":"levelo_inurba_marseille","lat":43.32482,"lon":5.36559,"is_reserved":false,"is_disabled":false,"rental_uris":{"android":"levelo://app?vid=eba0ba9e-1adb-4879-bf0f-a7b7cdf4edac","ios":"levelo://app?vid=eba0ba9e-1adb-4879-bf0f-a7b7cdf4edac"},"vehicle_type_id":"4","last_reported":1736957431,"current_range_meters":9200,"station_id":"ce4bhs12rcd13ifvqhvg","pricing_plan_id":"cebpf4jnsgd1na2vs0mg"},{"bike_id":"7b693463-6b82-4e9a-aa2d-726f031e21f9","system_id":"levelo_inurba_marseille","lat":43.3079,"lon":5.43539,"is_reserved":false,"is_disabled":false,"rental_uris":{"android":"levelo://app?vid=7b693463-6b82-4e9a-aa2d-726f031e21f9","ios":"levelo://app?vid=7b693463-6b82-4e9a-aa2d-726f031e21f9"},"vehicle_type_id":"4","last_reported":1736957431,"current_range_meters":33200,"station_id":"ce4bhph2rcd13ifvqheg","pricing_plan_id":"cebpf4jnsgd1na2vs0mg"},{"bike_id":"f776604f-fdf2-4006-a9fa-b238d366ca36","system_id":"levelo_inurba_marseille","lat":43.31715,"lon":5.37758,"is_reserved":false,"is_disabled":false,"rental_uris":{"android":"levelo://app?vid=f776604f-fdf2-4006-a9fa-b238d366ca36","ios":"levelo://app?vid=f776604f-fdf2-4006-a9fa-b238d366ca36"},"vehicle_type_id":"4","last_reported":1736957431,"current_range_meters":16400,"station_id":"ce4bgth2rcd13ifvqch0","pricing_plan_id":"cebpf4jnsgd1na2vs0mg"},{"bike_id":"ee28e867-21e8-4831-b259-c94c83f948c2","system_id":"levelo_inurba_marseille","lat":43.29583,"lon":5.36743,"is_reserved":false,"is_disabled":false,"rental_uris":{"android":"levelo://app?vid=ee28e867-21e8-4831-b259-c94c83f948c2","ios":"levelo://app?vid=ee28e867-21e8-4831-b259-c94c83f948c2"},"vehicle_type_id":"4","last_reported":1736957431,"current_range_meters":32000,"station_id":"ce4bgph2rcd13ifvqc2g","pricing_plan_id":"cebpf4jnsgd1na2vs0mg"},{"bike_id":"e81ef256-d7a3-4c28-9bcc-58b1fdfe2d9d","system_id":"levelo_inurba_marseille","lat":43.25111,"lon":5.40317,"is_reserved":false,"is_disabled":false,"rental_uris":{"android":"levelo://app?vid=e81ef256-d7a3-4c28-9bcc-58b1fdfe2d9d","ios":"levelo://app?vid=e81ef256-d7a3-4c28-9bcc-58b1fdfe2d9d"},"vehicle_type_id":"4","last_reported":1736957431,"current_range_meters":37600,"station_id":"ce4bhlh2rcd13ifvqgig","pricing_plan_id":"cebpf4jnsgd1na2vs0mg"},{"bike_id":"8c1211a8-861b-4785-8d7c-1e9bc91241f4","system_id":"levelo_inurba_marseille","lat":43.29587,"lon":5.375045,"is_reserved":false,"is_disabled":false,"rental_uris":{"android":"levelo://app?vid=8c1211a8-861b-4785-8d7c-1e9bc91241f4","ios":"levelo://app?vid=8c1211a8-861b-4785-8d7c-1e9bc91241f4"},"vehicle_type_id":"4","last_reported":1736957431,"current_range_meters":27600,"station_id":"ce4bgh92rcd13ifvqb50","pricing_plan_id":"cebpf4jnsgd1na2vs0mg"},{"bike_id":"3b0df8f4-c955-4df9-b9e1-023598765e48","system_id":"levelo_inurba_marseille","lat":43.29709,"lon":5.36617,"is_reserved":false,"is_disabled":false,"rental_uris":{"android":"levelo://app?vid=3b0df8f4-c955-4df9-b9e1-023598765e48","ios":"levelo://app?vid=3b0df8f4-c955-4df9-b9e1-023598765e48"},"vehicle_type_id":"4","last_reported":1736957431,"current_range_meters":28400,"station_id":"ce4bgn12rcd13ifvqbt0","pricing_plan_id":"cebpf4jnsgd1na2vs0mg"},{"bike_id":"155dbf4b-d6fe-46aa-9097-9994452a5158","system_id":"levelo_inurba_marseille","lat":43.2307,"lon":5.35489,"is_reserved":false,"is_disabled":false,"rental_uris":{"android":"levelo://app?vid=155dbf4b-d6fe-46aa-9097-9994452a5158","ios":"levelo://app?vid=155dbf4b-d6fe-46aa-9097-9994452a5158"},"vehicle_type_id":"4","last_reported":1736957431,"current_range_meters":12000,"station_id":"cpo3342slgdg3j2ifvpg","pricing_plan_id":"cebpf4jnsgd1na2vs0mg"},{"bike_id":"93462140-a761-43df-8416-2bb7c1d2c18d","system_id":"levelo_inurba_marseille","lat":43.26574,"lon":5.39006,"is_reserved":false,"is_disabled":false,"rental_uris":{"android":"levelo://app?vid=93462140-a761-43df-8416-2bb7c1d2c18d","ios":"levelo://app?vid=93462140-a761-43df-8416-2bb7c1d2c18d"},"vehicle_type_id":"4","last_reported":1736957431,"current_range_meters":27200,"station_id":"ce4bhe12rcd13ifvqf30","pricing_plan_id":"cebpf4jnsgd1na2vs0mg"},{"bike_id":"b04bca53-7737-4ef3-b26d-f6b2d60c721f","system_id":"levelo_inurba_marseille","lat":43.3149,"lon":5.37289,"is_reserved":false,"is_disabled":false,"rental_uris":{"android":"levelo://app?vid=b04bca53-7737-4ef3-b26d-f6b2d60c721f","ios":"levelo://app?vid=b04bca53-7737-4ef3-b26d-f6b2d60c721f"},"vehicle_type_id":"4","last_reported":1736957431,"current_range_meters":27600,"station_id":"ce4bgt12rcd13ifvqcd0","pricing_plan_id":"cebpf4jnsgd1na2vs0mg"},{"bike_id":"fea1b24d-bbfb-474a-b028-8645483cd7e6","system_id":"levelo_inurba_marseille","lat":43.33764,"lon":5.37473,"is_reserved":false,"is_disabled":false,"rental_uris":{"android":"levelo://app?vid=fea1b24d-bbfb-474a-b028-8645483cd7e6","ios":"levelo://app?vid=fea1b24d-bbfb-474a-b028-8645483cd7e6"},"vehicle_type_id":"4","last_reported":1736957431,"current_range_meters":36800,"station_id":"","pricing_plan_id":"cebpf4jnsgd1na2vs0mg"},{"bike_id":"9c76b6ed-c863-4f75-a68a-3f6877a13759","system_id":"levelo_inurba_marseille","lat":43.25507,"lon":5.37654,"is_reserved":false,"is_disabled":false,"rental_uris":{"android":"levelo://app?vid=9c76b6ed-c863-4f75-a68a-3f6877a13759","ios":"levelo://app?vid=9c76b6ed-c863-4f75-a68a-3f6877a13759"},"vehicle_type_id":"4","last_reported":1736957431,"current_range_meters":22800,"station_id":"ce4bhh12rcd13ifvqff0","pricing_plan_id":"cebpf4jnsgd1na2vs0mg"},{"bike_id":"eb3cfde7-0e19-4fe4-812f-cd9fb9af6e0c","system_id":"levelo_inurba_marseille","lat":43.27997,"lon":5.41663,"is_reserved":false,"is_disabled":false,"rental_uris":{"android":"levelo://app?vid=eb3cfde7-0e19-4fe4-812f-cd9fb9af6e0c","ios":"levelo://app?vid=eb3cfde7-0e19-4fe4-812f-cd9fb9af6e0c"},"vehicle_type_id":"4","last_reported":1736957431,"current_range_meters":39200,"station_id":"ce4bho12rcd13ifvqh1g","pricing_plan_id":"cebpf4jnsgd1na2vs0mg"},{"bike_id":"55077a3d-ab60-42c3-b097-5558157a8b75","system_id":"levelo_inurba_marseille","lat":43.26564,"lon":5.39009,"is_reserved":false,"is_disabled":false,"rental_uris":{"android":"levelo://app?vid=55077a3d-ab60-42c3-b097-5558157a8b75","ios":"levelo://app?vid=55077a3d-ab60-42c3-b097-5558157a8b75"},"vehicle_type_id":"4","last_reported":1736957431,"current_range_meters":34000,"station_id":"ce4bhe12rcd13ifvqf30","pricing_plan_id":"cebpf4jnsgd1na2vs0mg"},{"bike_id":"0de1c0c3-224c-470c-9c40-92abbb1e542e","system_id":"levelo_inurba_marseille","lat":43.27416,"lon":5.39389,"is_reserved":false,"is_disabled":true,"rental_uris":{"android":"levelo://app?vid=0de1c0c3-224c-470c-9c40-92abbb1e542e","ios":"levelo://app?vid=0de1c0c3-224c-470c-9c40-92abbb1e542e"},"vehicle_type_id":"4","last_reported":1736957431,"current_range_meters":28000,"station_id":"ce4bhdp2rcd13ifvqf20","pricing_plan_id":"cebpf4jnsgd1na2vs0mg"},{"bike_id":"73f1c851-1049-430e-8368-87296464dcce","system_id":"levelo_inurba_marseille","lat":43.32477,"lon":5.36575,"is_reserved":false,"is_disabled":false,"rental_uris":{"android":"levelo://app?vid=73f1c851-1049-430e-8368-87296464dcce","ios":"levelo://app?vid=73f1c851-1049-430e-8368-87296464dcce"},"vehicle_type_id":"4","last_reported":1736957431,"current_range_meters":32400,"station_id":"ce4bhs12rcd13ifvqhvg","pricing_plan_id":"cebpf4jnsgd1na2vs0mg"},{"bike_id":"aefe4a30-c5ba-4d63-b12e-3c5e0905d339","system_id":"levelo_inurba_marseille","lat":43.26496,"lon":5.39545,"is_reserved":false,"is_disabled":false,"rental_uris":{"android":"levelo://app?vid=aefe4a30-c5ba-4d63-b12e-3c5e0905d339","ios":"levelo://app?vid=aefe4a30-c5ba-4d63-b12e-3c5e0905d339"},"vehicle_type_id":"4","last_reported":1736957431,"current_range_meters":35200,"station_id":"ce4bhi12rcd13ifvqfq0","pricing_plan_id":"cebpf4jnsgd1na2vs0mg"},{"bike_id":"1f149e26-9d4e-4970-96ec-1b76430b914b","system_id":"levelo_inurba_marseille","lat":43.243859,"lon":5.370573,"is_reserved":false,"is_disabled":false,"rental_uris":{"android":"levelo://app?vid=1f149e26-9d4e-4970-96ec-1b76430b914b","ios":"levelo://app?vid=1f149e26-9d4e-4970-96ec-1b76430b914b"},"vehicle_type_id":"4","last_reported":1736957431,"current_range_meters":38000,"station_id":"ce4bhhh2rcd13ifvqfk0","pricing_plan_id":"cebpf4jnsgd1na2vs0mg"},{"bike_id":"da3afe3c-5cdd-453f-9551-77e8476e7381","system_id":"levelo_inurba_marseille","lat":43.29525,"lon":5.38543,"is_reserved":false,"is_disabled":true,"rental_uris":{"android":"levelo://app?vid=da3afe3c-5cdd-453f-9551-77e8476e7381","ios":"levelo://app?vid=da3afe3c-5cdd-453f-9551-77e8476e7381"},"vehicle_type_id":"4","last_reported":1736957431,"current_range_meters":38800,"station_id":"ce4bgih2rcd13ifvqba0","pricing_plan_id":"cebpf4jnsgd1na2vs0mg"},{"bike_id":"44b46c88-88d0-4104-ab0b-0b24d36857ed","system_id":"levelo_inurba_marseille","lat":43.31115,"lon":5.37767,"is_reserved":false,"is_disabled":false,"rental_uris":{"android":"levelo://app?vid=44b46c88-88d0-4104-ab0b-0b24d36857ed","ios":"levelo://app?vid=44b46c88-88d0-4104-ab0b-0b24d36857ed"},"vehicle_type_id":"4","last_reported":1736957431,"current_range_meters":34000,"station_id":"ce4bgt92rcd13ifvqcg0","pricing_plan_id":"cebpf4jnsgd1na2vs0mg"},{"bike_id":"e052f47d-c314-4142-a490-846c18d74eff","system_id":"levelo_inurba_marseille","lat":43.28712,"lon":5.37938,"is_reserved":false,"is_disabled":true,"rental_uris":{"android":"levelo://app?vid=e052f47d-c314-4142-a490-846c18d74eff","ios":"levelo://app?vid=e052f47d-c314-4142-a490-846c18d74eff"},"vehicle_type_id":"4","last_reported":1736957431,"current_range_meters":30000,"station_id":"ce4bh9p2rcd13ifvqec0","pricing_plan_id":"cebpf4jnsgd1na2vs0mg"},{"bike_id":"1f556043-0957-4d52-93a2-3655da0a4ab4","system_id":"levelo_inurba_marseille","lat":43.29622,"lon":5.37173,"is_reserved":false,"is_disabled":false,"rental_uris":{"android":"levelo://app?vid=1f556043-0957-4d52-93a2-3655da0a4ab4","ios":"levelo://app?vid=1f556043-0957-4d52-93a2-3655da0a4ab4"},"vehicle_type_id":"4","last_reported":1736957431,"current_range_meters":35600,"station_id":"ce4bgnh2rcd13ifvqc0g","pricing_plan_id":"cebpf4jnsgd1na2vs0mg"},{"bike_id":"e9845364-7513-442a-a54f-e35064cdd878","system_id":"levelo_inurba_marseille","lat":43.26677,"lon":5.38268,"is_reserved":false,"is_disabled":false,"rental_uris":{"android":"levelo://app?vid=e9845364-7513-442a-a54f-e35064cdd878","ios":"levelo://app?vid=e9845364-7513-442a-a54f-e35064cdd878"},"vehicle_type_id":"4","last_reported":1736957431,"current_range_meters":38800,"station_id":"ce4bhg92rcd13ifvqf90","pricing_plan_id":"cebpf4jnsgd1na2vs0mg"},{"bike_id":"2c839bfc-228b-4afd-9c45-0e54b8f36672","system_id":"levelo_inurba_marseille","lat":43.2466,"lon":5.38899,"is_reserved":false,"is_disabled":false,"rental_uris":{"android":"levelo://app?vid=2c839bfc-228b-4afd-9c45-0e54b8f36672","ios":"levelo://app?vid=2c839bfc-228b-4afd-9c45-0e54b8f36672"},"vehicle_type_id":"4","last_reported":1736957431,"current_range_meters":38800,"station_id":"ce4bhg12rcd13ifvqf60","pricing_plan_id":"cebpf4jnsgd1na2vs0mg"},{"bike_id":"1bb33185-b77a-4c58-baaa-33184c9627d6","system_id":"levelo_inurba_marseille","lat":43.26564,"lon":5.37294,"is_reserved":false,"is_disabled":false,"rental_uris":{"android":"levelo://app?vid=1bb33185-b77a-4c58-baaa-33184c9627d6","ios":"levelo://app?vid=1bb33185-b77a-4c58-baaa-33184c9627d6"},"vehicle_type_id":"4","last_reported":1736957431,"current_range_meters":35600,"station_id":"ce4bhg12rcd13ifvqf70","pricing_plan_id":"cebpf4jnsgd1na2vs0mg"},{"bike_id":"663d7f2c-2062-4d24-ae4c-cbceda4e4161","system_id":"levelo_inurba_marseille","lat":43.27177,"lon":5.40996,"is_reserved":false,"is_disabled":false,"rental_uris":{"android":"levelo://app?vid=663d7f2c-2062-4d24-ae4c-cbceda4e4161","ios":"levelo://app?vid=663d7f2c-2062-4d24-ae4c-cbceda4e4161"},"vehicle_type_id":"4","last_reported":1736957431,"current_range_meters":32000,"station_id":"ce4bhl12rcd13ifvqgf0","pricing_plan_id":"cebpf4jnsgd1na2vs0mg"},{"bike_id":"501a3598-7a32-4c77-bb25-544b83aa1c6c","system_id":"levelo_inurba_marseille","lat":43.324626,"lon":5.36572,"is_reserved":false,"is_disabled":false,"rental_uris":{"android":"levelo://app?vid=501a3598-7a32-4c77-bb25-544b83aa1c6c","ios":"levelo://app?vid=501a3598-7a32-4c77-bb25-544b83aa1c6c"},"vehicle_type_id":"4","last_reported":1736957431,"current_range_meters":15200,"station_id":"ce4bhs12rcd13ifvqhvg","pricing_plan_id":"cebpf4jnsgd1na2vs0mg"},{"bike_id":"1e532559-6003-4319-9021-c663930106a4","system_id":"levelo_inurba_marseille","lat":43.32346,"lon":5.40605,"is_reserved":false,"is_disabled":false,"rental_uris":{"android":"levelo://app?vid=1e532559-6003-4319-9021-c663930106a4","ios":"levelo://app?vid=1e532559-6003-4319-9021-c663930106a4"},"vehicle_type_id":"4","last_reported":1736957431,"current_range_meters":18800,"station_id":"ce4bhq92rcd13ifvqhjg","pricing_plan_id":"cebpf4jnsgd1na2vs0mg"},{"bike_id":"36f88621-bbfd-41a7-b1c5-65b5058829a7","system_id":"levelo_inurba_marseille","lat":43.31116,"lon":5.37758,"is_reserved":false,"is_disabled":false,"rental_uris":{"android":"levelo://app?vid=36f88621-bbfd-41a7-b1c5-65b5058829a7","ios":"levelo://app?vid=36f88621-bbfd-41a7-b1c5-65b5058829a7"},"vehicle_type_id":"4","last_reported":1736957431,"current_range_meters":36400,"station_id":"ce4bgt92rcd13ifvqcg0","pricing_plan_id":"cebpf4jnsgd1na2vs0mg"},{"bike_id":"a15980ac-c225-4e68-8982-6cc8c4cbfd79","system_id":"levelo_inurba_marseille","lat":43.231967,"lon":5.355568,"is_reserved":false,"is_disabled":false,"rental_uris":{"android":"levelo://app?vid=a15980ac-c225-4e68-8982-6cc8c4cbfd79","ios":"levelo://app?vid=a15980ac-c225-4e68-8982-6cc8c4cbfd79"},"vehicle_type_id":"4","last_reported":1736957431,"current_range_meters":38800,"station_id":"ce4bhu92rcd13ifvqi70","pricing_plan_id":"cebpf4jnsgd1na2vs0mg"},{"bike_id":"14af3bb9-c939-41e0-9046-a8275f2197af","system_id":"levelo_inurba_marseille","lat":43.24996,"lon":5.38929,"is_reserved":false,"is_disabled":true,"rental_uris":{"android":"levelo://app?vid=14af3bb9-c939-41e0-9046-a8275f2197af","ios":"levelo://app?vid=14af3bb9-c939-41e0-9046-a8275f2197af"},"vehicle_type_id":"4","last_reported":1736957431,"current_range_meters":800,"station_id":"ce4bhgp2rcd13ifvqfd0","pricing_plan_id":"cebpf4jnsgd1na2vs0mg"},{"bike_id":"60a36d64-a09a-4008-a0b3-c5b1814794f2","system_id":"levelo_inurba_marseille","lat":43.29414,"lon":5.38621,"is_reserved":false,"is_disabled":false,"rental_uris":{"android":"levelo://app?vid=60a36d64-a09a-4008-a0b3-c5b1814794f2","ios":"levelo://app?vid=60a36d64-a09a-4008-a0b3-c5b1814794f2"},"vehicle_type_id":"4","last_reported":1736957431,"current_range_meters":39200,"station_id":"ce4bh2h2rcd13ifvqdh0","pricing_plan_id":"cebpf4jnsgd1na2vs0mg"},{"bike_id":"b87e87e6-7cef-4f73-bf2f-59c0dd94ca87","system_id":"levelo_inurba_marseille","lat":43.27069,"lon":5.42277,"is_reserved":false,"is_disabled":false,"rental_uris":{"android":"levelo://app?vid=b87e87e6-7cef-4f73-bf2f-59c0dd94ca87","ios":"levelo://app?vid=b87e87e6-7cef-4f73-bf2f-59c0dd94ca87"},"vehicle_type_id":"4","last_reported":1736957431,"current_range_meters":25600,"station_id":"ce4bhk92rcd13ifvqgb0","pricing_plan_id":"cebpf4jnsgd1na2vs0mg"},{"bike_id":"76488d58-41b8-432f-add2-18ae739fc673","system_id":"levelo_inurba_marseille","lat":43.25491,"lon":5.37649,"is_reserved":false,"is_disabled":false,"rental_uris":{"android":"levelo://app?vid=76488d58-41b8-432f-add2-18ae739fc673","ios":"levelo://app?vid=76488d58-41b8-432f-add2-18ae739fc673"},"vehicle_type_id":"4","last_reported":1736957431,"current_range_meters":16400,"station_id":"ce4bhh12rcd13ifvqff0","pricing_plan_id":"cebpf4jnsgd1na2vs0mg"},{"bike_id":"91d9a31c-d7fd-48be-93e6-336379ca3604","system_id":"levelo_inurba_marseille","lat":43.27055,"lon":5.40259,"is_reserved":false,"is_disabled":false,"rental_uris":{"android":"levelo://app?vid=91d9a31c-d7fd-48be-93e6-336379ca3604","ios":"levelo://app?vid=91d9a31c-d7fd-48be-93e6-336379ca3604"},"vehicle_type_id":"4","last_reported":1736957431,"current_range_meters":7200,"station_id":"ce4bhk92rcd13ifvqgc0","pricing_plan_id":"cebpf4jnsgd1na2vs0mg"},{"bike_id":"51bb6953-dea8-4e82-96bf-52696267905f","system_id":"levelo_inurba_marseille","lat":43.23061,"lon":5.35494,"is_reserved":false,"is_disabled":false,"rental_uris":{"android":"levelo://app?vid=51bb6953-dea8-4e82-96bf-52696267905f","ios":"levelo://app?vid=51bb6953-dea8-4e82-96bf-52696267905f"},"vehicle_type_id":"4","last_reported":1736957431,"current_range_meters":38800,"station_id":"cpo3342slgdg3j2ifvpg","pricing_plan_id":"cebpf4jnsgd1na2vs0mg"},{"bike_id":"eba900f5-c2f5-447a-991c-484e15875092","system_id":"levelo_inurba_marseille","lat":43.26562,"lon":5.39004,"is_reserved":false,"is_disabled":false,"rental_uris":{"android":"levelo://app?vid=eba900f5-c2f5-447a-991c-484e15875092","ios":"levelo://app?vid=eba900f5-c2f5-447a-991c-484e15875092"},"vehicle_type_id":"4","last_reported":1736957431,"current_range_meters":8400,"station_id":"ce4bhe12rcd13ifvqf30","pricing_plan_id":"cebpf4jnsgd1na2vs0mg"},{"bike_id":"8f689d93-96c4-4ef6-b8c3-1e05071b86b0","system_id":"levelo_inurba_marseille","lat":43.28936,"lon":5.36616,"is_reserved":false,"is_disabled":false,"rental_uris":{"android":"levelo://app?vid=8f689d93-96c4-4ef6-b8c3-1e05071b86b0","ios":"levelo://app?vid=8f689d93-96c4-4ef6-b8c3-1e05071b86b0"},"vehicle_type_id":"4","last_reported":1736957431,"current_range_meters":38800,"station_id":"ce4bhap2rcd13ifvqek0","pricing_plan_id":"cebpf4jnsgd1na2vs0mg"},{"bike_id":"4368df9c-235a-4d6d-a0e4-6a0c0b9f89c4","system_id":"levelo_inurba_marseille","lat":43.24074,"lon":5.3775,"is_reserved":false,"is_disabled":false,"rental_uris":{"android":"levelo://app?vid=4368df9c-235a-4d6d-a0e4-6a0c0b9f89c4","ios":"levelo://app?vid=4368df9c-235a-4d6d-a0e4-6a0c0b9f89c4"},"vehicle_type_id":"4","last_reported":1736957431,"current_range_meters":39200,"station_id":"ce4bhnp2rcd13ifvqgvg","pricing_plan_id":"cebpf4jnsgd1na2vs0mg"},{"bike_id":"ca98b027-a6b1-4ad4-9122-1548fee4bbda","system_id":"levelo_inurba_marseille","lat":43.25497,"lon":5.37663,"is_reserved":false,"is_disabled":false,"rental_uris":{"android":"levelo://app?vid=ca98b027-a6b1-4ad4-9122-1548fee4bbda","ios":"levelo://app?vid=ca98b027-a6b1-4ad4-9122-1548fee4bbda"},"vehicle_type_id":"4","last_reported":1736957431,"current_range_meters":35200,"station_id":"ce4bhh12rcd13ifvqff0","pricing_plan_id":"cebpf4jnsgd1na2vs0mg"},{"bike_id":"1a88b36a-bdcc-4ab6-a257-59715f73d204","system_id":"levelo_inurba_marseille","lat":43.26681,"lon":5.38275,"is_reserved":false,"is_disabled":false,"rental_uris":{"android":"levelo://app?vid=1a88b36a-bdcc-4ab6-a257-59715f73d204","ios":"levelo://app?vid=1a88b36a-bdcc-4ab6-a257-59715f73d204"},"vehicle_type_id":"4","last_reported":1736957431,"current_range_meters":25200,"station_id":"ce4bhg92rcd13ifvqf90","pricing_plan_id":"cebpf4jnsgd1na2vs0mg"},{"bike_id":"f6b5a21b-caca-4bab-9767-62a516c88435","system_id":"levelo_inurba_marseille","lat":43.24657,"lon":5.38888,"is_reserved":false,"is_disabled":false,"rental_uris":{"android":"levelo://app?vid=f6b5a21b-caca-4bab-9767-62a516c88435","ios":"levelo://app?vid=f6b5a21b-caca-4bab-9767-62a516c88435"},"vehicle_type_id":"4","last_reported":1736957431,"current_range_meters":38800,"station_id":"ce4bhg12rcd13ifvqf60","pricing_plan_id":"cebpf4jnsgd1na2vs0mg"},{"bike_id":"1ab3f322-8e8f-40bf-b46a-ad736fdeffee","system_id":"levelo_inurba_marseille","lat":43.23161,"lon":5.43731,"is_reserved":false,"is_disabled":false,"rental_uris":{"android":"levelo://app?vid=1ab3f322-8e8f-40bf-b46a-ad736fdeffee","ios":"levelo://app?vid=1ab3f322-8e8f-40bf-b46a-ad736fdeffee"},"vehicle_type_id":"4","last_reported":1736957431,"current_range_meters":38000,"station_id":"ce4bhmp2rcd13ifvqgog","pricing_plan_id":"cebpf4jnsgd1na2vs0mg"},{"bike_id":"4a8c20d9-670a-4029-9219-52996fd0718d","system_id":"levelo_inurba_marseille","lat":43.28074,"lon":5.39654,"is_reserved":false,"is_disabled":true,"rental_uris":{"android":"levelo://app?vid=4a8c20d9-670a-4029-9219-52996fd0718d","ios":"levelo://app?vid=4a8c20d9-670a-4029-9219-52996fd0718d"},"vehicle_type_id":"4","last_reported":1736957431,"current_range_meters":400,"station_id":"ce4bho12rcd13ifvqh2g","pricing_plan_id":"cebpf4jnsgd1na2vs0mg"},{"bike_id":"502bdc84-1069-4733-90d3-ee67a2559664","system_id":"levelo_inurba_marseille","lat":43.28439,"lon":5.39197,"is_reserved":false,"is_disabled":false,"rental_uris":{"android":"levelo://app?vid=502bdc84-1069-4733-90d3-ee67a2559664","ios":"levelo://app?vid=502bdc84-1069-4733-90d3-ee67a2559664"},"vehicle_type_id":"4","last_reported":1736957431,"current_range_meters":400,"station_id":"ce4bhoh2rcd13ifvqh5g","pricing_plan_id":"cebpf4jnsgd1na2vs0mg"},{"bike_id":"7e4ad9eb-7798-4781-a19f-b09a3d03f9e1","system_id":"levelo_inurba_marseille","lat":43.2439,"lon":5.37065,"is_reserved":false,"is_disabled":false,"rental_uris":{"android":"levelo://app?vid=7e4ad9eb-7798-4781-a19f-b09a3d03f9e1","ios":"levelo://app?vid=7e4ad9eb-7798-4781-a19f-b09a3d03f9e1"},"vehicle_type_id":"4","last_reported":1736957431,"current_range_meters":22800,"station_id":"ce4bhhh2rcd13ifvqfk0","pricing_plan_id":"cebpf4jnsgd1na2vs0mg"},{"bike_id":"cb57f13e-0f96-498a-b9ca-57c0b42e7a64","system_id":"levelo_inurba_marseille","lat":43.23962,"lon":5.36636,"is_reserved":false,"is_disabled":false,"rental_uris":{"android":"levelo://app?vid=cb57f13e-0f96-498a-b9ca-57c0b42e7a64","ios":"levelo://app?vid=cb57f13e-0f96-498a-b9ca-57c0b42e7a64"},"vehicle_type_id":"4","last_reported":1736957431,"current_range_meters":24000,"station_id":"ce4bhi12rcd13ifvqfp0","pricing_plan_id":"cebpf4jnsgd1na2vs0mg"},{"bike_id":"a56bdef2-14b8-4e02-b3bc-538917283971","system_id":"levelo_inurba_marseille","lat":43.25094,"lon":5.39512,"is_reserved":false,"is_disabled":false,"rental_uris":{"android":"levelo://app?vid=a56bdef2-14b8-4e02-b3bc-538917283971","ios":"levelo://app?vid=a56bdef2-14b8-4e02-b3bc-538917283971"},"vehicle_type_id":"4","last_reported":1736957431,"current_range_meters":27600,"station_id":"ce4bhm12rcd13ifvqgkg","pricing_plan_id":"cebpf4jnsgd1na2vs0mg"},{"bike_id":"2b75d51d-2688-4919-ac8b-574def0d5a27","system_id":"levelo_inurba_marseille","lat":43.30643,"lon":5.40084,"is_reserved":false,"is_disabled":false,"rental_uris":{"android":"levelo://app?vid=2b75d51d-2688-4919-ac8b-574def0d5a27","ios":"levelo://app?vid=2b75d51d-2688-4919-ac8b-574def0d5a27"},"vehicle_type_id":"4","last_reported":1736957431,"current_range_meters":28400,"station_id":"ce4bh112rcd13ifvqda0","pricing_plan_id":"cebpf4jnsgd1na2vs0mg"},{"bike_id":"da2b8bfa-ca25-438c-8821-598b2c7e52f1","system_id":"levelo_inurba_marseille","lat":43.29894,"lon":5.43666,"is_reserved":false,"is_disabled":false,"rental_uris":{"android":"levelo://app?vid=da2b8bfa-ca25-438c-8821-598b2c7e52f1","ios":"levelo://app?vid=da2b8bfa-ca25-438c-8821-598b2c7e52f1"},"vehicle_type_id":"4","last_reported":1736957431,"current_range_meters":38800,"station_id":"ce4bhpp2rcd13ifvqhfg","pricing_plan_id":"cebpf4jnsgd1na2vs0mg"},{"bike_id":"4ac2836e-3636-4e64-ae51-4b5c921531b5","system_id":"levelo_inurba_marseille","lat":43.27998,"lon":5.41661,"is_reserved":false,"is_disabled":false,"rental_uris":{"android":"levelo://app?vid=4ac2836e-3636-4e64-ae51-4b5c921531b5","ios":"levelo://app?vid=4ac2836e-3636-4e64-ae51-4b5c921531b5"},"vehicle_type_id":"4","last_reported":1736957431,"current_range_meters":3200,"station_id":"ce4bho12rcd13ifvqh1g","pricing_plan_id":"cebpf4jnsgd1na2vs0mg"},{"bike_id":"53ab4ea6-3808-48d3-a73a-4698dbc9c208","system_id":"levelo_inurba_marseille","lat":43.3093,"lon":5.40159,"is_reserved":false,"is_disabled":false,"rental_uris":{"android":"levelo://app?vid=53ab4ea6-3808-48d3-a73a-4698dbc9c208","ios":"levelo://app?vid=53ab4ea6-3808-48d3-a73a-4698dbc9c208"},"vehicle_type_id":"4","last_reported":1736957431,"current_range_meters":20400,"station_id":"ce4bgvp2rcd13ifvqct0","pricing_plan_id":"cebpf4jnsgd1na2vs0mg"},{"bike_id":"e5b9252e-eebf-4c90-b028-b53cc4934330","system_id":"levelo_inurba_marseille","lat":43.30364,"lon":5.41882,"is_reserved":false,"is_disabled":true,"rental_uris":{"android":"levelo://app?vid=e5b9252e-eebf-4c90-b028-b53cc4934330","ios":"levelo://app?vid=e5b9252e-eebf-4c90-b028-b53cc4934330"},"vehicle_type_id":"4","last_reported":1736957431,"current_range_meters":16800,"station_id":"ce4bhop2rcd13ifvqh7g","pricing_plan_id":"cebpf4jnsgd1na2vs0mg"},{"bike_id":"93af35ad-738e-40e4-afcb-6d3589d7e732","system_id":"levelo_inurba_marseille","lat":43.23147,"lon":5.43696,"is_reserved":false,"is_disabled":false,"rental_uris":{"android":"levelo://app?vid=93af35ad-738e-40e4-afcb-6d3589d7e732","ios":"levelo://app?vid=93af35ad-738e-40e4-afcb-6d3589d7e732"},"vehicle_type_id":"4","last_reported":1736957431,"current_range_meters":26800,"station_id":"ce4bhmp2rcd13ifvqgog","pricing_plan_id":"cebpf4jnsgd1na2vs0mg"},{"bike_id":"653d7eb5-e932-4d0f-8eba-b2bccd81fbe5","system_id":"levelo_inurba_marseille","lat":43.31355,"lon":5.36708,"is_reserved":false,"is_disabled":true,"rental_uris":{"android":"levelo://app?vid=653d7eb5-e932-4d0f-8eba-b2bccd81fbe5","ios":"levelo://app?vid=653d7eb5-e932-4d0f-8eba-b2bccd81fbe5"},"vehicle_type_id":"4","last_reported":1736957431,"current_range_meters":0,"station_id":"ce4bgr92rcd13ifvqc6g","pricing_plan_id":"cebpf4jnsgd1na2vs0mg"},{"bike_id":"ce0e37a0-d552-42bb-b54c-70a831fa1f41","system_id":"levelo_inurba_marseille","lat":43.306989,"lon":5.367749,"is_reserved":false,"is_disabled":false,"rental_uris":{"android":"levelo://app?vid=ce0e37a0-d552-42bb-b54c-70a831fa1f41","ios":"levelo://app?vid=ce0e37a0-d552-42bb-b54c-70a831fa1f41"},"vehicle_type_id":"4","last_reported":1736957431,"current_range_meters":10800,"station_id":"ce4bgrp2rcd13ifvqc9g","pricing_plan_id":"cebpf4jnsgd1na2vs0mg"},{"bike_id":"97d0ae5a-8e1b-4c5d-883e-f9c57a6150fb","system_id":"levelo_inurba_marseille","lat":43.29035,"lon":5.37552,"is_reserved":false,"is_disabled":false,"rental_uris":{"android":"levelo://app?vid=97d0ae5a-8e1b-4c5d-883e-f9c57a6150fb","ios":"levelo://app?vid=97d0ae5a-8e1b-4c5d-883e-f9c57a6150fb"},"vehicle_type_id":"4","last_reported":1736957431,"current_range_meters":34000,"station_id":"ce4bh692rcd13ifvqe90","pricing_plan_id":"cebpf4jnsgd1na2vs0mg"},{"bike_id":"bf9fa473-406d-4cf1-9a0a-a19c23399b29","system_id":"levelo_inurba_marseille","lat":43.31333,"lon":5.39688,"is_reserved":false,"is_disabled":false,"rental_uris":{"android":"levelo://app?vid=bf9fa473-406d-4cf1-9a0a-a19c23399b29","ios":"levelo://app?vid=bf9fa473-406d-4cf1-9a0a-a19c23399b29"},"vehicle_type_id":"4","last_reported":1736957431,"current_range_meters":39200,"station_id":"ce4bgvp2rcd13ifvqcu0","pricing_plan_id":"cebpf4jnsgd1na2vs0mg"},{"bike_id":"0adbfa65-465c-487a-8c44-6247250163c9","system_id":"levelo_inurba_marseille","lat":43.31219,"lon":5.36866,"is_reserved":false,"is_disabled":true,"rental_uris":{"android":"levelo://app?vid=0adbfa65-465c-487a-8c44-6247250163c9","ios":"levelo://app?vid=0adbfa65-465c-487a-8c44-6247250163c9"},"vehicle_type_id":"4","last_reported":1736957431,"current_range_meters":4800,"station_id":"ce4bgl92rcd13ifvqbq0","pricing_plan_id":"cebpf4jnsgd1na2vs0mg"},{"bike_id":"c57f7411-350c-444f-bc55-fcab7a54283f","system_id":"levelo_inurba_marseille","lat":43.27943,"lon":5.41051,"is_reserved":false,"is_disabled":false,"rental_uris":{"android":"levelo://app?vid=c57f7411-350c-444f-bc55-fcab7a54283f","ios":"levelo://app?vid=c57f7411-350c-444f-bc55-fcab7a54283f"},"vehicle_type_id":"4","last_reported":1736957431,"current_range_meters":33600,"station_id":"ce4bhnp2rcd13ifvqh0g","pricing_plan_id":"cebpf4jnsgd1na2vs0mg"},{"bike_id":"d8e3941b-0cae-4b8e-ae3c-c34a4b3b2c65","system_id":"levelo_inurba_marseille","lat":43.31989,"lon":5.38146,"is_reserved":false,"is_disabled":false,"rental_uris":{"android":"levelo://app?vid=d8e3941b-0cae-4b8e-ae3c-c34a4b3b2c65","ios":"levelo://app?vid=d8e3941b-0cae-4b8e-ae3c-c34a4b3b2c65"},"vehicle_type_id":"4","last_reported":1736957431,"current_range_meters":38800,"station_id":"ce4bhr12rcd13ifvqhpg","pricing_plan_id":"cebpf4jnsgd1na2vs0mg"},{"bike_id":"9db02719-0257-42d2-a2f1-eb9f3f010788","system_id":"levelo_inurba_marseille","lat":43.2857,"lon":5.38406,"is_reserved":false,"is_disabled":true,"rental_uris":{"android":"levelo://app?vid=9db02719-0257-42d2-a2f1-eb9f3f010788","ios":"levelo://app?vid=9db02719-0257-42d2-a2f1-eb9f3f010788"},"vehicle_type_id":"4","last_reported":1736957431,"current_range_meters":0,"station_id":"","pricing_plan_id":"cebpf4jnsgd1na2vs0mg"},{"bike_id":"ef7adbc7-f956-407a-a3eb-ebdd3e60d992","system_id":"levelo_inurba_marseille","lat":43.30545,"lon":5.3653,"is_reserved":false,"is_disabled":true,"rental_uris":{"android":"levelo://app?vid=ef7adbc7-f956-407a-a3eb-ebdd3e60d992","ios":"levelo://app?vid=ef7adbc7-f956-407a-a3eb-ebdd3e60d992"},"vehicle_type_id":"4","last_reported":1736957431,"current_range_meters":7200,"station_id":"ce4bgs12rcd13ifvqcag","pricing_plan_id":"cebpf4jnsgd1na2vs0mg"},{"bike_id":"2db40d09-b2bb-4d3e-97d1-6ad795f74a51","system_id":"levelo_inurba_marseille","lat":43.29265,"lon":5.3685,"is_reserved":false,"is_disabled":false,"rental_uris":{"android":"levelo://app?vid=2db40d09-b2bb-4d3e-97d1-6ad795f74a51","ios":"levelo://app?vid=2db40d09-b2bb-4d3e-97d1-6ad795f74a51"},"vehicle_type_id":"4","last_reported":1736957431,"current_range_meters":38000,"station_id":"ce4bhbp2rcd13ifvqesg","pricing_plan_id":"cebpf4jnsgd1na2vs0mg"},{"bike_id":"4df542d4-5bbd-4c6e-9c5e-d149bbcd1660","system_id":"levelo_inurba_marseille","lat":43.26205,"lon":5.37929,"is_reserved":false,"is_disabled":false,"rental_uris":{"android":"levelo://app?vid=4df542d4-5bbd-4c6e-9c5e-d149bbcd1660","ios":"levelo://app?vid=4df542d4-5bbd-4c6e-9c5e-d149bbcd1660"},"vehicle_type_id":"4","last_reported":1736957431,"current_range_meters":38000,"station_id":"ce4bhjp2rcd13ifvqg90","pricing_plan_id":"cebpf4jnsgd1na2vs0mg"},{"bike_id":"48d3fe8e-7b9c-4e94-91af-bc30a461e982","system_id":"levelo_inurba_marseille","lat":43.30537,"lon":5.36553,"is_reserved":false,"is_disabled":false,"rental_uris":{"android":"levelo://app?vid=48d3fe8e-7b9c-4e94-91af-bc30a461e982","ios":"levelo://app?vid=48d3fe8e-7b9c-4e94-91af-bc30a461e982"},"vehicle_type_id":"4","last_reported":1736957431,"current_range_meters":17600,"station_id":"ce4bgs12rcd13ifvqcag","pricing_plan_id":"cebpf4jnsgd1na2vs0mg"},{"bike_id":"c015a87c-d703-442c-907a-66c3f7e7d480","system_id":"levelo_inurba_marseille","lat":43.24674,"lon":5.38143,"is_reserved":false,"is_disabled":false,"rental_uris":{"android":"levelo://app?vid=c015a87c-d703-442c-907a-66c3f7e7d480","ios":"levelo://app?vid=c015a87c-d703-442c-907a-66c3f7e7d480"},"vehicle_type_id":"4","last_reported":1736957431,"current_range_meters":2800,"station_id":"ce4bhih2rcd13ifvqfr0","pricing_plan_id":"cebpf4jnsgd1na2vs0mg"},{"bike_id":"403439f7-8e74-4d85-913e-67da90f92235","system_id":"levelo_inurba_marseille","lat":43.29188,"lon":5.35805,"is_reserved":false,"is_disabled":false,"rental_uris":{"android":"levelo://app?vid=403439f7-8e74-4d85-913e-67da90f92235","ios":"levelo://app?vid=403439f7-8e74-4d85-913e-67da90f92235"},"vehicle_type_id":"4","last_reported":1736957431,"current_range_meters":25600,"station_id":"ce4bhb12rcd13ifvqel0","pricing_plan_id":"cebpf4jnsgd1na2vs0mg"},{"bike_id":"a1cbf57f-0d37-4cde-a4f4-e53c7978be93","system_id":"levelo_inurba_marseille","lat":43.26062,"lon":5.39392,"is_reserved":false,"is_disabled":false,"rental_uris":{"android":"levelo://app?vid=a1cbf57f-0d37-4cde-a4f4-e53c7978be93","ios":"levelo://app?vid=a1cbf57f-0d37-4cde-a4f4-e53c7978be93"},"vehicle_type_id":"4","last_reported":1736957431,"current_range_meters":7200,"station_id":"ce4bhh92rcd13ifvqfj0","pricing_plan_id":"cebpf4jnsgd1na2vs0mg"},{"bike_id":"001c7c1b-4025-4f72-8d68-98c84c5ed6c3","system_id":"levelo_inurba_marseille","lat":43.30526,"lon":5.36717,"is_reserved":false,"is_disabled":false,"rental_uris":{"android":"levelo://app?vid=001c7c1b-4025-4f72-8d68-98c84c5ed6c3","ios":"levelo://app?vid=001c7c1b-4025-4f72-8d68-98c84c5ed6c3"},"vehicle_type_id":"4","last_reported":1736957431,"current_range_meters":15200,"station_id":"ce4bgrp2rcd13ifvqc9g","pricing_plan_id":"cebpf4jnsgd1na2vs0mg"},{"bike_id":"0ad6f0f5-2cfe-40ff-8076-e9ff8eee4651","system_id":"levelo_inurba_marseille","lat":43.29232,"lon":5.3607,"is_reserved":false,"is_disabled":false,"rental_uris":{"android":"levelo://app?vid=0ad6f0f5-2cfe-40ff-8076-e9ff8eee4651","ios":"levelo://app?vid=0ad6f0f5-2cfe-40ff-8076-e9ff8eee4651"},"vehicle_type_id":"4","last_reported":1736957431,"current_range_meters":12000,"station_id":"ce4bhbh2rcd13ifvqeqg","pricing_plan_id":"cebpf4jnsgd1na2vs0mg"},{"bike_id":"7a26b63c-652f-4d2d-8353-1a9dfb4e945a","system_id":"levelo_inurba_marseille","lat":43.33723,"lon":5.39188,"is_reserved":false,"is_disabled":false,"rental_uris":{"android":"levelo://app?vid=7a26b63c-652f-4d2d-8353-1a9dfb4e945a","ios":"levelo://app?vid=7a26b63c-652f-4d2d-8353-1a9dfb4e945a"},"vehicle_type_id":"4","last_reported":1736957431,"current_range_meters":38800,"station_id":"ce4bhr92rcd13ifvqhsg","pricing_plan_id":"cebpf4jnsgd1na2vs0mg"},{"bike_id":"e96d83a8-cde8-404a-9e40-5bc9e9229ea9","system_id":"levelo_inurba_marseille","lat":43.33752,"lon":5.3742,"is_reserved":false,"is_disabled":false,"rental_uris":{"android":"levelo://app?vid=e96d83a8-cde8-404a-9e40-5bc9e9229ea9","ios":"levelo://app?vid=e96d83a8-cde8-404a-9e40-5bc9e9229ea9"},"vehicle_type_id":"4","last_reported":1736957431,"current_range_meters":37600,"station_id":"","pricing_plan_id":"cebpf4jnsgd1na2vs0mg"},{"bike_id":"56e0ff8f-f385-4150-9c69-b0a3357e7adb","system_id":"levelo_inurba_marseille","lat":43.260261,"lon":5.375564,"is_reserved":false,"is_disabled":false,"rental_uris":{"android":"levelo://app?vid=56e0ff8f-f385-4150-9c69-b0a3357e7adb","ios":"levelo://app?vid=56e0ff8f-f385-4150-9c69-b0a3357e7adb"},"vehicle_type_id":"4","last_reported":1736957431,"current_range_meters":8400,"station_id":"ce4bhgh2rcd13ifvqfa0","pricing_plan_id":"cebpf4jnsgd1na2vs0mg"},{"bike_id":"f406f5b6-3b68-4a35-b2d3-72de1dd6c3fb","system_id":"levelo_inurba_marseille","lat":43.28755,"lon":5.3522,"is_reserved":false,"is_disabled":false,"rental_uris":{"android":"levelo://app?vid=f406f5b6-3b68-4a35-b2d3-72de1dd6c3fb","ios":"levelo://app?vid=f406f5b6-3b68-4a35-b2d3-72de1dd6c3fb"},"vehicle_type_id":"4","last_reported":1736957431,"current_range_meters":27600,"station_id":"","pricing_plan_id":"cebpf4jnsgd1na2vs0mg"},{"bike_id":"886c2bbb-1b99-4795-80cb-99bf8240c559","system_id":"levelo_inurba_marseille","lat":43.24655,"lon":5.389,"is_reserved":false,"is_disabled":false,"rental_uris":{"android":"levelo://app?vid=886c2bbb-1b99-4795-80cb-99bf8240c559","ios":"levelo://app?vid=886c2bbb-1b99-4795-80cb-99bf8240c559"},"vehicle_type_id":"4","last_reported":1736957431,"current_range_meters":26000,"station_id":"ce4bhg12rcd13ifvqf60","pricing_plan_id":"cebpf4jnsgd1na2vs0mg"},{"bike_id":"3b401bb6-c6a6-4b87-8858-55d629130591","system_id":"levelo_inurba_marseille","lat":43.2603,"lon":5.37558,"is_reserved":false,"is_disabled":true,"rental_uris":{"android":"levelo://app?vid=3b401bb6-c6a6-4b87-8858-55d629130591","ios":"levelo://app?vid=3b401bb6-c6a6-4b87-8858-55d629130591"},"vehicle_type_id":"4","last_reported":1736957431,"current_range_meters":0,"station_id":"ce4bhgh2rcd13ifvqfa0","pricing_plan_id":"cebpf4jnsgd1na2vs0mg"},{"bike_id":"f6bb3330-51df-4aaa-8269-ab7638db39bd","system_id":"levelo_inurba_marseille","lat":43.2439,"lon":5.37044,"is_reserved":false,"is_disabled":false,"rental_uris":{"android":"levelo://app?vid=f6bb3330-51df-4aaa-8269-ab7638db39bd","ios":"levelo://app?vid=f6bb3330-51df-4aaa-8269-ab7638db39bd"},"vehicle_type_id":"4","last_reported":1736957431,"current_range_meters":30800,"station_id":"ce4bhhh2rcd13ifvqfk0","pricing_plan_id":"cebpf4jnsgd1na2vs0mg"},{"bike_id":"b72f5c81-7da9-44ab-bae7-4902cb063865","system_id":"levelo_inurba_marseille","lat":43.25724,"lon":5.411,"is_reserved":false,"is_disabled":false,"rental_uris":{"android":"levelo://app?vid=b72f5c81-7da9-44ab-bae7-4902cb063865","ios":"levelo://app?vid=b72f5c81-7da9-44ab-bae7-4902cb063865"},"vehicle_type_id":"4","last_reported":1736957431,"current_range_meters":38800,"station_id":"ce4bhkp2rcd13ifvqgd0","pricing_plan_id":"cebpf4jnsgd1na2vs0mg"},{"bike_id":"3379c2bb-3fe1-4143-b278-b3a8dcd262e1","system_id":"levelo_inurba_marseille","lat":43.30429,"lon":5.38891,"is_reserved":false,"is_disabled":false,"rental_uris":{"android":"levelo://app?vid=3379c2bb-3fe1-4143-b278-b3a8dcd262e1","ios":"levelo://app?vid=3379c2bb-3fe1-4143-b278-b3a8dcd262e1"},"vehicle_type_id":"4","last_reported":1736957431,"current_range_meters":14400,"station_id":"ce4bgk12rcd13ifvqbi0","pricing_plan_id":"cebpf4jnsgd1na2vs0mg"},{"bike_id":"293537b8-faa4-4512-9781-add1f5857757","system_id":"levelo_inurba_marseille","lat":43.27369,"lon":5.36244,"is_reserved":false,"is_disabled":false,"rental_uris":{"android":"levelo://app?vid=293537b8-faa4-4512-9781-add1f5857757","ios":"levelo://app?vid=293537b8-faa4-4512-9781-add1f5857757"},"vehicle_type_id":"4","last_reported":1736957431,"current_range_meters":38800,"station_id":"ce4bhbh2rcd13ifvqeo0","pricing_plan_id":"cebpf4jnsgd1na2vs0mg"},{"bike_id":"ae6a24c6-71f9-417a-adfe-c09c90280637","system_id":"levelo_inurba_marseille","lat":43.26569,"lon":5.37266,"is_reserved":false,"is_disabled":false,"rental_uris":{"android":"levelo://app?vid=ae6a24c6-71f9-417a-adfe-c09c90280637","ios":"levelo://app?vid=ae6a24c6-71f9-417a-adfe-c09c90280637"},"vehicle_type_id":"4","last_reported":1736957431,"current_range_meters":37600,"station_id":"ce4bhg12rcd13ifvqf70","pricing_plan_id":"cebpf4jnsgd1na2vs0mg"},{"bike_id":"c5748c79-66ea-4909-9026-e66a2b573a47","system_id":"levelo_inurba_marseille","lat":43.30304,"lon":5.36908,"is_reserved":false,"is_disabled":true,"rental_uris":{"android":"levelo://app?vid=c5748c79-66ea-4909-9026-e66a2b573a47","ios":"levelo://app?vid=c5748c79-66ea-4909-9026-e66a2b573a47"},"vehicle_type_id":"4","last_reported":1736957431,"current_range_meters":28000,"station_id":"ce4bgqh2rcd13ifvqc5g","pricing_plan_id":"cebpf4jnsgd1na2vs0mg"},{"bike_id":"963d2f1a-a37f-4b33-9980-94f3353a829c","system_id":"levelo_inurba_marseille","lat":43.29573,"lon":5.37504,"is_reserved":false,"is_disabled":false,"rental_uris":{"android":"levelo://app?vid=963d2f1a-a37f-4b33-9980-94f3353a829c","ios":"levelo://app?vid=963d2f1a-a37f-4b33-9980-94f3353a829c"},"vehicle_type_id":"4","last_reported":1736957431,"current_range_meters":38800,"station_id":"ce4bgh92rcd13ifvqb50","pricing_plan_id":"cebpf4jnsgd1na2vs0mg"},{"bike_id":"0c12b47b-ac3d-4b78-a898-427ed2cc5877","system_id":"levelo_inurba_marseille","lat":43.27171,"lon":5.38942,"is_reserved":false,"is_disabled":false,"rental_uris":{"android":"levelo://app?vid=0c12b47b-ac3d-4b78-a898-427ed2cc5877","ios":"levelo://app?vid=0c12b47b-ac3d-4b78-a898-427ed2cc5877"},"vehicle_type_id":"4","last_reported":1736957431,"current_range_meters":38800,"station_id":"ce4bhh92rcd13ifvqfh0","pricing_plan_id":"cebpf4jnsgd1na2vs0mg"},{"bike_id":"60c48e84-151f-4edd-83cd-789ff87c7f63","system_id":"levelo_inurba_marseille","lat":43.287,"lon":5.37408,"is_reserved":false,"is_disabled":true,"rental_uris":{"android":"levelo://app?vid=60c48e84-151f-4edd-83cd-789ff87c7f63","ios":"levelo://app?vid=60c48e84-151f-4edd-83cd-789ff87c7f63"},"vehicle_type_id":"4","last_reported":1736957431,"current_range_meters":28400,"station_id":"ce4bh3p2rcd13ifvqdq0","pricing_plan_id":"cebpf4jnsgd1na2vs0mg"},{"bike_id":"e28dd5c6-786b-4241-9417-7bc18821d0e2","system_id":"levelo_inurba_marseille","lat":43.3266,"lon":5.40994,"is_reserved":false,"is_disabled":false,"rental_uris":{"android":"levelo://app?vid=e28dd5c6-786b-4241-9417-7bc18821d0e2","ios":"levelo://app?vid=e28dd5c6-786b-4241-9417-7bc18821d0e2"},"vehicle_type_id":"4","last_reported":1736957431,"current_range_meters":31200,"station_id":"ce4bhpp2rcd13ifvqhgg","pricing_plan_id":"cebpf4jnsgd1na2vs0mg"},{"bike_id":"e05770dc-4ca5-42f6-8928-9e060772c93d","system_id":"levelo_inurba_marseille","lat":43.3237,"lon":5.38885,"is_reserved":false,"is_disabled":false,"rental_uris":{"android":"levelo://app?vid=e05770dc-4ca5-42f6-8928-9e060772c93d","ios":"levelo://app?vid=e05770dc-4ca5-42f6-8928-9e060772c93d"},"vehicle_type_id":"4","last_reported":1736957431,"current_range_meters":37600,"station_id":"ce4bhqp2rcd13ifvqhog","pricing_plan_id":"cebpf4jnsgd1na2vs0mg"},{"bike_id":"8877e7a6-4aa2-4c5a-ac5a-26bcf6368000","system_id":"levelo_inurba_marseille","lat":43.28031,"lon":5.36947,"is_reserved":false,"is_disabled":false,"rental_uris":{"android":"levelo://app?vid=8877e7a6-4aa2-4c5a-ac5a-26bcf6368000","ios":"levelo://app?vid=8877e7a6-4aa2-4c5a-ac5a-26bcf6368000"},"vehicle_type_id":"4","last_reported":1736957431,"current_range_meters":29600,"station_id":"ce4bha12rcd13ifvqef0","pricing_plan_id":"cebpf4jnsgd1na2vs0mg"},{"bike_id":"a0ffede7-3341-4855-b911-b1e6e871db85","system_id":"levelo_inurba_marseille","lat":43.32045,"lon":5.41571,"is_reserved":false,"is_disabled":false,"rental_uris":{"android":"levelo://app?vid=a0ffede7-3341-4855-b911-b1e6e871db85","ios":"levelo://app?vid=a0ffede7-3341-4855-b911-b1e6e871db85"},"vehicle_type_id":"4","last_reported":1736957431,"current_range_meters":14000,"station_id":"ce4bhq92rcd13ifvqhkg","pricing_plan_id":"cebpf4jnsgd1na2vs0mg"},{"bike_id":"de05f028-7450-4792-8d5b-e268410faa9d","system_id":"levelo_inurba_marseille","lat":43.32106,"lon":5.3677,"is_reserved":false,"is_disabled":false,"rental_uris":{"android":"levelo://app?vid=de05f028-7450-4792-8d5b-e268410faa9d","ios":"levelo://app?vid=de05f028-7450-4792-8d5b-e268410faa9d"},"vehicle_type_id":"4","last_reported":1736957431,"current_range_meters":24800,"station_id":"ce4bhrh2rcd13ifvqhug","pricing_plan_id":"cebpf4jnsgd1na2vs0mg"},{"bike_id":"f8936475-7d1a-44a4-ad5d-bb09a0a15ffe","system_id":"levelo_inurba_marseille","lat":43.30642,"lon":5.40073,"is_reserved":false,"is_disabled":false,"rental_uris":{"android":"levelo://app?vid=f8936475-7d1a-44a4-ad5d-bb09a0a15ffe","ios":"levelo://app?vid=f8936475-7d1a-44a4-ad5d-bb09a0a15ffe"},"vehicle_type_id":"4","last_reported":1736957431,"current_range_meters":30000,"station_id":"ce4bh112rcd13ifvqda0","pricing_plan_id":"cebpf4jnsgd1na2vs0mg"},{"bike_id":"b4e5917f-ad4f-488f-98af-ef26da7570cb","system_id":"levelo_inurba_marseille","lat":43.29161,"lon":5.37149,"is_reserved":false,"is_disabled":false,"rental_uris":{"android":"levelo://app?vid=b4e5917f-ad4f-488f-98af-ef26da7570cb","ios":"levelo://app?vid=b4e5917f-ad4f-488f-98af-ef26da7570cb"},"vehicle_type_id":"4","last_reported":1736957431,"current_range_meters":33200,"station_id":"ce4bha92rcd13ifvqeh0","pricing_plan_id":"cebpf4jnsgd1na2vs0mg"},{"bike_id":"87d37f06-a092-406b-be26-6f90fd345b13","system_id":"levelo_inurba_marseille","lat":43.28461,"lon":5.35901,"is_reserved":false,"is_disabled":false,"rental_uris":{"android":"levelo://app?vid=87d37f06-a092-406b-be26-6f90fd345b13","ios":"levelo://app?vid=87d37f06-a092-406b-be26-6f90fd345b13"},"vehicle_type_id":"4","last_reported":1736957431,"current_range_meters":30000,"station_id":"ce4bhah2rcd13ifvqei0","pricing_plan_id":"cebpf4jnsgd1na2vs0mg"},{"bike_id":"57824802-bb49-405b-966b-a8ace31a8855","system_id":"levelo_inurba_marseille","lat":43.3014,"lon":5.38072,"is_reserved":false,"is_disabled":false,"rental_uris":{"android":"levelo://app?vid=57824802-bb49-405b-966b-a8ace31a8855","ios":"levelo://app?vid=57824802-bb49-405b-966b-a8ace31a8855"},"vehicle_type_id":"4","last_reported":1736957431,"current_range_meters":11200,"station_id":"ce4bgjp2rcd13ifvqbh0","pricing_plan_id":"cebpf4jnsgd1na2vs0mg"},{"bike_id":"9dee1399-9455-44ba-900a-0b42ece74168","system_id":"levelo_inurba_marseille","lat":43.29917,"lon":5.37496,"is_reserved":false,"is_disabled":true,"rental_uris":{"android":"levelo://app?vid=9dee1399-9455-44ba-900a-0b42ece74168","ios":"levelo://app?vid=9dee1399-9455-44ba-900a-0b42ece74168"},"vehicle_type_id":"4","last_reported":1736957431,"current_range_meters":0,"station_id":"ce4bgjh2rcd13ifvqbg0","pricing_plan_id":"cebpf4jnsgd1na2vs0mg"},{"bike_id":"cbf3bcdb-4ea5-489d-ad5c-96a39a3fcf32","system_id":"levelo_inurba_marseille","lat":43.29571,"lon":5.37524,"is_reserved":false,"is_disabled":false,"rental_uris":{"android":"levelo://app?vid=cbf3bcdb-4ea5-489d-ad5c-96a39a3fcf32","ios":"levelo://app?vid=cbf3bcdb-4ea5-489d-ad5c-96a39a3fcf32"},"vehicle_type_id":"4","last_reported":1736957431,"current_range_meters":25600,"station_id":"ce4bgh92rcd13ifvqb50","pricing_plan_id":"cebpf4jnsgd1na2vs0mg"},{"bike_id":"2d7f3353-743b-41e1-85f2-e32181d4ae48","system_id":"levelo_inurba_marseille","lat":43.31986,"lon":5.38134,"is_reserved":false,"is_disabled":false,"rental_uris":{"android":"levelo://app?vid=2d7f3353-743b-41e1-85f2-e32181d4ae48","ios":"levelo://app?vid=2d7f3353-743b-41e1-85f2-e32181d4ae48"},"vehicle_type_id":"4","last_reported":1736957431,"current_range_meters":37600,"station_id":"ce4bhr12rcd13ifvqhpg","pricing_plan_id":"cebpf4jnsgd1na2vs0mg"},{"bike_id":"76d6bc1b-51f6-4ac8-b317-e2f4e873ac0a","system_id":"levelo_inurba_marseille","lat":43.3088,"lon":5.39647,"is_reserved":false,"is_disabled":false,"rental_uris":{"android":"levelo://app?vid=76d6bc1b-51f6-4ac8-b317-e2f4e873ac0a","ios":"levelo://app?vid=76d6bc1b-51f6-4ac8-b317-e2f4e873ac0a"},"vehicle_type_id":"4","last_reported":1736957431,"current_range_meters":1600,"station_id":"ce4bh012rcd13ifvqcv0","pricing_plan_id":"cebpf4jnsgd1na2vs0mg"},{"bike_id":"b1f705d1-107e-4c06-b7e9-2f470586efd9","system_id":"levelo_inurba_marseille","lat":43.2906,"lon":5.3818,"is_reserved":false,"is_disabled":false,"rental_uris":{"android":"levelo://app?vid=b1f705d1-107e-4c06-b7e9-2f470586efd9","ios":"levelo://app?vid=b1f705d1-107e-4c06-b7e9-2f470586efd9"},"vehicle_type_id":"4","last_reported":1736957431,"current_range_meters":37600,"station_id":"","pricing_plan_id":"cebpf4jnsgd1na2vs0mg"},{"bike_id":"062e3ac3-2b1a-4aea-9ec4-c55ba7456477","system_id":"levelo_inurba_marseille","lat":43.24998,"lon":5.38937,"is_reserved":false,"is_disabled":false,"rental_uris":{"android":"levelo://app?vid=062e3ac3-2b1a-4aea-9ec4-c55ba7456477","ios":"levelo://app?vid=062e3ac3-2b1a-4aea-9ec4-c55ba7456477"},"vehicle_type_id":"4","last_reported":1736957431,"current_range_meters":26800,"station_id":"ce4bhgp2rcd13ifvqfd0","pricing_plan_id":"cebpf4jnsgd1na2vs0mg"},{"bike_id":"17bdf4cb-e4fd-41f2-9907-e366c2c4a376","system_id":"levelo_inurba_marseille","lat":43.31886,"lon":5.40734,"is_reserved":false,"is_disabled":false,"rental_uris":{"android":"levelo://app?vid=17bdf4cb-e4fd-41f2-9907-e366c2c4a376","ios":"levelo://app?vid=17bdf4cb-e4fd-41f2-9907-e366c2c4a376"},"vehicle_type_id":"4","last_reported":1736957431,"current_range_meters":36800,"station_id":"ce4bhq12rcd13ifvqhig","pricing_plan_id":"cebpf4jnsgd1na2vs0mg"},{"bike_id":"b583689d-4b3b-4fec-a4c3-0358dd755494","system_id":"levelo_inurba_marseille","lat":43.26698,"lon":5.38269,"is_reserved":false,"is_disabled":false,"rental_uris":{"android":"levelo://app?vid=b583689d-4b3b-4fec-a4c3-0358dd755494","ios":"levelo://app?vid=b583689d-4b3b-4fec-a4c3-0358dd755494"},"vehicle_type_id":"4","last_reported":1736957431,"current_range_meters":27200,"station_id":"ce4bhg92rcd13ifvqf90","pricing_plan_id":"cebpf4jnsgd1na2vs0mg"},{"bike_id":"e4259690-3fb4-4dd4-b235-d449ed58344f","system_id":"levelo_inurba_marseille","lat":43.26564,"lon":5.37287,"is_reserved":false,"is_disabled":false,"rental_uris":{"android":"levelo://app?vid=e4259690-3fb4-4dd4-b235-d449ed58344f","ios":"levelo://app?vid=e4259690-3fb4-4dd4-b235-d449ed58344f"},"vehicle_type_id":"4","last_reported":1736957431,"current_range_meters":26000,"station_id":"ce4bhg12rcd13ifvqf70","pricing_plan_id":"cebpf4jnsgd1na2vs0mg"},{"bike_id":"8534aaf4-535f-4db5-8998-0f97ef68ef36","system_id":"levelo_inurba_marseille","lat":43.24399,"lon":5.37035,"is_reserved":false,"is_disabled":false,"rental_uris":{"android":"levelo://app?vid=8534aaf4-535f-4db5-8998-0f97ef68ef36","ios":"levelo://app?vid=8534aaf4-535f-4db5-8998-0f97ef68ef36"},"vehicle_type_id":"4","last_reported":1736957431,"current_range_meters":14800,"station_id":"ce4bhhh2rcd13ifvqfk0","pricing_plan_id":"cebpf4jnsgd1na2vs0mg"},{"bike_id":"b2c33e7b-da8a-4cda-ab12-4bcf5000aca5","system_id":"levelo_inurba_marseille","lat":43.27628,"lon":5.36117,"is_reserved":false,"is_disabled":false,"rental_uris":{"android":"levelo://app?vid=b2c33e7b-da8a-4cda-ab12-4bcf5000aca5","ios":"levelo://app?vid=b2c33e7b-da8a-4cda-ab12-4bcf5000aca5"},"vehicle_type_id":"4","last_reported":1736957431,"current_range_meters":28000,"station_id":"ce4bgj92rcd13ifvqbe0","pricing_plan_id":"cebpf4jnsgd1na2vs0mg"},{"bike_id":"1ab40df1-ab26-4079-9886-d4099a3834a4","system_id":"levelo_inurba_marseille","lat":43.29415,"lon":5.38624,"is_reserved":false,"is_disabled":false,"rental_uris":{"android":"levelo://app?vid=1ab40df1-ab26-4079-9886-d4099a3834a4","ios":"levelo://app?vid=1ab40df1-ab26-4079-9886-d4099a3834a4"},"vehicle_type_id":"4","last_reported":1736957431,"current_range_meters":39200,"station_id":"ce4bh2h2rcd13ifvqdh0","pricing_plan_id":"cebpf4jnsgd1na2vs0mg"},{"bike_id":"cd20a3f7-744c-435e-b884-baf22092e54b","system_id":"levelo_inurba_marseille","lat":43.2895,"lon":5.36399,"is_reserved":false,"is_disabled":false,"rental_uris":{"android":"levelo://app?vid=cd20a3f7-744c-435e-b884-baf22092e54b","ios":"levelo://app?vid=cd20a3f7-744c-435e-b884-baf22092e54b"},"vehicle_type_id":"4","last_reported":1736957431,"current_range_meters":19200,"station_id":"ce4bhc92rcd13ifvqetg","pricing_plan_id":"cebpf4jnsgd1na2vs0mg"},{"bike_id":"6c02ae22-4e33-4b73-a0d5-7fa499611cc2","system_id":"levelo_inurba_marseille","lat":43.23151,"lon":5.43703,"is_reserved":false,"is_disabled":false,"rental_uris":{"android":"levelo://app?vid=6c02ae22-4e33-4b73-a0d5-7fa499611cc2","ios":"levelo://app?vid=6c02ae22-4e33-4b73-a0d5-7fa499611cc2"},"vehicle_type_id":"4","last_reported":1736957431,"current_range_meters":37600,"station_id":"ce4bhmp2rcd13ifvqgog","pricing_plan_id":"cebpf4jnsgd1na2vs0mg"},{"bike_id":"e96359b9-35af-461f-9aec-a5caa9985d29","system_id":"levelo_inurba_marseille","lat":43.25581,"lon":5.38232,"is_reserved":false,"is_disabled":false,"rental_uris":{"android":"levelo://app?vid=e96359b9-35af-461f-9aec-a5caa9985d29","ios":"levelo://app?vid=e96359b9-35af-461f-9aec-a5caa9985d29"},"vehicle_type_id":"4","last_reported":1736957431,"current_range_meters":38800,"station_id":"ce4bhih2rcd13ifvqfs0","pricing_plan_id":"cebpf4jnsgd1na2vs0mg"},{"bike_id":"1ac66b2f-3713-43a8-bee1-1a7f413f5233","system_id":"levelo_inurba_marseille","lat":43.24169,"lon":5.39742,"is_reserved":false,"is_disabled":false,"rental_uris":{"android":"levelo://app?vid=1ac66b2f-3713-43a8-bee1-1a7f413f5233","ios":"levelo://app?vid=1ac66b2f-3713-43a8-bee1-1a7f413f5233"},"vehicle_type_id":"4","last_reported":1736957431,"current_range_meters":31200,"station_id":"ce4bhn12rcd13ifvqgpg","pricing_plan_id":"cebpf4jnsgd1na2vs0mg"},{"bike_id":"daed1ccd-abf9-45c7-831e-19fefaff00a6","system_id":"levelo_inurba_marseille","lat":43.28152,"lon":5.42644,"is_reserved":false,"is_disabled":false,"rental_uris":{"android":"levelo://app?vid=daed1ccd-abf9-45c7-831e-19fefaff00a6","ios":"levelo://app?vid=daed1ccd-abf9-45c7-831e-19fefaff00a6"},"vehicle_type_id":"4","last_reported":1736957431,"current_range_meters":8800,"station_id":"ce4bhnh2rcd13ifvqgug","pricing_plan_id":"cebpf4jnsgd1na2vs0mg"},{"bike_id":"dbd9148a-c321-4fad-91e6-782f78f04f2c","system_id":"levelo_inurba_marseille","lat":43.29724,"lon":5.37687,"is_reserved":false,"is_disabled":true,"rental_uris":{"android":"levelo://app?vid=dbd9148a-c321-4fad-91e6-782f78f04f2c","ios":"levelo://app?vid=dbd9148a-c321-4fad-91e6-782f78f04f2c"},"vehicle_type_id":"4","last_reported":1736957431,"current_range_meters":2000,"station_id":"ce4bgkh2rcd13ifvqbl0","pricing_plan_id":"cebpf4jnsgd1na2vs0mg"},{"bike_id":"b67528ff-e11b-45e6-a93f-d585919178b3","system_id":"levelo_inurba_marseille","lat":43.24808,"lon":5.37455,"is_reserved":false,"is_disabled":false,"rental_uris":{"android":"levelo://app?vid=b67528ff-e11b-45e6-a93f-d585919178b3","ios":"levelo://app?vid=b67528ff-e11b-45e6-a93f-d585919178b3"},"vehicle_type_id":"4","last_reported":1736957431,"current_range_meters":16400,"station_id":"ce4bhgh2rcd13ifvqfb0","pricing_plan_id":"cebpf4jnsgd1na2vs0mg"},{"bike_id":"66904438-f1b0-43bd-9897-4fd12374d0f1","system_id":"levelo_inurba_marseille","lat":43.29712,"lon":5.36604,"is_reserved":false,"is_disabled":false,"rental_uris":{"android":"levelo://app?vid=66904438-f1b0-43bd-9897-4fd12374d0f1","ios":"levelo://app?vid=66904438-f1b0-43bd-9897-4fd12374d0f1"},"vehicle_type_id":"4","last_reported":1736957431,"current_range_meters":31200,"station_id":"ce4bgn12rcd13ifvqbt0","pricing_plan_id":"cebpf4jnsgd1na2vs0mg"},{"bike_id":"501b07c6-f0ae-4cca-94b9-08502f7c0b7b","system_id":"levelo_inurba_marseille","lat":43.29098,"lon":5.38129,"is_reserved":false,"is_disabled":false,"rental_uris":{"android":"levelo://app?vid=501b07c6-f0ae-4cca-94b9-08502f7c0b7b","ios":"levelo://app?vid=501b07c6-f0ae-4cca-94b9-08502f7c0b7b"},"vehicle_type_id":"4","last_reported":1736957431,"current_range_meters":21600,"station_id":"ce4bh512rcd13ifvqe2g","pricing_plan_id":"cebpf4jnsgd1na2vs0mg"},{"bike_id":"ce43ca7c-e67a-4738-b3f9-f614cf6799c0","system_id":"levelo_inurba_marseille","lat":43.28609,"lon":5.37068,"is_reserved":false,"is_disabled":false,"rental_uris":{"android":"levelo://app?vid=ce43ca7c-e67a-4738-b3f9-f614cf6799c0","ios":"levelo://app?vid=ce43ca7c-e67a-4738-b3f9-f614cf6799c0"},"vehicle_type_id":"4","last_reported":1736957431,"current_range_meters":20400,"station_id":"ce4bht12rcd13ifvqi60","pricing_plan_id":"cebpf4jnsgd1na2vs0mg"},{"bike_id":"8394f5a8-31fa-4d89-9cc7-8ec508751ca2","system_id":"levelo_inurba_marseille","lat":43.25866,"lon":5.39901,"is_reserved":false,"is_disabled":false,"rental_uris":{"android":"levelo://app?vid=8394f5a8-31fa-4d89-9cc7-8ec508751ca2","ios":"levelo://app?vid=8394f5a8-31fa-4d89-9cc7-8ec508751ca2"},"vehicle_type_id":"4","last_reported":1736957431,"current_range_meters":38000,"station_id":"ce4bhl92rcd13ifvqghg","pricing_plan_id":"cebpf4jnsgd1na2vs0mg"},{"bike_id":"bb804e28-0607-493e-806c-37e58a339016","system_id":"levelo_inurba_marseille","lat":43.25825,"lon":5.39434,"is_reserved":false,"is_disabled":false,"rental_uris":{"android":"levelo://app?vid=bb804e28-0607-493e-806c-37e58a339016","ios":"levelo://app?vid=bb804e28-0607-493e-806c-37e58a339016"},"vehicle_type_id":"4","last_reported":1736957431,"current_range_meters":39200,"station_id":"ce4bhip2rcd13ifvqft0","pricing_plan_id":"cebpf4jnsgd1na2vs0mg"},{"bike_id":"5fba5611-eed6-4d3c-b839-97e478afacfa","system_id":"levelo_inurba_marseille","lat":43.27617,"lon":5.36115,"is_reserved":false,"is_disabled":false,"rental_uris":{"android":"levelo://app?vid=5fba5611-eed6-4d3c-b839-97e478afacfa","ios":"levelo://app?vid=5fba5611-eed6-4d3c-b839-97e478afacfa"},"vehicle_type_id":"4","last_reported":1736957431,"current_range_meters":38800,"station_id":"ce4bgj92rcd13ifvqbe0","pricing_plan_id":"cebpf4jnsgd1na2vs0mg"},{"bike_id":"2422d2aa-f367-4a92-8c2c-b1daeaf89eb6","system_id":"levelo_inurba_marseille","lat":43.33608,"lon":5.41029,"is_reserved":false,"is_disabled":false,"rental_uris":{"android":"levelo://app?vid=2422d2aa-f367-4a92-8c2c-b1daeaf89eb6","ios":"levelo://app?vid=2422d2aa-f367-4a92-8c2c-b1daeaf89eb6"},"vehicle_type_id":"4","last_reported":1736957431,"current_range_meters":34000,"station_id":"ce4bhqh2rcd13ifvqhmg","pricing_plan_id":"cebpf4jnsgd1na2vs0mg"},{"bike_id":"489255cf-6ef8-4acc-9a59-3fc2634d71c8","system_id":"levelo_inurba_marseille","lat":43.26478,"lon":5.37376,"is_reserved":false,"is_disabled":false,"rental_uris":{"android":"levelo://app?vid=489255cf-6ef8-4acc-9a59-3fc2634d71c8","ios":"levelo://app?vid=489255cf-6ef8-4acc-9a59-3fc2634d71c8"},"vehicle_type_id":"4","last_reported":1736957431,"current_range_meters":33200,"station_id":"ce4bhg12rcd13ifvqf70","pricing_plan_id":"cebpf4jnsgd1na2vs0mg"},{"bike_id":"abae0774-7975-4b36-8758-de1629a7e5de","system_id":"levelo_inurba_marseille","lat":43.24999,"lon":5.38931,"is_reserved":false,"is_disabled":false,"rental_uris":{"android":"levelo://app?vid=abae0774-7975-4b36-8758-de1629a7e5de","ios":"levelo://app?vid=abae0774-7975-4b36-8758-de1629a7e5de"},"vehicle_type_id":"4","last_reported":1736957431,"current_range_meters":24400,"station_id":"ce4bhgp2rcd13ifvqfd0","pricing_plan_id":"cebpf4jnsgd1na2vs0mg"},{"bike_id":"c71048a1-a740-424a-b86f-db6ab0042a3e","system_id":"levelo_inurba_marseille","lat":43.24648,"lon":5.38894,"is_reserved":false,"is_disabled":false,"rental_uris":{"android":"levelo://app?vid=c71048a1-a740-424a-b86f-db6ab0042a3e","ios":"levelo://app?vid=c71048a1-a740-424a-b86f-db6ab0042a3e"},"vehicle_type_id":"4","last_reported":1736957431,"current_range_meters":32400,"station_id":"ce4bhg12rcd13ifvqf60","pricing_plan_id":"cebpf4jnsgd1na2vs0mg"},{"bike_id":"06f91d6d-4f2c-4ded-9b72-36520fa8c30a","system_id":"levelo_inurba_marseille","lat":43.28722,"lon":5.36085,"is_reserved":false,"is_disabled":false,"rental_uris":{"android":"levelo://app?vid=06f91d6d-4f2c-4ded-9b72-36520fa8c30a","ios":"levelo://app?vid=06f91d6d-4f2c-4ded-9b72-36520fa8c30a"},"vehicle_type_id":"4","last_reported":1736957431,"current_range_meters":38800,"station_id":"cki0cbj6b192h4jlfktg","pricing_plan_id":"cebpf4jnsgd1na2vs0mg"},{"bike_id":"a019fb2c-026e-432f-a789-2e11293226c1","system_id":"levelo_inurba_marseille","lat":43.30795,"lon":5.36997,"is_reserved":false,"is_disabled":false,"rental_uris":{"android":"levelo://app?vid=a019fb2c-026e-432f-a789-2e11293226c1","ios":"levelo://app?vid=a019fb2c-026e-432f-a789-2e11293226c1"},"vehicle_type_id":"4","last_reported":1736957431,"current_range_meters":16000,"station_id":"","pricing_plan_id":"cebpf4jnsgd1na2vs0mg"},{"bike_id":"b6d116e0-47bc-4c0c-9738-38dad7daecaf","system_id":"levelo_inurba_marseille","lat":43.25118,"lon":5.4033,"is_reserved":false,"is_disabled":false,"rental_uris":{"android":"levelo://app?vid=b6d116e0-47bc-4c0c-9738-38dad7daecaf","ios":"levelo://app?vid=b6d116e0-47bc-4c0c-9738-38dad7daecaf"},"vehicle_type_id":"4","last_reported":1736957431,"current_range_meters":38800,"station_id":"ce4bhlh2rcd13ifvqgig","pricing_plan_id":"cebpf4jnsgd1na2vs0mg"},{"bike_id":"c587461b-cc64-4bfd-8052-bfbdd0b7fbf0","system_id":"levelo_inurba_marseille","lat":43.29013,"lon":5.38125,"is_reserved":false,"is_disabled":false,"rental_uris":{"android":"levelo://app?vid=c587461b-cc64-4bfd-8052-bfbdd0b7fbf0","ios":"levelo://app?vid=c587461b-cc64-4bfd-8052-bfbdd0b7fbf0"},"vehicle_type_id":"4","last_reported":1736957431,"current_range_meters":6400,"station_id":"ce4bh4p2rcd13ifvqe1g","pricing_plan_id":"cebpf4jnsgd1na2vs0mg"},{"bike_id":"59e39e6e-07d2-4c0d-a96b-2eece172dc89","system_id":"levelo_inurba_marseille","lat":43.26213,"lon":5.37437,"is_reserved":false,"is_disabled":true,"rental_uris":{"android":"levelo://app?vid=59e39e6e-07d2-4c0d-a96b-2eece172dc89","ios":"levelo://app?vid=59e39e6e-07d2-4c0d-a96b-2eece172dc89"},"vehicle_type_id":"4","last_reported":1736957431,"current_range_meters":38400,"station_id":"ce4bhgp2rcd13ifvqfc0","pricing_plan_id":"cebpf4jnsgd1na2vs0mg"},{"bike_id":"ffa2c835-57db-480f-91cd-6649f1a4d8c5","system_id":"levelo_inurba_marseille","lat":43.29163,"lon":5.37153,"is_reserved":false,"is_disabled":false,"rental_uris":{"android":"levelo://app?vid=ffa2c835-57db-480f-91cd-6649f1a4d8c5","ios":"levelo://app?vid=ffa2c835-57db-480f-91cd-6649f1a4d8c5"},"vehicle_type_id":"4","last_reported":1736957431,"current_range_meters":29600,"station_id":"ce4bha92rcd13ifvqeh0","pricing_plan_id":"cebpf4jnsgd1na2vs0mg"},{"bike_id":"685a7f88-d28b-4dd7-a290-b13b24decd47","system_id":"levelo_inurba_marseille","lat":43.25743,"lon":5.41088,"is_reserved":false,"is_disabled":false,"rental_uris":{"android":"levelo://app?vid=685a7f88-d28b-4dd7-a290-b13b24decd47","ios":"levelo://app?vid=685a7f88-d28b-4dd7-a290-b13b24decd47"},"vehicle_type_id":"4","last_reported":1736957431,"current_range_meters":17200,"station_id":"ce4bhkp2rcd13ifvqgd0","pricing_plan_id":"cebpf4jnsgd1na2vs0mg"},{"bike_id":"85fd4bf7-6569-4e79-8b04-ce8a36465801","system_id":"levelo_inurba_marseille","lat":43.25585,"lon":5.38226,"is_reserved":false,"is_disabled":false,"rental_uris":{"android":"levelo://app?vid=85fd4bf7-6569-4e79-8b04-ce8a36465801","ios":"levelo://app?vid=85fd4bf7-6569-4e79-8b04-ce8a36465801"},"vehicle_type_id":"4","last_reported":1736957431,"current_range_meters":38000,"station_id":"ce4bhih2rcd13ifvqfs0","pricing_plan_id":"cebpf4jnsgd1na2vs0mg"},{"bike_id":"bdd7c4c9-f9bc-4cf0-9638-ea56b0417d02","system_id":"levelo_inurba_marseille","lat":43.29779,"lon":5.39336,"is_reserved":false,"is_disabled":false,"rental_uris":{"android":"levelo://app?vid=bdd7c4c9-f9bc-4cf0-9638-ea56b0417d02","ios":"levelo://app?vid=bdd7c4c9-f9bc-4cf0-9638-ea56b0417d02"},"vehicle_type_id":"4","last_reported":1736957431,"current_range_meters":38400,"station_id":"chh1huq6cuj3fo74tm60","pricing_plan_id":"cebpf4jnsgd1na2vs0mg"},{"bike_id":"82a33608-8f8d-40d7-a88b-5f60cf1d0074","system_id":"levelo_inurba_marseille","lat":43.27943,"lon":5.41046,"is_reserved":false,"is_disabled":false,"rental_uris":{"android":"levelo://app?vid=82a33608-8f8d-40d7-a88b-5f60cf1d0074","ios":"levelo://app?vid=82a33608-8f8d-40d7-a88b-5f60cf1d0074"},"vehicle_type_id":"4","last_reported":1736957431,"current_range_meters":31200,"station_id":"ce4bhnp2rcd13ifvqh0g","pricing_plan_id":"cebpf4jnsgd1na2vs0mg"},{"bike_id":"0bddd997-5f94-4ffa-8a7c-f2fa5a909638","system_id":"levelo_inurba_marseille","lat":43.28957,"lon":5.37838,"is_reserved":false,"is_disabled":false,"rental_uris":{"android":"levelo://app?vid=0bddd997-5f94-4ffa-8a7c-f2fa5a909638","ios":"levelo://app?vid=0bddd997-5f94-4ffa-8a7c-f2fa5a909638"},"vehicle_type_id":"4","last_reported":1736957431,"current_range_meters":37600,"station_id":"ce4bh9p2rcd13ifvqed0","pricing_plan_id":"cebpf4jnsgd1na2vs0mg"},{"bike_id":"93bc7e9d-3047-482e-a396-1037e95fe874","system_id":"levelo_inurba_marseille","lat":43.32284,"lon":5.38276,"is_reserved":false,"is_disabled":false,"rental_uris":{"android":"levelo://app?vid=93bc7e9d-3047-482e-a396-1037e95fe874","ios":"levelo://app?vid=93bc7e9d-3047-482e-a396-1037e95fe874"},"vehicle_type_id":"4","last_reported":1736957431,"current_range_meters":22000,"station_id":"ce4bhr12rcd13ifvqhqg","pricing_plan_id":"cebpf4jnsgd1na2vs0mg"},{"bike_id":"f7a93299-4b31-44c2-976e-82f7878bc418","system_id":"levelo_inurba_marseille","lat":43.25492,"lon":5.37645,"is_reserved":false,"is_disabled":false,"rental_uris":{"android":"levelo://app?vid=f7a93299-4b31-44c2-976e-82f7878bc418","ios":"levelo://app?vid=f7a93299-4b31-44c2-976e-82f7878bc418"},"vehicle_type_id":"4","last_reported":1736957431,"current_range_meters":36400,"station_id":"ce4bhh12rcd13ifvqff0","pricing_plan_id":"cebpf4jnsgd1na2vs0mg"},{"bike_id":"b72bdb82-6878-47b5-8afa-8e61b13ff54c","system_id":"levelo_inurba_marseille","lat":43.28944,"lon":5.364,"is_reserved":false,"is_disabled":false,"rental_uris":{"android":"levelo://app?vid=b72bdb82-6878-47b5-8afa-8e61b13ff54c","ios":"levelo://app?vid=b72bdb82-6878-47b5-8afa-8e61b13ff54c"},"vehicle_type_id":"4","last_reported":1736957431,"current_range_meters":8400,"station_id":"ce4bhc92rcd13ifvqetg","pricing_plan_id":"cebpf4jnsgd1na2vs0mg"},{"bike_id":"8ccdb8e3-5350-4cab-8a81-1bd6181a6c06","system_id":"levelo_inurba_marseille","lat":43.23186,"lon":5.35551,"is_reserved":false,"is_disabled":false,"rental_uris":{"android":"levelo://app?vid=8ccdb8e3-5350-4cab-8a81-1bd6181a6c06","ios":"levelo://app?vid=8ccdb8e3-5350-4cab-8a81-1bd6181a6c06"},"vehicle_type_id":"4","last_reported":1736957431,"current_range_meters":32800,"station_id":"ce4bhu92rcd13ifvqi70","pricing_plan_id":"cebpf4jnsgd1na2vs0mg"},{"bike_id":"6a90b950-9155-48a7-98c7-17b0e066be78","system_id":"levelo_inurba_marseille","lat":43.29586,"lon":5.38114,"is_reserved":false,"is_disabled":false,"rental_uris":{"android":"levelo://app?vid=6a90b950-9155-48a7-98c7-17b0e066be78","ios":"levelo://app?vid=6a90b950-9155-48a7-98c7-17b0e066be78"},"vehicle_type_id":"4","last_reported":1736957431,"current_range_meters":32000,"station_id":"ce4bgl12rcd13ifvqbo0","pricing_plan_id":"cebpf4jnsgd1na2vs0mg"},{"bike_id":"b64b14d9-a03a-4200-91e3-c0820d60682c","system_id":"levelo_inurba_marseille","lat":43.24181,"lon":5.39728,"is_reserved":false,"is_disabled":false,"rental_uris":{"android":"levelo://app?vid=b64b14d9-a03a-4200-91e3-c0820d60682c","ios":"levelo://app?vid=b64b14d9-a03a-4200-91e3-c0820d60682c"},"vehicle_type_id":"4","last_reported":1736957431,"current_range_meters":24800,"station_id":"ce4bhn12rcd13ifvqgpg","pricing_plan_id":"cebpf4jnsgd1na2vs0mg"},{"bike_id":"4a4d296c-e71a-4d73-8515-0b49a9079d8d","system_id":"levelo_inurba_marseille","lat":43.24552,"lon":5.39543,"is_reserved":false,"is_disabled":false,"rental_uris":{"android":"levelo://app?vid=4a4d296c-e71a-4d73-8515-0b49a9079d8d","ios":"levelo://app?vid=4a4d296c-e71a-4d73-8515-0b49a9079d8d"},"vehicle_type_id":"4","last_reported":1736957431,"current_range_meters":38800,"station_id":"ce4bhlp2rcd13ifvqgjg","pricing_plan_id":"cebpf4jnsgd1na2vs0mg"},{"bike_id":"f6f6a71b-b625-4020-bff4-8a83c993b7b7","system_id":"levelo_inurba_marseille","lat":43.31496,"lon":5.37308,"is_reserved":false,"is_disabled":false,"rental_uris":{"android":"levelo://app?vid=f6f6a71b-b625-4020-bff4-8a83c993b7b7","ios":"levelo://app?vid=f6f6a71b-b625-4020-bff4-8a83c993b7b7"},"vehicle_type_id":"4","last_reported":1736957431,"current_range_meters":38800,"station_id":"ce4bgt12rcd13ifvqcd0","pricing_plan_id":"cebpf4jnsgd1na2vs0mg"},{"bike_id":"338c8f0b-45e7-4724-ac29-88d67974a715","system_id":"levelo_inurba_marseille","lat":43.29847,"lon":5.36273,"is_reserved":false,"is_disabled":false,"rental_uris":{"android":"levelo://app?vid=338c8f0b-45e7-4724-ac29-88d67974a715","ios":"levelo://app?vid=338c8f0b-45e7-4724-ac29-88d67974a715"},"vehicle_type_id":"4","last_reported":1736957431,"current_range_meters":37600,"station_id":"ce4bgpp2rcd13ifvqc3g","pricing_plan_id":"cebpf4jnsgd1na2vs0mg"},{"bike_id":"b438a536-2826-455d-89c2-219747efc24e","system_id":"levelo_inurba_marseille","lat":43.27366,"lon":5.3626,"is_reserved":false,"is_disabled":false,"rental_uris":{"android":"levelo://app?vid=b438a536-2826-455d-89c2-219747efc24e","ios":"levelo://app?vid=b438a536-2826-455d-89c2-219747efc24e"},"vehicle_type_id":"4","last_reported":1736957431,"current_range_meters":38800,"station_id":"ce4bhbh2rcd13ifvqeo0","pricing_plan_id":"cebpf4jnsgd1na2vs0mg"},{"bike_id":"6027163c-6e0b-44a2-bfed-3a477a83b455","system_id":"levelo_inurba_marseille","lat":43.31714,"lon":5.37761,"is_reserved":false,"is_disabled":true,"rental_uris":{"android":"levelo://app?vid=6027163c-6e0b-44a2-bfed-3a477a83b455","ios":"levelo://app?vid=6027163c-6e0b-44a2-bfed-3a477a83b455"},"vehicle_type_id":"4","last_reported":1736957431,"current_range_meters":38800,"station_id":"ce4bgth2rcd13ifvqch0","pricing_plan_id":"cebpf4jnsgd1na2vs0mg"},{"bike_id":"c4fd6690-8793-4c40-b68f-21a7e8830ee7","system_id":"levelo_inurba_marseille","lat":43.31495,"lon":5.3731,"is_reserved":false,"is_disabled":false,"rental_uris":{"android":"levelo://app?vid=c4fd6690-8793-4c40-b68f-21a7e8830ee7","ios":"levelo://app?vid=c4fd6690-8793-4c40-b68f-21a7e8830ee7"},"vehicle_type_id":"4","last_reported":1736957431,"current_range_meters":32000,"station_id":"ce4bgt12rcd13ifvqcd0","pricing_plan_id":"cebpf4jnsgd1na2vs0mg"},{"bike_id":"6d7035bc-03fb-481d-bb1e-5df61a4e2711","system_id":"levelo_inurba_marseille","lat":43.2551,"lon":5.37641,"is_reserved":false,"is_disabled":false,"rental_uris":{"android":"levelo://app?vid=6d7035bc-03fb-481d-bb1e-5df61a4e2711","ios":"levelo://app?vid=6d7035bc-03fb-481d-bb1e-5df61a4e2711"},"vehicle_type_id":"4","last_reported":1736957431,"current_range_meters":38800,"station_id":"ce4bhh12rcd13ifvqff0","pricing_plan_id":"cebpf4jnsgd1na2vs0mg"},{"bike_id":"2f583df8-7c5b-472c-a0c7-fb2c4c603593","system_id":"levelo_inurba_marseille","lat":43.29552,"lon":5.42284,"is_reserved":false,"is_disabled":true,"rental_uris":{"android":"levelo://app?vid=2f583df8-7c5b-472c-a0c7-fb2c4c603593","ios":"levelo://app?vid=2f583df8-7c5b-472c-a0c7-fb2c4c603593"},"vehicle_type_id":"4","last_reported":1736957431,"current_range_meters":800,"station_id":"ce4bhph2rcd13ifvqhdg","pricing_plan_id":"cebpf4jnsgd1na2vs0mg"},{"bike_id":"d2224579-4aaf-4ea3-9778-3b9495ba97d0","system_id":"levelo_inurba_marseille","lat":43.26197,"lon":5.37932,"is_reserved":false,"is_disabled":false,"rental_uris":{"android":"levelo://app?vid=d2224579-4aaf-4ea3-9778-3b9495ba97d0","ios":"levelo://app?vid=d2224579-4aaf-4ea3-9778-3b9495ba97d0"},"vehicle_type_id":"4","last_reported":1736957431,"current_range_meters":32400,"station_id":"ce4bhjp2rcd13ifvqg90","pricing_plan_id":"cebpf4jnsgd1na2vs0mg"},{"bike_id":"88c79ae2-04c1-48da-ae2b-41810cc7f240","system_id":"levelo_inurba_marseille","lat":43.28024,"lon":5.36933,"is_reserved":false,"is_disabled":false,"rental_uris":{"android":"levelo://app?vid=88c79ae2-04c1-48da-ae2b-41810cc7f240","ios":"levelo://app?vid=88c79ae2-04c1-48da-ae2b-41810cc7f240"},"vehicle_type_id":"4","last_reported":1736957431,"current_range_meters":38800,"station_id":"ce4bha12rcd13ifvqef0","pricing_plan_id":"cebpf4jnsgd1na2vs0mg"},{"bike_id":"9ef17802-aec1-4578-b006-50808987e5bc","system_id":"levelo_inurba_marseille","lat":43.31494,"lon":5.37308,"is_reserved":false,"is_disabled":false,"rental_uris":{"android":"levelo://app?vid=9ef17802-aec1-4578-b006-50808987e5bc","ios":"levelo://app?vid=9ef17802-aec1-4578-b006-50808987e5bc"},"vehicle_type_id":"4","last_reported":1736957431,"current_range_meters":38000,"station_id":"ce4bgt12rcd13ifvqcd0","pricing_plan_id":"cebpf4jnsgd1na2vs0mg"},{"bike_id":"f63e6d83-5001-4163-80b8-5e1bac8e9164","system_id":"levelo_inurba_marseille","lat":43.31228,"lon":5.36865,"is_reserved":false,"is_disabled":false,"rental_uris":{"android":"levelo://app?vid=f63e6d83-5001-4163-80b8-5e1bac8e9164","ios":"levelo://app?vid=f63e6d83-5001-4163-80b8-5e1bac8e9164"},"vehicle_type_id":"4","last_reported":1736957431,"current_range_meters":37600,"station_id":"ce4bgl92rcd13ifvqbq0","pricing_plan_id":"cebpf4jnsgd1na2vs0mg"},{"bike_id":"f0d7c119-b534-41b4-920b-aaabd31d2cc2","system_id":"levelo_inurba_marseille","lat":43.2797,"lon":5.38726,"is_reserved":false,"is_disabled":false,"rental_uris":{"android":"levelo://app?vid=f0d7c119-b534-41b4-920b-aaabd31d2cc2","ios":"levelo://app?vid=f0d7c119-b534-41b4-920b-aaabd31d2cc2"},"vehicle_type_id":"4","last_reported":1736957431,"current_range_meters":8000,"station_id":"ce4bhg12rcd13ifvqf80","pricing_plan_id":"cebpf4jnsgd1na2vs0mg"},{"bike_id":"33ca93a8-d9f2-4454-a351-9076dd3a188f","system_id":"levelo_inurba_marseille","lat":43.27812,"lon":5.40712,"is_reserved":false,"is_disabled":false,"rental_uris":{"android":"levelo://app?vid=33ca93a8-d9f2-4454-a351-9076dd3a188f","ios":"levelo://app?vid=33ca93a8-d9f2-4454-a351-9076dd3a188f"},"vehicle_type_id":"4","last_reported":1736957431,"current_range_meters":34000,"station_id":"ce4bhnh2rcd13ifvqgtg","pricing_plan_id":"cebpf4jnsgd1na2vs0mg"},{"bike_id":"320e795f-0ae1-4ed9-8128-03fbc2690c83","system_id":"levelo_inurba_marseille","lat":43.31505,"lon":5.37293,"is_reserved":false,"is_disabled":false,"rental_uris":{"android":"levelo://app?vid=320e795f-0ae1-4ed9-8128-03fbc2690c83","ios":"levelo://app?vid=320e795f-0ae1-4ed9-8128-03fbc2690c83"},"vehicle_type_id":"4","last_reported":1736957431,"current_range_meters":28000,"station_id":"ce4bgt12rcd13ifvqcd0","pricing_plan_id":"cebpf4jnsgd1na2vs0mg"},{"bike_id":"daca4541-6be3-4d7b-a789-d80e49e13fbe","system_id":"levelo_inurba_marseille","lat":43.29893,"lon":5.38141,"is_reserved":false,"is_disabled":false,"rental_uris":{"android":"levelo://app?vid=daca4541-6be3-4d7b-a789-d80e49e13fbe","ios":"levelo://app?vid=daca4541-6be3-4d7b-a789-d80e49e13fbe"},"vehicle_type_id":"4","last_reported":1736957431,"current_range_meters":33200,"station_id":"ce4bgj12rcd13ifvqbc0","pricing_plan_id":"cebpf4jnsgd1na2vs0mg"},{"bike_id":"00e8f991-3f91-48b7-bc4f-411a99738b36","system_id":"levelo_inurba_marseille","lat":43.29633,"lon":5.40601,"is_reserved":false,"is_disabled":false,"rental_uris":{"android":"levelo://app?vid=00e8f991-3f91-48b7-bc4f-411a99738b36","ios":"levelo://app?vid=00e8f991-3f91-48b7-bc4f-411a99738b36"},"vehicle_type_id":"4","last_reported":1736957431,"current_range_meters":22400,"station_id":"ce4bh0h2rcd13ifvqd60","pricing_plan_id":"cebpf4jnsgd1na2vs0mg"},{"bike_id":"cccb6aa6-2571-43d7-a949-5c3f9430e46c","system_id":"levelo_inurba_marseille","lat":43.29577,"lon":5.36736,"is_reserved":false,"is_disabled":false,"rental_uris":{"android":"levelo://app?vid=cccb6aa6-2571-43d7-a949-5c3f9430e46c","ios":"levelo://app?vid=cccb6aa6-2571-43d7-a949-5c3f9430e46c"},"vehicle_type_id":"4","last_reported":1736957431,"current_range_meters":11600,"station_id":"ce4bgph2rcd13ifvqc2g","pricing_plan_id":"cebpf4jnsgd1na2vs0mg"},{"bike_id":"aac69f47-6db9-4751-92c8-a0d94f2ced4f","system_id":"levelo_inurba_marseille","lat":43.30462,"lon":5.37905,"is_reserved":false,"is_disabled":true,"rental_uris":{"android":"levelo://app?vid=aac69f47-6db9-4751-92c8-a0d94f2ced4f","ios":"levelo://app?vid=aac69f47-6db9-4751-92c8-a0d94f2ced4f"},"vehicle_type_id":"4","last_reported":1736957431,"current_range_meters":0,"station_id":"ce4bgup2rcd13ifvqcn0","pricing_plan_id":"cebpf4jnsgd1na2vs0mg"},{"bike_id":"3ee0c712-787f-437e-9041-6d612f2aafc3","system_id":"levelo_inurba_marseille","lat":43.29297,"lon":5.37469,"is_reserved":false,"is_disabled":true,"rental_uris":{"android":"levelo://app?vid=3ee0c712-787f-437e-9041-6d612f2aafc3","ios":"levelo://app?vid=3ee0c712-787f-437e-9041-6d612f2aafc3"},"vehicle_type_id":"4","last_reported":1736957431,"current_range_meters":400,"station_id":"ce4bgi12rcd13ifvqb70","pricing_plan_id":"cebpf4jnsgd1na2vs0mg"},{"bike_id":"ed89a333-d26a-4fa5-9c07-51498d3d00b7","system_id":"levelo_inurba_marseille","lat":43.29578,"lon":5.40023,"is_reserved":false,"is_disabled":false,"rental_uris":{"android":"levelo://app?vid=ed89a333-d26a-4fa5-9c07-51498d3d00b7","ios":"levelo://app?vid=ed89a333-d26a-4fa5-9c07-51498d3d00b7"},"vehicle_type_id":"4","last_reported":1736957431,"current_range_meters":20400,"station_id":"","pricing_plan_id":"cebpf4jnsgd1na2vs0mg"},{"bike_id":"dc426a22-65e4-4285-93de-8811ea984fa0","system_id":"levelo_inurba_marseille","lat":43.28029,"lon":5.36976,"is_reserved":false,"is_disabled":false,"rental_uris":{"android":"levelo://app?vid=dc426a22-65e4-4285-93de-8811ea984fa0","ios":"levelo://app?vid=dc426a22-65e4-4285-93de-8811ea984fa0"},"vehicle_type_id":"4","last_reported":1736957431,"current_range_meters":22400,"station_id":"ce4bha12rcd13ifvqef0","pricing_plan_id":"cebpf4jnsgd1na2vs0mg"},{"bike_id":"0a4ad65f-e0c2-4cbd-a1cc-155a2b2c7350","system_id":"levelo_inurba_marseille","lat":43.27816,"lon":5.40724,"is_reserved":false,"is_disabled":false,"rental_uris":{"android":"levelo://app?vid=0a4ad65f-e0c2-4cbd-a1cc-155a2b2c7350","ios":"levelo://app?vid=0a4ad65f-e0c2-4cbd-a1cc-155a2b2c7350"},"vehicle_type_id":"4","last_reported":1736957431,"current_range_meters":16400,"station_id":"ce4bhnh2rcd13ifvqgtg","pricing_plan_id":"cebpf4jnsgd1na2vs0mg"},{"bike_id":"49a629c8-42c6-4686-aafc-a99dd7079e4a","system_id":"levelo_inurba_marseille","lat":43.29874,"lon":5.3974,"is_reserved":false,"is_disabled":false,"rental_uris":{"android":"levelo://app?vid=49a629c8-42c6-4686-aafc-a99dd7079e4a","ios":"levelo://app?vid=49a629c8-42c6-4686-aafc-a99dd7079e4a"},"vehicle_type_id":"4","last_reported":1736957431,"current_range_meters":38800,"station_id":"ce4bh0h2rcd13ifvqd50","pricing_plan_id":"cebpf4jnsgd1na2vs0mg"},{"bike_id":"fbbfa810-0a3d-43ad-9a02-b8748a2f2ee6","system_id":"levelo_inurba_marseille","lat":43.2619,"lon":5.37449,"is_reserved":false,"is_disabled":false,"rental_uris":{"android":"levelo://app?vid=fbbfa810-0a3d-43ad-9a02-b8748a2f2ee6","ios":"levelo://app?vid=fbbfa810-0a3d-43ad-9a02-b8748a2f2ee6"},"vehicle_type_id":"4","last_reported":1736957431,"current_range_meters":6800,"station_id":"ce4bhgp2rcd13ifvqfc0","pricing_plan_id":"cebpf4jnsgd1na2vs0mg"},{"bike_id":"018def55-bb79-4206-829f-45e03a256a03","system_id":"levelo_inurba_marseille","lat":43.23144,"lon":5.43721,"is_reserved":false,"is_disabled":false,"rental_uris":{"android":"levelo://app?vid=018def55-bb79-4206-829f-45e03a256a03","ios":"levelo://app?vid=018def55-bb79-4206-829f-45e03a256a03"},"vehicle_type_id":"4","last_reported":1736957431,"current_range_meters":38800,"station_id":"ce4bhmp2rcd13ifvqgog","pricing_plan_id":"cebpf4jnsgd1na2vs0mg"},{"bike_id":"66ba0859-b799-4707-a299-b93ddd2e0716","system_id":"levelo_inurba_marseille","lat":43.28941,"lon":5.364,"is_reserved":false,"is_disabled":false,"rental_uris":{"android":"levelo://app?vid=66ba0859-b799-4707-a299-b93ddd2e0716","ios":"levelo://app?vid=66ba0859-b799-4707-a299-b93ddd2e0716"},"vehicle_type_id":"4","last_reported":1736957431,"current_range_meters":36000,"station_id":"ce4bhc92rcd13ifvqetg","pricing_plan_id":"cebpf4jnsgd1na2vs0mg"},{"bike_id":"bbd6a9bd-cc76-4cd0-881e-43f60f863e99","system_id":"levelo_inurba_marseille","lat":43.28103,"lon":5.37837,"is_reserved":false,"is_disabled":false,"rental_uris":{"android":"levelo://app?vid=bbd6a9bd-cc76-4cd0-881e-43f60f863e99","ios":"levelo://app?vid=bbd6a9bd-cc76-4cd0-881e-43f60f863e99"},"vehicle_type_id":"4","last_reported":1736957431,"current_range_meters":36000,"station_id":"ce4bha12rcd13ifvqee0","pricing_plan_id":"cebpf4jnsgd1na2vs0mg"},{"bike_id":"517bcbf0-840d-4e8a-9530-260424bfbcc0","system_id":"levelo_inurba_marseille","lat":43.31494,"lon":5.37307,"is_reserved":false,"is_disabled":false,"rental_uris":{"android":"levelo://app?vid=517bcbf0-840d-4e8a-9530-260424bfbcc0","ios":"levelo://app?vid=517bcbf0-840d-4e8a-9530-260424bfbcc0"},"vehicle_type_id":"4","last_reported":1736957431,"current_range_meters":28800,"station_id":"ce4bgt12rcd13ifvqcd0","pricing_plan_id":"cebpf4jnsgd1na2vs0mg"},{"bike_id":"05247698-34b2-4ac4-be9c-7b602cffb43f","system_id":"levelo_inurba_marseille","lat":43.25824,"lon":5.39438,"is_reserved":false,"is_disabled":false,"rental_uris":{"android":"levelo://app?vid=05247698-34b2-4ac4-be9c-7b602cffb43f","ios":"levelo://app?vid=05247698-34b2-4ac4-be9c-7b602cffb43f"},"vehicle_type_id":"4","last_reported":1736957431,"current_range_meters":38000,"station_id":"ce4bhip2rcd13ifvqft0","pricing_plan_id":"cebpf4jnsgd1na2vs0mg"},{"bike_id":"d1d41c48-080c-4ce9-82fa-22a3878cd4c3","system_id":"levelo_inurba_marseille","lat":43.29302,"lon":5.37177,"is_reserved":false,"is_disabled":false,"rental_uris":{"android":"levelo://app?vid=d1d41c48-080c-4ce9-82fa-22a3878cd4c3","ios":"levelo://app?vid=d1d41c48-080c-4ce9-82fa-22a3878cd4c3"},"vehicle_type_id":"4","last_reported":1736957431,"current_range_meters":3200,"station_id":"ce4bgh92rcd13ifvqb40","pricing_plan_id":"cebpf4jnsgd1na2vs0mg"},{"bike_id":"24f87179-ee14-4d2c-96ae-3be6fbfe1611","system_id":"levelo_inurba_marseille","lat":43.25085,"lon":5.39517,"is_reserved":false,"is_disabled":false,"rental_uris":{"android":"levelo://app?vid=24f87179-ee14-4d2c-96ae-3be6fbfe1611","ios":"levelo://app?vid=24f87179-ee14-4d2c-96ae-3be6fbfe1611"},"vehicle_type_id":"4","last_reported":1736957431,"current_range_meters":13600,"station_id":"ce4bhm12rcd13ifvqgkg","pricing_plan_id":"cebpf4jnsgd1na2vs0mg"},{"bike_id":"fb0fd68b-87b0-4804-ae5e-b7fb66720929","system_id":"levelo_inurba_marseille","lat":43.28151,"lon":5.42641,"is_reserved":false,"is_disabled":false,"rental_uris":{"android":"levelo://app?vid=fb0fd68b-87b0-4804-ae5e-b7fb66720929","ios":"levelo://app?vid=fb0fd68b-87b0-4804-ae5e-b7fb66720929"},"vehicle_type_id":"4","last_reported":1736957431,"current_range_meters":33600,"station_id":"ce4bhnh2rcd13ifvqgug","pricing_plan_id":"cebpf4jnsgd1na2vs0mg"},{"bike_id":"85325311-b855-4c62-8f32-68af260728c8","system_id":"levelo_inurba_marseille","lat":43.26564,"lon":5.3901,"is_reserved":false,"is_disabled":false,"rental_uris":{"android":"levelo://app?vid=85325311-b855-4c62-8f32-68af260728c8","ios":"levelo://app?vid=85325311-b855-4c62-8f32-68af260728c8"},"vehicle_type_id":"4","last_reported":1736957431,"current_range_meters":30000,"station_id":"ce4bhe12rcd13ifvqf30","pricing_plan_id":"cebpf4jnsgd1na2vs0mg"},{"bike_id":"608b219b-2378-447a-ac81-5b2dca5feba9","system_id":"levelo_inurba_marseille","lat":43.28996,"lon":5.36015,"is_reserved":false,"is_disabled":false,"rental_uris":{"android":"levelo://app?vid=608b219b-2378-447a-ac81-5b2dca5feba9","ios":"levelo://app?vid=608b219b-2378-447a-ac81-5b2dca5feba9"},"vehicle_type_id":"4","last_reported":1736957431,"current_range_meters":38000,"station_id":"","pricing_plan_id":"cebpf4jnsgd1na2vs0mg"},{"bike_id":"419315b9-1518-4379-8cc4-c22bdd98d079","system_id":"levelo_inurba_marseille","lat":43.29705,"lon":5.37686,"is_reserved":false,"is_disabled":false,"rental_uris":{"android":"levelo://app?vid=419315b9-1518-4379-8cc4-c22bdd98d079","ios":"levelo://app?vid=419315b9-1518-4379-8cc4-c22bdd98d079"},"vehicle_type_id":"4","last_reported":1736957431,"current_range_meters":38800,"station_id":"ce4bgkh2rcd13ifvqbl0","pricing_plan_id":"cebpf4jnsgd1na2vs0mg"},{"bike_id":"b24fbffa-b24f-451d-a71c-71a57ba0d52c","system_id":"levelo_inurba_marseille","lat":43.23193,"lon":5.35555,"is_reserved":false,"is_disabled":false,"rental_uris":{"android":"levelo://app?vid=b24fbffa-b24f-451d-a71c-71a57ba0d52c","ios":"levelo://app?vid=b24fbffa-b24f-451d-a71c-71a57ba0d52c"},"vehicle_type_id":"4","last_reported":1736957431,"current_range_meters":18800,"station_id":"ce4bhu92rcd13ifvqi70","pricing_plan_id":"cebpf4jnsgd1na2vs0mg"},{"bike_id":"0075edd2-4888-488f-bb9e-7f579cbef8e8","system_id":"levelo_inurba_marseille","lat":43.25722,"lon":5.41108,"is_reserved":false,"is_disabled":false,"rental_uris":{"android":"levelo://app?vid=0075edd2-4888-488f-bb9e-7f579cbef8e8","ios":"levelo://app?vid=0075edd2-4888-488f-bb9e-7f579cbef8e8"},"vehicle_type_id":"4","last_reported":1736957431,"current_range_meters":38800,"station_id":"ce4bhkp2rcd13ifvqgd0","pricing_plan_id":"cebpf4jnsgd1na2vs0mg"},{"bike_id":"b785d7f6-c4ee-41d8-beb0-9043beb268f1","system_id":"levelo_inurba_marseille","lat":43.27055,"lon":5.40261,"is_reserved":false,"is_disabled":true,"rental_uris":{"android":"levelo://app?vid=b785d7f6-c4ee-41d8-beb0-9043beb268f1","ios":"levelo://app?vid=b785d7f6-c4ee-41d8-beb0-9043beb268f1"},"vehicle_type_id":"4","last_reported":1736957431,"current_range_meters":23200,"station_id":"ce4bhk92rcd13ifvqgc0","pricing_plan_id":"cebpf4jnsgd1na2vs0mg"},{"bike_id":"eb7009fd-0250-439f-a416-eb87d0244931","system_id":"levelo_inurba_marseille","lat":43.27607,"lon":5.36122,"is_reserved":false,"is_disabled":false,"rental_uris":{"android":"levelo://app?vid=eb7009fd-0250-439f-a416-eb87d0244931","ios":"levelo://app?vid=eb7009fd-0250-439f-a416-eb87d0244931"},"vehicle_type_id":"4","last_reported":1736957431,"current_range_meters":8000,"station_id":"ce4bgj92rcd13ifvqbe0","pricing_plan_id":"cebpf4jnsgd1na2vs0mg"},