{"last_updated":1757790371,"ttl":60,"version":"2.2","data":{"bikes":[{"bike_id":"8ec03810-d4a8-440c-a352-810e44f8e7fe","system_id":"levelo_inurba_marseille","lat":43.29302,"lon":5.37165,"is_reserved":false,"is_disabled":false,"rental_uris":{"android":"levelo://app?vid=8ec03810-d4a8-440c-a352-810e44f8e7fe","ios":"levelo://app?vid=8ec03810-d4a8-440c-a352-810e44f8e7fe"},"vehicle_type_id":"4","last_reported":1757790371,"current_range_meters":2800,"station_id":"ce4bgh92rcd13ifvqb40","pricing_plan_id":"cebpf4jnsgd1na2vs0mg"},{"bike_id":"07126d2a-5fd2-452d-8d03-e2d4e2410e4c","system_id":"levelo_inurba_marseille","lat":43.26228,"lon":5.40456,"is_reserved":false,"is_disabled":false,"rental_uris":{"android":"levelo://app?vid=07126d2a-5fd2-452d-8d03-e2d4e2410e4c","ios":"levelo://app?vid=07126d2a-5fd2-452d-8d03-e2d4e2410e4c"},"vehicle_type_id":"4","last_reported":1757790371,"current_range_meters":2800,"station_id":"ce4bhmh2rcd13ifvqgmg","pricing_plan_id":"cebpf4jnsgd1na2vs0mg"},{"bike_id":"c5d74327-fc3a-44d5-8dca-ada28896fc57","system_id":"levelo_inurba_marseille","lat":43.28864,"lon":5.42514,"is_reserved":false,"is_disabled":false,"rental_uris":{"android":"levelo://app?vid=c5d74327-fc3a-44d5-8dca-ada28896fc57","ios":"levelo://app?vid=c5d74327-fc3a-44d5-8dca-ada28896fc57"},"vehicle_type_id":"4","last_reported":1757790371,"current_range_meters":2800,"station_id":"","pricing_plan_id":"cebpf4jnsgd1na2vs0mg"},{"bike_id":"7f79bdbe-21c6-4d00-9ea1-8d46c0c8ec0b","system_id":"levelo_inurba_marseille","lat":43.29261,"lon":5.37629,"is_reserved":false,"is_disabled":false,"rental_uris":{"android":"levelo://app?vid=7f79bdbe-21c6-4d00-9ea1-8d46c0c8ec0b","ios":"levelo://app?vid=7f79bdbe-21c6-4d00-9ea1-8d46c0c8ec0b"},"vehicle_type_id":"4","last_reported":1757790371,"current_range_meters":2800,"station_id":"ce4bgi12rcd13ifvqb80","pricing_plan_id":"cebpf4jnsgd1na2vs0mg"},{"bike_id":"829e3d43-b7fd-4fdb-a348-26986d341284","system_id":"levelo_inurba_marseille","lat":43.21746,"lon":5.34608,"is_reserved":false,"is_disabled":false,"rental_uris":{"android":"levelo://app?vid=829e3d43-b7fd-4fdb-a348-26986d341284","ios":"levelo://app?vid=829e3d43-b7fd-4fdb-a348-26986d341284"},"vehicle_type_id":"4","last_reported":1757790371,"current_range_meters":2800,"station_id":"st_cvj6r9ubvosntc0bgbag","pricing_plan_id":"cebpf4jnsgd1na2vs0mg"},{"bike_id":"13bd9ea4-7ceb-4ab8-b959-da07d20b6910","system_id":"levelo_inurba_marseille","lat":43.29197,"lon":5.36067,"is_reserved":false,"is_disabled":false,"rental_uris":{"android":"levelo://app?vid=13bd9ea4-7ceb-4ab8-b959-da07d20b6910","ios":"levelo://app?vid=13bd9ea4-7ceb-4ab8-b959-da07d20b6910"},"vehicle_type_id":"4","last_reported":1757790371,"current_range_meters":2800,"station_id":"ce4bhbh2rcd13ifvqeqg","pricing_plan_id":"cebpf4jnsgd1na2vs0mg"},{"bike_id":"653a78a4-3e71-419f-b576-d48760797efe","system_id":"levelo_inurba_marseille","lat":43.26495,"lon":5.39544,"is_reserved":false,"is_disabled":false,"rental_uris":{"android":"levelo://app?vid=653a78a4-3e71-419f-b576-d48760797efe","ios":"levelo://app?vid=653a78a4-3e71-419f-b576-d48760797efe"},"vehicle_type_id":"4","last_reported":1757790371,"current_range_meters":3200,"station_id":"ce4bhi12rcd13ifvqfq0","pricing_plan_id":"cebpf4jnsgd1na2vs0mg"},{"bike_id":"def92bb9-344e-4124-b79e-dd98667a3616","system_id":"levelo_inurba_marseille","lat":43.306802,"lon":5.380708,"is_reserved":false,"is_disabled":false,"rental_uris":{"android":"levelo://app?vid=def92bb9-344e-4124-b79e-dd98667a3616","ios":"levelo://app?vid=def92bb9-344e-4124-b79e-dd98667a3616"},"vehicle_type_id":"4","last_reported":1757790371,"current_range_meters":3200,"station_id":"ce4bgt92rcd13ifvqcg0","pricing_plan_id":"cebpf4jnsgd1na2vs0mg"},{"bike_id":"a6c7b08c-9a19-48b0-b0c7-88804a9e2c29","system_id":"levelo_inurba_marseille","lat":43.33807,"lon":5.37458,"is_reserved":false,"is_disabled":false,"rental_uris":{"android":"levelo://app?vid=a6c7b08c-9a19-48b0-b0c7-88804a9e2c29","ios":"levelo://app?vid=a6c7b08c-9a19-48b0-b0c7-88804a9e2c29"},"vehicle_type_id":"4","last_reported":1757790371,"current_range_meters":3200,"station_id":"","pricing_plan_id":"cebpf4jnsgd1na2vs0mg"},{"bike_id":"ca56ede4-f481-4d70-a12f-d422009c0d1b","system_id":"levelo_inurba_marseille","lat":43.27375,"lon":5.36262,"is_reserved":false,"is_disabled":false,"rental_uris":{"android":"levelo://app?vid=ca56ede4-f481-4d70-a12f-d422009c0d1b","ios":"levelo://app?vid=ca56ede4-f481-4d70-a12f-d422009c0d1b"},"vehicle_type_id":"4","last_reported":1757790371,"current_range_meters":3200,"station_id":"ce4bhbh2rcd13ifvqeo0","pricing_plan_id":"cebpf4jnsgd1na2vs0mg"},{"bike_id":"53554954-4092-48b0-bc91-1df4ef132f87","system_id":"levelo_inurba_marseille","lat":43.276,"lon":5.3613,"is_reserved":false,"is_disabled":false,"rental_uris":{"android":"levelo://app?vid=53554954-4092-48b0-bc91-1df4ef132f87","ios":"levelo://app?vid=53554954-4092-48b0-bc91-1df4ef132f87"},"vehicle_type_id":"4","last_reported":1757790371,"current_range_meters":3600,"station_id":"ce4bgj92rcd13ifvqbe0","pricing_plan_id":"cebpf4jnsgd1na2vs0mg"},{"bike_id":"f1544a4b-a05a-4eb7-b3c9-3457508a3455","system_id":"levelo_inurba_marseille","lat":43.29525,"lon":5.3854,"is_reserved":false,"is_disabled":false,"rental_uris":{"android":"levelo://app?vid=f1544a4b-a05a-4eb7-b3c9-3457508a3455","ios":"levelo://app?vid=f1544a4b-a05a-4eb7-b3c9-3457508a3455"},"vehicle_type_id":"4","last_reported":1757790371,"current_range_meters":3600,"station_id":"ce4bgih2rcd13ifvqba0","pricing_plan_id":"cebpf4jnsgd1na2vs0mg"},{"bike_id":"3258e62d-d54e-423a-82f8-b3e66399dbec","system_id":"levelo_inurba_marseille","lat":43.29775,"lon":5.38115,"is_reserved":false,"is_disabled":true,"rental_uris":{"android":"levelo://app?vid=3258e62d-d54e-423a-82f8-b3e66399dbec","ios":"levelo://app?vid=3258e62d-d54e-423a-82f8-b3e66399dbec"},"vehicle_type_id":"4","last_reported":1757790371,"current_range_meters":3600,"station_id":"ce4bgip2rcd13ifvqbb0","pricing_plan_id":"cebpf4jnsgd1na2vs0mg"},{"bike_id":"f78673f7-7ed0-4317-8663-b0ceef27aea6","system_id":"levelo_inurba_marseille","lat":43.29886,"lon":5.38898,"is_reserved":false,"is_disabled":false,"rental_uris":{"android":"levelo://app?vid=f78673f7-7ed0-4317-8663-b0ceef27aea6","ios":"levelo://app?vid=f78673f7-7ed0-4317-8663-b0ceef27aea6"},"vehicle_type_id":"4","last_reported":1757790371,"current_range_meters":3600,"station_id":"ce4bh392rcd13ifvqdl0","pricing_plan_id":"cebpf4jnsgd1na2vs0mg"},{"bike_id":"ef47b351-81e8-44db-908b-74e609c6198f","system_id":"levelo_inurba_marseille","lat":43.27371,"lon":5.36262,"is_reserved":false,"is_disabled":false,"rental_uris":{"android":"levelo://app?vid=ef47b351-81e8-44db-908b-74e609c6198f","ios":"levelo://app?vid=ef47b351-81e8-44db-908b-74e609c6198f"},"vehicle_type_id":"4","last_reported":1757790371,"current_range_meters":3600,"station_id":"ce4bhbh2rcd13ifvqeo0","pricing_plan_id":"cebpf4jnsgd1na2vs0mg"},{"bike_id":"11171903-6935-4cba-a416-7e62ec603ec2","system_id":"levelo_inurba_marseille","lat":43.29257,"lon":5.40911,"is_reserved":false,"is_disabled":false,"rental_uris":{"android":"levelo://app?vid=11171903-6935-4cba-a416-7e62ec603ec2","ios":"levelo://app?vid=11171903-6935-4cba-a416-7e62ec603ec2"},"vehicle_type_id":"4","last_reported":1757790371,"current_range_meters":3600,"station_id":"ce4bh192rcd13ifvqdc0","pricing_plan_id":"cebpf4jnsgd1na2vs0mg"},{"bike_id":"8e823669-a05c-4f14-a05f-6373bb94f16b","system_id":"levelo_inurba_marseille","lat":43.307288,"lon":5.372792,"is_reserved":false,"is_disabled":false,"rental_uris":{"android":"levelo://app?vid=8e823669-a05c-4f14-a05f-6373bb94f16b","ios":"levelo://app?vid=8e823669-a05c-4f14-a05f-6373bb94f16b"},"vehicle_type_id":"4","last_reported":1757790371,"current_range_meters":4000,"station_id":"","pricing_plan_id":"cebpf4jnsgd1na2vs0mg"},{"bike_id":"e313b345-ef08-4d16-85af-9ecb95c2b843","system_id":"levelo_inurba_marseille","lat":43.30486,"lon":5.36767,"is_reserved":false,"is_disabled":false,"rental_uris":{"android":"levelo://app?vid=e313b345-ef08-4d16-85af-9ecb95c2b843","ios":"levelo://app?vid=e313b345-ef08-4d16-85af-9ecb95c2b843"},"vehicle_type_id":"4","last_reported":1757790371,"current_range_meters":4000,"station_id":"","pricing_plan_id":"cebpf4jnsgd1na2vs0mg"},{"bike_id":"fe8d88d6-81c3-42a8-85bb-3d0aa4841db3","system_id":"levelo_inurba_marseille","lat":43.337444,"lon":5.374475,"is_reserved":false,"is_disabled":false,"rental_uris":{"android":"levelo://app?vid=fe8d88d6-81c3-42a8-85bb-3d0aa4841db3","ios":"levelo://app?vid=fe8d88d6-81c3-42a8-85bb-3d0aa4841db3"},"vehicle_type_id":"4","last_reported":1757790371,"current_range_meters":4000,"station_id":"","pricing_plan_id":"cebpf4jnsgd1na2vs0mg"},{"bike_id":"d1de2b7d-3583-4df3-8bfa-43eda5116068","system_id":"levelo_inurba_marseille","lat":43.3374,"lon":5.37468,"is_reserved":false,"is_disabled":false,"rental_uris":{"android":"levelo://app?vid=d1de2b7d-3583-4df3-8bfa-43eda5116068","ios":"levelo://app?vid=d1de2b7d-3583-4df3-8bfa-43eda5116068"},"vehicle_type_id":"4","last_reported":1757790371,"current_range_meters":4000,"station_id":"","pricing_plan_id":"cebpf4jnsgd1na2vs0mg"},{"bike_id":"d1208639-5703-4ac3-a303-6e72a5788218","system_id":"levelo_inurba_marseille","lat":43.33753,"lon":5.37475,"is_reserved":false,"is_disabled":false,"rental_uris":{"android":"levelo://app?vid=d1208639-5703-4ac3-a303-6e72a5788218","ios":"levelo://app?vid=d1208639-5703-4ac3-a303-6e72a5788218"},"vehicle_type_id":"4","last_reported":1757790371,"current_range_meters":4000,"station_id":"","pricing_plan_id":"cebpf4jnsgd1na2vs0mg"},{"bike_id":"999df056-799c-417e-807e-52608d0b797e","system_id":"levelo_inurba_marseille","lat":43.297101,"lon":5.377007,"is_reserved":false,"is_disabled":false,"rental_uris":{"android":"levelo://app?vid=999df056-799c-417e-807e-52608d0b797e","ios":"levelo://app?vid=999df056-799c-417e-807e-52608d0b797e"},"vehicle_type_id":"4","last_reported":1757790371,"current_range_meters":4400,"station_id":"","pricing_plan_id":"cebpf4jnsgd1na2vs0mg"},{"bike_id":"84df1806-ca37-42e8-9022-1f5d9f362a93","system_id":"levelo_inurba_marseille","lat":43.27375,"lon":5.36261,"is_reserved":false,"is_disabled":false,"rental_uris":{"android":"levelo://app?vid=84df1806-ca37-42e8-9022-1f5d9f362a93","ios":"levelo://app?vid=84df1806-ca37-42e8-9022-1f5d9f362a93"},"vehicle_type_id":"4","last_reported":1757790371,"current_range_meters":4400,"station_id":"ce4bhbh2rcd13ifvqeo0","pricing_plan_id":"cebpf4jnsgd1na2vs0mg"},{"bike_id":"fad6ce92-8dd1-4ce3-9de3-6ae5f1b74cf2","system_id":"levelo_inurba_marseille","lat":43.306261,"lon":5.40076,"is_reserved":false,"is_disabled":false,"rental_uris":{"android":"levelo://app?vid=fad6ce92-8dd1-4ce3-9de3-6ae5f1b74cf2","ios":"levelo://app?vid=fad6ce92-8dd1-4ce3-9de3-6ae5f1b74cf2"},"vehicle_type_id":"4","last_reported":1757790371,"current_range_meters":4400,"station_id":"ce4bh112rcd13ifvqda0","pricing_plan_id":"cebpf4jnsgd1na2vs0mg"},{"bike_id":"e8f1a34f-d97f-492d-a96a-630755e01276","system_id":"levelo_inurba_marseille","lat":43.27427,"lon":5.39419,"is_reserved":false,"is_disabled":false,"rental_uris":{"android":"levelo://app?vid=e8f1a34f-d97f-492d-a96a-630755e01276","ios":"levelo://app?vid=e8f1a34f-d97f-492d-a96a-630755e01276"},"vehicle_type_id":"4","last_reported":1757790371,"current_range_meters":4400,"station_id":"ce4bhdp2rcd13ifvqf20","pricing_plan_id":"cebpf4jnsgd1na2vs0mg"},{"bike_id":"298f01eb-2a54-48c9-9712-a92f6eed6101","system_id":"levelo_inurba_marseille","lat":43.28458,"lon":5.35896,"is_reserved":false,"is_disabled":false,"rental_uris":{"android":"levelo://app?vid=298f01eb-2a54-48c9-9712-a92f6eed6101","ios":"levelo://app?vid=298f01eb-2a54-48c9-9712-a92f6eed6101"},"vehicle_type_id":"4","last_reported":1757790371,"current_range_meters":4800,"station_id":"ce4bhah2rcd13ifvqei0","pricing_plan_id":"cebpf4jnsgd1na2vs0mg"},{"bike_id":"c4c9a1d6-ac8a-42ea-b5a3-53c06657be39","system_id":"levelo_inurba_marseille","lat":43.24662,"lon":5.38164,"is_reserved":false,"is_disabled":false,"rental_uris":{"android":"levelo://app?vid=c4c9a1d6-ac8a-42ea-b5a3-53c06657be39","ios":"levelo://app?vid=c4c9a1d6-ac8a-42ea-b5a3-53c06657be39"},"vehicle_type_id":"4","last_reported":1757790371,"current_range_meters":4800,"station_id":"ce4bhih2rcd13ifvqfr0","pricing_plan_id":"cebpf4jnsgd1na2vs0mg"},{"bike_id":"1ddd8d07-2804-447c-9b3e-7aad0d5bc0d0","system_id":"levelo_inurba_marseille","lat":43.23963,"lon":5.36646,"is_reserved":false,"is_disabled":false,"rental_uris":{"android":"levelo://app?vid=1ddd8d07-2804-447c-9b3e-7aad0d5bc0d0","ios":"levelo://app?vid=1ddd8d07-2804-447c-9b3e-7aad0d5bc0d0"},"vehicle_type_id":"4","last_reported":1757790371,"current_range_meters":5600,"station_id":"ce4bhi12rcd13ifvqfp0","pricing_plan_id":"cebpf4jnsgd1na2vs0mg"},{"bike_id":"fe8ea19a-9452-430b-9391-4bd937dd3622","system_id":"levelo_inurba_marseille","lat":43.2836,"lon":5.39041,"is_reserved":false,"is_disabled":false,"rental_uris":{"android":"levelo://app?vid=fe8ea19a-9452-430b-9391-4bd937dd3622","ios":"levelo://app?vid=fe8ea19a-9452-430b-9391-4bd937dd3622"},"vehicle_type_id":"4","last_reported":1757790371,"current_range_meters":5600,"station_id":"","pricing_plan_id":"cebpf4jnsgd1na2vs0mg"},{"bike_id":"8aa28ac7-4966-4550-bc6c-b3bb97963800","system_id":"levelo_inurba_marseille","lat":43.27375,"lon":5.3626,"is_reserved":false,"is_disabled":false,"rental_uris":{"android":"levelo://app?vid=8aa28ac7-4966-4550-bc6c-b3bb97963800","ios":"levelo://app?vid=8aa28ac7-4966-4550-bc6c-b3bb97963800"},"vehicle_type_id":"4","last_reported":1757790371,"current_range_meters":4800,"station_id":"ce4bhbh2rcd13ifvqeo0","pricing_plan_id":"cebpf4jnsgd1na2vs0mg"},{"bike_id":"241feacf-1f67-4e37-a62e-95b1436b6e60","system_id":"levelo_inurba_marseille","lat":43.29004,"lon":5.35613,"is_reserved":false,"is_disabled":false,"rental_uris":{"android":"levelo://app?vid=241feacf-1f67-4e37-a62e-95b1436b6e60","ios":"levelo://app?vid=241feacf-1f67-4e37-a62e-95b1436b6e60"},"vehicle_type_id":"4","last_reported":1757790371,"current_range_meters":6000,"station_id":"ce4bhb92rcd13ifvqen0","pricing_plan_id":"cebpf4jnsgd1na2vs0mg"},{"bike_id":"07a3d808-73ae-4acd-93f0-be673ee158b2","system_id":"levelo_inurba_marseille","lat":43.28331,"lon":5.38107,"is_reserved":false,"is_disabled":false,"rental_uris":{"android":"levelo://app?vid=07a3d808-73ae-4acd-93f0-be673ee158b2","ios":"levelo://app?vid=07a3d808-73ae-4acd-93f0-be673ee158b2"},"vehicle_type_id":"4","last_reported":1757790371,"current_range_meters":6000,"station_id":"ce4bh412rcd13ifvqdr0","pricing_plan_id":"cebpf4jnsgd1na2vs0mg"},{"bike_id":"256f78fb-d327-4237-9582-b154afa07f2d","system_id":"levelo_inurba_marseille","lat":43.33837,"lon":5.37408,"is_reserved":false,"is_disabled":false,"rental_uris":{"android":"levelo://app?vid=256f78fb-d327-4237-9582-b154afa07f2d","ios":"levelo://app?vid=256f78fb-d327-4237-9582-b154afa07f2d"},"vehicle_type_id":"4","last_reported":1757790371,"current_range_meters":6000,"station_id":"","pricing_plan_id":"cebpf4jnsgd1na2vs0mg"},{"bike_id":"71f23975-df19-4c8e-a1fd-40358f5edeef","system_id":"levelo_inurba_marseille","lat":43.24807,"lon":5.37456,"is_reserved":false,"is_disabled":false,"rental_uris":{"android":"levelo://app?vid=71f23975-df19-4c8e-a1fd-40358f5edeef","ios":"levelo://app?vid=71f23975-df19-4c8e-a1fd-40358f5edeef"},"vehicle_type_id":"4","last_reported":1757790371,"current_range_meters":6000,"station_id":"ce4bhgh2rcd13ifvqfb0","pricing_plan_id":"cebpf4jnsgd1na2vs0mg"},{"bike_id":"4de2ad5a-7738-4213-8dbf-ce05c92d43e7","system_id":"levelo_inurba_marseille","lat":43.26681,"lon":5.38272,"is_reserved":false,"is_disabled":false,"rental_uris":{"android":"levelo://app?vid=4de2ad5a-7738-4213-8dbf-ce05c92d43e7","ios":"levelo://app?vid=4de2ad5a-7738-4213-8dbf-ce05c92d43e7"},"vehicle_type_id":"4","last_reported":1757790371,"current_range_meters":6400,"station_id":"ce4bhg92rcd13ifvqf90","pricing_plan_id":"cebpf4jnsgd1na2vs0mg"},{"bike_id":"e7b57c99-b225-4a11-bb07-a15c96cd8971","system_id":"levelo_inurba_marseille","lat":43.27942,"lon":5.41059,"is_reserved":false,"is_disabled":false,"rental_uris":{"android":"levelo://app?vid=e7b57c99-b225-4a11-bb07-a15c96cd8971","ios":"levelo://app?vid=e7b57c99-b225-4a11-bb07-a15c96cd8971"},"vehicle_type_id":"4","last_reported":1757790371,"current_range_meters":6400,"station_id":"ce4bhnp2rcd13ifvqh0g","pricing_plan_id":"cebpf4jnsgd1na2vs0mg"},{"bike_id":"6a452781-ab43-4e85-9765-4277383297ee","system_id":"levelo_inurba_marseille","lat":43.25335,"lon":5.42157,"is_reserved":false,"is_disabled":false,"rental_uris":{"android":"levelo://app?vid=6a452781-ab43-4e85-9765-4277383297ee","ios":"levelo://app?vid=6a452781-ab43-4e85-9765-4277383297ee"},"vehicle_type_id":"4","last_reported":1757790371,"current_range_meters":6400,"station_id":"st_d2m65c5bi1j21697t3ng","pricing_plan_id":"cebpf4jnsgd1na2vs0mg"},{"bike_id":"6b304af5-85e6-4024-b7a5-a4cedf957161","system_id":"levelo_inurba_marseille","lat":43.3117,"lon":5.38724,"is_reserved":false,"is_disabled":false,"rental_uris":{"android":"levelo://app?vid=6b304af5-85e6-4024-b7a5-a4cedf957161","ios":"levelo://app?vid=6b304af5-85e6-4024-b7a5-a4cedf957161"},"vehicle_type_id":"4","last_reported":1757790371,"current_range_meters":6400,"station_id":"ce4bgv12rcd13ifvqcp0","pricing_plan_id":"cebpf4jnsgd1na2vs0mg"},{"bike_id":"d295c0f9-f9c0-4742-a775-6e331a9c72ec","system_id":"levelo_inurba_marseille","lat":43.31073,"lon":5.38359,"is_reserved":false,"is_disabled":false,"rental_uris":{"android":"levelo://app?vid=d295c0f9-f9c0-4742-a775-6e331a9c72ec","ios":"levelo://app?vid=d295c0f9-f9c0-4742-a775-6e331a9c72ec"},"vehicle_type_id":"4","last_reported":1757790371,"current_range_meters":6800,"station_id":"ce4bgv92rcd13ifvqcr0","pricing_plan_id":"cebpf4jnsgd1na2vs0mg"},{"bike_id":"f9634a86-f41b-44a9-86e8-de3b8a7c7d7d","system_id":"levelo_inurba_marseille","lat":43.29608,"lon":5.37719,"is_reserved":false,"is_disabled":false,"rental_uris":{"android":"levelo://app?vid=f9634a86-f41b-44a9-86e8-de3b8a7c7d7d","ios":"levelo://app?vid=f9634a86-f41b-44a9-86e8-de3b8a7c7d7d"},"vehicle_type_id":"4","last_reported":1757790371,"current_range_meters":6800,"station_id":"ce4bgi92rcd13ifvqb90","pricing_plan_id":"cebpf4jnsgd1na2vs0mg"},{"bike_id":"d289c522-9da4-4aeb-bcda-c164516b4ea7","system_id":"levelo_inurba_marseille","lat":43.292563,"lon":5.384385,"is_reserved":false,"is_disabled":false,"rental_uris":{"android":"levelo://app?vid=d289c522-9da4-4aeb-bcda-c164516b4ea7","ios":"levelo://app?vid=d289c522-9da4-4aeb-bcda-c164516b4ea7"},"vehicle_type_id":"4","last_reported":1757790371,"current_range_meters":6800,"station_id":"ce4bh692rcd13ifvqea0","pricing_plan_id":"cebpf4jnsgd1na2vs0mg"},{"bike_id":"24665070-43d5-48f1-934c-c4e1453fbc65","system_id":"levelo_inurba_marseille","lat":43.26622,"lon":5.38305,"is_reserved":false,"is_disabled":true,"rental_uris":{"android":"levelo://app?vid=24665070-43d5-48f1-934c-c4e1453fbc65","ios":"levelo://app?vid=24665070-43d5-48f1-934c-c4e1453fbc65"},"vehicle_type_id":"4","last_reported":1757790371,"current_range_meters":6800,"station_id":"ce4bhg92rcd13ifvqf90","pricing_plan_id":"cebpf4jnsgd1na2vs0mg"},{"bike_id":"3e71af32-2808-40ef-84df-db8cb158295e","system_id":"levelo_inurba_marseille","lat":43.25502,"lon":5.37653,"is_reserved":false,"is_disabled":false,"rental_uris":{"android":"levelo://app?vid=3e71af32-2808-40ef-84df-db8cb158295e","ios":"levelo://app?vid=3e71af32-2808-40ef-84df-db8cb158295e"},"vehicle_type_id":"4","last_reported":1757790371,"current_range_meters":6800,"station_id":"ce4bhh12rcd13ifvqff0","pricing_plan_id":"cebpf4jnsgd1na2vs0mg"},{"bike_id":"646961bf-46f3-4b7e-8767-02cd8b541df8","system_id":"levelo_inurba_marseille","lat":43.33804,"lon":5.37418,"is_reserved":false,"is_disabled":false,"rental_uris":{"android":"levelo://app?vid=646961bf-46f3-4b7e-8767-02cd8b541df8","ios":"levelo://app?vid=646961bf-46f3-4b7e-8767-02cd8b541df8"},"vehicle_type_id":"4","last_reported":1757790371,"current_range_meters":7200,"station_id":"","pricing_plan_id":"cebpf4jnsgd1na2vs0mg"},{"bike_id":"8daef93f-30c9-48b2-9910-1aca48b54d7f","system_id":"levelo_inurba_marseille","lat":43.33768,"lon":5.37442,"is_reserved":false,"is_disabled":false,"rental_uris":{"android":"levelo://app?vid=8daef93f-30c9-48b2-9910-1aca48b54d7f","ios":"levelo://app?vid=8daef93f-30c9-48b2-9910-1aca48b54d7f"},"vehicle_type_id":"4","last_reported":1757790371,"current_range_meters":7200,"station_id":"","pricing_plan_id":"cebpf4jnsgd1na2vs0mg"},{"bike_id":"d027d9f2-538e-49c3-a5da-e37c5a36f1c7","system_id":"levelo_inurba_marseille","lat":43.28619,"lon":5.351,"is_reserved":false,"is_disabled":false,"rental_uris":{"android":"levelo://app?vid=d027d9f2-538e-49c3-a5da-e37c5a36f1c7","ios":"levelo://app?vid=d027d9f2-538e-49c3-a5da-e37c5a36f1c7"},"vehicle_type_id":"4","last_reported":1757790371,"current_range_meters":7200,"station_id":"ce4bhch2rcd13ifvqeug","pricing_plan_id":"cebpf4jnsgd1na2vs0mg"},{"bike_id":"d6d794a1-212f-4cdc-8e0e-850b6c301e05","system_id":"levelo_inurba_marseille","lat":43.26806,"lon":5.40273,"is_reserved":false,"is_disabled":false,"rental_uris":{"android":"levelo://app?vid=d6d794a1-212f-4cdc-8e0e-850b6c301e05","ios":"levelo://app?vid=d6d794a1-212f-4cdc-8e0e-850b6c301e05"},"vehicle_type_id":"4","last_reported":1757790371,"current_range_meters":7200,"station_id":"ce501612rcd8frsf0b60","pricing_plan_id":"cebpf4jnsgd1na2vs0mg"},{"bike_id":"ad1473e9-090b-416c-9530-20625ce8a4eb","system_id":"levelo_inurba_marseille","lat":43.25111,"lon":5.40325,"is_reserved":false,"is_disabled":false,"rental_uris":{"android":"levelo://app?vid=ad1473e9-090b-416c-9530-20625ce8a4eb","ios":"levelo://app?vid=ad1473e9-090b-416c-9530-20625ce8a4eb"},"vehicle_type_id":"4","last_reported":1757790371,"current_range_meters":7200,"station_id":"ce4bhlh2rcd13ifvqgig","pricing_plan_id":"cebpf4jnsgd1na2vs0mg"},{"bike_id":"68422fda-945c-402d-b886-a4fecef0c346","system_id":"levelo_inurba_marseille","lat":43.29161,"lon":5.37151,"is_reserved":false,"is_disabled":true,"rental_uris":{"android":"levelo://app?vid=68422fda-945c-402d-b886-a4fecef0c346","ios":"levelo://app?vid=68422fda-945c-402d-b886-a4fecef0c346"},"vehicle_type_id":"4","last_reported":1757790371,"current_range_meters":7200,"station_id":"ce4bha92rcd13ifvqeh0","pricing_plan_id":"cebpf4jnsgd1na2vs0mg"},{"bike_id":"3c82192c-1422-4f86-954b-af0a887dd37a","system_id":"levelo_inurba_marseille","lat":43.22928,"lon":5.35377,"is_reserved":false,"is_disabled":false,"rental_uris":{"android":"levelo://app?vid=3c82192c-1422-4f86-954b-af0a887dd37a","ios":"levelo://app?vid=3c82192c-1422-4f86-954b-af0a887dd37a"},"vehicle_type_id":"4","last_reported":1757790371,"current_range_meters":5600,"station_id":"cpo3532slgdg3j2ikp40","pricing_plan_id":"cebpf4jnsgd1na2vs0mg"},{"bike_id":"2b46f3cd-19f5-4ed0-b47c-d9089de4082f","system_id":"levelo_inurba_marseille","lat":43.2534,"lon":5.42178,"is_reserved":false,"is_disabled":false,"rental_uris":{"android":"levelo://app?vid=2b46f3cd-19f5-4ed0-b47c-d9089de4082f","ios":"levelo://app?vid=2b46f3cd-19f5-4ed0-b47c-d9089de4082f"},"vehicle_type_id":"4","last_reported":1757790371,"current_range_meters":8000,"station_id":"st_d2m65c5bi1j21697t3ng","pricing_plan_id":"cebpf4jnsgd1na2vs0mg"},{"bike_id":"972b4c5f-3a00-4bb2-9116-b81f2cecc9f2","system_id":"levelo_inurba_marseille","lat":43.33764,"lon":5.37483,"is_reserved":false,"is_disabled":false,"rental_uris":{"android":"levelo://app?vid=972b4c5f-3a00-4bb2-9116-b81f2cecc9f2","ios":"levelo://app?vid=972b4c5f-3a00-4bb2-9116-b81f2cecc9f2"},"vehicle_type_id":"4","last_reported":1757790371,"current_range_meters":8000,"station_id":"","pricing_plan_id":"cebpf4jnsgd1na2vs0mg"},{"bike_id":"f5af038c-d20d-4363-a1a2-619a6c397173","system_id":"levelo_inurba_marseille","lat":43.23959,"lon":5.36642,"is_reserved":false,"is_disabled":false,"rental_uris":{"android":"levelo://app?vid=f5af038c-d20d-4363-a1a2-619a6c397173","ios":"levelo://app?vid=f5af038c-d20d-4363-a1a2-619a6c397173"},"vehicle_type_id":"4","last_reported":1757790371,"current_range_meters":8000,"station_id":"ce4bhi12rcd13ifvqfp0","pricing_plan_id":"cebpf4jnsgd1na2vs0mg"},{"bike_id":"059b6b47-050d-433b-be33-398fe12effb9","system_id":"levelo_inurba_marseille","lat":43.23118,"lon":5.43716,"is_reserved":false,"is_disabled":false,"rental_uris":{"android":"levelo://app?vid=059b6b47-050d-433b-be33-398fe12effb9","ios":"levelo://app?vid=059b6b47-050d-433b-be33-398fe12effb9"},"vehicle_type_id":"4","last_reported":1757790371,"current_range_meters":8400,"station_id":"ce4bhmp2rcd13ifvqgog","pricing_plan_id":"cebpf4jnsgd1na2vs0mg"},{"bike_id":"049c1e5d-97f4-4666-8afe-53cb4da5816e","system_id":"levelo_inurba_marseille","lat":43.29527,"lon":5.38544,"is_reserved":false,"is_disabled":false,"rental_uris":{"android":"levelo://app?vid=049c1e5d-97f4-4666-8afe-53cb4da5816e","ios":"levelo://app?vid=049c1e5d-97f4-4666-8afe-53cb4da5816e"},"vehicle_type_id":"4","last_reported":1757790371,"current_range_meters":8400,"station_id":"ce4bgih2rcd13ifvqba0","pricing_plan_id":"cebpf4jnsgd1na2vs0mg"},{"bike_id":"721bfe40-0d55-49d6-b876-5468c3036f5e","system_id":"levelo_inurba_marseille","lat":43.26032,"lon":5.37549,"is_reserved":false,"is_disabled":false,"rental_uris":{"android":"levelo://app?vid=721bfe40-0d55-49d6-b876-5468c3036f5e","ios":"levelo://app?vid=721bfe40-0d55-49d6-b876-5468c3036f5e"},"vehicle_type_id":"4","last_reported":1757790371,"current_range_meters":8400,"station_id":"ce4bhgh2rcd13ifvqfa0","pricing_plan_id":"cebpf4jnsgd1na2vs0mg"},{"bike_id":"7152cc15-4365-432c-983c-690a25c7fece","system_id":"levelo_inurba_marseille","lat":43.30202,"lon":5.3947,"is_reserved":false,"is_disabled":false,"rental_uris":{"android":"levelo://app?vid=7152cc15-4365-432c-983c-690a25c7fece","ios":"levelo://app?vid=7152cc15-4365-432c-983c-690a25c7fece"},"vehicle_type_id":"4","last_reported":1757790371,"current_range_meters":8400,"station_id":"ce4bh0p2rcd13ifvqd70","pricing_plan_id":"cebpf4jnsgd1na2vs0mg"},{"bike_id":"2f3f8d43-a112-45e6-979c-f1c7564514ec","system_id":"levelo_inurba_marseille","lat":43.33773,"lon":5.37441,"is_reserved":false,"is_disabled":false,"rental_uris":{"android":"levelo://app?vid=2f3f8d43-a112-45e6-979c-f1c7564514ec","ios":"levelo://app?vid=2f3f8d43-a112-45e6-979c-f1c7564514ec"},"vehicle_type_id":"4","last_reported":1757790371,"current_range_meters":8800,"station_id":"","pricing_plan_id":"cebpf4jnsgd1na2vs0mg"},{"bike_id":"a3977072-5f91-4a68-b0d6-dc3cb909a337","system_id":"levelo_inurba_marseille","lat":43.33768,"lon":5.37482,"is_reserved":false,"is_disabled":false,"rental_uris":{"android":"levelo://app?vid=a3977072-5f91-4a68-b0d6-dc3cb909a337","ios":"levelo://app?vid=a3977072-5f91-4a68-b0d6-dc3cb909a337"},"vehicle_type_id":"4","last_reported":1757790371,"current_range_meters":8800,"station_id":"","pricing_plan_id":"cebpf4jnsgd1na2vs0mg"},{"bike_id":"202633c1-4070-4798-8b68-51f4eaee5281","system_id":"levelo_inurba_marseille","lat":43.29246,"lon":5.38319,"is_reserved":false,"is_disabled":false,"rental_uris":{"android":"levelo://app?vid=202633c1-4070-4798-8b68-51f4eaee5281","ios":"levelo://app?vid=202633c1-4070-4798-8b68-51f4eaee5281"},"vehicle_type_id":"4","last_reported":1757790371,"current_range_meters":8800,"station_id":"","pricing_plan_id":"cebpf4jnsgd1na2vs0mg"},{"bike_id":"3bd595b7-af3b-43b1-8697-1bcb2a61af6f","system_id":"levelo_inurba_marseille","lat":43.279959,"lon":5.399961,"is_reserved":false,"is_disabled":true,"rental_uris":{"android":"levelo://app?vid=3bd595b7-af3b-43b1-8697-1bcb2a61af6f","ios":"levelo://app?vid=3bd595b7-af3b-43b1-8697-1bcb2a61af6f"},"vehicle_type_id":"4","last_reported":1757790371,"current_range_meters":8800,"station_id":"ce4bho92rcd13ifvqh4g","pricing_plan_id":"cebpf4jnsgd1na2vs0mg"},{"bike_id":"0dc0980e-519e-4072-93d1-398475b42407","system_id":"levelo_inurba_marseille","lat":43.290226,"lon":5.381181,"is_reserved":false,"is_disabled":false,"rental_uris":{"android":"levelo://app?vid=0dc0980e-519e-4072-93d1-398475b42407","ios":"levelo://app?vid=0dc0980e-519e-4072-93d1-398475b42407"},"vehicle_type_id":"4","last_reported":1757790371,"current_range_meters":8400,"station_id":"ce4bh4p2rcd13ifvqe1g","pricing_plan_id":"cebpf4jnsgd1na2vs0mg"},{"bike_id":"5044162e-6817-4aec-9a91-487c2fc824e7","system_id":"levelo_inurba_marseille","lat":43.33821,"lon":5.37423,"is_reserved":false,"is_disabled":false,"rental_uris":{"android":"levelo://app?vid=5044162e-6817-4aec-9a91-487c2fc824e7","ios":"levelo://app?vid=5044162e-6817-4aec-9a91-487c2fc824e7"},"vehicle_type_id":"4","last_reported":1757790371,"current_range_meters":8800,"station_id":"","pricing_plan_id":"cebpf4jnsgd1na2vs0mg"},{"bike_id":"27234950-737a-4ad6-b11e-e2f31575267d","system_id":"levelo_inurba_marseille","lat":43.31994,"lon":5.38167,"is_reserved":false,"is_disabled":false,"rental_uris":{"android":"levelo://app?vid=27234950-737a-4ad6-b11e-e2f31575267d","ios":"levelo://app?vid=27234950-737a-4ad6-b11e-e2f31575267d"},"vehicle_type_id":"4","last_reported":1757790371,"current_range_meters":8800,"station_id":"ce4bhr12rcd13ifvqhpg","pricing_plan_id":"cebpf4jnsgd1na2vs0mg"},{"bike_id":"967925c1-5801-48e0-8106-c1c094d60ec3","system_id":"levelo_inurba_marseille","lat":43.27983,"lon":5.41672,"is_reserved":false,"is_disabled":false,"rental_uris":{"android":"levelo://app?vid=967925c1-5801-48e0-8106-c1c094d60ec3","ios":"levelo://app?vid=967925c1-5801-48e0-8106-c1c094d60ec3"},"vehicle_type_id":"4","last_reported":1757790371,"current_range_meters":8800,"station_id":"ce4bho12rcd13ifvqh1g","pricing_plan_id":"cebpf4jnsgd1na2vs0mg"},{"bike_id":"171dc573-9086-4761-9a2e-db7340b13bd5","system_id":"levelo_inurba_marseille","lat":43.29107,"lon":5.38107,"is_reserved":false,"is_disabled":false,"rental_uris":{"android":"levelo://app?vid=171dc573-9086-4761-9a2e-db7340b13bd5","ios":"levelo://app?vid=171dc573-9086-4761-9a2e-db7340b13bd5"},"vehicle_type_id":"4","last_reported":1757790371,"current_range_meters":8400,"station_id":"ce4bh512rcd13ifvqe2g","pricing_plan_id":"cebpf4jnsgd1na2vs0mg"},{"bike_id":"f0e5a48d-dcca-4ab9-8c2a-a9ec07b39fac","system_id":"levelo_inurba_marseille","lat":43.231903,"lon":5.355521,"is_reserved":false,"is_disabled":false,"rental_uris":{"android":"levelo://app?vid=f0e5a48d-dcca-4ab9-8c2a-a9ec07b39fac","ios":"levelo://app?vid=f0e5a48d-dcca-4ab9-8c2a-a9ec07b39fac"},"vehicle_type_id":"4","last_reported":1757790371,"current_range_meters":8800,"station_id":"ce4bhu92rcd13ifvqi70","pricing_plan_id":"cebpf4jnsgd1na2vs0mg"},{"bike_id":"775af279-8ac9-4585-9121-809be9b13265","system_id":"levelo_inurba_marseille","lat":43.337775,"lon":5.374412,"is_reserved":false,"is_disabled":false,"rental_uris":{"android":"levelo://app?vid=775af279-8ac9-4585-9121-809be9b13265","ios":"levelo://app?vid=775af279-8ac9-4585-9121-809be9b13265"},"vehicle_type_id":"4","last_reported":1757790371,"current_range_meters":9200,"station_id":"","pricing_plan_id":"cebpf4jnsgd1na2vs0mg"},{"bike_id":"5265c323-d968-47e0-a211-6a39731be8cd","system_id":"levelo_inurba_marseille","lat":43.30428,"lon":5.38894,"is_reserved":false,"is_disabled":false,"rental_uris":{"android":"levelo://app?vid=5265c323-d968-47e0-a211-6a39731be8cd","ios":"levelo://app?vid=5265c323-d968-47e0-a211-6a39731be8cd"},"vehicle_type_id":"4","last_reported":1757790371,"current_range_meters":9200,"station_id":"ce4bgk12rcd13ifvqbi0","pricing_plan_id":"cebpf4jnsgd1na2vs0mg"},{"bike_id":"d67b217f-b439-4d8f-ad29-2c6d71ef768c","system_id":"levelo_inurba_marseille","lat":43.27946,"lon":5.38718,"is_reserved":false,"is_disabled":false,"rental_uris":{"android":"levelo://app?vid=d67b217f-b439-4d8f-ad29-2c6d71ef768c","ios":"levelo://app?vid=d67b217f-b439-4d8f-ad29-2c6d71ef768c"},"vehicle_type_id":"4","last_reported":1757790371,"current_range_meters":9200,"station_id":"ce4bhg12rcd13ifvqf80","pricing_plan_id":"cebpf4jnsgd1na2vs0mg"},{"bike_id":"007371ed-4259-4f5b-b1e2-082376ecafd3","system_id":"levelo_inurba_marseille","lat":43.29815,"lon":5.40403,"is_reserved":false,"is_disabled":false,"rental_uris":{"android":"levelo://app?vid=007371ed-4259-4f5b-b1e2-082376ecafd3","ios":"levelo://app?vid=007371ed-4259-4f5b-b1e2-082376ecafd3"},"vehicle_type_id":"4","last_reported":1757790371,"current_range_meters":9600,"station_id":"ce4bh112rcd13ifvqd90","pricing_plan_id":"cebpf4jnsgd1na2vs0mg"},{"bike_id":"eaa220fb-5349-44c0-849a-e1e199bab0e0","system_id":"levelo_inurba_marseille","lat":43.312032,"lon":5.367326,"is_reserved":false,"is_disabled":true,"rental_uris":{"android":"levelo://app?vid=eaa220fb-5349-44c0-849a-e1e199bab0e0","ios":"levelo://app?vid=eaa220fb-5349-44c0-849a-e1e199bab0e0"},"vehicle_type_id":"4","last_reported":1757790371,"current_range_meters":9600,"station_id":"","pricing_plan_id":"cebpf4jnsgd1na2vs0mg"},{"bike_id":"1b25d02a-d9f7-412a-b082-50ac1bdd6229","system_id":"levelo_inurba_marseille","lat":43.292943,"lon":5.374636,"is_reserved":false,"is_disabled":false,"rental_uris":{"android":"levelo://app?vid=1b25d02a-d9f7-412a-b082-50ac1bdd6229","ios":"levelo://app?vid=1b25d02a-d9f7-412a-b082-50ac1bdd6229"},"vehicle_type_id":"4","last_reported":1757790371,"current_range_meters":9600,"station_id":"ce4bgi12rcd13ifvqb70","pricing_plan_id":"cebpf4jnsgd1na2vs0mg"},{"bike_id":"3d0d7a08-292f-49f9-adad-71f8a0462fca","system_id":"levelo_inurba_marseille","lat":43.2929,"lon":5.37464,"is_reserved":false,"is_disabled":false,"rental_uris":{"android":"levelo://app?vid=3d0d7a08-292f-49f9-adad-71f8a0462fca","ios":"levelo://app?vid=3d0d7a08-292f-49f9-adad-71f8a0462fca"},"vehicle_type_id":"4","last_reported":1757790371,"current_range_meters":9600,"station_id":"ce4bgi12rcd13ifvqb70","pricing_plan_id":"cebpf4jnsgd1na2vs0mg"},{"bike_id":"79db6e32-b4b9-4b0d-a768-b4326d61113e","system_id":"levelo_inurba_marseille","lat":43.2928,"lon":5.40127,"is_reserved":false,"is_disabled":false,"rental_uris":{"android":"levelo://app?vid=79db6e32-b4b9-4b0d-a768-b4326d61113e","ios":"levelo://app?vid=79db6e32-b4b9-4b0d-a768-b4326d61113e"},"vehicle_type_id":"4","last_reported":1757790371,"current_range_meters":9600,"station_id":"ce4bh312rcd13ifvqdk0","pricing_plan_id":"cebpf4jnsgd1na2vs0mg"},{"bike_id":"305493e7-b20e-4286-8b8b-de84cfe382ca","system_id":"levelo_inurba_marseille","lat":43.26209,"lon":5.37448,"is_reserved":false,"is_disabled":false,"rental_uris":{"android":"levelo://app?vid=305493e7-b20e-4286-8b8b-de84cfe382ca","ios":"levelo://app?vid=305493e7-b20e-4286-8b8b-de84cfe382ca"},"vehicle_type_id":"4","last_reported":1757790371,"current_range_meters":9600,"station_id":"ce4bhgp2rcd13ifvqfc0","pricing_plan_id":"cebpf4jnsgd1na2vs0mg"},{"bike_id":"c5d0a267-63b8-45b1-8db4-f64d80554eb4","system_id":"levelo_inurba_marseille","lat":43.28606,"lon":5.3707,"is_reserved":false,"is_disabled":true,"rental_uris":{"android":"levelo://app?vid=c5d0a267-63b8-45b1-8db4-f64d80554eb4","ios":"levelo://app?vid=c5d0a267-63b8-45b1-8db4-f64d80554eb4"},"vehicle_type_id":"4","last_reported":1757790371,"current_range_meters":9600,"station_id":"ce4bht12rcd13ifvqi60","pricing_plan_id":"cebpf4jnsgd1na2vs0mg"},{"bike_id":"4266b374-d4bf-4fd2-bb94-51b2d7d40946","system_id":"levelo_inurba_marseille","lat":43.2257,"lon":5.41636,"is_reserved":false,"is_disabled":false,"rental_uris":{"android":"levelo://app?vid=4266b374-d4bf-4fd2-bb94-51b2d7d40946","ios":"levelo://app?vid=4266b374-d4bf-4fd2-bb94-51b2d7d40946"},"vehicle_type_id":"4","last_reported":1757790371,"current_range_meters":9600,"station_id":"st_d2o4gvlbi1j2169b742g","pricing_plan_id":"cebpf4jnsgd1na2vs0mg"},{"bike_id":"7dc559a0-54a4-4bc2-9f13-196f9d20639e","system_id":"levelo_inurba_marseille","lat":43.25498,"lon":5.37651,"is_reserved":false,"is_disabled":false,"rental_uris":{"android":"levelo://app?vid=7dc559a0-54a4-4bc2-9f13-196f9d20639e","ios":"levelo://app?vid=7dc559a0-54a4-4bc2-9f13-196f9d20639e"},"vehicle_type_id":"4","last_reported":1757790371,"current_range_meters":9600,"station_id":"ce4bhh12rcd13ifvqff0","pricing_plan_id":"cebpf4jnsgd1na2vs0mg"},{"bike_id":"4e6c27da-2cc0-496b-ab26-06319f7e4b61","system_id":"levelo_inurba_marseille","lat":43.28606,"lon":5.35125,"is_reserved":false,"is_disabled":false,"rental_uris":{"android":"levelo://app?vid=4e6c27da-2cc0-496b-ab26-06319f7e4b61","ios":"levelo://app?vid=4e6c27da-2cc0-496b-ab26-06319f7e4b61"},"vehicle_type_id":"4","last_reported":1757790371,"current_range_meters":9600,"station_id":"ce4bhch2rcd13ifvqeug","pricing_plan_id":"cebpf4jnsgd1na2vs0mg"},{"bike_id":"1f5337e1-0da6-4170-9317-908b45981a29","system_id":"levelo_inurba_marseille","lat":43.2311,"lon":5.40482,"is_reserved":false,"is_disabled":false,"rental_uris":{"android":"levelo://app?vid=1f5337e1-0da6-4170-9317-908b45981a29","ios":"levelo://app?vid=1f5337e1-0da6-4170-9317-908b45981a29"},"vehicle_type_id":"4","last_reported":1757790371,"current_range_meters":9600,"station_id":"","pricing_plan_id":"cebpf4jnsgd1na2vs0mg"},{"bike_id":"d16230ff-2955-426b-a6aa-84f8e2e13648","system_id":"levelo_inurba_marseille","lat":43.28863,"lon":5.42524,"is_reserved":false,"is_disabled":false,"rental_uris":{"android":"levelo://app?vid=d16230ff-2955-426b-a6aa-84f8e2e13648","ios":"levelo://app?vid=d16230ff-2955-426b-a6aa-84f8e2e13648"},"vehicle_type_id":"4","last_reported":1757790371,"current_range_meters":9600,"station_id":"","pricing_plan_id":"cebpf4jnsgd1na2vs0mg"},{"bike_id":"89724e0f-d6a6-4e81-9dc8-40ed9db09b04","system_id":"levelo_inurba_marseille","lat":43.286011,"lon":5.370637,"is_reserved":false,"is_disabled":false,"rental_uris":{"android":"levelo://app?vid=89724e0f-d6a6-4e81-9dc8-40ed9db09b04","ios":"levelo://app?vid=89724e0f-d6a6-4e81-9dc8-40ed9db09b04"},"vehicle_type_id":"4","last_reported":1757790371,"current_range_meters":9600,"station_id":"ce4bht12rcd13ifvqi60","pricing_plan_id":"cebpf4jnsgd1na2vs0mg"},{"bike_id":"a24c4696-920b-4645-847f-87e0b46915a6","system_id":"levelo_inurba_marseille","lat":43.32413,"lon":5.42505,"is_reserved":false,"is_disabled":false,"rental_uris":{"android":"levelo://app?vid=a24c4696-920b-4645-847f-87e0b46915a6","ios":"levelo://app?vid=a24c4696-920b-4645-847f-87e0b46915a6"},"vehicle_type_id":"4","last_reported":1757790371,"current_range_meters":10000,"station_id":"","pricing_plan_id":"cebpf4jnsgd1na2vs0mg"},{"bike_id":"141081e1-2c1c-4fb1-9e43-afb07defefc8","system_id":"levelo_inurba_marseille","lat":43.33773,"lon":5.37441,"is_reserved":false,"is_disabled":false,"rental_uris":{"android":"levelo://app?vid=141081e1-2c1c-4fb1-9e43-afb07defefc8","ios":"levelo://app?vid=141081e1-2c1c-4fb1-9e43-afb07defefc8"},"vehicle_type_id":"4","last_reported":1757790371,"current_range_meters":10000,"station_id":"","pricing_plan_id":"cebpf4jnsgd1na2vs0mg"},{"bike_id":"0fe12bd0-f5b6-4bec-b455-99467a1adb53","system_id":"levelo_inurba_marseille","lat":43.33149,"lon":5.38169,"is_reserved":false,"is_disabled":false,"rental_uris":{"android":"levelo://app?vid=0fe12bd0-f5b6-4bec-b455-99467a1adb53","ios":"levelo://app?vid=0fe12bd0-f5b6-4bec-b455-99467a1adb53"},"vehicle_type_id":"4","last_reported":1757790371,"current_range_meters":10000,"station_id":"","pricing_plan_id":"cebpf4jnsgd1na2vs0mg"},{"bike_id":"9aa3aaae-4f4d-4d3b-b4cc-ba13c15a7511","system_id":"levelo_inurba_marseille","lat":43.31757,"lon":5.39024,"is_reserved":false,"is_disabled":false,"rental_uris":{"android":"levelo://app?vid=9aa3aaae-4f4d-4d3b-b4cc-ba13c15a7511","ios":"levelo://app?vid=9aa3aaae-4f4d-4d3b-b4cc-ba13c15a7511"},"vehicle_type_id":"4","last_reported":1757790371,"current_range_meters":10000,"station_id":"ce4bhqp2rcd13ifvqhng","pricing_plan_id":"cebpf4jnsgd1na2vs0mg"},{"bike_id":"4629e378-1ec3-4e2d-90c0-d559e6b4ede8","system_id":"levelo_inurba_marseille","lat":43.3133,"lon":5.39696,"is_reserved":false,"is_disabled":false,"rental_uris":{"android":"levelo://app?vid=4629e378-1ec3-4e2d-90c0-d559e6b4ede8","ios":"levelo://app?vid=4629e378-1ec3-4e2d-90c0-d559e6b4ede8"},"vehicle_type_id":"4","last_reported":1757790371,"current_range_meters":10000,"station_id":"ce4bgvp2rcd13ifvqcu0","pricing_plan_id":"cebpf4jnsgd1na2vs0mg"},{"bike_id":"49e7d884-318c-424e-9367-7c0e4f8950b0","system_id":"levelo_inurba_marseille","lat":43.3044,"lon":5.388874,"is_reserved":false,"is_disabled":false,"rental_uris":{"android":"levelo://app?vid=49e7d884-318c-424e-9367-7c0e4f8950b0","ios":"levelo://app?vid=49e7d884-318c-424e-9367-7c0e4f8950b0"},"vehicle_type_id":"4","last_reported":1757790371,"current_range_meters":10000,"station_id":"ce4bgk12rcd13ifvqbi0","pricing_plan_id":"cebpf4jnsgd1na2vs0mg"},{"bike_id":"46a16e73-b218-4a6d-8512-584b09aea0e9","system_id":"levelo_inurba_marseille","lat":43.30252,"lon":5.40086,"is_reserved":false,"is_disabled":false,"rental_uris":{"android":"levelo://app?vid=46a16e73-b218-4a6d-8512-584b09aea0e9","ios":"levelo://app?vid=46a16e73-b218-4a6d-8512-584b09aea0e9"},"vehicle_type_id":"4","last_reported":1757790371,"current_range_meters":10000,"station_id":"ce4bgvh2rcd13ifvqcs0","pricing_plan_id":"cebpf4jnsgd1na2vs0mg"},{"bike_id":"140f33b8-1102-4f7e-b0ef-d83c5cd8bb96","system_id":"levelo_inurba_marseille","lat":43.2319,"lon":5.35554,"is_reserved":false,"is_disabled":false,"rental_uris":{"android":"levelo://app?vid=140f33b8-1102-4f7e-b0ef-d83c5cd8bb96","ios":"levelo://app?vid=140f33b8-1102-4f7e-b0ef-d83c5cd8bb96"},"vehicle_type_id":"4","last_reported":1757790371,"current_range_meters":10800,"station_id":"ce4bhu92rcd13ifvqi70","pricing_plan_id":"cebpf4jnsgd1na2vs0mg"},{"bike_id":"8a4d2a94-6dcc-48a7-bce6-1f6f98746be6","system_id":"levelo_inurba_marseille","lat":43.27509,"lon":5.42452,"is_reserved":false,"is_disabled":false,"rental_uris":{"android":"levelo://app?vid=8a4d2a94-6dcc-48a7-bce6-1f6f98746be6","ios":"levelo://app?vid=8a4d2a94-6dcc-48a7-bce6-1f6f98746be6"},"vehicle_type_id":"4","last_reported":1757790371,"current_range_meters":10800,"station_id":"ce4bhn92rcd13ifvqgrg","pricing_plan_id":"cebpf4jnsgd1na2vs0mg"},{"bike_id":"a61eac29-ba8a-4a4d-8b6e-f8e422859116","system_id":"levelo_inurba_marseille","lat":43.28003,"lon":5.40018,"is_reserved":false,"is_disabled":false,"rental_uris":{"android":"levelo://app?vid=a61eac29-ba8a-4a4d-8b6e-f8e422859116","ios":"levelo://app?vid=a61eac29-ba8a-4a4d-8b6e-f8e422859116"},"vehicle_type_id":"4","last_reported":1757790371,"current_range_meters":10000,"station_id":"ce4bho92rcd13ifvqh4g","pricing_plan_id":"cebpf4jnsgd1na2vs0mg"},{"bike_id":"74c1e374-6389-4a41-ac1d-6ddc3c6ec8fd","system_id":"levelo_inurba_marseille","lat":43.28557,"lon":5.39499,"is_reserved":false,"is_disabled":false,"rental_uris":{"android":"levelo://app?vid=74c1e374-6389-4a41-ac1d-6ddc3c6ec8fd","ios":"levelo://app?vid=74c1e374-6389-4a41-ac1d-6ddc3c6ec8fd"},"vehicle_type_id":"4","last_reported":1757790371,"current_range_meters":10800,"station_id":"ce4bh292rcd13ifvqdg0","pricing_plan_id":"cebpf4jnsgd1na2vs0mg"},{"bike_id":"afa5b270-1b82-4b90-8fe4-7ae439ce006b","system_id":"levelo_inurba_marseille","lat":43.27992,"lon":5.41659,"is_reserved":false,"is_disabled":false,"rental_uris":{"android":"levelo://app?vid=afa5b270-1b82-4b90-8fe4-7ae439ce006b","ios":"levelo://app?vid=afa5b270-1b82-4b90-8fe4-7ae439ce006b"},"vehicle_type_id":"4","last_reported":1757790371,"current_range_meters":10800,"station_id":"ce4bho12rcd13ifvqh1g","pricing_plan_id":"cebpf4jnsgd1na2vs0mg"},{"bike_id":"6e1010f9-1bdd-430f-9494-cf019a35831c","system_id":"levelo_inurba_marseille","lat":43.29526,"lon":5.3854,"is_reserved":false,"is_disabled":false,"rental_uris":{"android":"levelo://app?vid=6e1010f9-1bdd-430f-9494-cf019a35831c","ios":"levelo://app?vid=6e1010f9-1bdd-430f-9494-cf019a35831c"},"vehicle_type_id":"4","last_reported":1757790371,"current_range_meters":10800,"station_id":"ce4bgih2rcd13ifvqba0","pricing_plan_id":"cebpf4jnsgd1na2vs0mg"},{"bike_id":"01ff4586-29c8-4333-b677-9a78ad9ba062","system_id":"levelo_inurba_marseille","lat":43.24816,"lon":5.37451,"is_reserved":false,"is_disabled":false,"rental_uris":{"android":"levelo://app?vid=01ff4586-29c8-4333-b677-9a78ad9ba062","ios":"levelo://app?vid=01ff4586-29c8-4333-b677-9a78ad9ba062"},"vehicle_type_id":"4","last_reported":1757790371,"current_range_meters":10800,"station_id":"ce4bhgh2rcd13ifvqfb0","pricing_plan_id":"cebpf4jnsgd1na2vs0mg"},{"bike_id":"0c78ed8a-2af8-4f2c-895d-0de884f1c9f2","system_id":"levelo_inurba_marseille","lat":43.29888,"lon":5.43675,"is_reserved":false,"is_disabled":false,"rental_uris":{"android":"levelo://app?vid=0c78ed8a-2af8-4f2c-895d-0de884f1c9f2","ios":"levelo://app?vid=0c78ed8a-2af8-4f2c-895d-0de884f1c9f2"},"vehicle_type_id":"4","last_reported":1757790371,"current_range_meters":10800,"station_id":"ce4bhpp2rcd13ifvqhfg","pricing_plan_id":"cebpf4jnsgd1na2vs0mg"},{"bike_id":"81d21fd8-3e6d-4e5f-8eda-5fe27968cb9c","system_id":"levelo_inurba_marseille","lat":43.29805,"lon":5.38094,"is_reserved":false,"is_disabled":false,"rental_uris":{"android":"levelo://app?vid=81d21fd8-3e6d-4e5f-8eda-5fe27968cb9c","ios":"levelo://app?vid=81d21fd8-3e6d-4e5f-8eda-5fe27968cb9c"},"vehicle_type_id":"4","last_reported":1757790371,"current_range_meters":10000,"station_id":"ce4bgip2rcd13ifvqbb0","pricing_plan_id":"cebpf4jnsgd1na2vs0mg"},{"bike_id":"9ad57701-092b-4987-844d-5371986cdaba","system_id":"levelo_inurba_marseille","lat":43.23156,"lon":5.43712,"is_reserved":false,"is_disabled":false,"rental_uris":{"android":"levelo://app?vid=9ad57701-092b-4987-844d-5371986cdaba","ios":"levelo://app?vid=9ad57701-092b-4987-844d-5371986cdaba"},"vehicle_type_id":"4","last_reported":1757790371,"current_range_meters":10800,"station_id":"ce4bhmp2rcd13ifvqgog","pricing_plan_id":"cebpf4jnsgd1na2vs0mg"},{"bike_id":"84c8fb15-5b5b-46a3-b92a-7de6406f90b3","system_id":"levelo_inurba_marseille","lat":43.2678,"lon":5.39438,"is_reserved":false,"is_disabled":true,"rental_uris":{"android":"levelo://app?vid=84c8fb15-5b5b-46a3-b92a-7de6406f90b3","ios":"levelo://app?vid=84c8fb15-5b5b-46a3-b92a-7de6406f90b3"},"vehicle_type_id":"4","last_reported":1757790371,"current_range_meters":11200,"station_id":"ce4bhh12rcd13ifvqfg0","pricing_plan_id":"cebpf4jnsgd1na2vs0mg"},{"bike_id":"97c90e13-5afb-44f6-826d-347f4b2a708b","system_id":"levelo_inurba_marseille","lat":43.29269,"lon":5.4012,"is_reserved":false,"is_disabled":false,"rental_uris":{"android":"levelo://app?vid=97c90e13-5afb-44f6-826d-347f4b2a708b","ios":"levelo://app?vid=97c90e13-5afb-44f6-826d-347f4b2a708b"},"vehicle_type_id":"4","last_reported":1757790371,"current_range_meters":11200,"station_id":"ce4bh312rcd13ifvqdk0","pricing_plan_id":"cebpf4jnsgd1na2vs0mg"},{"bike_id":"dcb98f28-410d-46c2-af0e-d95444a9b890","system_id":"levelo_inurba_marseille","lat":43.24805,"lon":5.37457,"is_reserved":false,"is_disabled":false,"rental_uris":{"android":"levelo://app?vid=dcb98f28-410d-46c2-af0e-d95444a9b890","ios":"levelo://app?vid=dcb98f28-410d-46c2-af0e-d95444a9b890"},"vehicle_type_id":"4","last_reported":1757790371,"current_range_meters":11200,"station_id":"ce4bhgh2rcd13ifvqfb0","pricing_plan_id":"cebpf4jnsgd1na2vs0mg"},{"bike_id":"dcae514d-9200-43c1-9267-dee91427cf46","system_id":"levelo_inurba_marseille","lat":43.25086,"lon":5.39506,"is_reserved":false,"is_disabled":false,"rental_uris":{"android":"levelo://app?vid=dcae514d-9200-43c1-9267-dee91427cf46","ios":"levelo://app?vid=dcae514d-9200-43c1-9267-dee91427cf46"},"vehicle_type_id":"4","last_reported":1757790371,"current_range_meters":11200,"station_id":"ce4bhm12rcd13ifvqgkg","pricing_plan_id":"cebpf4jnsgd1na2vs0mg"},{"bike_id":"cb12300c-8081-4d4a-a14b-64503270b3c8","system_id":"levelo_inurba_marseille","lat":43.29538,"lon":5.38537,"is_reserved":false,"is_disabled":false,"rental_uris":{"android":"levelo://app?vid=cb12300c-8081-4d4a-a14b-64503270b3c8","ios":"levelo://app?vid=cb12300c-8081-4d4a-a14b-64503270b3c8"},"vehicle_type_id":"4","last_reported":1757790371,"current_range_meters":11600,"station_id":"ce4bgih2rcd13ifvqba0","pricing_plan_id":"cebpf4jnsgd1na2vs0mg"},{"bike_id":"dd8bf1e7-c6ca-4a51-a0f2-638bded597f2","system_id":"levelo_inurba_marseille","lat":43.29716,"lon":5.36608,"is_reserved":false,"is_disabled":false,"rental_uris":{"android":"levelo://app?vid=dd8bf1e7-c6ca-4a51-a0f2-638bded597f2","ios":"levelo://app?vid=dd8bf1e7-c6ca-4a51-a0f2-638bded597f2"},"vehicle_type_id":"4","last_reported":1757790371,"current_range_meters":11600,"station_id":"ce4bgn12rcd13ifvqbt0","pricing_plan_id":"cebpf4jnsgd1na2vs0mg"},{"bike_id":"7dc00165-e583-4bd0-bbf8-f77743c96ba8","system_id":"levelo_inurba_marseille","lat":43.3235,"lon":5.3676,"is_reserved":false,"is_disabled":false,"rental_uris":{"android":"levelo://app?vid=7dc00165-e583-4bd0-bbf8-f77743c96ba8","ios":"levelo://app?vid=7dc00165-e583-4bd0-bbf8-f77743c96ba8"},"vehicle_type_id":"4","last_reported":1757790371,"current_range_meters":11600,"station_id":"ce4bhsh2rcd13ifvqi2g","pricing_plan_id":"cebpf4jnsgd1na2vs0mg"},{"bike_id":"064a1e0e-3bc7-46f2-a93f-f27f3e063c3c","system_id":"levelo_inurba_marseille","lat":43.25721,"lon":5.41112,"is_reserved":false,"is_disabled":false,"rental_uris":{"android":"levelo://app?vid=064a1e0e-3bc7-46f2-a93f-f27f3e063c3c","ios":"levelo://app?vid=064a1e0e-3bc7-46f2-a93f-f27f3e063c3c"},"vehicle_type_id":"4","last_reported":1757790371,"current_range_meters":11600,"station_id":"ce4bhkp2rcd13ifvqgd0","pricing_plan_id":"cebpf4jnsgd1na2vs0mg"},{"bike_id":"ce90f6e1-76d4-47e7-99d3-f4a37354e25f","system_id":"levelo_inurba_marseille","lat":43.25493,"lon":5.37651,"is_reserved":false,"is_disabled":false,"rental_uris":{"android":"levelo://app?vid=ce90f6e1-76d4-47e7-99d3-f4a37354e25f","ios":"levelo://app?vid=ce90f6e1-76d4-47e7-99d3-f4a37354e25f"},"vehicle_type_id":"4","last_reported":1757790371,"current_range_meters":11600,"station_id":"ce4bhh12rcd13ifvqff0","pricing_plan_id":"cebpf4jnsgd1na2vs0mg"},{"bike_id":"0ac62b20-efd1-4d6e-9b70-bf9abfc12010","system_id":"levelo_inurba_marseille","lat":43.2782,"lon":5.39208,"is_reserved":false,"is_disabled":false,"rental_uris":{"android":"levelo://app?vid=0ac62b20-efd1-4d6e-9b70-bf9abfc12010","ios":"levelo://app?vid=0ac62b20-efd1-4d6e-9b70-bf9abfc12010"},"vehicle_type_id":"4","last_reported":1757790371,"current_range_meters":11600,"station_id":"ce4bhjp2rcd13ifvqga0","pricing_plan_id":"cebpf4jnsgd1na2vs0mg"},{"bike_id":"d5c98035-fc72-4062-a3ec-13203f68e8ed","system_id":"levelo_inurba_marseille","lat":43.28866,"lon":5.42517,"is_reserved":false,"is_disabled":false,"rental_uris":{"android":"levelo://app?vid=d5c98035-fc72-4062-a3ec-13203f68e8ed","ios":"levelo://app?vid=d5c98035-fc72-4062-a3ec-13203f68e8ed"},"vehicle_type_id":"4","last_reported":1757790371,"current_range_meters":11600,"station_id":"","pricing_plan_id":"cebpf4jnsgd1na2vs0mg"},{"bike_id":"4512c2c7-f6ea-48a6-8a48-abb3bc17e447","system_id":"levelo_inurba_marseille","lat":43.25589,"lon":5.38219,"is_reserved":false,"is_disabled":false,"rental_uris":{"android":"levelo://app?vid=4512c2c7-f6ea-48a6-8a48-abb3bc17e447","ios":"levelo://app?vid=4512c2c7-f6ea-48a6-8a48-abb3bc17e447"},"vehicle_type_id":"4","last_reported":1757790371,"current_range_meters":11600,"station_id":"ce4bhih2rcd13ifvqfs0","pricing_plan_id":"cebpf4jnsgd1na2vs0mg"},{"bike_id":"e2164107-b729-4069-9f34-d5b5acbeaa8a","system_id":"levelo_inurba_marseille","lat":43.30941,"lon":5.40137,"is_reserved":false,"is_disabled":false,"rental_uris":{"android":"levelo://app?vid=e2164107-b729-4069-9f34-d5b5acbeaa8a","ios":"levelo://app?vid=e2164107-b729-4069-9f34-d5b5acbeaa8a"},"vehicle_type_id":"4","last_reported":1757790371,"current_range_meters":11600,"station_id":"ce4bgvp2rcd13ifvqct0","pricing_plan_id":"cebpf4jnsgd1na2vs0mg"},{"bike_id":"3bef69fe-5b53-4b5c-bb48-170285c21d79","system_id":"levelo_inurba_marseille","lat":43.25814,"lon":5.39455,"is_reserved":false,"is_disabled":false,"rental_uris":{"android":"levelo://app?vid=3bef69fe-5b53-4b5c-bb48-170285c21d79","ios":"levelo://app?vid=3bef69fe-5b53-4b5c-bb48-170285c21d79"},"vehicle_type_id":"4","last_reported":1757790371,"current_range_meters":12000,"station_id":"ce4bhip2rcd13ifvqft0","pricing_plan_id":"cebpf4jnsgd1na2vs0mg"},{"bike_id":"0f7dc3ad-2b17-4653-94e9-2eab8431bfdb","system_id":"levelo_inurba_marseille","lat":43.243832,"lon":5.370609,"is_reserved":false,"is_disabled":false,"rental_uris":{"android":"levelo://app?vid=0f7dc3ad-2b17-4653-94e9-2eab8431bfdb","ios":"levelo://app?vid=0f7dc3ad-2b17-4653-94e9-2eab8431bfdb"},"vehicle_type_id":"4","last_reported":1757790371,"current_range_meters":12000,"station_id":"ce4bhhh2rcd13ifvqfk0","pricing_plan_id":"cebpf4jnsgd1na2vs0mg"},{"bike_id":"3d03a245-0f73-4cae-a4be-658cdc7048be","system_id":"levelo_inurba_marseille","lat":43.33757,"lon":5.37455,"is_reserved":false,"is_disabled":false,"rental_uris":{"android":"levelo://app?vid=3d03a245-0f73-4cae-a4be-658cdc7048be","ios":"levelo://app?vid=3d03a245-0f73-4cae-a4be-658cdc7048be"},"vehicle_type_id":"4","last_reported":1757790371,"current_range_meters":12000,"station_id":"","pricing_plan_id":"cebpf4jnsgd1na2vs0mg"},{"bike_id":"84be000e-b186-4e60-8aaa-b7a0f42a7175","system_id":"levelo_inurba_marseille","lat":43.337616,"lon":5.374353,"is_reserved":false,"is_disabled":false,"rental_uris":{"android":"levelo://app?vid=84be000e-b186-4e60-8aaa-b7a0f42a7175","ios":"levelo://app?vid=84be000e-b186-4e60-8aaa-b7a0f42a7175"},"vehicle_type_id":"4","last_reported":1757790371,"current_range_meters":12000,"station_id":"","pricing_plan_id":"cebpf4jnsgd1na2vs0mg"},{"bike_id":"beb6189c-c21e-4836-b631-6b5c31a632d8","system_id":"levelo_inurba_marseille","lat":43.22563,"lon":5.4164,"is_reserved":false,"is_disabled":false,"rental_uris":{"android":"levelo://app?vid=beb6189c-c21e-4836-b631-6b5c31a632d8","ios":"levelo://app?vid=beb6189c-c21e-4836-b631-6b5c31a632d8"},"vehicle_type_id":"4","last_reported":1757790371,"current_range_meters":12400,"station_id":"st_d2o4gvlbi1j2169b742g","pricing_plan_id":"cebpf4jnsgd1na2vs0mg"},{"bike_id":"89b1a6a7-00da-4bc9-8cb3-ad8313460445","system_id":"levelo_inurba_marseille","lat":43.31232,"lon":5.36866,"is_reserved":false,"is_disabled":false,"rental_uris":{"android":"levelo://app?vid=89b1a6a7-00da-4bc9-8cb3-ad8313460445","ios":"levelo://app?vid=89b1a6a7-00da-4bc9-8cb3-ad8313460445"},"vehicle_type_id":"4","last_reported":1757790371,"current_range_meters":12000,"station_id":"ce4bgl92rcd13ifvqbq0","pricing_plan_id":"cebpf4jnsgd1na2vs0mg"},{"bike_id":"d5fe8587-d577-4927-9f03-bf5f1fa338f3","system_id":"levelo_inurba_marseille","lat":43.32566,"lon":5.37578,"is_reserved":false,"is_disabled":false,"rental_uris":{"android":"levelo://app?vid=d5fe8587-d577-4927-9f03-bf5f1fa338f3","ios":"levelo://app?vid=d5fe8587-d577-4927-9f03-bf5f1fa338f3"},"vehicle_type_id":"4","last_reported":1757790371,"current_range_meters":12400,"station_id":"","pricing_plan_id":"cebpf4jnsgd1na2vs0mg"},{"bike_id":"7551b6ea-c220-4ab0-ae49-87a7d4947d7b","system_id":"levelo_inurba_marseille","lat":43.29233,"lon":5.36058,"is_reserved":false,"is_disabled":false,"rental_uris":{"android":"levelo://app?vid=7551b6ea-c220-4ab0-ae49-87a7d4947d7b","ios":"levelo://app?vid=7551b6ea-c220-4ab0-ae49-87a7d4947d7b"},"vehicle_type_id":"4","last_reported":1757790371,"current_range_meters":12800,"station_id":"ce4bhbh2rcd13ifvqeqg","pricing_plan_id":"cebpf4jnsgd1na2vs0mg"},{"bike_id":"bafbe027-3fce-41e5-990a-5969fa52ab76","system_id":"levelo_inurba_marseille","lat":43.254999,"lon":5.376492,"is_reserved":false,"is_disabled":false,"rental_uris":{"android":"levelo://app?vid=bafbe027-3fce-41e5-990a-5969fa52ab76","ios":"levelo://app?vid=bafbe027-3fce-41e5-990a-5969fa52ab76"},"vehicle_type_id":"4","last_reported":1757790371,"current_range_meters":12400,"station_id":"ce4bhh12rcd13ifvqff0","pricing_plan_id":"cebpf4jnsgd1na2vs0mg"},{"bike_id":"a9ebc79c-5e97-4666-aeba-4ef32bd3c290","system_id":"levelo_inurba_marseille","lat":43.29421,"lon":5.37044,"is_reserved":false,"is_disabled":false,"rental_uris":{"android":"levelo://app?vid=a9ebc79c-5e97-4666-aeba-4ef32bd3c290","ios":"levelo://app?vid=a9ebc79c-5e97-4666-aeba-4ef32bd3c290"},"vehicle_type_id":"4","last_reported":1757790371,"current_range_meters":12400,"station_id":"ce4bgh92rcd13ifvqb40","pricing_plan_id":"cebpf4jnsgd1na2vs0mg"},{"bike_id":"02dbb44c-70e3-4a7a-b86e-6159cc35ba47","system_id":"levelo_inurba_marseille","lat":43.29587,"lon":5.38689,"is_reserved":false,"is_disabled":false,"rental_uris":{"android":"levelo://app?vid=02dbb44c-70e3-4a7a-b86e-6159cc35ba47","ios":"levelo://app?vid=02dbb44c-70e3-4a7a-b86e-6159cc35ba47"},"vehicle_type_id":"4","last_reported":1757790371,"current_range_meters":12400,"station_id":"ce4bgih2rcd13ifvqba0","pricing_plan_id":"cebpf4jnsgd1na2vs0mg"},{"bike_id":"6598d1b1-e993-4bc7-9345-0e47ccf51475","system_id":"levelo_inurba_marseille","lat":43.29253,"lon":5.3844,"is_reserved":false,"is_disabled":false,"rental_uris":{"android":"levelo://app?vid=6598d1b1-e993-4bc7-9345-0e47ccf51475","ios":"levelo://app?vid=6598d1b1-e993-4bc7-9345-0e47ccf51475"},"vehicle_type_id":"4","last_reported":1757790371,"current_range_meters":12400,"station_id":"ce4bh692rcd13ifvqea0","pricing_plan_id":"cebpf4jnsgd1na2vs0mg"},{"bike_id":"c7e7fd69-f607-4002-8cfc-51b1eee21570","system_id":"levelo_inurba_marseille","lat":43.33784,"lon":5.37435,"is_reserved":false,"is_disabled":false,"rental_uris":{"android":"levelo://app?vid=c7e7fd69-f607-4002-8cfc-51b1eee21570","ios":"levelo://app?vid=c7e7fd69-f607-4002-8cfc-51b1eee21570"},"vehicle_type_id":"4","last_reported":1757790371,"current_range_meters":12800,"station_id":"","pricing_plan_id":"cebpf4jnsgd1na2vs0mg"},{"bike_id":"f8ffd399-b74b-428b-b8c5-652d37f4b22c","system_id":"levelo_inurba_marseille","lat":43.24954,"lon":5.40526,"is_reserved":false,"is_disabled":false,"rental_uris":{"android":"levelo://app?vid=f8ffd399-b74b-428b-b8c5-652d37f4b22c","ios":"levelo://app?vid=f8ffd399-b74b-428b-b8c5-652d37f4b22c"},"vehicle_type_id":"4","last_reported":1757790371,"current_range_meters":12800,"station_id":"st_d2ngiaodas8pm72gd1h0","pricing_plan_id":"cebpf4jnsgd1na2vs0mg"},{"bike_id":"d9c66413-fc0c-4d58-b9df-c55859e73212","system_id":"levelo_inurba_marseille","lat":43.28458,"lon":5.35904,"is_reserved":false,"is_disabled":false,"rental_uris":{"android":"levelo://app?vid=d9c66413-fc0c-4d58-b9df-c55859e73212","ios":"levelo://app?vid=d9c66413-fc0c-4d58-b9df-c55859e73212"},"vehicle_type_id":"4","last_reported":1757790371,"current_range_meters":12800,"station_id":"ce4bhah2rcd13ifvqei0","pricing_plan_id":"cebpf4jnsgd1na2vs0mg"},{"bike_id":"6515536f-56de-4109-b7a1-24c742aed225","system_id":"levelo_inurba_marseille","lat":43.31997,"lon":5.37234,"is_reserved":false,"is_disabled":false,"rental_uris":{"android":"levelo://app?vid=6515536f-56de-4109-b7a1-24c742aed225","ios":"levelo://app?vid=6515536f-56de-4109-b7a1-24c742aed225"},"vehicle_type_id":"4","last_reported":1757790371,"current_range_meters":12800,"station_id":"","pricing_plan_id":"cebpf4jnsgd1na2vs0mg"},{"bike_id":"55d59e02-f5a5-4e1a-9360-556e842fa2a4","system_id":"levelo_inurba_marseille","lat":43.33764,"lon":5.37496,"is_reserved":false,"is_disabled":false,"rental_uris":{"android":"levelo://app?vid=55d59e02-f5a5-4e1a-9360-556e842fa2a4","ios":"levelo://app?vid=55d59e02-f5a5-4e1a-9360-556e842fa2a4"},"vehicle_type_id":"4","last_reported":1757790371,"current_range_meters":12800,"station_id":"","pricing_plan_id":"cebpf4jnsgd1na2vs0mg"},{"bike_id":"5b4ca8b7-8422-40e7-a18b-fbaafe0e9da9","system_id":"levelo_inurba_marseille","lat":43.29267,"lon":5.38436,"is_reserved":false,"is_disabled":false,"rental_uris":{"android":"levelo://app?vid=5b4ca8b7-8422-40e7-a18b-fbaafe0e9da9","ios":"levelo://app?vid=5b4ca8b7-8422-40e7-a18b-fbaafe0e9da9"},"vehicle_type_id":"4","last_reported":1757790371,"current_range_meters":12800,"station_id":"ce4bh692rcd13ifvqea0","pricing_plan_id":"cebpf4jnsgd1na2vs0mg"},{"bike_id":"a3f71cfa-757f-4163-b492-f9fd8badf8e5","system_id":"levelo_inurba_marseille","lat":43.27828,"lon":5.39217,"is_reserved":false,"is_disabled":false,"rental_uris":{"android":"levelo://app?vid=a3f71cfa-757f-4163-b492-f9fd8badf8e5","ios":"levelo://app?vid=a3f71cfa-757f-4163-b492-f9fd8badf8e5"},"vehicle_type_id":"4","last_reported":1757790371,"current_range_meters":13600,"station_id":"ce4bhjp2rcd13ifvqga0","pricing_plan_id":"cebpf4jnsgd1na2vs0mg"},{"bike_id":"8ca77fed-bfca-44b8-94f4-d1bc4f0339c2","system_id":"levelo_inurba_marseille","lat":43.29796,"lon":5.39344,"is_reserved":false,"is_disabled":false,"rental_uris":{"android":"levelo://app?vid=8ca77fed-bfca-44b8-94f4-d1bc4f0339c2","ios":"levelo://app?vid=8ca77fed-bfca-44b8-94f4-d1bc4f0339c2"},"vehicle_type_id":"4","last_reported":1757790371,"current_range_meters":13600,"station_id":"chh1huq6cuj3fo74tm60","pricing_plan_id":"cebpf4jnsgd1na2vs0mg"},{"bike_id":"cbe6f866-1357-45a4-afbd-44c3352c1a8a","system_id":"levelo_inurba_marseille","lat":43.281008,"lon":5.37851,"is_reserved":false,"is_disabled":false,"rental_uris":{"android":"levelo://app?vid=cbe6f866-1357-45a4-afbd-44c3352c1a8a","ios":"levelo://app?vid=cbe6f866-1357-45a4-afbd-44c3352c1a8a"},"vehicle_type_id":"4","last_reported":1757790371,"current_range_meters":13600,"station_id":"ce4bha12rcd13ifvqee0","pricing_plan_id":"cebpf4jnsgd1na2vs0mg"},{"bike_id":"cb07a987-93b3-4443-9711-b4443f2c9dba","system_id":"levelo_inurba_marseille","lat":43.31224,"lon":5.36854,"is_reserved":false,"is_disabled":false,"rental_uris":{"android":"levelo://app?vid=cb07a987-93b3-4443-9711-b4443f2c9dba","ios":"levelo://app?vid=cb07a987-93b3-4443-9711-b4443f2c9dba"},"vehicle_type_id":"4","last_reported":1757790371,"current_range_meters":13600,"station_id":"ce4bgl92rcd13ifvqbq0","pricing_plan_id":"cebpf4jnsgd1na2vs0mg"},{"bike_id":"d9c11a94-d122-4240-b95b-24fdee8810ac","system_id":"levelo_inurba_marseille","lat":43.28271,"lon":5.39915,"is_reserved":false,"is_disabled":false,"rental_uris":{"android":"levelo://app?vid=d9c11a94-d122-4240-b95b-24fdee8810ac","ios":"levelo://app?vid=d9c11a94-d122-4240-b95b-24fdee8810ac"},"vehicle_type_id":"4","last_reported":1757790371,"current_range_meters":13600,"station_id":"","pricing_plan_id":"cebpf4jnsgd1na2vs0mg"},{"bike_id":"2a7bc07a-c148-4a25-b2c5-5233e29560f5","system_id":"levelo_inurba_marseille","lat":43.286072,"lon":5.370666,"is_reserved":false,"is_disabled":false,"rental_uris":{"android":"levelo://app?vid=2a7bc07a-c148-4a25-b2c5-5233e29560f5","ios":"levelo://app?vid=2a7bc07a-c148-4a25-b2c5-5233e29560f5"},"vehicle_type_id":"4","last_reported":1757790371,"current_range_meters":13600,"station_id":"ce4bht12rcd13ifvqi60","pricing_plan_id":"cebpf4jnsgd1na2vs0mg"},{"bike_id":"803fb79e-7a2d-456f-ac7c-1d8305874978","system_id":"levelo_inurba_marseille","lat":43.2737,"lon":5.36262,"is_reserved":false,"is_disabled":false,"rental_uris":{"android":"levelo://app?vid=803fb79e-7a2d-456f-ac7c-1d8305874978","ios":"levelo://app?vid=803fb79e-7a2d-456f-ac7c-1d8305874978"},"vehicle_type_id":"4","last_reported":1757790371,"current_range_meters":13600,"station_id":"ce4bhbh2rcd13ifvqeo0","pricing_plan_id":"cebpf4jnsgd1na2vs0mg"},{"bike_id":"eb41f718-4e8e-40b8-964b-98e12bf05f6b","system_id":"levelo_inurba_marseille","lat":43.29282,"lon":5.36848,"is_reserved":false,"is_disabled":false,"rental_uris":{"android":"levelo://app?vid=eb41f718-4e8e-40b8-964b-98e12bf05f6b","ios":"levelo://app?vid=eb41f718-4e8e-40b8-964b-98e12bf05f6b"},"vehicle_type_id":"4","last_reported":1757790371,"current_range_meters":13600,"station_id":"ce4bhbp2rcd13ifvqesg","pricing_plan_id":"cebpf4jnsgd1na2vs0mg"},{"bike_id":"3e2f244f-6268-4660-a8ca-b6f26ab520c9","system_id":"levelo_inurba_marseille","lat":43.29255,"lon":5.38444,"is_reserved":false,"is_disabled":false,"rental_uris":{"android":"levelo://app?vid=3e2f244f-6268-4660-a8ca-b6f26ab520c9","ios":"levelo://app?vid=3e2f244f-6268-4660-a8ca-b6f26ab520c9"},"vehicle_type_id":"4","last_reported":1757790371,"current_range_meters":14000,"station_id":"ce4bh692rcd13ifvqea0","pricing_plan_id":"cebpf4jnsgd1na2vs0mg"},{"bike_id":"f8707f83-9541-4fab-8e1b-d61c799505d2","system_id":"levelo_inurba_marseille","lat":43.30248,"lon":5.40038,"is_reserved":false,"is_disabled":false,"rental_uris":{"android":"levelo://app?vid=f8707f83-9541-4fab-8e1b-d61c799505d2","ios":"levelo://app?vid=f8707f83-9541-4fab-8e1b-d61c799505d2"},"vehicle_type_id":"4","last_reported":1757790371,"current_range_meters":14000,"station_id":"ce4bgvh2rcd13ifvqcs0","pricing_plan_id":"cebpf4jnsgd1na2vs0mg"},{"bike_id":"cd104b68-7370-4e88-ba9c-1edeee0f6c77","system_id":"levelo_inurba_marseille","lat":43.25158,"lon":5.42477,"is_reserved":false,"is_disabled":false,"rental_uris":{"android":"levelo://app?vid=cd104b68-7370-4e88-ba9c-1edeee0f6c77","ios":"levelo://app?vid=cd104b68-7370-4e88-ba9c-1edeee0f6c77"},"vehicle_type_id":"4","last_reported":1757790371,"current_range_meters":14000,"station_id":"","pricing_plan_id":"cebpf4jnsgd1na2vs0mg"},{"bike_id":"67c35ac3-7fc1-4337-84b3-7b5b98e2c6ec","system_id":"levelo_inurba_marseille","lat":43.27178,"lon":5.40993,"is_reserved":false,"is_disabled":false,"rental_uris":{"android":"levelo://app?vid=67c35ac3-7fc1-4337-84b3-7b5b98e2c6ec","ios":"levelo://app?vid=67c35ac3-7fc1-4337-84b3-7b5b98e2c6ec"},"vehicle_type_id":"4","last_reported":1757790371,"current_range_meters":14000,"station_id":"ce4bhl12rcd13ifvqgf0","pricing_plan_id":"cebpf4jnsgd1na2vs0mg"},{"bike_id":"cf78af0d-e4ae-41dc-9a61-b22f8ab5f81b","system_id":"levelo_inurba_marseille","lat":43.30421,"lon":5.38895,"is_reserved":false,"is_disabled":false,"rental_uris":{"android":"levelo://app?vid=cf78af0d-e4ae-41dc-9a61-b22f8ab5f81b","ios":"levelo://app?vid=cf78af0d-e4ae-41dc-9a61-b22f8ab5f81b"},"vehicle_type_id":"4","last_reported":1757790371,"current_range_meters":14000,"station_id":"ce4bgk12rcd13ifvqbi0","pricing_plan_id":"cebpf4jnsgd1na2vs0mg"},{"bike_id":"ee42c31a-b74b-4b2d-917a-cd50dc10c6ce","system_id":"levelo_inurba_marseille","lat":43.330624,"lon":5.390047,"is_reserved":false,"is_disabled":false,"rental_uris":{"android":"levelo://app?vid=ee42c31a-b74b-4b2d-917a-cd50dc10c6ce","ios":"levelo://app?vid=ee42c31a-b74b-4b2d-917a-cd50dc10c6ce"},"vehicle_type_id":"4","last_reported":1757790371,"current_range_meters":14000,"station_id":"","pricing_plan_id":"cebpf4jnsgd1na2vs0mg"},{"bike_id":"e7fcf438-9d82-4343-a4fb-25dc0513ade6","system_id":"levelo_inurba_marseille","lat":43.2835,"lon":5.38116,"is_reserved":false,"is_disabled":false,"rental_uris":{"android":"levelo://app?vid=e7fcf438-9d82-4343-a4fb-25dc0513ade6","ios":"levelo://app?vid=e7fcf438-9d82-4343-a4fb-25dc0513ade6"},"vehicle_type_id":"4","last_reported":1757790371,"current_range_meters":14000,"station_id":"ce4bh412rcd13ifvqdr0","pricing_plan_id":"cebpf4jnsgd1na2vs0mg"},{"bike_id":"f07d1a34-6972-4c1d-8ed8-100dd0fc1e78","system_id":"levelo_inurba_marseille","lat":43.32985,"lon":5.39052,"is_reserved":false,"is_disabled":false,"rental_uris":{"android":"levelo://app?vid=f07d1a34-6972-4c1d-8ed8-100dd0fc1e78","ios":"levelo://app?vid=f07d1a34-6972-4c1d-8ed8-100dd0fc1e78"},"vehicle_type_id":"4","last_reported":1757790371,"current_range_meters":14000,"station_id":"ce4bhr92rcd13ifvqhrg","pricing_plan_id":"cebpf4jnsgd1na2vs0mg"},{"bike_id":"621bbf6a-f694-4903-8a75-f64f638e2180","system_id":"levelo_inurba_marseille","lat":43.29535,"lon":5.38542,"is_reserved":false,"is_disabled":false,"rental_uris":{"android":"levelo://app?vid=621bbf6a-f694-4903-8a75-f64f638e2180","ios":"levelo://app?vid=621bbf6a-f694-4903-8a75-f64f638e2180"},"vehicle_type_id":"4","last_reported":1757790371,"current_range_meters":14000,"station_id":"ce4bgih2rcd13ifvqba0","pricing_plan_id":"cebpf4jnsgd1na2vs0mg"},{"bike_id":"b37d21d9-2cea-4209-9cd1-8c6dacc037d6","system_id":"levelo_inurba_marseille","lat":43.31999,"lon":5.38158,"is_reserved":false,"is_disabled":false,"rental_uris":{"android":"levelo://app?vid=b37d21d9-2cea-4209-9cd1-8c6dacc037d6","ios":"levelo://app?vid=b37d21d9-2cea-4209-9cd1-8c6dacc037d6"},"vehicle_type_id":"4","last_reported":1757790371,"current_range_meters":14000,"station_id":"ce4bhr12rcd13ifvqhpg","pricing_plan_id":"cebpf4jnsgd1na2vs0mg"},{"bike_id":"185e2c20-8900-4e5b-83c8-5f9b6bdd6f1f","system_id":"levelo_inurba_marseille","lat":43.29807,"lon":5.38083,"is_reserved":false,"is_disabled":false,"rental_uris":{"android":"levelo://app?vid=185e2c20-8900-4e5b-83c8-5f9b6bdd6f1f","ios":"levelo://app?vid=185e2c20-8900-4e5b-83c8-5f9b6bdd6f1f"},"vehicle_type_id":"4","last_reported":1757790371,"current_range_meters":14000,"station_id":"ce4bgip2rcd13ifvqbb0","pricing_plan_id":"cebpf4jnsgd1na2vs0mg"},{"bike_id":"40207740-3997-48f7-a3a9-b19ccf0a0c3b","system_id":"levelo_inurba_marseille","lat":43.30428,"lon":5.41303,"is_reserved":false,"is_disabled":false,"rental_uris":{"android":"levelo://app?vid=40207740-3997-48f7-a3a9-b19ccf0a0c3b","ios":"levelo://app?vid=40207740-3997-48f7-a3a9-b19ccf0a0c3b"},"vehicle_type_id":"4","last_reported":1757790371,"current_range_meters":14000,"station_id":"ce4bhop2rcd13ifvqh8g","pricing_plan_id":"cebpf4jnsgd1na2vs0mg"},{"bike_id":"31195751-bbc1-4ea5-8068-c21d8881b649","system_id":"levelo_inurba_marseille","lat":43.24073,"lon":5.37747,"is_reserved":false,"is_disabled":false,"rental_uris":{"android":"levelo://app?vid=31195751-bbc1-4ea5-8068-c21d8881b649","ios":"levelo://app?vid=31195751-bbc1-4ea5-8068-c21d8881b649"},"vehicle_type_id":"4","last_reported":1757790371,"current_range_meters":14400,"station_id":"ce4bhnp2rcd13ifvqgvg","pricing_plan_id":"cebpf4jnsgd1na2vs0mg"},{"bike_id":"e9ee13b6-cdb7-464a-b41c-3f407be862de","system_id":"levelo_inurba_marseille","lat":43.21753,"lon":5.34591,"is_reserved":false,"is_disabled":false,"rental_uris":{"android":"levelo://app?vid=e9ee13b6-cdb7-464a-b41c-3f407be862de","ios":"levelo://app?vid=e9ee13b6-cdb7-464a-b41c-3f407be862de"},"vehicle_type_id":"4","last_reported":1757790371,"current_range_meters":14400,"station_id":"st_cvj6r9ubvosntc0bgbag","pricing_plan_id":"cebpf4jnsgd1na2vs0mg"},{"bike_id":"986d5aa2-f4df-4631-b089-ccb3d6dae626","system_id":"levelo_inurba_marseille","lat":43.31368,"lon":5.38628,"is_reserved":false,"is_disabled":false,"rental_uris":{"android":"levelo://app?vid=986d5aa2-f4df-4631-b089-ccb3d6dae626","ios":"levelo://app?vid=986d5aa2-f4df-4631-b089-ccb3d6dae626"},"vehicle_type_id":"4","last_reported":1757790371,"current_range_meters":14400,"station_id":"","pricing_plan_id":"cebpf4jnsgd1na2vs0mg"},{"bike_id":"1eaf7d24-f23e-4e79-b6f5-17176bccc028","system_id":"levelo_inurba_marseille","lat":43.27931,"lon":5.38719,"is_reserved":false,"is_disabled":false,"rental_uris":{"android":"levelo://app?vid=1eaf7d24-f23e-4e79-b6f5-17176bccc028","ios":"levelo://app?vid=1eaf7d24-f23e-4e79-b6f5-17176bccc028"},"vehicle_type_id":"4","last_reported":1757790371,"current_range_meters":14400,"station_id":"","pricing_plan_id":"cebpf4jnsgd1na2vs0mg"},{"bike_id":"b1fae7f5-f5c1-4232-88f8-9776066be04b","system_id":"levelo_inurba_marseille","lat":43.29304,"lon":5.37172,"is_reserved":false,"is_disabled":false,"rental_uris":{"android":"levelo://app?vid=b1fae7f5-f5c1-4232-88f8-9776066be04b","ios":"levelo://app?vid=b1fae7f5-f5c1-4232-88f8-9776066be04b"},"vehicle_type_id":"4","last_reported":1757790371,"current_range_meters":14400,"station_id":"ce4bgh92rcd13ifvqb40","pricing_plan_id":"cebpf4jnsgd1na2vs0mg"},{"bike_id":"c5cba6d7-e282-4417-a818-5fc0802dcb08","system_id":"levelo_inurba_marseille","lat":43.33761,"lon":5.3745,"is_reserved":false,"is_disabled":false,"rental_uris":{"android":"levelo://app?vid=c5cba6d7-e282-4417-a818-5fc0802dcb08","ios":"levelo://app?vid=c5cba6d7-e282-4417-a818-5fc0802dcb08"},"vehicle_type_id":"4","last_reported":1757790371,"current_range_meters":14400,"station_id":"","pricing_plan_id":"cebpf4jnsgd1na2vs0mg"},{"bike_id":"ee510f93-9bad-498c-af93-1bec8c5ad01b","system_id":"levelo_inurba_marseille","lat":43.25336,"lon":5.42175,"is_reserved":false,"is_disabled":false,"rental_uris":{"android":"levelo://app?vid=ee510f93-9bad-498c-af93-1bec8c5ad01b","ios":"levelo://app?vid=ee510f93-9bad-498c-af93-1bec8c5ad01b"},"vehicle_type_id":"4","last_reported":1757790371,"current_range_meters":14800,"station_id":"st_d2m65c5bi1j21697t3ng","pricing_plan_id":"cebpf4jnsgd1na2vs0mg"},{"bike_id":"939b9c08-d247-4e29-a963-e8d7b1f9aa03","system_id":"levelo_inurba_marseille","lat":43.28889,"lon":5.35837,"is_reserved":false,"is_disabled":false,"rental_uris":{"android":"levelo://app?vid=939b9c08-d247-4e29-a963-e8d7b1f9aa03","ios":"levelo://app?vid=939b9c08-d247-4e29-a963-e8d7b1f9aa03"},"vehicle_type_id":"4","last_reported":1757790371,"current_range_meters":14800,"station_id":"ce4bhb12rcd13ifvqem0","pricing_plan_id":"cebpf4jnsgd1na2vs0mg"},{"bike_id":"e7a329bd-ed66-4ac7-aaba-63f2810ddd86","system_id":"levelo_inurba_marseille","lat":43.31913,"lon":5.3719,"is_reserved":false,"is_disabled":false,"rental_uris":{"android":"levelo://app?vid=e7a329bd-ed66-4ac7-aaba-63f2810ddd86","ios":"levelo://app?vid=e7a329bd-ed66-4ac7-aaba-63f2810ddd86"},"vehicle_type_id":"4","last_reported":1757790371,"current_range_meters":14800,"station_id":"","pricing_plan_id":"cebpf4jnsgd1na2vs0mg"},{"bike_id":"8eaa800d-071a-4461-aace-e7f43324aaac","system_id":"levelo_inurba_marseille","lat":43.27825,"lon":5.39215,"is_reserved":false,"is_disabled":false,"rental_uris":{"android":"levelo://app?vid=8eaa800d-071a-4461-aace-e7f43324aaac","ios":"levelo://app?vid=8eaa800d-071a-4461-aace-e7f43324aaac"},"vehicle_type_id":"4","last_reported":1757790371,"current_range_meters":14400,"station_id":"ce4bhjp2rcd13ifvqga0","pricing_plan_id":"cebpf4jnsgd1na2vs0mg"},{"bike_id":"b5e6492f-c6f6-4862-a7a2-5eb9440d5281","system_id":"levelo_inurba_marseille","lat":43.28007,"lon":5.40001,"is_reserved":false,"is_disabled":false,"rental_uris":{"android":"levelo://app?vid=b5e6492f-c6f6-4862-a7a2-5eb9440d5281","ios":"levelo://app?vid=b5e6492f-c6f6-4862-a7a2-5eb9440d5281"},"vehicle_type_id":"4","last_reported":1757790371,"current_range_meters":14800,"station_id":"ce4bho92rcd13ifvqh4g","pricing_plan_id":"cebpf4jnsgd1na2vs0mg"},{"bike_id":"b0b42bce-9aff-4a09-9512-bc004309516d","system_id":"levelo_inurba_marseille","lat":43.283479,"lon":5.381029,"is_reserved":false,"is_disabled":false,"rental_uris":{"android":"levelo://app?vid=b0b42bce-9aff-4a09-9512-bc004309516d","ios":"levelo://app?vid=b0b42bce-9aff-4a09-9512-bc004309516d"},"vehicle_type_id":"4","last_reported":1757790371,"current_range_meters":14800,"station_id":"ce4bh412rcd13ifvqdr0","pricing_plan_id":"cebpf4jnsgd1na2vs0mg"},{"bike_id":"c682ef70-00bc-4415-9b10-9a35bd5ddcc1","system_id":"levelo_inurba_marseille","lat":43.274931,"lon":5.424592,"is_reserved":false,"is_disabled":false,"rental_uris":{"android":"levelo://app?vid=c682ef70-00bc-4415-9b10-9a35bd5ddcc1","ios":"levelo://app?vid=c682ef70-00bc-4415-9b10-9a35bd5ddcc1"},"vehicle_type_id":"4","last_reported":1757790371,"current_range_meters":15200,"station_id":"ce4bhn92rcd13ifvqgrg","pricing_plan_id":"cebpf4jnsgd1na2vs0mg"},{"bike_id":"fd023a40-d69c-4361-9109-4126162693f0","system_id":"levelo_inurba_marseille","lat":43.277718,"lon":5.3783,"is_reserved":false,"is_disabled":false,"rental_uris":{"android":"levelo://app?vid=fd023a40-d69c-4361-9109-4126162693f0","ios":"levelo://app?vid=fd023a40-d69c-4361-9109-4126162693f0"},"vehicle_type_id":"4","last_reported":1757790371,"current_range_meters":15200,"station_id":"","pricing_plan_id":"cebpf4jnsgd1na2vs0mg"},{"bike_id":"84c69d92-80d2-4c48-9b8b-00a7506d444f","system_id":"levelo_inurba_marseille","lat":43.2858,"lon":5.39503,"is_reserved":false,"is_disabled":false,"rental_uris":{"android":"levelo://app?vid=84c69d92-80d2-4c48-9b8b-00a7506d444f","ios":"levelo://app?vid=84c69d92-80d2-4c48-9b8b-00a7506d444f"},"vehicle_type_id":"4","last_reported":1757790371,"current_range_meters":14800,"station_id":"ce4bh292rcd13ifvqdg0","pricing_plan_id":"cebpf4jnsgd1na2vs0mg"},{"bike_id":"08dd149f-234d-4257-9742-8ea8a2f2658d","system_id":"levelo_inurba_marseille","lat":43.28399,"lon":5.37531,"is_reserved":false,"is_disabled":true,"rental_uris":{"android":"levelo://app?vid=08dd149f-234d-4257-9742-8ea8a2f2658d","ios":"levelo://app?vid=08dd149f-234d-4257-9742-8ea8a2f2658d"},"vehicle_type_id":"4","last_reported":1757790371,"current_range_meters":15200,"station_id":"ce4bh412rcd13ifvqds0","pricing_plan_id":"cebpf4jnsgd1na2vs0mg"},{"bike_id":"12b9c958-ee1d-4a7e-b063-6648532a7910","system_id":"levelo_inurba_marseille","lat":43.30399,"lon":5.41304,"is_reserved":false,"is_disabled":false,"rental_uris":{"android":"levelo://app?vid=12b9c958-ee1d-4a7e-b063-6648532a7910","ios":"levelo://app?vid=12b9c958-ee1d-4a7e-b063-6648532a7910"},"vehicle_type_id":"4","last_reported":1757790371,"current_range_meters":15200,"station_id":"ce4bhop2rcd13ifvqh8g","pricing_plan_id":"cebpf4jnsgd1na2vs0mg"},{"bike_id":"ccdb69e9-c587-4441-864d-b11b8c0b86d3","system_id":"levelo_inurba_marseille","lat":43.30125,"lon":5.39854,"is_reserved":false,"is_disabled":false,"rental_uris":{"android":"levelo://app?vid=ccdb69e9-c587-4441-864d-b11b8c0b86d3","ios":"levelo://app?vid=ccdb69e9-c587-4441-864d-b11b8c0b86d3"},"vehicle_type_id":"4","last_reported":1757790371,"current_range_meters":15200,"station_id":"ce4bh0h2rcd13ifvqd40","pricing_plan_id":"cebpf4jnsgd1na2vs0mg"},{"bike_id":"a690947d-f360-4989-9a22-1181837396f7","system_id":"levelo_inurba_marseille","lat":43.31377,"lon":5.42765,"is_reserved":false,"is_disabled":false,"rental_uris":{"android":"levelo://app?vid=a690947d-f360-4989-9a22-1181837396f7","ios":"levelo://app?vid=a690947d-f360-4989-9a22-1181837396f7"},"vehicle_type_id":"4","last_reported":1757790371,"current_range_meters":15200,"station_id":"","pricing_plan_id":"cebpf4jnsgd1na2vs0mg"},{"bike_id":"ff74af27-7f09-48d7-9b6d-b4000afb5f40","system_id":"levelo_inurba_marseille","lat":43.29606,"lon":5.38104,"is_reserved":false,"is_disabled":false,"rental_uris":{"android":"levelo://app?vid=ff74af27-7f09-48d7-9b6d-b4000afb5f40","ios":"levelo://app?vid=ff74af27-7f09-48d7-9b6d-b4000afb5f40"},"vehicle_type_id":"4","last_reported":1757790371,"current_range_meters":15200,"station_id":"ce4bgl12rcd13ifvqbo0","pricing_plan_id":"cebpf4jnsgd1na2vs0mg"},{"bike_id":"75c55f12-e7cc-4e94-abb5-828a441182de","system_id":"levelo_inurba_marseille","lat":43.29959,"lon":5.38509,"is_reserved":false,"is_disabled":false,"rental_uris":{"android":"levelo://app?vid=75c55f12-e7cc-4e94-abb5-828a441182de","ios":"levelo://app?vid=75c55f12-e7cc-4e94-abb5-828a441182de"},"vehicle_type_id":"4","last_reported":1757790371,"current_range_meters":16000,"station_id":"ce4bgj92rcd13ifvqbd0","pricing_plan_id":"cebpf4jnsgd1na2vs0mg"},{"bike_id":"0418ed23-d4c6-49db-b310-d4f985bd3bc3","system_id":"levelo_inurba_marseille","lat":43.321212,"lon":5.367668,"is_reserved":false,"is_disabled":false,"rental_uris":{"android":"levelo://app?vid=0418ed23-d4c6-49db-b310-d4f985bd3bc3","ios":"levelo://app?vid=0418ed23-d4c6-49db-b310-d4f985bd3bc3"},"vehicle_type_id":"4","last_reported":1757790371,"current_range_meters":16000,"station_id":"ce4bhrh2rcd13ifvqhug","pricing_plan_id":"cebpf4jnsgd1na2vs0mg"},{"bike_id":"f3c3e92e-feee-46aa-a9df-63dcb5740605","system_id":"levelo_inurba_marseille","lat":43.295947,"lon":5.381047,"is_reserved":false,"is_disabled":false,"rental_uris":{"android":"levelo://app?vid=f3c3e92e-feee-46aa-a9df-63dcb5740605","ios":"levelo://app?vid=f3c3e92e-feee-46aa-a9df-63dcb5740605"},"vehicle_type_id":"4","last_reported":1757790371,"current_range_meters":16000,"station_id":"ce4bgl12rcd13ifvqbo0","pricing_plan_id":"cebpf4jnsgd1na2vs0mg"},{"bike_id":"7b745801-5774-40e8-8c0c-f1518cce3ac7","system_id":"levelo_inurba_marseille","lat":43.29612,"lon":5.38094,"is_reserved":false,"is_disabled":false,"rental_uris":{"android":"levelo://app?vid=7b745801-5774-40e8-8c0c-f1518cce3ac7","ios":"levelo://app?vid=7b745801-5774-40e8-8c0c-f1518cce3ac7"},"vehicle_type_id":"4","last_reported":1757790371,"current_range_meters":16000,"station_id":"ce4bgl12rcd13ifvqbo0","pricing_plan_id":"cebpf4jnsgd1na2vs0mg"},{"bike_id":"c21b4db6-d101-419c-8e6d-8d4645725d50","system_id":"levelo_inurba_marseille","lat":43.28075,"lon":5.39667,"is_reserved":false,"is_disabled":false,"rental_uris":{"android":"levelo://app?vid=c21b4db6-d101-419c-8e6d-8d4645725d50","ios":"levelo://app?vid=c21b4db6-d101-419c-8e6d-8d4645725d50"},"vehicle_type_id":"4","last_reported":1757790371,"current_range_meters":16000,"station_id":"ce4bho12rcd13ifvqh2g","pricing_plan_id":"cebpf4jnsgd1na2vs0mg"},{"bike_id":"3edab8b5-08ab-4bd7-a8e3-46e14fec2b69","system_id":"levelo_inurba_marseille","lat":43.22565,"lon":5.41655,"is_reserved":false,"is_disabled":false,"rental_uris":{"android":"levelo://app?vid=3edab8b5-08ab-4bd7-a8e3-46e14fec2b69","ios":"levelo://app?vid=3edab8b5-08ab-4bd7-a8e3-46e14fec2b69"},"vehicle_type_id":"4","last_reported":1757790371,"current_range_meters":16000,"station_id":"st_d2o4gvlbi1j2169b742g","pricing_plan_id":"cebpf4jnsgd1na2vs0mg"},{"bike_id":"9613ee4d-bd84-40ec-a183-9abb4af6a1b6","system_id":"levelo_inurba_marseille","lat":43.32349,"lon":5.36747,"is_reserved":false,"is_disabled":false,"rental_uris":{"android":"levelo://app?vid=9613ee4d-bd84-40ec-a183-9abb4af6a1b6","ios":"levelo://app?vid=9613ee4d-bd84-40ec-a183-9abb4af6a1b6"},"vehicle_type_id":"4","last_reported":1757790371,"current_range_meters":16000,"station_id":"ce4bhsh2rcd13ifvqi2g","pricing_plan_id":"cebpf4jnsgd1na2vs0mg"},{"bike_id":"431c6cb6-668f-4a57-ad0c-d9770f1e96ab","system_id":"levelo_inurba_marseille","lat":43.29595,"lon":5.37719,"is_reserved":false,"is_disabled":false,"rental_uris":{"android":"levelo://app?vid=431c6cb6-668f-4a57-ad0c-d9770f1e96ab","ios":"levelo://app?vid=431c6cb6-668f-4a57-ad0c-d9770f1e96ab"},"vehicle_type_id":"4","last_reported":1757790371,"current_range_meters":16000,"station_id":"ce4bgi92rcd13ifvqb90","pricing_plan_id":"cebpf4jnsgd1na2vs0mg"},{"bike_id":"647fbd3c-54f6-4c31-be0e-47077d785246","system_id":"levelo_inurba_marseille","lat":43.27397,"lon":5.39385,"is_reserved":false,"is_disabled":false,"rental_uris":{"android":"levelo://app?vid=647fbd3c-54f6-4c31-be0e-47077d785246","ios":"levelo://app?vid=647fbd3c-54f6-4c31-be0e-47077d785246"},"vehicle_type_id":"4","last_reported":1757790371,"current_range_meters":16000,"station_id":"ce4bhdp2rcd13ifvqf20","pricing_plan_id":"cebpf4jnsgd1na2vs0mg"},{"bike_id":"3bc338fd-b3c5-4caa-b6e6-3c70a52689ba","system_id":"levelo_inurba_marseille","lat":43.31561,"lon":5.38885,"is_reserved":false,"is_disabled":false,"rental_uris":{"android":"levelo://app?vid=3bc338fd-b3c5-4caa-b6e6-3c70a52689ba","ios":"levelo://app?vid=3bc338fd-b3c5-4caa-b6e6-3c70a52689ba"},"vehicle_type_id":"4","last_reported":1757790371,"current_range_meters":16000,"station_id":"","pricing_plan_id":"cebpf4jnsgd1na2vs0mg"},{"bike_id":"31f4578e-18c6-48fb-9fec-123fce0578f9","system_id":"levelo_inurba_marseille","lat":43.33782,"lon":5.37435,"is_reserved":false,"is_disabled":false,"rental_uris":{"android":"levelo://app?vid=31f4578e-18c6-48fb-9fec-123fce0578f9","ios":"levelo://app?vid=31f4578e-18c6-48fb-9fec-123fce0578f9"},"vehicle_type_id":"4","last_reported":1757790371,"current_range_meters":16000,"station_id":"","pricing_plan_id":"cebpf4jnsgd1na2vs0mg"},{"bike_id":"17bdaf43-5460-4804-b994-be25b63d6e19","system_id":"levelo_inurba_marseille","lat":43.34465,"lon":5.42315,"is_reserved":false,"is_disabled":false,"rental_uris":{"android":"levelo://app?vid=17bdaf43-5460-4804-b994-be25b63d6e19","ios":"levelo://app?vid=17bdaf43-5460-4804-b994-be25b63d6e19"},"vehicle_type_id":"4","last_reported":1757790371,"current_range_meters":16400,"station_id":"","pricing_plan_id":"cebpf4jnsgd1na2vs0mg"},{"bike_id":"1fa9cf8a-cbc2-4f66-a5af-49139eedcffa","system_id":"levelo_inurba_marseille","lat":43.31697,"lon":5.40483,"is_reserved":false,"is_disabled":false,"rental_uris":{"android":"levelo://app?vid=1fa9cf8a-cbc2-4f66-a5af-49139eedcffa","ios":"levelo://app?vid=1fa9cf8a-cbc2-4f66-a5af-49139eedcffa"},"vehicle_type_id":"4","last_reported":1757790371,"current_range_meters":16400,"station_id":"ce4bh012rcd13ifvqd00","pricing_plan_id":"cebpf4jnsgd1na2vs0mg"},{"bike_id":"6188f3ab-b950-4451-a8a6-5bba3bedcabb","system_id":"levelo_inurba_marseille","lat":43.29023,"lon":5.37571,"is_reserved":false,"is_disabled":false,"rental_uris":{"android":"levelo://app?vid=6188f3ab-b950-4451-a8a6-5bba3bedcabb","ios":"levelo://app?vid=6188f3ab-b950-4451-a8a6-5bba3bedcabb"},"vehicle_type_id":"4","last_reported":1757790371,"current_range_meters":16000,"station_id":"ce4bh692rcd13ifvqe90","pricing_plan_id":"cebpf4jnsgd1na2vs0mg"},{"bike_id":"695bc73c-02f9-4c78-a8d4-70d9461761ac","system_id":"levelo_inurba_marseille","lat":43.2815,"lon":5.42658,"is_reserved":false,"is_disabled":false,"rental_uris":{"android":"levelo://app?vid=695bc73c-02f9-4c78-a8d4-70d9461761ac","ios":"levelo://app?vid=695bc73c-02f9-4c78-a8d4-70d9461761ac"},"vehicle_type_id":"4","last_reported":1757790371,"current_range_meters":16400,"station_id":"ce4bhnh2rcd13ifvqgug","pricing_plan_id":"cebpf4jnsgd1na2vs0mg"},{"bike_id":"099dc754-cf09-4145-b6fa-59b333ab25e3","system_id":"levelo_inurba_marseille","lat":43.24638,"lon":5.43158,"is_reserved":false,"is_disabled":false,"rental_uris":{"android":"levelo://app?vid=099dc754-cf09-4145-b6fa-59b333ab25e3","ios":"levelo://app?vid=099dc754-cf09-4145-b6fa-59b333ab25e3"},"vehicle_type_id":"4","last_reported":1757790371,"current_range_meters":16400,"station_id":"st_d2m6c4gdas8pm72e190g","pricing_plan_id":"cebpf4jnsgd1na2vs0mg"},{"bike_id":"e4209e64-8d98-470c-a33c-9b7fd85a3947","system_id":"levelo_inurba_marseille","lat":43.29533,"lon":5.38548,"is_reserved":false,"is_disabled":false,"rental_uris":{"android":"levelo://app?vid=e4209e64-8d98-470c-a33c-9b7fd85a3947","ios":"levelo://app?vid=e4209e64-8d98-470c-a33c-9b7fd85a3947"},"vehicle_type_id":"4","last_reported":1757790371,"current_range_meters":16400,"station_id":"ce4bgih2rcd13ifvqba0","pricing_plan_id":"cebpf4jnsgd1na2vs0mg"},{"bike_id":"d1d747e5-dd32-4c7f-a767-5f9a91964fbe","system_id":"levelo_inurba_marseille","lat":43.24665,"lon":5.38156,"is_reserved":false,"is_disabled":false,"rental_uris":{"android":"levelo://app?vid=d1d747e5-dd32-4c7f-a767-5f9a91964fbe","ios":"levelo://app?vid=d1d747e5-dd32-4c7f-a767-5f9a91964fbe"},"vehicle_type_id":"4","last_reported":1757790371,"current_range_meters":16400,"station_id":"ce4bhih2rcd13ifvqfr0","pricing_plan_id":"cebpf4jnsgd1na2vs0mg"},{"bike_id":"78f28b4a-d7ed-451a-8630-b44239f089a1","system_id":"levelo_inurba_marseille","lat":43.31691,"lon":5.40475,"is_reserved":false,"is_disabled":false,"rental_uris":{"android":"levelo://app?vid=78f28b4a-d7ed-451a-8630-b44239f089a1","ios":"levelo://app?vid=78f28b4a-d7ed-451a-8630-b44239f089a1"},"vehicle_type_id":"4","last_reported":1757790371,"current_range_meters":16400,"station_id":"ce4bh012rcd13ifvqd00","pricing_plan_id":"cebpf4jnsgd1na2vs0mg"},{"bike_id":"62bc9687-9e4e-4738-83c7-be0687bafe37","system_id":"levelo_inurba_marseille","lat":43.28033,"lon":5.3695,"is_reserved":false,"is_disabled":false,"rental_uris":{"android":"levelo://app?vid=62bc9687-9e4e-4738-83c7-be0687bafe37","ios":"levelo://app?vid=62bc9687-9e4e-4738-83c7-be0687bafe37"},"vehicle_type_id":"4","last_reported":1757790371,"current_range_meters":16400,"station_id":"ce4bha12rcd13ifvqef0","pricing_plan_id":"cebpf4jnsgd1na2vs0mg"},{"bike_id":"011965a8-f631-45b2-b308-a239a56214f2","system_id":"levelo_inurba_marseille","lat":43.33764,"lon":5.37438,"is_reserved":false,"is_disabled":false,"rental_uris":{"android":"levelo://app?vid=011965a8-f631-45b2-b308-a239a56214f2","ios":"levelo://app?vid=011965a8-f631-45b2-b308-a239a56214f2"},"vehicle_type_id":"4","last_reported":1757790371,"current_range_meters":16400,"station_id":"","pricing_plan_id":"cebpf4jnsgd1na2vs0mg"},{"bike_id":"b3736bbc-26f6-4fd1-a9d4-ff56b7a3ed45","system_id":"levelo_inurba_marseille","lat":43.29798,"lon":5.38086,"is_reserved":false,"is_disabled":false,"rental_uris":{"android":"levelo://app?vid=b3736bbc-26f6-4fd1-a9d4-ff56b7a3ed45","ios":"levelo://app?vid=b3736bbc-26f6-4fd1-a9d4-ff56b7a3ed45"},"vehicle_type_id":"4","last_reported":1757790371,"current_range_meters":16800,"station_id":"ce4bgip2rcd13ifvqbb0","pricing_plan_id":"cebpf4jnsgd1na2vs0mg"},{"bike_id":"e2e4f612-cea7-473f-8581-0936e5ea494b","system_id":"levelo_inurba_marseille","lat":43.29266,"lon":5.38452,"is_reserved":false,"is_disabled":false,"rental_uris":{"android":"levelo://app?vid=e2e4f612-cea7-473f-8581-0936e5ea494b","ios":"levelo://app?vid=e2e4f612-cea7-473f-8581-0936e5ea494b"},"vehicle_type_id":"4","last_reported":1757790371,"current_range_meters":16800,"station_id":"ce4bh692rcd13ifvqea0","pricing_plan_id":"cebpf4jnsgd1na2vs0mg"},{"bike_id":"ffab450d-4c81-4d44-8256-678a72cf8297","system_id":"levelo_inurba_marseille","lat":43.31707,"lon":5.40521,"is_reserved":false,"is_disabled":false,"rental_uris":{"android":"levelo://app?vid=ffab450d-4c81-4d44-8256-678a72cf8297","ios":"levelo://app?vid=ffab450d-4c81-4d44-8256-678a72cf8297"},"vehicle_type_id":"4","last_reported":1757790371,"current_range_meters":16800,"station_id":"ce4bh012rcd13ifvqd00","pricing_plan_id":"cebpf4jnsgd1na2vs0mg"},{"bike_id":"5476d906-b0c2-4d37-81e0-6fc56d7abe48","system_id":"levelo_inurba_marseille","lat":43.31706,"lon":5.3766,"is_reserved":false,"is_disabled":false,"rental_uris":{"android":"levelo://app?vid=5476d906-b0c2-4d37-81e0-6fc56d7abe48","ios":"levelo://app?vid=5476d906-b0c2-4d37-81e0-6fc56d7abe48"},"vehicle_type_id":"4","last_reported":1757790371,"current_range_meters":16800,"station_id":"","pricing_plan_id":"cebpf4jnsgd1na2vs0mg"},{"bike_id":"4edb8a3a-3907-45b7-a031-107bb8ccc622","system_id":"levelo_inurba_marseille","lat":43.29555,"lon":5.42291,"is_reserved":false,"is_disabled":false,"rental_uris":{"android":"levelo://app?vid=4edb8a3a-3907-45b7-a031-107bb8ccc622","ios":"levelo://app?vid=4edb8a3a-3907-45b7-a031-107bb8ccc622"},"vehicle_type_id":"4","last_reported":1757790371,"current_range_meters":16400,"station_id":"ce4bhph2rcd13ifvqhdg","pricing_plan_id":"cebpf4jnsgd1na2vs0mg"},{"bike_id":"259d9ad4-ac3c-4fbd-a0ca-7750460b7926","system_id":"levelo_inurba_marseille","lat":43.29537,"lon":5.38536,"is_reserved":false,"is_disabled":false,"rental_uris":{"android":"levelo://app?vid=259d9ad4-ac3c-4fbd-a0ca-7750460b7926","ios":"levelo://app?vid=259d9ad4-ac3c-4fbd-a0ca-7750460b7926"},"vehicle_type_id":"4","last_reported":1757790371,"current_range_meters":16800,"station_id":"ce4bgih2rcd13ifvqba0","pricing_plan_id":"cebpf4jnsgd1na2vs0mg"},{"bike_id":"81c8229d-a7cf-4ffa-983c-17d046d420af","system_id":"levelo_inurba_marseille","lat":43.30938,"lon":5.40147,"is_reserved":false,"is_disabled":false,"rental_uris":{"android":"levelo://app?vid=81c8229d-a7cf-4ffa-983c-17d046d420af","ios":"levelo://app?vid=81c8229d-a7cf-4ffa-983c-17d046d420af"},"vehicle_type_id":"4","last_reported":1757790371,"current_range_meters":16800,"station_id":"ce4bgvp2rcd13ifvqct0","pricing_plan_id":"cebpf4jnsgd1na2vs0mg"},{"bike_id":"9b3c346f-9588-43e4-83a8-2b93c7371469","system_id":"levelo_inurba_marseille","lat":43.28715,"lon":5.39981,"is_reserved":false,"is_disabled":false,"rental_uris":{"android":"levelo://app?vid=9b3c346f-9588-43e4-83a8-2b93c7371469","ios":"levelo://app?vid=9b3c346f-9588-43e4-83a8-2b93c7371469"},"vehicle_type_id":"4","last_reported":1757790371,"current_range_meters":16800,"station_id":"ce4bho92rcd13ifvqh3g","pricing_plan_id":"cebpf4jnsgd1na2vs0mg"},{"bike_id":"9a8c5c2a-17a3-4656-9963-909d8702da0c","system_id":"levelo_inurba_marseille","lat":43.29883,"lon":5.38912,"is_reserved":false,"is_disabled":false,"rental_uris":{"android":"levelo://app?vid=9a8c5c2a-17a3-4656-9963-909d8702da0c","ios":"levelo://app?vid=9a8c5c2a-17a3-4656-9963-909d8702da0c"},"vehicle_type_id":"4","last_reported":1757790371,"current_range_meters":16800,"station_id":"ce4bh392rcd13ifvqdl0","pricing_plan_id":"cebpf4jnsgd1na2vs0mg"},{"bike_id":"9162855f-b697-47f4-a63f-b0a4c3e49cc0","system_id":"levelo_inurba_marseille","lat":43.27964,"lon":5.38731,"is_reserved":false,"is_disabled":false,"rental_uris":{"android":"levelo://app?vid=9162855f-b697-47f4-a63f-b0a4c3e49cc0","ios":"levelo://app?vid=9162855f-b697-47f4-a63f-b0a4c3e49cc0"},"vehicle_type_id":"4","last_reported":1757790371,"current_range_meters":16800,"station_id":"ce4bhg12rcd13ifvqf80","pricing_plan_id":"cebpf4jnsgd1na2vs0mg"},{"bike_id":"c75bfa20-483b-42f7-8a25-5f10e08a57b0","system_id":"levelo_inurba_marseille","lat":43.321184,"lon":5.367951,"is_reserved":false,"is_disabled":false,"rental_uris":{"android":"levelo://app?vid=c75bfa20-483b-42f7-8a25-5f10e08a57b0","ios":"levelo://app?vid=c75bfa20-483b-42f7-8a25-5f10e08a57b0"},"vehicle_type_id":"4","last_reported":1757790371,"current_range_meters":16800,"station_id":"ce4bhrh2rcd13ifvqhug","pricing_plan_id":"cebpf4jnsgd1na2vs0mg"},{"bike_id":"7108a4a4-23a1-4ea2-a599-54c778559313","system_id":"levelo_inurba_marseille","lat":43.26223,"lon":5.40445,"is_reserved":false,"is_disabled":false,"rental_uris":{"android":"levelo://app?vid=7108a4a4-23a1-4ea2-a599-54c778559313","ios":"levelo://app?vid=7108a4a4-23a1-4ea2-a599-54c778559313"},"vehicle_type_id":"4","last_reported":1757790371,"current_range_meters":16800,"station_id":"ce4bhmh2rcd13ifvqgmg","pricing_plan_id":"cebpf4jnsgd1na2vs0mg"},{"bike_id":"8531afdb-32d4-4c53-8b7d-1730982d0eec","system_id":"levelo_inurba_marseille","lat":43.21742,"lon":5.34612,"is_reserved":false,"is_disabled":false,"rental_uris":{"android":"levelo://app?vid=8531afdb-32d4-4c53-8b7d-1730982d0eec","ios":"levelo://app?vid=8531afdb-32d4-4c53-8b7d-1730982d0eec"},"vehicle_type_id":"4","last_reported":1757790371,"current_range_meters":17200,"station_id":"st_cvj6r9ubvosntc0bgbag","pricing_plan_id":"cebpf4jnsgd1na2vs0mg"},{"bike_id":"2500752c-16d5-4447-b628-690ad7fdd253","system_id":"levelo_inurba_marseille","lat":43.21741,"lon":5.34608,"is_reserved":false,"is_disabled":false,"rental_uris":{"android":"levelo://app?vid=2500752c-16d5-4447-b628-690ad7fdd253","ios":"levelo://app?vid=2500752c-16d5-4447-b628-690ad7fdd253"},"vehicle_type_id":"4","last_reported":1757790371,"current_range_meters":17200,"station_id":"st_cvj6r9ubvosntc0bgbag","pricing_plan_id":"cebpf4jnsgd1na2vs0mg"},{"bike_id":"e1eac1e1-6c67-4d2e-beb3-4e7b77397c66","system_id":"levelo_inurba_marseille","lat":43.29001,"lon":5.35612,"is_reserved":false,"is_disabled":false,"rental_uris":{"android":"levelo://app?vid=e1eac1e1-6c67-4d2e-beb3-4e7b77397c66","ios":"levelo://app?vid=e1eac1e1-6c67-4d2e-beb3-4e7b77397c66"},"vehicle_type_id":"4","last_reported":1757790371,"current_range_meters":17200,"station_id":"ce4bhb92rcd13ifvqen0","pricing_plan_id":"cebpf4jnsgd1na2vs0mg"},{"bike_id":"25bda010-d0ef-4549-a1a1-a6f6aecc4cda","system_id":"levelo_inurba_marseille","lat":43.28304,"lon":5.4316,"is_reserved":false,"is_disabled":false,"rental_uris":{"android":"levelo://app?vid=25bda010-d0ef-4549-a1a1-a6f6aecc4cda","ios":"levelo://app?vid=25bda010-d0ef-4549-a1a1-a6f6aecc4cda"},"vehicle_type_id":"4","last_reported":1757790371,"current_range_meters":17200,"station_id":"","pricing_plan_id":"cebpf4jnsgd1na2vs0mg"},{"bike_id":"8bc5357f-ac38-437a-8652-67c1ef19001d","system_id":"levelo_inurba_marseille","lat":43.29428,"lon":5.38613,"is_reserved":false,"is_disabled":false,"rental_uris":{"android":"levelo://app?vid=8bc5357f-ac38-437a-8652-67c1ef19001d","ios":"levelo://app?vid=8bc5357f-ac38-437a-8652-67c1ef19001d"},"vehicle_type_id":"4","last_reported":1757790371,"current_range_meters":17200,"station_id":"","pricing_plan_id":"cebpf4jnsgd1na2vs0mg"},{"bike_id":"f2366879-1165-4bc3-8db5-30d311215b90","system_id":"levelo_inurba_marseille","lat":43.24663,"lon":5.3817,"is_reserved":false,"is_disabled":false,"rental_uris":{"android":"levelo://app?vid=f2366879-1165-4bc3-8db5-30d311215b90","ios":"levelo://app?vid=f2366879-1165-4bc3-8db5-30d311215b90"},"vehicle_type_id":"4","last_reported":1757790371,"current_range_meters":17200,"station_id":"ce4bhih2rcd13ifvqfr0","pricing_plan_id":"cebpf4jnsgd1na2vs0mg"},{"bike_id":"d8fc95b8-d063-4cc7-a0c9-a86a871a23a3","system_id":"levelo_inurba_marseille","lat":43.305382,"lon":5.391694,"is_reserved":false,"is_disabled":false,"rental_uris":{"android":"levelo://app?vid=d8fc95b8-d063-4cc7-a0c9-a86a871a23a3","ios":"levelo://app?vid=d8fc95b8-d063-4cc7-a0c9-a86a871a23a3"},"vehicle_type_id":"4","last_reported":1757790371,"current_range_meters":17200,"station_id":"ce4bgk12rcd13ifvqbi0","pricing_plan_id":"cebpf4jnsgd1na2vs0mg"},{"bike_id":"72dbc03d-50a3-404b-b6d1-fe462d268ff9","system_id":"levelo_inurba_marseille","lat":43.24803,"lon":5.37459,"is_reserved":false,"is_disabled":false,"rental_uris":{"android":"levelo://app?vid=72dbc03d-50a3-404b-b6d1-fe462d268ff9","ios":"levelo://app?vid=72dbc03d-50a3-404b-b6d1-fe462d268ff9"},"vehicle_type_id":"4","last_reported":1757790371,"current_range_meters":17200,"station_id":"ce4bhgh2rcd13ifvqfb0","pricing_plan_id":"cebpf4jnsgd1na2vs0mg"},{"bike_id":"a9776657-cf1b-4f39-9304-0406593a6cf9","system_id":"levelo_inurba_marseille","lat":43.30727,"lon":5.42455,"is_reserved":false,"is_disabled":false,"rental_uris":{"android":"levelo://app?vid=a9776657-cf1b-4f39-9304-0406593a6cf9","ios":"levelo://app?vid=a9776657-cf1b-4f39-9304-0406593a6cf9"},"vehicle_type_id":"4","last_reported":1757790371,"current_range_meters":17600,"station_id":"st_cvj6ca6bvosntc0bfgr0","pricing_plan_id":"cebpf4jnsgd1na2vs0mg"},{"bike_id":"e0cfc87a-17f0-496d-bfbe-cd56f1cd8db9","system_id":"levelo_inurba_marseille","lat":43.29262,"lon":5.38455,"is_reserved":false,"is_disabled":false,"rental_uris":{"android":"levelo://app?vid=e0cfc87a-17f0-496d-bfbe-cd56f1cd8db9","ios":"levelo://app?vid=e0cfc87a-17f0-496d-bfbe-cd56f1cd8db9"},"vehicle_type_id":"4","last_reported":1757790371,"current_range_meters":17600,"station_id":"ce4bh692rcd13ifvqea0","pricing_plan_id":"cebpf4jnsgd1na2vs0mg"},{"bike_id":"d9c4202c-de13-4428-8c40-40d90faf1618","system_id":"levelo_inurba_marseille","lat":43.31356,"lon":5.3707,"is_reserved":false,"is_disabled":false,"rental_uris":{"android":"levelo://app?vid=d9c4202c-de13-4428-8c40-40d90faf1618","ios":"levelo://app?vid=d9c4202c-de13-4428-8c40-40d90faf1618"},"vehicle_type_id":"4","last_reported":1757790371,"current_range_meters":17600,"station_id":"","pricing_plan_id":"cebpf4jnsgd1na2vs0mg"},{"bike_id":"47277e9f-37ed-425b-b726-74c2e381cca2","system_id":"levelo_inurba_marseille","lat":43.30133,"lon":5.38791,"is_reserved":false,"is_disabled":false,"rental_uris":{"android":"levelo://app?vid=47277e9f-37ed-425b-b726-74c2e381cca2","ios":"levelo://app?vid=47277e9f-37ed-425b-b726-74c2e381cca2"},"vehicle_type_id":"4","last_reported":1757790371,"current_range_meters":17600,"station_id":"ce4bghh2rcd13ifvqb60","pricing_plan_id":"cebpf4jnsgd1na2vs0mg"},{"bike_id":"bd282dbe-46a4-404c-8232-663d99b2afcb","system_id":"levelo_inurba_marseille","lat":43.27992,"lon":5.41663,"is_reserved":false,"is_disabled":false,"rental_uris":{"android":"levelo://app?vid=bd282dbe-46a4-404c-8232-663d99b2afcb","ios":"levelo://app?vid=bd282dbe-46a4-404c-8232-663d99b2afcb"},"vehicle_type_id":"4","last_reported":1757790371,"current_range_meters":17600,"station_id":"ce4bho12rcd13ifvqh1g","pricing_plan_id":"cebpf4jnsgd1na2vs0mg"},{"bike_id":"654df5a8-46fd-4bb1-a78c-219e858dd01e","system_id":"levelo_inurba_marseille","lat":43.288619,"lon":5.365595,"is_reserved":false,"is_disabled":false,"rental_uris":{"android":"levelo://app?vid=654df5a8-46fd-4bb1-a78c-219e858dd01e","ios":"levelo://app?vid=654df5a8-46fd-4bb1-a78c-219e858dd01e"},"vehicle_type_id":"4","last_reported":1757790371,"current_range_meters":17600,"station_id":"","pricing_plan_id":"cebpf4jnsgd1na2vs0mg"},{"bike_id":"14e2496b-54f5-4a71-8a7b-f668d23f2674","system_id":"levelo_inurba_marseille","lat":43.25731,"lon":5.41106,"is_reserved":false,"is_disabled":false,"rental_uris":{"android":"levelo://app?vid=14e2496b-54f5-4a71-8a7b-f668d23f2674","ios":"levelo://app?vid=14e2496b-54f5-4a71-8a7b-f668d23f2674"},"vehicle_type_id":"4","last_reported":1757790371,"current_range_meters":17600,"station_id":"ce4bhkp2rcd13ifvqgd0","pricing_plan_id":"cebpf4jnsgd1na2vs0mg"},{"bike_id":"8ab60a89-bd14-40d7-b359-020ea126cfef","system_id":"levelo_inurba_marseille","lat":43.32366,"lon":5.36769,"is_reserved":false,"is_disabled":false,"rental_uris":{"android":"levelo://app?vid=8ab60a89-bd14-40d7-b359-020ea126cfef","ios":"levelo://app?vid=8ab60a89-bd14-40d7-b359-020ea126cfef"},"vehicle_type_id":"4","last_reported":1757790371,"current_range_meters":17600,"station_id":"ce4bhsh2rcd13ifvqi2g","pricing_plan_id":"cebpf4jnsgd1na2vs0mg"},{"bike_id":"eea56852-9d9b-44bf-8a84-ad4117b5bf76","system_id":"levelo_inurba_marseille","lat":43.33761,"lon":5.37436,"is_reserved":false,"is_disabled":false,"rental_uris":{"android":"levelo://app?vid=eea56852-9d9b-44bf-8a84-ad4117b5bf76","ios":"levelo://app?vid=eea56852-9d9b-44bf-8a84-ad4117b5bf76"},