{"last_updated":1740823745,"ttl":60,"version":"2.2","data":{"bikes":[{"bike_id":"498c2ace-4821-4676-a9ac-9368b02a49b6","system_id":"levelo_inurba_marseille","lat":43.33799,"lon":5.37386,"is_reserved":false,"is_disabled":false,"rental_uris":{"android":"levelo://app?vid=498c2ace-4821-4676-a9ac-9368b02a49b6","ios":"levelo://app?vid=498c2ace-4821-4676-a9ac-9368b02a49b6"},"vehicle_type_id":"4","last_reported":1740823745,"current_range_meters":30800,"station_id":"","pricing_plan_id":"cebpf4jnsgd1na2vs0mg"},{"bike_id":"9a6f5796-9b87-4a64-a309-a2af3af5c676","system_id":"levelo_inurba_marseille","lat":43.3051,"lon":5.37101,"is_reserved":false,"is_disabled":true,"rental_uris":{"android":"levelo://app?vid=9a6f5796-9b87-4a64-a309-a2af3af5c676","ios":"levelo://app?vid=9a6f5796-9b87-4a64-a309-a2af3af5c676"},"vehicle_type_id":"4","last_reported":1740823745,"current_range_meters":0,"station_id":"","pricing_plan_id":"cebpf4jnsgd1na2vs0mg"},{"bike_id":"67b01db6-c001-401b-b161-aaf4ecf1e950","system_id":"levelo_inurba_marseille","lat":43.30291,"lon":5.39229,"is_reserved":false,"is_disabled":true,"rental_uris":{"android":"levelo://app?vid=67b01db6-c001-401b-b161-aaf4ecf1e950","ios":"levelo://app?vid=67b01db6-c001-401b-b161-aaf4ecf1e950"},"vehicle_type_id":"4","last_reported":1740823745,"current_range_meters":0,"station_id":"ce4bgkh2rcd13ifvqbk0","pricing_plan_id":"cebpf4jnsgd1na2vs0mg"},{"bike_id":"6ae3627b-ee3f-4a83-ac3e-de6fa6d8b20b","system_id":"levelo_inurba_marseille","lat":43.30938,"lon":5.40147,"is_reserved":false,"is_disabled":true,"rental_uris":{"android":"levelo://app?vid=6ae3627b-ee3f-4a83-ac3e-de6fa6d8b20b","ios":"levelo://app?vid=6ae3627b-ee3f-4a83-ac3e-de6fa6d8b20b"},"vehicle_type_id":"4","last_reported":1740823745,"current_range_meters":0,"station_id":"ce4bgvp2rcd13ifvqct0","pricing_plan_id":"cebpf4jnsgd1na2vs0mg"},{"bike_id":"98aaa892-5cbd-4ccc-851d-8bbd8e5ec012","system_id":"levelo_inurba_marseille","lat":43.30652,"lon":5.40079,"is_reserved":false,"is_disabled":true,"rental_uris":{"android":"levelo://app?vid=98aaa892-5cbd-4ccc-851d-8bbd8e5ec012","ios":"levelo://app?vid=98aaa892-5cbd-4ccc-851d-8bbd8e5ec012"},"vehicle_type_id":"4","last_reported":1740823745,"current_range_meters":0,"station_id":"ce4bh112rcd13ifvqda0","pricing_plan_id":"cebpf4jnsgd1na2vs0mg"},{"bike_id":"b12f1663-d06d-4477-8cd9-afe08f79aecd","system_id":"levelo_inurba_marseille","lat":43.3066,"lon":5.40082,"is_reserved":false,"is_disabled":true,"rental_uris":{"android":"levelo://app?vid=b12f1663-d06d-4477-8cd9-afe08f79aecd","ios":"levelo://app?vid=b12f1663-d06d-4477-8cd9-afe08f79aecd"},"vehicle_type_id":"4","last_reported":1740823745,"current_range_meters":0,"station_id":"ce4bh112rcd13ifvqda0","pricing_plan_id":"cebpf4jnsgd1na2vs0mg"},{"bike_id":"9b98390d-9557-4ffc-b739-882ea88a8381","system_id":"levelo_inurba_marseille","lat":43.30648,"lon":5.40092,"is_reserved":false,"is_disabled":true,"rental_uris":{"android":"levelo://app?vid=9b98390d-9557-4ffc-b739-882ea88a8381","ios":"levelo://app?vid=9b98390d-9557-4ffc-b739-882ea88a8381"},"vehicle_type_id":"4","last_reported":1740823745,"current_range_meters":0,"station_id":"ce4bh112rcd13ifvqda0","pricing_plan_id":"cebpf4jnsgd1na2vs0mg"},{"bike_id":"1b8f98a4-7aca-44e6-98ad-ebcdf3177870","system_id":"levelo_inurba_marseille","lat":43.26209,"lon":5.37443,"is_reserved":false,"is_disabled":true,"rental_uris":{"android":"levelo://app?vid=1b8f98a4-7aca-44e6-98ad-ebcdf3177870","ios":"levelo://app?vid=1b8f98a4-7aca-44e6-98ad-ebcdf3177870"},"vehicle_type_id":"4","last_reported":1740823745,"current_range_meters":0,"station_id":"ce4bhgp2rcd13ifvqfc0","pricing_plan_id":"cebpf4jnsgd1na2vs0mg"},{"bike_id":"f5f134bf-d0dc-483c-a814-ccd4b7fda256","system_id":"levelo_inurba_marseille","lat":43.26188,"lon":5.37482,"is_reserved":false,"is_disabled":true,"rental_uris":{"android":"levelo://app?vid=f5f134bf-d0dc-483c-a814-ccd4b7fda256","ios":"levelo://app?vid=f5f134bf-d0dc-483c-a814-ccd4b7fda256"},"vehicle_type_id":"4","last_reported":1740823745,"current_range_meters":0,"station_id":"ce4bhgp2rcd13ifvqfc0","pricing_plan_id":"cebpf4jnsgd1na2vs0mg"},{"bike_id":"883c1405-ac44-4c63-a28f-f7552aa11f1d","system_id":"levelo_inurba_marseille","lat":43.26195,"lon":5.37457,"is_reserved":false,"is_disabled":true,"rental_uris":{"android":"levelo://app?vid=883c1405-ac44-4c63-a28f-f7552aa11f1d","ios":"levelo://app?vid=883c1405-ac44-4c63-a28f-f7552aa11f1d"},"vehicle_type_id":"4","last_reported":1740823745,"current_range_meters":0,"station_id":"ce4bhgp2rcd13ifvqfc0","pricing_plan_id":"cebpf4jnsgd1na2vs0mg"},{"bike_id":"2c936d6f-c8e5-4484-b0c6-64c56d4f6c50","system_id":"levelo_inurba_marseille","lat":43.26198,"lon":5.37454,"is_reserved":false,"is_disabled":true,"rental_uris":{"android":"levelo://app?vid=2c936d6f-c8e5-4484-b0c6-64c56d4f6c50","ios":"levelo://app?vid=2c936d6f-c8e5-4484-b0c6-64c56d4f6c50"},"vehicle_type_id":"4","last_reported":1740823745,"current_range_meters":0,"station_id":"ce4bhgp2rcd13ifvqfc0","pricing_plan_id":"cebpf4jnsgd1na2vs0mg"},{"bike_id":"d39d5ea5-6d99-4e07-9ad8-4cc7969c21f2","system_id":"levelo_inurba_marseille","lat":43.25006,"lon":5.38922,"is_reserved":false,"is_disabled":true,"rental_uris":{"android":"levelo://app?vid=d39d5ea5-6d99-4e07-9ad8-4cc7969c21f2","ios":"levelo://app?vid=d39d5ea5-6d99-4e07-9ad8-4cc7969c21f2"},"vehicle_type_id":"4","last_reported":1740823745,"current_range_meters":0,"station_id":"ce4bhgp2rcd13ifvqfd0","pricing_plan_id":"cebpf4jnsgd1na2vs0mg"},{"bike_id":"e9297060-9809-403f-bfb8-f087bef131d9","system_id":"levelo_inurba_marseille","lat":43.27555,"lon":5.38431,"is_reserved":false,"is_disabled":true,"rental_uris":{"android":"levelo://app?vid=e9297060-9809-403f-bfb8-f087bef131d9","ios":"levelo://app?vid=e9297060-9809-403f-bfb8-f087bef131d9"},"vehicle_type_id":"4","last_reported":1740823745,"current_range_meters":0,"station_id":"ce4bhh92rcd13ifvqfi0","pricing_plan_id":"cebpf4jnsgd1na2vs0mg"},{"bike_id":"28bbfdad-41c8-4193-8ad8-a78d7f34f87d","system_id":"levelo_inurba_marseille","lat":43.25834,"lon":5.39424,"is_reserved":false,"is_disabled":true,"rental_uris":{"android":"levelo://app?vid=28bbfdad-41c8-4193-8ad8-a78d7f34f87d","ios":"levelo://app?vid=28bbfdad-41c8-4193-8ad8-a78d7f34f87d"},"vehicle_type_id":"4","last_reported":1740823745,"current_range_meters":0,"station_id":"ce4bhip2rcd13ifvqft0","pricing_plan_id":"cebpf4jnsgd1na2vs0mg"},{"bike_id":"ebbea192-f0f2-48d0-b631-f84760d82bbf","system_id":"levelo_inurba_marseille","lat":43.25131,"lon":5.40328,"is_reserved":false,"is_disabled":true,"rental_uris":{"android":"levelo://app?vid=ebbea192-f0f2-48d0-b631-f84760d82bbf","ios":"levelo://app?vid=ebbea192-f0f2-48d0-b631-f84760d82bbf"},"vehicle_type_id":"4","last_reported":1740823745,"current_range_meters":0,"station_id":"ce4bhlh2rcd13ifvqgig","pricing_plan_id":"cebpf4jnsgd1na2vs0mg"},{"bike_id":"de0a6258-8e61-4af0-9a9b-47831064c55f","system_id":"levelo_inurba_marseille","lat":43.23154,"lon":5.43717,"is_reserved":false,"is_disabled":true,"rental_uris":{"android":"levelo://app?vid=de0a6258-8e61-4af0-9a9b-47831064c55f","ios":"levelo://app?vid=de0a6258-8e61-4af0-9a9b-47831064c55f"},"vehicle_type_id":"4","last_reported":1740823745,"current_range_meters":0,"station_id":"ce4bhmp2rcd13ifvqgog","pricing_plan_id":"cebpf4jnsgd1na2vs0mg"},{"bike_id":"c966865d-c137-4133-a03d-a18404cd9cd2","system_id":"levelo_inurba_marseille","lat":43.2816,"lon":5.42656,"is_reserved":false,"is_disabled":true,"rental_uris":{"android":"levelo://app?vid=c966865d-c137-4133-a03d-a18404cd9cd2","ios":"levelo://app?vid=c966865d-c137-4133-a03d-a18404cd9cd2"},"vehicle_type_id":"4","last_reported":1740823745,"current_range_meters":0,"station_id":"ce4bhnh2rcd13ifvqgug","pricing_plan_id":"cebpf4jnsgd1na2vs0mg"},{"bike_id":"a1245369-193d-456f-bc88-1e5bbc36a0aa","system_id":"levelo_inurba_marseille","lat":43.27998,"lon":5.41664,"is_reserved":false,"is_disabled":true,"rental_uris":{"android":"levelo://app?vid=a1245369-193d-456f-bc88-1e5bbc36a0aa","ios":"levelo://app?vid=a1245369-193d-456f-bc88-1e5bbc36a0aa"},"vehicle_type_id":"4","last_reported":1740823745,"current_range_meters":0,"station_id":"ce4bho12rcd13ifvqh1g","pricing_plan_id":"cebpf4jnsgd1na2vs0mg"},{"bike_id":"5f42471f-7b67-48d6-adbf-c2584cbed60b","system_id":"levelo_inurba_marseille","lat":43.31703,"lon":5.43701,"is_reserved":false,"is_disabled":true,"rental_uris":{"android":"levelo://app?vid=5f42471f-7b67-48d6-adbf-c2584cbed60b","ios":"levelo://app?vid=5f42471f-7b67-48d6-adbf-c2584cbed60b"},"vehicle_type_id":"4","last_reported":1740823745,"current_range_meters":0,"station_id":"ce4bhp92rcd13ifvqhcg","pricing_plan_id":"cebpf4jnsgd1na2vs0mg"},{"bike_id":"820a6a8c-a29e-4f9f-9f00-d65058d78972","system_id":"levelo_inurba_marseille","lat":43.23072,"lon":5.3549,"is_reserved":false,"is_disabled":true,"rental_uris":{"android":"levelo://app?vid=820a6a8c-a29e-4f9f-9f00-d65058d78972","ios":"levelo://app?vid=820a6a8c-a29e-4f9f-9f00-d65058d78972"},"vehicle_type_id":"4","last_reported":1740823745,"current_range_meters":0,"station_id":"cpo3342slgdg3j2ifvpg","pricing_plan_id":"cebpf4jnsgd1na2vs0mg"},{"bike_id":"80b795ca-9fb3-478a-8f1d-a7d78e0b7a6b","system_id":"levelo_inurba_marseille","lat":43.30536,"lon":5.36555,"is_reserved":false,"is_disabled":true,"rental_uris":{"android":"levelo://app?vid=80b795ca-9fb3-478a-8f1d-a7d78e0b7a6b","ios":"levelo://app?vid=80b795ca-9fb3-478a-8f1d-a7d78e0b7a6b"},"vehicle_type_id":"4","last_reported":1740823745,"current_range_meters":400,"station_id":"ce4bgs12rcd13ifvqcag","pricing_plan_id":"cebpf4jnsgd1na2vs0mg"},{"bike_id":"8818ce1f-beeb-45f7-be6a-0810eec356f4","system_id":"levelo_inurba_marseille","lat":43.306,"lon":5.39352,"is_reserved":false,"is_disabled":true,"rental_uris":{"android":"levelo://app?vid=8818ce1f-beeb-45f7-be6a-0810eec356f4","ios":"levelo://app?vid=8818ce1f-beeb-45f7-be6a-0810eec356f4"},"vehicle_type_id":"4","last_reported":1740823745,"current_range_meters":400,"station_id":"ce4bh0p2rcd13ifvqd80","pricing_plan_id":"cebpf4jnsgd1na2vs0mg"},{"bike_id":"12250c56-b47e-46d9-b8a3-4ef1002ff93d","system_id":"levelo_inurba_marseille","lat":43.28677,"lon":5.38653,"is_reserved":false,"is_disabled":true,"rental_uris":{"android":"levelo://app?vid=12250c56-b47e-46d9-b8a3-4ef1002ff93d","ios":"levelo://app?vid=12250c56-b47e-46d9-b8a3-4ef1002ff93d"},"vehicle_type_id":"4","last_reported":1740823745,"current_range_meters":400,"station_id":"ce4bh492rcd13ifvqdug","pricing_plan_id":"cebpf4jnsgd1na2vs0mg"},{"bike_id":"b8cfdc89-5a59-43d6-818c-cfbb79b13be3","system_id":"levelo_inurba_marseille","lat":43.30411,"lon":5.41281,"is_reserved":false,"is_disabled":true,"rental_uris":{"android":"levelo://app?vid=b8cfdc89-5a59-43d6-818c-cfbb79b13be3","ios":"levelo://app?vid=b8cfdc89-5a59-43d6-818c-cfbb79b13be3"},"vehicle_type_id":"4","last_reported":1740823745,"current_range_meters":400,"station_id":"ce4bhop2rcd13ifvqh8g","pricing_plan_id":"cebpf4jnsgd1na2vs0mg"},{"bike_id":"dc563644-b687-425d-bd51-808c82424ae6","system_id":"levelo_inurba_marseille","lat":43.23066,"lon":5.35492,"is_reserved":false,"is_disabled":true,"rental_uris":{"android":"levelo://app?vid=dc563644-b687-425d-bd51-808c82424ae6","ios":"levelo://app?vid=dc563644-b687-425d-bd51-808c82424ae6"},"vehicle_type_id":"4","last_reported":1740823745,"current_range_meters":400,"station_id":"cpo3342slgdg3j2ifvpg","pricing_plan_id":"cebpf4jnsgd1na2vs0mg"},{"bike_id":"4d1637a1-4313-4df4-ae83-3acd15271eab","system_id":"levelo_inurba_marseille","lat":43.30322,"lon":5.39205,"is_reserved":false,"is_disabled":true,"rental_uris":{"android":"levelo://app?vid=4d1637a1-4313-4df4-ae83-3acd15271eab","ios":"levelo://app?vid=4d1637a1-4313-4df4-ae83-3acd15271eab"},"vehicle_type_id":"4","last_reported":1740823745,"current_range_meters":800,"station_id":"ce4bgkh2rcd13ifvqbk0","pricing_plan_id":"cebpf4jnsgd1na2vs0mg"},{"bike_id":"ac5db400-a16b-4014-b042-3bd552ed3d94","system_id":"levelo_inurba_marseille","lat":43.28492,"lon":5.38429,"is_reserved":false,"is_disabled":false,"rental_uris":{"android":"levelo://app?vid=ac5db400-a16b-4014-b042-3bd552ed3d94","ios":"levelo://app?vid=ac5db400-a16b-4014-b042-3bd552ed3d94"},"vehicle_type_id":"4","last_reported":1740823745,"current_range_meters":800,"station_id":"ce4bh512rcd13ifvqe3g","pricing_plan_id":"cebpf4jnsgd1na2vs0mg"},{"bike_id":"83c25480-47c1-46eb-89f5-95728d7af2ff","system_id":"levelo_inurba_marseille","lat":43.24666,"lon":5.38166,"is_reserved":false,"is_disabled":true,"rental_uris":{"android":"levelo://app?vid=83c25480-47c1-46eb-89f5-95728d7af2ff","ios":"levelo://app?vid=83c25480-47c1-46eb-89f5-95728d7af2ff"},"vehicle_type_id":"4","last_reported":1740823745,"current_range_meters":800,"station_id":"ce4bhih2rcd13ifvqfr0","pricing_plan_id":"cebpf4jnsgd1na2vs0mg"},{"bike_id":"16a12ad2-13f7-4bed-b52f-a53ffb091498","system_id":"levelo_inurba_marseille","lat":43.24547,"lon":5.39529,"is_reserved":false,"is_disabled":true,"rental_uris":{"android":"levelo://app?vid=16a12ad2-13f7-4bed-b52f-a53ffb091498","ios":"levelo://app?vid=16a12ad2-13f7-4bed-b52f-a53ffb091498"},"vehicle_type_id":"4","last_reported":1740823745,"current_range_meters":800,"station_id":"ce4bhlp2rcd13ifvqgjg","pricing_plan_id":"cebpf4jnsgd1na2vs0mg"},{"bike_id":"0092f2b7-1a25-4821-afed-c143abb5fdf9","system_id":"levelo_inurba_marseille","lat":43.30418,"lon":5.4129,"is_reserved":false,"is_disabled":true,"rental_uris":{"android":"levelo://app?vid=0092f2b7-1a25-4821-afed-c143abb5fdf9","ios":"levelo://app?vid=0092f2b7-1a25-4821-afed-c143abb5fdf9"},"vehicle_type_id":"4","last_reported":1740823745,"current_range_meters":800,"station_id":"ce4bhop2rcd13ifvqh8g","pricing_plan_id":"cebpf4jnsgd1na2vs0mg"},{"bike_id":"4483f6df-aba7-4052-94de-bc862303057f","system_id":"levelo_inurba_marseille","lat":43.2953,"lon":5.38544,"is_reserved":false,"is_disabled":true,"rental_uris":{"android":"levelo://app?vid=4483f6df-aba7-4052-94de-bc862303057f","ios":"levelo://app?vid=4483f6df-aba7-4052-94de-bc862303057f"},"vehicle_type_id":"4","last_reported":1740823745,"current_range_meters":1200,"station_id":"ce4bgih2rcd13ifvqba0","pricing_plan_id":"cebpf4jnsgd1na2vs0mg"},{"bike_id":"519400fb-ad6c-46da-a54a-6863e7f825b1","system_id":"levelo_inurba_marseille","lat":43.26685,"lon":5.38268,"is_reserved":false,"is_disabled":true,"rental_uris":{"android":"levelo://app?vid=519400fb-ad6c-46da-a54a-6863e7f825b1","ios":"levelo://app?vid=519400fb-ad6c-46da-a54a-6863e7f825b1"},"vehicle_type_id":"4","last_reported":1740823745,"current_range_meters":1200,"station_id":"ce4bhg92rcd13ifvqf90","pricing_plan_id":"cebpf4jnsgd1na2vs0mg"},{"bike_id":"8f229ba2-ed7b-4414-8940-d30495af6642","system_id":"levelo_inurba_marseille","lat":43.25931,"lon":5.4089,"is_reserved":false,"is_disabled":true,"rental_uris":{"android":"levelo://app?vid=8f229ba2-ed7b-4414-8940-d30495af6642","ios":"levelo://app?vid=8f229ba2-ed7b-4414-8940-d30495af6642"},"vehicle_type_id":"4","last_reported":1740823745,"current_range_meters":1200,"station_id":"ce4bhm92rcd13ifvqglg","pricing_plan_id":"cebpf4jnsgd1na2vs0mg"},{"bike_id":"8208287d-0cff-4ec0-a820-c35af0cbeada","system_id":"levelo_inurba_marseille","lat":43.24083,"lon":5.3776,"is_reserved":false,"is_disabled":true,"rental_uris":{"android":"levelo://app?vid=8208287d-0cff-4ec0-a820-c35af0cbeada","ios":"levelo://app?vid=8208287d-0cff-4ec0-a820-c35af0cbeada"},"vehicle_type_id":"4","last_reported":1740823745,"current_range_meters":1200,"station_id":"ce4bhnp2rcd13ifvqgvg","pricing_plan_id":"cebpf4jnsgd1na2vs0mg"},{"bike_id":"a8328c72-27ce-4150-a953-d0b7993a21b2","system_id":"levelo_inurba_marseille","lat":43.29265,"lon":5.37624,"is_reserved":false,"is_disabled":true,"rental_uris":{"android":"levelo://app?vid=a8328c72-27ce-4150-a953-d0b7993a21b2","ios":"levelo://app?vid=a8328c72-27ce-4150-a953-d0b7993a21b2"},"vehicle_type_id":"4","last_reported":1740823745,"current_range_meters":1600,"station_id":"ce4bgi12rcd13ifvqb80","pricing_plan_id":"cebpf4jnsgd1na2vs0mg"},{"bike_id":"25084d48-f512-42bf-9b4a-0bf21c092df5","system_id":"levelo_inurba_marseille","lat":43.2903,"lon":5.39984,"is_reserved":false,"is_disabled":true,"rental_uris":{"android":"levelo://app?vid=25084d48-f512-42bf-9b4a-0bf21c092df5","ios":"levelo://app?vid=25084d48-f512-42bf-9b4a-0bf21c092df5"},"vehicle_type_id":"4","last_reported":1740823745,"current_range_meters":1600,"station_id":"ce4bh392rcd13ifvqdm0","pricing_plan_id":"cebpf4jnsgd1na2vs0mg"},{"bike_id":"b51e9f12-e17f-48a6-b406-4beef60abdf2","system_id":"levelo_inurba_marseille","lat":43.25,"lon":5.38938,"is_reserved":false,"is_disabled":true,"rental_uris":{"android":"levelo://app?vid=b51e9f12-e17f-48a6-b406-4beef60abdf2","ios":"levelo://app?vid=b51e9f12-e17f-48a6-b406-4beef60abdf2"},"vehicle_type_id":"4","last_reported":1740823745,"current_range_meters":1600,"station_id":"ce4bhgp2rcd13ifvqfd0","pricing_plan_id":"cebpf4jnsgd1na2vs0mg"},{"bike_id":"97c80f09-4479-4934-a8d8-ab8380749d1b","system_id":"levelo_inurba_marseille","lat":43.23065,"lon":5.35495,"is_reserved":false,"is_disabled":true,"rental_uris":{"android":"levelo://app?vid=97c80f09-4479-4934-a8d8-ab8380749d1b","ios":"levelo://app?vid=97c80f09-4479-4934-a8d8-ab8380749d1b"},"vehicle_type_id":"4","last_reported":1740823745,"current_range_meters":1600,"station_id":"cpo3342slgdg3j2ifvpg","pricing_plan_id":"cebpf4jnsgd1na2vs0mg"},{"bike_id":"50449b4c-79df-46b6-aedd-7daec86f551c","system_id":"levelo_inurba_marseille","lat":43.255035,"lon":5.376513,"is_reserved":false,"is_disabled":true,"rental_uris":{"android":"levelo://app?vid=50449b4c-79df-46b6-aedd-7daec86f551c","ios":"levelo://app?vid=50449b4c-79df-46b6-aedd-7daec86f551c"},"vehicle_type_id":"4","last_reported":1740823745,"current_range_meters":2000,"station_id":"ce4bhh12rcd13ifvqff0","pricing_plan_id":"cebpf4jnsgd1na2vs0mg"},{"bike_id":"89a7517e-6658-46c5-a615-9e427ec79029","system_id":"levelo_inurba_marseille","lat":43.25722,"lon":5.41821,"is_reserved":false,"is_disabled":false,"rental_uris":{"android":"levelo://app?vid=89a7517e-6658-46c5-a615-9e427ec79029","ios":"levelo://app?vid=89a7517e-6658-46c5-a615-9e427ec79029"},"vehicle_type_id":"4","last_reported":1740823745,"current_range_meters":2800,"station_id":"","pricing_plan_id":"cebpf4jnsgd1na2vs0mg"},{"bike_id":"2dc9b508-b7dd-4ac5-8448-63b3d6bac779","system_id":"levelo_inurba_marseille","lat":43.30297,"lon":5.36877,"is_reserved":false,"is_disabled":false,"rental_uris":{"android":"levelo://app?vid=2dc9b508-b7dd-4ac5-8448-63b3d6bac779","ios":"levelo://app?vid=2dc9b508-b7dd-4ac5-8448-63b3d6bac779"},"vehicle_type_id":"4","last_reported":1740823745,"current_range_meters":2800,"station_id":"ce4bgqh2rcd13ifvqc5g","pricing_plan_id":"cebpf4jnsgd1na2vs0mg"},{"bike_id":"7ec6e557-c68b-40af-abcd-55b0098019e7","system_id":"levelo_inurba_marseille","lat":43.23139,"lon":5.43727,"is_reserved":false,"is_disabled":false,"rental_uris":{"android":"levelo://app?vid=7ec6e557-c68b-40af-abcd-55b0098019e7","ios":"levelo://app?vid=7ec6e557-c68b-40af-abcd-55b0098019e7"},"vehicle_type_id":"4","last_reported":1740823745,"current_range_meters":2800,"station_id":"ce4bhmp2rcd13ifvqgog","pricing_plan_id":"cebpf4jnsgd1na2vs0mg"},{"bike_id":"368b2132-3ca7-4f41-8249-1b43bfe293d8","system_id":"levelo_inurba_marseille","lat":43.29522,"lon":5.39403,"is_reserved":false,"is_disabled":false,"rental_uris":{"android":"levelo://app?vid=368b2132-3ca7-4f41-8249-1b43bfe293d8","ios":"levelo://app?vid=368b2132-3ca7-4f41-8249-1b43bfe293d8"},"vehicle_type_id":"4","last_reported":1740823745,"current_range_meters":3200,"station_id":"ce4bh292rcd13ifvqdf0","pricing_plan_id":"cebpf4jnsgd1na2vs0mg"},{"bike_id":"8b98356b-d81d-4ad6-88c8-6653121a90e2","system_id":"levelo_inurba_marseille","lat":43.28615,"lon":5.35102,"is_reserved":false,"is_disabled":false,"rental_uris":{"android":"levelo://app?vid=8b98356b-d81d-4ad6-88c8-6653121a90e2","ios":"levelo://app?vid=8b98356b-d81d-4ad6-88c8-6653121a90e2"},"vehicle_type_id":"4","last_reported":1740823745,"current_range_meters":3200,"station_id":"ce4bhch2rcd13ifvqeug","pricing_plan_id":"cebpf4jnsgd1na2vs0mg"},{"bike_id":"ba0e76f2-3135-4488-87b7-710030a1903b","system_id":"levelo_inurba_marseille","lat":43.33026,"lon":5.39045,"is_reserved":false,"is_disabled":false,"rental_uris":{"android":"levelo://app?vid=ba0e76f2-3135-4488-87b7-710030a1903b","ios":"levelo://app?vid=ba0e76f2-3135-4488-87b7-710030a1903b"},"vehicle_type_id":"4","last_reported":1740823745,"current_range_meters":3200,"station_id":"ce4bhr92rcd13ifvqhrg","pricing_plan_id":"cebpf4jnsgd1na2vs0mg"},{"bike_id":"2a398520-3240-4d1e-8947-c64008cd4a40","system_id":"levelo_inurba_marseille","lat":43.23975,"lon":5.36635,"is_reserved":false,"is_disabled":false,"rental_uris":{"android":"levelo://app?vid=2a398520-3240-4d1e-8947-c64008cd4a40","ios":"levelo://app?vid=2a398520-3240-4d1e-8947-c64008cd4a40"},"vehicle_type_id":"4","last_reported":1740823745,"current_range_meters":3600,"station_id":"ce4bhi12rcd13ifvqfp0","pricing_plan_id":"cebpf4jnsgd1na2vs0mg"},{"bike_id":"43c32004-94fe-4598-87ba-734917dbcf43","system_id":"levelo_inurba_marseille","lat":43.29264,"lon":5.37625,"is_reserved":false,"is_disabled":false,"rental_uris":{"android":"levelo://app?vid=43c32004-94fe-4598-87ba-734917dbcf43","ios":"levelo://app?vid=43c32004-94fe-4598-87ba-734917dbcf43"},"vehicle_type_id":"4","last_reported":1740823745,"current_range_meters":4000,"station_id":"ce4bgi12rcd13ifvqb80","pricing_plan_id":"cebpf4jnsgd1na2vs0mg"},{"bike_id":"9b176fb7-9986-4107-a220-68239619a1d5","system_id":"levelo_inurba_marseille","lat":43.26193,"lon":5.37455,"is_reserved":false,"is_disabled":false,"rental_uris":{"android":"levelo://app?vid=9b176fb7-9986-4107-a220-68239619a1d5","ios":"levelo://app?vid=9b176fb7-9986-4107-a220-68239619a1d5"},"vehicle_type_id":"4","last_reported":1740823745,"current_range_meters":4000,"station_id":"ce4bhgp2rcd13ifvqfc0","pricing_plan_id":"cebpf4jnsgd1na2vs0mg"},{"bike_id":"f8b25d90-893f-43e7-b6af-489918142ddb","system_id":"levelo_inurba_marseille","lat":43.29642,"lon":5.38108,"is_reserved":false,"is_disabled":false,"rental_uris":{"android":"levelo://app?vid=f8b25d90-893f-43e7-b6af-489918142ddb","ios":"levelo://app?vid=f8b25d90-893f-43e7-b6af-489918142ddb"},"vehicle_type_id":"4","last_reported":1740823745,"current_range_meters":4400,"station_id":"ce4bgl12rcd13ifvqbo0","pricing_plan_id":"cebpf4jnsgd1na2vs0mg"},{"bike_id":"9ffbe43c-ee88-45fe-9103-84b71e3d2b6c","system_id":"levelo_inurba_marseille","lat":43.25053,"lon":5.38912,"is_reserved":false,"is_disabled":false,"rental_uris":{"android":"levelo://app?vid=9ffbe43c-ee88-45fe-9103-84b71e3d2b6c","ios":"levelo://app?vid=9ffbe43c-ee88-45fe-9103-84b71e3d2b6c"},"vehicle_type_id":"4","last_reported":1740823745,"current_range_meters":4400,"station_id":"ce4bhgp2rcd13ifvqfd0","pricing_plan_id":"cebpf4jnsgd1na2vs0mg"},{"bike_id":"6522d80d-7c58-4f12-bfee-e0b14e82ccd0","system_id":"levelo_inurba_marseille","lat":43.26789,"lon":5.39413,"is_reserved":false,"is_disabled":false,"rental_uris":{"android":"levelo://app?vid=6522d80d-7c58-4f12-bfee-e0b14e82ccd0","ios":"levelo://app?vid=6522d80d-7c58-4f12-bfee-e0b14e82ccd0"},"vehicle_type_id":"4","last_reported":1740823745,"current_range_meters":4400,"station_id":"ce4bhh12rcd13ifvqfg0","pricing_plan_id":"cebpf4jnsgd1na2vs0mg"},{"bike_id":"f32ea091-8d65-493c-8fff-13bbf53faa68","system_id":"levelo_inurba_marseille","lat":43.31724,"lon":5.43708,"is_reserved":false,"is_disabled":false,"rental_uris":{"android":"levelo://app?vid=f32ea091-8d65-493c-8fff-13bbf53faa68","ios":"levelo://app?vid=f32ea091-8d65-493c-8fff-13bbf53faa68"},"vehicle_type_id":"4","last_reported":1740823745,"current_range_meters":4400,"station_id":"ce4bhp92rcd13ifvqhcg","pricing_plan_id":"cebpf4jnsgd1na2vs0mg"},{"bike_id":"17ddbbb5-11e9-4dea-8d48-8df35a23e77a","system_id":"levelo_inurba_marseille","lat":43.31754,"lon":5.390199,"is_reserved":false,"is_disabled":false,"rental_uris":{"android":"levelo://app?vid=17ddbbb5-11e9-4dea-8d48-8df35a23e77a","ios":"levelo://app?vid=17ddbbb5-11e9-4dea-8d48-8df35a23e77a"},"vehicle_type_id":"4","last_reported":1740823745,"current_range_meters":4400,"station_id":"ce4bhqp2rcd13ifvqhng","pricing_plan_id":"cebpf4jnsgd1na2vs0mg"},{"bike_id":"2bb95473-2807-4488-887b-8d96029f040f","system_id":"levelo_inurba_marseille","lat":43.29269,"lon":5.36841,"is_reserved":false,"is_disabled":false,"rental_uris":{"android":"levelo://app?vid=2bb95473-2807-4488-887b-8d96029f040f","ios":"levelo://app?vid=2bb95473-2807-4488-887b-8d96029f040f"},"vehicle_type_id":"4","last_reported":1740823745,"current_range_meters":4800,"station_id":"ce4bhbp2rcd13ifvqesg","pricing_plan_id":"cebpf4jnsgd1na2vs0mg"},{"bike_id":"a6f9897a-4620-48a9-84b8-2e8058aab062","system_id":"levelo_inurba_marseille","lat":43.29547,"lon":5.42272,"is_reserved":false,"is_disabled":false,"rental_uris":{"android":"levelo://app?vid=a6f9897a-4620-48a9-84b8-2e8058aab062","ios":"levelo://app?vid=a6f9897a-4620-48a9-84b8-2e8058aab062"},"vehicle_type_id":"4","last_reported":1740823745,"current_range_meters":4800,"station_id":"ce4bhph2rcd13ifvqhdg","pricing_plan_id":"cebpf4jnsgd1na2vs0mg"},{"bike_id":"0e07936b-b5f4-4ce0-90ff-73c063994f1c","system_id":"levelo_inurba_marseille","lat":43.30468,"lon":5.37257,"is_reserved":false,"is_disabled":false,"rental_uris":{"android":"levelo://app?vid=0e07936b-b5f4-4ce0-90ff-73c063994f1c","ios":"levelo://app?vid=0e07936b-b5f4-4ce0-90ff-73c063994f1c"},"vehicle_type_id":"4","last_reported":1740823745,"current_range_meters":5600,"station_id":"","pricing_plan_id":"cebpf4jnsgd1na2vs0mg"},{"bike_id":"3947950a-716d-460f-866d-37fc4e410771","system_id":"levelo_inurba_marseille","lat":43.29032,"lon":5.4,"is_reserved":false,"is_disabled":false,"rental_uris":{"android":"levelo://app?vid=3947950a-716d-460f-866d-37fc4e410771","ios":"levelo://app?vid=3947950a-716d-460f-866d-37fc4e410771"},"vehicle_type_id":"4","last_reported":1740823745,"current_range_meters":5600,"station_id":"ce4bh392rcd13ifvqdm0","pricing_plan_id":"cebpf4jnsgd1na2vs0mg"},{"bike_id":"f26c35c1-6d74-4839-8620-0ecaba4ac374","system_id":"levelo_inurba_marseille","lat":43.25016,"lon":5.38917,"is_reserved":false,"is_disabled":false,"rental_uris":{"android":"levelo://app?vid=f26c35c1-6d74-4839-8620-0ecaba4ac374","ios":"levelo://app?vid=f26c35c1-6d74-4839-8620-0ecaba4ac374"},"vehicle_type_id":"4","last_reported":1740823745,"current_range_meters":5600,"station_id":"ce4bhgp2rcd13ifvqfd0","pricing_plan_id":"cebpf4jnsgd1na2vs0mg"},{"bike_id":"ddacc038-7f8e-4484-aff6-85b164db717a","system_id":"levelo_inurba_marseille","lat":43.27935,"lon":5.41042,"is_reserved":false,"is_disabled":false,"rental_uris":{"android":"levelo://app?vid=ddacc038-7f8e-4484-aff6-85b164db717a","ios":"levelo://app?vid=ddacc038-7f8e-4484-aff6-85b164db717a"},"vehicle_type_id":"4","last_reported":1740823745,"current_range_meters":5600,"station_id":"ce4bhnp2rcd13ifvqh0g","pricing_plan_id":"cebpf4jnsgd1na2vs0mg"},{"bike_id":"9753fb54-7bac-4c39-b532-b7089220649f","system_id":"levelo_inurba_marseille","lat":43.3108,"lon":5.4244,"is_reserved":false,"is_disabled":false,"rental_uris":{"android":"levelo://app?vid=9753fb54-7bac-4c39-b532-b7089220649f","ios":"levelo://app?vid=9753fb54-7bac-4c39-b532-b7089220649f"},"vehicle_type_id":"4","last_reported":1740823745,"current_range_meters":5600,"station_id":"ce4bhp92rcd13ifvqhag","pricing_plan_id":"cebpf4jnsgd1na2vs0mg"},{"bike_id":"121f184f-90a0-4e66-9d33-06a22d0922f3","system_id":"levelo_inurba_marseille","lat":43.24146,"lon":5.36443,"is_reserved":false,"is_disabled":false,"rental_uris":{"android":"levelo://app?vid=121f184f-90a0-4e66-9d33-06a22d0922f3","ios":"levelo://app?vid=121f184f-90a0-4e66-9d33-06a22d0922f3"},"vehicle_type_id":"4","last_reported":1740823745,"current_range_meters":5600,"station_id":"cpo36qri1sfpv3e86is0","pricing_plan_id":"cebpf4jnsgd1na2vs0mg"},{"bike_id":"0793f4ed-5418-4eab-a9e1-0175e9ed6462","system_id":"levelo_inurba_marseille","lat":43.30139,"lon":5.3878,"is_reserved":false,"is_disabled":false,"rental_uris":{"android":"levelo://app?vid=0793f4ed-5418-4eab-a9e1-0175e9ed6462","ios":"levelo://app?vid=0793f4ed-5418-4eab-a9e1-0175e9ed6462"},"vehicle_type_id":"4","last_reported":1740823745,"current_range_meters":6000,"station_id":"ce4bghh2rcd13ifvqb60","pricing_plan_id":"cebpf4jnsgd1na2vs0mg"},{"bike_id":"67ce8cfb-6f6b-425f-bc83-c1ca88627e6b","system_id":"levelo_inurba_marseille","lat":43.29279,"lon":5.37612,"is_reserved":false,"is_disabled":false,"rental_uris":{"android":"levelo://app?vid=67ce8cfb-6f6b-425f-bc83-c1ca88627e6b","ios":"levelo://app?vid=67ce8cfb-6f6b-425f-bc83-c1ca88627e6b"},"vehicle_type_id":"4","last_reported":1740823745,"current_range_meters":6000,"station_id":"ce4bgi12rcd13ifvqb80","pricing_plan_id":"cebpf4jnsgd1na2vs0mg"},{"bike_id":"226a8882-f9a8-4396-9381-34f5723ed2b0","system_id":"levelo_inurba_marseille","lat":43.30467,"lon":5.37903,"is_reserved":false,"is_disabled":false,"rental_uris":{"android":"levelo://app?vid=226a8882-f9a8-4396-9381-34f5723ed2b0","ios":"levelo://app?vid=226a8882-f9a8-4396-9381-34f5723ed2b0"},"vehicle_type_id":"4","last_reported":1740823745,"current_range_meters":6000,"station_id":"ce4bgup2rcd13ifvqcn0","pricing_plan_id":"cebpf4jnsgd1na2vs0mg"},{"bike_id":"b102e22c-9a4e-4468-9222-231d2dc4c606","system_id":"levelo_inurba_marseille","lat":43.24994,"lon":5.38937,"is_reserved":false,"is_disabled":false,"rental_uris":{"android":"levelo://app?vid=b102e22c-9a4e-4468-9222-231d2dc4c606","ios":"levelo://app?vid=b102e22c-9a4e-4468-9222-231d2dc4c606"},"vehicle_type_id":"4","last_reported":1740823745,"current_range_meters":6000,"station_id":"ce4bhgp2rcd13ifvqfd0","pricing_plan_id":"cebpf4jnsgd1na2vs0mg"},{"bike_id":"fe1154c3-b6d2-4f1c-ac1d-93c98fc370f9","system_id":"levelo_inurba_marseille","lat":43.26056,"lon":5.39398,"is_reserved":false,"is_disabled":false,"rental_uris":{"android":"levelo://app?vid=fe1154c3-b6d2-4f1c-ac1d-93c98fc370f9","ios":"levelo://app?vid=fe1154c3-b6d2-4f1c-ac1d-93c98fc370f9"},"vehicle_type_id":"4","last_reported":1740823745,"current_range_meters":6000,"station_id":"ce4bhh92rcd13ifvqfj0","pricing_plan_id":"cebpf4jnsgd1na2vs0mg"},{"bike_id":"f5527591-8017-4310-bd2a-712d9017ed61","system_id":"levelo_inurba_marseille","lat":43.29966,"lon":5.41335,"is_reserved":false,"is_disabled":false,"rental_uris":{"android":"levelo://app?vid=f5527591-8017-4310-bd2a-712d9017ed61","ios":"levelo://app?vid=f5527591-8017-4310-bd2a-712d9017ed61"},"vehicle_type_id":"4","last_reported":1740823745,"current_range_meters":6000,"station_id":"ce4bhp12rcd13ifvqh9g","pricing_plan_id":"cebpf4jnsgd1na2vs0mg"},{"bike_id":"49e0a034-277f-4658-83cf-83e39377ef50","system_id":"levelo_inurba_marseille","lat":43.29502,"lon":5.37936,"is_reserved":false,"is_disabled":false,"rental_uris":{"android":"levelo://app?vid=49e0a034-277f-4658-83cf-83e39377ef50","ios":"levelo://app?vid=49e0a034-277f-4658-83cf-83e39377ef50"},"vehicle_type_id":"4","last_reported":1740823745,"current_range_meters":6400,"station_id":"","pricing_plan_id":"cebpf4jnsgd1na2vs0mg"},{"bike_id":"bcb3dd3d-4bbe-4a55-8cc6-0ab0579bcdbe","system_id":"levelo_inurba_marseille","lat":43.31599,"lon":5.37376,"is_reserved":false,"is_disabled":false,"rental_uris":{"android":"levelo://app?vid=bcb3dd3d-4bbe-4a55-8cc6-0ab0579bcdbe","ios":"levelo://app?vid=bcb3dd3d-4bbe-4a55-8cc6-0ab0579bcdbe"},"vehicle_type_id":"4","last_reported":1740823745,"current_range_meters":6400,"station_id":"","pricing_plan_id":"cebpf4jnsgd1na2vs0mg"},{"bike_id":"c02692a7-bb86-473d-9fa1-a9c9c2befe78","system_id":"levelo_inurba_marseille","lat":43.296097,"lon":5.380927,"is_reserved":false,"is_disabled":false,"rental_uris":{"android":"levelo://app?vid=c02692a7-bb86-473d-9fa1-a9c9c2befe78","ios":"levelo://app?vid=c02692a7-bb86-473d-9fa1-a9c9c2befe78"},"vehicle_type_id":"4","last_reported":1740823745,"current_range_meters":6400,"station_id":"ce4bgl12rcd13ifvqbo0","pricing_plan_id":"cebpf4jnsgd1na2vs0mg"},{"bike_id":"9072bc0a-aa83-4a0d-868d-1b50281427b2","system_id":"levelo_inurba_marseille","lat":43.29968,"lon":5.37156,"is_reserved":false,"is_disabled":false,"rental_uris":{"android":"levelo://app?vid=9072bc0a-aa83-4a0d-868d-1b50281427b2","ios":"levelo://app?vid=9072bc0a-aa83-4a0d-868d-1b50281427b2"},"vehicle_type_id":"4","last_reported":1740823745,"current_range_meters":6400,"station_id":"ce4bgr92rcd13ifvqc7g","pricing_plan_id":"cebpf4jnsgd1na2vs0mg"},{"bike_id":"7d6b2d46-7002-45ce-ba03-574510292fd0","system_id":"levelo_inurba_marseille","lat":43.26672,"lon":5.3827,"is_reserved":false,"is_disabled":false,"rental_uris":{"android":"levelo://app?vid=7d6b2d46-7002-45ce-ba03-574510292fd0","ios":"levelo://app?vid=7d6b2d46-7002-45ce-ba03-574510292fd0"},"vehicle_type_id":"4","last_reported":1740823745,"current_range_meters":6400,"station_id":"ce4bhg92rcd13ifvqf90","pricing_plan_id":"cebpf4jnsgd1na2vs0mg"},{"bike_id":"ff0c16a2-18f2-4f54-a133-ed9bc481d444","system_id":"levelo_inurba_marseille","lat":43.25736,"lon":5.41137,"is_reserved":false,"is_disabled":false,"rental_uris":{"android":"levelo://app?vid=ff0c16a2-18f2-4f54-a133-ed9bc481d444","ios":"levelo://app?vid=ff0c16a2-18f2-4f54-a133-ed9bc481d444"},"vehicle_type_id":"4","last_reported":1740823745,"current_range_meters":6400,"station_id":"ce4bhkp2rcd13ifvqgd0","pricing_plan_id":"cebpf4jnsgd1na2vs0mg"},{"bike_id":"c8a651e6-531a-46ab-a6dc-31bbee135b70","system_id":"levelo_inurba_marseille","lat":43.25129,"lon":5.40312,"is_reserved":false,"is_disabled":false,"rental_uris":{"android":"levelo://app?vid=c8a651e6-531a-46ab-a6dc-31bbee135b70","ios":"levelo://app?vid=c8a651e6-531a-46ab-a6dc-31bbee135b70"},"vehicle_type_id":"4","last_reported":1740823745,"current_range_meters":6400,"station_id":"ce4bhlh2rcd13ifvqgig","pricing_plan_id":"cebpf4jnsgd1na2vs0mg"},{"bike_id":"3de9aeda-1f9a-4bbc-8b90-e02a49e56ca9","system_id":"levelo_inurba_marseille","lat":43.23189,"lon":5.35565,"is_reserved":false,"is_disabled":false,"rental_uris":{"android":"levelo://app?vid=3de9aeda-1f9a-4bbc-8b90-e02a49e56ca9","ios":"levelo://app?vid=3de9aeda-1f9a-4bbc-8b90-e02a49e56ca9"},"vehicle_type_id":"4","last_reported":1740823745,"current_range_meters":6400,"station_id":"ce4bhu92rcd13ifvqi70","pricing_plan_id":"cebpf4jnsgd1na2vs0mg"},{"bike_id":"446d45a3-fd79-446d-8d83-629477ddabe7","system_id":"levelo_inurba_marseille","lat":43.30855,"lon":5.3967,"is_reserved":false,"is_disabled":false,"rental_uris":{"android":"levelo://app?vid=446d45a3-fd79-446d-8d83-629477ddabe7","ios":"levelo://app?vid=446d45a3-fd79-446d-8d83-629477ddabe7"},"vehicle_type_id":"4","last_reported":1740823745,"current_range_meters":6800,"station_id":"","pricing_plan_id":"cebpf4jnsgd1na2vs0mg"},{"bike_id":"d81e3de4-23fb-4256-9352-a66135130910","system_id":"levelo_inurba_marseille","lat":43.29793,"lon":5.38109,"is_reserved":false,"is_disabled":false,"rental_uris":{"android":"levelo://app?vid=d81e3de4-23fb-4256-9352-a66135130910","ios":"levelo://app?vid=d81e3de4-23fb-4256-9352-a66135130910"},"vehicle_type_id":"4","last_reported":1740823745,"current_range_meters":6800,"station_id":"ce4bgip2rcd13ifvqbb0","pricing_plan_id":"cebpf4jnsgd1na2vs0mg"},{"bike_id":"be2830e8-151d-4a74-92bc-3450aa905045","system_id":"levelo_inurba_marseille","lat":43.29966,"lon":5.385,"is_reserved":false,"is_disabled":false,"rental_uris":{"android":"levelo://app?vid=be2830e8-151d-4a74-92bc-3450aa905045","ios":"levelo://app?vid=be2830e8-151d-4a74-92bc-3450aa905045"},"vehicle_type_id":"4","last_reported":1740823745,"current_range_meters":6800,"station_id":"ce4bgj92rcd13ifvqbd0","pricing_plan_id":"cebpf4jnsgd1na2vs0mg"},{"bike_id":"b863546c-ce0d-4edd-86e7-43296d23c10b","system_id":"levelo_inurba_marseille","lat":43.30469,"lon":5.379,"is_reserved":false,"is_disabled":false,"rental_uris":{"android":"levelo://app?vid=b863546c-ce0d-4edd-86e7-43296d23c10b","ios":"levelo://app?vid=b863546c-ce0d-4edd-86e7-43296d23c10b"},"vehicle_type_id":"4","last_reported":1740823745,"current_range_meters":6800,"station_id":"ce4bgup2rcd13ifvqcn0","pricing_plan_id":"cebpf4jnsgd1na2vs0mg"},{"bike_id":"5327f625-0311-4e62-a895-ceadc4ce1f5f","system_id":"levelo_inurba_marseille","lat":43.27056,"lon":5.42276,"is_reserved":false,"is_disabled":false,"rental_uris":{"android":"levelo://app?vid=5327f625-0311-4e62-a895-ceadc4ce1f5f","ios":"levelo://app?vid=5327f625-0311-4e62-a895-ceadc4ce1f5f"},"vehicle_type_id":"4","last_reported":1740823745,"current_range_meters":6800,"station_id":"ce4bhk92rcd13ifvqgb0","pricing_plan_id":"cebpf4jnsgd1na2vs0mg"},{"bike_id":"43ef1fe3-f1e1-4867-935b-85d0ea9e6f93","system_id":"levelo_inurba_marseille","lat":43.23151,"lon":5.43724,"is_reserved":false,"is_disabled":false,"rental_uris":{"android":"levelo://app?vid=43ef1fe3-f1e1-4867-935b-85d0ea9e6f93","ios":"levelo://app?vid=43ef1fe3-f1e1-4867-935b-85d0ea9e6f93"},"vehicle_type_id":"4","last_reported":1740823745,"current_range_meters":6800,"station_id":"ce4bhmp2rcd13ifvqgog","pricing_plan_id":"cebpf4jnsgd1na2vs0mg"},{"bike_id":"0eb726cf-dede-4df2-bdd0-a778a2d75252","system_id":"levelo_inurba_marseille","lat":43.32331,"lon":5.40616,"is_reserved":false,"is_disabled":false,"rental_uris":{"android":"levelo://app?vid=0eb726cf-dede-4df2-bdd0-a778a2d75252","ios":"levelo://app?vid=0eb726cf-dede-4df2-bdd0-a778a2d75252"},"vehicle_type_id":"4","last_reported":1740823745,"current_range_meters":6800,"station_id":"ce4bhq92rcd13ifvqhjg","pricing_plan_id":"cebpf4jnsgd1na2vs0mg"},{"bike_id":"d4918d6a-5525-4be8-b0c4-7af64b54343d","system_id":"levelo_inurba_marseille","lat":43.2417,"lon":5.36416,"is_reserved":false,"is_disabled":false,"rental_uris":{"android":"levelo://app?vid=d4918d6a-5525-4be8-b0c4-7af64b54343d","ios":"levelo://app?vid=d4918d6a-5525-4be8-b0c4-7af64b54343d"},"vehicle_type_id":"4","last_reported":1740823745,"current_range_meters":6800,"station_id":"cpo36qri1sfpv3e86is0","pricing_plan_id":"cebpf4jnsgd1na2vs0mg"},{"bike_id":"d653e336-1cf9-47f2-9441-15e65abb981a","system_id":"levelo_inurba_marseille","lat":43.27431,"lon":5.41455,"is_reserved":false,"is_disabled":false,"rental_uris":{"android":"levelo://app?vid=d653e336-1cf9-47f2-9441-15e65abb981a","ios":"levelo://app?vid=d653e336-1cf9-47f2-9441-15e65abb981a"},"vehicle_type_id":"4","last_reported":1740823745,"current_range_meters":7200,"station_id":"","pricing_plan_id":"cebpf4jnsgd1na2vs0mg"},{"bike_id":"962e47c9-feed-4c76-85f9-653db156ddb0","system_id":"levelo_inurba_marseille","lat":43.2959,"lon":5.38093,"is_reserved":false,"is_disabled":false,"rental_uris":{"android":"levelo://app?vid=962e47c9-feed-4c76-85f9-653db156ddb0","ios":"levelo://app?vid=962e47c9-feed-4c76-85f9-653db156ddb0"},"vehicle_type_id":"4","last_reported":1740823745,"current_range_meters":7200,"station_id":"ce4bgl12rcd13ifvqbo0","pricing_plan_id":"cebpf4jnsgd1na2vs0mg"},{"bike_id":"895c57aa-0d8d-4724-83d6-d193b8c6eaa0","system_id":"levelo_inurba_marseille","lat":43.26181,"lon":5.379452,"is_reserved":false,"is_disabled":false,"rental_uris":{"android":"levelo://app?vid=895c57aa-0d8d-4724-83d6-d193b8c6eaa0","ios":"levelo://app?vid=895c57aa-0d8d-4724-83d6-d193b8c6eaa0"},"vehicle_type_id":"4","last_reported":1740823745,"current_range_meters":7200,"station_id":"ce4bhjp2rcd13ifvqg90","pricing_plan_id":"cebpf4jnsgd1na2vs0mg"},{"bike_id":"9eb62bd7-0fdc-491b-9eef-be0a9f73fbfb","system_id":"levelo_inurba_marseille","lat":43.24163,"lon":5.36421,"is_reserved":false,"is_disabled":false,"rental_uris":{"android":"levelo://app?vid=9eb62bd7-0fdc-491b-9eef-be0a9f73fbfb","ios":"levelo://app?vid=9eb62bd7-0fdc-491b-9eef-be0a9f73fbfb"},"vehicle_type_id":"4","last_reported":1740823745,"current_range_meters":7200,"station_id":"cpo36qri1sfpv3e86is0","pricing_plan_id":"cebpf4jnsgd1na2vs0mg"},{"bike_id":"0e15b3af-18e3-47bf-b11e-f11b559cbb76","system_id":"levelo_inurba_marseille","lat":43.2531,"lon":5.39274,"is_reserved":false,"is_disabled":false,"rental_uris":{"android":"levelo://app?vid=0e15b3af-18e3-47bf-b11e-f11b559cbb76","ios":"levelo://app?vid=0e15b3af-18e3-47bf-b11e-f11b559cbb76"},"vehicle_type_id":"4","last_reported":1740823745,"current_range_meters":8000,"station_id":"","pricing_plan_id":"cebpf4jnsgd1na2vs0mg"},{"bike_id":"6ed5aa39-482e-4b25-be15-36db4c13a4e9","system_id":"levelo_inurba_marseille","lat":43.304352,"lon":5.397364,"is_reserved":false,"is_disabled":false,"rental_uris":{"android":"levelo://app?vid=6ed5aa39-482e-4b25-be15-36db4c13a4e9","ios":"levelo://app?vid=6ed5aa39-482e-4b25-be15-36db4c13a4e9"},"vehicle_type_id":"4","last_reported":1740823745,"current_range_meters":8000,"station_id":"ce4bh092rcd13ifvqd20","pricing_plan_id":"cebpf4jnsgd1na2vs0mg"},{"bike_id":"83f347a4-be92-4fdb-87bb-50a21dc0771c","system_id":"levelo_inurba_marseille","lat":43.29032,"lon":5.39954,"is_reserved":false,"is_disabled":false,"rental_uris":{"android":"levelo://app?vid=83f347a4-be92-4fdb-87bb-50a21dc0771c","ios":"levelo://app?vid=83f347a4-be92-4fdb-87bb-50a21dc0771c"},"vehicle_type_id":"4","last_reported":1740823745,"current_range_meters":8000,"station_id":"ce4bh392rcd13ifvqdm0","pricing_plan_id":"cebpf4jnsgd1na2vs0mg"},{"bike_id":"a1866f5d-c65f-4013-a887-862db84a5c62","system_id":"levelo_inurba_marseille","lat":43.266875,"lon":5.382628,"is_reserved":false,"is_disabled":false,"rental_uris":{"android":"levelo://app?vid=a1866f5d-c65f-4013-a887-862db84a5c62","ios":"levelo://app?vid=a1866f5d-c65f-4013-a887-862db84a5c62"},"vehicle_type_id":"4","last_reported":1740823745,"current_range_meters":8000,"station_id":"ce4bhg92rcd13ifvqf90","pricing_plan_id":"cebpf4jnsgd1na2vs0mg"},{"bike_id":"8dbd79ab-8d7e-44ba-9f11-4afd7e562df1","system_id":"levelo_inurba_marseille","lat":43.25004,"lon":5.38929,"is_reserved":false,"is_disabled":false,"rental_uris":{"android":"levelo://app?vid=8dbd79ab-8d7e-44ba-9f11-4afd7e562df1","ios":"levelo://app?vid=8dbd79ab-8d7e-44ba-9f11-4afd7e562df1"},"vehicle_type_id":"4","last_reported":1740823745,"current_range_meters":8000,"station_id":"ce4bhgp2rcd13ifvqfd0","pricing_plan_id":"cebpf4jnsgd1na2vs0mg"},{"bike_id":"3fb4f6d3-9d50-4bb8-9d8e-be7c73bce7d7","system_id":"levelo_inurba_marseille","lat":43.2439,"lon":5.37062,"is_reserved":false,"is_disabled":false,"rental_uris":{"android":"levelo://app?vid=3fb4f6d3-9d50-4bb8-9d8e-be7c73bce7d7","ios":"levelo://app?vid=3fb4f6d3-9d50-4bb8-9d8e-be7c73bce7d7"},"vehicle_type_id":"4","last_reported":1740823745,"current_range_meters":8000,"station_id":"ce4bhhh2rcd13ifvqfk0","pricing_plan_id":"cebpf4jnsgd1na2vs0mg"},{"bike_id":"efce92a8-f359-4116-8c46-45b3371562f6","system_id":"levelo_inurba_marseille","lat":43.2721,"lon":5.39187,"is_reserved":false,"is_disabled":false,"rental_uris":{"android":"levelo://app?vid=efce92a8-f359-4116-8c46-45b3371562f6","ios":"levelo://app?vid=efce92a8-f359-4116-8c46-45b3371562f6"},"vehicle_type_id":"4","last_reported":1740823745,"current_range_meters":8000,"station_id":"ce4bhhp2rcd13ifvqfm0","pricing_plan_id":"cebpf4jnsgd1na2vs0mg"},{"bike_id":"44a9b49b-687c-42ec-b31a-1a2a7b71f3f8","system_id":"levelo_inurba_marseille","lat":43.23198,"lon":5.39976,"is_reserved":false,"is_disabled":false,"rental_uris":{"android":"levelo://app?vid=44a9b49b-687c-42ec-b31a-1a2a7b71f3f8","ios":"levelo://app?vid=44a9b49b-687c-42ec-b31a-1a2a7b71f3f8"},"vehicle_type_id":"4","last_reported":1740823745,"current_range_meters":8000,"station_id":"ce4bhn12rcd13ifvqgqg","pricing_plan_id":"cebpf4jnsgd1na2vs0mg"},{"bike_id":"468cc411-5a10-46f4-8919-d9a120794357","system_id":"levelo_inurba_marseille","lat":43.2801,"lon":5.40053,"is_reserved":false,"is_disabled":false,"rental_uris":{"android":"levelo://app?vid=468cc411-5a10-46f4-8919-d9a120794357","ios":"levelo://app?vid=468cc411-5a10-46f4-8919-d9a120794357"},"vehicle_type_id":"4","last_reported":1740823745,"current_range_meters":8000,"station_id":"ce4bho92rcd13ifvqh4g","pricing_plan_id":"cebpf4jnsgd1na2vs0mg"},{"bike_id":"2b4615ec-d1e9-4cda-8266-4761376aec6e","system_id":"levelo_inurba_marseille","lat":43.31718,"lon":5.43703,"is_reserved":false,"is_disabled":false,"rental_uris":{"android":"levelo://app?vid=2b4615ec-d1e9-4cda-8266-4761376aec6e","ios":"levelo://app?vid=2b4615ec-d1e9-4cda-8266-4761376aec6e"},"vehicle_type_id":"4","last_reported":1740823745,"current_range_meters":8000,"station_id":"ce4bhp92rcd13ifvqhcg","pricing_plan_id":"cebpf4jnsgd1na2vs0mg"},{"bike_id":"35a4782e-5d2e-4fb8-8175-5ce018572fa7","system_id":"levelo_inurba_marseille","lat":43.30009,"lon":5.377,"is_reserved":false,"is_disabled":false,"rental_uris":{"android":"levelo://app?vid=35a4782e-5d2e-4fb8-8175-5ce018572fa7","ios":"levelo://app?vid=35a4782e-5d2e-4fb8-8175-5ce018572fa7"},"vehicle_type_id":"4","last_reported":1740823745,"current_range_meters":8400,"station_id":"","pricing_plan_id":"cebpf4jnsgd1na2vs0mg"},{"bike_id":"be047da3-12fb-470e-9d78-68641c40dc2c","system_id":"levelo_inurba_marseille","lat":43.286591,"lon":5.409756,"is_reserved":false,"is_disabled":false,"rental_uris":{"android":"levelo://app?vid=be047da3-12fb-470e-9d78-68641c40dc2c","ios":"levelo://app?vid=be047da3-12fb-470e-9d78-68641c40dc2c"},"vehicle_type_id":"4","last_reported":1740823745,"current_range_meters":8400,"station_id":"","pricing_plan_id":"cebpf4jnsgd1na2vs0mg"},{"bike_id":"1b61fea5-4304-446e-9e78-e4af022eeced","system_id":"levelo_inurba_marseille","lat":43.3015,"lon":5.38083,"is_reserved":false,"is_disabled":false,"rental_uris":{"android":"levelo://app?vid=1b61fea5-4304-446e-9e78-e4af022eeced","ios":"levelo://app?vid=1b61fea5-4304-446e-9e78-e4af022eeced"},"vehicle_type_id":"4","last_reported":1740823745,"current_range_meters":8400,"station_id":"ce4bgjp2rcd13ifvqbh0","pricing_plan_id":"cebpf4jnsgd1na2vs0mg"},{"bike_id":"a5841749-abe8-4b38-b48c-2deb88c2d094","system_id":"levelo_inurba_marseille","lat":43.31719,"lon":5.37775,"is_reserved":false,"is_disabled":false,"rental_uris":{"android":"levelo://app?vid=a5841749-abe8-4b38-b48c-2deb88c2d094","ios":"levelo://app?vid=a5841749-abe8-4b38-b48c-2deb88c2d094"},"vehicle_type_id":"4","last_reported":1740823745,"current_range_meters":8400,"station_id":"ce4bgth2rcd13ifvqch0","pricing_plan_id":"cebpf4jnsgd1na2vs0mg"},{"bike_id":"9c9b811b-b4a7-483f-8021-0c092acc2765","system_id":"levelo_inurba_marseille","lat":43.31164,"lon":5.38724,"is_reserved":false,"is_disabled":false,"rental_uris":{"android":"levelo://app?vid=9c9b811b-b4a7-483f-8021-0c092acc2765","ios":"levelo://app?vid=9c9b811b-b4a7-483f-8021-0c092acc2765"},"vehicle_type_id":"4","last_reported":1740823745,"current_range_meters":8400,"station_id":"ce4bgv12rcd13ifvqcp0","pricing_plan_id":"cebpf4jnsgd1na2vs0mg"},{"bike_id":"da58de92-0f3f-4e30-8fe5-dcd6d609b5b3","system_id":"levelo_inurba_marseille","lat":43.27372,"lon":5.36263,"is_reserved":false,"is_disabled":false,"rental_uris":{"android":"levelo://app?vid=da58de92-0f3f-4e30-8fe5-dcd6d609b5b3","ios":"levelo://app?vid=da58de92-0f3f-4e30-8fe5-dcd6d609b5b3"},"vehicle_type_id":"4","last_reported":1740823745,"current_range_meters":8400,"station_id":"ce4bhbh2rcd13ifvqeo0","pricing_plan_id":"cebpf4jnsgd1na2vs0mg"},{"bike_id":"06462d8e-0f40-47c3-b9cb-b96739e97a65","system_id":"levelo_inurba_marseille","lat":43.25494,"lon":5.37651,"is_reserved":false,"is_disabled":false,"rental_uris":{"android":"levelo://app?vid=06462d8e-0f40-47c3-b9cb-b96739e97a65","ios":"levelo://app?vid=06462d8e-0f40-47c3-b9cb-b96739e97a65"},"vehicle_type_id":"4","last_reported":1740823745,"current_range_meters":8400,"station_id":"ce4bhh12rcd13ifvqff0","pricing_plan_id":"cebpf4jnsgd1na2vs0mg"},{"bike_id":"749fee80-dfaa-43de-aa58-d21bbf5e0792","system_id":"levelo_inurba_marseille","lat":43.23193,"lon":5.39998,"is_reserved":false,"is_disabled":false,"rental_uris":{"android":"levelo://app?vid=749fee80-dfaa-43de-aa58-d21bbf5e0792","ios":"levelo://app?vid=749fee80-dfaa-43de-aa58-d21bbf5e0792"},"vehicle_type_id":"4","last_reported":1740823745,"current_range_meters":8400,"station_id":"ce4bhn12rcd13ifvqgqg","pricing_plan_id":"cebpf4jnsgd1na2vs0mg"},{"bike_id":"d5481c01-2984-43f7-9ca9-876cf6aa8921","system_id":"levelo_inurba_marseille","lat":43.27994,"lon":5.40016,"is_reserved":false,"is_disabled":false,"rental_uris":{"android":"levelo://app?vid=d5481c01-2984-43f7-9ca9-876cf6aa8921","ios":"levelo://app?vid=d5481c01-2984-43f7-9ca9-876cf6aa8921"},"vehicle_type_id":"4","last_reported":1740823745,"current_range_meters":8400,"station_id":"ce4bho92rcd13ifvqh4g","pricing_plan_id":"cebpf4jnsgd1na2vs0mg"},{"bike_id":"73b59bd6-240d-4f85-92a3-b23b3e6d114c","system_id":"levelo_inurba_marseille","lat":43.31722,"lon":5.42412,"is_reserved":false,"is_disabled":false,"rental_uris":{"android":"levelo://app?vid=73b59bd6-240d-4f85-92a3-b23b3e6d114c","ios":"levelo://app?vid=73b59bd6-240d-4f85-92a3-b23b3e6d114c"},"vehicle_type_id":"4","last_reported":1740823745,"current_range_meters":8400,"station_id":"ce4bhp92rcd13ifvqhbg","pricing_plan_id":"cebpf4jnsgd1na2vs0mg"},{"bike_id":"b856a2bc-56d0-4a3b-98e1-96c1dee40487","system_id":"levelo_inurba_marseille","lat":43.29783,"lon":5.39345,"is_reserved":false,"is_disabled":false,"rental_uris":{"android":"levelo://app?vid=b856a2bc-56d0-4a3b-98e1-96c1dee40487","ios":"levelo://app?vid=b856a2bc-56d0-4a3b-98e1-96c1dee40487"},"vehicle_type_id":"4","last_reported":1740823745,"current_range_meters":8400,"station_id":"chh1huq6cuj3fo74tm60","pricing_plan_id":"cebpf4jnsgd1na2vs0mg"},{"bike_id":"257c4849-dc72-4ebc-b295-ab798a49160b","system_id":"levelo_inurba_marseille","lat":43.26198,"lon":5.38124,"is_reserved":false,"is_disabled":false,"rental_uris":{"android":"levelo://app?vid=257c4849-dc72-4ebc-b295-ab798a49160b","ios":"levelo://app?vid=257c4849-dc72-4ebc-b295-ab798a49160b"},"vehicle_type_id":"4","last_reported":1740823745,"current_range_meters":8800,"station_id":"","pricing_plan_id":"cebpf4jnsgd1na2vs0mg"},{"bike_id":"c676db48-685f-457a-94dc-42d91965c973","system_id":"levelo_inurba_marseille","lat":43.3015,"lon":5.3808,"is_reserved":false,"is_disabled":false,"rental_uris":{"android":"levelo://app?vid=c676db48-685f-457a-94dc-42d91965c973","ios":"levelo://app?vid=c676db48-685f-457a-94dc-42d91965c973"},"vehicle_type_id":"4","last_reported":1740823745,"current_range_meters":8800,"station_id":"ce4bgjp2rcd13ifvqbh0","pricing_plan_id":"cebpf4jnsgd1na2vs0mg"},{"bike_id":"fc367147-932f-405d-86b9-630bf41186c4","system_id":"levelo_inurba_marseille","lat":43.28717,"lon":5.37939,"is_reserved":false,"is_disabled":false,"rental_uris":{"android":"levelo://app?vid=fc367147-932f-405d-86b9-630bf41186c4","ios":"levelo://app?vid=fc367147-932f-405d-86b9-630bf41186c4"},"vehicle_type_id":"4","last_reported":1740823745,"current_range_meters":8800,"station_id":"ce4bh9p2rcd13ifvqec0","pricing_plan_id":"cebpf4jnsgd1na2vs0mg"},{"bike_id":"bb113d46-ee53-44da-bdcc-afcf6081c369","system_id":"levelo_inurba_marseille","lat":43.27916,"lon":5.39595,"is_reserved":false,"is_disabled":false,"rental_uris":{"android":"levelo://app?vid=bb113d46-ee53-44da-bdcc-afcf6081c369","ios":"levelo://app?vid=bb113d46-ee53-44da-bdcc-afcf6081c369"},"vehicle_type_id":"4","last_reported":1740823745,"current_range_meters":8800,"station_id":"ce4bhf92rcd13ifvqf40","pricing_plan_id":"cebpf4jnsgd1na2vs0mg"},{"bike_id":"7182befa-9a6c-49d3-acb0-e8c44e21d25e","system_id":"levelo_inurba_marseille","lat":43.25575,"lon":5.38247,"is_reserved":false,"is_disabled":false,"rental_uris":{"android":"levelo://app?vid=7182befa-9a6c-49d3-acb0-e8c44e21d25e","ios":"levelo://app?vid=7182befa-9a6c-49d3-acb0-e8c44e21d25e"},"vehicle_type_id":"4","last_reported":1740823745,"current_range_meters":8800,"station_id":"ce4bhih2rcd13ifvqfs0","pricing_plan_id":"cebpf4jnsgd1na2vs0mg"},{"bike_id":"5c79591b-3517-4ebe-b02b-e5c31a4f6853","system_id":"levelo_inurba_marseille","lat":43.26932,"lon":5.40252,"is_reserved":false,"is_disabled":false,"rental_uris":{"android":"levelo://app?vid=5c79591b-3517-4ebe-b02b-e5c31a4f6853","ios":"levelo://app?vid=5c79591b-3517-4ebe-b02b-e5c31a4f6853"},"vehicle_type_id":"4","last_reported":1740823745,"current_range_meters":8800,"station_id":"cjm6bp8fraef2m0cb0m0","pricing_plan_id":"cebpf4jnsgd1na2vs0mg"},{"bike_id":"3f5e4c77-943b-4a46-b257-614bf13afec4","system_id":"levelo_inurba_marseille","lat":43.241699,"lon":5.363989,"is_reserved":false,"is_disabled":false,"rental_uris":{"android":"levelo://app?vid=3f5e4c77-943b-4a46-b257-614bf13afec4","ios":"levelo://app?vid=3f5e4c77-943b-4a46-b257-614bf13afec4"},"vehicle_type_id":"4","last_reported":1740823745,"current_range_meters":8800,"station_id":"cpo36qri1sfpv3e86is0","pricing_plan_id":"cebpf4jnsgd1na2vs0mg"},{"bike_id":"bd4d047f-c101-4bc6-bd96-59ee035f5a00","system_id":"levelo_inurba_marseille","lat":43.28733,"lon":5.38923,"is_reserved":false,"is_disabled":false,"rental_uris":{"android":"levelo://app?vid=bd4d047f-c101-4bc6-bd96-59ee035f5a00","ios":"levelo://app?vid=bd4d047f-c101-4bc6-bd96-59ee035f5a00"},"vehicle_type_id":"4","last_reported":1740823745,"current_range_meters":9200,"station_id":"","pricing_plan_id":"cebpf4jnsgd1na2vs0mg"},{"bike_id":"b3aa44fa-d281-4cdc-901e-fe96b30fb89b","system_id":"levelo_inurba_marseille","lat":43.30172,"lon":5.38078,"is_reserved":false,"is_disabled":false,"rental_uris":{"android":"levelo://app?vid=b3aa44fa-d281-4cdc-901e-fe96b30fb89b","ios":"levelo://app?vid=b3aa44fa-d281-4cdc-901e-fe96b30fb89b"},"vehicle_type_id":"4","last_reported":1740823745,"current_range_meters":9200,"station_id":"ce4bgjp2rcd13ifvqbh0","pricing_plan_id":"cebpf4jnsgd1na2vs0mg"},{"bike_id":"d20a9730-b3cc-4569-9c20-389c16720bd5","system_id":"levelo_inurba_marseille","lat":43.3088,"lon":5.39646,"is_reserved":false,"is_disabled":false,"rental_uris":{"android":"levelo://app?vid=d20a9730-b3cc-4569-9c20-389c16720bd5","ios":"levelo://app?vid=d20a9730-b3cc-4569-9c20-389c16720bd5"},"vehicle_type_id":"4","last_reported":1740823745,"current_range_meters":9200,"station_id":"ce4bh012rcd13ifvqcv0","pricing_plan_id":"cebpf4jnsgd1na2vs0mg"},{"bike_id":"4987fcf8-7b90-4329-86bc-2c15e872fcde","system_id":"levelo_inurba_marseille","lat":43.2706,"lon":5.40263,"is_reserved":false,"is_disabled":false,"rental_uris":{"android":"levelo://app?vid=4987fcf8-7b90-4329-86bc-2c15e872fcde","ios":"levelo://app?vid=4987fcf8-7b90-4329-86bc-2c15e872fcde"},"vehicle_type_id":"4","last_reported":1740823745,"current_range_meters":9200,"station_id":"ce4bhk92rcd13ifvqgc0","pricing_plan_id":"cebpf4jnsgd1na2vs0mg"},{"bike_id":"87b985b0-b21a-457b-876e-995bf2ff8f5e","system_id":"levelo_inurba_marseille","lat":43.321155,"lon":5.367869,"is_reserved":false,"is_disabled":false,"rental_uris":{"android":"levelo://app?vid=87b985b0-b21a-457b-876e-995bf2ff8f5e","ios":"levelo://app?vid=87b985b0-b21a-457b-876e-995bf2ff8f5e"},"vehicle_type_id":"4","last_reported":1740823745,"current_range_meters":9200,"station_id":"ce4bhrh2rcd13ifvqhug","pricing_plan_id":"cebpf4jnsgd1na2vs0mg"},{"bike_id":"20b99df9-03ab-4841-80fa-c0d486f288be","system_id":"levelo_inurba_marseille","lat":43.23193,"lon":5.35544,"is_reserved":false,"is_disabled":false,"rental_uris":{"android":"levelo://app?vid=20b99df9-03ab-4841-80fa-c0d486f288be","ios":"levelo://app?vid=20b99df9-03ab-4841-80fa-c0d486f288be"},"vehicle_type_id":"4","last_reported":1740823745,"current_range_meters":9200,"station_id":"ce4bhu92rcd13ifvqi70","pricing_plan_id":"cebpf4jnsgd1na2vs0mg"},{"bike_id":"9f4deda5-76e4-48c2-b596-52dcf3f3bc23","system_id":"levelo_inurba_marseille","lat":43.2962,"lon":5.37726,"is_reserved":false,"is_disabled":false,"rental_uris":{"android":"levelo://app?vid=9f4deda5-76e4-48c2-b596-52dcf3f3bc23","ios":"levelo://app?vid=9f4deda5-76e4-48c2-b596-52dcf3f3bc23"},"vehicle_type_id":"4","last_reported":1740823745,"current_range_meters":9600,"station_id":"ce4bgi92rcd13ifvqb90","pricing_plan_id":"cebpf4jnsgd1na2vs0mg"},{"bike_id":"94d93eb2-b5f5-4f0b-ae0e-88e26f1e4d83","system_id":"levelo_inurba_marseille","lat":43.27474,"lon":5.394,"is_reserved":false,"is_disabled":false,"rental_uris":{"android":"levelo://app?vid=94d93eb2-b5f5-4f0b-ae0e-88e26f1e4d83","ios":"levelo://app?vid=94d93eb2-b5f5-4f0b-ae0e-88e26f1e4d83"},"vehicle_type_id":"4","last_reported":1740823745,"current_range_meters":9600,"station_id":"ce4bhdp2rcd13ifvqf20","pricing_plan_id":"cebpf4jnsgd1na2vs0mg"},{"bike_id":"05cc6ffa-20dc-486a-9bd5-c3143ae1663b","system_id":"levelo_inurba_marseille","lat":43.27912,"lon":5.3958,"is_reserved":false,"is_disabled":false,"rental_uris":{"android":"levelo://app?vid=05cc6ffa-20dc-486a-9bd5-c3143ae1663b","ios":"levelo://app?vid=05cc6ffa-20dc-486a-9bd5-c3143ae1663b"},"vehicle_type_id":"4","last_reported":1740823745,"current_range_meters":9600,"station_id":"ce4bhf92rcd13ifvqf40","pricing_plan_id":"cebpf4jnsgd1na2vs0mg"},{"bike_id":"a62ad21a-4f7a-48b5-97aa-da3b7c7ca7a9","system_id":"levelo_inurba_marseille","lat":43.23971,"lon":5.36635,"is_reserved":false,"is_disabled":false,"rental_uris":{"android":"levelo://app?vid=a62ad21a-4f7a-48b5-97aa-da3b7c7ca7a9","ios":"levelo://app?vid=a62ad21a-4f7a-48b5-97aa-da3b7c7ca7a9"},"vehicle_type_id":"4","last_reported":1740823745,"current_range_meters":9600,"station_id":"ce4bhi12rcd13ifvqfp0","pricing_plan_id":"cebpf4jnsgd1na2vs0mg"},{"bike_id":"be10b658-6853-4344-941a-dc3e450af712","system_id":"levelo_inurba_marseille","lat":43.25085,"lon":5.39522,"is_reserved":false,"is_disabled":false,"rental_uris":{"android":"levelo://app?vid=be10b658-6853-4344-941a-dc3e450af712","ios":"levelo://app?vid=be10b658-6853-4344-941a-dc3e450af712"},"vehicle_type_id":"4","last_reported":1740823745,"current_range_meters":9600,"station_id":"ce4bhm12rcd13ifvqgkg","pricing_plan_id":"cebpf4jnsgd1na2vs0mg"},{"bike_id":"4d0fc528-2de5-47b3-9a57-aa4b2f0a1fd8","system_id":"levelo_inurba_marseille","lat":43.23151,"lon":5.43716,"is_reserved":false,"is_disabled":false,"rental_uris":{"android":"levelo://app?vid=4d0fc528-2de5-47b3-9a57-aa4b2f0a1fd8","ios":"levelo://app?vid=4d0fc528-2de5-47b3-9a57-aa4b2f0a1fd8"},"vehicle_type_id":"4","last_reported":1740823745,"current_range_meters":9600,"station_id":"ce4bhmp2rcd13ifvqgog","pricing_plan_id":"cebpf4jnsgd1na2vs0mg"},{"bike_id":"a25a4bca-1a72-419f-af06-cf47c412ca14","system_id":"levelo_inurba_marseille","lat":43.30815,"lon":5.43522,"is_reserved":false,"is_disabled":false,"rental_uris":{"android":"levelo://app?vid=a25a4bca-1a72-419f-af06-cf47c412ca14","ios":"levelo://app?vid=a25a4bca-1a72-419f-af06-cf47c412ca14"},"vehicle_type_id":"4","last_reported":1740823745,"current_range_meters":9600,"station_id":"ce4bhph2rcd13ifvqheg","pricing_plan_id":"cebpf4jnsgd1na2vs0mg"},{"bike_id":"364b209e-752e-45ea-b26c-06b2552c1833","system_id":"levelo_inurba_marseille","lat":43.23212,"lon":5.35581,"is_reserved":false,"is_disabled":false,"rental_uris":{"android":"levelo://app?vid=364b209e-752e-45ea-b26c-06b2552c1833","ios":"levelo://app?vid=364b209e-752e-45ea-b26c-06b2552c1833"},"vehicle_type_id":"4","last_reported":1740823745,"current_range_meters":9600,"station_id":"ce4bhu92rcd13ifvqi70","pricing_plan_id":"cebpf4jnsgd1na2vs0mg"},{"bike_id":"593edb3c-7add-4a3d-9dbe-95cef549de0d","system_id":"levelo_inurba_marseille","lat":43.23089,"lon":5.35483,"is_reserved":false,"is_disabled":false,"rental_uris":{"android":"levelo://app?vid=593edb3c-7add-4a3d-9dbe-95cef549de0d","ios":"levelo://app?vid=593edb3c-7add-4a3d-9dbe-95cef549de0d"},"vehicle_type_id":"4","last_reported":1740823745,"current_range_meters":9600,"station_id":"cpo3342slgdg3j2ifvpg","pricing_plan_id":"cebpf4jnsgd1na2vs0mg"},{"bike_id":"49e9cdc7-76a5-4b66-ae2d-61c73beb73a8","system_id":"levelo_inurba_marseille","lat":43.241693,"lon":5.36397,"is_reserved":false,"is_disabled":false,"rental_uris":{"android":"levelo://app?vid=49e9cdc7-76a5-4b66-ae2d-61c73beb73a8","ios":"levelo://app?vid=49e9cdc7-76a5-4b66-ae2d-61c73beb73a8"},"vehicle_type_id":"4","last_reported":1740823745,"current_range_meters":9600,"station_id":"cpo36qri1sfpv3e86is0","pricing_plan_id":"cebpf4jnsgd1na2vs0mg"},{"bike_id":"92507ffe-246e-4070-8d24-733d223c7d43","system_id":"levelo_inurba_marseille","lat":43.30532,"lon":5.38425,"is_reserved":false,"is_disabled":false,"rental_uris":{"android":"levelo://app?vid=92507ffe-246e-4070-8d24-733d223c7d43","ios":"levelo://app?vid=92507ffe-246e-4070-8d24-733d223c7d43"},"vehicle_type_id":"4","last_reported":1740823745,"current_range_meters":10000,"station_id":"ce4bgg92rcd13ifvqb30","pricing_plan_id":"cebpf4jnsgd1na2vs0mg"},{"bike_id":"5ebfd1a0-c249-4c98-835d-9c17b0f393bf","system_id":"levelo_inurba_marseille","lat":43.30151,"lon":5.38104,"is_reserved":false,"is_disabled":false,"rental_uris":{"android":"levelo://app?vid=5ebfd1a0-c249-4c98-835d-9c17b0f393bf","ios":"levelo://app?vid=5ebfd1a0-c249-4c98-835d-9c17b0f393bf"},"vehicle_type_id":"4","last_reported":1740823745,"current_range_meters":10000,"station_id":"ce4bgjp2rcd13ifvqbh0","pricing_plan_id":"cebpf4jnsgd1na2vs0mg"},{"bike_id":"44344a94-31eb-4715-9cad-57e31236f5ee","system_id":"levelo_inurba_marseille","lat":43.3032,"lon":5.3689,"is_reserved":false,"is_disabled":false,"rental_uris":{"android":"levelo://app?vid=44344a94-31eb-4715-9cad-57e31236f5ee","ios":"levelo://app?vid=44344a94-31eb-4715-9cad-57e31236f5ee"},"vehicle_type_id":"4","last_reported":1740823745,"current_range_meters":10000,"station_id":"ce4bgqh2rcd13ifvqc5g","pricing_plan_id":"cebpf4jnsgd1na2vs0mg"},{"bike_id":"38e4208e-f256-4294-9ec9-809b58394803","system_id":"levelo_inurba_marseille","lat":43.31337,"lon":5.39728,"is_reserved":false,"is_disabled":false,"rental_uris":{"android":"levelo://app?vid=38e4208e-f256-4294-9ec9-809b58394803","ios":"levelo://app?vid=38e4208e-f256-4294-9ec9-809b58394803"},"vehicle_type_id":"4","last_reported":1740823745,"current_range_meters":10000,"station_id":"ce4bgvp2rcd13ifvqcu0","pricing_plan_id":"cebpf4jnsgd1na2vs0mg"},{"bike_id":"b08dbcf0-1e3c-421f-93f6-a17fac885ab4","system_id":"levelo_inurba_marseille","lat":43.27368,"lon":5.36254,"is_reserved":false,"is_disabled":false,"rental_uris":{"android":"levelo://app?vid=b08dbcf0-1e3c-421f-93f6-a17fac885ab4","ios":"levelo://app?vid=b08dbcf0-1e3c-421f-93f6-a17fac885ab4"},"vehicle_type_id":"4","last_reported":1740823745,"current_range_meters":10000,"station_id":"ce4bhbh2rcd13ifvqeo0","pricing_plan_id":"cebpf4jnsgd1na2vs0mg"},{"bike_id":"60d4e3af-a938-45a6-a89b-d7fe9130f2cc","system_id":"levelo_inurba_marseille","lat":43.24171,"lon":5.39733,"is_reserved":false,"is_disabled":false,"rental_uris":{"android":"levelo://app?vid=60d4e3af-a938-45a6-a89b-d7fe9130f2cc","ios":"levelo://app?vid=60d4e3af-a938-45a6-a89b-d7fe9130f2cc"},"vehicle_type_id":"4","last_reported":1740823745,"current_range_meters":10000,"station_id":"ce4bhn12rcd13ifvqgpg","pricing_plan_id":"cebpf4jnsgd1na2vs0mg"},{"bike_id":"152d5173-ed9c-4346-9b22-eb5f34e49026","system_id":"levelo_inurba_marseille","lat":43.279924,"lon":5.400134,"is_reserved":false,"is_disabled":false,"rental_uris":{"android":"levelo://app?vid=152d5173-ed9c-4346-9b22-eb5f34e49026","ios":"levelo://app?vid=152d5173-ed9c-4346-9b22-eb5f34e49026"},"vehicle_type_id":"4","last_reported":1740823745,"current_range_meters":10000,"station_id":"ce4bho92rcd13ifvqh4g","pricing_plan_id":"cebpf4jnsgd1na2vs0mg"},{"bike_id":"10e0b7b4-1f78-4c31-bd18-a1e33aa836ce","system_id":"levelo_inurba_marseille","lat":43.33615,"lon":5.41017,"is_reserved":false,"is_disabled":false,"rental_uris":{"android":"levelo://app?vid=10e0b7b4-1f78-4c31-bd18-a1e33aa836ce","ios":"levelo://app?vid=10e0b7b4-1f78-4c31-bd18-a1e33aa836ce"},"vehicle_type_id":"4","last_reported":1740823745,"current_range_meters":10000,"station_id":"ce4bhqh2rcd13ifvqhmg","pricing_plan_id":"cebpf4jnsgd1na2vs0mg"},{"bike_id":"597c78d8-1097-48db-b3be-fafc8754eab9","system_id":"levelo_inurba_marseille","lat":43.24176,"lon":5.36405,"is_reserved":false,"is_disabled":false,"rental_uris":{"android":"levelo://app?vid=597c78d8-1097-48db-b3be-fafc8754eab9","ios":"levelo://app?vid=597c78d8-1097-48db-b3be-fafc8754eab9"},"vehicle_type_id":"4","last_reported":1740823745,"current_range_meters":10000,"station_id":"cpo36qri1sfpv3e86is0","pricing_plan_id":"cebpf4jnsgd1na2vs0mg"},{"bike_id":"b777b4cf-3a59-4bd6-bbe8-877c47f15172","system_id":"levelo_inurba_marseille","lat":43.29283,"lon":5.36853,"is_reserved":false,"is_disabled":false,"rental_uris":{"android":"levelo://app?vid=b777b4cf-3a59-4bd6-bbe8-877c47f15172","ios":"levelo://app?vid=b777b4cf-3a59-4bd6-bbe8-877c47f15172"},"vehicle_type_id":"4","last_reported":1740823745,"current_range_meters":10800,"station_id":"ce4bhbp2rcd13ifvqesg","pricing_plan_id":"cebpf4jnsgd1na2vs0mg"},{"bike_id":"f7e969b9-30da-4a12-9fbc-e6e05e9966aa","system_id":"levelo_inurba_marseille","lat":43.261937,"lon":5.374457,"is_reserved":false,"is_disabled":false,"rental_uris":{"android":"levelo://app?vid=f7e969b9-30da-4a12-9fbc-e6e05e9966aa","ios":"levelo://app?vid=f7e969b9-30da-4a12-9fbc-e6e05e9966aa"},"vehicle_type_id":"4","last_reported":1740823745,"current_range_meters":10800,"station_id":"ce4bhgp2rcd13ifvqfc0","pricing_plan_id":"cebpf4jnsgd1na2vs0mg"},{"bike_id":"740e99a4-36d9-4050-a22d-1f0aeb1df1ee","system_id":"levelo_inurba_marseille","lat":43.25013,"lon":5.38926,"is_reserved":false,"is_disabled":false,"rental_uris":{"android":"levelo://app?vid=740e99a4-36d9-4050-a22d-1f0aeb1df1ee","ios":"levelo://app?vid=740e99a4-36d9-4050-a22d-1f0aeb1df1ee"},"vehicle_type_id":"4","last_reported":1740823745,"current_range_meters":10800,"station_id":"ce4bhgp2rcd13ifvqfd0","pricing_plan_id":"cebpf4jnsgd1na2vs0mg"},{"bike_id":"1e074596-6371-403b-bb6f-4fe434ac26ad","system_id":"levelo_inurba_marseille","lat":43.28468,"lon":5.39195,"is_reserved":false,"is_disabled":false,"rental_uris":{"android":"levelo://app?vid=1e074596-6371-403b-bb6f-4fe434ac26ad","ios":"levelo://app?vid=1e074596-6371-403b-bb6f-4fe434ac26ad"},"vehicle_type_id":"4","last_reported":1740823745,"current_range_meters":10800,"station_id":"ce4bhoh2rcd13ifvqh5g","pricing_plan_id":"cebpf4jnsgd1na2vs0mg"},{"bike_id":"c75d9d27-9d2e-4cb8-a9bd-5128238cffc1","system_id":"levelo_inurba_marseille","lat":43.29911,"lon":5.37473,"is_reserved":false,"is_disabled":false,"rental_uris":{"android":"levelo://app?vid=c75d9d27-9d2e-4cb8-a9bd-5128238cffc1","ios":"levelo://app?vid=c75d9d27-9d2e-4cb8-a9bd-5128238cffc1"},"vehicle_type_id":"4","last_reported":1740823745,"current_range_meters":11200,"station_id":"ce4bgjh2rcd13ifvqbg0","pricing_plan_id":"cebpf4jnsgd1na2vs0mg"},{"bike_id":"4cbf16cb-c446-4d43-8ac4-8d7111d30698","system_id":"levelo_inurba_marseille","lat":43.30185,"lon":5.38084,"is_reserved":false,"is_disabled":false,"rental_uris":{"android":"levelo://app?vid=4cbf16cb-c446-4d43-8ac4-8d7111d30698","ios":"levelo://app?vid=4cbf16cb-c446-4d43-8ac4-8d7111d30698"},"vehicle_type_id":"4","last_reported":1740823745,"current_range_meters":11200,"station_id":"ce4bgjp2rcd13ifvqbh0","pricing_plan_id":"cebpf4jnsgd1na2vs0mg"},{"bike_id":"79d44d0c-0278-42f1-98a0-162475f3b0a6","system_id":"levelo_inurba_marseille","lat":43.28656,"lon":5.36357,"is_reserved":false,"is_disabled":false,"rental_uris":{"android":"levelo://app?vid=79d44d0c-0278-42f1-98a0-162475f3b0a6","ios":"levelo://app?vid=79d44d0c-0278-42f1-98a0-162475f3b0a6"},"vehicle_type_id":"4","last_reported":1740823745,"current_range_meters":11200,"station_id":"ce4bhah2rcd13ifvqej0","pricing_plan_id":"cebpf4jnsgd1na2vs0mg"},{"bike_id":"3ae43e61-e460-4942-a7d7-9a08b7b0118e","system_id":"levelo_inurba_marseille","lat":43.24818,"lon":5.37464,"is_reserved":false,"is_disabled":false,"rental_uris":{"android":"levelo://app?vid=3ae43e61-e460-4942-a7d7-9a08b7b0118e","ios":"levelo://app?vid=3ae43e61-e460-4942-a7d7-9a08b7b0118e"},"vehicle_type_id":"4","last_reported":1740823745,"current_range_meters":11200,"station_id":"ce4bhgh2rcd13ifvqfb0","pricing_plan_id":"cebpf4jnsgd1na2vs0mg"},{"bike_id":"d8ce033e-f3a5-430d-b70d-26539a7235b3","system_id":"levelo_inurba_marseille","lat":43.31324,"lon":5.39716,"is_reserved":false,"is_disabled":false,"rental_uris":{"android":"levelo://app?vid=d8ce033e-f3a5-430d-b70d-26539a7235b3","ios":"levelo://app?vid=d8ce033e-f3a5-430d-b70d-26539a7235b3"},"vehicle_type_id":"4","last_reported":1740823745,"current_range_meters":11600,"station_id":"ce4bgvp2rcd13ifvqcu0","pricing_plan_id":"cebpf4jnsgd1na2vs0mg"},{"bike_id":"e3f320f5-121c-47f5-b846-592f4f706823","system_id":"levelo_inurba_marseille","lat":43.28462,"lon":5.35896,"is_reserved":false,"is_disabled":false,"rental_uris":{"android":"levelo://app?vid=e3f320f5-121c-47f5-b846-592f4f706823","ios":"levelo://app?vid=e3f320f5-121c-47f5-b846-592f4f706823"},"vehicle_type_id":"4","last_reported":1740823745,"current_range_meters":11600,"station_id":"ce4bhah2rcd13ifvqei0","pricing_plan_id":"cebpf4jnsgd1na2vs0mg"},{"bike_id":"c43e5693-9d8e-4302-9600-405c771ff09d","system_id":"levelo_inurba_marseille","lat":43.28849,"lon":5.35844,"is_reserved":false,"is_disabled":false,"rental_uris":{"android":"levelo://app?vid=c43e5693-9d8e-4302-9600-405c771ff09d","ios":"levelo://app?vid=c43e5693-9d8e-4302-9600-405c771ff09d"},"vehicle_type_id":"4","last_reported":1740823745,"current_range_meters":11600,"station_id":"ce4bhb12rcd13ifvqem0","pricing_plan_id":"cebpf4jnsgd1na2vs0mg"},{"bike_id":"0395e071-5a2b-415c-b481-2f18c2ea3427","system_id":"levelo_inurba_marseille","lat":43.248095,"lon":5.374575,"is_reserved":false,"is_disabled":false,"rental_uris":{"android":"levelo://app?vid=0395e071-5a2b-415c-b481-2f18c2ea3427","ios":"levelo://app?vid=0395e071-5a2b-415c-b481-2f18c2ea3427"},"vehicle_type_id":"4","last_reported":1740823745,"current_range_meters":11600,"station_id":"ce4bhgh2rcd13ifvqfb0","pricing_plan_id":"cebpf4jnsgd1na2vs0mg"},{"bike_id":"9f7e403d-3241-4706-bd05-f661b265d93a","system_id":"levelo_inurba_marseille","lat":43.30882,"lon":5.39656,"is_reserved":false,"is_disabled":false,"rental_uris":{"android":"levelo://app?vid=9f7e403d-3241-4706-bd05-f661b265d93a","ios":"levelo://app?vid=9f7e403d-3241-4706-bd05-f661b265d93a"},"vehicle_type_id":"4","last_reported":1740823745,"current_range_meters":12000,"station_id":"ce4bh012rcd13ifvqcv0","pricing_plan_id":"cebpf4jnsgd1na2vs0mg"},{"bike_id":"03ef93a2-f0d4-4812-a858-fbc67d723ed6","system_id":"levelo_inurba_marseille","lat":43.29032,"lon":5.37572,"is_reserved":false,"is_disabled":false,"rental_uris":{"android":"levelo://app?vid=03ef93a2-f0d4-4812-a858-fbc67d723ed6","ios":"levelo://app?vid=03ef93a2-f0d4-4812-a858-fbc67d723ed6"},"vehicle_type_id":"4","last_reported":1740823745,"current_range_meters":12000,"station_id":"ce4bh692rcd13ifvqe90","pricing_plan_id":"cebpf4jnsgd1na2vs0mg"},{"bike_id":"d70f8813-061f-4f77-8828-1ec40b97c754","system_id":"levelo_inurba_marseille","lat":43.29006,"lon":5.35609,"is_reserved":false,"is_disabled":false,"rental_uris":{"android":"levelo://app?vid=d70f8813-061f-4f77-8828-1ec40b97c754","ios":"levelo://app?vid=d70f8813-061f-4f77-8828-1ec40b97c754"},"vehicle_type_id":"4","last_reported":1740823745,"current_range_meters":12000,"station_id":"ce4bhb92rcd13ifvqen0","pricing_plan_id":"cebpf4jnsgd1na2vs0mg"},{"bike_id":"5844301a-8057-4431-9887-c9a53dea440e","system_id":"levelo_inurba_marseille","lat":43.26058,"lon":5.39389,"is_reserved":false,"is_disabled":false,"rental_uris":{"android":"levelo://app?vid=5844301a-8057-4431-9887-c9a53dea440e","ios":"levelo://app?vid=5844301a-8057-4431-9887-c9a53dea440e"},"vehicle_type_id":"4","last_reported":1740823745,"current_range_meters":12000,"station_id":"ce4bhh92rcd13ifvqfj0","pricing_plan_id":"cebpf4jnsgd1na2vs0mg"},{"bike_id":"4e132ae2-7910-421f-869d-2ef52afbee26","system_id":"levelo_inurba_marseille","lat":43.26938,"lon":5.38923,"is_reserved":false,"is_disabled":false,"rental_uris":{"android":"levelo://app?vid=4e132ae2-7910-421f-869d-2ef52afbee26","ios":"levelo://app?vid=4e132ae2-7910-421f-869d-2ef52afbee26"},"vehicle_type_id":"4","last_reported":1740823745,"current_range_meters":12000,"station_id":"ce4bhhh2rcd13ifvqfl0","pricing_plan_id":"cebpf4jnsgd1na2vs0mg"},{"bike_id":"3b5bbd1a-e79b-4f24-8015-6243196169f8","system_id":"levelo_inurba_marseille","lat":43.28036,"lon":5.36943,"is_reserved":false,"is_disabled":false,"rental_uris":{"android":"levelo://app?vid=3b5bbd1a-e79b-4f24-8015-6243196169f8","ios":"levelo://app?vid=3b5bbd1a-e79b-4f24-8015-6243196169f8"},"vehicle_type_id":"4","last_reported":1740823745,"current_range_meters":12400,"station_id":"ce4bha12rcd13ifvqef0","pricing_plan_id":"cebpf4jnsgd1na2vs0mg"},{"bike_id":"43e1e04c-280b-4d54-bbb9-c3921d8e975b","system_id":"levelo_inurba_marseille","lat":43.29269,"lon":5.36856,"is_reserved":false,"is_disabled":false,"rental_uris":{"android":"levelo://app?vid=43e1e04c-280b-4d54-bbb9-c3921d8e975b","ios":"levelo://app?vid=43e1e04c-280b-4d54-bbb9-c3921d8e975b"},"vehicle_type_id":"4","last_reported":1740823745,"current_range_meters":12400,"station_id":"ce4bhbp2rcd13ifvqesg","pricing_plan_id":"cebpf4jnsgd1na2vs0mg"},{"bike_id":"336a4a10-f9f1-45c2-a530-b3491cbcaf3a","system_id":"levelo_inurba_marseille","lat":43.26783,"lon":5.39418,"is_reserved":false,"is_disabled":false,"rental_uris":{"android":"levelo://app?vid=336a4a10-f9f1-45c2-a530-b3491cbcaf3a","ios":"levelo://app?vid=336a4a10-f9f1-45c2-a530-b3491cbcaf3a"},"vehicle_type_id":"4","last_reported":1740823745,"current_range_meters":12400,"station_id":"ce4bhh12rcd13ifvqfg0","pricing_plan_id":"cebpf4jnsgd1na2vs0mg"},{"bike_id":"00616f21-c786-4fb6-a89f-3c894151f4da","system_id":"levelo_inurba_marseille","lat":43.243893,"lon":5.370708,"is_reserved":false,"is_disabled":false,"rental_uris":{"android":"levelo://app?vid=00616f21-c786-4fb6-a89f-3c894151f4da","ios":"levelo://app?vid=00616f21-c786-4fb6-a89f-3c894151f4da"},"vehicle_type_id":"4","last_reported":1740823745,"current_range_meters":12400,"station_id":"ce4bhhh2rcd13ifvqfk0","pricing_plan_id":"cebpf4jnsgd1na2vs0mg"},{"bike_id":"d2a8b766-8d38-4e30-a2a7-32ce6e4d4284","system_id":"levelo_inurba_marseille","lat":43.26508,"lon":5.39546,"is_reserved":false,"is_disabled":false,"rental_uris":{"android":"levelo://app?vid=d2a8b766-8d38-4e30-a2a7-32ce6e4d4284","ios":"levelo://app?vid=d2a8b766-8d38-4e30-a2a7-32ce6e4d4284"},"vehicle_type_id":"4","last_reported":1740823745,"current_range_meters":12400,"station_id":"ce4bhi12rcd13ifvqfq0","pricing_plan_id":"cebpf4jnsgd1na2vs0mg"},{"bike_id":"b4ae1c3a-94da-42f6-b079-961c8d8c2672","system_id":"levelo_inurba_marseille","lat":43.2319,"lon":5.40004,"is_reserved":false,"is_disabled":false,"rental_uris":{"android":"levelo://app?vid=b4ae1c3a-94da-42f6-b079-961c8d8c2672","ios":"levelo://app?vid=b4ae1c3a-94da-42f6-b079-961c8d8c2672"},"vehicle_type_id":"4","last_reported":1740823745,"current_range_meters":12400,"station_id":"ce4bhn12rcd13ifvqgqg","pricing_plan_id":"cebpf4jnsgd1na2vs0mg"},{"bike_id":"31c0e24b-42d8-4837-af8d-97c389878bc1","system_id":"levelo_inurba_marseille","lat":43.30413,"lon":5.41286,"is_reserved":false,"is_disabled":false,"rental_uris":{"android":"levelo://app?vid=31c0e24b-42d8-4837-af8d-97c389878bc1","ios":"levelo://app?vid=31c0e24b-42d8-4837-af8d-97c389878bc1"},"vehicle_type_id":"4","last_reported":1740823745,"current_range_meters":12400,"station_id":"ce4bhop2rcd13ifvqh8g","pricing_plan_id":"cebpf4jnsgd1na2vs0mg"},{"bike_id":"9dde31e4-34eb-4f2e-88e9-d1753bb57dbb","system_id":"levelo_inurba_marseille","lat":43.337444,"lon":5.374475,"is_reserved":false,"is_disabled":false,"rental_uris":{"android":"levelo://app?vid=9dde31e4-34eb-4f2e-88e9-d1753bb57dbb","ios":"levelo://app?vid=9dde31e4-34eb-4f2e-88e9-d1753bb57dbb"},"vehicle_type_id":"4","last_reported":1740823745,"current_range_meters":12400,"station_id":"chh1huq6cuj3fo74tm60","pricing_plan_id":"cebpf4jnsgd1na2vs0mg"},{"bike_id":"de948549-d218-4cbb-beac-89f23b142492","system_id":"levelo_inurba_marseille","lat":43.29796,"lon":5.40408,"is_reserved":false,"is_disabled":false,"rental_uris":{"android":"levelo://app?vid=de948549-d218-4cbb-beac-89f23b142492","ios":"levelo://app?vid=de948549-d218-4cbb-beac-89f23b142492"},"vehicle_type_id":"4","last_reported":1740823745,"current_range_meters":12800,"station_id":"ce4bh112rcd13ifvqd90","pricing_plan_id":"cebpf4jnsgd1na2vs0mg"},{"bike_id":"4015c440-7267-44b4-8be2-f4b87cb51aa9","system_id":"levelo_inurba_marseille","lat":43.2559,"lon":5.38245,"is_reserved":false,"is_disabled":false,"rental_uris":{"android":"levelo://app?vid=4015c440-7267-44b4-8be2-f4b87cb51aa9","ios":"levelo://app?vid=4015c440-7267-44b4-8be2-f4b87cb51aa9"},"vehicle_type_id":"4","last_reported":1740823745,"current_range_meters":12800,"station_id":"ce4bhih2rcd13ifvqfs0","pricing_plan_id":"cebpf4jnsgd1na2vs0mg"},{"bike_id":"0693b9d6-4a9d-4e38-bfa2-80f934bcc2e3","system_id":"levelo_inurba_marseille","lat":43.241705,"lon":5.364114,"is_reserved":false,"is_disabled":false,"rental_uris":{"android":"levelo://app?vid=0693b9d6-4a9d-4e38-bfa2-80f934bcc2e3","ios":"levelo://app?vid=0693b9d6-4a9d-4e38-bfa2-80f934bcc2e3"},"vehicle_type_id":"4","last_reported":1740823745,"current_range_meters":12800,"station_id":"cpo36qri1sfpv3e86is0","pricing_plan_id":"cebpf4jnsgd1na2vs0mg"},{"bike_id":"0d6a42ea-f26c-48b6-a0a0-37cfbe3d24fa","system_id":"levelo_inurba_marseille","lat":43.30871,"lon":5.39651,"is_reserved":false,"is_disabled":false,"rental_uris":{"android":"levelo://app?vid=0d6a42ea-f26c-48b6-a0a0-37cfbe3d24fa","ios":"levelo://app?vid=0d6a42ea-f26c-48b6-a0a0-37cfbe3d24fa"},"vehicle_type_id":"4","last_reported":1740823745,"current_range_meters":13600,"station_id":"ce4bh012rcd13ifvqcv0","pricing_plan_id":"cebpf4jnsgd1na2vs0mg"},{"bike_id":"20050f0a-3d27-4655-be59-c508f189fe11","system_id":"levelo_inurba_marseille","lat":43.2805,"lon":5.3695,"is_reserved":false,"is_disabled":false,"rental_uris":{"android":"levelo://app?vid=20050f0a-3d27-4655-be59-c508f189fe11","ios":"levelo://app?vid=20050f0a-3d27-4655-be59-c508f189fe11"},"vehicle_type_id":"4","last_reported":1740823745,"current_range_meters":13600,"station_id":"ce4bha12rcd13ifvqef0","pricing_plan_id":"cebpf4jnsgd1na2vs0mg"},{"bike_id":"e715583f-1796-4825-9ad3-2ce08e3e3dad","system_id":"levelo_inurba_marseille","lat":43.27319,"lon":5.3908,"is_reserved":false,"is_disabled":false,"rental_uris":{"android":"levelo://app?vid=e715583f-1796-4825-9ad3-2ce08e3e3dad","ios":"levelo://app?vid=e715583f-1796-4825-9ad3-2ce08e3e3dad"},"vehicle_type_id":"4","last_reported":1740823745,"current_range_meters":13600,"station_id":"ce4bhgp2rcd13ifvqfe0","pricing_plan_id":"cebpf4jnsgd1na2vs0mg"},{"bike_id":"f00e0c7f-2c0e-4559-ad25-bc58cc4a6a7c","system_id":"levelo_inurba_marseille","lat":43.29038,"lon":5.37563,"is_reserved":false,"is_disabled":false,"rental_uris":{"android":"levelo://app?vid=f00e0c7f-2c0e-4559-ad25-bc58cc4a6a7c","ios":"levelo://app?vid=f00e0c7f-2c0e-4559-ad25-bc58cc4a6a7c"},"vehicle_type_id":"4","last_reported":1740823745,"current_range_meters":14000,"station_id":"ce4bgi12rcd13ifvqb70","pricing_plan_id":"cebpf4jnsgd1na2vs0mg"},{"bike_id":"ea0759d4-a649-4885-bd0e-3d86ec949d21","system_id":"levelo_inurba_marseille","lat":43.29626,"lon":5.38103,"is_reserved":false,"is_disabled":false,"rental_uris":{"android":"levelo://app?vid=ea0759d4-a649-4885-bd0e-3d86ec949d21","ios":"levelo://app?vid=ea0759d4-a649-4885-bd0e-3d86ec949d21"},"vehicle_type_id":"4","last_reported":1740823745,"current_range_meters":14000,"station_id":"ce4bgl12rcd13ifvqbo0","pricing_plan_id":"cebpf4jnsgd1na2vs0mg"},{"bike_id":"887298de-1b65-4365-87a0-ba97eaf2a237","system_id":"levelo_inurba_marseille","lat":43.30614,"lon":5.3722,"is_reserved":false,"is_disabled":false,"rental_uris":{"android":"levelo://app?vid=887298de-1b65-4365-87a0-ba97eaf2a237","ios":"levelo://app?vid=887298de-1b65-4365-87a0-ba97eaf2a237"},"vehicle_type_id":"4","last_reported":1740823745,"current_range_meters":14000,"station_id":"ce4bgqh2rcd13ifvqc4g","pricing_plan_id":"cebpf4jnsgd1na2vs0mg"},{"bike_id":"8a94d05e-0ac9-4900-afae-8f1bbe4e36de","system_id":"levelo_inurba_marseille","lat":43.30875,"lon":5.39649,"is_reserved":false,"is_disabled":false,"rental_uris":{"android":"levelo://app?vid=8a94d05e-0ac9-4900-afae-8f1bbe4e36de","ios":"levelo://app?vid=8a94d05e-0ac9-4900-afae-8f1bbe4e36de"},"vehicle_type_id":"4","last_reported":1740823745,"current_range_meters":14000,"station_id":"ce4bh012rcd13ifvqcv0","pricing_plan_id":"cebpf4jnsgd1na2vs0mg"},{"bike_id":"5a9df47d-6551-4b87-9367-371612b52570","system_id":"levelo_inurba_marseille","lat":43.29272,"lon":5.36848,"is_reserved":false,"is_disabled":false,"rental_uris":{"android":"levelo://app?vid=5a9df47d-6551-4b87-9367-371612b52570","ios":"levelo://app?vid=5a9df47d-6551-4b87-9367-371612b52570"},"vehicle_type_id":"4","last_reported":1740823745,"current_range_meters":14000,"station_id":"ce4bhbp2rcd13ifvqesg","pricing_plan_id":"cebpf4jnsgd1na2vs0mg"},{"bike_id":"448318b9-98db-4143-87d2-dabd1ab9c33a","system_id":"levelo_inurba_marseille","lat":43.27829,"lon":5.39212,"is_reserved":false,"is_disabled":false,"rental_uris":{"android":"levelo://app?vid=448318b9-98db-4143-87d2-dabd1ab9c33a","ios":"levelo://app?vid=448318b9-98db-4143-87d2-dabd1ab9c33a"},"vehicle_type_id":"4","last_reported":1740823745,"current_range_meters":14000,"station_id":"ce4bhjp2rcd13ifvqga0","pricing_plan_id":"cebpf4jnsgd1na2vs0mg"},{"bike_id":"24db149f-1618-42c4-af45-9cda7f46d94c","system_id":"levelo_inurba_marseille","lat":43.27086,"lon":5.42276,"is_reserved":false,"is_disabled":false,"rental_uris":{"android":"levelo://app?vid=24db149f-1618-42c4-af45-9cda7f46d94c","ios":"levelo://app?vid=24db149f-1618-42c4-af45-9cda7f46d94c"},"vehicle_type_id":"4","last_reported":1740823745,"current_range_meters":14000,"station_id":"ce4bhk92rcd13ifvqgb0","pricing_plan_id":"cebpf4jnsgd1na2vs0mg"},{"bike_id":"07199bf9-3cb4-405f-aecc-e3f4227a0f29","system_id":"levelo_inurba_marseille","lat":43.27305,"lon":5.39087,"is_reserved":false,"is_disabled":false,"rental_uris":{"android":"levelo://app?vid=07199bf9-3cb4-405f-aecc-e3f4227a0f29","ios":"levelo://app?vid=07199bf9-3cb4-405f-aecc-e3f4227a0f29"},"vehicle_type_id":"4","last_reported":1740823745,"current_range_meters":14400,"station_id":"ce4bhgp2rcd13ifvqfe0","pricing_plan_id":"cebpf4jnsgd1na2vs0mg"},{"bike_id":"5d362282-658f-435c-a578-3a43f2b65d8d","system_id":"levelo_inurba_marseille","lat":43.25493,"lon":5.37649,"is_reserved":false,"is_disabled":false,"rental_uris":{"android":"levelo://app?vid=5d362282-658f-435c-a578-3a43f2b65d8d","ios":"levelo://app?vid=5d362282-658f-435c-a578-3a43f2b65d8d"},"vehicle_type_id":"4","last_reported":1740823745,"current_range_meters":14400,"station_id":"ce4bhh12rcd13ifvqff0","pricing_plan_id":"cebpf4jnsgd1na2vs0mg"},{"bike_id":"fdd9f725-35af-4c06-8ace-d31fe1b67469","system_id":"levelo_inurba_marseille","lat":43.27575,"lon":5.38435,"is_reserved":false,"is_disabled":false,"rental_uris":{"android":"levelo://app?vid=fdd9f725-35af-4c06-8ace-d31fe1b67469","ios":"levelo://app?vid=fdd9f725-35af-4c06-8ace-d31fe1b67469"},"vehicle_type_id":"4","last_reported":1740823745,"current_range_meters":14400,"station_id":"ce4bhh92rcd13ifvqfi0","pricing_plan_id":"cebpf4jnsgd1na2vs0mg"},{"bike_id":"82b16db9-60ae-4dfa-89e6-d4d85d406e40","system_id":"levelo_inurba_marseille","lat":43.27549,"lon":5.38438,"is_reserved":false,"is_disabled":false,"rental_uris":{"android":"levelo://app?vid=82b16db9-60ae-4dfa-89e6-d4d85d406e40","ios":"levelo://app?vid=82b16db9-60ae-4dfa-89e6-d4d85d406e40"},"vehicle_type_id":"4","last_reported":1740823745,"current_range_meters":14400,"station_id":"ce4bhh92rcd13ifvqfi0","pricing_plan_id":"cebpf4jnsgd1na2vs0mg"},{"bike_id":"ad63f7de-e082-486a-986c-5f0cb3c10b35","system_id":"levelo_inurba_marseille","lat":43.23958,"lon":5.36635,"is_reserved":false,"is_disabled":false,"rental_uris":{"android":"levelo://app?vid=ad63f7de-e082-486a-986c-5f0cb3c10b35","ios":"levelo://app?vid=ad63f7de-e082-486a-986c-5f0cb3c10b35"},"vehicle_type_id":"4","last_reported":1740823745,"current_range_meters":14400,"station_id":"ce4bhi12rcd13ifvqfp0","pricing_plan_id":"cebpf4jnsgd1na2vs0mg"},{"bike_id":"761546c5-be0c-4342-b24b-2df20a5a6b56","system_id":"levelo_inurba_marseille","lat":43.31752,"lon":5.3902,"is_reserved":false,"is_disabled":false,"rental_uris":{"android":"levelo://app?vid=761546c5-be0c-4342-b24b-2df20a5a6b56","ios":"levelo://app?vid=761546c5-be0c-4342-b24b-2df20a5a6b56"},"vehicle_type_id":"4","last_reported":1740823745,"current_range_meters":14400,"station_id":"ce4bhqp2rcd13ifvqhng","pricing_plan_id":"cebpf4jnsgd1na2vs0mg"},{"bike_id":"9e70006a-cdf2-4919-93a2-3c66955a3b59","system_id":"levelo_inurba_marseille","lat":43.323641,"lon":5.367554,"is_reserved":false,"is_disabled":false,"rental_uris":{"android":"levelo://app?vid=9e70006a-cdf2-4919-93a2-3c66955a3b59","ios":"levelo://app?vid=9e70006a-cdf2-4919-93a2-3c66955a3b59"},"vehicle_type_id":"4","last_reported":1740823745,"current_range_meters":14400,"station_id":"ce4bhsh2rcd13ifvqi2g","pricing_plan_id":"cebpf4jnsgd1na2vs0mg"},{"bike_id":"b0613a5e-2ddb-47a4-bf10-91291a46869d","system_id":"levelo_inurba_marseille","lat":43.29793,"lon":5.38107,"is_reserved":false,"is_disabled":false,"rental_uris":{"android":"levelo://app?vid=b0613a5e-2ddb-47a4-bf10-91291a46869d","ios":"levelo://app?vid=b0613a5e-2ddb-47a4-bf10-91291a46869d"},"vehicle_type_id":"4","last_reported":1740823745,"current_range_meters":14800,"station_id":"ce4bgip2rcd13ifvqbb0","pricing_plan_id":"cebpf4jnsgd1na2vs0mg"},{"bike_id":"539ac50f-cb77-4ec4-bd65-67eb799746fc","system_id":"levelo_inurba_marseille","lat":43.29602,"lon":5.38106,"is_reserved":false,"is_disabled":false,"rental_uris":{"android":"levelo://app?vid=539ac50f-cb77-4ec4-bd65-67eb799746fc","ios":"levelo://app?vid=539ac50f-cb77-4ec4-bd65-67eb799746fc"},"vehicle_type_id":"4","last_reported":1740823745,"current_range_meters":14800,"station_id":"ce4bgl12rcd13ifvqbo0","pricing_plan_id":"cebpf4jnsgd1na2vs0mg"},{"bike_id":"b9a2f865-c825-4e52-adb3-248f6c992a98","system_id":"levelo_inurba_marseille","lat":43.30133,"lon":5.37415,"is_reserved":false,"is_disabled":false,"rental_uris":{"android":"levelo://app?vid=b9a2f865-c825-4e52-adb3-248f6c992a98","ios":"levelo://app?vid=b9a2f865-c825-4e52-adb3-248f6c992a98"},"vehicle_type_id":"4","last_reported":1740823745,"current_range_meters":14800,"station_id":"ce4bgs92rcd13ifvqcc0","pricing_plan_id":"cebpf4jnsgd1na2vs0mg"},{"bike_id":"4e451a96-d2c5-4f88-9b10-72806f760889","system_id":"levelo_inurba_marseille","lat":43.28936,"lon":5.39631,"is_reserved":false,"is_disabled":false,"rental_uris":{"android":"levelo://app?vid=4e451a96-d2c5-4f88-9b10-72806f760889","ios":"levelo://app?vid=4e451a96-d2c5-4f88-9b10-72806f760889"},"vehicle_type_id":"4","last_reported":1740823745,"current_range_meters":14800,"station_id":"ce4bh3h2rcd13ifvqdn0","pricing_plan_id":"cebpf4jnsgd1na2vs0mg"},{"bike_id":"25c32c50-c063-4eec-b4e6-d2ef5866ed78","system_id":"levelo_inurba_marseille","lat":43.28084,"lon":5.36929,"is_reserved":false,"is_disabled":false,"rental_uris":{"android":"levelo://app?vid=25c32c50-c063-4eec-b4e6-d2ef5866ed78","ios":"levelo://app?vid=25c32c50-c063-4eec-b4e6-d2ef5866ed78"},"vehicle_type_id":"4","last_reported":1740823745,"current_range_meters":14800,"station_id":"ce4bha12rcd13ifvqef0","pricing_plan_id":"cebpf4jnsgd1na2vs0mg"},{"bike_id":"6b5153e3-633b-4f16-8620-51cd3d706d5a","system_id":"levelo_inurba_marseille","lat":43.29005,"lon":5.35608,"is_reserved":false,"is_disabled":false,"rental_uris":{"android":"levelo://app?vid=6b5153e3-633b-4f16-8620-51cd3d706d5a","ios":"levelo://app?vid=6b5153e3-633b-4f16-8620-51cd3d706d5a"},"vehicle_type_id":"4","last_reported":1740823745,"current_range_meters":14800,"station_id":"ce4bhb92rcd13ifvqen0","pricing_plan_id":"cebpf4jnsgd1na2vs0mg"},{"bike_id":"6a1cfe44-86e0-4971-9ab3-9a60238bf829","system_id":"levelo_inurba_marseille","lat":43.27213,"lon":5.39183,"is_reserved":false,"is_disabled":false,"rental_uris":{"android":"levelo://app?vid=6a1cfe44-86e0-4971-9ab3-9a60238bf829","ios":"levelo://app?vid=6a1cfe44-86e0-4971-9ab3-9a60238bf829"},"vehicle_type_id":"4","last_reported":1740823745,"current_range_meters":14800,"station_id":"ce4bhhp2rcd13ifvqfm0","pricing_plan_id":"cebpf4jnsgd1na2vs0mg"},{"bike_id":"4c8811a4-c1ee-48e5-bb0a-2d1c195d8f19","system_id":"levelo_inurba_marseille","lat":43.30152,"lon":5.38093,"is_reserved":false,"is_disabled":false,"rental_uris":{"android":"levelo://app?vid=4c8811a4-c1ee-48e5-bb0a-2d1c195d8f19","ios":"levelo://app?vid=4c8811a4-c1ee-48e5-bb0a-2d1c195d8f19"},"vehicle_type_id":"4","last_reported":1740823745,"current_range_meters":15200,"station_id":"ce4bgjp2rcd13ifvqbh0","pricing_plan_id":"cebpf4jnsgd1na2vs0mg"},{"bike_id":"f7bc7081-0b8f-4bad-a8c7-1cfce583294a","system_id":"levelo_inurba_marseille","lat":43.31309,"lon":5.39724,"is_reserved":false,"is_disabled":false,"rental_uris":{"android":"levelo://app?vid=f7bc7081-0b8f-4bad-a8c7-1cfce583294a","ios":"levelo://app?vid=f7bc7081-0b8f-4bad-a8c7-1cfce583294a"},"vehicle_type_id":"4","last_reported":1740823745,"current_range_meters":15200,"station_id":"ce4bgvp2rcd13ifvqcu0","pricing_plan_id":"cebpf4jnsgd1na2vs0mg"},{"bike_id":"8a4f336c-67b9-434d-a079-a38d1176a23f","system_id":"levelo_inurba_marseille","lat":43.27561,"lon":5.38438,"is_reserved":false,"is_disabled":false,"rental_uris":{"android":"levelo://app?vid=8a4f336c-67b9-434d-a079-a38d1176a23f","ios":"levelo://app?vid=8a4f336c-67b9-434d-a079-a38d1176a23f"},"vehicle_type_id":"4","last_reported":1740823745,"current_range_meters":15200,"station_id":"ce4bhh92rcd13ifvqfi0","pricing_plan_id":"cebpf4jnsgd1na2vs0mg"},{"bike_id":"c5615b99-417a-4cfc-9966-23e9168d5ad2","system_id":"levelo_inurba_marseille","lat":43.26938,"lon":5.38912,"is_reserved":false,"is_disabled":false,"rental_uris":{"android":"levelo://app?vid=c5615b99-417a-4cfc-9966-23e9168d5ad2","ios":"levelo://app?vid=c5615b99-417a-4cfc-9966-23e9168d5ad2"},"vehicle_type_id":"4","last_reported":1740823745,"current_range_meters":15200,"station_id":"ce4bhhh2rcd13ifvqfl0","pricing_plan_id":"cebpf4jnsgd1na2vs0mg"},{"bike_id":"06966aef-abea-4de4-a4fd-7f423e2ffe3c","system_id":"levelo_inurba_marseille","lat":43.30635,"lon":5.40088,"is_reserved":false,"is_disabled":false,"rental_uris":{"android":"levelo://app?vid=06966aef-abea-4de4-a4fd-7f423e2ffe3c","ios":"levelo://app?vid=06966aef-abea-4de4-a4fd-7f423e2ffe3c"},"vehicle_type_id":"4","last_reported":1740823745,"current_range_meters":16000,"station_id":"ce4bh112rcd13ifvqda0","pricing_plan_id":"cebpf4jnsgd1na2vs0mg"},{"bike_id":"f33cd282-d3c1-4eaa-ac47-1daa664c76dd","system_id":"levelo_inurba_marseille","lat":43.2849,"lon":5.3842,"is_reserved":false,"is_disabled":false,"rental_uris":{"android":"levelo://app?vid=f33cd282-d3c1-4eaa-ac47-1daa664c76dd","ios":"levelo://app?vid=f33cd282-d3c1-4eaa-ac47-1daa664c76dd"},"vehicle_type_id":"4","last_reported":1740823745,"current_range_meters":16000,"station_id":"ce4bh512rcd13ifvqe3g","pricing_plan_id":"cebpf4jnsgd1na2vs0mg"},{"bike_id":"e0a413a7-bc6b-4647-8e86-c0926ac098ec","system_id":"levelo_inurba_marseille","lat":43.29274,"lon":5.3685,"is_reserved":false,"is_disabled":false,"rental_uris":{"android":"levelo://app?vid=e0a413a7-bc6b-4647-8e86-c0926ac098ec","ios":"levelo://app?vid=e0a413a7-bc6b-4647-8e86-c0926ac098ec"},"vehicle_type_id":"4","last_reported":1740823745,"current_range_meters":16000,"station_id":"ce4bhbp2rcd13ifvqesg","pricing_plan_id":"cebpf4jnsgd1na2vs0mg"},{"bike_id":"f2dbb5c1-85bd-4932-a486-f12d2a4aba79","system_id":"levelo_inurba_marseille","lat":43.27904,"lon":5.39569,"is_reserved":false,"is_disabled":false,"rental_uris":{"android":"levelo://app?vid=f2dbb5c1-85bd-4932-a486-f12d2a4aba79","ios":"levelo://app?vid=f2dbb5c1-85bd-4932-a486-f12d2a4aba79"},"vehicle_type_id":"4","last_reported":1740823745,"current_range_meters":16000,"station_id":"ce4bhf92rcd13ifvqf40","pricing_plan_id":"cebpf4jnsgd1na2vs0mg"},{"bike_id":"d51810e2-afaa-46c1-a725-883c3d39661b","system_id":"levelo_inurba_marseille","lat":43.25025,"lon":5.38947,"is_reserved":false,"is_disabled":false,"rental_uris":{"android":"levelo://app?vid=d51810e2-afaa-46c1-a725-883c3d39661b","ios":"levelo://app?vid=d51810e2-afaa-46c1-a725-883c3d39661b"},"vehicle_type_id":"4","last_reported":1740823745,"current_range_meters":16000,"station_id":"ce4bhgp2rcd13ifvqfd0","pricing_plan_id":"cebpf4jnsgd1na2vs0mg"},{"bike_id":"4f7a7916-8b42-41df-8e78-8abb80968778","system_id":"levelo_inurba_marseille","lat":43.23153,"lon":5.43706,"is_reserved":false,"is_disabled":false,"rental_uris":{"android":"levelo://app?vid=4f7a7916-8b42-41df-8e78-8abb80968778","ios":"levelo://app?vid=4f7a7916-8b42-41df-8e78-8abb80968778"},"vehicle_type_id":"4","last_reported":1740823745,"current_range_meters":16000,"station_id":"ce4bhmp2rcd13ifvqgog","pricing_plan_id":"cebpf4jnsgd1na2vs0mg"},{"bike_id":"922879e2-d5c1-4e33-9200-89123eb4fac1","system_id":"levelo_inurba_marseille","lat":43.34171,"lon":5.40904,"is_reserved":false,"is_disabled":false,"rental_uris":{"android":"levelo://app?vid=922879e2-d5c1-4e33-9200-89123eb4fac1","ios":"levelo://app?vid=922879e2-d5c1-4e33-9200-89123eb4fac1"},"vehicle_type_id":"4","last_reported":1740823745,"current_range_meters":16000,"station_id":"ce4bhqh2rcd13ifvqhlg","pricing_plan_id":"cebpf4jnsgd1na2vs0mg"},{"bike_id":"c66d6c0d-406f-4036-9232-a25a1942573b","system_id":"levelo_inurba_marseille","lat":43.22933,"lon":5.35381,"is_reserved":false,"is_disabled":false,"rental_uris":{"android":"levelo://app?vid=c66d6c0d-406f-4036-9232-a25a1942573b","ios":"levelo://app?vid=c66d6c0d-406f-4036-9232-a25a1942573b"},"vehicle_type_id":"4","last_reported":1740823745,"current_range_meters":16000,"station_id":"cpo3532slgdg3j2ikp40","pricing_plan_id":"cebpf4jnsgd1na2vs0mg"},{"bike_id":"85b1c653-bf37-475f-ae32-212cc2895e84","system_id":"levelo_inurba_marseille","lat":43.30421,"lon":5.39754,"is_reserved":false,"is_disabled":false,"rental_uris":{"android":"levelo://app?vid=85b1c653-bf37-475f-ae32-212cc2895e84","ios":"levelo://app?vid=85b1c653-bf37-475f-ae32-212cc2895e84"},"vehicle_type_id":"4","last_reported":1740823745,"current_range_meters":16400,"station_id":"","pricing_plan_id":"cebpf4jnsgd1na2vs0mg"},{"bike_id":"f4982309-5f3b-4415-94b1-3c0c89a0d672","system_id":"levelo_inurba_marseille","lat":43.26808,"lon":5.40673,"is_reserved":false,"is_disabled":false,"rental_uris":{"android":"levelo://app?vid=f4982309-5f3b-4415-94b1-3c0c89a0d672","ios":"levelo://app?vid=f4982309-5f3b-4415-94b1-3c0c89a0d672"},"vehicle_type_id":"4","last_reported":1740823745,"current_range_meters":16400,"station_id":"","pricing_plan_id":"cebpf4jnsgd1na2vs0mg"},{"bike_id":"947cfbd8-f780-40ed-b425-ca551a5b9765","system_id":"levelo_inurba_marseille","lat":43.30139,"lon":5.38099,"is_reserved":false,"is_disabled":false,"rental_uris":{"android":"levelo://app?vid=947cfbd8-f780-40ed-b425-ca551a5b9765","ios":"levelo://app?vid=947cfbd8-f780-40ed-b425-ca551a5b9765"},"vehicle_type_id":"4","last_reported":1740823745,"current_range_meters":16400,"station_id":"ce4bgjp2rcd13ifvqbh0","pricing_plan_id":"cebpf4jnsgd1na2vs0mg"},{"bike_id":"ab8bd1e7-5a94-4820-b9b1-2f83a37d298a","system_id":"levelo_inurba_marseille","lat":43.29592,"lon":5.38103,"is_reserved":false,"is_disabled":false,"rental_uris":{"android":"levelo://app?vid=ab8bd1e7-5a94-4820-b9b1-2f83a37d298a","ios":"levelo://app?vid=ab8bd1e7-5a94-4820-b9b1-2f83a37d298a"},"vehicle_type_id":"4","last_reported":1740823745,"current_range_meters":16400,"station_id":"ce4bgl12rcd13ifvqbo0","pricing_plan_id":"cebpf4jnsgd1na2vs0mg"},{"bike_id":"3179d4f5-29cc-403f-a6a8-c76dff2a7914","system_id":"levelo_inurba_marseille","lat":43.29539,"lon":5.39403,"is_reserved":false,"is_disabled":false,"rental_uris":{"android":"levelo://app?vid=3179d4f5-29cc-403f-a6a8-c76dff2a7914","ios":"levelo://app?vid=3179d4f5-29cc-403f-a6a8-c76dff2a7914"},"vehicle_type_id":"4","last_reported":1740823745,"current_range_meters":16400,"station_id":"ce4bh292rcd13ifvqdf0","pricing_plan_id":"cebpf4jnsgd1na2vs0mg"},{"bike_id":"ba677ebe-e546-423e-b18c-4e3ac6aa2d55","system_id":"levelo_inurba_marseille","lat":43.2722,"lon":5.39181,"is_reserved":false,"is_disabled":false,"rental_uris":{"android":"levelo://app?vid=ba677ebe-e546-423e-b18c-4e3ac6aa2d55","ios":"levelo://app?vid=ba677ebe-e546-423e-b18c-4e3ac6aa2d55"},"vehicle_type_id":"4","last_reported":1740823745,"current_range_meters":16400,"station_id":"ce4bhhp2rcd13ifvqfm0","pricing_plan_id":"cebpf4jnsgd1na2vs0mg"},{"bike_id":"0217712e-5017-4ef4-84e0-eaedbfc62796","system_id":"levelo_inurba_marseille","lat":43.25714,"lon":5.41119,"is_reserved":false,"is_disabled":false,"rental_uris":{"android":"levelo://app?vid=0217712e-5017-4ef4-84e0-eaedbfc62796","ios":"levelo://app?vid=0217712e-5017-4ef4-84e0-eaedbfc62796"},"vehicle_type_id":"4","last_reported":1740823745,"current_range_meters":16400,"station_id":"ce4bhkp2rcd13ifvqgd0","pricing_plan_id":"cebpf4jnsgd1na2vs0mg"},{"bike_id":"17e689ed-0e6f-4bd4-b63e-3f839f696850","system_id":"levelo_inurba_marseille","lat":43.27809,"lon":5.40712,"is_reserved":false,"is_disabled":false,"rental_uris":{"android":"levelo://app?vid=17e689ed-0e6f-4bd4-b63e-3f839f696850","ios":"levelo://app?vid=17e689ed-0e6f-4bd4-b63e-3f839f696850"},"vehicle_type_id":"4","last_reported":1740823745,"current_range_meters":16400,"station_id":"ce4bhnh2rcd13ifvqgtg","pricing_plan_id":"cebpf4jnsgd1na2vs0mg"},{"bike_id":"0b59b9c1-ba87-4c20-8d7f-cddd7ccc8fa2","system_id":"levelo_inurba_marseille","lat":43.32383,"lon":5.3891,"is_reserved":false,"is_disabled":false,"rental_uris":{"android":"levelo://app?vid=0b59b9c1-ba87-4c20-8d7f-cddd7ccc8fa2","ios":"levelo://app?vid=0b59b9c1-ba87-4c20-8d7f-cddd7ccc8fa2"},"vehicle_type_id":"4","last_reported":1740823745,"current_range_meters":16400,"station_id":"ce4bhqp2rcd13ifvqhog","pricing_plan_id":"cebpf4jnsgd1na2vs0mg"},{"bike_id":"b09bb043-9541-4a18-8854-dc56e418ac47","system_id":"levelo_inurba_marseille","lat":43.29307,"lon":5.37172,"is_reserved":false,"is_disabled":false,"rental_uris":{"android":"levelo://app?vid=b09bb043-9541-4a18-8854-dc56e418ac47","ios":"levelo://app?vid=b09bb043-9541-4a18-8854-dc56e418ac47"},"vehicle_type_id":"4","last_reported":1740823745,"current_range_meters":16800,"station_id":"ce4bgh92rcd13ifvqb40","pricing_plan_id":"cebpf4jnsgd1na2vs0mg"},{"bike_id":"37f9795e-bf74-466a-9548-642847169a5c","system_id":"levelo_inurba_marseille","lat":43.2978,"lon":5.40411,"is_reserved":false,"is_disabled":false,"rental_uris":{"android":"levelo://app?vid=37f9795e-bf74-466a-9548-642847169a5c","ios":"levelo://app?vid=37f9795e-bf74-466a-9548-642847169a5c"},"vehicle_type_id":"4","last_reported":1740823745,"current_range_meters":16800,"station_id":"ce4bh112rcd13ifvqd90","pricing_plan_id":"cebpf4jnsgd1na2vs0mg"},{"bike_id":"4a9d5b58-f562-4cdf-81e8-fa99124d4a5d","system_id":"levelo_inurba_marseille","lat":43.25498,"lon":5.37651,"is_reserved":false,"is_disabled":false,"rental_uris":{"android":"levelo://app?vid=4a9d5b58-f562-4cdf-81e8-fa99124d4a5d","ios":"levelo://app?vid=4a9d5b58-f562-4cdf-81e8-fa99124d4a5d"},"vehicle_type_id":"4","last_reported":1740823745,"current_range_meters":16800,"station_id":"ce4bhh12rcd13ifvqff0","pricing_plan_id":"cebpf4jnsgd1na2vs0mg"},{"bike_id":"27d57ba8-cb2b-4da3-bcfc-1efd3956d0fa","system_id":"levelo_inurba_marseille","lat":43.29563,"lon":5.42305,"is_reserved":false,"is_disabled":false,"rental_uris":{"android":"levelo://app?vid=27d57ba8-cb2b-4da3-bcfc-1efd3956d0fa","ios":"levelo://app?vid=27d57ba8-cb2b-4da3-bcfc-1efd3956d0fa"},"vehicle_type_id":"4","last_reported":1740823745,"current_range_meters":16800,"station_id":"ce4bhph2rcd13ifvqhdg","pricing_plan_id":"cebpf4jnsgd1na2vs0mg"},{"bike_id":"56fd48ea-c1d2-4f38-bf8e-16eb3f61656f","system_id":"levelo_inurba_marseille","lat":43.23191,"lon":5.35557,"is_reserved":false,"is_disabled":false,"rental_uris":{"android":"levelo://app?vid=56fd48ea-c1d2-4f38-bf8e-16eb3f61656f","ios":"levelo://app?vid=56fd48ea-c1d2-4f38-bf8e-16eb3f61656f"},"vehicle_type_id":"4","last_reported":1740823745,"current_range_meters":16800,"station_id":"ce4bhu92rcd13ifvqi70","pricing_plan_id":"cebpf4jnsgd1na2vs0mg"},{"bike_id":"cfb78254-0f82-46b0-9a2c-ac71fa0123cd","system_id":"levelo_inurba_marseille","lat":43.29303,"lon":5.37436,"is_reserved":false,"is_disabled":false,"rental_uris":{"android":"levelo://app?vid=cfb78254-0f82-46b0-9a2c-ac71fa0123cd","ios":"levelo://app?vid=cfb78254-0f82-46b0-9a2c-ac71fa0123cd"},"vehicle_type_id":"4","last_reported":1740823745,"current_range_meters":17200,"station_id":"ce4bgi12rcd13ifvqb70","pricing_plan_id":"cebpf4jnsgd1na2vs0mg"},{"bike_id":"4d521f01-decf-4de3-8f6e-d8453f555dd6","system_id":"levelo_inurba_marseille","lat":43.2962,"lon":5.38088,"is_reserved":false,"is_disabled":false,"rental_uris":{"android":"levelo://app?vid=4d521f01-decf-4de3-8f6e-d8453f555dd6","ios":"levelo://app?vid=4d521f01-decf-4de3-8f6e-d8453f555dd6"},