{"last_updated":1686679709,"ttl":30,"version":"2.2","data":{"bikes":[{"bike_id":"f198fc50-df75-48fa-9e81-28507a7fb00c","system_id":"levelo_inurba_marseille","lat":43.31341,"lon":5.367098,"is_reserved":false,"is_disabled":false,"rental_uris":{"android":"levelo://app?vid=f198fc50-df75-48fa-9e81-28507a7fb00c","ios":"levelo://app?vid=f198fc50-df75-48fa-9e81-28507a7fb00c"},"vehicle_type_id":"4","last_reported":1686679710,"current_range_meters":6400,"station_id":"ce4bgr92rcd13ifvqc6g","pricing_plan_id":"free"},{"bike_id":"a142fcc1-dd44-4e45-a4d3-f750f9811ffe","system_id":"levelo_inurba_marseille","lat":43.31225,"lon":5.36806,"is_reserved":false,"is_disabled":false,"rental_uris":{"android":"levelo://app?vid=a142fcc1-dd44-4e45-a4d3-f750f9811ffe","ios":"levelo://app?vid=a142fcc1-dd44-4e45-a4d3-f750f9811ffe"},"vehicle_type_id":"4","last_reported":1686679710,"current_range_meters":11600,"station_id":"","pricing_plan_id":"free"},{"bike_id":"2236174f-9b48-4e77-bc47-17f9275c2cb6","system_id":"levelo_inurba_marseille","lat":43.309076,"lon":5.368465,"is_reserved":false,"is_disabled":false,"rental_uris":{"android":"levelo://app?vid=2236174f-9b48-4e77-bc47-17f9275c2cb6","ios":"levelo://app?vid=2236174f-9b48-4e77-bc47-17f9275c2cb6"},"vehicle_type_id":"4","last_reported":1686679710,"current_range_meters":1200,"station_id":"ce4bgn92rcd13ifvqbvg","pricing_plan_id":"free"},{"bike_id":"5bf8b6b5-e4a6-4e54-9f23-7a2e4632bdfa","system_id":"levelo_inurba_marseille","lat":43.309076,"lon":5.368465,"is_reserved":false,"is_disabled":false,"rental_uris":{"android":"levelo://app?vid=5bf8b6b5-e4a6-4e54-9f23-7a2e4632bdfa","ios":"levelo://app?vid=5bf8b6b5-e4a6-4e54-9f23-7a2e4632bdfa"},"vehicle_type_id":"4","last_reported":1686679710,"current_range_meters":29600,"station_id":"ce4bgn92rcd13ifvqbvg","pricing_plan_id":"free"},{"bike_id":"61a2b215-f47f-46a1-9e77-c912e57e0f84","system_id":"levelo_inurba_marseille","lat":43.30884,"lon":5.3686,"is_reserved":false,"is_disabled":false,"rental_uris":{"android":"levelo://app?vid=61a2b215-f47f-46a1-9e77-c912e57e0f84","ios":"levelo://app?vid=61a2b215-f47f-46a1-9e77-c912e57e0f84"},"vehicle_type_id":"4","last_reported":1686679710,"current_range_meters":21200,"station_id":"","pricing_plan_id":"free"},{"bike_id":"71c5fd5f-0c5a-4734-bffb-8e34fe3b3731","system_id":"levelo_inurba_marseille","lat":43.314811,"lon":5.373103,"is_reserved":false,"is_disabled":false,"rental_uris":{"android":"levelo://app?vid=71c5fd5f-0c5a-4734-bffb-8e34fe3b3731","ios":"levelo://app?vid=71c5fd5f-0c5a-4734-bffb-8e34fe3b3731"},"vehicle_type_id":"4","last_reported":1686679710,"current_range_meters":3600,"station_id":"ce4bgt12rcd13ifvqcd0","pricing_plan_id":"free"},{"bike_id":"c467708f-edb2-41e1-9886-5f26b940ab77","system_id":"levelo_inurba_marseille","lat":43.31687,"lon":5.37217,"is_reserved":false,"is_disabled":false,"rental_uris":{"android":"levelo://app?vid=c467708f-edb2-41e1-9886-5f26b940ab77","ios":"levelo://app?vid=c467708f-edb2-41e1-9886-5f26b940ab77"},"vehicle_type_id":"4","last_reported":1686679710,"current_range_meters":25200,"station_id":"","pricing_plan_id":"free"},{"bike_id":"b81f946f-64cf-4e0b-baa9-17ca19b957cb","system_id":"levelo_inurba_marseille","lat":43.30796,"lon":5.37159,"is_reserved":false,"is_disabled":false,"rental_uris":{"android":"levelo://app?vid=b81f946f-64cf-4e0b-baa9-17ca19b957cb","ios":"levelo://app?vid=b81f946f-64cf-4e0b-baa9-17ca19b957cb"},"vehicle_type_id":"4","last_reported":1686679710,"current_range_meters":20400,"station_id":"","pricing_plan_id":"free"},{"bike_id":"78156a77-5520-42b8-91ad-9bcf5fcadf52","system_id":"levelo_inurba_marseille","lat":43.305368,"lon":5.367343,"is_reserved":false,"is_disabled":false,"rental_uris":{"android":"levelo://app?vid=78156a77-5520-42b8-91ad-9bcf5fcadf52","ios":"levelo://app?vid=78156a77-5520-42b8-91ad-9bcf5fcadf52"},"vehicle_type_id":"4","last_reported":1686679710,"current_range_meters":11600,"station_id":"ce4bgrp2rcd13ifvqc9g","pricing_plan_id":"free"},{"bike_id":"76f5681c-8d7c-4b1e-812c-d50673a300b9","system_id":"levelo_inurba_marseille","lat":43.305368,"lon":5.367343,"is_reserved":false,"is_disabled":false,"rental_uris":{"android":"levelo://app?vid=76f5681c-8d7c-4b1e-812c-d50673a300b9","ios":"levelo://app?vid=76f5681c-8d7c-4b1e-812c-d50673a300b9"},"vehicle_type_id":"4","last_reported":1686679710,"current_range_meters":25600,"station_id":"ce4bgrp2rcd13ifvqc9g","pricing_plan_id":"free"},{"bike_id":"87d9d0d6-b975-486e-ad83-5839927f3f23","system_id":"levelo_inurba_marseille","lat":43.305706,"lon":5.365654,"is_reserved":false,"is_disabled":false,"rental_uris":{"android":"levelo://app?vid=87d9d0d6-b975-486e-ad83-5839927f3f23","ios":"levelo://app?vid=87d9d0d6-b975-486e-ad83-5839927f3f23"},"vehicle_type_id":"4","last_reported":1686679710,"current_range_meters":0,"station_id":"ce4bgs12rcd13ifvqcag","pricing_plan_id":"free"},{"bike_id":"24b5a833-fbb4-41ab-a944-eef5346c8c23","system_id":"levelo_inurba_marseille","lat":43.3175,"lon":5.37506,"is_reserved":false,"is_disabled":false,"rental_uris":{"android":"levelo://app?vid=24b5a833-fbb4-41ab-a944-eef5346c8c23","ios":"levelo://app?vid=24b5a833-fbb4-41ab-a944-eef5346c8c23"},"vehicle_type_id":"4","last_reported":1686679710,"current_range_meters":9600,"station_id":"","pricing_plan_id":"free"},{"bike_id":"25f01d42-b32d-4e3e-b724-9b0a55e82783","system_id":"levelo_inurba_marseille","lat":43.305989,"lon":5.37225,"is_reserved":false,"is_disabled":false,"rental_uris":{"android":"levelo://app?vid=25f01d42-b32d-4e3e-b724-9b0a55e82783","ios":"levelo://app?vid=25f01d42-b32d-4e3e-b724-9b0a55e82783"},"vehicle_type_id":"4","last_reported":1686679710,"current_range_meters":31200,"station_id":"ce4bgqh2rcd13ifvqc4g","pricing_plan_id":"free"},{"bike_id":"4a754460-fadd-46aa-8025-e29151f697b6","system_id":"levelo_inurba_marseille","lat":43.317075,"lon":5.377367,"is_reserved":false,"is_disabled":false,"rental_uris":{"android":"levelo://app?vid=4a754460-fadd-46aa-8025-e29151f697b6","ios":"levelo://app?vid=4a754460-fadd-46aa-8025-e29151f697b6"},"vehicle_type_id":"4","last_reported":1686679710,"current_range_meters":31600,"station_id":"ce4bgth2rcd13ifvqch0","pricing_plan_id":"free"},{"bike_id":"996950c0-0ee1-42c6-a2b2-b76a6079cfcf","system_id":"levelo_inurba_marseille","lat":43.317075,"lon":5.377367,"is_reserved":false,"is_disabled":false,"rental_uris":{"android":"levelo://app?vid=996950c0-0ee1-42c6-a2b2-b76a6079cfcf","ios":"levelo://app?vid=996950c0-0ee1-42c6-a2b2-b76a6079cfcf"},"vehicle_type_id":"4","last_reported":1686679710,"current_range_meters":13200,"station_id":"ce4bgth2rcd13ifvqch0","pricing_plan_id":"free"},{"bike_id":"2424216c-0462-4ad0-b127-d0366c91b61c","system_id":"levelo_inurba_marseille","lat":43.317075,"lon":5.377367,"is_reserved":false,"is_disabled":false,"rental_uris":{"android":"levelo://app?vid=2424216c-0462-4ad0-b127-d0366c91b61c","ios":"levelo://app?vid=2424216c-0462-4ad0-b127-d0366c91b61c"},"vehicle_type_id":"4","last_reported":1686679710,"current_range_meters":29600,"station_id":"ce4bgth2rcd13ifvqch0","pricing_plan_id":"free"},{"bike_id":"ff78f526-10b8-468f-b250-f826397e5fbc","system_id":"levelo_inurba_marseille","lat":43.31869,"lon":5.37713,"is_reserved":false,"is_disabled":false,"rental_uris":{"android":"levelo://app?vid=ff78f526-10b8-468f-b250-f826397e5fbc","ios":"levelo://app?vid=ff78f526-10b8-468f-b250-f826397e5fbc"},"vehicle_type_id":"4","last_reported":1686679710,"current_range_meters":17600,"station_id":"","pricing_plan_id":"free"},{"bike_id":"09e2162d-8797-43ad-977d-8ed6ed96204e","system_id":"levelo_inurba_marseille","lat":43.30312,"lon":5.3689,"is_reserved":false,"is_disabled":false,"rental_uris":{"android":"levelo://app?vid=09e2162d-8797-43ad-977d-8ed6ed96204e","ios":"levelo://app?vid=09e2162d-8797-43ad-977d-8ed6ed96204e"},"vehicle_type_id":"4","last_reported":1686679710,"current_range_meters":17200,"station_id":"ce4bgqh2rcd13ifvqc5g","pricing_plan_id":"free"},{"bike_id":"257c3ad1-86d1-4617-bbcb-a967ad0a0e58","system_id":"levelo_inurba_marseille","lat":43.30307,"lon":5.36879,"is_reserved":false,"is_disabled":false,"rental_uris":{"android":"levelo://app?vid=257c3ad1-86d1-4617-bbcb-a967ad0a0e58","ios":"levelo://app?vid=257c3ad1-86d1-4617-bbcb-a967ad0a0e58"},"vehicle_type_id":"4","last_reported":1686679710,"current_range_meters":20400,"station_id":"ce4bgqh2rcd13ifvqc5g","pricing_plan_id":"free"},{"bike_id":"d137a82b-fd6f-4f6c-b7a2-8e7161bef1cc","system_id":"levelo_inurba_marseille","lat":43.303046,"lon":5.368981,"is_reserved":false,"is_disabled":false,"rental_uris":{"android":"levelo://app?vid=d137a82b-fd6f-4f6c-b7a2-8e7161bef1cc","ios":"levelo://app?vid=d137a82b-fd6f-4f6c-b7a2-8e7161bef1cc"},"vehicle_type_id":"4","last_reported":1686679710,"current_range_meters":17600,"station_id":"ce4bgqh2rcd13ifvqc5g","pricing_plan_id":"free"},{"bike_id":"b8b4c357-cab4-440b-b794-6f9296c7c236","system_id":"levelo_inurba_marseille","lat":43.303046,"lon":5.368981,"is_reserved":false,"is_disabled":false,"rental_uris":{"android":"levelo://app?vid=b8b4c357-cab4-440b-b794-6f9296c7c236","ios":"levelo://app?vid=b8b4c357-cab4-440b-b794-6f9296c7c236"},"vehicle_type_id":"4","last_reported":1686679710,"current_range_meters":26000,"station_id":"ce4bgqh2rcd13ifvqc5g","pricing_plan_id":"free"},{"bike_id":"97d2b6d9-71fa-4b60-be9d-101ba7e47a06","system_id":"levelo_inurba_marseille","lat":43.31531,"lon":5.38028,"is_reserved":false,"is_disabled":false,"rental_uris":{"android":"levelo://app?vid=97d2b6d9-71fa-4b60-be9d-101ba7e47a06","ios":"levelo://app?vid=97d2b6d9-71fa-4b60-be9d-101ba7e47a06"},"vehicle_type_id":"4","last_reported":1686679710,"current_range_meters":7200,"station_id":"ce4bhsp2rcd13ifvqi50","pricing_plan_id":"free"},{"bike_id":"f6abd20f-e21b-4dbe-a6bc-709e43f579cc","system_id":"levelo_inurba_marseille","lat":43.31595,"lon":5.38053,"is_reserved":false,"is_disabled":false,"rental_uris":{"android":"levelo://app?vid=f6abd20f-e21b-4dbe-a6bc-709e43f579cc","ios":"levelo://app?vid=f6abd20f-e21b-4dbe-a6bc-709e43f579cc"},"vehicle_type_id":"4","last_reported":1686679710,"current_range_meters":29600,"station_id":"","pricing_plan_id":"free"},{"bike_id":"82678d08-e572-4bb2-b77f-349e84dcdd29","system_id":"levelo_inurba_marseille","lat":43.31619,"lon":5.38327,"is_reserved":false,"is_disabled":false,"rental_uris":{"android":"levelo://app?vid=82678d08-e572-4bb2-b77f-349e84dcdd29","ios":"levelo://app?vid=82678d08-e572-4bb2-b77f-349e84dcdd29"},"vehicle_type_id":"4","last_reported":1686679710,"current_range_meters":6400,"station_id":"","pricing_plan_id":"free"},{"bike_id":"e6d5f0fb-c8b3-49d7-b92d-2ef531c05609","system_id":"levelo_inurba_marseille","lat":43.301429,"lon":5.37413,"is_reserved":false,"is_disabled":false,"rental_uris":{"android":"levelo://app?vid=e6d5f0fb-c8b3-49d7-b92d-2ef531c05609","ios":"levelo://app?vid=e6d5f0fb-c8b3-49d7-b92d-2ef531c05609"},"vehicle_type_id":"4","last_reported":1686679710,"current_range_meters":29600,"station_id":"ce4bgs92rcd13ifvqcc0","pricing_plan_id":"free"},{"bike_id":"edfc63d6-3c54-4e3f-bfa5-fd9585ee064c","system_id":"levelo_inurba_marseille","lat":43.319935,"lon":5.381699,"is_reserved":false,"is_disabled":false,"rental_uris":{"android":"levelo://app?vid=edfc63d6-3c54-4e3f-bfa5-fd9585ee064c","ios":"levelo://app?vid=edfc63d6-3c54-4e3f-bfa5-fd9585ee064c"},"vehicle_type_id":"4","last_reported":1686679710,"current_range_meters":10800,"station_id":"ce4bhr12rcd13ifvqhpg","pricing_plan_id":"free"},{"bike_id":"a1426330-3377-4e2c-b3a2-5ce00f827942","system_id":"levelo_inurba_marseille","lat":43.313571,"lon":5.384829,"is_reserved":false,"is_disabled":false,"rental_uris":{"android":"levelo://app?vid=a1426330-3377-4e2c-b3a2-5ce00f827942","ios":"levelo://app?vid=a1426330-3377-4e2c-b3a2-5ce00f827942"},"vehicle_type_id":"4","last_reported":1686679710,"current_range_meters":16000,"station_id":"ce4bgt92rcd13ifvqcf0","pricing_plan_id":"free"},{"bike_id":"692f9216-e4db-44bd-a7bb-707044154d04","system_id":"levelo_inurba_marseille","lat":43.31371,"lon":5.38495,"is_reserved":false,"is_disabled":false,"rental_uris":{"android":"levelo://app?vid=692f9216-e4db-44bd-a7bb-707044154d04","ios":"levelo://app?vid=692f9216-e4db-44bd-a7bb-707044154d04"},"vehicle_type_id":"4","last_reported":1686679710,"current_range_meters":6000,"station_id":"ce4bgt92rcd13ifvqcf0","pricing_plan_id":"free"},{"bike_id":"4f251453-f3b7-4524-aac1-e6bcdf23cebd","system_id":"levelo_inurba_marseille","lat":43.31358,"lon":5.38501,"is_reserved":false,"is_disabled":false,"rental_uris":{"android":"levelo://app?vid=4f251453-f3b7-4524-aac1-e6bcdf23cebd","ios":"levelo://app?vid=4f251453-f3b7-4524-aac1-e6bcdf23cebd"},"vehicle_type_id":"4","last_reported":1686679710,"current_range_meters":5600,"station_id":"ce4bgt92rcd13ifvqcf0","pricing_plan_id":"free"},{"bike_id":"bfdadfa8-fb88-4819-9921-c80521d4982c","system_id":"levelo_inurba_marseille","lat":43.29918,"lon":5.37475,"is_reserved":false,"is_disabled":false,"rental_uris":{"android":"levelo://app?vid=bfdadfa8-fb88-4819-9921-c80521d4982c","ios":"levelo://app?vid=bfdadfa8-fb88-4819-9921-c80521d4982c"},"vehicle_type_id":"4","last_reported":1686679710,"current_range_meters":7200,"station_id":"ce4bgjh2rcd13ifvqbg0","pricing_plan_id":"free"},{"bike_id":"684c2279-dec5-458d-a444-610198a470e2","system_id":"levelo_inurba_marseille","lat":43.311722,"lon":5.387247,"is_reserved":false,"is_disabled":false,"rental_uris":{"android":"levelo://app?vid=684c2279-dec5-458d-a444-610198a470e2","ios":"levelo://app?vid=684c2279-dec5-458d-a444-610198a470e2"},"vehicle_type_id":"4","last_reported":1686679710,"current_range_meters":19200,"station_id":"ce4bgv12rcd13ifvqcp0","pricing_plan_id":"free"},{"bike_id":"b008a40b-52ae-461d-9bb5-99a7bee05b7b","system_id":"levelo_inurba_marseille","lat":43.29866,"lon":5.37474,"is_reserved":false,"is_disabled":false,"rental_uris":{"android":"levelo://app?vid=b008a40b-52ae-461d-9bb5-99a7bee05b7b","ios":"levelo://app?vid=b008a40b-52ae-461d-9bb5-99a7bee05b7b"},"vehicle_type_id":"4","last_reported":1686679710,"current_range_meters":30800,"station_id":"","pricing_plan_id":"free"},{"bike_id":"fc46e66b-7d67-4755-9348-f8e73f2d2793","system_id":"levelo_inurba_marseille","lat":43.297774,"lon":5.370875,"is_reserved":false,"is_disabled":false,"rental_uris":{"android":"levelo://app?vid=fc46e66b-7d67-4755-9348-f8e73f2d2793","ios":"levelo://app?vid=fc46e66b-7d67-4755-9348-f8e73f2d2793"},"vehicle_type_id":"4","last_reported":1686679710,"current_range_meters":2000,"station_id":"ce4bgop2rcd13ifvqc1g","pricing_plan_id":"free"},{"bike_id":"276442ee-92d7-42b0-afe9-df01f0310bb8","system_id":"levelo_inurba_marseille","lat":43.328371,"lon":5.366912,"is_reserved":false,"is_disabled":false,"rental_uris":{"android":"levelo://app?vid=276442ee-92d7-42b0-afe9-df01f0310bb8","ios":"levelo://app?vid=276442ee-92d7-42b0-afe9-df01f0310bb8"},"vehicle_type_id":"4","last_reported":1686679710,"current_range_meters":23200,"station_id":"ce4bhs92rcd13ifvqi0g","pricing_plan_id":"free"},{"bike_id":"aea550fa-13a9-4e84-ae9a-b5279d2b188b","system_id":"levelo_inurba_marseille","lat":43.29718,"lon":5.36602,"is_reserved":false,"is_disabled":false,"rental_uris":{"android":"levelo://app?vid=aea550fa-13a9-4e84-ae9a-b5279d2b188b","ios":"levelo://app?vid=aea550fa-13a9-4e84-ae9a-b5279d2b188b"},"vehicle_type_id":"4","last_reported":1686679710,"current_range_meters":2800,"station_id":"","pricing_plan_id":"free"},{"bike_id":"9bb399e3-a102-46b9-8c84-8e34bedbd042","system_id":"levelo_inurba_marseille","lat":43.328371,"lon":5.366912,"is_reserved":false,"is_disabled":false,"rental_uris":{"android":"levelo://app?vid=9bb399e3-a102-46b9-8c84-8e34bedbd042","ios":"levelo://app?vid=9bb399e3-a102-46b9-8c84-8e34bedbd042"},"vehicle_type_id":"4","last_reported":1686679710,"current_range_meters":11200,"station_id":"ce4bhs92rcd13ifvqi0g","pricing_plan_id":"free"},{"bike_id":"f30e7f38-8dd8-4f53-b31a-4eee3dc949f8","system_id":"levelo_inurba_marseille","lat":43.29703,"lon":5.36604,"is_reserved":false,"is_disabled":false,"rental_uris":{"android":"levelo://app?vid=f30e7f38-8dd8-4f53-b31a-4eee3dc949f8","ios":"levelo://app?vid=f30e7f38-8dd8-4f53-b31a-4eee3dc949f8"},"vehicle_type_id":"4","last_reported":1686679710,"current_range_meters":15600,"station_id":"","pricing_plan_id":"free"},{"bike_id":"88d0330c-5bb0-4a19-9b65-d4683b42e015","system_id":"levelo_inurba_marseille","lat":43.29683,"lon":5.36046,"is_reserved":false,"is_disabled":false,"rental_uris":{"android":"levelo://app?vid=88d0330c-5bb0-4a19-9b65-d4683b42e015","ios":"levelo://app?vid=88d0330c-5bb0-4a19-9b65-d4683b42e015"},"vehicle_type_id":"4","last_reported":1686679710,"current_range_meters":21200,"station_id":"ce4bgpp2rcd13ifvqc3g","pricing_plan_id":"free"},{"bike_id":"5075f3e7-232c-462e-8d99-e4f44d51784f","system_id":"levelo_inurba_marseille","lat":43.29715,"lon":5.37693,"is_reserved":false,"is_disabled":false,"rental_uris":{"android":"levelo://app?vid=5075f3e7-232c-462e-8d99-e4f44d51784f","ios":"levelo://app?vid=5075f3e7-232c-462e-8d99-e4f44d51784f"},"vehicle_type_id":"4","last_reported":1686679710,"current_range_meters":29600,"station_id":"","pricing_plan_id":"free"},{"bike_id":"7dee780b-b920-4a63-b65d-25f43edad414","system_id":"levelo_inurba_marseille","lat":43.309589,"lon":5.390258,"is_reserved":false,"is_disabled":false,"rental_uris":{"android":"levelo://app?vid=7dee780b-b920-4a63-b65d-25f43edad414","ios":"levelo://app?vid=7dee780b-b920-4a63-b65d-25f43edad414"},"vehicle_type_id":"4","last_reported":1686679710,"current_range_meters":14400,"station_id":"ce4bgup2rcd13ifvqco0","pricing_plan_id":"free"},{"bike_id":"7d906863-96c5-4b3c-8f6d-390c544b9a80","system_id":"levelo_inurba_marseille","lat":43.296921,"lon":5.376579,"is_reserved":false,"is_disabled":false,"rental_uris":{"android":"levelo://app?vid=7d906863-96c5-4b3c-8f6d-390c544b9a80","ios":"levelo://app?vid=7d906863-96c5-4b3c-8f6d-390c544b9a80"},"vehicle_type_id":"4","last_reported":1686679710,"current_range_meters":400,"station_id":"ce4bgkh2rcd13ifvqbl0","pricing_plan_id":"free"},{"bike_id":"d3f4d128-e3e0-42f3-90d4-976936865e13","system_id":"levelo_inurba_marseille","lat":43.31748,"lon":5.39017,"is_reserved":false,"is_disabled":false,"rental_uris":{"android":"levelo://app?vid=d3f4d128-e3e0-42f3-90d4-976936865e13","ios":"levelo://app?vid=d3f4d128-e3e0-42f3-90d4-976936865e13"},"vehicle_type_id":"4","last_reported":1686679710,"current_range_meters":8400,"station_id":"ce4bhqp2rcd13ifvqhng","pricing_plan_id":"free"},{"bike_id":"9116a638-ef39-4dbf-ae14-62f74981c925","system_id":"levelo_inurba_marseille","lat":43.31757,"lon":5.39019,"is_reserved":false,"is_disabled":false,"rental_uris":{"android":"levelo://app?vid=9116a638-ef39-4dbf-ae14-62f74981c925","ios":"levelo://app?vid=9116a638-ef39-4dbf-ae14-62f74981c925"},"vehicle_type_id":"4","last_reported":1686679710,"current_range_meters":14400,"station_id":"ce4bhqp2rcd13ifvqhng","pricing_plan_id":"free"},{"bike_id":"3aeb5edb-6189-47cd-bb49-e2a928ab8142","system_id":"levelo_inurba_marseille","lat":43.317557,"lon":5.390173,"is_reserved":false,"is_disabled":false,"rental_uris":{"android":"levelo://app?vid=3aeb5edb-6189-47cd-bb49-e2a928ab8142","ios":"levelo://app?vid=3aeb5edb-6189-47cd-bb49-e2a928ab8142"},"vehicle_type_id":"4","last_reported":1686679710,"current_range_meters":17600,"station_id":"ce4bhqp2rcd13ifvqhng","pricing_plan_id":"free"},{"bike_id":"c53dc16d-2429-4c8e-bb40-2e14de4412e5","system_id":"levelo_inurba_marseille","lat":43.298037,"lon":5.381066,"is_reserved":false,"is_disabled":false,"rental_uris":{"android":"levelo://app?vid=c53dc16d-2429-4c8e-bb40-2e14de4412e5","ios":"levelo://app?vid=c53dc16d-2429-4c8e-bb40-2e14de4412e5"},"vehicle_type_id":"4","last_reported":1686679710,"current_range_meters":30000,"station_id":"ce4bgip2rcd13ifvqbb0","pricing_plan_id":"free"},{"bike_id":"18b29ead-72cf-4436-8495-ca83a4bbbc06","system_id":"levelo_inurba_marseille","lat":43.304274,"lon":5.388873,"is_reserved":false,"is_disabled":false,"rental_uris":{"android":"levelo://app?vid=18b29ead-72cf-4436-8495-ca83a4bbbc06","ios":"levelo://app?vid=18b29ead-72cf-4436-8495-ca83a4bbbc06"},"vehicle_type_id":"4","last_reported":1686679710,"current_range_meters":16800,"station_id":"ce4bgk12rcd13ifvqbi0","pricing_plan_id":"free"},{"bike_id":"e650d4c1-7d7b-4e4d-bb62-5a2c5bb983a1","system_id":"levelo_inurba_marseille","lat":43.296935,"lon":5.376544,"is_reserved":false,"is_disabled":false,"rental_uris":{"android":"levelo://app?vid=e650d4c1-7d7b-4e4d-bb62-5a2c5bb983a1","ios":"levelo://app?vid=e650d4c1-7d7b-4e4d-bb62-5a2c5bb983a1"},"vehicle_type_id":"4","last_reported":1686679710,"current_range_meters":17600,"station_id":"ce4bgkh2rcd13ifvqbl0","pricing_plan_id":"free"},{"bike_id":"0cbfb058-bd23-4cd3-b7b0-be2f1e5bdfce","system_id":"levelo_inurba_marseille","lat":43.296277,"lon":5.377108,"is_reserved":false,"is_disabled":false,"rental_uris":{"android":"levelo://app?vid=0cbfb058-bd23-4cd3-b7b0-be2f1e5bdfce","ios":"levelo://app?vid=0cbfb058-bd23-4cd3-b7b0-be2f1e5bdfce"},"vehicle_type_id":"4","last_reported":1686679710,"current_range_meters":31200,"station_id":"ce4bgi92rcd13ifvqb90","pricing_plan_id":"free"},{"bike_id":"55d430d3-1500-47fd-abf5-d9ec1e90f886","system_id":"levelo_inurba_marseille","lat":43.296263,"lon":5.377094,"is_reserved":false,"is_disabled":false,"rental_uris":{"android":"levelo://app?vid=55d430d3-1500-47fd-abf5-d9ec1e90f886","ios":"levelo://app?vid=55d430d3-1500-47fd-abf5-d9ec1e90f886"},"vehicle_type_id":"4","last_reported":1686679710,"current_range_meters":0,"station_id":"ce4bgi92rcd13ifvqb90","pricing_plan_id":"free"},{"bike_id":"1ea4c9b9-2e6d-4b15-a30d-d2dec9615222","system_id":"levelo_inurba_marseille","lat":43.296263,"lon":5.377094,"is_reserved":false,"is_disabled":false,"rental_uris":{"android":"levelo://app?vid=1ea4c9b9-2e6d-4b15-a30d-d2dec9615222","ios":"levelo://app?vid=1ea4c9b9-2e6d-4b15-a30d-d2dec9615222"},"vehicle_type_id":"4","last_reported":1686679710,"current_range_meters":2000,"station_id":"ce4bgi92rcd13ifvqb90","pricing_plan_id":"free"},{"bike_id":"c5b11464-4d2e-428b-8fbc-4918642859cb","system_id":"levelo_inurba_marseille","lat":43.299717,"lon":5.384845,"is_reserved":false,"is_disabled":false,"rental_uris":{"android":"levelo://app?vid=c5b11464-4d2e-428b-8fbc-4918642859cb","ios":"levelo://app?vid=c5b11464-4d2e-428b-8fbc-4918642859cb"},"vehicle_type_id":"4","last_reported":1686679710,"current_range_meters":4400,"station_id":"ce4bgj92rcd13ifvqbd0","pricing_plan_id":"free"},{"bike_id":"4046d700-3cf1-47cb-85b7-9d1628319f20","system_id":"levelo_inurba_marseille","lat":43.299724,"lon":5.384848,"is_reserved":false,"is_disabled":false,"rental_uris":{"android":"levelo://app?vid=4046d700-3cf1-47cb-85b7-9d1628319f20","ios":"levelo://app?vid=4046d700-3cf1-47cb-85b7-9d1628319f20"},"vehicle_type_id":"4","last_reported":1686679710,"current_range_meters":13200,"station_id":"ce4bgj92rcd13ifvqbd0","pricing_plan_id":"free"},{"bike_id":"d06456ec-a075-49ef-88a6-a611e3db32cf","system_id":"levelo_inurba_marseille","lat":43.32367,"lon":5.388836,"is_reserved":false,"is_disabled":false,"rental_uris":{"android":"levelo://app?vid=d06456ec-a075-49ef-88a6-a611e3db32cf","ios":"levelo://app?vid=d06456ec-a075-49ef-88a6-a611e3db32cf"},"vehicle_type_id":"4","last_reported":1686679710,"current_range_meters":22400,"station_id":"ce4bhqp2rcd13ifvqhog","pricing_plan_id":"free"},{"bike_id":"d733d6f4-b81d-43f0-84f7-c7ab46c7de50","system_id":"levelo_inurba_marseille","lat":43.32367,"lon":5.388836,"is_reserved":false,"is_disabled":false,"rental_uris":{"android":"levelo://app?vid=d733d6f4-b81d-43f0-84f7-c7ab46c7de50","ios":"levelo://app?vid=d733d6f4-b81d-43f0-84f7-c7ab46c7de50"},"vehicle_type_id":"4","last_reported":1686679710,"current_range_meters":3200,"station_id":"ce4bhqp2rcd13ifvqhog","pricing_plan_id":"free"},{"bike_id":"c249ee5d-650e-45b1-accb-7ac50e94d326","system_id":"levelo_inurba_marseille","lat":43.32367,"lon":5.388836,"is_reserved":false,"is_disabled":false,"rental_uris":{"android":"levelo://app?vid=c249ee5d-650e-45b1-accb-7ac50e94d326","ios":"levelo://app?vid=c249ee5d-650e-45b1-accb-7ac50e94d326"},"vehicle_type_id":"4","last_reported":1686679710,"current_range_meters":24400,"station_id":"ce4bhqp2rcd13ifvqhog","pricing_plan_id":"free"},{"bike_id":"2c9ad911-25e0-4222-8751-d809dfadd582","system_id":"levelo_inurba_marseille","lat":43.32367,"lon":5.388836,"is_reserved":false,"is_disabled":false,"rental_uris":{"android":"levelo://app?vid=2c9ad911-25e0-4222-8751-d809dfadd582","ios":"levelo://app?vid=2c9ad911-25e0-4222-8751-d809dfadd582"},"vehicle_type_id":"4","last_reported":1686679710,"current_range_meters":19600,"station_id":"ce4bhqp2rcd13ifvqhog","pricing_plan_id":"free"},{"bike_id":"6f2aff65-68d9-4fa3-9ee1-7d130210b8f6","system_id":"levelo_inurba_marseille","lat":43.293249,"lon":5.371578,"is_reserved":false,"is_disabled":false,"rental_uris":{"android":"levelo://app?vid=6f2aff65-68d9-4fa3-9ee1-7d130210b8f6","ios":"levelo://app?vid=6f2aff65-68d9-4fa3-9ee1-7d130210b8f6"},"vehicle_type_id":"4","last_reported":1686679710,"current_range_meters":4800,"station_id":"ce4bgh92rcd13ifvqb40","pricing_plan_id":"free"},{"bike_id":"428b490f-80fc-4b35-ac34-68911c849f26","system_id":"levelo_inurba_marseille","lat":43.29401,"lon":5.37719,"is_reserved":false,"is_disabled":false,"rental_uris":{"android":"levelo://app?vid=428b490f-80fc-4b35-ac34-68911c849f26","ios":"levelo://app?vid=428b490f-80fc-4b35-ac34-68911c849f26"},"vehicle_type_id":"4","last_reported":1686679710,"current_range_meters":6400,"station_id":"ce4bgjh2rcd13ifvqbf0","pricing_plan_id":"free"},{"bike_id":"557e6f19-b01f-4da5-9a61-f16ab3863897","system_id":"levelo_inurba_marseille","lat":43.2955,"lon":5.38131,"is_reserved":false,"is_disabled":false,"rental_uris":{"android":"levelo://app?vid=557e6f19-b01f-4da5-9a61-f16ab3863897","ios":"levelo://app?vid=557e6f19-b01f-4da5-9a61-f16ab3863897"},"vehicle_type_id":"4","last_reported":1686679710,"current_range_meters":0,"station_id":"","pricing_plan_id":"free"},{"bike_id":"4c503f01-e626-4c58-8a66-89ac8631b1f6","system_id":"levelo_inurba_marseille","lat":43.29309,"lon":5.37457,"is_reserved":false,"is_disabled":false,"rental_uris":{"android":"levelo://app?vid=4c503f01-e626-4c58-8a66-89ac8631b1f6","ios":"levelo://app?vid=4c503f01-e626-4c58-8a66-89ac8631b1f6"},"vehicle_type_id":"4","last_reported":1686679710,"current_range_meters":16800,"station_id":"ce4bgi12rcd13ifvqb70","pricing_plan_id":"free"},{"bike_id":"781c85d1-ea3a-4961-9aee-d8ac601fee2e","system_id":"levelo_inurba_marseille","lat":43.29269,"lon":5.3596,"is_reserved":false,"is_disabled":false,"rental_uris":{"android":"levelo://app?vid=781c85d1-ea3a-4961-9aee-d8ac601fee2e","ios":"levelo://app?vid=781c85d1-ea3a-4961-9aee-d8ac601fee2e"},"vehicle_type_id":"4","last_reported":1686679710,"current_range_meters":13200,"station_id":"","pricing_plan_id":"free"},{"bike_id":"2ea4488a-0cf6-48e1-8c47-4af5b6ac4df8","system_id":"levelo_inurba_marseille","lat":43.302992,"lon":5.392136,"is_reserved":false,"is_disabled":false,"rental_uris":{"android":"levelo://app?vid=2ea4488a-0cf6-48e1-8c47-4af5b6ac4df8","ios":"levelo://app?vid=2ea4488a-0cf6-48e1-8c47-4af5b6ac4df8"},"vehicle_type_id":"4","last_reported":1686679710,"current_range_meters":13200,"station_id":"ce4bgkh2rcd13ifvqbk0","pricing_plan_id":"free"},{"bike_id":"cbd6677b-499a-423e-9163-c9b1ba34c23f","system_id":"levelo_inurba_marseille","lat":43.302992,"lon":5.392136,"is_reserved":false,"is_disabled":false,"rental_uris":{"android":"levelo://app?vid=cbd6677b-499a-423e-9163-c9b1ba34c23f","ios":"levelo://app?vid=cbd6677b-499a-423e-9163-c9b1ba34c23f"},"vehicle_type_id":"4","last_reported":1686679710,"current_range_meters":0,"station_id":"ce4bgkh2rcd13ifvqbk0","pricing_plan_id":"free"},{"bike_id":"c0533b8e-d75f-4bd0-9bca-2b068496e0eb","system_id":"levelo_inurba_marseille","lat":43.302992,"lon":5.392136,"is_reserved":false,"is_disabled":false,"rental_uris":{"android":"levelo://app?vid=c0533b8e-d75f-4bd0-9bca-2b068496e0eb","ios":"levelo://app?vid=c0533b8e-d75f-4bd0-9bca-2b068496e0eb"},"vehicle_type_id":"4","last_reported":1686679710,"current_range_meters":400,"station_id":"ce4bgkh2rcd13ifvqbk0","pricing_plan_id":"free"},{"bike_id":"9509ad3d-cbf9-4665-98ac-4d4ecb6aa669","system_id":"levelo_inurba_marseille","lat":43.31026,"lon":5.3955,"is_reserved":false,"is_disabled":false,"rental_uris":{"android":"levelo://app?vid=9509ad3d-cbf9-4665-98ac-4d4ecb6aa669","ios":"levelo://app?vid=9509ad3d-cbf9-4665-98ac-4d4ecb6aa669"},"vehicle_type_id":"4","last_reported":1686679710,"current_range_meters":3600,"station_id":"","pricing_plan_id":"free"},{"bike_id":"2d87ccce-6bde-4511-984c-2075e0bdee01","system_id":"levelo_inurba_marseille","lat":43.292311,"lon":5.360731,"is_reserved":false,"is_disabled":false,"rental_uris":{"android":"levelo://app?vid=2d87ccce-6bde-4511-984c-2075e0bdee01","ios":"levelo://app?vid=2d87ccce-6bde-4511-984c-2075e0bdee01"},"vehicle_type_id":"4","last_reported":1686679710,"current_range_meters":0,"station_id":"ce4bhbh2rcd13ifvqeqg","pricing_plan_id":"free"},{"bike_id":"283bc49d-571d-4529-9dee-c7c433f616b1","system_id":"levelo_inurba_marseille","lat":43.292311,"lon":5.360731,"is_reserved":false,"is_disabled":false,"rental_uris":{"android":"levelo://app?vid=283bc49d-571d-4529-9dee-c7c433f616b1","ios":"levelo://app?vid=283bc49d-571d-4529-9dee-c7c433f616b1"},"vehicle_type_id":"4","last_reported":1686679710,"current_range_meters":21200,"station_id":"ce4bhbh2rcd13ifvqeqg","pricing_plan_id":"free"},{"bike_id":"de1651c7-0669-4939-a039-e20d830ac636","system_id":"levelo_inurba_marseille","lat":43.30085,"lon":5.390856,"is_reserved":false,"is_disabled":false,"rental_uris":{"android":"levelo://app?vid=de1651c7-0669-4939-a039-e20d830ac636","ios":"levelo://app?vid=de1651c7-0669-4939-a039-e20d830ac636"},"vehicle_type_id":"4","last_reported":1686679710,"current_range_meters":10800,"station_id":"ce4bh192rcd13ifvqdb0","pricing_plan_id":"free"},{"bike_id":"fcc62989-38ed-4ed9-aefe-ec84255642a3","system_id":"levelo_inurba_marseille","lat":43.292311,"lon":5.360731,"is_reserved":false,"is_disabled":false,"rental_uris":{"android":"levelo://app?vid=fcc62989-38ed-4ed9-aefe-ec84255642a3","ios":"levelo://app?vid=fcc62989-38ed-4ed9-aefe-ec84255642a3"},"vehicle_type_id":"4","last_reported":1686679710,"current_range_meters":3600,"station_id":"ce4bhbh2rcd13ifvqeqg","pricing_plan_id":"free"},{"bike_id":"0dc49324-f40a-4b54-b802-2b8d72ff414f","system_id":"levelo_inurba_marseille","lat":43.300852,"lon":5.390859,"is_reserved":false,"is_disabled":false,"rental_uris":{"android":"levelo://app?vid=0dc49324-f40a-4b54-b802-2b8d72ff414f","ios":"levelo://app?vid=0dc49324-f40a-4b54-b802-2b8d72ff414f"},"vehicle_type_id":"4","last_reported":1686679710,"current_range_meters":20800,"station_id":"ce4bh192rcd13ifvqdb0","pricing_plan_id":"free"},{"bike_id":"28f77998-c208-4a6d-a51d-a13474034e54","system_id":"levelo_inurba_marseille","lat":43.298764,"lon":5.388973,"is_reserved":false,"is_disabled":false,"rental_uris":{"android":"levelo://app?vid=28f77998-c208-4a6d-a51d-a13474034e54","ios":"levelo://app?vid=28f77998-c208-4a6d-a51d-a13474034e54"},"vehicle_type_id":"4","last_reported":1686679710,"current_range_meters":0,"station_id":"ce4bh392rcd13ifvqdl0","pricing_plan_id":"free"},{"bike_id":"53c112a0-afd8-4831-92e0-971d99796e3b","system_id":"levelo_inurba_marseille","lat":43.313291,"lon":5.396838,"is_reserved":false,"is_disabled":false,"rental_uris":{"android":"levelo://app?vid=53c112a0-afd8-4831-92e0-971d99796e3b","ios":"levelo://app?vid=53c112a0-afd8-4831-92e0-971d99796e3b"},"vehicle_type_id":"4","last_reported":1686679710,"current_range_meters":13200,"station_id":"ce4bgvp2rcd13ifvqcu0","pricing_plan_id":"free"},{"bike_id":"08161066-584b-42db-9ab6-07331d7189ec","system_id":"levelo_inurba_marseille","lat":43.31325,"lon":5.39689,"is_reserved":false,"is_disabled":false,"rental_uris":{"android":"levelo://app?vid=08161066-584b-42db-9ab6-07331d7189ec","ios":"levelo://app?vid=08161066-584b-42db-9ab6-07331d7189ec"},"vehicle_type_id":"4","last_reported":1686679710,"current_range_meters":0,"station_id":"ce4bgvp2rcd13ifvqcu0","pricing_plan_id":"free"},{"bike_id":"05ed5723-83d0-41ea-be60-46a379fcab4e","system_id":"levelo_inurba_marseille","lat":43.31325,"lon":5.39689,"is_reserved":false,"is_disabled":false,"rental_uris":{"android":"levelo://app?vid=05ed5723-83d0-41ea-be60-46a379fcab4e","ios":"levelo://app?vid=05ed5723-83d0-41ea-be60-46a379fcab4e"},"vehicle_type_id":"4","last_reported":1686679710,"current_range_meters":6400,"station_id":"ce4bgvp2rcd13ifvqcu0","pricing_plan_id":"free"},{"bike_id":"33bb5932-8906-4d4d-82d6-393dd1814643","system_id":"levelo_inurba_marseille","lat":43.313291,"lon":5.396838,"is_reserved":false,"is_disabled":false,"rental_uris":{"android":"levelo://app?vid=33bb5932-8906-4d4d-82d6-393dd1814643","ios":"levelo://app?vid=33bb5932-8906-4d4d-82d6-393dd1814643"},"vehicle_type_id":"4","last_reported":1686679710,"current_range_meters":6800,"station_id":"ce4bgvp2rcd13ifvqcu0","pricing_plan_id":"free"},{"bike_id":"ef263153-4755-4dbd-a50b-5893ee09f169","system_id":"levelo_inurba_marseille","lat":43.313291,"lon":5.396838,"is_reserved":false,"is_disabled":false,"rental_uris":{"android":"levelo://app?vid=ef263153-4755-4dbd-a50b-5893ee09f169","ios":"levelo://app?vid=ef263153-4755-4dbd-a50b-5893ee09f169"},"vehicle_type_id":"4","last_reported":1686679710,"current_range_meters":7600,"station_id":"ce4bgvp2rcd13ifvqcu0","pricing_plan_id":"free"},{"bike_id":"cc3a7d79-b365-4c00-9f71-5cf255917af1","system_id":"levelo_inurba_marseille","lat":43.291994,"lon":5.357886,"is_reserved":false,"is_disabled":false,"rental_uris":{"android":"levelo://app?vid=cc3a7d79-b365-4c00-9f71-5cf255917af1","ios":"levelo://app?vid=cc3a7d79-b365-4c00-9f71-5cf255917af1"},"vehicle_type_id":"4","last_reported":1686679710,"current_range_meters":18800,"station_id":"ce4bhb12rcd13ifvqel0","pricing_plan_id":"free"},{"bike_id":"8ca20143-af0b-4650-b080-c0be659aa7d6","system_id":"levelo_inurba_marseille","lat":43.29537,"lon":5.38538,"is_reserved":false,"is_disabled":false,"rental_uris":{"android":"levelo://app?vid=8ca20143-af0b-4650-b080-c0be659aa7d6","ios":"levelo://app?vid=8ca20143-af0b-4650-b080-c0be659aa7d6"},"vehicle_type_id":"4","last_reported":1686679710,"current_range_meters":14800,"station_id":"ce4bgih2rcd13ifvqba0","pricing_plan_id":"free"},{"bike_id":"fb78a183-b554-4b11-ad61-e6bc308cb64c","system_id":"levelo_inurba_marseille","lat":43.290779,"lon":5.371482,"is_reserved":false,"is_disabled":false,"rental_uris":{"android":"levelo://app?vid=fb78a183-b554-4b11-ad61-e6bc308cb64c","ios":"levelo://app?vid=fb78a183-b554-4b11-ad61-e6bc308cb64c"},"vehicle_type_id":"4","last_reported":1686679710,"current_range_meters":16800,"station_id":"ce4bh5p2rcd13ifvqe4g","pricing_plan_id":"free"},{"bike_id":"f6b7aa41-2165-490b-9aa8-29ea657c8aff","system_id":"levelo_inurba_marseille","lat":43.289184,"lon":5.366408,"is_reserved":false,"is_disabled":false,"rental_uris":{"android":"levelo://app?vid=f6b7aa41-2165-490b-9aa8-29ea657c8aff","ios":"levelo://app?vid=f6b7aa41-2165-490b-9aa8-29ea657c8aff"},"vehicle_type_id":"4","last_reported":1686679710,"current_range_meters":1600,"station_id":"ce4bhap2rcd13ifvqek0","pricing_plan_id":"free"},{"bike_id":"38a73611-09cd-4ca5-9c36-dd1853420473","system_id":"levelo_inurba_marseille","lat":43.289184,"lon":5.366408,"is_reserved":false,"is_disabled":false,"rental_uris":{"android":"levelo://app?vid=38a73611-09cd-4ca5-9c36-dd1853420473","ios":"levelo://app?vid=38a73611-09cd-4ca5-9c36-dd1853420473"},"vehicle_type_id":"4","last_reported":1686679710,"current_range_meters":6800,"station_id":"ce4bhap2rcd13ifvqek0","pricing_plan_id":"free"},{"bike_id":"55275de4-e26d-4ed7-9e3a-5140bda3543f","system_id":"levelo_inurba_marseille","lat":43.2903,"lon":5.37559,"is_reserved":false,"is_disabled":false,"rental_uris":{"android":"levelo://app?vid=55275de4-e26d-4ed7-9e3a-5140bda3543f","ios":"levelo://app?vid=55275de4-e26d-4ed7-9e3a-5140bda3543f"},"vehicle_type_id":"4","last_reported":1686679710,"current_range_meters":6800,"station_id":"ce4bh692rcd13ifvqe90","pricing_plan_id":"free"},{"bike_id":"0d5e3e64-3c92-4eb4-9958-136c92e281f9","system_id":"levelo_inurba_marseille","lat":43.289184,"lon":5.366408,"is_reserved":false,"is_disabled":false,"rental_uris":{"android":"levelo://app?vid=0d5e3e64-3c92-4eb4-9958-136c92e281f9","ios":"levelo://app?vid=0d5e3e64-3c92-4eb4-9958-136c92e281f9"},"vehicle_type_id":"4","last_reported":1686679710,"current_range_meters":16400,"station_id":"ce4bhap2rcd13ifvqek0","pricing_plan_id":"free"},{"bike_id":"32b44eb0-91fe-4829-922c-88ed04ba2ad1","system_id":"levelo_inurba_marseille","lat":43.289184,"lon":5.366408,"is_reserved":false,"is_disabled":false,"rental_uris":{"android":"levelo://app?vid=32b44eb0-91fe-4829-922c-88ed04ba2ad1","ios":"levelo://app?vid=32b44eb0-91fe-4829-922c-88ed04ba2ad1"},"vehicle_type_id":"4","last_reported":1686679710,"current_range_meters":26000,"station_id":"ce4bhap2rcd13ifvqek0","pricing_plan_id":"free"},{"bike_id":"0a4beee8-1d0b-40b6-a628-dd56857f4693","system_id":"levelo_inurba_marseille","lat":43.294032,"lon":5.386342,"is_reserved":false,"is_disabled":false,"rental_uris":{"android":"levelo://app?vid=0a4beee8-1d0b-40b6-a628-dd56857f4693","ios":"levelo://app?vid=0a4beee8-1d0b-40b6-a628-dd56857f4693"},"vehicle_type_id":"4","last_reported":1686679710,"current_range_meters":11200,"station_id":"","pricing_plan_id":"free"},{"bike_id":"1774c776-2790-4b93-a458-dbdd86b9267b","system_id":"levelo_inurba_marseille","lat":43.289468,"lon":5.363719,"is_reserved":false,"is_disabled":false,"rental_uris":{"android":"levelo://app?vid=1774c776-2790-4b93-a458-dbdd86b9267b","ios":"levelo://app?vid=1774c776-2790-4b93-a458-dbdd86b9267b"},"vehicle_type_id":"4","last_reported":1686679710,"current_range_meters":10800,"station_id":"ce4bhc92rcd13ifvqetg","pricing_plan_id":"free"},{"bike_id":"5ee9bb9f-343a-469a-aac7-578a7b204518","system_id":"levelo_inurba_marseille","lat":43.289184,"lon":5.366408,"is_reserved":false,"is_disabled":false,"rental_uris":{"android":"levelo://app?vid=5ee9bb9f-343a-469a-aac7-578a7b204518","ios":"levelo://app?vid=5ee9bb9f-343a-469a-aac7-578a7b204518"},"vehicle_type_id":"4","last_reported":1686679710,"current_range_meters":6400,"station_id":"ce4bhap2rcd13ifvqek0","pricing_plan_id":"free"},{"bike_id":"797a979a-02ef-4317-8b00-67de50a310fa","system_id":"levelo_inurba_marseille","lat":43.29262,"lon":5.38425,"is_reserved":false,"is_disabled":false,"rental_uris":{"android":"levelo://app?vid=797a979a-02ef-4317-8b00-67de50a310fa","ios":"levelo://app?vid=797a979a-02ef-4317-8b00-67de50a310fa"},"vehicle_type_id":"4","last_reported":1686679710,"current_range_meters":17200,"station_id":"ce4bh692rcd13ifvqea0","pricing_plan_id":"free"},{"bike_id":"16b8e611-4c8a-478d-b889-088e949be235","system_id":"levelo_inurba_marseille","lat":43.29265,"lon":5.38434,"is_reserved":false,"is_disabled":false,"rental_uris":{"android":"levelo://app?vid=16b8e611-4c8a-478d-b889-088e949be235","ios":"levelo://app?vid=16b8e611-4c8a-478d-b889-088e949be235"},"vehicle_type_id":"4","last_reported":1686679710,"current_range_meters":0,"station_id":"ce4bh692rcd13ifvqea0","pricing_plan_id":"free"},{"bike_id":"3bfb36c0-104f-40a2-b613-f3e7c4f2c6d1","system_id":"levelo_inurba_marseille","lat":43.29259,"lon":5.38431,"is_reserved":false,"is_disabled":false,"rental_uris":{"android":"levelo://app?vid=3bfb36c0-104f-40a2-b613-f3e7c4f2c6d1","ios":"levelo://app?vid=3bfb36c0-104f-40a2-b613-f3e7c4f2c6d1"},"vehicle_type_id":"4","last_reported":1686679710,"current_range_meters":7200,"station_id":"ce4bh692rcd13ifvqea0","pricing_plan_id":"free"},{"bike_id":"13fe3ec4-0da3-42a3-be05-5be65c0f6ff3","system_id":"levelo_inurba_marseille","lat":43.29252,"lon":5.38437,"is_reserved":false,"is_disabled":false,"rental_uris":{"android":"levelo://app?vid=13fe3ec4-0da3-42a3-be05-5be65c0f6ff3","ios":"levelo://app?vid=13fe3ec4-0da3-42a3-be05-5be65c0f6ff3"},"vehicle_type_id":"4","last_reported":1686679710,"current_range_meters":3600,"station_id":"ce4bh692rcd13ifvqea0","pricing_plan_id":"free"},{"bike_id":"848151c7-01e7-47e0-b52e-0cf1824c11be","system_id":"levelo_inurba_marseille","lat":43.29252,"lon":5.38445,"is_reserved":false,"is_disabled":false,"rental_uris":{"android":"levelo://app?vid=848151c7-01e7-47e0-b52e-0cf1824c11be","ios":"levelo://app?vid=848151c7-01e7-47e0-b52e-0cf1824c11be"},"vehicle_type_id":"4","last_reported":1686679710,"current_range_meters":1200,"station_id":"ce4bh692rcd13ifvqea0","pricing_plan_id":"free"},{"bike_id":"45b83fac-9e4a-40c6-8ddf-05629209ff1f","system_id":"levelo_inurba_marseille","lat":43.33045,"lon":5.38917,"is_reserved":false,"is_disabled":false,"rental_uris":{"android":"levelo://app?vid=45b83fac-9e4a-40c6-8ddf-05629209ff1f","ios":"levelo://app?vid=45b83fac-9e4a-40c6-8ddf-05629209ff1f"},"vehicle_type_id":"4","last_reported":1686679710,"current_range_meters":15600,"station_id":"ce4bhr92rcd13ifvqhrg","pricing_plan_id":"free"},{"bike_id":"73af8695-7c95-45b3-ad0b-11280d41fcbb","system_id":"levelo_inurba_marseille","lat":43.33042,"lon":5.38924,"is_reserved":false,"is_disabled":false,"rental_uris":{"android":"levelo://app?vid=73af8695-7c95-45b3-ad0b-11280d41fcbb","ios":"levelo://app?vid=73af8695-7c95-45b3-ad0b-11280d41fcbb"},"vehicle_type_id":"4","last_reported":1686679710,"current_range_meters":8400,"station_id":"ce4bhr92rcd13ifvqhrg","pricing_plan_id":"free"},{"bike_id":"83fd5db6-dc1c-4e68-a3dd-013cba37af8e","system_id":"levelo_inurba_marseille","lat":43.33043,"lon":5.38923,"is_reserved":false,"is_disabled":false,"rental_uris":{"android":"levelo://app?vid=83fd5db6-dc1c-4e68-a3dd-013cba37af8e","ios":"levelo://app?vid=83fd5db6-dc1c-4e68-a3dd-013cba37af8e"},"vehicle_type_id":"4","last_reported":1686679710,"current_range_meters":13600,"station_id":"ce4bhr92rcd13ifvqhrg","pricing_plan_id":"free"},{"bike_id":"c7f7de9f-59de-4d5d-bc8a-10e79b0256f4","system_id":"levelo_inurba_marseille","lat":43.29788,"lon":5.39339,"is_reserved":false,"is_disabled":false,"rental_uris":{"android":"levelo://app?vid=c7f7de9f-59de-4d5d-bc8a-10e79b0256f4","ios":"levelo://app?vid=c7f7de9f-59de-4d5d-bc8a-10e79b0256f4"},"vehicle_type_id":"4","last_reported":1686679710,"current_range_meters":0,"station_id":"chh1huq6cuj3fo74tm60","pricing_plan_id":"free"},{"bike_id":"0a541c75-86c4-439c-8323-f3a7f8346567","system_id":"levelo_inurba_marseille","lat":43.297814,"lon":5.393513,"is_reserved":false,"is_disabled":false,"rental_uris":{"android":"levelo://app?vid=0a541c75-86c4-439c-8323-f3a7f8346567","ios":"levelo://app?vid=0a541c75-86c4-439c-8323-f3a7f8346567"},"vehicle_type_id":"4","last_reported":1686679710,"current_range_meters":3600,"station_id":"chh1huq6cuj3fo74tm60","pricing_plan_id":"free"},{"bike_id":"7a8ee1d0-0cf9-4ced-aea6-17bc4447d478","system_id":"levelo_inurba_marseille","lat":43.29521,"lon":5.39025,"is_reserved":false,"is_disabled":false,"rental_uris":{"android":"levelo://app?vid=7a8ee1d0-0cf9-4ced-aea6-17bc4447d478","ios":"levelo://app?vid=7a8ee1d0-0cf9-4ced-aea6-17bc4447d478"},"vehicle_type_id":"4","last_reported":1686679710,"current_range_meters":28800,"station_id":"ce4bh3p2rcd13ifvqdp0","pricing_plan_id":"free"},{"bike_id":"8d00fd40-ee50-4fdf-a7cc-c5c22e44958c","system_id":"levelo_inurba_marseille","lat":43.295169,"lon":5.390426,"is_reserved":false,"is_disabled":false,"rental_uris":{"android":"levelo://app?vid=8d00fd40-ee50-4fdf-a7cc-c5c22e44958c","ios":"levelo://app?vid=8d00fd40-ee50-4fdf-a7cc-c5c22e44958c"},"vehicle_type_id":"4","last_reported":1686679710,"current_range_meters":27200,"station_id":"ce4bh3p2rcd13ifvqdp0","pricing_plan_id":"free"},{"bike_id":"703ede92-d55c-4040-9c7b-f9a67567d812","system_id":"levelo_inurba_marseille","lat":43.295169,"lon":5.390426,"is_reserved":false,"is_disabled":false,"rental_uris":{"android":"levelo://app?vid=703ede92-d55c-4040-9c7b-f9a67567d812","ios":"levelo://app?vid=703ede92-d55c-4040-9c7b-f9a67567d812"},"vehicle_type_id":"4","last_reported":1686679710,"current_range_meters":11200,"station_id":"ce4bh3p2rcd13ifvqdp0","pricing_plan_id":"free"},{"bike_id":"9fe7e4e9-6fcd-4e40-9490-266e9aafffa9","system_id":"levelo_inurba_marseille","lat":43.295169,"lon":5.390426,"is_reserved":false,"is_disabled":false,"rental_uris":{"android":"levelo://app?vid=9fe7e4e9-6fcd-4e40-9490-266e9aafffa9","ios":"levelo://app?vid=9fe7e4e9-6fcd-4e40-9490-266e9aafffa9"},"vehicle_type_id":"4","last_reported":1686679710,"current_range_meters":7600,"station_id":"ce4bh3p2rcd13ifvqdp0","pricing_plan_id":"free"},{"bike_id":"0cf43816-33da-4fc5-9e1e-9eac99564b9b","system_id":"levelo_inurba_marseille","lat":43.2884,"lon":5.35843,"is_reserved":false,"is_disabled":false,"rental_uris":{"android":"levelo://app?vid=0cf43816-33da-4fc5-9e1e-9eac99564b9b","ios":"levelo://app?vid=0cf43816-33da-4fc5-9e1e-9eac99564b9b"},"vehicle_type_id":"4","last_reported":1686679710,"current_range_meters":0,"station_id":"ce4bhb12rcd13ifvqem0","pricing_plan_id":"free"},{"bike_id":"5d3de7d3-b04f-487c-a7ae-45bb6dd1817f","system_id":"levelo_inurba_marseille","lat":43.288,"lon":5.36099,"is_reserved":false,"is_disabled":false,"rental_uris":{"android":"levelo://app?vid=5d3de7d3-b04f-487c-a7ae-45bb6dd1817f","ios":"levelo://app?vid=5d3de7d3-b04f-487c-a7ae-45bb6dd1817f"},"vehicle_type_id":"4","last_reported":1686679710,"current_range_meters":7200,"station_id":"ce4bhah2rcd13ifvqej0","pricing_plan_id":"free"},{"bike_id":"97f4d32f-ff5e-431e-9ffb-33db69caf938","system_id":"levelo_inurba_marseille","lat":43.28856,"lon":5.358371,"is_reserved":false,"is_disabled":false,"rental_uris":{"android":"levelo://app?vid=97f4d32f-ff5e-431e-9ffb-33db69caf938","ios":"levelo://app?vid=97f4d32f-ff5e-431e-9ffb-33db69caf938"},"vehicle_type_id":"4","last_reported":1686679710,"current_range_meters":4000,"station_id":"ce4bhb12rcd13ifvqem0","pricing_plan_id":"free"},{"bike_id":"6485b115-9dfe-4b29-b1e3-d3afd704a8be","system_id":"levelo_inurba_marseille","lat":43.337317,"lon":5.374437,"is_reserved":false,"is_disabled":false,"rental_uris":{"android":"levelo://app?vid=6485b115-9dfe-4b29-b1e3-d3afd704a8be","ios":"levelo://app?vid=6485b115-9dfe-4b29-b1e3-d3afd704a8be"},"vehicle_type_id":"4","last_reported":1686679710,"current_range_meters":28800,"station_id":"","pricing_plan_id":"free"},{"bike_id":"c0fb8083-e02d-4dec-b1b9-fa095e6c5b75","system_id":"levelo_inurba_marseille","lat":43.337396,"lon":5.374526,"is_reserved":false,"is_disabled":false,"rental_uris":{"android":"levelo://app?vid=c0fb8083-e02d-4dec-b1b9-fa095e6c5b75","ios":"levelo://app?vid=c0fb8083-e02d-4dec-b1b9-fa095e6c5b75"},"vehicle_type_id":"4","last_reported":1686679710,"current_range_meters":12000,"station_id":"ce4bhp92rcd13ifvqhag","pricing_plan_id":"free"},{"bike_id":"1972c50d-39a1-4df3-962d-93c3c8a1320c","system_id":"levelo_inurba_marseille","lat":43.309371,"lon":5.401449,"is_reserved":false,"is_disabled":false,"rental_uris":{"android":"levelo://app?vid=1972c50d-39a1-4df3-962d-93c3c8a1320c","ios":"levelo://app?vid=1972c50d-39a1-4df3-962d-93c3c8a1320c"},"vehicle_type_id":"4","last_reported":1686679710,"current_range_meters":4400,"station_id":"ce4bgvp2rcd13ifvqct0","pricing_plan_id":"free"},{"bike_id":"ea03c79d-f315-40db-8e1e-c8c7f4d4a21b","system_id":"levelo_inurba_marseille","lat":43.33745,"lon":5.37441,"is_reserved":false,"is_disabled":false,"rental_uris":{"android":"levelo://app?vid=ea03c79d-f315-40db-8e1e-c8c7f4d4a21b","ios":"levelo://app?vid=ea03c79d-f315-40db-8e1e-c8c7f4d4a21b"},"vehicle_type_id":"4","last_reported":1686679710,"current_range_meters":29200,"station_id":"","pricing_plan_id":"free"},{"bike_id":"588e34a7-ba7a-48c7-91de-0e47ded90344","system_id":"levelo_inurba_marseille","lat":43.33746,"lon":5.37458,"is_reserved":false,"is_disabled":false,"rental_uris":{"android":"levelo://app?vid=588e34a7-ba7a-48c7-91de-0e47ded90344","ios":"levelo://app?vid=588e34a7-ba7a-48c7-91de-0e47ded90344"},"vehicle_type_id":"4","last_reported":1686679710,"current_range_meters":30800,"station_id":"","pricing_plan_id":"free"},{"bike_id":"b54d7825-53c3-4d57-b48f-bc67877c2517","system_id":"levelo_inurba_marseille","lat":43.337628,"lon":5.374598,"is_reserved":false,"is_disabled":false,"rental_uris":{"android":"levelo://app?vid=b54d7825-53c3-4d57-b48f-bc67877c2517","ios":"levelo://app?vid=b54d7825-53c3-4d57-b48f-bc67877c2517"},"vehicle_type_id":"4","last_reported":1686679710,"current_range_meters":30800,"station_id":"","pricing_plan_id":"free"},{"bike_id":"dea02434-3544-4667-89dc-83a7df7d370d","system_id":"levelo_inurba_marseille","lat":43.301117,"lon":5.398795,"is_reserved":false,"is_disabled":false,"rental_uris":{"android":"levelo://app?vid=dea02434-3544-4667-89dc-83a7df7d370d","ios":"levelo://app?vid=dea02434-3544-4667-89dc-83a7df7d370d"},"vehicle_type_id":"4","last_reported":1686679710,"current_range_meters":20800,"station_id":"ce4bh0h2rcd13ifvqd40","pricing_plan_id":"free"},{"bike_id":"9cf6f045-0f26-44fb-94fc-3f5f7745fa98","system_id":"levelo_inurba_marseille","lat":43.28662,"lon":5.36357,"is_reserved":false,"is_disabled":false,"rental_uris":{"android":"levelo://app?vid=9cf6f045-0f26-44fb-94fc-3f5f7745fa98","ios":"levelo://app?vid=9cf6f045-0f26-44fb-94fc-3f5f7745fa98"},"vehicle_type_id":"4","last_reported":1686679710,"current_range_meters":0,"station_id":"ce4bhah2rcd13ifvqej0","pricing_plan_id":"free"},{"bike_id":"f0a1a20c-3e13-4e1a-80e9-d2a64d4a08d8","system_id":"levelo_inurba_marseille","lat":43.295196,"lon":5.39397,"is_reserved":false,"is_disabled":false,"rental_uris":{"android":"levelo://app?vid=f0a1a20c-3e13-4e1a-80e9-d2a64d4a08d8","ios":"levelo://app?vid=f0a1a20c-3e13-4e1a-80e9-d2a64d4a08d8"},"vehicle_type_id":"4","last_reported":1686679710,"current_range_meters":400,"station_id":"ce4bh292rcd13ifvqdf0","pricing_plan_id":"free"},{"bike_id":"f943b89d-d548-4f56-87f2-bf21799fd74f","system_id":"levelo_inurba_marseille","lat":43.295194,"lon":5.39397,"is_reserved":false,"is_disabled":false,"rental_uris":{"android":"levelo://app?vid=f943b89d-d548-4f56-87f2-bf21799fd74f","ios":"levelo://app?vid=f943b89d-d548-4f56-87f2-bf21799fd74f"},"vehicle_type_id":"4","last_reported":1686679710,"current_range_meters":8400,"station_id":"ce4bh292rcd13ifvqdf0","pricing_plan_id":"free"},{"bike_id":"0cf4d620-1349-4102-9a2f-33b1b4a559b4","system_id":"levelo_inurba_marseille","lat":43.295194,"lon":5.39397,"is_reserved":false,"is_disabled":false,"rental_uris":{"android":"levelo://app?vid=0cf4d620-1349-4102-9a2f-33b1b4a559b4","ios":"levelo://app?vid=0cf4d620-1349-4102-9a2f-33b1b4a559b4"},"vehicle_type_id":"4","last_reported":1686679710,"current_range_meters":3200,"station_id":"ce4bh292rcd13ifvqdf0","pricing_plan_id":"free"},{"bike_id":"1ab4c861-8d07-48e8-8c44-e1f63a932c29","system_id":"levelo_inurba_marseille","lat":43.295194,"lon":5.39397,"is_reserved":false,"is_disabled":false,"rental_uris":{"android":"levelo://app?vid=1ab4c861-8d07-48e8-8c44-e1f63a932c29","ios":"levelo://app?vid=1ab4c861-8d07-48e8-8c44-e1f63a932c29"},"vehicle_type_id":"4","last_reported":1686679710,"current_range_meters":2800,"station_id":"ce4bh292rcd13ifvqdf0","pricing_plan_id":"free"},{"bike_id":"0979d8ab-a58d-470e-95dc-dee7dd4a7585","system_id":"levelo_inurba_marseille","lat":43.295196,"lon":5.39397,"is_reserved":false,"is_disabled":false,"rental_uris":{"android":"levelo://app?vid=0979d8ab-a58d-470e-95dc-dee7dd4a7585","ios":"levelo://app?vid=0979d8ab-a58d-470e-95dc-dee7dd4a7585"},"vehicle_type_id":"4","last_reported":1686679710,"current_range_meters":9200,"station_id":"ce4bh292rcd13ifvqdf0","pricing_plan_id":"free"},{"bike_id":"9c5d8384-99a3-4e35-85b8-2ee828c4e8d4","system_id":"levelo_inurba_marseille","lat":43.290345,"lon":5.38646,"is_reserved":false,"is_disabled":false,"rental_uris":{"android":"levelo://app?vid=9c5d8384-99a3-4e35-85b8-2ee828c4e8d4","ios":"levelo://app?vid=9c5d8384-99a3-4e35-85b8-2ee828c4e8d4"},"vehicle_type_id":"4","last_reported":1686679710,"current_range_meters":0,"station_id":"ce4bh4p2rcd13ifvqe0g","pricing_plan_id":"free"},{"bike_id":"a7f81aec-7604-4b22-b094-1e8e6c69274b","system_id":"levelo_inurba_marseille","lat":43.286039,"lon":5.370681,"is_reserved":false,"is_disabled":false,"rental_uris":{"android":"levelo://app?vid=a7f81aec-7604-4b22-b094-1e8e6c69274b","ios":"levelo://app?vid=a7f81aec-7604-4b22-b094-1e8e6c69274b"},"vehicle_type_id":"4","last_reported":1686679710,"current_range_meters":4800,"station_id":"ce4bht12rcd13ifvqi60","pricing_plan_id":"free"},{"bike_id":"bc171ba6-4366-4f6d-a9c9-2e9124ddb71c","system_id":"levelo_inurba_marseille","lat":43.286039,"lon":5.370679,"is_reserved":false,"is_disabled":false,"rental_uris":{"android":"levelo://app?vid=bc171ba6-4366-4f6d-a9c9-2e9124ddb71c","ios":"levelo://app?vid=bc171ba6-4366-4f6d-a9c9-2e9124ddb71c"},"vehicle_type_id":"4","last_reported":1686679710,"current_range_meters":4400,"station_id":"ce4bht12rcd13ifvqi60","pricing_plan_id":"free"},{"bike_id":"5738e4ff-6cf9-45de-916a-b3796e73b364","system_id":"levelo_inurba_marseille","lat":43.3164,"lon":5.40431,"is_reserved":false,"is_disabled":false,"rental_uris":{"android":"levelo://app?vid=5738e4ff-6cf9-45de-916a-b3796e73b364","ios":"levelo://app?vid=5738e4ff-6cf9-45de-916a-b3796e73b364"},"vehicle_type_id":"4","last_reported":1686679710,"current_range_meters":7600,"station_id":"ce4bh012rcd13ifvqd00","pricing_plan_id":"free"},{"bike_id":"1b01c095-a5a0-4804-b3e5-c6b2842205d3","system_id":"levelo_inurba_marseille","lat":43.31652,"lon":5.40434,"is_reserved":false,"is_disabled":false,"rental_uris":{"android":"levelo://app?vid=1b01c095-a5a0-4804-b3e5-c6b2842205d3","ios":"levelo://app?vid=1b01c095-a5a0-4804-b3e5-c6b2842205d3"},"vehicle_type_id":"4","last_reported":1686679710,"current_range_meters":4800,"station_id":"ce4bh012rcd13ifvqd00","pricing_plan_id":"free"},{"bike_id":"9319fa0d-7fac-4367-b608-04f2cab0c876","system_id":"levelo_inurba_marseille","lat":43.291994,"lon":5.392907,"is_reserved":false,"is_disabled":false,"rental_uris":{"android":"levelo://app?vid=9319fa0d-7fac-4367-b608-04f2cab0c876","ios":"levelo://app?vid=9319fa0d-7fac-4367-b608-04f2cab0c876"},"vehicle_type_id":"4","last_reported":1686679710,"current_range_meters":10800,"station_id":"ce4bh192rcd13ifvqdd0","pricing_plan_id":"free"},{"bike_id":"15690984-f6de-4386-879a-24ff9fd207b4","system_id":"levelo_inurba_marseille","lat":43.291994,"lon":5.392907,"is_reserved":false,"is_disabled":false,"rental_uris":{"android":"levelo://app?vid=15690984-f6de-4386-879a-24ff9fd207b4","ios":"levelo://app?vid=15690984-f6de-4386-879a-24ff9fd207b4"},"vehicle_type_id":"4","last_reported":1686679710,"current_range_meters":22400,"station_id":"ce4bh192rcd13ifvqdd0","pricing_plan_id":"free"},{"bike_id":"2b21876a-6264-4fb4-b344-e598dbc527d3","system_id":"levelo_inurba_marseille","lat":43.28503,"lon":5.37444,"is_reserved":false,"is_disabled":false,"rental_uris":{"android":"levelo://app?vid=2b21876a-6264-4fb4-b344-e598dbc527d3","ios":"levelo://app?vid=2b21876a-6264-4fb4-b344-e598dbc527d3"},"vehicle_type_id":"4","last_reported":1686679710,"current_range_meters":9600,"station_id":"","pricing_plan_id":"free"},{"bike_id":"57334764-c3ab-45cd-9f29-b8eb7306d5e4","system_id":"levelo_inurba_marseille","lat":43.291994,"lon":5.392907,"is_reserved":false,"is_disabled":false,"rental_uris":{"android":"levelo://app?vid=57334764-c3ab-45cd-9f29-b8eb7306d5e4","ios":"levelo://app?vid=57334764-c3ab-45cd-9f29-b8eb7306d5e4"},"vehicle_type_id":"4","last_reported":1686679710,"current_range_meters":14000,"station_id":"ce4bh192rcd13ifvqdd0","pricing_plan_id":"free"},{"bike_id":"96c6d250-0fcf-4329-957e-fddcb3159f66","system_id":"levelo_inurba_marseille","lat":43.284534,"lon":5.358662,"is_reserved":false,"is_disabled":false,"rental_uris":{"android":"levelo://app?vid=96c6d250-0fcf-4329-957e-fddcb3159f66","ios":"levelo://app?vid=96c6d250-0fcf-4329-957e-fddcb3159f66"},"vehicle_type_id":"4","last_reported":1686679710,"current_range_meters":9200,"station_id":"ce4bhah2rcd13ifvqei0","pricing_plan_id":"free"},{"bike_id":"6f16c297-703f-483b-99d4-6a6c1e2d1f9f","system_id":"levelo_inurba_marseille","lat":43.28981,"lon":5.3907,"is_reserved":false,"is_disabled":false,"rental_uris":{"android":"levelo://app?vid=6f16c297-703f-483b-99d4-6a6c1e2d1f9f","ios":"levelo://app?vid=6f16c297-703f-483b-99d4-6a6c1e2d1f9f"},"vehicle_type_id":"4","last_reported":1686679710,"current_range_meters":5200,"station_id":"","pricing_plan_id":"free"},{"bike_id":"690f04f6-4f3a-447f-9494-d460b3e46778","system_id":"levelo_inurba_marseille","lat":43.284534,"lon":5.358662,"is_reserved":false,"is_disabled":false,"rental_uris":{"android":"levelo://app?vid=690f04f6-4f3a-447f-9494-d460b3e46778","ios":"levelo://app?vid=690f04f6-4f3a-447f-9494-d460b3e46778"},"vehicle_type_id":"4","last_reported":1686679710,"current_range_meters":1200,"station_id":"ce4bhah2rcd13ifvqei0","pricing_plan_id":"free"},{"bike_id":"750604c3-4c39-4652-95c0-f85c6c81de7a","system_id":"levelo_inurba_marseille","lat":43.284534,"lon":5.358662,"is_reserved":false,"is_disabled":false,"rental_uris":{"android":"levelo://app?vid=750604c3-4c39-4652-95c0-f85c6c81de7a","ios":"levelo://app?vid=750604c3-4c39-4652-95c0-f85c6c81de7a"},"vehicle_type_id":"4","last_reported":1686679710,"current_range_meters":6800,"station_id":"ce4bhah2rcd13ifvqei0","pricing_plan_id":"free"},{"bike_id":"3fff127e-55e7-44b6-baf3-fc7894e5bd92","system_id":"levelo_inurba_marseille","lat":43.28458,"lon":5.35886,"is_reserved":false,"is_disabled":false,"rental_uris":{"android":"levelo://app?vid=3fff127e-55e7-44b6-baf3-fc7894e5bd92","ios":"levelo://app?vid=3fff127e-55e7-44b6-baf3-fc7894e5bd92"},"vehicle_type_id":"4","last_reported":1686679710,"current_range_meters":5600,"station_id":"ce4bhah2rcd13ifvqei0","pricing_plan_id":"free"},{"bike_id":"2ee0e569-0362-4083-8d39-0473734ff8df","system_id":"levelo_inurba_marseille","lat":43.284534,"lon":5.358662,"is_reserved":false,"is_disabled":false,"rental_uris":{"android":"levelo://app?vid=2ee0e569-0362-4083-8d39-0473734ff8df","ios":"levelo://app?vid=2ee0e569-0362-4083-8d39-0473734ff8df"},"vehicle_type_id":"4","last_reported":1686679710,"current_range_meters":22400,"station_id":"ce4bhah2rcd13ifvqei0","pricing_plan_id":"free"},{"bike_id":"9b40e4ae-23e3-4b6e-b096-3c6cbb7114de","system_id":"levelo_inurba_marseille","lat":43.284534,"lon":5.358662,"is_reserved":false,"is_disabled":false,"rental_uris":{"android":"levelo://app?vid=9b40e4ae-23e3-4b6e-b096-3c6cbb7114de","ios":"levelo://app?vid=9b40e4ae-23e3-4b6e-b096-3c6cbb7114de"},"vehicle_type_id":"4","last_reported":1686679710,"current_range_meters":2800,"station_id":"ce4bhah2rcd13ifvqei0","pricing_plan_id":"free"},{"bike_id":"90d3ee54-59dc-4862-a361-c0220b9cd201","system_id":"levelo_inurba_marseille","lat":43.284534,"lon":5.358662,"is_reserved":false,"is_disabled":false,"rental_uris":{"android":"levelo://app?vid=90d3ee54-59dc-4862-a361-c0220b9cd201","ios":"levelo://app?vid=90d3ee54-59dc-4862-a361-c0220b9cd201"},"vehicle_type_id":"4","last_reported":1686679710,"current_range_meters":5200,"station_id":"ce4bhah2rcd13ifvqei0","pricing_plan_id":"free"},{"bike_id":"522e566e-d470-422c-a236-9f8df79da8fc","system_id":"levelo_inurba_marseille","lat":43.28456,"lon":5.35889,"is_reserved":false,"is_disabled":false,"rental_uris":{"android":"levelo://app?vid=522e566e-d470-422c-a236-9f8df79da8fc","ios":"levelo://app?vid=522e566e-d470-422c-a236-9f8df79da8fc"},"vehicle_type_id":"4","last_reported":1686679710,"current_range_meters":21200,"station_id":"ce4bhah2rcd13ifvqei0","pricing_plan_id":"free"},{"bike_id":"7759e3c8-6667-4a6f-8548-81fb845146bd","system_id":"levelo_inurba_marseille","lat":43.284534,"lon":5.358662,"is_reserved":false,"is_disabled":false,"rental_uris":{"android":"levelo://app?vid=7759e3c8-6667-4a6f-8548-81fb845146bd","ios":"levelo://app?vid=7759e3c8-6667-4a6f-8548-81fb845146bd"},"vehicle_type_id":"4","last_reported":1686679710,"current_range_meters":11600,"station_id":"ce4bhah2rcd13ifvqei0","pricing_plan_id":"free"},{"bike_id":"7e18a9d1-d0af-48c1-82c5-423e7bd8f5ef","system_id":"levelo_inurba_marseille","lat":43.28454,"lon":5.35896,"is_reserved":false,"is_disabled":false,"rental_uris":{"android":"levelo://app?vid=7e18a9d1-d0af-48c1-82c5-423e7bd8f5ef","ios":"levelo://app?vid=7e18a9d1-d0af-48c1-82c5-423e7bd8f5ef"},"vehicle_type_id":"4","last_reported":1686679710,"current_range_meters":4400,"station_id":"ce4bhah2rcd13ifvqei0","pricing_plan_id":"free"},{"bike_id":"aaf226b3-902d-4c7a-819e-51fea39c2bdd","system_id":"levelo_inurba_marseille","lat":43.284534,"lon":5.358662,"is_reserved":false,"is_disabled":false,"rental_uris":{"android":"levelo://app?vid=aaf226b3-902d-4c7a-819e-51fea39c2bdd","ios":"levelo://app?vid=aaf226b3-902d-4c7a-819e-51fea39c2bdd"},"vehicle_type_id":"4","last_reported":1686679710,"current_range_meters":16400,"station_id":"ce4bhah2rcd13ifvqei0","pricing_plan_id":"free"},{"bike_id":"bdb4454f-a040-49a2-b9af-06a722513ed8","system_id":"levelo_inurba_marseille","lat":43.28451,"lon":5.35892,"is_reserved":false,"is_disabled":false,"rental_uris":{"android":"levelo://app?vid=bdb4454f-a040-49a2-b9af-06a722513ed8","ios":"levelo://app?vid=bdb4454f-a040-49a2-b9af-06a722513ed8"},"vehicle_type_id":"4","last_reported":1686679710,"current_range_meters":8800,"station_id":"ce4bhah2rcd13ifvqei0","pricing_plan_id":"free"},{"bike_id":"5b79492d-fe5e-4235-bf46-e9acf4d529c4","system_id":"levelo_inurba_marseille","lat":43.285856,"lon":5.350771,"is_reserved":false,"is_disabled":false,"rental_uris":{"android":"levelo://app?vid=5b79492d-fe5e-4235-bf46-e9acf4d529c4","ios":"levelo://app?vid=5b79492d-fe5e-4235-bf46-e9acf4d529c4"},"vehicle_type_id":"4","last_reported":1686679710,"current_range_meters":16800,"station_id":"ce4bhch2rcd13ifvqeug","pricing_plan_id":"free"},{"bike_id":"e69cd4b6-9ca0-4aad-8b99-f670372a26ac","system_id":"levelo_inurba_marseille","lat":43.28407,"lon":5.37515,"is_reserved":false,"is_disabled":false,"rental_uris":{"android":"levelo://app?vid=e69cd4b6-9ca0-4aad-8b99-f670372a26ac","ios":"levelo://app?vid=e69cd4b6-9ca0-4aad-8b99-f670372a26ac"},"vehicle_type_id":"4","last_reported":1686679710,"current_range_meters":9200,"station_id":"","pricing_plan_id":"free"},{"bike_id":"654af76a-3f56-4a40-abfc-e5f9f1377467","system_id":"levelo_inurba_marseille","lat":43.29573,"lon":5.39971,"is_reserved":false,"is_disabled":false,"rental_uris":{"android":"levelo://app?vid=654af76a-3f56-4a40-abfc-e5f9f1377467","ios":"levelo://app?vid=654af76a-3f56-4a40-abfc-e5f9f1377467"},"vehicle_type_id":"4","last_reported":1686679710,"current_range_meters":4400,"station_id":"ce4bh312rcd13ifvqdj0","pricing_plan_id":"free"},{"bike_id":"d0664fbb-6398-429f-95f1-598d68f1ad0f","system_id":"levelo_inurba_marseille","lat":43.28403,"lon":5.37514,"is_reserved":false,"is_disabled":false,"rental_uris":{"android":"levelo://app?vid=d0664fbb-6398-429f-95f1-598d68f1ad0f","ios":"levelo://app?vid=d0664fbb-6398-429f-95f1-598d68f1ad0f"},"vehicle_type_id":"4","last_reported":1686679710,"current_range_meters":10000,"station_id":"","pricing_plan_id":"free"},{"bike_id":"57c3351c-cb52-46e7-a745-a52a4e391f99","system_id":"levelo_inurba_marseille","lat":43.295713,"lon":5.399639,"is_reserved":false,"is_disabled":false,"rental_uris":{"android":"levelo://app?vid=57c3351c-cb52-46e7-a745-a52a4e391f99","ios":"levelo://app?vid=57c3351c-cb52-46e7-a745-a52a4e391f99"},"vehicle_type_id":"4","last_reported":1686679710,"current_range_meters":4800,"station_id":"ce4bh312rcd13ifvqdj0","pricing_plan_id":"free"},{"bike_id":"9b6bcc82-171f-4fe6-8f56-d5101e37b75a","system_id":"levelo_inurba_marseille","lat":43.28404,"lon":5.37528,"is_reserved":false,"is_disabled":false,"rental_uris":{"android":"levelo://app?vid=9b6bcc82-171f-4fe6-8f56-d5101e37b75a","ios":"levelo://app?vid=9b6bcc82-171f-4fe6-8f56-d5101e37b75a"},"vehicle_type_id":"4","last_reported":1686679710,"current_range_meters":2400,"station_id":"","pricing_plan_id":"free"},{"bike_id":"5edff5b9-a1ba-40bf-b372-7e34a865256f","system_id":"levelo_inurba_marseille","lat":43.296263,"lon":5.40601,"is_reserved":false,"is_disabled":false,"rental_uris":{"android":"levelo://app?vid=5edff5b9-a1ba-40bf-b372-7e34a865256f","ios":"levelo://app?vid=5edff5b9-a1ba-40bf-b372-7e34a865256f"},"vehicle_type_id":"4","last_reported":1686679710,"current_range_meters":12400,"station_id":"ce4bh0h2rcd13ifvqd60","pricing_plan_id":"free"},{"bike_id":"1fff1a33-7a92-439e-a0eb-75e208fd1e89","system_id":"levelo_inurba_marseille","lat":43.28661,"lon":5.38665,"is_reserved":false,"is_disabled":false,"rental_uris":{"android":"levelo://app?vid=1fff1a33-7a92-439e-a0eb-75e208fd1e89","ios":"levelo://app?vid=1fff1a33-7a92-439e-a0eb-75e208fd1e89"},"vehicle_type_id":"4","last_reported":1686679710,"current_range_meters":27600,"station_id":"ce4bh492rcd13ifvqdug","pricing_plan_id":"free"},{"bike_id":"48d785a3-02d0-4dd5-ab34-3dc1b00ccbea","system_id":"levelo_inurba_marseille","lat":43.283494,"lon":5.380945,"is_reserved":false,"is_disabled":false,"rental_uris":{"android":"levelo://app?vid=48d785a3-02d0-4dd5-ab34-3dc1b00ccbea","ios":"levelo://app?vid=48d785a3-02d0-4dd5-ab34-3dc1b00ccbea"},"vehicle_type_id":"4","last_reported":1686679710,"current_range_meters":14000,"station_id":"ce4bh412rcd13ifvqdr0","pricing_plan_id":"free"},{"bike_id":"e2fc70b8-7548-494f-8e43-0c065153422e","system_id":"levelo_inurba_marseille","lat":43.323464,"lon":5.406297,"is_reserved":false,"is_disabled":false,"rental_uris":{"android":"levelo://app?vid=e2fc70b8-7548-494f-8e43-0c065153422e","ios":"levelo://app?vid=e2fc70b8-7548-494f-8e43-0c065153422e"},"vehicle_type_id":"4","last_reported":1686679710,"current_range_meters":31200,"station_id":"ce4bhq92rcd13ifvqhjg","pricing_plan_id":"free"},{"bike_id":"16e5fedd-6e86-436a-a0a2-72c7cd60a6ea","system_id":"levelo_inurba_marseille","lat":43.32331,"lon":5.40619,"is_reserved":false,"is_disabled":false,"rental_uris":{"android":"levelo://app?vid=16e5fedd-6e86-436a-a0a2-72c7cd60a6ea","ios":"levelo://app?vid=16e5fedd-6e86-436a-a0a2-72c7cd60a6ea"},"vehicle_type_id":"4","last_reported":1686679710,"current_range_meters":31200,"station_id":"ce4bhq92rcd13ifvqhjg","pricing_plan_id":"free"},{"bike_id":"f62ba153-082f-40a0-996c-72d65e874915","system_id":"levelo_inurba_marseille","lat":43.323464,"lon":5.406297,"is_reserved":false,"is_disabled":false,"rental_uris":{"android":"levelo://app?vid=f62ba153-082f-40a0-996c-72d65e874915","ios":"levelo://app?vid=f62ba153-082f-40a0-996c-72d65e874915"},"vehicle_type_id":"4","last_reported":1686679710,"current_range_meters":23600,"station_id":"ce4bhq92rcd13ifvqhjg","pricing_plan_id":"free"},{"bike_id":"484885b6-3140-4a4f-8522-b35d52385562","system_id":"levelo_inurba_marseille","lat":43.323464,"lon":5.406297,"is_reserved":false,"is_disabled":false,"rental_uris":{"android":"levelo://app?vid=484885b6-3140-4a4f-8522-b35d52385562","ios":"levelo://app?vid=484885b6-3140-4a4f-8522-b35d52385562"},"vehicle_type_id":"4","last_reported":1686679710,"current_range_meters":22400,"station_id":"ce4bhq92rcd13ifvqhjg","pricing_plan_id":"free"},{"bike_id":"123a2e5d-5365-4372-8961-84e726bef7a3","system_id":"levelo_inurba_marseille","lat":43.323464,"lon":5.406297,"is_reserved":false,"is_disabled":false,"rental_uris":{"android":"levelo://app?vid=123a2e5d-5365-4372-8961-84e726bef7a3","ios":"levelo://app?vid=123a2e5d-5365-4372-8961-84e726bef7a3"},"vehicle_type_id":"4","last_reported":1686679710,"current_range_meters":0,"station_id":"ce4bhq92rcd13ifvqhjg","pricing_plan_id":"free"},{"bike_id":"3809e364-cfe3-479b-9723-8a57900a25ad","system_id":"levelo_inurba_marseille","lat":43.323464,"lon":5.406297,"is_reserved":false,"is_disabled":false,"rental_uris":{"android":"levelo://app?vid=3809e364-cfe3-479b-9723-8a57900a25ad","ios":"levelo://app?vid=3809e364-cfe3-479b-9723-8a57900a25ad"},"vehicle_type_id":"4","last_reported":1686679710,"current_range_meters":10400,"station_id":"ce4bhq92rcd13ifvqhjg","pricing_plan_id":"free"},{"bike_id":"b005bafc-983c-485e-be9a-23d7a064ca0f","system_id":"levelo_inurba_marseille","lat":43.284686,"lon":5.384142,"is_reserved":false,"is_disabled":false,"rental_uris":{"android":"levelo://app?vid=b005bafc-983c-485e-be9a-23d7a064ca0f","ios":"levelo://app?vid=b005bafc-983c-485e-be9a-23d7a064ca0f"},"vehicle_type_id":"4","last_reported":1686679710,"current_range_meters":17600,"station_id":"ce4bh512rcd13ifvqe3g","pricing_plan_id":"free"},{"bike_id":"126e14fb-598a-4c52-8112-2b9eca7dd33e","system_id":"levelo_inurba_marseille","lat":43.284793,"lon":5.384119,"is_reserved":false,"is_disabled":false,"rental_uris":{"android":"levelo://app?vid=126e14fb-598a-4c52-8112-2b9eca7dd33e","ios":"levelo://app?vid=126e14fb-598a-4c52-8112-2b9eca7dd33e"},"vehicle_type_id":"4","last_reported":1686679710,"current_range_meters":10400,"station_id":"ce4bh512rcd13ifvqe3g","pricing_plan_id":"free"},{"bike_id":"a9ecdb35-927e-4806-bbf4-76fe157c3e49","system_id":"levelo_inurba_marseille","lat":43.288501,"lon":5.393087,"is_reserved":false,"is_disabled":false,"rental_uris":{"android":"levelo://app?vid=a9ecdb35-927e-4806-bbf4-76fe157c3e49","ios":"levelo://app?vid=a9ecdb35-927e-4806-bbf4-76fe157c3e49"},"vehicle_type_id":"4","last_reported":1686679710,"current_range_meters":0,"station_id":"ce4bh2p2rcd13ifvqdi0","pricing_plan_id":"free"},{"bike_id":"6d4eebfe-38be-4ea1-861f-d6d3121907e9","system_id":"levelo_inurba_marseille","lat":43.284787,"lon":5.384116,"is_reserved":false,"is_disabled":false,"rental_uris":{"android":"levelo://app?vid=6d4eebfe-38be-4ea1-861f-d6d3121907e9","ios":"levelo://app?vid=6d4eebfe-38be-4ea1-861f-d6d3121907e9"},"vehicle_type_id":"4","last_reported":1686679710,"current_range_meters":20800,"station_id":"ce4bh512rcd13ifvqe3g","pricing_plan_id":"free"},{"bike_id":"0f694634-596b-4746-9038-9f45468227e3","system_id":"levelo_inurba_marseille","lat":43.28426,"lon":5.34977,"is_reserved":false,"is_disabled":false,"rental_uris":{"android":"levelo://app?vid=0f694634-596b-4746-9038-9f45468227e3","ios":"levelo://app?vid=0f694634-596b-4746-9038-9f45468227e3"},"vehicle_type_id":"4","last_reported":1686679710,"current_range_meters":16400,"station_id":"ce4bhbh2rcd13ifvqepg","pricing_plan_id":"free"},{"bike_id":"0cfbd7e6-132d-47d2-bd25-ba8b304f0c7a","system_id":"levelo_inurba_marseille","lat":43.28423,"lon":5.34984,"is_reserved":false,"is_disabled":false,"rental_uris":{"android":"levelo://app?vid=0cfbd7e6-132d-47d2-bd25-ba8b304f0c7a","ios":"levelo://app?vid=0cfbd7e6-132d-47d2-bd25-ba8b304f0c7a"},"vehicle_type_id":"4","last_reported":1686679710,"current_range_meters":1200,"station_id":"ce4bhbh2rcd13ifvqepg","pricing_plan_id":"free"},{"bike_id":"ce77a310-3a46-4ad9-91c3-94410e06b7f7","system_id":"levelo_inurba_marseille","lat":43.28421,"lon":5.34984,"is_reserved":false,"is_disabled":false,"rental_uris":{"android":"levelo://app?vid=ce77a310-3a46-4ad9-91c3-94410e06b7f7","ios":"levelo://app?vid=ce77a310-3a46-4ad9-91c3-94410e06b7f7"},"vehicle_type_id":"4","last_reported":1686679710,"current_range_meters":16800,"station_id":"ce4bhbh2rcd13ifvqepg","pricing_plan_id":"free"},{"bike_id":"8a1082f1-c614-475a-8d27-e1f1c1e08157","system_id":"levelo_inurba_marseille","lat":43.28416,"lon":5.3499,"is_reserved":false,"is_disabled":false,"rental_uris":{"android":"levelo://app?vid=8a1082f1-c614-475a-8d27-e1f1c1e08157","ios":"levelo://app?vid=8a1082f1-c614-475a-8d27-e1f1c1e08157"},"vehicle_type_id":"4","last_reported":1686679710,"current_range_meters":17200,"station_id":"ce4bhbh2rcd13ifvqepg","pricing_plan_id":"free"},{"bike_id":"507b3214-c6ff-4344-9a04-4a62a5587996","system_id":"levelo_inurba_marseille","lat":43.28415,"lon":5.34992,"is_reserved":false,"is_disabled":false,"rental_uris":{"android":"levelo://app?vid=507b3214-c6ff-4344-9a04-4a62a5587996","ios":"levelo://app?vid=507b3214-c6ff-4344-9a04-4a62a5587996"},"vehicle_type_id":"4","last_reported":1686679710,"current_range_meters":26400,"station_id":"ce4bhbh2rcd13ifvqepg","pricing_plan_id":"free"},{"bike_id":"41ad3bfa-744a-48b5-8f15-6635ee32b9df","system_id":"levelo_inurba_marseille","lat":43.28414,"lon":5.34992,"is_reserved":false,"is_disabled":false,"rental_uris":{"android":"levelo://app?vid=41ad3bfa-744a-48b5-8f15-6635ee32b9df","ios":"levelo://app?vid=41ad3bfa-744a-48b5-8f15-6635ee32b9df"},"vehicle_type_id":"4","last_reported":1686679710,"current_range_meters":24800,"station_id":"ce4bhbh2rcd13ifvqepg","pricing_plan_id":"free"},{"bike_id":"a4081a8c-e00c-42e5-a351-9928a354a74c","system_id":"levelo_inurba_marseille","lat":43.28412,"lon":5.34996,"is_reserved":false,"is_disabled":false,"rental_uris":{"android":"levelo://app?vid=a4081a8c-e00c-42e5-a351-9928a354a74c","ios":"levelo://app?vid=a4081a8c-e00c-42e5-a351-9928a354a74c"},"vehicle_type_id":"4","last_reported":1686679710,"current_range_meters":31200,"station_id":"ce4bhbh2rcd13ifvqepg","pricing_plan_id":"free"},{"bike_id":"c2923c4b-a1be-4a3c-8e7d-881ce8bc7cf3","system_id":"levelo_inurba_marseille","lat":43.28414,"lon":5.34987,"is_reserved":false,"is_disabled":false,"rental_uris":{"android":"levelo://app?vid=c2923c4b-a1be-4a3c-8e7d-881ce8bc7cf3","ios":"levelo://app?vid=c2923c4b-a1be-4a3c-8e7d-881ce8bc7cf3"},"vehicle_type_id":"4","last_reported":1686679710,"current_range_meters":24000,"station_id":"ce4bhbh2rcd13ifvqepg","pricing_plan_id":"free"},{"bike_id":"13da791a-bbbc-429b-ae56-b9a5c1f1e5c8","system_id":"levelo_inurba_marseille","lat":43.28415,"lon":5.34981,"is_reserved":false,"is_disabled":false,"rental_uris":{"android":"levelo://app?vid=13da791a-bbbc-429b-ae56-b9a5c1f1e5c8","ios":"levelo://app?vid=13da791a-bbbc-429b-ae56-b9a5c1f1e5c8"},"vehicle_type_id":"4","last_reported":1686679710,"current_range_meters":2000,"station_id":"ce4bhbh2rcd13ifvqepg","pricing_plan_id":"free"},{"bike_id":"0d3b5797-4a3e-4f37-911c-a91ff97b98e6","system_id":"levelo_inurba_marseille","lat":43.28409,"lon":5.34976,"is_reserved":false,"is_disabled":false,"rental_uris":{"android":"levelo://app?vid=0d3b5797-4a3e-4f37-911c-a91ff97b98e6","ios":"levelo://app?vid=0d3b5797-4a3e-4f37-911c-a91ff97b98e6"},"vehicle_type_id":"4","last_reported":1686679710,"current_range_meters":24800,"station_id":"ce4bhbh2rcd13ifvqepg","pricing_plan_id":"free"},{"bike_id":"8a125fce-7084-47c6-9c79-e8d29897a238","system_id":"levelo_inurba_marseille","lat":43.28406,"lon":5.34984,"is_reserved":false,"is_disabled":false,"rental_uris":{"android":"levelo://app?vid=8a125fce-7084-47c6-9c79-e8d29897a238","ios":"levelo://app?vid=8a125fce-7084-47c6-9c79-e8d29897a238"},"vehicle_type_id":"4","last_reported":1686679710,"current_range_meters":800,"station_id":"ce4bhbh2rcd13ifvqepg","pricing_plan_id":"free"},{"bike_id":"e7759615-811d-4465-a380-519fb2a14ae8","system_id":"levelo_inurba_marseille","lat":43.283502,"lon":5.386471,"is_reserved":false,"is_disabled":false,"rental_uris":{"android":"levelo://app?vid=e7759615-811d-4465-a380-519fb2a14ae8","ios":"levelo://app?vid=e7759615-811d-4465-a380-519fb2a14ae8"},"vehicle_type_id":"4","last_reported":1686679710,"current_range_meters":10400,"station_id":"ce4bh492rcd13ifvqdvg","pricing_plan_id":"free"},{"bike_id":"e53d6b56-cf9e-46c0-86da-dec1e43836b4","system_id":"levelo_inurba_marseille","lat":43.282754,"lon":5.350519,"is_reserved":false,"is_disabled":false,"rental_uris":{"android":"levelo://app?vid=e53d6b56-cf9e-46c0-86da-dec1e43836b4","ios":"levelo://app?vid=e53d6b56-cf9e-46c0-86da-dec1e43836b4"},"vehicle_type_id":"4","last_reported":1686679710,"current_range_meters":0,"station_id":"ce4bhbp2rcd13ifvqerg","pricing_plan_id":"free"},{"bike_id":"8f0d0982-c328-4f20-bcbe-336217817613","system_id":"levelo_inurba_marseille","lat":43.282744,"lon":5.350533,"is_reserved":false,"is_disabled":false,"rental_uris":{"android":"levelo://app?vid=8f0d0982-c328-4f20-bcbe-336217817613","ios":"levelo://app?vid=8f0d0982-c328-4f20-bcbe-336217817613"},"vehicle_type_id":"4","last_reported":1686679710,"current_range_meters":400,"station_id":"ce4bhbp2rcd13ifvqerg","pricing_plan_id":"free"},{"bike_id":"5bcbe273-2145-4b59-a8d8-0cd475f9ffdc","system_id":"levelo_inurba_marseille","lat":43.282744,"lon":5.350533,"is_reserved":false,"is_disabled":false,"rental_uris":{"android":"levelo://app?vid=5bcbe273-2145-4b59-a8d8-0cd475f9ffdc","ios":"levelo://app?vid=5bcbe273-2145-4b59-a8d8-0cd475f9ffdc"},"vehicle_type_id":"4","last_reported":1686679710,"current_range_meters":16800,"station_id":"ce4bhbp2rcd13ifvqerg","pricing_plan_id":"free"},{"bike_id":"00595fcd-14b1-415c-babe-5216bfaf16f6","system_id":"levelo_inurba_marseille","lat":43.283502,"lon":5.386471,"is_reserved":false,"is_disabled":false,"rental_uris":{"android":"levelo://app?vid=00595fcd-14b1-415c-babe-5216bfaf16f6","ios":"levelo://app?vid=00595fcd-14b1-415c-babe-5216bfaf16f6"},"vehicle_type_id":"4","last_reported":1686679710,"current_range_meters":2000,"station_id":"ce4bh492rcd13ifvqdvg","pricing_plan_id":"free"},{"bike_id":"5682afce-fcd6-4551-a5eb-62f53bb01e27","system_id":"levelo_inurba_marseille","lat":43.283502,"lon":5.386471,"is_reserved":false,"is_disabled":false,"rental_uris":{"android":"levelo://app?vid=5682afce-fcd6-4551-a5eb-62f53bb01e27","ios":"levelo://app?vid=5682afce-fcd6-4551-a5eb-62f53bb01e27"},"vehicle_type_id":"4","last_reported":1686679710,"current_range_meters":6800,"station_id":"ce4bh492rcd13ifvqdvg","pricing_plan_id":"free"},{"bike_id":"458821e8-a508-42ca-8b04-f70062102d53","system_id":"levelo_inurba_marseille","lat":43.282754,"lon":5.350519,"is_reserved":false,"is_disabled":false,"rental_uris":{"android":"levelo://app?vid=458821e8-a508-42ca-8b04-f70062102d53","ios":"levelo://app?vid=458821e8-a508-42ca-8b04-f70062102d53"},"vehicle_type_id":"4","last_reported":1686679710,"current_range_meters":27600,"station_id":"ce4bhbp2rcd13ifvqerg","pricing_plan_id":"free"},{"bike_id":"56c45119-8767-4c07-8487-5f7fefdfa6a4","system_id":"levelo_inurba_marseille","lat":43.292724,"lon":5.401131,"is_reserved":false,"is_disabled":false,"rental_uris":{"android":"levelo://app?vid=56c45119-8767-4c07-8487-5f7fefdfa6a4","ios":"levelo://app?vid=56c45119-8767-4c07-8487-5f7fefdfa6a4"},"vehicle_type_id":"4","last_reported":1686679710,"current_range_meters":14400,"station_id":"ce4bh312rcd13ifvqdk0","pricing_plan_id":"free"},{"bike_id":"d7b21d6d-1f10-490c-b145-0085d9caee24","system_id":"levelo_inurba_marseille","lat":43.282754,"lon":5.350519,"is_reserved":false,"is_disabled":false,"rental_uris":{"android":"levelo://app?vid=d7b21d6d-1f10-490c-b145-0085d9caee24","ios":"levelo://app?vid=d7b21d6d-1f10-490c-b145-0085d9caee24"},"vehicle_type_id":"4","last_reported":1686679710,"current_range_meters":14800,"station_id":"ce4bhbp2rcd13ifvqerg","pricing_plan_id":"free"},{"bike_id":"21ca6bf7-c9a4-45c8-9e89-3047dfc0b447","system_id":"levelo_inurba_marseille","lat":43.280382,"lon":5.369291,"is_reserved":false,"is_disabled":false,"rental_uris":{"android":"levelo://app?vid=21ca6bf7-c9a4-45c8-9e89-3047dfc0b447","ios":"levelo://app?vid=21ca6bf7-c9a4-45c8-9e89-3047dfc0b447"},"vehicle_type_id":"4","last_reported":1686679710,"current_range_meters":24800,"station_id":"ce4bha12rcd13ifvqef0","pricing_plan_id":"free"},{"bike_id":"f1d722b3-d0bd-4304-9223-efa59521a64d","system_id":"levelo_inurba_marseille","lat":43.281044,"lon":5.378308,"is_reserved":false,"is_disabled":false,"rental_uris":{"android":"levelo://app?vid=f1d722b3-d0bd-4304-9223-efa59521a64d","ios":"levelo://app?vid=f1d722b3-d0bd-4304-9223-efa59521a64d"},"vehicle_type_id":"4","last_reported":1686679710,"current_range_meters":400,"station_id":"ce4bha12rcd13ifvqee0","pricing_plan_id":"free"},{"bike_id":"a39fb1a5-a863-4d26-bc18-cb5985f510fa","system_id":"levelo_inurba_marseille","lat":43.281044,"lon":5.378308,"is_reserved":false,"is_disabled":false,"rental_uris":{"android":"levelo://app?vid=a39fb1a5-a863-4d26-bc18-cb5985f510fa","ios":"levelo://app?vid=a39fb1a5-a863-4d26-bc18-cb5985f510fa"},"vehicle_type_id":"4","last_reported":1686679710,"current_range_meters":21200,"station_id":"ce4bha12rcd13ifvqee0","pricing_plan_id":"free"},{"bike_id":"71163962-ad67-4e6b-8366-d5b2c8cae856","system_id":"levelo_inurba_marseille","lat":43.281044,"lon":5.378308,"is_reserved":false,"is_disabled":false,"rental_uris":{"android":"levelo://app?vid=71163962-ad67-4e6b-8366-d5b2c8cae856","ios":"levelo://app?vid=71163962-ad67-4e6b-8366-d5b2c8cae856"},"vehicle_type_id":"4","last_reported":1686679710,"current_range_meters":8800,"station_id":"ce4bha12rcd13ifvqee0","pricing_plan_id":"free"},{"bike_id":"10797b2c-984e-42f3-a3d0-717409c72c08","system_id":"levelo_inurba_marseille","lat":43.2963,"lon":5.40592,"is_reserved":false,"is_disabled":false,"rental_uris":{"android":"levelo://app?vid=10797b2c-984e-42f3-a3d0-717409c72c08","ios":"levelo://app?vid=10797b2c-984e-42f3-a3d0-717409c72c08"},"vehicle_type_id":"4","last_reported":1686679710,"current_range_meters":1600,"station_id":"ce4bh0h2rcd13ifvqd60","pricing_plan_id":"free"},{"bike_id":"e1fa18d1-4678-428d-b859-30a0cd7b3f31","system_id":"levelo_inurba_marseille","lat":43.284462,"lon":5.392121,"is_reserved":false,"is_disabled":false,"rental_uris":{"android":"levelo://app?vid=e1fa18d1-4678-428d-b859-30a0cd7b3f31","ios":"levelo://app?vid=e1fa18d1-4678-428d-b859-30a0cd7b3f31"},"vehicle_type_id":"4","last_reported":1686679710,"current_range_meters":2800,"station_id":"ce4bhoh2rcd13ifvqh5g","pricing_plan_id":"free"},{"bike_id":"98fa6876-739b-4796-a2fe-7061f16afc6a","system_id":"levelo_inurba_marseille","lat":43.285742,"lon":5.395004,"is_reserved":false,"is_disabled":false,"rental_uris":{"android":"levelo://app?vid=98fa6876-739b-4796-a2fe-7061f16afc6a","ios":"levelo://app?vid=98fa6876-739b-4796-a2fe-7061f16afc6a"},"vehicle_type_id":"4","last_reported":1686679710,"current_range_meters":8800,"station_id":"ce4bh292rcd13ifvqdg0","pricing_plan_id":"free"},{"bike_id":"f857290a-e86c-4e8b-90ba-1bebd438e6b4","system_id":"levelo_inurba_marseille","lat":43.3042,"lon":5.41278,"is_reserved":false,"is_disabled":false,"rental_uris":{"android":"levelo://app?vid=f857290a-e86c-4e8b-90ba-1bebd438e6b4","ios":"levelo://app?vid=f857290a-e86c-4e8b-90ba-1bebd438e6b4"},"vehicle_type_id":"4","last_reported":1686679710,"current_range_meters":5200,"station_id":"ce4bhop2rcd13ifvqh8g","pricing_plan_id":"free"},{"bike_id":"36917568-3046-416b-80f1-9d3a128c6778","system_id":"levelo_inurba_marseille","lat":43.30416,"lon":5.41281,"is_reserved":false,"is_disabled":false,"rental_uris":{"android":"levelo://app?vid=36917568-3046-416b-80f1-9d3a128c6778","ios":"levelo://app?vid=36917568-3046-416b-80f1-9d3a128c6778"},"vehicle_type_id":"4","last_reported":1686679710,"current_range_meters":15200,"station_id":"ce4bhop2rcd13ifvqh8g","pricing_plan_id":"free"},{"bike_id":"21619207-459d-43d2-ae59-fd125b3b9e7e","system_id":"levelo_inurba_marseille","lat":43.3042,"lon":5.41284,"is_reserved":false,"is_disabled":false,"rental_uris":{"android":"levelo://app?vid=21619207-459d-43d2-ae59-fd125b3b9e7e","ios":"levelo://app?vid=21619207-459d-43d2-ae59-fd125b3b9e7e"},"vehicle_type_id":"4","last_reported":1686679710,"current_range_meters":6000,"station_id":"ce4bhop2rcd13ifvqh8g","pricing_plan_id":"free"},{"bike_id":"81c42b8a-071c-4977-80a0-02b7808e121b","system_id":"levelo_inurba_marseille","lat":43.30409,"lon":5.41286,"is_reserved":false,"is_disabled":false,"rental_uris":{"android":"levelo://app?vid=81c42b8a-071c-4977-80a0-02b7808e121b","ios":"levelo://app?vid=81c42b8a-071c-4977-80a0-02b7808e121b"},"vehicle_type_id":"4","last_reported":1686679710,"current_range_meters":400,"station_id":"ce4bhop2rcd13ifvqh8g","pricing_plan_id":"free"},{"bike_id":"73a0cc50-861b-4706-83f1-2ca81fc4e69c","system_id":"levelo_inurba_marseille","lat":43.287154,"lon":5.399979,"is_reserved":false,"is_disabled":false,"rental_uris":{"android":"levelo://app?vid=73a0cc50-861b-4706-83f1-2ca81fc4e69c","ios":"levelo://app?vid=73a0cc50-861b-4706-83f1-2ca81fc4e69c"},"vehicle_type_id":"4","last_reported":1686679710,"current_range_meters":15600,"station_id":"ce4bho92rcd13ifvqh3g","pricing_plan_id":"free"},{"bike_id":"04165d48-d13a-47c2-93f8-c6e73b4152c5","system_id":"levelo_inurba_marseille","lat":43.27893,"lon":5.38003,"is_reserved":false,"is_disabled":false,"rental_uris":{"android":"levelo://app?vid=04165d48-d13a-47c2-93f8-c6e73b4152c5","ios":"levelo://app?vid=04165d48-d13a-47c2-93f8-c6e73b4152c5"},"vehicle_type_id":"4","last_reported":1686679710,"current_range_meters":6800,"station_id":"","pricing_plan_id":"free"},{"bike_id":"110b3a0d-8a80-4416-9d55-5ef82250710b","system_id":"levelo_inurba_marseille","lat":43.287154,"lon":5.399979,"is_reserved":false,"is_disabled":false,"rental_uris":{"android":"levelo://app?vid=110b3a0d-8a80-4416-9d55-5ef82250710b","ios":"levelo://app?vid=110b3a0d-8a80-4416-9d55-5ef82250710b"},"vehicle_type_id":"4","last_reported":1686679710,"current_range_meters":2800,"station_id":"ce4bho92rcd13ifvqh3g","pricing_plan_id":"free"},{"bike_id":"edfbac0f-fd82-4157-8b0f-e0e6d918b43e","system_id":"levelo_inurba_marseille","lat":43.287154,"lon":5.399979,"is_reserved":false,"is_disabled":false,"rental_uris":{"android":"levelo://app?vid=edfbac0f-fd82-4157-8b0f-e0e6d918b43e","ios":"levelo://app?vid=edfbac0f-fd82-4157-8b0f-e0e6d918b43e"},"vehicle_type_id":"4","last_reported":1686679710,"current_range_meters":24800,"station_id":"ce4bho92rcd13ifvqh3g","pricing_plan_id":"free"},{"bike_id":"7f30974f-5e13-4b15-94a3-827d0f9225b6","system_id":"levelo_inurba_marseille","lat":43.320045,"lon":5.415046,"is_reserved":false,"is_disabled":false,"rental_uris":{"android":"levelo://app?vid=7f30974f-5e13-4b15-94a3-827d0f9225b6","ios":"levelo://app?vid=7f30974f-5e13-4b15-94a3-827d0f9225b6"},"vehicle_type_id":"4","last_reported":1686679710,"current_range_meters":1200,"station_id":"ce4bhq92rcd13ifvqhkg","pricing_plan_id":"free"},{"bike_id":"f9da095c-a888-4bb8-a3f6-393ce085088d","system_id":"levelo_inurba_marseille","lat":43.279742,"lon":5.38744,"is_reserved":false,"is_disabled":false,"rental_uris":{"android":"levelo://app?vid=f9da095c-a888-4bb8-a3f6-393ce085088d","ios":"levelo://app?vid=f9da095c-a888-4bb8-a3f6-393ce085088d"},"vehicle_type_id":"4","last_reported":1686679710,"current_range_meters":4400,"station_id":"ce4bhg12rcd13ifvqf80","pricing_plan_id":"free"},{"bike_id":"70720f44-96d2-4ade-a525-2f785ae3f9e6","system_id":"levelo_inurba_marseille","lat":43.29251,"lon":5.40904,"is_reserved":false,"is_disabled":false,"rental_uris":{"android":"levelo://app?vid=70720f44-96d2-4ade-a525-2f785ae3f9e6","ios":"levelo://app?vid=70720f44-96d2-4ade-a525-2f785ae3f9e6"},"vehicle_type_id":"4","last_reported":1686679710,"current_range_meters":6400,"station_id":"ce4bh192rcd13ifvqdc0","pricing_plan_id":"free"},{"bike_id":"e9a46508-2cd0-4977-aba8-812b86525b8a","system_id":"levelo_inurba_marseille","lat":43.29249,"lon":5.40904,"is_reserved":false,"is_disabled":false,"rental_uris":{"android":"levelo://app?vid=e9a46508-2cd0-4977-aba8-812b86525b8a","ios":"levelo://app?vid=e9a46508-2cd0-4977-aba8-812b86525b8a"},"vehicle_type_id":"4","last_reported":1686679710,"current_range_meters":6000,"station_id":"ce4bh192rcd13ifvqdc0","pricing_plan_id":"free"},{"bike_id":"ae39e40d-71b9-4312-8a15-c9263c849f97","system_id":"levelo_inurba_marseille","lat":43.29803,"lon":5.41344,"is_reserved":false,"is_disabled":false,"rental_uris":{"android":"levelo://app?vid=ae39e40d-71b9-4312-8a15-c9263c849f97","ios":"levelo://app?vid=ae39e40d-71b9-4312-8a15-c9263c849f97"},"vehicle_type_id":"4","last_reported":1686679710,"current_range_meters":20000,"station_id":"","pricing_plan_id":"free"},{"bike_id":"0a685758-6b77-4e42-b817-f0d461bfb4d5","system_id":"levelo_inurba_marseille","lat":43.29161,"lon":5.40981,"is_reserved":false,"is_disabled":false,"rental_uris":{"android":"levelo://app?vid=0a685758-6b77-4e42-b817-f0d461bfb4d5","ios":"levelo://app?vid=0a685758-6b77-4e42-b817-f0d461bfb4d5"},"vehicle_type_id":"4","last_reported":1686679710,"current_range_meters":4400,"station_id":"","pricing_plan_id":"free"},{"bike_id":"f70faa8f-272e-48d2-b9b5-29ca99348113","system_id":"levelo_inurba_marseille","lat":43.28055,"lon":5.39708,"is_reserved":false,"is_disabled":false,"rental_uris":{"android":"levelo://app?vid=f70faa8f-272e-48d2-b9b5-29ca99348113","ios":"levelo://app?vid=f70faa8f-272e-48d2-b9b5-29ca99348113"},"vehicle_type_id":"4","last_reported":1686679710,"current_range_meters":7600,"station_id":"","pricing_plan_id":"free"},{"bike_id":"ea816c46-f941-4be4-8e42-d679c6a83891","system_id":"levelo_inurba_marseille","lat":43.276769,"lon":5.388787,"is_reserved":false,"is_disabled":false,"rental_uris":{"android":"levelo://app?vid=ea816c46-f941-4be4-8e42-d679c6a83891","ios":"levelo://app?vid=ea816c46-f941-4be4-8e42-d679c6a83891"},"vehicle_type_id":"4","last_reported":1686679710,"current_range_meters":400,"station_id":"ce4bhi12rcd13ifvqfo0","pricing_plan_id":"free"},{"bike_id":"3e93c0ee-a8a7-4f76-9172-e60c61fa595a","system_id":"levelo_inurba_marseille","lat":43.33612,"lon":5.410321,"is_reserved":false,"is_disabled":false,"rental_uris":{"android":"levelo://app?vid=3e93c0ee-a8a7-4f76-9172-e60c61fa595a","ios":"levelo://app?vid=3e93c0ee-a8a7-4f76-9172-e60c61fa595a"},"vehicle_type_id":"4","last_reported":1686679710,"current_range_meters":31200,"station_id":"ce4bhqh2rcd13ifvqhmg","pricing_plan_id":"free"},{"bike_id":"9bedb028-247b-4f75-b93b-e9f29966ab78","system_id":"levelo_inurba_marseille","lat":43.273613,"lon":5.362705,"is_reserved":false,"is_disabled":false,"rental_uris":{"android":"levelo://app?vid=9bedb028-247b-4f75-b93b-e9f29966ab78","ios":"levelo://app?vid=9bedb028-247b-4f75-b93b-e9f29966ab78"},"vehicle_type_id":"4","last_reported":1686679710,"current_range_meters":5200,"station_id":"ce4bhbh2rcd13ifvqeo0","pricing_plan_id":"free"},{"bike_id":"f69e4753-cf21-43c5-8575-7f3be7816e1b","system_id":"levelo_inurba_marseille","lat":43.27562,"lon":5.38426,"is_reserved":false,"is_disabled":false,"rental_uris":{"android":"levelo://app?vid=f69e4753-cf21-43c5-8575-7f3be7816e1b","ios":"levelo://app?vid=f69e4753-cf21-43c5-8575-7f3be7816e1b"},"vehicle_type_id":"4","last_reported":1686679710,"current_range_meters":3600,"station_id":"","pricing_plan_id":"free"},{"bike_id":"9a3aff1e-3f52-4589-94fe-f0ed497bc563","system_id":"levelo_inurba_marseille","lat":43.33612,"lon":5.410321,"is_reserved":false,"is_disabled":false,"rental_uris":{"android":"levelo://app?vid=9a3aff1e-3f52-4589-94fe-f0ed497bc563","ios":"levelo://app?vid=9a3aff1e-3f52-4589-94fe-f0ed497bc563"},"vehicle_type_id":"4","last_reported":1686679710,"current_range_meters":14800,"station_id":"ce4bhqh2rcd13ifvqhmg","pricing_plan_id":"free"},{"bike_id":"a8f8b517-09b4-4197-94bb-6fa9d03dd022","system_id":"levelo_inurba_marseille","lat":43.27634,"lon":5.39189,"is_reserved":false,"is_disabled":false,"rental_uris":{"android":"levelo://app?vid=a8f8b517-09b4-4197-94bb-6fa9d03dd022","ios":"levelo://app?vid=a8f8b517-09b4-4197-94bb-6fa9d03dd022"},"vehicle_type_id":"4","last_reported":1686679710,"current_range_meters":27200,"station_id":"","pricing_plan_id":"free"},{"bike_id":"60369bb0-0d71-43b9-a915-5d4c7e589c53","system_id":"levelo_inurba_marseille","lat":43.317121,"lon":5.423936,"is_reserved":false,"is_disabled":false,"rental_uris":{"android":"levelo://app?vid=60369bb0-0d71-43b9-a915-5d4c7e589c53","ios":"levelo://app?vid=60369bb0-0d71-43b9-a915-5d4c7e589c53"},"vehicle_type_id":"4","last_reported":1686679710,"current_range_meters":31200,"station_id":"ce4bhp92rcd13ifvqhbg","pricing_plan_id":"free"},{"bike_id":"c135417b-40c4-4c04-943e-b7711837ba3c","system_id":"levelo_inurba_marseille","lat":43.317121,"lon":5.423936,"is_reserved":false,"is_disabled":false,"rental_uris":{"android":"levelo://app?vid=c135417b-40c4-4c04-943e-b7711837ba3c","ios":"levelo://app?vid=c135417b-40c4-4c04-943e-b7711837ba3c"},"vehicle_type_id":"4","last_reported":1686679710,"current_range_meters":26000,"station_id":"ce4bhp92rcd13ifvqhbg","pricing_plan_id":"free"},{"bike_id":"5a7b269b-2b02-4a20-952b-e6460f24f80b","system_id":"levelo_inurba_marseille","lat":43.317121,"lon":5.423936,"is_reserved":false,"is_disabled":false,"rental_uris":{"android":"levelo://app?vid=5a7b269b-2b02-4a20-952b-e6460f24f80b","ios":"levelo://app?vid=5a7b269b-2b02-4a20-952b-e6460f24f80b"},"vehicle_type_id":"4","last_reported":1686679710,"current_range_meters":29600,"station_id":"ce4bhp92rcd13ifvqhbg","pricing_plan_id":"free"},{"bike_id":"ffc5bc62-68dd-44d2-8618-bda22ad3a73e","system_id":"levelo_inurba_marseille","lat":43.317121,"lon":5.423936,"is_reserved":false,"is_disabled":false,"rental_uris":{"android":"levelo://app?vid=ffc5bc62-68dd-44d2-8618-bda22ad3a73e","ios":"levelo://app?vid=ffc5bc62-68dd-44d2-8618-bda22ad3a73e"},"vehicle_type_id":"4","last_reported":1686679710,"current_range_meters":31200,"station_id":"ce4bhp92rcd13ifvqhbg","pricing_plan_id":"free"},{"bike_id":"753c6b72-ca8a-45ae-bd9d-8eca801d7a1c","system_id":"levelo_inurba_marseille","lat":43.27614,"lon":5.39489,"is_reserved":false,"is_disabled":false,"rental_uris":{"android":"levelo://app?vid=753c6b72-ca8a-45ae-bd9d-8eca801d7a1c","ios":"levelo://app?vid=753c6b72-ca8a-45ae-bd9d-8eca801d7a1c"},"vehicle_type_id":"4","last_reported":1686679710,"current_range_meters":5600,"station_id":"","pricing_plan_id":"free"},{"bike_id":"f82c4e0b-ce86-4de4-962b-f266d6ba506e","system_id":"levelo_inurba_marseille","lat":43.273125,"lon":5.390731,"is_reserved":false,"is_disabled":false,"rental_uris":{"android":"levelo://app?vid=f82c4e0b-ce86-4de4-962b-f266d6ba506e","ios":"levelo://app?vid=f82c4e0b-ce86-4de4-962b-f266d6ba506e"},"vehicle_type_id":"4","last_reported":1686679710,"current_range_meters":26400,"station_id":"ce4bhgp2rcd13ifvqfe0","pricing_plan_id":"free"},{"bike_id":"712a663d-9d8b-4e24-b283-6c1a4bc8ee54","system_id":"levelo_inurba_marseille","lat":43.304096,"lon":5.425385,"is_reserved":false,"is_disabled":false,"rental_uris":{"android":"levelo://app?vid=712a663d-9d8b-4e24-b283-6c1a4bc8ee54","ios":"levelo://app?vid=712a663d-9d8b-4e24-b283-6c1a4bc8ee54"},"vehicle_type_id":"4","last_reported":1686679710,"current_range_meters":19200,"station_id":"ce4bhoh2rcd13ifvqh6g","pricing_plan_id":"free"},{"bike_id":"9a129c7f-beb5-4d42-95a2-6eca48744e6a","system_id":"levelo_inurba_marseille","lat":43.2714,"lon":5.38928,"is_reserved":false,"is_disabled":false,"rental_uris":{"android":"levelo://app?vid=9a129c7f-beb5-4d42-95a2-6eca48744e6a","ios":"levelo://app?vid=9a129c7f-beb5-4d42-95a2-6eca48744e6a"},"vehicle_type_id":"4","last_reported":1686679710,"current_range_meters":27200,"station_id":"","pricing_plan_id":"free"},{"bike_id":"13f8dd5b-a81d-4cff-ac6f-b64e762d8a2b","system_id":"levelo_inurba_marseille","lat":43.278128,"lon":5.407195,"is_reserved":false,"is_disabled":false,"rental_uris":{"android":"levelo://app?vid=13f8dd5b-a81d-4cff-ac6f-b64e762d8a2b","ios":"levelo://app?vid=13f8dd5b-a81d-4cff-ac6f-b64e762d8a2b"},"vehicle_type_id":"4","last_reported":1686679710,"current_range_meters":21200,"station_id":"ce4bhnh2rcd13ifvqgtg","pricing_plan_id":"free"},{"bike_id":"9fb00c9d-0b33-4dab-87d6-7026cca0560a","system_id":"levelo_inurba_marseille","lat":43.27813,"lon":5.40715,"is_reserved":false,"is_disabled":false,"rental_uris":{"android":"levelo://app?vid=9fb00c9d-0b33-4dab-87d6-7026cca0560a","ios":"levelo://app?vid=9fb00c9d-0b33-4dab-87d6-7026cca0560a"},"vehicle_type_id":"4","last_reported":1686679710,"current_range_meters":30400,"station_id":"ce4bhnh2rcd13ifvqgtg","pricing_plan_id":"free"},{"bike_id":"ad4fc248-046b-409f-ba4a-33c2f1e68b94","system_id":"levelo_inurba_marseille","lat":43.27812,"lon":5.40725,"is_reserved":false,"is_disabled":false,"rental_uris":{"android":"levelo://app?vid=ad4fc248-046b-409f-ba4a-33c2f1e68b94","ios":"levelo://app?vid=ad4fc248-046b-409f-ba4a-33c2f1e68b94"},"vehicle_type_id":"4","last_reported":1686679710,"current_range_meters":15200,"station_id":"ce4bhnh2rcd13ifvqgtg","pricing_plan_id":"free"},{"bike_id":"ecf886ba-9f33-4bbb-b609-9525919783a8","system_id":"levelo_inurba_marseille","lat":43.27812,"lon":5.40725,"is_reserved":false,"is_disabled":false,"rental_uris":{"android":"levelo://app?vid=ecf886ba-9f33-4bbb-b609-9525919783a8","ios":"levelo://app?vid=ecf886ba-9f33-4bbb-b609-9525919783a8"},"vehicle_type_id":"4","last_reported":1686679710,"current_range_meters":25600,"station_id":"ce4bhnh2rcd13ifvqgtg","pricing_plan_id":"free"},{"bike_id":"ce5e9c85-0d4b-4eb1-a572-e91c58d66f65","system_id":"levelo_inurba_marseille","lat":43.26681,"lon":5.382694,"is_reserved":false,"is_disabled":false,"rental_uris":{"android":"levelo://app?vid=ce5e9c85-0d4b-4eb1-a572-e91c58d66f65","ios":"levelo://app?vid=ce5e9c85-0d4b-4eb1-a572-e91c58d66f65"},"vehicle_type_id":"4","last_reported":1686679710,"current_range_meters":30800,"station_id":"ce4bhg92rcd13ifvqf90","pricing_plan_id":"free"},{"bike_id":"cfba2fbe-9ed5-423f-b411-8d6c38451715","system_id":"levelo_inurba_marseille","lat":43.26681,"lon":5.382694,"is_reserved":false,"is_disabled":false,"rental_uris":{"android":"levelo://app?vid=cfba2fbe-9ed5-423f-b411-8d6c38451715","ios":"levelo://app?vid=cfba2fbe-9ed5-423f-b411-8d6c38451715"},"vehicle_type_id":"4","last_reported":1686679710,"current_range_meters":31200,"station_id":"ce4bhg92rcd13ifvqf90","pricing_plan_id":"free"},{"bike_id":"5cafd757-7fb9-4515-b638-d95a954b69d9","system_id":"levelo_inurba_marseille","lat":43.26681,"lon":5.382694,"is_reserved":false,"is_disabled":false,"rental_uris":{"android":"levelo://app?vid=5cafd757-7fb9-4515-b638-d95a954b69d9","ios":"levelo://app?vid=5cafd757-7fb9-4515-b638-d95a954b69d9"},"vehicle_type_id":"4","last_reported":1686679710,"current_range_meters":2000,"station_id":"ce4bhg92rcd13ifvqf90","pricing_plan_id":"free"},{"bike_id":"6275aaca-a354-407f-be44-df40f2969d44","system_id":"levelo_inurba_marseille","lat":43.26681,"lon":5.382694,"is_reserved":false,"is_disabled":false,"rental_uris":{"android":"levelo://app?vid=6275aaca-a354-407f-be44-df40f2969d44","ios":"levelo://app?vid=6275aaca-a354-407f-be44-df40f2969d44"},"vehicle_type_id":"4","last_reported":1686679710,"current_range_meters":31200,"station_id":"ce4bhg92rcd13ifvqf90","pricing_plan_id":"free"},{"bike_id":"2ac9646c-6e08-4ba6-8c7d-0c000aeebdba","system_id":"levelo_inurba_marseille","lat":43.27996,"lon":5.416624,"is_reserved":false,"is_disabled":false,"rental_uris":{"android":"levelo://app?vid=2ac9646c-6e08-4ba6-8c7d-0c000aeebdba","ios":"levelo://app?vid=2ac9646c-6e08-4ba6-8c7d-0c000aeebdba"},"vehicle_type_id":"4","last_reported":1686679710,"current_range_meters":13200,"station_id":"ce4bho12rcd13ifvqh1g","pricing_plan_id":"free"},{"bike_id":"4c694481-1fc0-4939-90dd-80bffad96f21","system_id":"levelo_inurba_marseille","lat":43.27996,"lon":5.416624,"is_reserved":false,"is_disabled":false,"rental_uris":{"android":"levelo://app?vid=4c694481-1fc0-4939-90dd-80bffad96f21","ios":"levelo://app?vid=4c694481-1fc0-4939-90dd-80bffad96f21"},"vehicle_type_id":"4","last_reported":1686679710,"current_range_meters":7200,"station_id":"ce4bho12rcd13ifvqh1g","pricing_plan_id":"free"},{"bike_id":"9fa38242-22b2-4e58-beeb-64728c7bb024","system_id":"levelo_inurba_marseille","lat":43.27996,"lon":5.416624,"is_reserved":false,"is_disabled":false,"rental_uris":{"android":"levelo://app?vid=9fa38242-22b2-4e58-beeb-64728c7bb024","ios":"levelo://app?vid=9fa38242-22b2-4e58-beeb-64728c7bb024"},"vehicle_type_id":"4","last_reported":1686679710,"current_range_meters":22800,"station_id":"ce4bho12rcd13ifvqh1g","pricing_plan_id":"free"},{"bike_id":"3987290e-fd4b-4f2b-81c0-57fca98f9cde","system_id":"levelo_inurba_marseille","lat":43.267966,"lon":5.393976,"is_reserved":false,"is_disabled":false,"rental_uris":{"android":"levelo://app?vid=3987290e-fd4b-4f2b-81c0-57fca98f9cde","ios":"levelo://app?vid=3987290e-fd4b-4f2b-81c0-57fca98f9cde"},"vehicle_type_id":"4","last_reported":1686679710,"current_range_meters":30400,"station_id":"ce4bhh12rcd13ifvqfg0","pricing_plan_id":"free"},{"bike_id":"c5c0eb20-89f3-49c1-a531-d3a0ee224618","system_id":"levelo_inurba_marseille","lat":43.265778,"lon":5.390014,"is_reserved":false,"is_disabled":false,"rental_uris":{"android":"levelo://app?vid=c5c0eb20-89f3-49c1-a531-d3a0ee224618","ios":"levelo://app?vid=c5c0eb20-89f3-49c1-a531-d3a0ee224618"},"vehicle_type_id":"4","last_reported":1686679710,"current_range_meters":26000,"station_id":"ce4bhe12rcd13ifvqf30","pricing_plan_id":"free"},{"bike_id":"38b2b96b-ac0d-4fde-937d-9f3ac643a59c","system_id":"levelo_inurba_marseille","lat":43.265569,"lon":5.390047,"is_reserved":false,"is_disabled":false,"rental_uris":{"android":"levelo://app?vid=38b2b96b-ac0d-4fde-937d-9f3ac643a59c","ios":"levelo://app?vid=38b2b96b-ac0d-4fde-937d-9f3ac643a59c"},