{"last_updated":1756303820,"ttl":60,"version":"2.2","data":{"bikes":[{"bike_id":"c6a5edcb-70de-442c-867d-206ab7fa279a","system_id":"levelo_inurba_marseille","lat":43.27421,"lon":5.39412,"is_reserved":false,"is_disabled":false,"rental_uris":{"android":"levelo://app?vid=c6a5edcb-70de-442c-867d-206ab7fa279a","ios":"levelo://app?vid=c6a5edcb-70de-442c-867d-206ab7fa279a"},"vehicle_type_id":"4","last_reported":1756303820,"current_range_meters":2800,"station_id":"","pricing_plan_id":"cebpf4jnsgd1na2vs0mg"},{"bike_id":"62cea5d1-ff88-4a0e-bd3e-8047b1c7faf0","system_id":"levelo_inurba_marseille","lat":43.27947,"lon":5.41042,"is_reserved":false,"is_disabled":false,"rental_uris":{"android":"levelo://app?vid=62cea5d1-ff88-4a0e-bd3e-8047b1c7faf0","ios":"levelo://app?vid=62cea5d1-ff88-4a0e-bd3e-8047b1c7faf0"},"vehicle_type_id":"4","last_reported":1756303820,"current_range_meters":2800,"station_id":"ce4bhnp2rcd13ifvqh0g","pricing_plan_id":"cebpf4jnsgd1na2vs0mg"},{"bike_id":"55d0b7e6-a274-40cb-978f-513ddec655b0","system_id":"levelo_inurba_marseille","lat":43.29556,"lon":5.3751,"is_reserved":false,"is_disabled":false,"rental_uris":{"android":"levelo://app?vid=55d0b7e6-a274-40cb-978f-513ddec655b0","ios":"levelo://app?vid=55d0b7e6-a274-40cb-978f-513ddec655b0"},"vehicle_type_id":"4","last_reported":1756303820,"current_range_meters":3200,"station_id":"ce4bgh92rcd13ifvqb50","pricing_plan_id":"cebpf4jnsgd1na2vs0mg"},{"bike_id":"03be758f-3e6d-4c72-8876-95a4359600d6","system_id":"levelo_inurba_marseille","lat":43.33793,"lon":5.37498,"is_reserved":false,"is_disabled":false,"rental_uris":{"android":"levelo://app?vid=03be758f-3e6d-4c72-8876-95a4359600d6","ios":"levelo://app?vid=03be758f-3e6d-4c72-8876-95a4359600d6"},"vehicle_type_id":"4","last_reported":1756303820,"current_range_meters":3200,"station_id":"","pricing_plan_id":"cebpf4jnsgd1na2vs0mg"},{"bike_id":"236f1a17-bd84-4b8e-977f-7df7d8cf402c","system_id":"levelo_inurba_marseille","lat":43.30785,"lon":5.43522,"is_reserved":false,"is_disabled":true,"rental_uris":{"android":"levelo://app?vid=236f1a17-bd84-4b8e-977f-7df7d8cf402c","ios":"levelo://app?vid=236f1a17-bd84-4b8e-977f-7df7d8cf402c"},"vehicle_type_id":"4","last_reported":1756303820,"current_range_meters":3200,"station_id":"ce4bhph2rcd13ifvqheg","pricing_plan_id":"cebpf4jnsgd1na2vs0mg"},{"bike_id":"5952d60e-eda6-4650-aad4-6376002e4cf6","system_id":"levelo_inurba_marseille","lat":43.32103,"lon":5.368,"is_reserved":false,"is_disabled":false,"rental_uris":{"android":"levelo://app?vid=5952d60e-eda6-4650-aad4-6376002e4cf6","ios":"levelo://app?vid=5952d60e-eda6-4650-aad4-6376002e4cf6"},"vehicle_type_id":"4","last_reported":1756303820,"current_range_meters":3200,"station_id":"ce4bhrh2rcd13ifvqhug","pricing_plan_id":"cebpf4jnsgd1na2vs0mg"},{"bike_id":"d97476e8-c014-42b7-97e3-eec7f4d817d9","system_id":"levelo_inurba_marseille","lat":43.27426,"lon":5.39424,"is_reserved":false,"is_disabled":false,"rental_uris":{"android":"levelo://app?vid=d97476e8-c014-42b7-97e3-eec7f4d817d9","ios":"levelo://app?vid=d97476e8-c014-42b7-97e3-eec7f4d817d9"},"vehicle_type_id":"4","last_reported":1756303820,"current_range_meters":2800,"station_id":"ce4bhdp2rcd13ifvqf20","pricing_plan_id":"cebpf4jnsgd1na2vs0mg"},{"bike_id":"f6bd5b86-eb54-487c-8a4e-3da908b177ef","system_id":"levelo_inurba_marseille","lat":43.29743,"lon":5.37123,"is_reserved":false,"is_disabled":false,"rental_uris":{"android":"levelo://app?vid=f6bd5b86-eb54-487c-8a4e-3da908b177ef","ios":"levelo://app?vid=f6bd5b86-eb54-487c-8a4e-3da908b177ef"},"vehicle_type_id":"4","last_reported":1756303820,"current_range_meters":3600,"station_id":"ce4bgop2rcd13ifvqc1g","pricing_plan_id":"cebpf4jnsgd1na2vs0mg"},{"bike_id":"8f8ae447-f357-4578-ad97-b43657e2dfc8","system_id":"levelo_inurba_marseille","lat":43.30214,"lon":5.39473,"is_reserved":false,"is_disabled":false,"rental_uris":{"android":"levelo://app?vid=8f8ae447-f357-4578-ad97-b43657e2dfc8","ios":"levelo://app?vid=8f8ae447-f357-4578-ad97-b43657e2dfc8"},"vehicle_type_id":"4","last_reported":1756303820,"current_range_meters":4000,"station_id":"ce4bh0p2rcd13ifvqd70","pricing_plan_id":"cebpf4jnsgd1na2vs0mg"},{"bike_id":"b46639d3-0e19-46be-a590-754abfdbb7c9","system_id":"levelo_inurba_marseille","lat":43.295337,"lon":5.38546,"is_reserved":false,"is_disabled":true,"rental_uris":{"android":"levelo://app?vid=b46639d3-0e19-46be-a590-754abfdbb7c9","ios":"levelo://app?vid=b46639d3-0e19-46be-a590-754abfdbb7c9"},"vehicle_type_id":"4","last_reported":1756303820,"current_range_meters":4400,"station_id":"ce4bgih2rcd13ifvqba0","pricing_plan_id":"cebpf4jnsgd1na2vs0mg"},{"bike_id":"4b0fbe32-f48e-48bb-8a05-8d3b31269745","system_id":"levelo_inurba_marseille","lat":43.29619,"lon":5.37732,"is_reserved":false,"is_disabled":false,"rental_uris":{"android":"levelo://app?vid=4b0fbe32-f48e-48bb-8a05-8d3b31269745","ios":"levelo://app?vid=4b0fbe32-f48e-48bb-8a05-8d3b31269745"},"vehicle_type_id":"4","last_reported":1756303820,"current_range_meters":4800,"station_id":"ce4bgi92rcd13ifvqb90","pricing_plan_id":"cebpf4jnsgd1na2vs0mg"},{"bike_id":"8994e1f8-a036-45eb-b480-c72ea1ba4c36","system_id":"levelo_inurba_marseille","lat":43.27412,"lon":5.39408,"is_reserved":false,"is_disabled":false,"rental_uris":{"android":"levelo://app?vid=8994e1f8-a036-45eb-b480-c72ea1ba4c36","ios":"levelo://app?vid=8994e1f8-a036-45eb-b480-c72ea1ba4c36"},"vehicle_type_id":"4","last_reported":1756303820,"current_range_meters":4800,"station_id":"","pricing_plan_id":"cebpf4jnsgd1na2vs0mg"},{"bike_id":"eb44255e-240a-427d-a89f-35233b7cc9d3","system_id":"levelo_inurba_marseille","lat":43.26556,"lon":5.37285,"is_reserved":false,"is_disabled":false,"rental_uris":{"android":"levelo://app?vid=eb44255e-240a-427d-a89f-35233b7cc9d3","ios":"levelo://app?vid=eb44255e-240a-427d-a89f-35233b7cc9d3"},"vehicle_type_id":"4","last_reported":1756303820,"current_range_meters":4800,"station_id":"ce4bhg12rcd13ifvqf70","pricing_plan_id":"cebpf4jnsgd1na2vs0mg"},{"bike_id":"d66b83e9-86ce-46a9-bafd-05747c749cee","system_id":"levelo_inurba_marseille","lat":43.2851,"lon":5.38444,"is_reserved":false,"is_disabled":false,"rental_uris":{"android":"levelo://app?vid=d66b83e9-86ce-46a9-bafd-05747c749cee","ios":"levelo://app?vid=d66b83e9-86ce-46a9-bafd-05747c749cee"},"vehicle_type_id":"4","last_reported":1756303820,"current_range_meters":5600,"station_id":"ce4bh512rcd13ifvqe3g","pricing_plan_id":"cebpf4jnsgd1na2vs0mg"},{"bike_id":"2f4e8b28-6095-4b3f-ae0a-f9f0c872541a","system_id":"levelo_inurba_marseille","lat":43.29035,"lon":5.37571,"is_reserved":false,"is_disabled":false,"rental_uris":{"android":"levelo://app?vid=2f4e8b28-6095-4b3f-ae0a-f9f0c872541a","ios":"levelo://app?vid=2f4e8b28-6095-4b3f-ae0a-f9f0c872541a"},"vehicle_type_id":"4","last_reported":1756303820,"current_range_meters":5600,"station_id":"ce4bh692rcd13ifvqe90","pricing_plan_id":"cebpf4jnsgd1na2vs0mg"},{"bike_id":"560f02fb-2657-4cc8-9354-b4642232e6e9","system_id":"levelo_inurba_marseille","lat":43.30093,"lon":5.39072,"is_reserved":false,"is_disabled":false,"rental_uris":{"android":"levelo://app?vid=560f02fb-2657-4cc8-9354-b4642232e6e9","ios":"levelo://app?vid=560f02fb-2657-4cc8-9354-b4642232e6e9"},"vehicle_type_id":"4","last_reported":1756303820,"current_range_meters":6000,"station_id":"ce4bh192rcd13ifvqdb0","pricing_plan_id":"cebpf4jnsgd1na2vs0mg"},{"bike_id":"3add44d8-49b4-46c3-a778-11b696c2bd26","system_id":"levelo_inurba_marseille","lat":43.212,"lon":5.35048,"is_reserved":false,"is_disabled":false,"rental_uris":{"android":"levelo://app?vid=3add44d8-49b4-46c3-a778-11b696c2bd26","ios":"levelo://app?vid=3add44d8-49b4-46c3-a778-11b696c2bd26"},"vehicle_type_id":"4","last_reported":1756303820,"current_range_meters":6000,"station_id":"st_cvj6sg6p6f1abm77japg","pricing_plan_id":"cebpf4jnsgd1na2vs0mg"},{"bike_id":"95d2e177-6c6c-4608-b1f1-ff651bf795ca","system_id":"levelo_inurba_marseille","lat":43.26556,"lon":5.37283,"is_reserved":false,"is_disabled":true,"rental_uris":{"android":"levelo://app?vid=95d2e177-6c6c-4608-b1f1-ff651bf795ca","ios":"levelo://app?vid=95d2e177-6c6c-4608-b1f1-ff651bf795ca"},"vehicle_type_id":"4","last_reported":1756303820,"current_range_meters":6400,"station_id":"ce4bhg12rcd13ifvqf70","pricing_plan_id":"cebpf4jnsgd1na2vs0mg"},{"bike_id":"cae9e503-97b9-421a-a2dd-4058a984c08e","system_id":"levelo_inurba_marseille","lat":43.21757,"lon":5.346,"is_reserved":false,"is_disabled":false,"rental_uris":{"android":"levelo://app?vid=cae9e503-97b9-421a-a2dd-4058a984c08e","ios":"levelo://app?vid=cae9e503-97b9-421a-a2dd-4058a984c08e"},"vehicle_type_id":"4","last_reported":1756303820,"current_range_meters":6400,"station_id":"st_cvj6r9ubvosntc0bgbag","pricing_plan_id":"cebpf4jnsgd1na2vs0mg"},{"bike_id":"edc4c588-4db1-4b48-bddb-0eba1d72ba9f","system_id":"levelo_inurba_marseille","lat":43.211853,"lon":5.350791,"is_reserved":false,"is_disabled":false,"rental_uris":{"android":"levelo://app?vid=edc4c588-4db1-4b48-bddb-0eba1d72ba9f","ios":"levelo://app?vid=edc4c588-4db1-4b48-bddb-0eba1d72ba9f"},"vehicle_type_id":"4","last_reported":1756303820,"current_range_meters":6400,"station_id":"st_cvj6sg6p6f1abm77japg","pricing_plan_id":"cebpf4jnsgd1na2vs0mg"},{"bike_id":"9eddc19c-4d66-4671-81a8-5ffa7a68db07","system_id":"levelo_inurba_marseille","lat":43.21197,"lon":5.35059,"is_reserved":false,"is_disabled":false,"rental_uris":{"android":"levelo://app?vid=9eddc19c-4d66-4671-81a8-5ffa7a68db07","ios":"levelo://app?vid=9eddc19c-4d66-4671-81a8-5ffa7a68db07"},"vehicle_type_id":"4","last_reported":1756303820,"current_range_meters":6400,"station_id":"st_cvj6sg6p6f1abm77japg","pricing_plan_id":"cebpf4jnsgd1na2vs0mg"},{"bike_id":"559fa353-a493-4dd6-9f58-e7f1de3d83e8","system_id":"levelo_inurba_marseille","lat":43.28668,"lon":5.38673,"is_reserved":false,"is_disabled":false,"rental_uris":{"android":"levelo://app?vid=559fa353-a493-4dd6-9f58-e7f1de3d83e8","ios":"levelo://app?vid=559fa353-a493-4dd6-9f58-e7f1de3d83e8"},"vehicle_type_id":"4","last_reported":1756303820,"current_range_meters":6800,"station_id":"ce4bh492rcd13ifvqdug","pricing_plan_id":"cebpf4jnsgd1na2vs0mg"},{"bike_id":"fa3d3d95-7c3b-45eb-b390-0c349bc66fb6","system_id":"levelo_inurba_marseille","lat":43.30144,"lon":5.37413,"is_reserved":false,"is_disabled":false,"rental_uris":{"android":"levelo://app?vid=fa3d3d95-7c3b-45eb-b390-0c349bc66fb6","ios":"levelo://app?vid=fa3d3d95-7c3b-45eb-b390-0c349bc66fb6"},"vehicle_type_id":"4","last_reported":1756303820,"current_range_meters":6800,"station_id":"ce4bgs92rcd13ifvqcc0","pricing_plan_id":"cebpf4jnsgd1na2vs0mg"},{"bike_id":"81116bfd-0784-4976-9b6b-0faba717b22f","system_id":"levelo_inurba_marseille","lat":43.31373,"lon":5.38496,"is_reserved":false,"is_disabled":false,"rental_uris":{"android":"levelo://app?vid=81116bfd-0784-4976-9b6b-0faba717b22f","ios":"levelo://app?vid=81116bfd-0784-4976-9b6b-0faba717b22f"},"vehicle_type_id":"4","last_reported":1756303820,"current_range_meters":6800,"station_id":"ce4bgt92rcd13ifvqcf0","pricing_plan_id":"cebpf4jnsgd1na2vs0mg"},{"bike_id":"25c9cae4-61ff-4c7d-8fc8-f7bf27f72b1b","system_id":"levelo_inurba_marseille","lat":43.2927,"lon":5.36831,"is_reserved":false,"is_disabled":true,"rental_uris":{"android":"levelo://app?vid=25c9cae4-61ff-4c7d-8fc8-f7bf27f72b1b","ios":"levelo://app?vid=25c9cae4-61ff-4c7d-8fc8-f7bf27f72b1b"},"vehicle_type_id":"4","last_reported":1756303820,"current_range_meters":6800,"station_id":"ce4bhbp2rcd13ifvqesg","pricing_plan_id":"cebpf4jnsgd1na2vs0mg"},{"bike_id":"86144b03-6fce-4de4-8318-7eec00e4127c","system_id":"levelo_inurba_marseille","lat":43.24546,"lon":5.395278,"is_reserved":false,"is_disabled":false,"rental_uris":{"android":"levelo://app?vid=86144b03-6fce-4de4-8318-7eec00e4127c","ios":"levelo://app?vid=86144b03-6fce-4de4-8318-7eec00e4127c"},"vehicle_type_id":"4","last_reported":1756303820,"current_range_meters":6800,"station_id":"ce4bhlp2rcd13ifvqgjg","pricing_plan_id":"cebpf4jnsgd1na2vs0mg"},{"bike_id":"d8faa772-cd7e-4a01-8170-d14f8dc390f2","system_id":"levelo_inurba_marseille","lat":43.28343,"lon":5.38107,"is_reserved":false,"is_disabled":false,"rental_uris":{"android":"levelo://app?vid=d8faa772-cd7e-4a01-8170-d14f8dc390f2","ios":"levelo://app?vid=d8faa772-cd7e-4a01-8170-d14f8dc390f2"},"vehicle_type_id":"4","last_reported":1756303820,"current_range_meters":6800,"station_id":"ce4bh412rcd13ifvqdr0","pricing_plan_id":"cebpf4jnsgd1na2vs0mg"},{"bike_id":"c5e451c5-f0fa-4fc1-96e3-092061dc993f","system_id":"levelo_inurba_marseille","lat":43.29643,"lon":5.40596,"is_reserved":false,"is_disabled":false,"rental_uris":{"android":"levelo://app?vid=c5e451c5-f0fa-4fc1-96e3-092061dc993f","ios":"levelo://app?vid=c5e451c5-f0fa-4fc1-96e3-092061dc993f"},"vehicle_type_id":"4","last_reported":1756303820,"current_range_meters":7200,"station_id":"ce4bh0h2rcd13ifvqd60","pricing_plan_id":"cebpf4jnsgd1na2vs0mg"},{"bike_id":"01183fec-a66c-4606-bcd1-409c1a199c99","system_id":"levelo_inurba_marseille","lat":43.27999,"lon":5.41666,"is_reserved":false,"is_disabled":false,"rental_uris":{"android":"levelo://app?vid=01183fec-a66c-4606-bcd1-409c1a199c99","ios":"levelo://app?vid=01183fec-a66c-4606-bcd1-409c1a199c99"},"vehicle_type_id":"4","last_reported":1756303820,"current_range_meters":10000,"station_id":"ce4bho12rcd13ifvqh1g","pricing_plan_id":"cebpf4jnsgd1na2vs0mg"},{"bike_id":"41d649be-ebec-4c0c-905c-b9cdcb5521f9","system_id":"levelo_inurba_marseille","lat":43.31486,"lon":5.37302,"is_reserved":false,"is_disabled":false,"rental_uris":{"android":"levelo://app?vid=41d649be-ebec-4c0c-905c-b9cdcb5521f9","ios":"levelo://app?vid=41d649be-ebec-4c0c-905c-b9cdcb5521f9"},"vehicle_type_id":"4","last_reported":1756303820,"current_range_meters":7200,"station_id":"ce4bgt12rcd13ifvqcd0","pricing_plan_id":"cebpf4jnsgd1na2vs0mg"},{"bike_id":"6635039d-2798-4046-87ea-bc8c9219973d","system_id":"levelo_inurba_marseille","lat":43.2742,"lon":5.39411,"is_reserved":false,"is_disabled":false,"rental_uris":{"android":"levelo://app?vid=6635039d-2798-4046-87ea-bc8c9219973d","ios":"levelo://app?vid=6635039d-2798-4046-87ea-bc8c9219973d"},"vehicle_type_id":"4","last_reported":1756303820,"current_range_meters":8000,"station_id":"ce4bhdp2rcd13ifvqf20","pricing_plan_id":"cebpf4jnsgd1na2vs0mg"},{"bike_id":"2732b203-8d34-41ae-80bd-b4f151d77aad","system_id":"levelo_inurba_marseille","lat":43.30257,"lon":5.40547,"is_reserved":false,"is_disabled":false,"rental_uris":{"android":"levelo://app?vid=2732b203-8d34-41ae-80bd-b4f151d77aad","ios":"levelo://app?vid=2732b203-8d34-41ae-80bd-b4f151d77aad"},"vehicle_type_id":"4","last_reported":1756303820,"current_range_meters":8000,"station_id":"","pricing_plan_id":"cebpf4jnsgd1na2vs0mg"},{"bike_id":"0d502687-08ef-4491-8893-8a03d8688be8","system_id":"levelo_inurba_marseille","lat":43.29595,"lon":5.36188,"is_reserved":false,"is_disabled":false,"rental_uris":{"android":"levelo://app?vid=0d502687-08ef-4491-8893-8a03d8688be8","ios":"levelo://app?vid=0d502687-08ef-4491-8893-8a03d8688be8"},"vehicle_type_id":"4","last_reported":1756303820,"current_range_meters":8000,"station_id":"","pricing_plan_id":"cebpf4jnsgd1na2vs0mg"},{"bike_id":"adf2858a-f6b9-45fb-b2e7-8d1012726fd7","system_id":"levelo_inurba_marseille","lat":43.21775,"lon":5.34579,"is_reserved":false,"is_disabled":false,"rental_uris":{"android":"levelo://app?vid=adf2858a-f6b9-45fb-b2e7-8d1012726fd7","ios":"levelo://app?vid=adf2858a-f6b9-45fb-b2e7-8d1012726fd7"},"vehicle_type_id":"4","last_reported":1756303820,"current_range_meters":8000,"station_id":"","pricing_plan_id":"cebpf4jnsgd1na2vs0mg"},{"bike_id":"7fda8ea6-a5f0-4d83-8a7c-61069b0efe7d","system_id":"levelo_inurba_marseille","lat":43.23057,"lon":5.35492,"is_reserved":false,"is_disabled":false,"rental_uris":{"android":"levelo://app?vid=7fda8ea6-a5f0-4d83-8a7c-61069b0efe7d","ios":"levelo://app?vid=7fda8ea6-a5f0-4d83-8a7c-61069b0efe7d"},"vehicle_type_id":"4","last_reported":1756303820,"current_range_meters":7200,"station_id":"cpo3342slgdg3j2ifvpg","pricing_plan_id":"cebpf4jnsgd1na2vs0mg"},{"bike_id":"cc48af85-7a62-4615-9d6e-8285e196337f","system_id":"levelo_inurba_marseille","lat":43.246705,"lon":5.381862,"is_reserved":false,"is_disabled":false,"rental_uris":{"android":"levelo://app?vid=cc48af85-7a62-4615-9d6e-8285e196337f","ios":"levelo://app?vid=cc48af85-7a62-4615-9d6e-8285e196337f"},"vehicle_type_id":"4","last_reported":1756303820,"current_range_meters":8000,"station_id":"","pricing_plan_id":"cebpf4jnsgd1na2vs0mg"},{"bike_id":"7cec2277-c677-4d8a-8ee7-56d81119624d","system_id":"levelo_inurba_marseille","lat":43.24647,"lon":5.38888,"is_reserved":false,"is_disabled":false,"rental_uris":{"android":"levelo://app?vid=7cec2277-c677-4d8a-8ee7-56d81119624d","ios":"levelo://app?vid=7cec2277-c677-4d8a-8ee7-56d81119624d"},"vehicle_type_id":"4","last_reported":1756303820,"current_range_meters":8000,"station_id":"ce4bhg12rcd13ifvqf60","pricing_plan_id":"cebpf4jnsgd1na2vs0mg"},{"bike_id":"a47c811d-1897-4fec-bdb1-6f23a8092dce","system_id":"levelo_inurba_marseille","lat":43.260648,"lon":5.393971,"is_reserved":false,"is_disabled":false,"rental_uris":{"android":"levelo://app?vid=a47c811d-1897-4fec-bdb1-6f23a8092dce","ios":"levelo://app?vid=a47c811d-1897-4fec-bdb1-6f23a8092dce"},"vehicle_type_id":"4","last_reported":1756303820,"current_range_meters":8000,"station_id":"ce4bhh92rcd13ifvqfj0","pricing_plan_id":"cebpf4jnsgd1na2vs0mg"},{"bike_id":"78fef23a-8de3-426a-ba4b-ded8d9686105","system_id":"levelo_inurba_marseille","lat":43.28685,"lon":5.38659,"is_reserved":false,"is_disabled":false,"rental_uris":{"android":"levelo://app?vid=78fef23a-8de3-426a-ba4b-ded8d9686105","ios":"levelo://app?vid=78fef23a-8de3-426a-ba4b-ded8d9686105"},"vehicle_type_id":"4","last_reported":1756303820,"current_range_meters":8400,"station_id":"ce4bh492rcd13ifvqdug","pricing_plan_id":"cebpf4jnsgd1na2vs0mg"},{"bike_id":"69a01144-4cb0-4f43-b8a7-d8bba1210d75","system_id":"levelo_inurba_marseille","lat":43.31581,"lon":5.37457,"is_reserved":false,"is_disabled":false,"rental_uris":{"android":"levelo://app?vid=69a01144-4cb0-4f43-b8a7-d8bba1210d75","ios":"levelo://app?vid=69a01144-4cb0-4f43-b8a7-d8bba1210d75"},"vehicle_type_id":"4","last_reported":1756303820,"current_range_meters":8400,"station_id":"","pricing_plan_id":"cebpf4jnsgd1na2vs0mg"},{"bike_id":"b4355a8b-6620-41c5-aaa4-2b969fb59e8f","system_id":"levelo_inurba_marseille","lat":43.26201,"lon":5.3743,"is_reserved":false,"is_disabled":true,"rental_uris":{"android":"levelo://app?vid=b4355a8b-6620-41c5-aaa4-2b969fb59e8f","ios":"levelo://app?vid=b4355a8b-6620-41c5-aaa4-2b969fb59e8f"},"vehicle_type_id":"4","last_reported":1756303820,"current_range_meters":8400,"station_id":"ce4bhgp2rcd13ifvqfc0","pricing_plan_id":"cebpf4jnsgd1na2vs0mg"},{"bike_id":"fc1ecbb0-e923-400f-ae0a-e94515ee3f03","system_id":"levelo_inurba_marseille","lat":43.30461,"lon":5.37904,"is_reserved":false,"is_disabled":false,"rental_uris":{"android":"levelo://app?vid=fc1ecbb0-e923-400f-ae0a-e94515ee3f03","ios":"levelo://app?vid=fc1ecbb0-e923-400f-ae0a-e94515ee3f03"},"vehicle_type_id":"4","last_reported":1756303820,"current_range_meters":12400,"station_id":"ce4bgup2rcd13ifvqcn0","pricing_plan_id":"cebpf4jnsgd1na2vs0mg"},{"bike_id":"a89b728f-2cf5-4fe5-bee1-4b89aae00a3f","system_id":"levelo_inurba_marseille","lat":43.30141,"lon":5.37421,"is_reserved":false,"is_disabled":false,"rental_uris":{"android":"levelo://app?vid=a89b728f-2cf5-4fe5-bee1-4b89aae00a3f","ios":"levelo://app?vid=a89b728f-2cf5-4fe5-bee1-4b89aae00a3f"},"vehicle_type_id":"4","last_reported":1756303820,"current_range_meters":8800,"station_id":"ce4bgs92rcd13ifvqcc0","pricing_plan_id":"cebpf4jnsgd1na2vs0mg"},{"bike_id":"0f2017f4-e5c1-46a2-a7d8-e957ce265a72","system_id":"levelo_inurba_marseille","lat":43.21405,"lon":5.34846,"is_reserved":false,"is_disabled":false,"rental_uris":{"android":"levelo://app?vid=0f2017f4-e5c1-46a2-a7d8-e957ce265a72","ios":"levelo://app?vid=0f2017f4-e5c1-46a2-a7d8-e957ce265a72"},"vehicle_type_id":"4","last_reported":1756303820,"current_range_meters":8800,"station_id":"","pricing_plan_id":"cebpf4jnsgd1na2vs0mg"},{"bike_id":"62a2e4a3-34e8-4936-ba8c-9d719ba46973","system_id":"levelo_inurba_marseille","lat":43.27325,"lon":5.39104,"is_reserved":false,"is_disabled":true,"rental_uris":{"android":"levelo://app?vid=62a2e4a3-34e8-4936-ba8c-9d719ba46973","ios":"levelo://app?vid=62a2e4a3-34e8-4936-ba8c-9d719ba46973"},"vehicle_type_id":"4","last_reported":1756303820,"current_range_meters":8800,"station_id":"ce4bhgp2rcd13ifvqfe0","pricing_plan_id":"cebpf4jnsgd1na2vs0mg"},{"bike_id":"51842e17-ef10-4624-a23e-c8a182427991","system_id":"levelo_inurba_marseille","lat":43.31621,"lon":5.38184,"is_reserved":false,"is_disabled":false,"rental_uris":{"android":"levelo://app?vid=51842e17-ef10-4624-a23e-c8a182427991","ios":"levelo://app?vid=51842e17-ef10-4624-a23e-c8a182427991"},"vehicle_type_id":"4","last_reported":1756303820,"current_range_meters":8800,"station_id":"","pricing_plan_id":"cebpf4jnsgd1na2vs0mg"},{"bike_id":"3f1a97f3-e95c-486a-a967-1fd4c215069f","system_id":"levelo_inurba_marseille","lat":43.23174,"lon":5.39974,"is_reserved":false,"is_disabled":false,"rental_uris":{"android":"levelo://app?vid=3f1a97f3-e95c-486a-a967-1fd4c215069f","ios":"levelo://app?vid=3f1a97f3-e95c-486a-a967-1fd4c215069f"},"vehicle_type_id":"4","last_reported":1756303820,"current_range_meters":9200,"station_id":"ce4bhn12rcd13ifvqgqg","pricing_plan_id":"cebpf4jnsgd1na2vs0mg"},{"bike_id":"84893157-8922-402e-8923-dcaa56cda3dd","system_id":"levelo_inurba_marseille","lat":43.28416,"lon":5.34993,"is_reserved":false,"is_disabled":false,"rental_uris":{"android":"levelo://app?vid=84893157-8922-402e-8923-dcaa56cda3dd","ios":"levelo://app?vid=84893157-8922-402e-8923-dcaa56cda3dd"},"vehicle_type_id":"4","last_reported":1756303820,"current_range_meters":9600,"station_id":"ce4bhbh2rcd13ifvqepg","pricing_plan_id":"cebpf4jnsgd1na2vs0mg"},{"bike_id":"00f7766a-a965-4911-b058-9fa3a24c1018","system_id":"levelo_inurba_marseille","lat":43.299,"lon":5.43669,"is_reserved":false,"is_disabled":false,"rental_uris":{"android":"levelo://app?vid=00f7766a-a965-4911-b058-9fa3a24c1018","ios":"levelo://app?vid=00f7766a-a965-4911-b058-9fa3a24c1018"},"vehicle_type_id":"4","last_reported":1756303820,"current_range_meters":9600,"station_id":"ce4bhpp2rcd13ifvqhfg","pricing_plan_id":"cebpf4jnsgd1na2vs0mg"},{"bike_id":"919403d1-9d41-4322-8f42-253c1dba9d3b","system_id":"levelo_inurba_marseille","lat":43.21754,"lon":5.34601,"is_reserved":false,"is_disabled":false,"rental_uris":{"android":"levelo://app?vid=919403d1-9d41-4322-8f42-253c1dba9d3b","ios":"levelo://app?vid=919403d1-9d41-4322-8f42-253c1dba9d3b"},"vehicle_type_id":"4","last_reported":1756303820,"current_range_meters":9600,"station_id":"st_cvj6r9ubvosntc0bgbag","pricing_plan_id":"cebpf4jnsgd1na2vs0mg"},{"bike_id":"39002f5b-a23e-4630-90a0-e2481b8443c4","system_id":"levelo_inurba_marseille","lat":43.25006,"lon":5.389113,"is_reserved":false,"is_disabled":false,"rental_uris":{"android":"levelo://app?vid=39002f5b-a23e-4630-90a0-e2481b8443c4","ios":"levelo://app?vid=39002f5b-a23e-4630-90a0-e2481b8443c4"},"vehicle_type_id":"4","last_reported":1756303820,"current_range_meters":9600,"station_id":"","pricing_plan_id":"cebpf4jnsgd1na2vs0mg"},{"bike_id":"6bf766fa-e6a4-4b3b-8676-4ae53a79682b","system_id":"levelo_inurba_marseille","lat":43.30282,"lon":5.3769,"is_reserved":false,"is_disabled":false,"rental_uris":{"android":"levelo://app?vid=6bf766fa-e6a4-4b3b-8676-4ae53a79682b","ios":"levelo://app?vid=6bf766fa-e6a4-4b3b-8676-4ae53a79682b"},"vehicle_type_id":"4","last_reported":1756303820,"current_range_meters":9600,"station_id":"ce4bguh2rcd13ifvqcj0","pricing_plan_id":"cebpf4jnsgd1na2vs0mg"},{"bike_id":"e1e86b23-3b36-4831-9e28-6b7ee288c19c","system_id":"levelo_inurba_marseille","lat":43.28616,"lon":5.35101,"is_reserved":false,"is_disabled":false,"rental_uris":{"android":"levelo://app?vid=e1e86b23-3b36-4831-9e28-6b7ee288c19c","ios":"levelo://app?vid=e1e86b23-3b36-4831-9e28-6b7ee288c19c"},"vehicle_type_id":"4","last_reported":1756303820,"current_range_meters":10000,"station_id":"ce4bhch2rcd13ifvqeug","pricing_plan_id":"cebpf4jnsgd1na2vs0mg"},{"bike_id":"c73d9183-822c-4a14-a8c1-53bf72c04baf","system_id":"levelo_inurba_marseille","lat":43.29433,"lon":5.43224,"is_reserved":false,"is_disabled":false,"rental_uris":{"android":"levelo://app?vid=c73d9183-822c-4a14-a8c1-53bf72c04baf","ios":"levelo://app?vid=c73d9183-822c-4a14-a8c1-53bf72c04baf"},"vehicle_type_id":"4","last_reported":1756303820,"current_range_meters":10000,"station_id":"","pricing_plan_id":"cebpf4jnsgd1na2vs0mg"},{"bike_id":"a6ef8657-5b8a-423b-993f-c3df43dec0a0","system_id":"levelo_inurba_marseille","lat":43.326998,"lon":5.392208,"is_reserved":false,"is_disabled":false,"rental_uris":{"android":"levelo://app?vid=a6ef8657-5b8a-423b-993f-c3df43dec0a0","ios":"levelo://app?vid=a6ef8657-5b8a-423b-993f-c3df43dec0a0"},"vehicle_type_id":"4","last_reported":1756303820,"current_range_meters":10000,"station_id":"","pricing_plan_id":"cebpf4jnsgd1na2vs0mg"},{"bike_id":"eb22dec0-bfff-46be-ac9e-3150673df06e","system_id":"levelo_inurba_marseille","lat":43.2621,"lon":5.37434,"is_reserved":false,"is_disabled":true,"rental_uris":{"android":"levelo://app?vid=eb22dec0-bfff-46be-ac9e-3150673df06e","ios":"levelo://app?vid=eb22dec0-bfff-46be-ac9e-3150673df06e"},"vehicle_type_id":"4","last_reported":1756303820,"current_range_meters":10000,"station_id":"ce4bhgp2rcd13ifvqfc0","pricing_plan_id":"cebpf4jnsgd1na2vs0mg"},{"bike_id":"23c09b6a-8163-465b-b420-f35a21f356ca","system_id":"levelo_inurba_marseille","lat":43.28846,"lon":5.39323,"is_reserved":false,"is_disabled":true,"rental_uris":{"android":"levelo://app?vid=23c09b6a-8163-465b-b420-f35a21f356ca","ios":"levelo://app?vid=23c09b6a-8163-465b-b420-f35a21f356ca"},"vehicle_type_id":"4","last_reported":1756303820,"current_range_meters":10000,"station_id":"ce4bh2p2rcd13ifvqdi0","pricing_plan_id":"cebpf4jnsgd1na2vs0mg"},{"bike_id":"6f658fe2-4fcb-4593-a248-a77315c2ab3d","system_id":"levelo_inurba_marseille","lat":43.2842,"lon":5.34986,"is_reserved":false,"is_disabled":false,"rental_uris":{"android":"levelo://app?vid=6f658fe2-4fcb-4593-a248-a77315c2ab3d","ios":"levelo://app?vid=6f658fe2-4fcb-4593-a248-a77315c2ab3d"},"vehicle_type_id":"4","last_reported":1756303820,"current_range_meters":10000,"station_id":"ce4bhbh2rcd13ifvqepg","pricing_plan_id":"cebpf4jnsgd1na2vs0mg"},{"bike_id":"1546df9e-d1cb-482b-8d1f-d121540fd829","system_id":"levelo_inurba_marseille","lat":43.21209,"lon":5.35064,"is_reserved":false,"is_disabled":false,"rental_uris":{"android":"levelo://app?vid=1546df9e-d1cb-482b-8d1f-d121540fd829","ios":"levelo://app?vid=1546df9e-d1cb-482b-8d1f-d121540fd829"},"vehicle_type_id":"4","last_reported":1756303820,"current_range_meters":10000,"station_id":"st_cvj6sg6p6f1abm77japg","pricing_plan_id":"cebpf4jnsgd1na2vs0mg"},{"bike_id":"27582c84-826a-4461-9c01-5c7b0807cecc","system_id":"levelo_inurba_marseille","lat":43.31138,"lon":5.38687,"is_reserved":false,"is_disabled":false,"rental_uris":{"android":"levelo://app?vid=27582c84-826a-4461-9c01-5c7b0807cecc","ios":"levelo://app?vid=27582c84-826a-4461-9c01-5c7b0807cecc"},"vehicle_type_id":"4","last_reported":1756303820,"current_range_meters":10800,"station_id":"ce4bgv12rcd13ifvqcp0","pricing_plan_id":"cebpf4jnsgd1na2vs0mg"},{"bike_id":"1d7023ef-959e-48df-b075-0a4bd90cc9ae","system_id":"levelo_inurba_marseille","lat":43.27365,"lon":5.36253,"is_reserved":false,"is_disabled":true,"rental_uris":{"android":"levelo://app?vid=1d7023ef-959e-48df-b075-0a4bd90cc9ae","ios":"levelo://app?vid=1d7023ef-959e-48df-b075-0a4bd90cc9ae"},"vehicle_type_id":"4","last_reported":1756303820,"current_range_meters":10800,"station_id":"ce4bhbh2rcd13ifvqeo0","pricing_plan_id":"cebpf4jnsgd1na2vs0mg"},{"bike_id":"14947f10-51c9-4538-82c8-53a5bc644a0e","system_id":"levelo_inurba_marseille","lat":43.32068,"lon":5.41533,"is_reserved":false,"is_disabled":false,"rental_uris":{"android":"levelo://app?vid=14947f10-51c9-4538-82c8-53a5bc644a0e","ios":"levelo://app?vid=14947f10-51c9-4538-82c8-53a5bc644a0e"},"vehicle_type_id":"4","last_reported":1756303820,"current_range_meters":10800,"station_id":"ce4bhq92rcd13ifvqhkg","pricing_plan_id":"cebpf4jnsgd1na2vs0mg"},{"bike_id":"777a8c83-aed8-4881-84b6-34465956e738","system_id":"levelo_inurba_marseille","lat":43.257212,"lon":5.410041,"is_reserved":false,"is_disabled":false,"rental_uris":{"android":"levelo://app?vid=777a8c83-aed8-4881-84b6-34465956e738","ios":"levelo://app?vid=777a8c83-aed8-4881-84b6-34465956e738"},"vehicle_type_id":"4","last_reported":1756303820,"current_range_meters":10800,"station_id":"","pricing_plan_id":"cebpf4jnsgd1na2vs0mg"},{"bike_id":"66d394e4-16e7-4a57-ba02-e0ab15daac29","system_id":"levelo_inurba_marseille","lat":43.29975,"lon":5.38482,"is_reserved":false,"is_disabled":false,"rental_uris":{"android":"levelo://app?vid=66d394e4-16e7-4a57-ba02-e0ab15daac29","ios":"levelo://app?vid=66d394e4-16e7-4a57-ba02-e0ab15daac29"},"vehicle_type_id":"4","last_reported":1756303820,"current_range_meters":10800,"station_id":"ce4bgj92rcd13ifvqbd0","pricing_plan_id":"cebpf4jnsgd1na2vs0mg"},{"bike_id":"44bec888-e45a-4fa9-9e06-d3b76a7a03c1","system_id":"levelo_inurba_marseille","lat":43.24648,"lon":5.38891,"is_reserved":false,"is_disabled":false,"rental_uris":{"android":"levelo://app?vid=44bec888-e45a-4fa9-9e06-d3b76a7a03c1","ios":"levelo://app?vid=44bec888-e45a-4fa9-9e06-d3b76a7a03c1"},"vehicle_type_id":"4","last_reported":1756303820,"current_range_meters":11200,"station_id":"ce4bhg12rcd13ifvqf60","pricing_plan_id":"cebpf4jnsgd1na2vs0mg"},{"bike_id":"d5844988-421a-4cf0-bbe2-f95540a0dbae","system_id":"levelo_inurba_marseille","lat":43.28411,"lon":5.35,"is_reserved":false,"is_disabled":false,"rental_uris":{"android":"levelo://app?vid=d5844988-421a-4cf0-bbe2-f95540a0dbae","ios":"levelo://app?vid=d5844988-421a-4cf0-bbe2-f95540a0dbae"},"vehicle_type_id":"4","last_reported":1756303820,"current_range_meters":11200,"station_id":"ce4bhbh2rcd13ifvqepg","pricing_plan_id":"cebpf4jnsgd1na2vs0mg"},{"bike_id":"e337d582-364a-4312-af91-67d0c81052aa","system_id":"levelo_inurba_marseille","lat":43.32536,"lon":5.36449,"is_reserved":false,"is_disabled":false,"rental_uris":{"android":"levelo://app?vid=e337d582-364a-4312-af91-67d0c81052aa","ios":"levelo://app?vid=e337d582-364a-4312-af91-67d0c81052aa"},"vehicle_type_id":"4","last_reported":1756303820,"current_range_meters":11200,"station_id":"","pricing_plan_id":"cebpf4jnsgd1na2vs0mg"},{"bike_id":"7951b6ff-12b4-4d86-bff1-5b3f0d42010d","system_id":"levelo_inurba_marseille","lat":43.293931,"lon":5.378055,"is_reserved":false,"is_disabled":false,"rental_uris":{"android":"levelo://app?vid=7951b6ff-12b4-4d86-bff1-5b3f0d42010d","ios":"levelo://app?vid=7951b6ff-12b4-4d86-bff1-5b3f0d42010d"},"vehicle_type_id":"4","last_reported":1756303820,"current_range_meters":11600,"station_id":"ce4bgjh2rcd13ifvqbf0","pricing_plan_id":"cebpf4jnsgd1na2vs0mg"},{"bike_id":"d412a35a-8223-4ec4-a0a7-626a0ccec697","system_id":"levelo_inurba_marseille","lat":43.26027,"lon":5.37557,"is_reserved":false,"is_disabled":false,"rental_uris":{"android":"levelo://app?vid=d412a35a-8223-4ec4-a0a7-626a0ccec697","ios":"levelo://app?vid=d412a35a-8223-4ec4-a0a7-626a0ccec697"},"vehicle_type_id":"4","last_reported":1756303820,"current_range_meters":11600,"station_id":"ce4bhgh2rcd13ifvqfa0","pricing_plan_id":"cebpf4jnsgd1na2vs0mg"},{"bike_id":"b93b207e-cec3-497e-a858-017df2c2c58a","system_id":"levelo_inurba_marseille","lat":43.25497,"lon":5.37653,"is_reserved":false,"is_disabled":false,"rental_uris":{"android":"levelo://app?vid=b93b207e-cec3-497e-a858-017df2c2c58a","ios":"levelo://app?vid=b93b207e-cec3-497e-a858-017df2c2c58a"},"vehicle_type_id":"4","last_reported":1756303820,"current_range_meters":11600,"station_id":"ce4bhh12rcd13ifvqff0","pricing_plan_id":"cebpf4jnsgd1na2vs0mg"},{"bike_id":"5bce688b-fc81-4596-8277-b66f54be87c1","system_id":"levelo_inurba_marseille","lat":43.33768,"lon":5.37438,"is_reserved":false,"is_disabled":false,"rental_uris":{"android":"levelo://app?vid=5bce688b-fc81-4596-8277-b66f54be87c1","ios":"levelo://app?vid=5bce688b-fc81-4596-8277-b66f54be87c1"},"vehicle_type_id":"4","last_reported":1756303820,"current_range_meters":11600,"station_id":"","pricing_plan_id":"cebpf4jnsgd1na2vs0mg"},{"bike_id":"94ab872b-c3e7-4aa4-9532-8167193e46a8","system_id":"levelo_inurba_marseille","lat":43.28417,"lon":5.34993,"is_reserved":false,"is_disabled":false,"rental_uris":{"android":"levelo://app?vid=94ab872b-c3e7-4aa4-9532-8167193e46a8","ios":"levelo://app?vid=94ab872b-c3e7-4aa4-9532-8167193e46a8"},"vehicle_type_id":"4","last_reported":1756303820,"current_range_meters":11600,"station_id":"ce4bhbh2rcd13ifvqepg","pricing_plan_id":"cebpf4jnsgd1na2vs0mg"},{"bike_id":"48e591db-039e-4e39-9540-5e141fd5f7ab","system_id":"levelo_inurba_marseille","lat":43.28484,"lon":5.38425,"is_reserved":false,"is_disabled":false,"rental_uris":{"android":"levelo://app?vid=48e591db-039e-4e39-9540-5e141fd5f7ab","ios":"levelo://app?vid=48e591db-039e-4e39-9540-5e141fd5f7ab"},"vehicle_type_id":"4","last_reported":1756303820,"current_range_meters":11600,"station_id":"ce4bh512rcd13ifvqe3g","pricing_plan_id":"cebpf4jnsgd1na2vs0mg"},{"bike_id":"64c06664-1c5d-4f3e-9408-ac6396da34e2","system_id":"levelo_inurba_marseille","lat":43.26199,"lon":5.37451,"is_reserved":false,"is_disabled":false,"rental_uris":{"android":"levelo://app?vid=64c06664-1c5d-4f3e-9408-ac6396da34e2","ios":"levelo://app?vid=64c06664-1c5d-4f3e-9408-ac6396da34e2"},"vehicle_type_id":"4","last_reported":1756303820,"current_range_meters":12000,"station_id":"ce4bhgp2rcd13ifvqfc0","pricing_plan_id":"cebpf4jnsgd1na2vs0mg"},{"bike_id":"f1e4f655-aaf9-4ca0-9b4e-95bb980fff57","system_id":"levelo_inurba_marseille","lat":43.28722,"lon":5.37939,"is_reserved":false,"is_disabled":false,"rental_uris":{"android":"levelo://app?vid=f1e4f655-aaf9-4ca0-9b4e-95bb980fff57","ios":"levelo://app?vid=f1e4f655-aaf9-4ca0-9b4e-95bb980fff57"},"vehicle_type_id":"4","last_reported":1756303820,"current_range_meters":12000,"station_id":"ce4bh9p2rcd13ifvqec0","pricing_plan_id":"cebpf4jnsgd1na2vs0mg"},{"bike_id":"0170726d-5c09-4b4f-965d-d2ee4b9a9090","system_id":"levelo_inurba_marseille","lat":43.27403,"lon":5.39417,"is_reserved":false,"is_disabled":false,"rental_uris":{"android":"levelo://app?vid=0170726d-5c09-4b4f-965d-d2ee4b9a9090","ios":"levelo://app?vid=0170726d-5c09-4b4f-965d-d2ee4b9a9090"},"vehicle_type_id":"4","last_reported":1756303820,"current_range_meters":12000,"station_id":"","pricing_plan_id":"cebpf4jnsgd1na2vs0mg"},{"bike_id":"25e83664-f909-4a0a-bcfd-41b9a19d1090","system_id":"levelo_inurba_marseille","lat":43.33034,"lon":5.39034,"is_reserved":false,"is_disabled":false,"rental_uris":{"android":"levelo://app?vid=25e83664-f909-4a0a-bcfd-41b9a19d1090","ios":"levelo://app?vid=25e83664-f909-4a0a-bcfd-41b9a19d1090"},"vehicle_type_id":"4","last_reported":1756303820,"current_range_meters":12000,"station_id":"ce4bhr92rcd13ifvqhrg","pricing_plan_id":"cebpf4jnsgd1na2vs0mg"},{"bike_id":"b79f626f-4cce-45e0-9b7e-79f3f3a6033f","system_id":"levelo_inurba_marseille","lat":43.24632,"lon":5.43148,"is_reserved":false,"is_disabled":false,"rental_uris":{"android":"levelo://app?vid=b79f626f-4cce-45e0-9b7e-79f3f3a6033f","ios":"levelo://app?vid=b79f626f-4cce-45e0-9b7e-79f3f3a6033f"},"vehicle_type_id":"4","last_reported":1756303820,"current_range_meters":12000,"station_id":"st_d2m6c4gdas8pm72e190g","pricing_plan_id":"cebpf4jnsgd1na2vs0mg"},{"bike_id":"10a2d796-47ec-4232-a41b-077392cd8b60","system_id":"levelo_inurba_marseille","lat":43.240677,"lon":5.37737,"is_reserved":false,"is_disabled":false,"rental_uris":{"android":"levelo://app?vid=10a2d796-47ec-4232-a41b-077392cd8b60","ios":"levelo://app?vid=10a2d796-47ec-4232-a41b-077392cd8b60"},"vehicle_type_id":"4","last_reported":1756303820,"current_range_meters":12000,"station_id":"ce4bhnp2rcd13ifvqgvg","pricing_plan_id":"cebpf4jnsgd1na2vs0mg"},{"bike_id":"900573f6-c63d-408e-b858-11a6ab5a1d2c","system_id":"levelo_inurba_marseille","lat":43.26224,"lon":5.37434,"is_reserved":false,"is_disabled":false,"rental_uris":{"android":"levelo://app?vid=900573f6-c63d-408e-b858-11a6ab5a1d2c","ios":"levelo://app?vid=900573f6-c63d-408e-b858-11a6ab5a1d2c"},"vehicle_type_id":"4","last_reported":1756303820,"current_range_meters":12000,"station_id":"","pricing_plan_id":"cebpf4jnsgd1na2vs0mg"},{"bike_id":"c07bc1d1-bb52-473f-81eb-68c8863e377d","system_id":"levelo_inurba_marseille","lat":43.31333,"lon":5.39697,"is_reserved":false,"is_disabled":false,"rental_uris":{"android":"levelo://app?vid=c07bc1d1-bb52-473f-81eb-68c8863e377d","ios":"levelo://app?vid=c07bc1d1-bb52-473f-81eb-68c8863e377d"},"vehicle_type_id":"4","last_reported":1756303820,"current_range_meters":14800,"station_id":"ce4bgvp2rcd13ifvqcu0","pricing_plan_id":"cebpf4jnsgd1na2vs0mg"},{"bike_id":"10f2ecd2-48a9-4949-b858-1f0db192e482","system_id":"levelo_inurba_marseille","lat":43.2654,"lon":5.37291,"is_reserved":false,"is_disabled":false,"rental_uris":{"android":"levelo://app?vid=10f2ecd2-48a9-4949-b858-1f0db192e482","ios":"levelo://app?vid=10f2ecd2-48a9-4949-b858-1f0db192e482"},"vehicle_type_id":"4","last_reported":1756303820,"current_range_meters":12400,"station_id":"ce4bhg12rcd13ifvqf70","pricing_plan_id":"cebpf4jnsgd1na2vs0mg"},{"bike_id":"97612e4f-ef22-440d-8309-f86f3130f029","system_id":"levelo_inurba_marseille","lat":43.29268,"lon":5.37628,"is_reserved":false,"is_disabled":false,"rental_uris":{"android":"levelo://app?vid=97612e4f-ef22-440d-8309-f86f3130f029","ios":"levelo://app?vid=97612e4f-ef22-440d-8309-f86f3130f029"},"vehicle_type_id":"4","last_reported":1756303820,"current_range_meters":12400,"station_id":"ce4bgi12rcd13ifvqb80","pricing_plan_id":"cebpf4jnsgd1na2vs0mg"},{"bike_id":"4aa04cf0-c98a-4b86-9c20-0afc960e7cd0","system_id":"levelo_inurba_marseille","lat":43.26204,"lon":5.3744,"is_reserved":false,"is_disabled":false,"rental_uris":{"android":"levelo://app?vid=4aa04cf0-c98a-4b86-9c20-0afc960e7cd0","ios":"levelo://app?vid=4aa04cf0-c98a-4b86-9c20-0afc960e7cd0"},"vehicle_type_id":"4","last_reported":1756303820,"current_range_meters":12400,"station_id":"ce4bhgp2rcd13ifvqfc0","pricing_plan_id":"cebpf4jnsgd1na2vs0mg"},{"bike_id":"d2868a31-d007-4337-90a9-27b506eb99c9","system_id":"levelo_inurba_marseille","lat":43.29936,"lon":5.36549,"is_reserved":false,"is_disabled":false,"rental_uris":{"android":"levelo://app?vid=d2868a31-d007-4337-90a9-27b506eb99c9","ios":"levelo://app?vid=d2868a31-d007-4337-90a9-27b506eb99c9"},"vehicle_type_id":"4","last_reported":1756303820,"current_range_meters":12400,"station_id":"ce4bgm92rcd13ifvqbr0","pricing_plan_id":"cebpf4jnsgd1na2vs0mg"},{"bike_id":"8c710130-20a4-404c-8681-41398fb72893","system_id":"levelo_inurba_marseille","lat":43.26703,"lon":5.38266,"is_reserved":false,"is_disabled":false,"rental_uris":{"android":"levelo://app?vid=8c710130-20a4-404c-8681-41398fb72893","ios":"levelo://app?vid=8c710130-20a4-404c-8681-41398fb72893"},"vehicle_type_id":"4","last_reported":1756303820,"current_range_meters":12400,"station_id":"ce4bhg92rcd13ifvqf90","pricing_plan_id":"cebpf4jnsgd1na2vs0mg"},{"bike_id":"53fe7bc0-dc54-450c-92ab-b96aaad59182","system_id":"levelo_inurba_marseille","lat":43.286157,"lon":5.3707,"is_reserved":false,"is_disabled":false,"rental_uris":{"android":"levelo://app?vid=53fe7bc0-dc54-450c-92ab-b96aaad59182","ios":"levelo://app?vid=53fe7bc0-dc54-450c-92ab-b96aaad59182"},"vehicle_type_id":"4","last_reported":1756303820,"current_range_meters":12400,"station_id":"ce4bht12rcd13ifvqi60","pricing_plan_id":"cebpf4jnsgd1na2vs0mg"},{"bike_id":"2706cd56-7c1a-440f-beb5-b55df88af114","system_id":"levelo_inurba_marseille","lat":43.30541,"lon":5.36516,"is_reserved":false,"is_disabled":false,"rental_uris":{"android":"levelo://app?vid=2706cd56-7c1a-440f-beb5-b55df88af114","ios":"levelo://app?vid=2706cd56-7c1a-440f-beb5-b55df88af114"},"vehicle_type_id":"4","last_reported":1756303820,"current_range_meters":12800,"station_id":"ce4bgs12rcd13ifvqcag","pricing_plan_id":"cebpf4jnsgd1na2vs0mg"},{"bike_id":"1c3055e6-ca6d-47a7-899b-dff0faa08ad6","system_id":"levelo_inurba_marseille","lat":43.30552,"lon":5.36541,"is_reserved":false,"is_disabled":false,"rental_uris":{"android":"levelo://app?vid=1c3055e6-ca6d-47a7-899b-dff0faa08ad6","ios":"levelo://app?vid=1c3055e6-ca6d-47a7-899b-dff0faa08ad6"},"vehicle_type_id":"4","last_reported":1756303820,"current_range_meters":13600,"station_id":"ce4bgs12rcd13ifvqcag","pricing_plan_id":"cebpf4jnsgd1na2vs0mg"},{"bike_id":"902da873-3945-4023-9231-261a13c62aaf","system_id":"levelo_inurba_marseille","lat":43.30137,"lon":5.3987,"is_reserved":false,"is_disabled":false,"rental_uris":{"android":"levelo://app?vid=902da873-3945-4023-9231-261a13c62aaf","ios":"levelo://app?vid=902da873-3945-4023-9231-261a13c62aaf"},"vehicle_type_id":"4","last_reported":1756303820,"current_range_meters":13600,"station_id":"ce4bh0h2rcd13ifvqd40","pricing_plan_id":"cebpf4jnsgd1na2vs0mg"},{"bike_id":"31cc6ce7-566d-4b5b-b30d-5f33dbf8c6c5","system_id":"levelo_inurba_marseille","lat":43.29519,"lon":5.38497,"is_reserved":false,"is_disabled":false,"rental_uris":{"android":"levelo://app?vid=31cc6ce7-566d-4b5b-b30d-5f33dbf8c6c5","ios":"levelo://app?vid=31cc6ce7-566d-4b5b-b30d-5f33dbf8c6c5"},"vehicle_type_id":"4","last_reported":1756303820,"current_range_meters":13600,"station_id":"","pricing_plan_id":"cebpf4jnsgd1na2vs0mg"},{"bike_id":"e5eabf25-4e1c-476e-b130-9f83cdcfc80c","system_id":"levelo_inurba_marseille","lat":43.29795,"lon":5.41704,"is_reserved":false,"is_disabled":false,"rental_uris":{"android":"levelo://app?vid=e5eabf25-4e1c-476e-b130-9f83cdcfc80c","ios":"levelo://app?vid=e5eabf25-4e1c-476e-b130-9f83cdcfc80c"},"vehicle_type_id":"4","last_reported":1756303820,"current_range_meters":13600,"station_id":"","pricing_plan_id":"cebpf4jnsgd1na2vs0mg"},{"bike_id":"d5b3b0ed-6f23-4936-926c-5a585a934673","system_id":"levelo_inurba_marseille","lat":43.30378,"lon":5.4248,"is_reserved":false,"is_disabled":false,"rental_uris":{"android":"levelo://app?vid=d5b3b0ed-6f23-4936-926c-5a585a934673","ios":"levelo://app?vid=d5b3b0ed-6f23-4936-926c-5a585a934673"},"vehicle_type_id":"4","last_reported":1756303820,"current_range_meters":13600,"station_id":"ce4bhoh2rcd13ifvqh6g","pricing_plan_id":"cebpf4jnsgd1na2vs0mg"},{"bike_id":"6eba7011-83b8-4bb0-a466-ef4b5c7d025d","system_id":"levelo_inurba_marseille","lat":43.286681,"lon":5.363538,"is_reserved":false,"is_disabled":false,"rental_uris":{"android":"levelo://app?vid=6eba7011-83b8-4bb0-a466-ef4b5c7d025d","ios":"levelo://app?vid=6eba7011-83b8-4bb0-a466-ef4b5c7d025d"},"vehicle_type_id":"4","last_reported":1756303820,"current_range_meters":13600,"station_id":"ce4bhah2rcd13ifvqej0","pricing_plan_id":"cebpf4jnsgd1na2vs0mg"},{"bike_id":"3448e159-471f-45cf-b0bc-dcb672574311","system_id":"levelo_inurba_marseille","lat":43.261956,"lon":5.374575,"is_reserved":false,"is_disabled":true,"rental_uris":{"android":"levelo://app?vid=3448e159-471f-45cf-b0bc-dcb672574311","ios":"levelo://app?vid=3448e159-471f-45cf-b0bc-dcb672574311"},"vehicle_type_id":"4","last_reported":1756303820,"current_range_meters":13600,"station_id":"ce4bhgp2rcd13ifvqfc0","pricing_plan_id":"cebpf4jnsgd1na2vs0mg"},{"bike_id":"7ebe513f-4eb0-4eed-bdc2-b6716387f28b","system_id":"levelo_inurba_marseille","lat":43.274994,"lon":5.39515,"is_reserved":false,"is_disabled":false,"rental_uris":{"android":"levelo://app?vid=7ebe513f-4eb0-4eed-bdc2-b6716387f28b","ios":"levelo://app?vid=7ebe513f-4eb0-4eed-bdc2-b6716387f28b"},"vehicle_type_id":"4","last_reported":1756303820,"current_range_meters":13600,"station_id":"ce4bhdp2rcd13ifvqf20","pricing_plan_id":"cebpf4jnsgd1na2vs0mg"},{"bike_id":"239e90d0-a264-43d8-90a0-b2a3ce503832","system_id":"levelo_inurba_marseille","lat":43.27376,"lon":5.36258,"is_reserved":false,"is_disabled":false,"rental_uris":{"android":"levelo://app?vid=239e90d0-a264-43d8-90a0-b2a3ce503832","ios":"levelo://app?vid=239e90d0-a264-43d8-90a0-b2a3ce503832"},"vehicle_type_id":"4","last_reported":1756303820,"current_range_meters":13600,"station_id":"ce4bhbh2rcd13ifvqeo0","pricing_plan_id":"cebpf4jnsgd1na2vs0mg"},{"bike_id":"63026e5d-895a-4ecf-9e83-8b3cb4d62143","system_id":"levelo_inurba_marseille","lat":43.27316,"lon":5.3909,"is_reserved":false,"is_disabled":false,"rental_uris":{"android":"levelo://app?vid=63026e5d-895a-4ecf-9e83-8b3cb4d62143","ios":"levelo://app?vid=63026e5d-895a-4ecf-9e83-8b3cb4d62143"},"vehicle_type_id":"4","last_reported":1756303820,"current_range_meters":13600,"station_id":"ce4bhgp2rcd13ifvqfe0","pricing_plan_id":"cebpf4jnsgd1na2vs0mg"},{"bike_id":"851053e8-d3be-4f09-af43-d2598eb82f5e","system_id":"levelo_inurba_marseille","lat":43.26573,"lon":5.37309,"is_reserved":false,"is_disabled":false,"rental_uris":{"android":"levelo://app?vid=851053e8-d3be-4f09-af43-d2598eb82f5e","ios":"levelo://app?vid=851053e8-d3be-4f09-af43-d2598eb82f5e"},"vehicle_type_id":"4","last_reported":1756303820,"current_range_meters":13600,"station_id":"ce4bhg12rcd13ifvqf70","pricing_plan_id":"cebpf4jnsgd1na2vs0mg"},{"bike_id":"b5ae0016-67e1-4c37-91cb-4d986fbc09a4","system_id":"levelo_inurba_marseille","lat":43.246225,"lon":5.431435,"is_reserved":false,"is_disabled":false,"rental_uris":{"android":"levelo://app?vid=b5ae0016-67e1-4c37-91cb-4d986fbc09a4","ios":"levelo://app?vid=b5ae0016-67e1-4c37-91cb-4d986fbc09a4"},"vehicle_type_id":"4","last_reported":1756303820,"current_range_meters":14000,"station_id":"st_d2m6c4gdas8pm72e190g","pricing_plan_id":"cebpf4jnsgd1na2vs0mg"},{"bike_id":"deea2183-4297-45dc-b252-5e5dabf475d9","system_id":"levelo_inurba_marseille","lat":43.26207,"lon":5.37424,"is_reserved":false,"is_disabled":false,"rental_uris":{"android":"levelo://app?vid=deea2183-4297-45dc-b252-5e5dabf475d9","ios":"levelo://app?vid=deea2183-4297-45dc-b252-5e5dabf475d9"},"vehicle_type_id":"4","last_reported":1756303820,"current_range_meters":14000,"station_id":"ce4bhgp2rcd13ifvqfc0","pricing_plan_id":"cebpf4jnsgd1na2vs0mg"},{"bike_id":"0cd29a22-7e63-49ff-9506-5e2e0d020f57","system_id":"levelo_inurba_marseille","lat":43.29027,"lon":5.38637,"is_reserved":false,"is_disabled":false,"rental_uris":{"android":"levelo://app?vid=0cd29a22-7e63-49ff-9506-5e2e0d020f57","ios":"levelo://app?vid=0cd29a22-7e63-49ff-9506-5e2e0d020f57"},"vehicle_type_id":"4","last_reported":1756303820,"current_range_meters":9600,"station_id":"ce4bh4p2rcd13ifvqe0g","pricing_plan_id":"cebpf4jnsgd1na2vs0mg"},{"bike_id":"d9d572f7-d811-4b4d-9ec5-cb85e6210f42","system_id":"levelo_inurba_marseille","lat":43.321136,"lon":5.367668,"is_reserved":false,"is_disabled":false,"rental_uris":{"android":"levelo://app?vid=d9d572f7-d811-4b4d-9ec5-cb85e6210f42","ios":"levelo://app?vid=d9d572f7-d811-4b4d-9ec5-cb85e6210f42"},"vehicle_type_id":"4","last_reported":1756303820,"current_range_meters":14000,"station_id":"ce4bhrh2rcd13ifvqhug","pricing_plan_id":"cebpf4jnsgd1na2vs0mg"},{"bike_id":"038160f5-88f3-4f26-bdc9-d15bee1d1064","system_id":"levelo_inurba_marseille","lat":43.29601,"lon":5.37713,"is_reserved":false,"is_disabled":false,"rental_uris":{"android":"levelo://app?vid=038160f5-88f3-4f26-bdc9-d15bee1d1064","ios":"levelo://app?vid=038160f5-88f3-4f26-bdc9-d15bee1d1064"},"vehicle_type_id":"4","last_reported":1756303820,"current_range_meters":14000,"station_id":"ce4bgi92rcd13ifvqb90","pricing_plan_id":"cebpf4jnsgd1na2vs0mg"},{"bike_id":"04ea21a1-9af3-45f8-ad77-531254a9949a","system_id":"levelo_inurba_marseille","lat":43.292304,"lon":5.360645,"is_reserved":false,"is_disabled":false,"rental_uris":{"android":"levelo://app?vid=04ea21a1-9af3-45f8-ad77-531254a9949a","ios":"levelo://app?vid=04ea21a1-9af3-45f8-ad77-531254a9949a"},"vehicle_type_id":"4","last_reported":1756303820,"current_range_meters":14000,"station_id":"ce4bhbh2rcd13ifvqeqg","pricing_plan_id":"cebpf4jnsgd1na2vs0mg"},{"bike_id":"da56be69-d1d8-4e58-9211-9f80a01d3f01","system_id":"levelo_inurba_marseille","lat":43.26548,"lon":5.37293,"is_reserved":false,"is_disabled":false,"rental_uris":{"android":"levelo://app?vid=da56be69-d1d8-4e58-9211-9f80a01d3f01","ios":"levelo://app?vid=da56be69-d1d8-4e58-9211-9f80a01d3f01"},"vehicle_type_id":"4","last_reported":1756303820,"current_range_meters":14000,"station_id":"","pricing_plan_id":"cebpf4jnsgd1na2vs0mg"},{"bike_id":"43fc0cee-d2ff-433d-8520-400c19f0ede9","system_id":"levelo_inurba_marseille","lat":43.28006,"lon":5.4001,"is_reserved":false,"is_disabled":false,"rental_uris":{"android":"levelo://app?vid=43fc0cee-d2ff-433d-8520-400c19f0ede9","ios":"levelo://app?vid=43fc0cee-d2ff-433d-8520-400c19f0ede9"},"vehicle_type_id":"4","last_reported":1756303820,"current_range_meters":14000,"station_id":"ce4bho92rcd13ifvqh4g","pricing_plan_id":"cebpf4jnsgd1na2vs0mg"},{"bike_id":"8e7b1d79-9b06-424d-a396-c72233a4d2a9","system_id":"levelo_inurba_marseille","lat":43.30554,"lon":5.36517,"is_reserved":false,"is_disabled":false,"rental_uris":{"android":"levelo://app?vid=8e7b1d79-9b06-424d-a396-c72233a4d2a9","ios":"levelo://app?vid=8e7b1d79-9b06-424d-a396-c72233a4d2a9"},"vehicle_type_id":"4","last_reported":1756303820,"current_range_meters":14400,"station_id":"ce4bgs12rcd13ifvqcag","pricing_plan_id":"cebpf4jnsgd1na2vs0mg"},{"bike_id":"3066e1d6-2fc0-49d3-b50d-e82ec8bb2d5b","system_id":"levelo_inurba_marseille","lat":43.29223,"lon":5.3606,"is_reserved":false,"is_disabled":false,"rental_uris":{"android":"levelo://app?vid=3066e1d6-2fc0-49d3-b50d-e82ec8bb2d5b","ios":"levelo://app?vid=3066e1d6-2fc0-49d3-b50d-e82ec8bb2d5b"},"vehicle_type_id":"4","last_reported":1756303820,"current_range_meters":14400,"station_id":"ce4bhbh2rcd13ifvqeqg","pricing_plan_id":"cebpf4jnsgd1na2vs0mg"},{"bike_id":"685105d1-bcda-4899-9d64-d94adf158a64","system_id":"levelo_inurba_marseille","lat":43.314676,"lon":5.373608,"is_reserved":false,"is_disabled":true,"rental_uris":{"android":"levelo://app?vid=685105d1-bcda-4899-9d64-d94adf158a64","ios":"levelo://app?vid=685105d1-bcda-4899-9d64-d94adf158a64"},"vehicle_type_id":"4","last_reported":1756303820,"current_range_meters":14400,"station_id":"","pricing_plan_id":"cebpf4jnsgd1na2vs0mg"},{"bike_id":"b0110861-cfc4-46d0-b119-f25711481fcc","system_id":"levelo_inurba_marseille","lat":43.26558,"lon":5.37287,"is_reserved":false,"is_disabled":false,"rental_uris":{"android":"levelo://app?vid=b0110861-cfc4-46d0-b119-f25711481fcc","ios":"levelo://app?vid=b0110861-cfc4-46d0-b119-f25711481fcc"},"vehicle_type_id":"4","last_reported":1756303820,"current_range_meters":14400,"station_id":"ce4bhg12rcd13ifvqf70","pricing_plan_id":"cebpf4jnsgd1na2vs0mg"},{"bike_id":"653113bf-17a6-48d8-b86f-bd4ca79e825f","system_id":"levelo_inurba_marseille","lat":43.30121,"lon":5.39851,"is_reserved":false,"is_disabled":false,"rental_uris":{"android":"levelo://app?vid=653113bf-17a6-48d8-b86f-bd4ca79e825f","ios":"levelo://app?vid=653113bf-17a6-48d8-b86f-bd4ca79e825f"},"vehicle_type_id":"4","last_reported":1756303820,"current_range_meters":14400,"station_id":"ce4bh0h2rcd13ifvqd40","pricing_plan_id":"cebpf4jnsgd1na2vs0mg"},{"bike_id":"1dec5f96-d953-4203-b13d-0ce3f02e61a0","system_id":"levelo_inurba_marseille","lat":43.27094,"lon":5.42267,"is_reserved":false,"is_disabled":false,"rental_uris":{"android":"levelo://app?vid=1dec5f96-d953-4203-b13d-0ce3f02e61a0","ios":"levelo://app?vid=1dec5f96-d953-4203-b13d-0ce3f02e61a0"},"vehicle_type_id":"4","last_reported":1756303820,"current_range_meters":14400,"station_id":"ce4bhk92rcd13ifvqgb0","pricing_plan_id":"cebpf4jnsgd1na2vs0mg"},{"bike_id":"3ce18fbc-ec38-4f9e-9dd9-9a3dee5c503d","system_id":"levelo_inurba_marseille","lat":43.26032,"lon":5.37548,"is_reserved":false,"is_disabled":true,"rental_uris":{"android":"levelo://app?vid=3ce18fbc-ec38-4f9e-9dd9-9a3dee5c503d","ios":"levelo://app?vid=3ce18fbc-ec38-4f9e-9dd9-9a3dee5c503d"},"vehicle_type_id":"4","last_reported":1756303820,"current_range_meters":14400,"station_id":"ce4bhgh2rcd13ifvqfa0","pricing_plan_id":"cebpf4jnsgd1na2vs0mg"},{"bike_id":"3dff11d5-3872-4ffe-8cce-b5631d6c6058","system_id":"levelo_inurba_marseille","lat":43.33028,"lon":5.39034,"is_reserved":false,"is_disabled":false,"rental_uris":{"android":"levelo://app?vid=3dff11d5-3872-4ffe-8cce-b5631d6c6058","ios":"levelo://app?vid=3dff11d5-3872-4ffe-8cce-b5631d6c6058"},"vehicle_type_id":"4","last_reported":1756303820,"current_range_meters":14400,"station_id":"ce4bhr92rcd13ifvqhrg","pricing_plan_id":"cebpf4jnsgd1na2vs0mg"},{"bike_id":"1cc73c3c-95e5-4642-9a90-d4c842bcf599","system_id":"levelo_inurba_marseille","lat":43.24394,"lon":5.37056,"is_reserved":false,"is_disabled":false,"rental_uris":{"android":"levelo://app?vid=1cc73c3c-95e5-4642-9a90-d4c842bcf599","ios":"levelo://app?vid=1cc73c3c-95e5-4642-9a90-d4c842bcf599"},"vehicle_type_id":"4","last_reported":1756303820,"current_range_meters":18000,"station_id":"ce4bhhh2rcd13ifvqfk0","pricing_plan_id":"cebpf4jnsgd1na2vs0mg"},{"bike_id":"65ccbcf8-883a-4eb5-b59a-aa6e5a825922","system_id":"levelo_inurba_marseille","lat":43.2738,"lon":5.36252,"is_reserved":false,"is_disabled":false,"rental_uris":{"android":"levelo://app?vid=65ccbcf8-883a-4eb5-b59a-aa6e5a825922","ios":"levelo://app?vid=65ccbcf8-883a-4eb5-b59a-aa6e5a825922"},"vehicle_type_id":"4","last_reported":1756303820,"current_range_meters":14800,"station_id":"ce4bhbh2rcd13ifvqeo0","pricing_plan_id":"cebpf4jnsgd1na2vs0mg"},{"bike_id":"30b8f6cc-96c4-48a0-b6b7-aeab09ee1f11","system_id":"levelo_inurba_marseille","lat":43.31264,"lon":5.40176,"is_reserved":false,"is_disabled":false,"rental_uris":{"android":"levelo://app?vid=30b8f6cc-96c4-48a0-b6b7-aeab09ee1f11","ios":"levelo://app?vid=30b8f6cc-96c4-48a0-b6b7-aeab09ee1f11"},"vehicle_type_id":"4","last_reported":1756303820,"current_range_meters":14400,"station_id":"ce4bh092rcd13ifvqd30","pricing_plan_id":"cebpf4jnsgd1na2vs0mg"},{"bike_id":"289d577a-cef8-40ea-a18b-c2fef868e0ba","system_id":"levelo_inurba_marseille","lat":43.28424,"lon":5.34986,"is_reserved":false,"is_disabled":false,"rental_uris":{"android":"levelo://app?vid=289d577a-cef8-40ea-a18b-c2fef868e0ba","ios":"levelo://app?vid=289d577a-cef8-40ea-a18b-c2fef868e0ba"},"vehicle_type_id":"4","last_reported":1756303820,"current_range_meters":14800,"station_id":"ce4bhbh2rcd13ifvqepg","pricing_plan_id":"cebpf4jnsgd1na2vs0mg"},{"bike_id":"94a3b69e-eb07-4242-8f09-12d3b047bb33","system_id":"levelo_inurba_marseille","lat":43.30139,"lon":5.3985,"is_reserved":false,"is_disabled":false,"rental_uris":{"android":"levelo://app?vid=94a3b69e-eb07-4242-8f09-12d3b047bb33","ios":"levelo://app?vid=94a3b69e-eb07-4242-8f09-12d3b047bb33"},"vehicle_type_id":"4","last_reported":1756303820,"current_range_meters":14400,"station_id":"ce4bh0h2rcd13ifvqd40","pricing_plan_id":"cebpf4jnsgd1na2vs0mg"},{"bike_id":"b7ee4414-f1f6-4748-b2c7-6f690de92d81","system_id":"levelo_inurba_marseille","lat":43.21194,"lon":5.35048,"is_reserved":false,"is_disabled":false,"rental_uris":{"android":"levelo://app?vid=b7ee4414-f1f6-4748-b2c7-6f690de92d81","ios":"levelo://app?vid=b7ee4414-f1f6-4748-b2c7-6f690de92d81"},"vehicle_type_id":"4","last_reported":1756303820,"current_range_meters":14800,"station_id":"st_cvj6sg6p6f1abm77japg","pricing_plan_id":"cebpf4jnsgd1na2vs0mg"},{"bike_id":"30b13a2f-7373-482c-863e-8040d30dece6","system_id":"levelo_inurba_marseille","lat":43.26191,"lon":5.37448,"is_reserved":false,"is_disabled":false,"rental_uris":{"android":"levelo://app?vid=30b13a2f-7373-482c-863e-8040d30dece6","ios":"levelo://app?vid=30b13a2f-7373-482c-863e-8040d30dece6"},"vehicle_type_id":"4","last_reported":1756303820,"current_range_meters":14800,"station_id":"ce4bhgp2rcd13ifvqfc0","pricing_plan_id":"cebpf4jnsgd1na2vs0mg"},{"bike_id":"db526668-1205-422f-99f2-dc09210cda94","system_id":"levelo_inurba_marseille","lat":43.29272,"lon":5.36845,"is_reserved":false,"is_disabled":false,"rental_uris":{"android":"levelo://app?vid=db526668-1205-422f-99f2-dc09210cda94","ios":"levelo://app?vid=db526668-1205-422f-99f2-dc09210cda94"},"vehicle_type_id":"4","last_reported":1756303820,"current_range_meters":15200,"station_id":"ce4bhbp2rcd13ifvqesg","pricing_plan_id":"cebpf4jnsgd1na2vs0mg"},{"bike_id":"af6ce098-3354-40f0-a825-ceff414fe643","system_id":"levelo_inurba_marseille","lat":43.29804,"lon":5.40388,"is_reserved":false,"is_disabled":false,"rental_uris":{"android":"levelo://app?vid=af6ce098-3354-40f0-a825-ceff414fe643","ios":"levelo://app?vid=af6ce098-3354-40f0-a825-ceff414fe643"},"vehicle_type_id":"4","last_reported":1756303820,"current_range_meters":15200,"station_id":"ce4bh112rcd13ifvqd90","pricing_plan_id":"cebpf4jnsgd1na2vs0mg"},{"bike_id":"117e7a7a-6e78-476d-b042-3a3159610eec","system_id":"levelo_inurba_marseille","lat":43.26218,"lon":5.37452,"is_reserved":false,"is_disabled":false,"rental_uris":{"android":"levelo://app?vid=117e7a7a-6e78-476d-b042-3a3159610eec","ios":"levelo://app?vid=117e7a7a-6e78-476d-b042-3a3159610eec"},"vehicle_type_id":"4","last_reported":1756303820,"current_range_meters":15200,"station_id":"ce4bhgp2rcd13ifvqfc0","pricing_plan_id":"cebpf4jnsgd1na2vs0mg"},{"bike_id":"f67c8e5e-7af8-4847-a4ce-1e12088b4291","system_id":"levelo_inurba_marseille","lat":43.33026,"lon":5.39247,"is_reserved":false,"is_disabled":false,"rental_uris":{"android":"levelo://app?vid=f67c8e5e-7af8-4847-a4ce-1e12088b4291","ios":"levelo://app?vid=f67c8e5e-7af8-4847-a4ce-1e12088b4291"},"vehicle_type_id":"4","last_reported":1756303820,"current_range_meters":15200,"station_id":"","pricing_plan_id":"cebpf4jnsgd1na2vs0mg"},{"bike_id":"96207dea-7bbf-4883-ab9a-820d9c447ab3","system_id":"levelo_inurba_marseille","lat":43.28431,"lon":5.3496,"is_reserved":false,"is_disabled":false,"rental_uris":{"android":"levelo://app?vid=96207dea-7bbf-4883-ab9a-820d9c447ab3","ios":"levelo://app?vid=96207dea-7bbf-4883-ab9a-820d9c447ab3"},"vehicle_type_id":"4","last_reported":1756303820,"current_range_meters":15200,"station_id":"ce4bhbh2rcd13ifvqepg","pricing_plan_id":"cebpf4jnsgd1na2vs0mg"},{"bike_id":"2e55c538-508e-4fef-8f5f-62b4ad8b5b85","system_id":"levelo_inurba_marseille","lat":43.21743,"lon":5.34598,"is_reserved":false,"is_disabled":false,"rental_uris":{"android":"levelo://app?vid=2e55c538-508e-4fef-8f5f-62b4ad8b5b85","ios":"levelo://app?vid=2e55c538-508e-4fef-8f5f-62b4ad8b5b85"},"vehicle_type_id":"4","last_reported":1756303820,"current_range_meters":15200,"station_id":"st_cvj6r9ubvosntc0bgbag","pricing_plan_id":"cebpf4jnsgd1na2vs0mg"},{"bike_id":"666c2030-b551-4b38-8283-46e1215d3043","system_id":"levelo_inurba_marseille","lat":43.30591,"lon":5.39362,"is_reserved":false,"is_disabled":false,"rental_uris":{"android":"levelo://app?vid=666c2030-b551-4b38-8283-46e1215d3043","ios":"levelo://app?vid=666c2030-b551-4b38-8283-46e1215d3043"},"vehicle_type_id":"4","last_reported":1756303820,"current_range_meters":16000,"station_id":"ce4bh0p2rcd13ifvqd80","pricing_plan_id":"cebpf4jnsgd1na2vs0mg"},{"bike_id":"5c26a54e-1e97-4ad3-a16d-614ad930b130","system_id":"levelo_inurba_marseille","lat":43.32101,"lon":5.36798,"is_reserved":false,"is_disabled":false,"rental_uris":{"android":"levelo://app?vid=5c26a54e-1e97-4ad3-a16d-614ad930b130","ios":"levelo://app?vid=5c26a54e-1e97-4ad3-a16d-614ad930b130"},"vehicle_type_id":"4","last_reported":1756303820,"current_range_meters":16000,"station_id":"ce4bhrh2rcd13ifvqhug","pricing_plan_id":"cebpf4jnsgd1na2vs0mg"},{"bike_id":"20561ad4-36a9-4c9e-888b-207e1ce190c9","system_id":"levelo_inurba_marseille","lat":43.25544,"lon":5.37662,"is_reserved":false,"is_disabled":false,"rental_uris":{"android":"levelo://app?vid=20561ad4-36a9-4c9e-888b-207e1ce190c9","ios":"levelo://app?vid=20561ad4-36a9-4c9e-888b-207e1ce190c9"},"vehicle_type_id":"4","last_reported":1756303820,"current_range_meters":17200,"station_id":"","pricing_plan_id":"cebpf4jnsgd1na2vs0mg"},{"bike_id":"182848e1-c128-499b-944e-cad0c910e9fb","system_id":"levelo_inurba_marseille","lat":43.21216,"lon":5.35048,"is_reserved":false,"is_disabled":false,"rental_uris":{"android":"levelo://app?vid=182848e1-c128-499b-944e-cad0c910e9fb","ios":"levelo://app?vid=182848e1-c128-499b-944e-cad0c910e9fb"},"vehicle_type_id":"4","last_reported":1756303820,"current_range_meters":16000,"station_id":"","pricing_plan_id":"cebpf4jnsgd1na2vs0mg"},{"bike_id":"cc9d5b3c-23b0-48ad-ac6f-c04c6a53ee7e","system_id":"levelo_inurba_marseille","lat":43.27943,"lon":5.41049,"is_reserved":false,"is_disabled":false,"rental_uris":{"android":"levelo://app?vid=cc9d5b3c-23b0-48ad-ac6f-c04c6a53ee7e","ios":"levelo://app?vid=cc9d5b3c-23b0-48ad-ac6f-c04c6a53ee7e"},"vehicle_type_id":"4","last_reported":1756303820,"current_range_meters":16000,"station_id":"ce4bhnp2rcd13ifvqh0g","pricing_plan_id":"cebpf4jnsgd1na2vs0mg"},{"bike_id":"33db383b-5b27-4ee3-b77f-51489812521c","system_id":"levelo_inurba_marseille","lat":43.30545,"lon":5.36698,"is_reserved":false,"is_disabled":false,"rental_uris":{"android":"levelo://app?vid=33db383b-5b27-4ee3-b77f-51489812521c","ios":"levelo://app?vid=33db383b-5b27-4ee3-b77f-51489812521c"},"vehicle_type_id":"4","last_reported":1756303820,"current_range_meters":16000,"station_id":"ce4bgrp2rcd13ifvqc9g","pricing_plan_id":"cebpf4jnsgd1na2vs0mg"},{"bike_id":"814645c9-7af5-4408-879c-1836489b0342","system_id":"levelo_inurba_marseille","lat":43.26544,"lon":5.37327,"is_reserved":false,"is_disabled":false,"rental_uris":{"android":"levelo://app?vid=814645c9-7af5-4408-879c-1836489b0342","ios":"levelo://app?vid=814645c9-7af5-4408-879c-1836489b0342"},"vehicle_type_id":"4","last_reported":1756303820,"current_range_meters":16000,"station_id":"ce4bhg12rcd13ifvqf70","pricing_plan_id":"cebpf4jnsgd1na2vs0mg"},{"bike_id":"c561b3be-23f4-46ed-8d38-1fc2450f503d","system_id":"levelo_inurba_marseille","lat":43.23647,"lon":5.36225,"is_reserved":false,"is_disabled":false,"rental_uris":{"android":"levelo://app?vid=c561b3be-23f4-46ed-8d38-1fc2450f503d","ios":"levelo://app?vid=c561b3be-23f4-46ed-8d38-1fc2450f503d"},"vehicle_type_id":"4","last_reported":1756303820,"current_range_meters":16000,"station_id":"","pricing_plan_id":"cebpf4jnsgd1na2vs0mg"},{"bike_id":"dd7083cc-5aa5-45e8-aa01-f809713272d1","system_id":"levelo_inurba_marseille","lat":43.21199,"lon":5.35067,"is_reserved":false,"is_disabled":false,"rental_uris":{"android":"levelo://app?vid=dd7083cc-5aa5-45e8-aa01-f809713272d1","ios":"levelo://app?vid=dd7083cc-5aa5-45e8-aa01-f809713272d1"},"vehicle_type_id":"4","last_reported":1756303820,"current_range_meters":16000,"station_id":"st_cvj6sg6p6f1abm77japg","pricing_plan_id":"cebpf4jnsgd1na2vs0mg"},{"bike_id":"67f1933f-a9b2-482f-b732-1bc16329b2ee","system_id":"levelo_inurba_marseille","lat":43.24803,"lon":5.37454,"is_reserved":false,"is_disabled":false,"rental_uris":{"android":"levelo://app?vid=67f1933f-a9b2-482f-b732-1bc16329b2ee","ios":"levelo://app?vid=67f1933f-a9b2-482f-b732-1bc16329b2ee"},"vehicle_type_id":"4","last_reported":1756303820,"current_range_meters":16000,"station_id":"ce4bhgh2rcd13ifvqfb0","pricing_plan_id":"cebpf4jnsgd1na2vs0mg"},{"bike_id":"42df8669-8b56-4340-9428-ea52901a190f","system_id":"levelo_inurba_marseille","lat":43.23192,"lon":5.35555,"is_reserved":false,"is_disabled":false,"rental_uris":{"android":"levelo://app?vid=42df8669-8b56-4340-9428-ea52901a190f","ios":"levelo://app?vid=42df8669-8b56-4340-9428-ea52901a190f"},"vehicle_type_id":"4","last_reported":1756303820,"current_range_meters":12000,"station_id":"ce4bhu92rcd13ifvqi70","pricing_plan_id":"cebpf4jnsgd1na2vs0mg"},{"bike_id":"a22dad06-da6a-4d4b-892c-351b7389a96b","system_id":"levelo_inurba_marseille","lat":43.2587,"lon":5.39897,"is_reserved":false,"is_disabled":false,"rental_uris":{"android":"levelo://app?vid=a22dad06-da6a-4d4b-892c-351b7389a96b","ios":"levelo://app?vid=a22dad06-da6a-4d4b-892c-351b7389a96b"},"vehicle_type_id":"4","last_reported":1756303820,"current_range_meters":16400,"station_id":"ce4bhl92rcd13ifvqghg","pricing_plan_id":"cebpf4jnsgd1na2vs0mg"},{"bike_id":"d810acf0-5bd2-4bf1-848d-31cd30d105e6","system_id":"levelo_inurba_marseille","lat":43.269831,"lon":5.392782,"is_reserved":false,"is_disabled":false,"rental_uris":{"android":"levelo://app?vid=d810acf0-5bd2-4bf1-848d-31cd30d105e6","ios":"levelo://app?vid=d810acf0-5bd2-4bf1-848d-31cd30d105e6"},"vehicle_type_id":"4","last_reported":1756303820,"current_range_meters":16400,"station_id":"","pricing_plan_id":"cebpf4jnsgd1na2vs0mg"},{"bike_id":"f9bf373c-7ab8-433d-b890-3c4dc73de55b","system_id":"levelo_inurba_marseille","lat":43.29196,"lon":5.39315,"is_reserved":false,"is_disabled":false,"rental_uris":{"android":"levelo://app?vid=f9bf373c-7ab8-433d-b890-3c4dc73de55b","ios":"levelo://app?vid=f9bf373c-7ab8-433d-b890-3c4dc73de55b"},"vehicle_type_id":"4","last_reported":1756303820,"current_range_meters":16000,"station_id":"ce4bh192rcd13ifvqdd0","pricing_plan_id":"cebpf4jnsgd1na2vs0mg"},{"bike_id":"19b31aa5-e088-4984-a636-05dfc317a7e0","system_id":"levelo_inurba_marseille","lat":43.27368,"lon":5.3624,"is_reserved":false,"is_disabled":false,"rental_uris":{"android":"levelo://app?vid=19b31aa5-e088-4984-a636-05dfc317a7e0","ios":"levelo://app?vid=19b31aa5-e088-4984-a636-05dfc317a7e0"},"vehicle_type_id":"4","last_reported":1756303820,"current_range_meters":16400,"station_id":"ce4bhbh2rcd13ifvqeo0","pricing_plan_id":"cebpf4jnsgd1na2vs0mg"},{"bike_id":"c409c94b-337e-4a5a-85de-964e2f894da3","system_id":"levelo_inurba_marseille","lat":43.25829,"lon":5.39426,"is_reserved":false,"is_disabled":false,"rental_uris":{"android":"levelo://app?vid=c409c94b-337e-4a5a-85de-964e2f894da3","ios":"levelo://app?vid=c409c94b-337e-4a5a-85de-964e2f894da3"},"vehicle_type_id":"4","last_reported":1756303820,"current_range_meters":16400,"station_id":"ce4bhip2rcd13ifvqft0","pricing_plan_id":"cebpf4jnsgd1na2vs0mg"},{"bike_id":"ffd21136-ae47-45ee-8fc5-e7f85ea84802","system_id":"levelo_inurba_marseille","lat":43.2982,"lon":5.38262,"is_reserved":false,"is_disabled":false,"rental_uris":{"android":"levelo://app?vid=ffd21136-ae47-45ee-8fc5-e7f85ea84802","ios":"levelo://app?vid=ffd21136-ae47-45ee-8fc5-e7f85ea84802"},"vehicle_type_id":"4","last_reported":1756303820,"current_range_meters":16400,"station_id":"","pricing_plan_id":"cebpf4jnsgd1na2vs0mg"},{"bike_id":"273037f0-33ec-41f6-8203-5f65c5d222ff","system_id":"levelo_inurba_marseille","lat":43.29271,"lon":5.36843,"is_reserved":false,"is_disabled":false,"rental_uris":{"android":"levelo://app?vid=273037f0-33ec-41f6-8203-5f65c5d222ff","ios":"levelo://app?vid=273037f0-33ec-41f6-8203-5f65c5d222ff"},"vehicle_type_id":"4","last_reported":1756303820,"current_range_meters":16400,"station_id":"ce4bhbp2rcd13ifvqesg","pricing_plan_id":"cebpf4jnsgd1na2vs0mg"},{"bike_id":"d03be081-5c90-4c8f-af17-97641ec0e77c","system_id":"levelo_inurba_marseille","lat":43.27369,"lon":5.36263,"is_reserved":false,"is_disabled":false,"rental_uris":{"android":"levelo://app?vid=d03be081-5c90-4c8f-af17-97641ec0e77c","ios":"levelo://app?vid=d03be081-5c90-4c8f-af17-97641ec0e77c"},"vehicle_type_id":"4","last_reported":1756303820,"current_range_meters":16400,"station_id":"ce4bhbh2rcd13ifvqeo0","pricing_plan_id":"cebpf4jnsgd1na2vs0mg"},{"bike_id":"2069bb10-8fc4-46cb-b293-68ee5a76feb7","system_id":"levelo_inurba_marseille","lat":43.26193,"lon":5.37451,"is_reserved":false,"is_disabled":false,"rental_uris":{"android":"levelo://app?vid=2069bb10-8fc4-46cb-b293-68ee5a76feb7","ios":"levelo://app?vid=2069bb10-8fc4-46cb-b293-68ee5a76feb7"},"vehicle_type_id":"4","last_reported":1756303820,"current_range_meters":16400,"station_id":"ce4bhgp2rcd13ifvqfc0","pricing_plan_id":"cebpf4jnsgd1na2vs0mg"},{"bike_id":"054292f5-2861-49f0-b787-92a1e1b6c374","system_id":"levelo_inurba_marseille","lat":43.316652,"lon":5.42398,"is_reserved":false,"is_disabled":false,"rental_uris":{"android":"levelo://app?vid=054292f5-2861-49f0-b787-92a1e1b6c374","ios":"levelo://app?vid=054292f5-2861-49f0-b787-92a1e1b6c374"},"vehicle_type_id":"4","last_reported":1756303820,"current_range_meters":16400,"station_id":"ce4bhp92rcd13ifvqhbg","pricing_plan_id":"cebpf4jnsgd1na2vs0mg"},{"bike_id":"d6b20884-46fe-4470-9577-f07c70b79f78","system_id":"levelo_inurba_marseille","lat":43.27371,"lon":5.3626,"is_reserved":false,"is_disabled":false,"rental_uris":{"android":"levelo://app?vid=d6b20884-46fe-4470-9577-f07c70b79f78","ios":"levelo://app?vid=d6b20884-46fe-4470-9577-f07c70b79f78"},"vehicle_type_id":"4","last_reported":1756303820,"current_range_meters":16400,"station_id":"ce4bhbh2rcd13ifvqeo0","pricing_plan_id":"cebpf4jnsgd1na2vs0mg"},{"bike_id":"5dd83fad-2449-4d56-be74-c8599abb9a5e","system_id":"levelo_inurba_marseille","lat":43.26212,"lon":5.37432,"is_reserved":false,"is_disabled":false,"rental_uris":{"android":"levelo://app?vid=5dd83fad-2449-4d56-be74-c8599abb9a5e","ios":"levelo://app?vid=5dd83fad-2449-4d56-be74-c8599abb9a5e"},"vehicle_type_id":"4","last_reported":1756303820,"current_range_meters":16800,"station_id":"ce4bhgp2rcd13ifvqfc0","pricing_plan_id":"cebpf4jnsgd1na2vs0mg"},{"bike_id":"009f821f-56f3-44ea-a29f-fd7473850e26","system_id":"levelo_inurba_marseille","lat":43.28418,"lon":5.34985,"is_reserved":false,"is_disabled":false,"rental_uris":{"android":"levelo://app?vid=009f821f-56f3-44ea-a29f-fd7473850e26","ios":"levelo://app?vid=009f821f-56f3-44ea-a29f-fd7473850e26"},"vehicle_type_id":"4","last_reported":1756303820,"current_range_meters":16800,"station_id":"ce4bhbh2rcd13ifvqepg","pricing_plan_id":"cebpf4jnsgd1na2vs0mg"},{"bike_id":"e6c593a6-25b4-4483-b874-06f613c8942f","system_id":"levelo_inurba_marseille","lat":43.2176,"lon":5.34599,"is_reserved":false,"is_disabled":false,"rental_uris":{"android":"levelo://app?vid=e6c593a6-25b4-4483-b874-06f613c8942f","ios":"levelo://app?vid=e6c593a6-25b4-4483-b874-06f613c8942f"},"vehicle_type_id":"4","last_reported":1756303820,"current_range_meters":16800,"station_id":"st_cvj6r9ubvosntc0bgbag","pricing_plan_id":"cebpf4jnsgd1na2vs0mg"},{"bike_id":"7558b440-1ee7-4da9-91a4-b58bd6acd925","system_id":"levelo_inurba_marseille","lat":43.24545,"lon":5.39519,"is_reserved":false,"is_disabled":false,"rental_uris":{"android":"levelo://app?vid=7558b440-1ee7-4da9-91a4-b58bd6acd925","ios":"levelo://app?vid=7558b440-1ee7-4da9-91a4-b58bd6acd925"},"vehicle_type_id":"4","last_reported":1756303820,"current_range_meters":16800,"station_id":"ce4bhlp2rcd13ifvqgjg","pricing_plan_id":"cebpf4jnsgd1na2vs0mg"},{"bike_id":"4e9e705b-7667-42c6-adf5-4a09a858987f","system_id":"levelo_inurba_marseille","lat":43.21187,"lon":5.35076,"is_reserved":false,"is_disabled":false,"rental_uris":{"android":"levelo://app?vid=4e9e705b-7667-42c6-adf5-4a09a858987f","ios":"levelo://app?vid=4e9e705b-7667-42c6-adf5-4a09a858987f"},"vehicle_type_id":"4","last_reported":1756303820,"current_range_meters":16800,"station_id":"st_cvj6sg6p6f1abm77japg","pricing_plan_id":"cebpf4jnsgd1na2vs0mg"},{"bike_id":"94c44f36-d45b-48d8-9eb0-02cde482dcfd","system_id":"levelo_inurba_marseille","lat":43.26025,"lon":5.37543,"is_reserved":false,"is_disabled":false,"rental_uris":{"android":"levelo://app?vid=94c44f36-d45b-48d8-9eb0-02cde482dcfd","ios":"levelo://app?vid=94c44f36-d45b-48d8-9eb0-02cde482dcfd"},"vehicle_type_id":"4","last_reported":1756303820,"current_range_meters":16800,"station_id":"ce4bhgh2rcd13ifvqfa0","pricing_plan_id":"cebpf4jnsgd1na2vs0mg"},{"bike_id":"373decc7-6d5f-444a-bd84-6f7db9035c12","system_id":"levelo_inurba_marseille","lat":43.23967,"lon":5.36627,"is_reserved":false,"is_disabled":false,"rental_uris":{"android":"levelo://app?vid=373decc7-6d5f-444a-bd84-6f7db9035c12","ios":"levelo://app?vid=373decc7-6d5f-444a-bd84-6f7db9035c12"},"vehicle_type_id":"4","last_reported":1756303820,"current_range_meters":16800,"station_id":"ce4bhi12rcd13ifvqfp0","pricing_plan_id":"cebpf4jnsgd1na2vs0mg"},{"bike_id":"ba32ee63-528d-4993-b959-c2c878da42ec","system_id":"levelo_inurba_marseille","lat":43.25336,"lon":5.4217,"is_reserved":false,"is_disabled":false,"rental_uris":{"android":"levelo://app?vid=ba32ee63-528d-4993-b959-c2c878da42ec","ios":"levelo://app?vid=ba32ee63-528d-4993-b959-c2c878da42ec"},"vehicle_type_id":"4","last_reported":1756303820,"current_range_meters":16800,"station_id":"st_d2m65c5bi1j21697t3ng","pricing_plan_id":"cebpf4jnsgd1na2vs0mg"},{"bike_id":"8fcbe803-fcb8-4265-89c2-3997377e539c","system_id":"levelo_inurba_marseille","lat":43.28919,"lon":5.38404,"is_reserved":false,"is_disabled":false,"rental_uris":{"android":"levelo://app?vid=8fcbe803-fcb8-4265-89c2-3997377e539c","ios":"levelo://app?vid=8fcbe803-fcb8-4265-89c2-3997377e539c"},"vehicle_type_id":"4","last_reported":1756303820,"current_range_meters":17600,"station_id":"ce4bh612rcd13ifvqe6g","pricing_plan_id":"cebpf4jnsgd1na2vs0mg"},{"bike_id":"c67682e4-ad86-4b65-b4ef-e774963b7e60","system_id":"levelo_inurba_marseille","lat":43.23205,"lon":5.35542,"is_reserved":false,"is_disabled":false,"rental_uris":{"android":"levelo://app?vid=c67682e4-ad86-4b65-b4ef-e774963b7e60","ios":"levelo://app?vid=c67682e4-ad86-4b65-b4ef-e774963b7e60"},"vehicle_type_id":"4","last_reported":1756303820,"current_range_meters":17200,"station_id":"ce4bhu92rcd13ifvqi70","pricing_plan_id":"cebpf4jnsgd1na2vs0mg"},{"bike_id":"ffe6df59-3fc1-4d81-9326-f6f6418e7718","system_id":"levelo_inurba_marseille","lat":43.29764,"lon":5.37284,"is_reserved":false,"is_disabled":false,"rental_uris":{"android":"levelo://app?vid=ffe6df59-3fc1-4d81-9326-f6f6418e7718","ios":"levelo://app?vid=ffe6df59-3fc1-4d81-9326-f6f6418e7718"},"vehicle_type_id":"4","last_reported":1756303820,"current_range_meters":17200,"station_id":"","pricing_plan_id":"cebpf4jnsgd1na2vs0mg"},{"bike_id":"879c6322-73eb-445f-b18c-e8a9307f2e39","system_id":"levelo_inurba_marseille","lat":43.29261,"lon":5.37618,"is_reserved":false,"is_disabled":false,"rental_uris":{"android":"levelo://app?vid=879c6322-73eb-445f-b18c-e8a9307f2e39","ios":"levelo://app?vid=879c6322-73eb-445f-b18c-e8a9307f2e39"},"vehicle_type_id":"4","last_reported":1756303820,"current_range_meters":17200,"station_id":"ce4bgi12rcd13ifvqb80","pricing_plan_id":"cebpf4jnsgd1na2vs0mg"},{"bike_id":"394fd99f-4cfd-47b1-b29f-c8025ff12410","system_id":"levelo_inurba_marseille","lat":43.27997,"lon":5.40004,"is_reserved":false,"is_disabled":false,"rental_uris":{"android":"levelo://app?vid=394fd99f-4cfd-47b1-b29f-c8025ff12410","ios":"levelo://app?vid=394fd99f-4cfd-47b1-b29f-c8025ff12410"},"vehicle_type_id":"4","last_reported":1756303820,"current_range_meters":17200,"station_id":"ce4bho92rcd13ifvqh4g","pricing_plan_id":"cebpf4jnsgd1na2vs0mg"},{"bike_id":"651c04c7-c2f3-4258-98c4-2abdeb471500","system_id":"levelo_inurba_marseille","lat":43.26565,"lon":5.37285,"is_reserved":false,"is_disabled":false,"rental_uris":{"android":"levelo://app?vid=651c04c7-c2f3-4258-98c4-2abdeb471500","ios":"levelo://app?vid=651c04c7-c2f3-4258-98c4-2abdeb471500"},"vehicle_type_id":"4","last_reported":1756303820,"current_range_meters":17200,"station_id":"ce4bhg12rcd13ifvqf70","pricing_plan_id":"cebpf4jnsgd1na2vs0mg"},{"bike_id":"f717895b-ba1f-406f-b2e3-ebae41b04879","system_id":"levelo_inurba_marseille","lat":43.30538,"lon":5.36557,"is_reserved":false,"is_disabled":false,"rental_uris":{"android":"levelo://app?vid=f717895b-ba1f-406f-b2e3-ebae41b04879","ios":"levelo://app?vid=f717895b-ba1f-406f-b2e3-ebae41b04879"},"vehicle_type_id":"4","last_reported":1756303820,"current_range_meters":17600,"station_id":"ce4bgs12rcd13ifvqcag","pricing_plan_id":"cebpf4jnsgd1na2vs0mg"},{"bike_id":"8df4d72a-2534-4225-b0d0-5b48bd4c7385","system_id":"levelo_inurba_marseille","lat":43.2943,"lon":5.39761,"is_reserved":false,"is_disabled":false,"rental_uris":{"android":"levelo://app?vid=8df4d72a-2534-4225-b0d0-5b48bd4c7385","ios":"levelo://app?vid=8df4d72a-2534-4225-b0d0-5b48bd4c7385"},"vehicle_type_id":"4","last_reported":1756303820,"current_range_meters":17600,"station_id":"ce4bh3h2rcd13ifvqdo0","pricing_plan_id":"cebpf4jnsgd1na2vs0mg"},{"bike_id":"bc4c6e1c-d694-4a7d-b3af-90d3bb1a77a1","system_id":"levelo_inurba_marseille","lat":43.21186,"lon":5.35083,"is_reserved":false,"is_disabled":false,"rental_uris":{"android":"levelo://app?vid=bc4c6e1c-d694-4a7d-b3af-90d3bb1a77a1","ios":"levelo://app?vid=bc4c6e1c-d694-4a7d-b3af-90d3bb1a77a1"},"vehicle_type_id":"4","last_reported":1756303820,"current_range_meters":17600,"station_id":"st_cvj6sg6p6f1abm77japg","pricing_plan_id":"cebpf4jnsgd1na2vs0mg"},{"bike_id":"7bd78eab-f877-4cda-a645-96f7c29959b3","system_id":"levelo_inurba_marseille","lat":43.30137,"lon":5.37414,"is_reserved":false,"is_disabled":false,"rental_uris":{"android":"levelo://app?vid=7bd78eab-f877-4cda-a645-96f7c29959b3","ios":"levelo://app?vid=7bd78eab-f877-4cda-a645-96f7c29959b3"},"vehicle_type_id":"4","last_reported":1756303820,"current_range_meters":17600,"station_id":"ce4bgs92rcd13ifvqcc0","pricing_plan_id":"cebpf4jnsgd1na2vs0mg"},{"bike_id":"19bf8938-c3ac-477a-9c27-edd856e98aab","system_id":"levelo_inurba_marseille","lat":43.28084,"lon":5.37815,"is_reserved":false,"is_disabled":false,"rental_uris":{"android":"levelo://app?vid=19bf8938-c3ac-477a-9c27-edd856e98aab","ios":"levelo://app?vid=19bf8938-c3ac-477a-9c27-edd856e98aab"},"vehicle_type_id":"4","last_reported":1756303820,"current_range_meters":17600,"station_id":"ce4bha12rcd13ifvqee0","pricing_plan_id":"cebpf4jnsgd1na2vs0mg"},{"bike_id":"23ae6fed-deff-411b-8b6e-f95e32ccd4d0","system_id":"levelo_inurba_marseille","lat":43.32126,"lon":5.36762,"is_reserved":false,"is_disabled":false,"rental_uris":{"android":"levelo://app?vid=23ae6fed-deff-411b-8b6e-f95e32ccd4d0","ios":"levelo://app?vid=23ae6fed-deff-411b-8b6e-f95e32ccd4d0"},"vehicle_type_id":"4","last_reported":1756303820,"current_range_meters":17600,"station_id":"ce4bhrh2rcd13ifvqhug","pricing_plan_id":"cebpf4jnsgd1na2vs0mg"},{"bike_id":"81c34132-16a4-4c52-b1f1-84e975214106","system_id":"levelo_inurba_marseille","lat":43.27429,"lon":5.39402,"is_reserved":false,"is_disabled":false,"rental_uris":{"android":"levelo://app?vid=81c34132-16a4-4c52-b1f1-84e975214106","ios":"levelo://app?vid=81c34132-16a4-4c52-b1f1-84e975214106"},"vehicle_type_id":"4","last_reported":1756303820,"current_range_meters":17600,"station_id":"","pricing_plan_id":"cebpf4jnsgd1na2vs0mg"},{"bike_id":"05d97e45-19dc-4128-88fe-ffa6fa61464f","system_id":"levelo_inurba_marseille","lat":43.26226,"lon":5.37445,"is_reserved":false,"is_disabled":false,"rental_uris":{"android":"levelo://app?vid=05d97e45-19dc-4128-88fe-ffa6fa61464f","ios":"levelo://app?vid=05d97e45-19dc-4128-88fe-ffa6fa61464f"},"vehicle_type_id":"4","last_reported":1756303820,"current_range_meters":17600,"station_id":"ce4bhgp2rcd13ifvqfc0","pricing_plan_id":"cebpf4jnsgd1na2vs0mg"},{"bike_id":"fb827529-7019-4e95-b918-ffdd3fb3947c","system_id":"levelo_inurba_marseille","lat":43.28104,"lon":5.37831,"is_reserved":false,"is_disabled":false,"rental_uris":{"android":"levelo://app?vid=fb827529-7019-4e95-b918-ffdd3fb3947c","ios":"levelo://app?vid=fb827529-7019-4e95-b918-ffdd3fb3947c"},"vehicle_type_id":"4","last_reported":1756303820,"current_range_meters":17200,"station_id":"ce4bha12rcd13ifvqee0","pricing_plan_id":"cebpf4jnsgd1na2vs0mg"},{"bike_id":"c7947910-f6df-4351-95cb-ad7cab6a3f07","system_id":"levelo_inurba_marseille","lat":43.30804,"lon":5.3767,"is_reserved":false,"is_disabled":true,"rental_uris":{"android":"levelo://app?vid=c7947910-f6df-4351-95cb-ad7cab6a3f07","ios":"levelo://app?vid=c7947910-f6df-4351-95cb-ad7cab6a3f07"},"vehicle_type_id":"4","last_reported":1756303820,"current_range_meters":17600,"station_id":"ce4bgv92rcd13ifvqcq0","pricing_plan_id":"cebpf4jnsgd1na2vs0mg"},{"bike_id":"b9738866-7539-4f83-8116-cf50c12337ad","system_id":"levelo_inurba_marseille","lat":43.24803,"lon":5.37456,"is_reserved":false,"is_disabled":false,"rental_uris":{"android":"levelo://app?vid=b9738866-7539-4f83-8116-cf50c12337ad","ios":"levelo://app?vid=b9738866-7539-4f83-8116-cf50c12337ad"},"vehicle_type_id":"4","last_reported":1756303820,"current_range_meters":17600,"station_id":"ce4bhgh2rcd13ifvqfb0","pricing_plan_id":"cebpf4jnsgd1na2vs0mg"},{"bike_id":"16e02c6d-cbdb-4447-a117-ab77b2d19637","system_id":"levelo_inurba_marseille","lat":43.25505,"lon":5.37647,"is_reserved":false,"is_disabled":false,"rental_uris":{"android":"levelo://app?vid=16e02c6d-cbdb-4447-a117-ab77b2d19637","ios":"levelo://app?vid=16e02c6d-cbdb-4447-a117-ab77b2d19637"},"vehicle_type_id":"4","last_reported":1756303820,"current_range_meters":17600,"station_id":"ce4bhh12rcd13ifvqff0","pricing_plan_id":"cebpf4jnsgd1na2vs0mg"},{"bike_id":"a5111d90-7a2c-4331-ac7f-caad20168099","system_id":"levelo_inurba_marseille","lat":43.26182,"lon":5.37458,"is_reserved":false,"is_disabled":false,"rental_uris":{"android":"levelo://app?vid=a5111d90-7a2c-4331-ac7f-caad20168099","ios":"levelo://app?vid=a5111d90-7a2c-4331-ac7f-caad20168099"},"vehicle_type_id":"4","last_reported":1756303820,"current_range_meters":17600,"station_id":"ce4bhgp2rcd13ifvqfc0","pricing_plan_id":"cebpf4jnsgd1na2vs0mg"},{"bike_id":"403198a1-5023-4fd5-a409-b215dd38e4e8","system_id":"levelo_inurba_marseille","lat":43.2693,"lon":5.38923,"is_reserved":false,"is_disabled":false,"rental_uris":{"android":"levelo://app?vid=403198a1-5023-4fd5-a409-b215dd38e4e8","ios":"levelo://app?vid=403198a1-5023-4fd5-a409-b215dd38e4e8"},"vehicle_type_id":"4","last_reported":1756303820,"current_range_meters":17600,"station_id":"ce4bhhh2rcd13ifvqfl0","pricing_plan_id":"cebpf4jnsgd1na2vs0mg"},{"bike_id":"ef0b58b9-9274-4b82-8d49-2b2664062fad","system_id":"levelo_inurba_marseille","lat":43.25504,"lon":5.37645,"is_reserved":false,"is_disabled":false,"rental_uris":{"android":"levelo://app?vid=ef0b58b9-9274-4b82-8d49-2b2664062fad","ios":"levelo://app?vid=ef0b58b9-9274-4b82-8d49-2b2664062fad"},"vehicle_type_id":"4","last_reported":1756303820,"current_range_meters":18000,"station_id":"ce4bhh12rcd13ifvqff0","pricing_plan_id":"cebpf4jnsgd1na2vs0mg"},{"bike_id":"dcef15e3-aa15-46f4-b2c1-31ad7c34ea30","system_id":"levelo_inurba_marseille","lat":43.26553,"lon":5.37287,"is_reserved":false,"is_disabled":false,"rental_uris":{"android":"levelo://app?vid=dcef15e3-aa15-46f4-b2c1-31ad7c34ea30","ios":"levelo://app?vid=dcef15e3-aa15-46f4-b2c1-31ad7c34ea30"},"vehicle_type_id":"4","last_reported":1756303820,"current_range_meters":18800,"station_id":"ce4bhg12rcd13ifvqf70","pricing_plan_id":"cebpf4jnsgd1na2vs0mg"},{"bike_id":"1091f287-02ee-4a66-888b-59c35fd65791","system_id":"levelo_inurba_marseille","lat":43.23179,"lon":5.35543,"is_reserved":false,"is_disabled":false,"rental_uris":{"android":"levelo://app?vid=1091f287-02ee-4a66-888b-59c35fd65791","ios":"levelo://app?vid=1091f287-02ee-4a66-888b-59c35fd65791"},"vehicle_type_id":"4","last_reported":1756303820,"current_range_meters":18000,"station_id":"ce4bhu92rcd13ifvqi70","pricing_plan_id":"cebpf4jnsgd1na2vs0mg"},{"bike_id":"2abb4435-30e9-4f21-85b0-81bcde7c9ee0","system_id":"levelo_inurba_marseille","lat":43.30546,"lon":5.36555,"is_reserved":false,"is_disabled":false,"rental_uris":{"android":"levelo://app?vid=2abb4435-30e9-4f21-85b0-81bcde7c9ee0","ios":"levelo://app?vid=2abb4435-30e9-4f21-85b0-81bcde7c9ee0"},"vehicle_type_id":"4","last_reported":1756303820,"current_range_meters":18000,"station_id":"ce4bgs12rcd13ifvqcag","pricing_plan_id":"cebpf4jnsgd1na2vs0mg"},{"bike_id":"61ea9ffe-4423-4323-9d43-5023d3a19b9a","system_id":"levelo_inurba_marseille","lat":43.286666,"lon":5.386725,"is_reserved":false,"is_disabled":false,"rental_uris":{"android":"levelo://app?vid=61ea9ffe-4423-4323-9d43-5023d3a19b9a","ios":"levelo://app?vid=61ea9ffe-4423-4323-9d43-5023d3a19b9a"},"vehicle_type_id":"4","last_reported":1756303820,"current_range_meters":18000,"station_id":"ce4bh492rcd13ifvqdug","pricing_plan_id":"cebpf4jnsgd1na2vs0mg"},{"bike_id":"273eac3d-362a-419b-83a2-2423e6e318c7","system_id":"levelo_inurba_marseille","lat":43.27411,"lon":5.39422,"is_reserved":false,"is_disabled":false,"rental_uris":{"android":"levelo://app?vid=273eac3d-362a-419b-83a2-2423e6e318c7","ios":"levelo://app?vid=273eac3d-362a-419b-83a2-2423e6e318c7"},"vehicle_type_id":"4","last_reported":1756303820,"current_range_meters":18000,"station_id":"","pricing_plan_id":"cebpf4jnsgd1na2vs0mg"},{"bike_id":"ec0f9f0d-0796-42ac-9cf5-bb8596cdf342","system_id":"levelo_inurba_marseille","lat":43.21205,"lon":5.35066,"is_reserved":false,"is_disabled":false,"rental_uris":{"android":"levelo://app?vid=ec0f9f0d-0796-42ac-9cf5-bb8596cdf342","ios":"levelo://app?vid=ec0f9f0d-0796-42ac-9cf5-bb8596cdf342"},"vehicle_type_id":"4","last_reported":1756303820,"current_range_meters":18000,"station_id":"","pricing_plan_id":"cebpf4jnsgd1na2vs0mg"},{"bike_id":"7f96cfc7-6b62-4cd3-a164-5a1ee471a17d","system_id":"levelo_inurba_marseille","lat":43.30534,"lon":5.36523,"is_reserved":false,"is_disabled":false,"rental_uris":{"android":"levelo://app?vid=7f96cfc7-6b62-4cd3-a164-5a1ee471a17d","ios":"levelo://app?vid=7f96cfc7-6b62-4cd3-a164-5a1ee471a17d"},"vehicle_type_id":"4","last_reported":1756303820,"current_range_meters":18000,"station_id":"ce4bgs12rcd13ifvqcag","pricing_plan_id":"cebpf4jnsgd1na2vs0mg"},{"bike_id":"6db352db-5be1-46e3-875a-5a55ac602b7e","system_id":"levelo_inurba_marseille","lat":43.30548,"lon":5.36552,"is_reserved":false,"is_disabled":false,"rental_uris":{"android":"levelo://app?vid=6db352db-5be1-46e3-875a-5a55ac602b7e","ios":"levelo://app?vid=6db352db-5be1-46e3-875a-5a55ac602b7e"},"vehicle_type_id":"4","last_reported":1756303820,"current_range_meters":18000,"station_id":"ce4bgs12rcd13ifvqcag","pricing_plan_id":"cebpf4jnsgd1na2vs0mg"},{"bike_id":"335ff37f-931e-4c14-b723-377c9f74ad0c","system_id":"levelo_inurba_marseille","lat":43.28263,"lon":5.35056,"is_reserved":false,"is_disabled":false,"rental_uris":{"android":"levelo://app?vid=335ff37f-931e-4c14-b723-377c9f74ad0c","ios":"levelo://app?vid=335ff37f-931e-4c14-b723-377c9f74ad0c"},"vehicle_type_id":"4","last_reported":1756303820,"current_range_meters":18800,"station_id":"ce4bhbp2rcd13ifvqerg","pricing_plan_id":"cebpf4jnsgd1na2vs0mg"},{"bike_id":"2ddde0e2-2088-418b-9262-4b0d6e96e416","system_id":"levelo_inurba_marseille","lat":43.26033,"lon":5.37536,"is_reserved":false,"is_disabled":false,"rental_uris":{"android":"levelo://app?vid=2ddde0e2-2088-418b-9262-4b0d6e96e416","ios":"levelo://app?vid=2ddde0e2-2088-418b-9262-4b0d6e96e416"},"vehicle_type_id":"4","last_reported":1756303820,"current_range_meters":18800,"station_id":"ce4bhgh2rcd13ifvqfa0","pricing_plan_id":"cebpf4jnsgd1na2vs0mg"},{"bike_id":"131927a1-aedf-47d1-a070-2e9836467902","system_id":"levelo_inurba_marseille","lat":43.26036,"lon":5.37545,"is_reserved":false,"is_disabled":false,"rental_uris":{"android":"levelo://app?vid=131927a1-aedf-47d1-a070-2e9836467902","ios":"levelo://app?vid=131927a1-aedf-47d1-a070-2e9836467902"},"vehicle_type_id":"4","last_reported":1756303820,"current_range_meters":18800,"station_id":"ce4bhgh2rcd13ifvqfa0","pricing_plan_id":"cebpf4jnsgd1na2vs0mg"},{"bike_id":"26a7130b-d612-4075-8510-147363f903ff","system_id":"levelo_inurba_marseille","lat":43.29576,"lon":5.37519,"is_reserved":false,"is_disabled":false,"rental_uris":{"android":"levelo://app?vid=26a7130b-d612-4075-8510-147363f903ff","ios":"levelo://app?vid=26a7130b-d612-4075-8510-147363f903ff"},"vehicle_type_id":"4","last_reported":1756303820,"current_range_meters":18800,"station_id":"ce4bgh92rcd13ifvqb50","pricing_plan_id":"cebpf4jnsgd1na2vs0mg"},{"bike_id":"c682957f-cef5-4193-962b-fadf3b3c70c1","system_id":"levelo_inurba_marseille","lat":43.27413,"lon":5.39407,"is_reserved":false,"is_disabled":false,"rental_uris":{"android":"levelo://app?vid=c682957f-cef5-4193-962b-fadf3b3c70c1","ios":"levelo://app?vid=c682957f-cef5-4193-962b-fadf3b3c70c1"},"vehicle_type_id":"4","last_reported":1756303820,"current_range_meters":18800,"station_id":"","pricing_plan_id":"cebpf4jnsgd1na2vs0mg"},{"bike_id":"1afc9436-7d01-4b74-85fe-08c8b8ca3dc2","system_id":"levelo_inurba_marseille","lat":43.30544,"lon":5.36528,"is_reserved":false,"is_disabled":false,"rental_uris":{"android":"levelo://app?vid=1afc9436-7d01-4b74-85fe-08c8b8ca3dc2","ios":"levelo://app?vid=1afc9436-7d01-4b74-85fe-08c8b8ca3dc2"},"vehicle_type_id":"4","last_reported":1756303820,"current_range_meters":18800,"station_id":"ce4bgs12rcd13ifvqcag","pricing_plan_id":"cebpf4jnsgd1na2vs0mg"},{"bike_id":"831a2354-0919-4530-8e5a-84c32dcc2c03","system_id":"levelo_inurba_marseille","lat":43.272052,"lon":5.391826,"is_reserved":false,"is_disabled":false,"rental_uris":{"android":"levelo://app?vid=831a2354-0919-4530-8e5a-84c32dcc2c03","ios":"levelo://app?vid=831a2354-0919-4530-8e5a-84c32dcc2c03"},"vehicle_type_id":"4","last_reported":1756303820,"current_range_meters":18800,"station_id":"","pricing_plan_id":"cebpf4jnsgd1na2vs0mg"},{"bike_id":"2c246624-962d-4f72-8341-3c6523db29ef","system_id":"levelo_inurba_marseille","lat":43.26558,"lon":5.3729,"is_reserved":false,"is_disabled":true,"rental_uris":{"android":"levelo://app?vid=2c246624-962d-4f72-8341-3c6523db29ef","ios":"levelo://app?vid=2c246624-962d-4f72-8341-3c6523db29ef"},"vehicle_type_id":"4","last_reported":1756303820,"current_range_meters":18800,"station_id":"ce4bhg12rcd13ifvqf70","pricing_plan_id":"cebpf4jnsgd1na2vs0mg"},{"bike_id":"305ba89d-8ef2-4228-b35c-53de855bb7a6","system_id":"levelo_inurba_marseille","lat":43.23076,"lon":5.35481,"is_reserved":false,"is_disabled":false,"rental_uris":{"android":"levelo://app?vid=305ba89d-8ef2-4228-b35c-53de855bb7a6","ios":"levelo://app?vid=305ba89d-8ef2-4228-b35c-53de855bb7a6"},"vehicle_type_id":"4","last_reported":1756303820,"current_range_meters":18800,"station_id":"cpo3342slgdg3j2ifvpg","pricing_plan_id":"cebpf4jnsgd1na2vs0mg"},{"bike_id":"2793aa9f-cf6a-41ad-82c6-facb923e9ee1","system_id":"levelo_inurba_marseille","lat":43.29626,"lon":5.37713,"is_reserved":false,"is_disabled":false,"rental_uris":{"android":"levelo://app?vid=2793aa9f-cf6a-41ad-82c6-facb923e9ee1","ios":"levelo://app?vid=2793aa9f-cf6a-41ad-82c6-facb923e9ee1"},"vehicle_type_id":"4","last_reported":1756303820,"current_range_meters":19200,"station_id":"ce4bgi92rcd13ifvqb90","pricing_plan_id":"cebpf4jnsgd1na2vs0mg"},{"bike_id":"01f92d06-2c11-49e0-8fbd-c3d3e9fed8bb","system_id":"levelo_inurba_marseille","lat":43.26191,"lon":5.37446,"is_reserved":false,"is_disabled":false,"rental_uris":{"android":"levelo://app?vid=01f92d06-2c11-49e0-8fbd-c3d3e9fed8bb","ios":"levelo://app?vid=01f92d06-2c11-49e0-8fbd-c3d3e9fed8bb"},"vehicle_type_id":"4","last_reported":1756303820,"current_range_meters":18800,"station_id":"ce4bhgp2rcd13ifvqfc0","pricing_plan_id":"cebpf4jnsgd1na2vs0mg"},{"bike_id":"aaad8acc-f862-48ae-879c-9b0399375cef","system_id":"levelo_inurba_marseille","lat":43.29586,"lon":5.375227,"is_reserved":false,"is_disabled":false,"rental_uris":{"android":"levelo://app?vid=aaad8acc-f862-48ae-879c-9b0399375cef","ios":"levelo://app?vid=aaad8acc-f862-48ae-879c-9b0399375cef"},"vehicle_type_id":"4","last_reported":1756303820,"current_range_meters":19200,"station_id":"","pricing_plan_id":"cebpf4jnsgd1na2vs0mg"},{"bike_id":"d5ddba13-42df-4115-9aa1-5bdce53e55a3","system_id":"levelo_inurba_marseille","lat":43.30509,"lon":5.3654,"is_reserved":false,"is_disabled":false,"rental_uris":{"android":"levelo://app?vid=d5ddba13-42df-4115-9aa1-5bdce53e55a3","ios":"levelo://app?vid=d5ddba13-42df-4115-9aa1-5bdce53e55a3"},"vehicle_type_id":"4","last_reported":1756303820,"current_range_meters":19200,"station_id":"ce4bgs12rcd13ifvqcag","pricing_plan_id":"cebpf4jnsgd1na2vs0mg"},{"bike_id":"b0c8be56-68d2-4bef-9ffb-53930ab17892","system_id":"levelo_inurba_marseille","lat":43.21189,"lon":5.35074,"is_reserved":false,"is_disabled":false,"rental_uris":{"android":"levelo://app?vid=b0c8be56-68d2-4bef-9ffb-53930ab17892","ios":"levelo://app?vid=b0c8be56-68d2-4bef-9ffb-53930ab17892"},"vehicle_type_id":"4","last_reported":1756303820,"current_range_meters":19200,"station_id":"st_cvj6sg6p6f1abm77japg","pricing_plan_id":"cebpf4jnsgd1na2vs0mg"},{"bike_id":"41206d24-710d-406c-91e0-c06bb1a64813","system_id":"levelo_inurba_marseille","lat":43.30554,"lon":5.36526,"is_reserved":false,"is_disabled":false,"rental_uris":{"android":"levelo://app?vid=41206d24-710d-406c-91e0-c06bb1a64813","ios":"levelo://app?vid=41206d24-710d-406c-91e0-c06bb1a64813"},"vehicle_type_id":"4","last_reported":1756303820,"current_range_meters":19200,"station_id":"ce4bgs12rcd13ifvqcag","pricing_plan_id":"cebpf4jnsgd1na2vs0mg"},{"bike_id":"07296681-3400-48d5-88e2-c863a00e5bf3","system_id":"levelo_inurba_marseille","lat":43.22924,"lon":5.35371,"is_reserved":false,"is_disabled":false,"rental_uris":{"android":"levelo://app?vid=07296681-3400-48d5-88e2-c863a00e5bf3","ios":"levelo://app?vid=07296681-3400-48d5-88e2-c863a00e5bf3"},"vehicle_type_id":"4","last_reported":1756303820,"current_range_meters":19200,"station_id":"cpo3532slgdg3j2ikp40","pricing_plan_id":"cebpf4jnsgd1na2vs0mg"},{"bike_id":"a71d0bca-bc7c-4692-bf55-794c9f5c67fc","system_id":"levelo_inurba_marseille","lat":43.30515,"lon":5.36534,"is_reserved":false,"is_disabled":false,"rental_uris":{"android":"levelo://app?vid=a71d0bca-bc7c-4692-bf55-794c9f5c67fc","ios":"levelo://app?vid=a71d0bca-bc7c-4692-bf55-794c9f5c67fc"},"vehicle_type_id":"4","last_reported":1756303820,"current_range_meters":19200,"station_id":"","pricing_plan_id":"cebpf4jnsgd1na2vs0mg"},{"bike_id":"03080dce-1f55-4d92-8992-940a7cb2a486","system_id":"levelo_inurba_marseille","lat":43.21779,"lon":5.34585,"is_reserved":false,"is_disabled":false,"rental_uris":{"android":"levelo://app?vid=03080dce-1f55-4d92-8992-940a7cb2a486","ios":"levelo://app?vid=03080dce-1f55-4d92-8992-940a7cb2a486"},"vehicle_type_id":"4","last_reported":1756303820,"current_range_meters":19600,"station_id":"st_cvj6r9ubvosntc0bgbag","pricing_plan_id":"cebpf4jnsgd1na2vs0mg"},{"bike_id":"78be8cf2-594e-46a5-8551-ae1e5c5cde17","system_id":"levelo_inurba_marseille","lat":43.32467,"lon":5.36619,"is_reserved":false,"is_disabled":false,"rental_uris":{"android":"levelo://app?vid=78be8cf2-594e-46a5-8551-ae1e5c5cde17","ios":"levelo://app?vid=78be8cf2-594e-46a5-8551-ae1e5c5cde17"},"vehicle_type_id":"4","last_reported":1756303820,"current_range_meters":19600,"station_id":"","pricing_plan_id":"cebpf4jnsgd1na2vs0mg"},{"bike_id":"4d8bfb0e-2ab6-4b86-a66d-54cc6b68139f","system_id":"levelo_inurba_marseille","lat":43.31264,"lon":5.36818,"is_reserved":false,"is_disabled":false,"rental_uris":{"android":"levelo://app?vid=4d8bfb0e-2ab6-4b86-a66d-54cc6b68139f","ios":"levelo://app?vid=4d8bfb0e-2ab6-4b86-a66d-54cc6b68139f"},"vehicle_type_id":"4","last_reported":1756303820,"current_range_meters":19600,"station_id":"","pricing_plan_id":"cebpf4jnsgd1na2vs0mg"},{"bike_id":"f9f4e1d4-9d79-4411-b787-45c86128dd81","system_id":"levelo_inurba_marseille","lat":43.30432,"lon":5.39754,"is_reserved":false,"is_disabled":false,"rental_uris":{"android":"levelo://app?vid=f9f4e1d4-9d79-4411-b787-45c86128dd81","ios":"levelo://app?vid=f9f4e1d4-9d79-4411-b787-45c86128dd81"},"vehicle_type_id":"4","last_reported":1756303820,"current_range_meters":19600,"station_id":"ce4bh092rcd13ifvqd20","pricing_plan_id":"cebpf4jnsgd1na2vs0mg"},{"bike_id":"20c40bc5-0fe7-4d2a-aeac-3e4dba377090","system_id":"levelo_inurba_marseille","lat":43.315112,"lon":5.372862,"is_reserved":false,"is_disabled":false,"rental_uris":{"android":"levelo://app?vid=20c40bc5-0fe7-4d2a-aeac-3e4dba377090","ios":"levelo://app?vid=20c40bc5-0fe7-4d2a-aeac-3e4dba377090"},"vehicle_type_id":"4","last_reported":1756303820,"current_range_meters":19600,"station_id":"ce4bgt12rcd13ifvqcd0","pricing_plan_id":"cebpf4jnsgd1na2vs0mg"},{"bike_id":"731ff345-1377-45e9-acf9-0825f15b172a","system_id":"levelo_inurba_marseille","lat":43.22929,"lon":5.35375,"is_reserved":false,"is_disabled":false,"rental_uris":{"android":"levelo://app?vid=731ff345-1377-45e9-acf9-0825f15b172a","ios":"levelo://app?vid=731ff345-1377-45e9-acf9-0825f15b172a"},"vehicle_type_id":"4","last_reported":1756303820,"current_range_meters":19600,"station_id":"cpo3532slgdg3j2ikp40","pricing_plan_id":"cebpf4jnsgd1na2vs0mg"},{"bike_id":"6c40d48b-8bda-42a9-9b24-ac64b64cf2a2","system_id":"levelo_inurba_marseille","lat":43.27935,"lon":5.41051,"is_reserved":false,"is_disabled":false,"rental_uris":{"android":"levelo://app?vid=6c40d48b-8bda-42a9-9b24-ac64b64cf2a2","ios":"levelo://app?vid=6c40d48b-8bda-42a9-9b24-ac64b64cf2a2"},"vehicle_type_id":"4","last_reported":1756303820,"current_range_meters":19600,"station_id":"ce4bhnp2rcd13ifvqh0g","pricing_plan_id":"cebpf4jnsgd1na2vs0mg"},{"bike_id":"9d951858-0b01-4274-81b8-0568768d9d8b","system_id":"levelo_inurba_marseille","lat":43.29079,"lon":5.37165,"is_reserved":false,"is_disabled":false,"rental_uris":{"android":"levelo://app?vid=9d951858-0b01-4274-81b8-0568768d9d8b","ios":"levelo://app?vid=9d951858-0b01-4274-81b8-0568768d9d8b"},"vehicle_type_id":"4","last_reported":1756303820,"current_range_meters":19600,"station_id":"ce4bh5p2rcd13ifvqe4g","pricing_plan_id":"cebpf4jnsgd1na2vs0mg"},{"bike_id":"00865bff-72de-47be-acda-9cf6ec16a836","system_id":"levelo_inurba_marseille","lat":43.320923,"lon":5.367766,"is_reserved":false,"is_disabled":false,"rental_uris":{"android":"levelo://app?vid=00865bff-72de-47be-acda-9cf6ec16a836","ios":"levelo://app?vid=00865bff-72de-47be-acda-9cf6ec16a836"},"vehicle_type_id":"4","last_reported":1756303820,"current_range_meters":19600,"station_id":"ce4bhrh2rcd13ifvqhug","pricing_plan_id":"cebpf4jnsgd1na2vs0mg"},{"bike_id":"0927ab25-6783-4a6b-88cf-5f794bbdb768","system_id":"levelo_inurba_marseille","lat":43.2886,"lon":5.35857,"is_reserved":false,"is_disabled":false,"rental_uris":{"android":"levelo://app?vid=0927ab25-6783-4a6b-88cf-5f794bbdb768","ios":"levelo://app?vid=0927ab25-6783-4a6b-88cf-5f794bbdb768"},"vehicle_type_id":"4","last_reported":1756303820,"current_range_meters":19600,"station_id":"ce4bhb12rcd13ifvqem0","pricing_plan_id":"cebpf4jnsgd1na2vs0mg"},{"bike_id":"dc6c3464-577d-4ca0-b03e-a371d3077c38","system_id":"levelo_inurba_marseille","lat":43.30552,"lon":5.36545,"is_reserved":false,"is_disabled":false,"rental_uris":{"android":"levelo://app?vid=dc6c3464-577d-4ca0-b03e-a371d3077c38","ios":"levelo://app?vid=dc6c3464-577d-4ca0-b03e-a371d3077c38"},"vehicle_type_id":"4","last_reported":1756303820,"current_range_meters":19600,"station_id":"ce4bgs12rcd13ifvqcag","pricing_plan_id":"cebpf4jnsgd1na2vs0mg"},{"bike_id":"04f94f1c-fbdb-44d6-bdef-30c9f4ae0feb","system_id":"levelo_inurba_marseille","lat":43.21189,"lon":5.35074,"is_reserved":false,"is_disabled":false,"rental_uris":{"android":"levelo://app?vid=04f94f1c-fbdb-44d6-bdef-30c9f4ae0feb","ios":"levelo://app?vid=04f94f1c-fbdb-44d6-bdef-30c9f4ae0feb"},"vehicle_type_id":"4","last_reported":1756303820,"current_range_meters":19600,"station_id":"st_cvj6sg6p6f1abm77japg","pricing_plan_id":"cebpf4jnsgd1na2vs0mg"},{"bike_id":"29c55d68-58c5-4ef2-b442-72bb9c55ddb0","system_id":"levelo_inurba_marseille","lat":43.32369,"lon":5.367516,"is_reserved":false,"is_disabled":false,"rental_uris":{"android":"levelo://app?vid=29c55d68-58c5-4ef2-b442-72bb9c55ddb0","ios":"levelo://app?vid=29c55d68-58c5-4ef2-b442-72bb9c55ddb0"},"vehicle_type_id":"4","last_reported":1756303820,"current_range_meters":19600,"station_id":"ce4bhsh2rcd13ifvqi2g","pricing_plan_id":"cebpf4jnsgd1na2vs0mg"},{"bike_id":"cc5c5f36-6d13-4a70-a3ad-1166e31dcade","system_id":"levelo_inurba_marseille","lat":43.26953,"lon":5.38634,"is_reserved":false,"is_disabled":false,"rental_uris":{"android":"levelo://app?vid=cc5c5f36-6d13-4a70-a3ad-1166e31dcade","ios":"levelo://app?vid=cc5c5f36-6d13-4a70-a3ad-1166e31dcade"},"vehicle_type_id":"4","last_reported":1756303820,"current_range_meters":19600,"station_id":"ce4bhh92rcd13ifvqfh0","pricing_plan_id":"cebpf4jnsgd1na2vs0mg"},{"bike_id":"43fb1eda-8f7d-4377-9b57-f38a0ecb5909","system_id":"levelo_inurba_marseille","lat":43.26217,"lon":5.37443,"is_reserved":false,"is_disabled":false,"rental_uris":{"android":"levelo://app?vid=43fb1eda-8f7d-4377-9b57-f38a0ecb5909","ios":"levelo://app?vid=43fb1eda-8f7d-4377-9b57-f38a0ecb5909"},"vehicle_type_id":"4","last_reported":1756303820,"current_range_meters":20000,"station_id":"ce4bhgp2rcd13ifvqfc0","pricing_plan_id":"cebpf4jnsgd1na2vs0mg"},{"bike_id":"c23caf68-a488-4334-9d78-a65d808efa33","system_id":"levelo_inurba_marseille","lat":43.27365,"lon":5.36251,"is_reserved":false,"is_disabled":false,"rental_uris":{"android":"levelo://app?vid=c23caf68-a488-4334-9d78-a65d808efa33","ios":"levelo://app?vid=c23caf68-a488-4334-9d78-a65d808efa33"},"vehicle_type_id":"4","last_reported":1756303820,"current_range_meters":20000,"station_id":"ce4bhbh2rcd13ifvqeo0","pricing_plan_id":"cebpf4jnsgd1na2vs0mg"},