{"last_updated":1733764134,"ttl":60,"version":"2.2","data":{"bikes":[{"bike_id":"08b52d7a-a484-46cf-915f-da042ae63b36","system_id":"levelo_inurba_marseille","lat":43.28675,"lon":5.36343,"is_reserved":false,"is_disabled":false,"rental_uris":{"android":"levelo://app?vid=08b52d7a-a484-46cf-915f-da042ae63b36","ios":"levelo://app?vid=08b52d7a-a484-46cf-915f-da042ae63b36"},"vehicle_type_id":"4","last_reported":1733764134,"current_range_meters":34000,"station_id":"ce4bhah2rcd13ifvqej0","pricing_plan_id":"cebpf4jnsgd1na2vs0mg"},{"bike_id":"8e029eaf-e104-4c5d-858d-6cd39de73d09","system_id":"levelo_inurba_marseille","lat":43.24196,"lon":5.36397,"is_reserved":false,"is_disabled":false,"rental_uris":{"android":"levelo://app?vid=8e029eaf-e104-4c5d-858d-6cd39de73d09","ios":"levelo://app?vid=8e029eaf-e104-4c5d-858d-6cd39de73d09"},"vehicle_type_id":"4","last_reported":1733764134,"current_range_meters":21600,"station_id":"cpo36qri1sfpv3e86is0","pricing_plan_id":"cebpf4jnsgd1na2vs0mg"},{"bike_id":"35d4095d-a3c4-4d1c-b0e0-51e9f1eb0e3f","system_id":"levelo_inurba_marseille","lat":43.31699,"lon":5.37766,"is_reserved":false,"is_disabled":false,"rental_uris":{"android":"levelo://app?vid=35d4095d-a3c4-4d1c-b0e0-51e9f1eb0e3f","ios":"levelo://app?vid=35d4095d-a3c4-4d1c-b0e0-51e9f1eb0e3f"},"vehicle_type_id":"4","last_reported":1733764134,"current_range_meters":9200,"station_id":"ce4bgth2rcd13ifvqch0","pricing_plan_id":"cebpf4jnsgd1na2vs0mg"},{"bike_id":"49890e82-aa27-4846-9659-88aa2ac9ae8b","system_id":"levelo_inurba_marseille","lat":43.24671,"lon":5.38169,"is_reserved":false,"is_disabled":false,"rental_uris":{"android":"levelo://app?vid=49890e82-aa27-4846-9659-88aa2ac9ae8b","ios":"levelo://app?vid=49890e82-aa27-4846-9659-88aa2ac9ae8b"},"vehicle_type_id":"4","last_reported":1733764134,"current_range_meters":38400,"station_id":"ce4bhih2rcd13ifvqfr0","pricing_plan_id":"cebpf4jnsgd1na2vs0mg"},{"bike_id":"9e69d3f4-e655-44eb-84c6-74a82bf8eb09","system_id":"levelo_inurba_marseille","lat":43.27809,"lon":5.40707,"is_reserved":false,"is_disabled":false,"rental_uris":{"android":"levelo://app?vid=9e69d3f4-e655-44eb-84c6-74a82bf8eb09","ios":"levelo://app?vid=9e69d3f4-e655-44eb-84c6-74a82bf8eb09"},"vehicle_type_id":"4","last_reported":1733764134,"current_range_meters":32400,"station_id":"ce4bhnh2rcd13ifvqgtg","pricing_plan_id":"cebpf4jnsgd1na2vs0mg"},{"bike_id":"e6287468-f98b-4727-8dd2-6732688b3747","system_id":"levelo_inurba_marseille","lat":43.28035,"lon":5.36952,"is_reserved":false,"is_disabled":false,"rental_uris":{"android":"levelo://app?vid=e6287468-f98b-4727-8dd2-6732688b3747","ios":"levelo://app?vid=e6287468-f98b-4727-8dd2-6732688b3747"},"vehicle_type_id":"4","last_reported":1733764134,"current_range_meters":21600,"station_id":"ce4bha12rcd13ifvqef0","pricing_plan_id":"cebpf4jnsgd1na2vs0mg"},{"bike_id":"67888e06-6219-4626-acd2-c4aece606332","system_id":"levelo_inurba_marseille","lat":43.31368,"lon":5.38489,"is_reserved":false,"is_disabled":false,"rental_uris":{"android":"levelo://app?vid=67888e06-6219-4626-acd2-c4aece606332","ios":"levelo://app?vid=67888e06-6219-4626-acd2-c4aece606332"},"vehicle_type_id":"4","last_reported":1733764134,"current_range_meters":38800,"station_id":"ce4bgt92rcd13ifvqcf0","pricing_plan_id":"cebpf4jnsgd1na2vs0mg"},{"bike_id":"ba5e9603-9efa-46a1-a491-af58be8cd5cb","system_id":"levelo_inurba_marseille","lat":43.32355,"lon":5.36762,"is_reserved":false,"is_disabled":false,"rental_uris":{"android":"levelo://app?vid=ba5e9603-9efa-46a1-a491-af58be8cd5cb","ios":"levelo://app?vid=ba5e9603-9efa-46a1-a491-af58be8cd5cb"},"vehicle_type_id":"4","last_reported":1733764134,"current_range_meters":35600,"station_id":"ce4bhsh2rcd13ifvqi2g","pricing_plan_id":"cebpf4jnsgd1na2vs0mg"},{"bike_id":"d7c8c15b-fef7-401a-88a6-d231e1fbaaef","system_id":"levelo_inurba_marseille","lat":43.3065,"lon":5.40076,"is_reserved":false,"is_disabled":false,"rental_uris":{"android":"levelo://app?vid=d7c8c15b-fef7-401a-88a6-d231e1fbaaef","ios":"levelo://app?vid=d7c8c15b-fef7-401a-88a6-d231e1fbaaef"},"vehicle_type_id":"4","last_reported":1733764134,"current_range_meters":36000,"station_id":"ce4bh112rcd13ifvqda0","pricing_plan_id":"cebpf4jnsgd1na2vs0mg"},{"bike_id":"8bd642b2-0279-44c7-9ee2-fc3b57332c83","system_id":"levelo_inurba_marseille","lat":43.27455,"lon":5.40073,"is_reserved":false,"is_disabled":true,"rental_uris":{"android":"levelo://app?vid=8bd642b2-0279-44c7-9ee2-fc3b57332c83","ios":"levelo://app?vid=8bd642b2-0279-44c7-9ee2-fc3b57332c83"},"vehicle_type_id":"4","last_reported":1733764134,"current_range_meters":0,"station_id":"","pricing_plan_id":"cebpf4jnsgd1na2vs0mg"},{"bike_id":"e4d7ecf4-c28a-4291-b4de-e4d5bda50504","system_id":"levelo_inurba_marseille","lat":43.29031,"lon":5.35912,"is_reserved":false,"is_disabled":false,"rental_uris":{"android":"levelo://app?vid=e4d7ecf4-c28a-4291-b4de-e4d5bda50504","ios":"levelo://app?vid=e4d7ecf4-c28a-4291-b4de-e4d5bda50504"},"vehicle_type_id":"4","last_reported":1733764134,"current_range_meters":38400,"station_id":"ce4bha92rcd13ifvqeg0","pricing_plan_id":"cebpf4jnsgd1na2vs0mg"},{"bike_id":"f09914a1-032a-4233-965f-c73f49a269ba","system_id":"levelo_inurba_marseille","lat":43.337444,"lon":5.374475,"is_reserved":false,"is_disabled":true,"rental_uris":{"android":"levelo://app?vid=f09914a1-032a-4233-965f-c73f49a269ba","ios":"levelo://app?vid=f09914a1-032a-4233-965f-c73f49a269ba"},"vehicle_type_id":"4","last_reported":1733764134,"current_range_meters":0,"station_id":"","pricing_plan_id":"cebpf4jnsgd1na2vs0mg"},{"bike_id":"cb442d5a-cce0-41d7-9c51-b4c2e4d876d4","system_id":"levelo_inurba_marseille","lat":43.32632,"lon":5.36476,"is_reserved":false,"is_disabled":false,"rental_uris":{"android":"levelo://app?vid=cb442d5a-cce0-41d7-9c51-b4c2e4d876d4","ios":"levelo://app?vid=cb442d5a-cce0-41d7-9c51-b4c2e4d876d4"},"vehicle_type_id":"4","last_reported":1733764134,"current_range_meters":27600,"station_id":"","pricing_plan_id":"cebpf4jnsgd1na2vs0mg"},{"bike_id":"a955f565-33db-4fdc-bdbf-249121ea420f","system_id":"levelo_inurba_marseille","lat":43.29198,"lon":5.35796,"is_reserved":false,"is_disabled":true,"rental_uris":{"android":"levelo://app?vid=a955f565-33db-4fdc-bdbf-249121ea420f","ios":"levelo://app?vid=a955f565-33db-4fdc-bdbf-249121ea420f"},"vehicle_type_id":"4","last_reported":1733764134,"current_range_meters":30800,"station_id":"ce4bhb12rcd13ifvqel0","pricing_plan_id":"cebpf4jnsgd1na2vs0mg"},{"bike_id":"9e822486-0495-471e-a155-1460846acc03","system_id":"levelo_inurba_marseille","lat":43.28668,"lon":5.3635,"is_reserved":false,"is_disabled":false,"rental_uris":{"android":"levelo://app?vid=9e822486-0495-471e-a155-1460846acc03","ios":"levelo://app?vid=9e822486-0495-471e-a155-1460846acc03"},"vehicle_type_id":"4","last_reported":1733764134,"current_range_meters":38800,"station_id":"ce4bhah2rcd13ifvqej0","pricing_plan_id":"cebpf4jnsgd1na2vs0mg"},{"bike_id":"14c257dc-06bf-4a29-939b-9abb4cc4885a","system_id":"levelo_inurba_marseille","lat":43.28485,"lon":5.36815,"is_reserved":false,"is_disabled":false,"rental_uris":{"android":"levelo://app?vid=14c257dc-06bf-4a29-939b-9abb4cc4885a","ios":"levelo://app?vid=14c257dc-06bf-4a29-939b-9abb4cc4885a"},"vehicle_type_id":"4","last_reported":1733764134,"current_range_meters":6400,"station_id":"","pricing_plan_id":"cebpf4jnsgd1na2vs0mg"},{"bike_id":"0e57d714-949d-4e62-a856-8d524104f737","system_id":"levelo_inurba_marseille","lat":43.29634,"lon":5.40597,"is_reserved":false,"is_disabled":true,"rental_uris":{"android":"levelo://app?vid=0e57d714-949d-4e62-a856-8d524104f737","ios":"levelo://app?vid=0e57d714-949d-4e62-a856-8d524104f737"},"vehicle_type_id":"4","last_reported":1733764134,"current_range_meters":0,"station_id":"ce4bh0h2rcd13ifvqd60","pricing_plan_id":"cebpf4jnsgd1na2vs0mg"},{"bike_id":"faa7bf9c-8f43-4d37-ad83-5c946172d0a9","system_id":"levelo_inurba_marseille","lat":43.26037,"lon":5.37551,"is_reserved":false,"is_disabled":false,"rental_uris":{"android":"levelo://app?vid=faa7bf9c-8f43-4d37-ad83-5c946172d0a9","ios":"levelo://app?vid=faa7bf9c-8f43-4d37-ad83-5c946172d0a9"},"vehicle_type_id":"4","last_reported":1733764134,"current_range_meters":38800,"station_id":"ce4bhgh2rcd13ifvqfa0","pricing_plan_id":"cebpf4jnsgd1na2vs0mg"},{"bike_id":"ae0984f2-0d95-4738-bd02-b54c0075d1eb","system_id":"levelo_inurba_marseille","lat":43.25819,"lon":5.39423,"is_reserved":false,"is_disabled":false,"rental_uris":{"android":"levelo://app?vid=ae0984f2-0d95-4738-bd02-b54c0075d1eb","ios":"levelo://app?vid=ae0984f2-0d95-4738-bd02-b54c0075d1eb"},"vehicle_type_id":"4","last_reported":1733764134,"current_range_meters":38800,"station_id":"ce4bhip2rcd13ifvqft0","pricing_plan_id":"cebpf4jnsgd1na2vs0mg"},{"bike_id":"6dba43c6-c405-4200-aca9-3ec857142ab3","system_id":"levelo_inurba_marseille","lat":43.27805,"lon":5.40714,"is_reserved":false,"is_disabled":true,"rental_uris":{"android":"levelo://app?vid=6dba43c6-c405-4200-aca9-3ec857142ab3","ios":"levelo://app?vid=6dba43c6-c405-4200-aca9-3ec857142ab3"},"vehicle_type_id":"4","last_reported":1733764134,"current_range_meters":0,"station_id":"ce4bhnh2rcd13ifvqgtg","pricing_plan_id":"cebpf4jnsgd1na2vs0mg"},{"bike_id":"bb3605ad-ab15-4242-b121-7a189822f4d4","system_id":"levelo_inurba_marseille","lat":43.29253,"lon":5.40904,"is_reserved":false,"is_disabled":false,"rental_uris":{"android":"levelo://app?vid=bb3605ad-ab15-4242-b121-7a189822f4d4","ios":"levelo://app?vid=bb3605ad-ab15-4242-b121-7a189822f4d4"},"vehicle_type_id":"4","last_reported":1733764134,"current_range_meters":24800,"station_id":"ce4bh192rcd13ifvqdc0","pricing_plan_id":"cebpf4jnsgd1na2vs0mg"},{"bike_id":"9fe6b7cd-2407-4646-bd70-b263eb65c9e1","system_id":"levelo_inurba_marseille","lat":43.33716,"lon":5.39181,"is_reserved":false,"is_disabled":false,"rental_uris":{"android":"levelo://app?vid=9fe6b7cd-2407-4646-bd70-b263eb65c9e1","ios":"levelo://app?vid=9fe6b7cd-2407-4646-bd70-b263eb65c9e1"},"vehicle_type_id":"4","last_reported":1733764134,"current_range_meters":25600,"station_id":"ce4bhr92rcd13ifvqhsg","pricing_plan_id":"cebpf4jnsgd1na2vs0mg"},{"bike_id":"480f28a2-7fc0-4293-a84e-a1f8167b279b","system_id":"levelo_inurba_marseille","lat":43.25867,"lon":5.39899,"is_reserved":false,"is_disabled":false,"rental_uris":{"android":"levelo://app?vid=480f28a2-7fc0-4293-a84e-a1f8167b279b","ios":"levelo://app?vid=480f28a2-7fc0-4293-a84e-a1f8167b279b"},"vehicle_type_id":"4","last_reported":1733764134,"current_range_meters":8800,"station_id":"ce4bhl92rcd13ifvqghg","pricing_plan_id":"cebpf4jnsgd1na2vs0mg"},{"bike_id":"aa3f16f0-d86d-4ace-ac45-8d5f2af0e6af","system_id":"levelo_inurba_marseille","lat":43.26565,"lon":5.38999,"is_reserved":false,"is_disabled":false,"rental_uris":{"android":"levelo://app?vid=aa3f16f0-d86d-4ace-ac45-8d5f2af0e6af","ios":"levelo://app?vid=aa3f16f0-d86d-4ace-ac45-8d5f2af0e6af"},"vehicle_type_id":"4","last_reported":1733764134,"current_range_meters":20800,"station_id":"ce4bhe12rcd13ifvqf30","pricing_plan_id":"cebpf4jnsgd1na2vs0mg"},{"bike_id":"938640b4-f78c-4def-9b16-e6205edb88bc","system_id":"levelo_inurba_marseille","lat":43.28154,"lon":5.42636,"is_reserved":false,"is_disabled":true,"rental_uris":{"android":"levelo://app?vid=938640b4-f78c-4def-9b16-e6205edb88bc","ios":"levelo://app?vid=938640b4-f78c-4def-9b16-e6205edb88bc"},"vehicle_type_id":"4","last_reported":1733764134,"current_range_meters":34800,"station_id":"ce4bhnh2rcd13ifvqgug","pricing_plan_id":"cebpf4jnsgd1na2vs0mg"},{"bike_id":"3d7d0d8c-f88e-45e1-9d11-010472f02dea","system_id":"levelo_inurba_marseille","lat":43.292664,"lon":5.407383,"is_reserved":false,"is_disabled":false,"rental_uris":{"android":"levelo://app?vid=3d7d0d8c-f88e-45e1-9d11-010472f02dea","ios":"levelo://app?vid=3d7d0d8c-f88e-45e1-9d11-010472f02dea"},"vehicle_type_id":"4","last_reported":1733764134,"current_range_meters":27200,"station_id":"ce4bh192rcd13ifvqdc0","pricing_plan_id":"cebpf4jnsgd1na2vs0mg"},{"bike_id":"99a50271-3a09-4adf-880d-3033fc078d25","system_id":"levelo_inurba_marseille","lat":43.29438,"lon":5.39754,"is_reserved":false,"is_disabled":false,"rental_uris":{"android":"levelo://app?vid=99a50271-3a09-4adf-880d-3033fc078d25","ios":"levelo://app?vid=99a50271-3a09-4adf-880d-3033fc078d25"},"vehicle_type_id":"4","last_reported":1733764134,"current_range_meters":39200,"station_id":"ce4bh3h2rcd13ifvqdo0","pricing_plan_id":"cebpf4jnsgd1na2vs0mg"},{"bike_id":"cf55b169-9388-4819-bfa4-c55a8fa03873","system_id":"levelo_inurba_marseille","lat":43.27617,"lon":5.3611,"is_reserved":false,"is_disabled":true,"rental_uris":{"android":"levelo://app?vid=cf55b169-9388-4819-bfa4-c55a8fa03873","ios":"levelo://app?vid=cf55b169-9388-4819-bfa4-c55a8fa03873"},"vehicle_type_id":"4","last_reported":1733764134,"current_range_meters":28800,"station_id":"ce4bgj92rcd13ifvqbe0","pricing_plan_id":"cebpf4jnsgd1na2vs0mg"},{"bike_id":"2f3968e7-9336-4ee4-ba78-8e92c0a818cc","system_id":"levelo_inurba_marseille","lat":43.31322,"lon":5.36647,"is_reserved":false,"is_disabled":true,"rental_uris":{"android":"levelo://app?vid=2f3968e7-9336-4ee4-ba78-8e92c0a818cc","ios":"levelo://app?vid=2f3968e7-9336-4ee4-ba78-8e92c0a818cc"},"vehicle_type_id":"4","last_reported":1733764134,"current_range_meters":0,"station_id":"","pricing_plan_id":"cebpf4jnsgd1na2vs0mg"},{"bike_id":"b2eccbb3-a55b-440e-a8e1-5dfbf23b943b","system_id":"levelo_inurba_marseille","lat":43.26946,"lon":5.40257,"is_reserved":false,"is_disabled":false,"rental_uris":{"android":"levelo://app?vid=b2eccbb3-a55b-440e-a8e1-5dfbf23b943b","ios":"levelo://app?vid=b2eccbb3-a55b-440e-a8e1-5dfbf23b943b"},"vehicle_type_id":"4","last_reported":1733764134,"current_range_meters":20000,"station_id":"cjm6bp8fraef2m0cb0m0","pricing_plan_id":"cebpf4jnsgd1na2vs0mg"},{"bike_id":"4c634b51-f78c-4188-bb5c-dedfedf1caf0","system_id":"levelo_inurba_marseille","lat":43.28076,"lon":5.39659,"is_reserved":false,"is_disabled":false,"rental_uris":{"android":"levelo://app?vid=4c634b51-f78c-4188-bb5c-dedfedf1caf0","ios":"levelo://app?vid=4c634b51-f78c-4188-bb5c-dedfedf1caf0"},"vehicle_type_id":"4","last_reported":1733764134,"current_range_meters":22800,"station_id":"ce4bho12rcd13ifvqh2g","pricing_plan_id":"cebpf4jnsgd1na2vs0mg"},{"bike_id":"7f0b121b-7748-43bd-b861-318cbdf6fb69","system_id":"levelo_inurba_marseille","lat":43.28451,"lon":5.35899,"is_reserved":false,"is_disabled":true,"rental_uris":{"android":"levelo://app?vid=7f0b121b-7748-43bd-b861-318cbdf6fb69","ios":"levelo://app?vid=7f0b121b-7748-43bd-b861-318cbdf6fb69"},"vehicle_type_id":"4","last_reported":1733764134,"current_range_meters":27600,"station_id":"ce4bhah2rcd13ifvqei0","pricing_plan_id":"cebpf4jnsgd1na2vs0mg"},{"bike_id":"6583aefc-6815-4bd5-8f5c-a9c5d794f47e","system_id":"levelo_inurba_marseille","lat":43.36394,"lon":5.34183,"is_reserved":false,"is_disabled":false,"rental_uris":{"android":"levelo://app?vid=6583aefc-6815-4bd5-8f5c-a9c5d794f47e","ios":"levelo://app?vid=6583aefc-6815-4bd5-8f5c-a9c5d794f47e"},"vehicle_type_id":"4","last_reported":1733764134,"current_range_meters":12400,"station_id":"","pricing_plan_id":"cebpf4jnsgd1na2vs0mg"},{"bike_id":"c8beff43-7449-4aa4-86a7-476ca29a8130","system_id":"levelo_inurba_marseille","lat":43.31727,"lon":5.42395,"is_reserved":false,"is_disabled":false,"rental_uris":{"android":"levelo://app?vid=c8beff43-7449-4aa4-86a7-476ca29a8130","ios":"levelo://app?vid=c8beff43-7449-4aa4-86a7-476ca29a8130"},"vehicle_type_id":"4","last_reported":1733764134,"current_range_meters":24000,"station_id":"ce4bhp92rcd13ifvqhbg","pricing_plan_id":"cebpf4jnsgd1na2vs0mg"},{"bike_id":"4c597c52-a7fb-4706-a8b3-ec4061d70067","system_id":"levelo_inurba_marseille","lat":43.33023,"lon":5.39045,"is_reserved":false,"is_disabled":false,"rental_uris":{"android":"levelo://app?vid=4c597c52-a7fb-4706-a8b3-ec4061d70067","ios":"levelo://app?vid=4c597c52-a7fb-4706-a8b3-ec4061d70067"},"vehicle_type_id":"4","last_reported":1733764134,"current_range_meters":10800,"station_id":"ce4bhr92rcd13ifvqhrg","pricing_plan_id":"cebpf4jnsgd1na2vs0mg"},{"bike_id":"72a40c74-61ce-4e85-9c26-7501b1062d7a","system_id":"levelo_inurba_marseille","lat":43.32342,"lon":5.40627,"is_reserved":false,"is_disabled":false,"rental_uris":{"android":"levelo://app?vid=72a40c74-61ce-4e85-9c26-7501b1062d7a","ios":"levelo://app?vid=72a40c74-61ce-4e85-9c26-7501b1062d7a"},"vehicle_type_id":"4","last_reported":1733764134,"current_range_meters":16800,"station_id":"ce4bhq92rcd13ifvqhjg","pricing_plan_id":"cebpf4jnsgd1na2vs0mg"},{"bike_id":"b97d7574-49b3-4eea-b4a7-8d4ca9df8845","system_id":"levelo_inurba_marseille","lat":43.27175,"lon":5.40997,"is_reserved":false,"is_disabled":false,"rental_uris":{"android":"levelo://app?vid=b97d7574-49b3-4eea-b4a7-8d4ca9df8845","ios":"levelo://app?vid=b97d7574-49b3-4eea-b4a7-8d4ca9df8845"},"vehicle_type_id":"4","last_reported":1733764134,"current_range_meters":20000,"station_id":"ce4bhl12rcd13ifvqgf0","pricing_plan_id":"cebpf4jnsgd1na2vs0mg"},{"bike_id":"468d023e-e483-49f2-92d7-7b95c7b3c650","system_id":"levelo_inurba_marseille","lat":43.29901,"lon":5.4368,"is_reserved":false,"is_disabled":false,"rental_uris":{"android":"levelo://app?vid=468d023e-e483-49f2-92d7-7b95c7b3c650","ios":"levelo://app?vid=468d023e-e483-49f2-92d7-7b95c7b3c650"},"vehicle_type_id":"4","last_reported":1733764134,"current_range_meters":38800,"station_id":"ce4bhpp2rcd13ifvqhfg","pricing_plan_id":"cebpf4jnsgd1na2vs0mg"},{"bike_id":"eac77b6d-401e-4a04-9640-56f71eac3b54","system_id":"levelo_inurba_marseille","lat":43.291723,"lon":5.372854,"is_reserved":false,"is_disabled":false,"rental_uris":{"android":"levelo://app?vid=eac77b6d-401e-4a04-9640-56f71eac3b54","ios":"levelo://app?vid=eac77b6d-401e-4a04-9640-56f71eac3b54"},"vehicle_type_id":"4","last_reported":1733764134,"current_range_meters":26000,"station_id":"ce4bh5p2rcd13ifvqe4g","pricing_plan_id":"cebpf4jnsgd1na2vs0mg"},{"bike_id":"ad2f90d1-2f44-4830-9c20-e8aa5d565d92","system_id":"levelo_inurba_marseille","lat":43.25592,"lon":5.38225,"is_reserved":false,"is_disabled":true,"rental_uris":{"android":"levelo://app?vid=ad2f90d1-2f44-4830-9c20-e8aa5d565d92","ios":"levelo://app?vid=ad2f90d1-2f44-4830-9c20-e8aa5d565d92"},"vehicle_type_id":"4","last_reported":1733764134,"current_range_meters":0,"station_id":"ce4bhih2rcd13ifvqfs0","pricing_plan_id":"cebpf4jnsgd1na2vs0mg"},{"bike_id":"be11bf77-dce6-4575-b3d6-de65c68412a2","system_id":"levelo_inurba_marseille","lat":43.26092,"lon":5.39379,"is_reserved":false,"is_disabled":false,"rental_uris":{"android":"levelo://app?vid=be11bf77-dce6-4575-b3d6-de65c68412a2","ios":"levelo://app?vid=be11bf77-dce6-4575-b3d6-de65c68412a2"},"vehicle_type_id":"4","last_reported":1733764134,"current_range_meters":36400,"station_id":"ce4bhh92rcd13ifvqfj0","pricing_plan_id":"cebpf4jnsgd1na2vs0mg"},{"bike_id":"b3b813e5-5854-4e12-92b7-f11a114721d5","system_id":"levelo_inurba_marseille","lat":43.2465,"lon":5.38898,"is_reserved":false,"is_disabled":false,"rental_uris":{"android":"levelo://app?vid=b3b813e5-5854-4e12-92b7-f11a114721d5","ios":"levelo://app?vid=b3b813e5-5854-4e12-92b7-f11a114721d5"},"vehicle_type_id":"4","last_reported":1733764134,"current_range_meters":18000,"station_id":"ce4bhg12rcd13ifvqf60","pricing_plan_id":"cebpf4jnsgd1na2vs0mg"},{"bike_id":"6f169c62-6893-48b0-ba06-c9fbf6b7d252","system_id":"levelo_inurba_marseille","lat":43.31698,"lon":5.37764,"is_reserved":false,"is_disabled":false,"rental_uris":{"android":"levelo://app?vid=6f169c62-6893-48b0-ba06-c9fbf6b7d252","ios":"levelo://app?vid=6f169c62-6893-48b0-ba06-c9fbf6b7d252"},"vehicle_type_id":"4","last_reported":1733764134,"current_range_meters":12400,"station_id":"ce4bgth2rcd13ifvqch0","pricing_plan_id":"cebpf4jnsgd1na2vs0mg"},{"bike_id":"f10c5e90-601b-4bd4-87e7-4cbb6a13a4fb","system_id":"levelo_inurba_marseille","lat":43.26123,"lon":5.39268,"is_reserved":false,"is_disabled":true,"rental_uris":{"android":"levelo://app?vid=f10c5e90-601b-4bd4-87e7-4cbb6a13a4fb","ios":"levelo://app?vid=f10c5e90-601b-4bd4-87e7-4cbb6a13a4fb"},"vehicle_type_id":"4","last_reported":1733764134,"current_range_meters":0,"station_id":"","pricing_plan_id":"cebpf4jnsgd1na2vs0mg"},{"bike_id":"c145c2e9-0a4e-41e0-9d50-02fa9b001e4f","system_id":"levelo_inurba_marseille","lat":43.30874,"lon":5.39624,"is_reserved":false,"is_disabled":false,"rental_uris":{"android":"levelo://app?vid=c145c2e9-0a4e-41e0-9d50-02fa9b001e4f","ios":"levelo://app?vid=c145c2e9-0a4e-41e0-9d50-02fa9b001e4f"},"vehicle_type_id":"4","last_reported":1733764134,"current_range_meters":20400,"station_id":"ce4bh012rcd13ifvqcv0","pricing_plan_id":"cebpf4jnsgd1na2vs0mg"},{"bike_id":"6c63d3bb-dfd4-45ff-ad62-fa1676beefff","system_id":"levelo_inurba_marseille","lat":43.30147,"lon":5.39897,"is_reserved":false,"is_disabled":false,"rental_uris":{"android":"levelo://app?vid=6c63d3bb-dfd4-45ff-ad62-fa1676beefff","ios":"levelo://app?vid=6c63d3bb-dfd4-45ff-ad62-fa1676beefff"},"vehicle_type_id":"4","last_reported":1733764134,"current_range_meters":38800,"station_id":"ce4bh0h2rcd13ifvqd40","pricing_plan_id":"cebpf4jnsgd1na2vs0mg"},{"bike_id":"a9c92845-55ae-4653-9c5d-606f306a0f38","system_id":"levelo_inurba_marseille","lat":43.27057,"lon":5.40259,"is_reserved":false,"is_disabled":false,"rental_uris":{"android":"levelo://app?vid=a9c92845-55ae-4653-9c5d-606f306a0f38","ios":"levelo://app?vid=a9c92845-55ae-4653-9c5d-606f306a0f38"},"vehicle_type_id":"4","last_reported":1733764134,"current_range_meters":36800,"station_id":"ce4bhk92rcd13ifvqgc0","pricing_plan_id":"cebpf4jnsgd1na2vs0mg"},{"bike_id":"c00f0587-6e07-48cd-b5c4-2930fb081189","system_id":"levelo_inurba_marseille","lat":43.29319,"lon":5.41191,"is_reserved":false,"is_disabled":false,"rental_uris":{"android":"levelo://app?vid=c00f0587-6e07-48cd-b5c4-2930fb081189","ios":"levelo://app?vid=c00f0587-6e07-48cd-b5c4-2930fb081189"},"vehicle_type_id":"4","last_reported":1733764134,"current_range_meters":27200,"station_id":"","pricing_plan_id":"cebpf4jnsgd1na2vs0mg"},{"bike_id":"c1af07c0-ed11-49c8-aa2e-1104638a28b7","system_id":"levelo_inurba_marseille","lat":43.23067,"lon":5.35495,"is_reserved":false,"is_disabled":false,"rental_uris":{"android":"levelo://app?vid=c1af07c0-ed11-49c8-aa2e-1104638a28b7","ios":"levelo://app?vid=c1af07c0-ed11-49c8-aa2e-1104638a28b7"},"vehicle_type_id":"4","last_reported":1733764134,"current_range_meters":24400,"station_id":"cpo3342slgdg3j2ifvpg","pricing_plan_id":"cebpf4jnsgd1na2vs0mg"},{"bike_id":"76f7bf6f-eac7-44ce-acd4-feecd9b3f710","system_id":"levelo_inurba_marseille","lat":43.31886,"lon":5.40731,"is_reserved":false,"is_disabled":false,"rental_uris":{"android":"levelo://app?vid=76f7bf6f-eac7-44ce-acd4-feecd9b3f710","ios":"levelo://app?vid=76f7bf6f-eac7-44ce-acd4-feecd9b3f710"},"vehicle_type_id":"4","last_reported":1733764134,"current_range_meters":16800,"station_id":"ce4bhq12rcd13ifvqhig","pricing_plan_id":"cebpf4jnsgd1na2vs0mg"},{"bike_id":"e804957b-1483-43f4-8892-4149e083f9a4","system_id":"levelo_inurba_marseille","lat":43.28202,"lon":5.39067,"is_reserved":false,"is_disabled":false,"rental_uris":{"android":"levelo://app?vid=e804957b-1483-43f4-8892-4149e083f9a4","ios":"levelo://app?vid=e804957b-1483-43f4-8892-4149e083f9a4"},"vehicle_type_id":"4","last_reported":1733764134,"current_range_meters":26800,"station_id":"","pricing_plan_id":"cebpf4jnsgd1na2vs0mg"},{"bike_id":"6f5aafc4-06b9-4dba-b612-5d926167490b","system_id":"levelo_inurba_marseille","lat":43.32483,"lon":5.36588,"is_reserved":false,"is_disabled":true,"rental_uris":{"android":"levelo://app?vid=6f5aafc4-06b9-4dba-b612-5d926167490b","ios":"levelo://app?vid=6f5aafc4-06b9-4dba-b612-5d926167490b"},"vehicle_type_id":"4","last_reported":1733764134,"current_range_meters":400,"station_id":"ce4bhs12rcd13ifvqhvg","pricing_plan_id":"cebpf4jnsgd1na2vs0mg"},{"bike_id":"19b06128-e0d1-48bb-8561-de6b4c9be47a","system_id":"levelo_inurba_marseille","lat":43.30805,"lon":5.43523,"is_reserved":false,"is_disabled":false,"rental_uris":{"android":"levelo://app?vid=19b06128-e0d1-48bb-8561-de6b4c9be47a","ios":"levelo://app?vid=19b06128-e0d1-48bb-8561-de6b4c9be47a"},"vehicle_type_id":"4","last_reported":1733764134,"current_range_meters":17600,"station_id":"ce4bhph2rcd13ifvqheg","pricing_plan_id":"cebpf4jnsgd1na2vs0mg"},{"bike_id":"74ddbdc3-b082-4f44-a075-38dfc2e6b2cd","system_id":"levelo_inurba_marseille","lat":43.2417,"lon":5.36392,"is_reserved":false,"is_disabled":false,"rental_uris":{"android":"levelo://app?vid=74ddbdc3-b082-4f44-a075-38dfc2e6b2cd","ios":"levelo://app?vid=74ddbdc3-b082-4f44-a075-38dfc2e6b2cd"},"vehicle_type_id":"4","last_reported":1733764134,"current_range_meters":26000,"station_id":"cpo36qri1sfpv3e86is0","pricing_plan_id":"cebpf4jnsgd1na2vs0mg"},{"bike_id":"778cfa67-5e48-43ac-bad2-c30d515ff32e","system_id":"levelo_inurba_marseille","lat":43.30799,"lon":5.4352,"is_reserved":false,"is_disabled":false,"rental_uris":{"android":"levelo://app?vid=778cfa67-5e48-43ac-bad2-c30d515ff32e","ios":"levelo://app?vid=778cfa67-5e48-43ac-bad2-c30d515ff32e"},"vehicle_type_id":"4","last_reported":1733764134,"current_range_meters":10000,"station_id":"ce4bhph2rcd13ifvqheg","pricing_plan_id":"cebpf4jnsgd1na2vs0mg"},{"bike_id":"ad097085-7b57-49a3-bedb-4c90eff64f11","system_id":"levelo_inurba_marseille","lat":43.28413,"lon":5.37507,"is_reserved":false,"is_disabled":false,"rental_uris":{"android":"levelo://app?vid=ad097085-7b57-49a3-bedb-4c90eff64f11","ios":"levelo://app?vid=ad097085-7b57-49a3-bedb-4c90eff64f11"},"vehicle_type_id":"4","last_reported":1733764134,"current_range_meters":32000,"station_id":"ce4bh412rcd13ifvqds0","pricing_plan_id":"cebpf4jnsgd1na2vs0mg"},{"bike_id":"f942e722-5039-4601-9971-0207b150598d","system_id":"levelo_inurba_marseille","lat":43.29854,"lon":5.36294,"is_reserved":false,"is_disabled":false,"rental_uris":{"android":"levelo://app?vid=f942e722-5039-4601-9971-0207b150598d","ios":"levelo://app?vid=f942e722-5039-4601-9971-0207b150598d"},"vehicle_type_id":"4","last_reported":1733764134,"current_range_meters":16800,"station_id":"ce4bgpp2rcd13ifvqc3g","pricing_plan_id":"cebpf4jnsgd1na2vs0mg"},{"bike_id":"9cd79aab-6f4c-4919-b570-803a9e8b35c5","system_id":"levelo_inurba_marseille","lat":43.30468,"lon":5.36716,"is_reserved":false,"is_disabled":true,"rental_uris":{"android":"levelo://app?vid=9cd79aab-6f4c-4919-b570-803a9e8b35c5","ios":"levelo://app?vid=9cd79aab-6f4c-4919-b570-803a9e8b35c5"},"vehicle_type_id":"4","last_reported":1733764134,"current_range_meters":27200,"station_id":"","pricing_plan_id":"cebpf4jnsgd1na2vs0mg"},{"bike_id":"8c968e30-6a77-45be-9e67-a217121c27bd","system_id":"levelo_inurba_marseille","lat":43.29038,"lon":5.38636,"is_reserved":false,"is_disabled":false,"rental_uris":{"android":"levelo://app?vid=8c968e30-6a77-45be-9e67-a217121c27bd","ios":"levelo://app?vid=8c968e30-6a77-45be-9e67-a217121c27bd"},"vehicle_type_id":"4","last_reported":1733764134,"current_range_meters":38000,"station_id":"ce4bh4p2rcd13ifvqe0g","pricing_plan_id":"cebpf4jnsgd1na2vs0mg"},{"bike_id":"4a74c10f-6658-453e-959b-726fe1311d20","system_id":"levelo_inurba_marseille","lat":43.30185,"lon":5.3742,"is_reserved":false,"is_disabled":false,"rental_uris":{"android":"levelo://app?vid=4a74c10f-6658-453e-959b-726fe1311d20","ios":"levelo://app?vid=4a74c10f-6658-453e-959b-726fe1311d20"},"vehicle_type_id":"4","last_reported":1733764134,"current_range_meters":38000,"station_id":"ce4bgs92rcd13ifvqcc0","pricing_plan_id":"cebpf4jnsgd1na2vs0mg"},{"bike_id":"cf80ef54-0b0f-4dfe-80d1-0c382470e0e9","system_id":"levelo_inurba_marseille","lat":43.250775,"lon":5.395393,"is_reserved":false,"is_disabled":false,"rental_uris":{"android":"levelo://app?vid=cf80ef54-0b0f-4dfe-80d1-0c382470e0e9","ios":"levelo://app?vid=cf80ef54-0b0f-4dfe-80d1-0c382470e0e9"},"vehicle_type_id":"4","last_reported":1733764134,"current_range_meters":18000,"station_id":"","pricing_plan_id":"cebpf4jnsgd1na2vs0mg"},{"bike_id":"84860371-fcd2-4576-b944-9456e91fe7fa","system_id":"levelo_inurba_marseille","lat":43.30598,"lon":5.37222,"is_reserved":false,"is_disabled":false,"rental_uris":{"android":"levelo://app?vid=84860371-fcd2-4576-b944-9456e91fe7fa","ios":"levelo://app?vid=84860371-fcd2-4576-b944-9456e91fe7fa"},"vehicle_type_id":"4","last_reported":1733764134,"current_range_meters":38800,"station_id":"ce4bgqh2rcd13ifvqc4g","pricing_plan_id":"cebpf4jnsgd1na2vs0mg"},{"bike_id":"6c8fe7c6-196b-4f48-b4e0-0a60be29f541","system_id":"levelo_inurba_marseille","lat":43.29551,"lon":5.4229,"is_reserved":false,"is_disabled":false,"rental_uris":{"android":"levelo://app?vid=6c8fe7c6-196b-4f48-b4e0-0a60be29f541","ios":"levelo://app?vid=6c8fe7c6-196b-4f48-b4e0-0a60be29f541"},"vehicle_type_id":"4","last_reported":1733764134,"current_range_meters":22000,"station_id":"ce4bhph2rcd13ifvqhdg","pricing_plan_id":"cebpf4jnsgd1na2vs0mg"},{"bike_id":"11e86528-eb6b-4391-86a5-9b1822d069a4","system_id":"levelo_inurba_marseille","lat":43.278805,"lon":5.388003,"is_reserved":false,"is_disabled":true,"rental_uris":{"android":"levelo://app?vid=11e86528-eb6b-4391-86a5-9b1822d069a4","ios":"levelo://app?vid=11e86528-eb6b-4391-86a5-9b1822d069a4"},"vehicle_type_id":"4","last_reported":1733764134,"current_range_meters":0,"station_id":"","pricing_plan_id":"cebpf4jnsgd1na2vs0mg"},{"bike_id":"6cc6805f-c0ca-4585-bdf1-b5a0339762b0","system_id":"levelo_inurba_marseille","lat":43.29027,"lon":5.42744,"is_reserved":false,"is_disabled":true,"rental_uris":{"android":"levelo://app?vid=6cc6805f-c0ca-4585-bdf1-b5a0339762b0","ios":"levelo://app?vid=6cc6805f-c0ca-4585-bdf1-b5a0339762b0"},"vehicle_type_id":"4","last_reported":1733764134,"current_range_meters":0,"station_id":"","pricing_plan_id":"cebpf4jnsgd1na2vs0mg"},{"bike_id":"38d8bef4-ca7f-434a-8288-4e95958ab963","system_id":"levelo_inurba_marseille","lat":43.23157,"lon":5.43704,"is_reserved":false,"is_disabled":false,"rental_uris":{"android":"levelo://app?vid=38d8bef4-ca7f-434a-8288-4e95958ab963","ios":"levelo://app?vid=38d8bef4-ca7f-434a-8288-4e95958ab963"},"vehicle_type_id":"4","last_reported":1733764134,"current_range_meters":11200,"station_id":"ce4bhmp2rcd13ifvqgog","pricing_plan_id":"cebpf4jnsgd1na2vs0mg"},{"bike_id":"a478bcff-2af8-4db5-8351-cdbe6b849a6d","system_id":"levelo_inurba_marseille","lat":43.334246,"lon":5.362142,"is_reserved":false,"is_disabled":true,"rental_uris":{"android":"levelo://app?vid=a478bcff-2af8-4db5-8351-cdbe6b849a6d","ios":"levelo://app?vid=a478bcff-2af8-4db5-8351-cdbe6b849a6d"},"vehicle_type_id":"4","last_reported":1733764134,"current_range_meters":0,"station_id":"","pricing_plan_id":"cebpf4jnsgd1na2vs0mg"},{"bike_id":"cd635b0a-0d15-4636-98dd-4470e473b819","system_id":"levelo_inurba_marseille","lat":43.29316,"lon":5.41193,"is_reserved":false,"is_disabled":false,"rental_uris":{"android":"levelo://app?vid=cd635b0a-0d15-4636-98dd-4470e473b819","ios":"levelo://app?vid=cd635b0a-0d15-4636-98dd-4470e473b819"},"vehicle_type_id":"4","last_reported":1733764134,"current_range_meters":18800,"station_id":"","pricing_plan_id":"cebpf4jnsgd1na2vs0mg"},{"bike_id":"9f03dca4-237a-49dc-8f4b-3b6a07909c99","system_id":"levelo_inurba_marseille","lat":43.23196,"lon":5.35557,"is_reserved":false,"is_disabled":false,"rental_uris":{"android":"levelo://app?vid=9f03dca4-237a-49dc-8f4b-3b6a07909c99","ios":"levelo://app?vid=9f03dca4-237a-49dc-8f4b-3b6a07909c99"},"vehicle_type_id":"4","last_reported":1733764134,"current_range_meters":8000,"station_id":"ce4bhu92rcd13ifvqi70","pricing_plan_id":"cebpf4jnsgd1na2vs0mg"},{"bike_id":"b6fcd388-ab74-408f-9e17-a2445b649a56","system_id":"levelo_inurba_marseille","lat":43.284546,"lon":5.358919,"is_reserved":false,"is_disabled":false,"rental_uris":{"android":"levelo://app?vid=b6fcd388-ab74-408f-9e17-a2445b649a56","ios":"levelo://app?vid=b6fcd388-ab74-408f-9e17-a2445b649a56"},"vehicle_type_id":"4","last_reported":1733764134,"current_range_meters":22400,"station_id":"ce4bhah2rcd13ifvqei0","pricing_plan_id":"cebpf4jnsgd1na2vs0mg"},{"bike_id":"cf995f0f-a2d6-4303-85db-6d52c33aec36","system_id":"levelo_inurba_marseille","lat":43.33026,"lon":5.39042,"is_reserved":false,"is_disabled":false,"rental_uris":{"android":"levelo://app?vid=cf995f0f-a2d6-4303-85db-6d52c33aec36","ios":"levelo://app?vid=cf995f0f-a2d6-4303-85db-6d52c33aec36"},"vehicle_type_id":"4","last_reported":1733764134,"current_range_meters":38800,"station_id":"ce4bhr92rcd13ifvqhrg","pricing_plan_id":"cebpf4jnsgd1na2vs0mg"},{"bike_id":"cbf9c981-cbe9-407f-b4c6-5d2065d44b78","system_id":"levelo_inurba_marseille","lat":43.3302,"lon":5.39048,"is_reserved":false,"is_disabled":false,"rental_uris":{"android":"levelo://app?vid=cbf9c981-cbe9-407f-b4c6-5d2065d44b78","ios":"levelo://app?vid=cbf9c981-cbe9-407f-b4c6-5d2065d44b78"},"vehicle_type_id":"4","last_reported":1733764134,"current_range_meters":24000,"station_id":"ce4bhr92rcd13ifvqhrg","pricing_plan_id":"cebpf4jnsgd1na2vs0mg"},{"bike_id":"e301fb9b-fdcc-43a0-ab66-d6957eaeb5ee","system_id":"levelo_inurba_marseille","lat":43.23148,"lon":5.43721,"is_reserved":false,"is_disabled":false,"rental_uris":{"android":"levelo://app?vid=e301fb9b-fdcc-43a0-ab66-d6957eaeb5ee","ios":"levelo://app?vid=e301fb9b-fdcc-43a0-ab66-d6957eaeb5ee"},"vehicle_type_id":"4","last_reported":1733764134,"current_range_meters":38800,"station_id":"ce4bhmp2rcd13ifvqgog","pricing_plan_id":"cebpf4jnsgd1na2vs0mg"},{"bike_id":"243c0fa9-fb27-4111-81f0-175e30eaaaed","system_id":"levelo_inurba_marseille","lat":43.29039,"lon":5.35919,"is_reserved":false,"is_disabled":true,"rental_uris":{"android":"levelo://app?vid=243c0fa9-fb27-4111-81f0-175e30eaaaed","ios":"levelo://app?vid=243c0fa9-fb27-4111-81f0-175e30eaaaed"},"vehicle_type_id":"4","last_reported":1733764134,"current_range_meters":38800,"station_id":"ce4bha92rcd13ifvqeg0","pricing_plan_id":"cebpf4jnsgd1na2vs0mg"},{"bike_id":"748066cc-be41-4965-97a4-dc87e2a0a0ea","system_id":"levelo_inurba_marseille","lat":43.28669,"lon":5.36342,"is_reserved":false,"is_disabled":false,"rental_uris":{"android":"levelo://app?vid=748066cc-be41-4965-97a4-dc87e2a0a0ea","ios":"levelo://app?vid=748066cc-be41-4965-97a4-dc87e2a0a0ea"},"vehicle_type_id":"4","last_reported":1733764134,"current_range_meters":26800,"station_id":"ce4bhah2rcd13ifvqej0","pricing_plan_id":"cebpf4jnsgd1na2vs0mg"},{"bike_id":"a873af9b-a353-4469-b239-adbb5bf5dc0d","system_id":"levelo_inurba_marseille","lat":43.25864,"lon":5.39905,"is_reserved":false,"is_disabled":false,"rental_uris":{"android":"levelo://app?vid=a873af9b-a353-4469-b239-adbb5bf5dc0d","ios":"levelo://app?vid=a873af9b-a353-4469-b239-adbb5bf5dc0d"},"vehicle_type_id":"4","last_reported":1733764134,"current_range_meters":38800,"station_id":"ce4bhl92rcd13ifvqghg","pricing_plan_id":"cebpf4jnsgd1na2vs0mg"},{"bike_id":"bb806945-3ebc-4d19-94bb-5747862e7b55","system_id":"levelo_inurba_marseille","lat":43.3189,"lon":5.3747,"is_reserved":false,"is_disabled":false,"rental_uris":{"android":"levelo://app?vid=bb806945-3ebc-4d19-94bb-5747862e7b55","ios":"levelo://app?vid=bb806945-3ebc-4d19-94bb-5747862e7b55"},"vehicle_type_id":"4","last_reported":1733764134,"current_range_meters":9600,"station_id":"","pricing_plan_id":"cebpf4jnsgd1na2vs0mg"},{"bike_id":"95b68163-8c31-4ce4-989b-0d594a1f53e9","system_id":"levelo_inurba_marseille","lat":43.29688,"lon":5.37244,"is_reserved":false,"is_disabled":false,"rental_uris":{"android":"levelo://app?vid=95b68163-8c31-4ce4-989b-0d594a1f53e9","ios":"levelo://app?vid=95b68163-8c31-4ce4-989b-0d594a1f53e9"},"vehicle_type_id":"4","last_reported":1733764134,"current_range_meters":26800,"station_id":"ce4bgk12rcd13ifvqbj0","pricing_plan_id":"cebpf4jnsgd1na2vs0mg"},{"bike_id":"5d3191c9-6c14-4210-93f6-65a7e3cb6dd0","system_id":"levelo_inurba_marseille","lat":43.27174,"lon":5.40995,"is_reserved":false,"is_disabled":false,"rental_uris":{"android":"levelo://app?vid=5d3191c9-6c14-4210-93f6-65a7e3cb6dd0","ios":"levelo://app?vid=5d3191c9-6c14-4210-93f6-65a7e3cb6dd0"},"vehicle_type_id":"4","last_reported":1733764134,"current_range_meters":23200,"station_id":"ce4bhl12rcd13ifvqgf0","pricing_plan_id":"cebpf4jnsgd1na2vs0mg"},{"bike_id":"d95dcc04-c1ca-4180-8956-d6a7fec94cdb","system_id":"levelo_inurba_marseille","lat":43.29377,"lon":5.37846,"is_reserved":false,"is_disabled":false,"rental_uris":{"android":"levelo://app?vid=d95dcc04-c1ca-4180-8956-d6a7fec94cdb","ios":"levelo://app?vid=d95dcc04-c1ca-4180-8956-d6a7fec94cdb"},"vehicle_type_id":"4","last_reported":1733764134,"current_range_meters":37600,"station_id":"ce4bgjh2rcd13ifvqbf0","pricing_plan_id":"cebpf4jnsgd1na2vs0mg"},{"bike_id":"1381d957-9c22-4679-9945-3cee5159e1e0","system_id":"levelo_inurba_marseille","lat":43.25101,"lon":5.40304,"is_reserved":false,"is_disabled":false,"rental_uris":{"android":"levelo://app?vid=1381d957-9c22-4679-9945-3cee5159e1e0","ios":"levelo://app?vid=1381d957-9c22-4679-9945-3cee5159e1e0"},"vehicle_type_id":"4","last_reported":1733764134,"current_range_meters":26800,"station_id":"ce4bhlh2rcd13ifvqgig","pricing_plan_id":"cebpf4jnsgd1na2vs0mg"},{"bike_id":"8a3b90a9-b1cc-4628-83f4-2f9e628eccda","system_id":"levelo_inurba_marseille","lat":43.33025,"lon":5.39034,"is_reserved":false,"is_disabled":false,"rental_uris":{"android":"levelo://app?vid=8a3b90a9-b1cc-4628-83f4-2f9e628eccda","ios":"levelo://app?vid=8a3b90a9-b1cc-4628-83f4-2f9e628eccda"},"vehicle_type_id":"4","last_reported":1733764134,"current_range_meters":38800,"station_id":"ce4bhr92rcd13ifvqhrg","pricing_plan_id":"cebpf4jnsgd1na2vs0mg"},{"bike_id":"2e14ff18-3a06-4388-ad18-1e3f20ce59bb","system_id":"levelo_inurba_marseille","lat":43.31538,"lon":5.37499,"is_reserved":false,"is_disabled":false,"rental_uris":{"android":"levelo://app?vid=2e14ff18-3a06-4388-ad18-1e3f20ce59bb","ios":"levelo://app?vid=2e14ff18-3a06-4388-ad18-1e3f20ce59bb"},"vehicle_type_id":"4","last_reported":1733764134,"current_range_meters":23200,"station_id":"","pricing_plan_id":"cebpf4jnsgd1na2vs0mg"},{"bike_id":"5fa91bad-b486-4700-aee0-3d40cbe09516","system_id":"levelo_inurba_marseille","lat":43.24171,"lon":5.36397,"is_reserved":false,"is_disabled":true,"rental_uris":{"android":"levelo://app?vid=5fa91bad-b486-4700-aee0-3d40cbe09516","ios":"levelo://app?vid=5fa91bad-b486-4700-aee0-3d40cbe09516"},"vehicle_type_id":"4","last_reported":1733764134,"current_range_meters":1600,"station_id":"cpo36qri1sfpv3e86is0","pricing_plan_id":"cebpf4jnsgd1na2vs0mg"},{"bike_id":"58d3480e-9a25-4142-9952-995aac0b5e71","system_id":"levelo_inurba_marseille","lat":43.31112,"lon":5.36753,"is_reserved":false,"is_disabled":false,"rental_uris":{"android":"levelo://app?vid=58d3480e-9a25-4142-9952-995aac0b5e71","ios":"levelo://app?vid=58d3480e-9a25-4142-9952-995aac0b5e71"},"vehicle_type_id":"4","last_reported":1733764134,"current_range_meters":36800,"station_id":"","pricing_plan_id":"cebpf4jnsgd1na2vs0mg"},{"bike_id":"067d4f8e-eded-4040-9b89-eb14aebc4852","system_id":"levelo_inurba_marseille","lat":43.29899,"lon":5.43675,"is_reserved":false,"is_disabled":false,"rental_uris":{"android":"levelo://app?vid=067d4f8e-eded-4040-9b89-eb14aebc4852","ios":"levelo://app?vid=067d4f8e-eded-4040-9b89-eb14aebc4852"},"vehicle_type_id":"4","last_reported":1733764134,"current_range_meters":36800,"station_id":"ce4bhpp2rcd13ifvqhfg","pricing_plan_id":"cebpf4jnsgd1na2vs0mg"},{"bike_id":"bcc4b2b2-49d9-45f1-9f29-e05e097e6ff2","system_id":"levelo_inurba_marseille","lat":43.26029,"lon":5.37552,"is_reserved":false,"is_disabled":false,"rental_uris":{"android":"levelo://app?vid=bcc4b2b2-49d9-45f1-9f29-e05e097e6ff2","ios":"levelo://app?vid=bcc4b2b2-49d9-45f1-9f29-e05e097e6ff2"},"vehicle_type_id":"4","last_reported":1733764134,"current_range_meters":39200,"station_id":"ce4bhgh2rcd13ifvqfa0","pricing_plan_id":"cebpf4jnsgd1na2vs0mg"},{"bike_id":"9f3769a7-f392-475e-913a-8ad10d3e2daf","system_id":"levelo_inurba_marseille","lat":43.24167,"lon":5.36396,"is_reserved":false,"is_disabled":false,"rental_uris":{"android":"levelo://app?vid=9f3769a7-f392-475e-913a-8ad10d3e2daf","ios":"levelo://app?vid=9f3769a7-f392-475e-913a-8ad10d3e2daf"},"vehicle_type_id":"4","last_reported":1733764134,"current_range_meters":20400,"station_id":"cpo36qri1sfpv3e86is0","pricing_plan_id":"cebpf4jnsgd1na2vs0mg"},{"bike_id":"896d4ccf-3d83-4122-b2f2-1a77a517b0e7","system_id":"levelo_inurba_marseille","lat":43.23964,"lon":5.3663,"is_reserved":false,"is_disabled":false,"rental_uris":{"android":"levelo://app?vid=896d4ccf-3d83-4122-b2f2-1a77a517b0e7","ios":"levelo://app?vid=896d4ccf-3d83-4122-b2f2-1a77a517b0e7"},"vehicle_type_id":"4","last_reported":1733764134,"current_range_meters":38800,"station_id":"ce4bhi12rcd13ifvqfp0","pricing_plan_id":"cebpf4jnsgd1na2vs0mg"},{"bike_id":"19cc9331-d87c-4cc1-a20f-1824ffbf44c2","system_id":"levelo_inurba_marseille","lat":43.30266,"lon":5.40074,"is_reserved":false,"is_disabled":false,"rental_uris":{"android":"levelo://app?vid=19cc9331-d87c-4cc1-a20f-1824ffbf44c2","ios":"levelo://app?vid=19cc9331-d87c-4cc1-a20f-1824ffbf44c2"},"vehicle_type_id":"4","last_reported":1733764134,"current_range_meters":28400,"station_id":"ce4bgvh2rcd13ifvqcs0","pricing_plan_id":"cebpf4jnsgd1na2vs0mg"},{"bike_id":"edf4570e-a778-4499-8d55-bbb4302eef97","system_id":"levelo_inurba_marseille","lat":43.27997,"lon":5.40015,"is_reserved":false,"is_disabled":false,"rental_uris":{"android":"levelo://app?vid=edf4570e-a778-4499-8d55-bbb4302eef97","ios":"levelo://app?vid=edf4570e-a778-4499-8d55-bbb4302eef97"},"vehicle_type_id":"4","last_reported":1733764134,"current_range_meters":16000,"station_id":"ce4bho92rcd13ifvqh4g","pricing_plan_id":"cebpf4jnsgd1na2vs0mg"},{"bike_id":"41c96234-b496-4234-ba46-144d65251d49","system_id":"levelo_inurba_marseille","lat":43.28709,"lon":5.37915,"is_reserved":false,"is_disabled":false,"rental_uris":{"android":"levelo://app?vid=41c96234-b496-4234-ba46-144d65251d49","ios":"levelo://app?vid=41c96234-b496-4234-ba46-144d65251d49"},"vehicle_type_id":"4","last_reported":1733764134,"current_range_meters":6800,"station_id":"ce4bh9p2rcd13ifvqec0","pricing_plan_id":"cebpf4jnsgd1na2vs0mg"},{"bike_id":"e3494c2d-fb2c-4ed1-872d-74059733c7c0","system_id":"levelo_inurba_marseille","lat":43.31367,"lon":5.38492,"is_reserved":false,"is_disabled":false,"rental_uris":{"android":"levelo://app?vid=e3494c2d-fb2c-4ed1-872d-74059733c7c0","ios":"levelo://app?vid=e3494c2d-fb2c-4ed1-872d-74059733c7c0"},"vehicle_type_id":"4","last_reported":1733764134,"current_range_meters":38800,"station_id":"ce4bgt92rcd13ifvqcf0","pricing_plan_id":"cebpf4jnsgd1na2vs0mg"},{"bike_id":"3049182a-2ae0-4ba5-b414-e6e4fa1ee34a","system_id":"levelo_inurba_marseille","lat":43.28716,"lon":5.37921,"is_reserved":false,"is_disabled":true,"rental_uris":{"android":"levelo://app?vid=3049182a-2ae0-4ba5-b414-e6e4fa1ee34a","ios":"levelo://app?vid=3049182a-2ae0-4ba5-b414-e6e4fa1ee34a"},"vehicle_type_id":"4","last_reported":1733764134,"current_range_meters":0,"station_id":"ce4bh9p2rcd13ifvqec0","pricing_plan_id":"cebpf4jnsgd1na2vs0mg"},{"bike_id":"456ee3e2-7425-4120-bc59-2e964fa693a8","system_id":"levelo_inurba_marseille","lat":43.24388,"lon":5.37066,"is_reserved":false,"is_disabled":false,"rental_uris":{"android":"levelo://app?vid=456ee3e2-7425-4120-bc59-2e964fa693a8","ios":"levelo://app?vid=456ee3e2-7425-4120-bc59-2e964fa693a8"},"vehicle_type_id":"4","last_reported":1733764134,"current_range_meters":38800,"station_id":"ce4bhhh2rcd13ifvqfk0","pricing_plan_id":"cebpf4jnsgd1na2vs0mg"},{"bike_id":"90a95349-7fcb-4106-953e-dfd10e724ac7","system_id":"levelo_inurba_marseille","lat":43.31176,"lon":5.38712,"is_reserved":false,"is_disabled":false,"rental_uris":{"android":"levelo://app?vid=90a95349-7fcb-4106-953e-dfd10e724ac7","ios":"levelo://app?vid=90a95349-7fcb-4106-953e-dfd10e724ac7"},"vehicle_type_id":"4","last_reported":1733764134,"current_range_meters":33200,"station_id":"ce4bgv12rcd13ifvqcp0","pricing_plan_id":"cebpf4jnsgd1na2vs0mg"},{"bike_id":"fe557401-5423-4b2a-a21b-a662a266de33","system_id":"levelo_inurba_marseille","lat":43.29259,"lon":5.38456,"is_reserved":false,"is_disabled":false,"rental_uris":{"android":"levelo://app?vid=fe557401-5423-4b2a-a21b-a662a266de33","ios":"levelo://app?vid=fe557401-5423-4b2a-a21b-a662a266de33"},"vehicle_type_id":"4","last_reported":1733764134,"current_range_meters":11600,"station_id":"ce4bh692rcd13ifvqea0","pricing_plan_id":"cebpf4jnsgd1na2vs0mg"},{"bike_id":"2df2c603-7f05-4f43-a92d-22c85fe3c124","system_id":"levelo_inurba_marseille","lat":43.2737,"lon":5.36255,"is_reserved":false,"is_disabled":true,"rental_uris":{"android":"levelo://app?vid=2df2c603-7f05-4f43-a92d-22c85fe3c124","ios":"levelo://app?vid=2df2c603-7f05-4f43-a92d-22c85fe3c124"},"vehicle_type_id":"4","last_reported":1733764134,"current_range_meters":1200,"station_id":"ce4bhbh2rcd13ifvqeo0","pricing_plan_id":"cebpf4jnsgd1na2vs0mg"},{"bike_id":"25a20b03-9830-4773-bc6b-d425633d2c5c","system_id":"levelo_inurba_marseille","lat":43.24776,"lon":5.40024,"is_reserved":false,"is_disabled":true,"rental_uris":{"android":"levelo://app?vid=25a20b03-9830-4773-bc6b-d425633d2c5c","ios":"levelo://app?vid=25a20b03-9830-4773-bc6b-d425633d2c5c"},"vehicle_type_id":"4","last_reported":1733764134,"current_range_meters":0,"station_id":"","pricing_plan_id":"cebpf4jnsgd1na2vs0mg"},{"bike_id":"9dfa7fc8-d604-4d2d-a43b-7839aeea0c13","system_id":"levelo_inurba_marseille","lat":43.27944,"lon":5.41052,"is_reserved":false,"is_disabled":false,"rental_uris":{"android":"levelo://app?vid=9dfa7fc8-d604-4d2d-a43b-7839aeea0c13","ios":"levelo://app?vid=9dfa7fc8-d604-4d2d-a43b-7839aeea0c13"},"vehicle_type_id":"4","last_reported":1733764134,"current_range_meters":2800,"station_id":"ce4bhnp2rcd13ifvqh0g","pricing_plan_id":"cebpf4jnsgd1na2vs0mg"},{"bike_id":"96b4e0a8-8f98-4fc6-8d19-c0dca4f16ba5","system_id":"levelo_inurba_marseille","lat":43.28457,"lon":5.35883,"is_reserved":false,"is_disabled":false,"rental_uris":{"android":"levelo://app?vid=96b4e0a8-8f98-4fc6-8d19-c0dca4f16ba5","ios":"levelo://app?vid=96b4e0a8-8f98-4fc6-8d19-c0dca4f16ba5"},"vehicle_type_id":"4","last_reported":1733764134,"current_range_meters":16800,"station_id":"ce4bhah2rcd13ifvqei0","pricing_plan_id":"cebpf4jnsgd1na2vs0mg"},{"bike_id":"5b12f922-6222-47fb-ae78-59699c21ac38","system_id":"levelo_inurba_marseille","lat":43.30871,"lon":5.39628,"is_reserved":false,"is_disabled":false,"rental_uris":{"android":"levelo://app?vid=5b12f922-6222-47fb-ae78-59699c21ac38","ios":"levelo://app?vid=5b12f922-6222-47fb-ae78-59699c21ac38"},"vehicle_type_id":"4","last_reported":1733764134,"current_range_meters":39200,"station_id":"ce4bh012rcd13ifvqcv0","pricing_plan_id":"cebpf4jnsgd1na2vs0mg"},{"bike_id":"b497ad4d-1643-419c-aba6-8e8a5474d77a","system_id":"levelo_inurba_marseille","lat":43.29896,"lon":5.43658,"is_reserved":false,"is_disabled":false,"rental_uris":{"android":"levelo://app?vid=b497ad4d-1643-419c-aba6-8e8a5474d77a","ios":"levelo://app?vid=b497ad4d-1643-419c-aba6-8e8a5474d77a"},"vehicle_type_id":"4","last_reported":1733764134,"current_range_meters":38400,"station_id":"ce4bhpp2rcd13ifvqhfg","pricing_plan_id":"cebpf4jnsgd1na2vs0mg"},{"bike_id":"e70de448-ab7e-4114-a786-19b9831c2c9b","system_id":"levelo_inurba_marseille","lat":43.23151,"lon":5.43718,"is_reserved":false,"is_disabled":false,"rental_uris":{"android":"levelo://app?vid=e70de448-ab7e-4114-a786-19b9831c2c9b","ios":"levelo://app?vid=e70de448-ab7e-4114-a786-19b9831c2c9b"},"vehicle_type_id":"4","last_reported":1733764134,"current_range_meters":3200,"station_id":"ce4bhmp2rcd13ifvqgog","pricing_plan_id":"cebpf4jnsgd1na2vs0mg"},{"bike_id":"55e60e63-47ce-424d-ad59-1c9ec610c8a6","system_id":"levelo_inurba_marseille","lat":43.28463,"lon":5.35895,"is_reserved":false,"is_disabled":false,"rental_uris":{"android":"levelo://app?vid=55e60e63-47ce-424d-ad59-1c9ec610c8a6","ios":"levelo://app?vid=55e60e63-47ce-424d-ad59-1c9ec610c8a6"},"vehicle_type_id":"4","last_reported":1733764134,"current_range_meters":39200,"station_id":"ce4bhah2rcd13ifvqei0","pricing_plan_id":"cebpf4jnsgd1na2vs0mg"},{"bike_id":"79eec760-3148-415c-9486-9ff642f00208","system_id":"levelo_inurba_marseille","lat":43.34801,"lon":5.35182,"is_reserved":false,"is_disabled":false,"rental_uris":{"android":"levelo://app?vid=79eec760-3148-415c-9486-9ff642f00208","ios":"levelo://app?vid=79eec760-3148-415c-9486-9ff642f00208"},"vehicle_type_id":"4","last_reported":1733764134,"current_range_meters":3200,"station_id":"","pricing_plan_id":"cebpf4jnsgd1na2vs0mg"},{"bike_id":"9a8f466b-8790-45e8-9233-f61a1cfa1f24","system_id":"levelo_inurba_marseille","lat":43.28468,"lon":5.35887,"is_reserved":false,"is_disabled":false,"rental_uris":{"android":"levelo://app?vid=9a8f466b-8790-45e8-9233-f61a1cfa1f24","ios":"levelo://app?vid=9a8f466b-8790-45e8-9233-f61a1cfa1f24"},"vehicle_type_id":"4","last_reported":1733764134,"current_range_meters":17200,"station_id":"ce4bhah2rcd13ifvqei0","pricing_plan_id":"cebpf4jnsgd1na2vs0mg"},{"bike_id":"cb6764c3-caca-4512-95e5-2099bab10122","system_id":"levelo_inurba_marseille","lat":43.27073,"lon":5.42276,"is_reserved":false,"is_disabled":false,"rental_uris":{"android":"levelo://app?vid=cb6764c3-caca-4512-95e5-2099bab10122","ios":"levelo://app?vid=cb6764c3-caca-4512-95e5-2099bab10122"},"vehicle_type_id":"4","last_reported":1733764134,"current_range_meters":38800,"station_id":"ce4bhk92rcd13ifvqgb0","pricing_plan_id":"cebpf4jnsgd1na2vs0mg"},{"bike_id":"c001503d-445d-451d-96ee-27a6adac4432","system_id":"levelo_inurba_marseille","lat":43.30311,"lon":5.36912,"is_reserved":false,"is_disabled":false,"rental_uris":{"android":"levelo://app?vid=c001503d-445d-451d-96ee-27a6adac4432","ios":"levelo://app?vid=c001503d-445d-451d-96ee-27a6adac4432"},"vehicle_type_id":"4","last_reported":1733764134,"current_range_meters":27200,"station_id":"ce4bgqh2rcd13ifvqc5g","pricing_plan_id":"cebpf4jnsgd1na2vs0mg"},{"bike_id":"a0bc6083-92c2-46da-9b9f-ff54d5d5607b","system_id":"levelo_inurba_marseille","lat":43.24651,"lon":5.38893,"is_reserved":false,"is_disabled":false,"rental_uris":{"android":"levelo://app?vid=a0bc6083-92c2-46da-9b9f-ff54d5d5607b","ios":"levelo://app?vid=a0bc6083-92c2-46da-9b9f-ff54d5d5607b"},"vehicle_type_id":"4","last_reported":1733764134,"current_range_meters":38800,"station_id":"ce4bhg12rcd13ifvqf60","pricing_plan_id":"cebpf4jnsgd1na2vs0mg"},{"bike_id":"e1c94c40-dd62-4fd6-a3d1-9ca8f0ecfb0f","system_id":"levelo_inurba_marseille","lat":43.28699,"lon":5.37378,"is_reserved":false,"is_disabled":true,"rental_uris":{"android":"levelo://app?vid=e1c94c40-dd62-4fd6-a3d1-9ca8f0ecfb0f","ios":"levelo://app?vid=e1c94c40-dd62-4fd6-a3d1-9ca8f0ecfb0f"},"vehicle_type_id":"4","last_reported":1733764134,"current_range_meters":0,"station_id":"ce4bh3p2rcd13ifvqdq0","pricing_plan_id":"cebpf4jnsgd1na2vs0mg"},{"bike_id":"9214f105-3129-4ec7-93b8-79f6e1c85e41","system_id":"levelo_inurba_marseille","lat":43.31075,"lon":5.38357,"is_reserved":false,"is_disabled":false,"rental_uris":{"android":"levelo://app?vid=9214f105-3129-4ec7-93b8-79f6e1c85e41","ios":"levelo://app?vid=9214f105-3129-4ec7-93b8-79f6e1c85e41"},"vehicle_type_id":"4","last_reported":1733764134,"current_range_meters":35600,"station_id":"ce4bgv92rcd13ifvqcr0","pricing_plan_id":"cebpf4jnsgd1na2vs0mg"},{"bike_id":"46bf65a7-cf2e-4dcf-bfed-6dc2e141ba46","system_id":"levelo_inurba_marseille","lat":43.2799,"lon":5.40012,"is_reserved":false,"is_disabled":true,"rental_uris":{"android":"levelo://app?vid=46bf65a7-cf2e-4dcf-bfed-6dc2e141ba46","ios":"levelo://app?vid=46bf65a7-cf2e-4dcf-bfed-6dc2e141ba46"},"vehicle_type_id":"4","last_reported":1733764134,"current_range_meters":2000,"station_id":"ce4bho92rcd13ifvqh4g","pricing_plan_id":"cebpf4jnsgd1na2vs0mg"},{"bike_id":"e3650a39-7faf-4bef-874a-053482a93766","system_id":"levelo_inurba_marseille","lat":43.29706,"lon":5.37686,"is_reserved":false,"is_disabled":true,"rental_uris":{"android":"levelo://app?vid=e3650a39-7faf-4bef-874a-053482a93766","ios":"levelo://app?vid=e3650a39-7faf-4bef-874a-053482a93766"},"vehicle_type_id":"4","last_reported":1733764134,"current_range_meters":30400,"station_id":"ce4bgkh2rcd13ifvqbl0","pricing_plan_id":"cebpf4jnsgd1na2vs0mg"},{"bike_id":"0c795635-d28e-48e5-b90d-be471104da7e","system_id":"levelo_inurba_marseille","lat":43.30811,"lon":5.36897,"is_reserved":false,"is_disabled":false,"rental_uris":{"android":"levelo://app?vid=0c795635-d28e-48e5-b90d-be471104da7e","ios":"levelo://app?vid=0c795635-d28e-48e5-b90d-be471104da7e"},"vehicle_type_id":"4","last_reported":1733764134,"current_range_meters":38800,"station_id":"","pricing_plan_id":"cebpf4jnsgd1na2vs0mg"},{"bike_id":"e652bd0e-f25c-4f49-88d2-3023d62cd5aa","system_id":"levelo_inurba_marseille","lat":43.295892,"lon":5.37506,"is_reserved":false,"is_disabled":true,"rental_uris":{"android":"levelo://app?vid=e652bd0e-f25c-4f49-88d2-3023d62cd5aa","ios":"levelo://app?vid=e652bd0e-f25c-4f49-88d2-3023d62cd5aa"},"vehicle_type_id":"4","last_reported":1733764134,"current_range_meters":0,"station_id":"","pricing_plan_id":"cebpf4jnsgd1na2vs0mg"},{"bike_id":"fe5707ac-071f-4824-98b8-d6b028bc38f8","system_id":"levelo_inurba_marseille","lat":43.25868,"lon":5.39906,"is_reserved":false,"is_disabled":false,"rental_uris":{"android":"levelo://app?vid=fe5707ac-071f-4824-98b8-d6b028bc38f8","ios":"levelo://app?vid=fe5707ac-071f-4824-98b8-d6b028bc38f8"},"vehicle_type_id":"4","last_reported":1733764134,"current_range_meters":30800,"station_id":"ce4bhl92rcd13ifvqghg","pricing_plan_id":"cebpf4jnsgd1na2vs0mg"},{"bike_id":"50f52497-54ca-47ea-a19e-1fc86f8c6045","system_id":"levelo_inurba_marseille","lat":43.2823,"lon":5.424,"is_reserved":false,"is_disabled":true,"rental_uris":{"android":"levelo://app?vid=50f52497-54ca-47ea-a19e-1fc86f8c6045","ios":"levelo://app?vid=50f52497-54ca-47ea-a19e-1fc86f8c6045"},"vehicle_type_id":"4","last_reported":1733764134,"current_range_meters":8000,"station_id":"","pricing_plan_id":"cebpf4jnsgd1na2vs0mg"},{"bike_id":"752f0fcf-d3c3-41e2-a1e9-51894dcb343a","system_id":"levelo_inurba_marseille","lat":43.232,"lon":5.35556,"is_reserved":false,"is_disabled":false,"rental_uris":{"android":"levelo://app?vid=752f0fcf-d3c3-41e2-a1e9-51894dcb343a","ios":"levelo://app?vid=752f0fcf-d3c3-41e2-a1e9-51894dcb343a"},"vehicle_type_id":"4","last_reported":1733764134,"current_range_meters":18000,"station_id":"ce4bhu92rcd13ifvqi70","pricing_plan_id":"cebpf4jnsgd1na2vs0mg"},{"bike_id":"561f1b87-0f16-45bb-9060-6ce7723ae9e8","system_id":"levelo_inurba_marseille","lat":43.26948,"lon":5.40244,"is_reserved":false,"is_disabled":false,"rental_uris":{"android":"levelo://app?vid=561f1b87-0f16-45bb-9060-6ce7723ae9e8","ios":"levelo://app?vid=561f1b87-0f16-45bb-9060-6ce7723ae9e8"},"vehicle_type_id":"4","last_reported":1733764134,"current_range_meters":36800,"station_id":"cjm6bp8fraef2m0cb0m0","pricing_plan_id":"cebpf4jnsgd1na2vs0mg"},{"bike_id":"5fdd27f7-11e2-4d7e-a1f4-c3aea6418467","system_id":"levelo_inurba_marseille","lat":43.30343,"lon":5.36921,"is_reserved":false,"is_disabled":true,"rental_uris":{"android":"levelo://app?vid=5fdd27f7-11e2-4d7e-a1f4-c3aea6418467","ios":"levelo://app?vid=5fdd27f7-11e2-4d7e-a1f4-c3aea6418467"},"vehicle_type_id":"4","last_reported":1733764134,"current_range_meters":3200,"station_id":"ce4bgqh2rcd13ifvqc5g","pricing_plan_id":"cebpf4jnsgd1na2vs0mg"},{"bike_id":"33f1a526-a5a3-4261-b1e0-d90c46ff918d","system_id":"levelo_inurba_marseille","lat":43.28151,"lon":5.42643,"is_reserved":false,"is_disabled":true,"rental_uris":{"android":"levelo://app?vid=33f1a526-a5a3-4261-b1e0-d90c46ff918d","ios":"levelo://app?vid=33f1a526-a5a3-4261-b1e0-d90c46ff918d"},"vehicle_type_id":"4","last_reported":1733764134,"current_range_meters":20000,"station_id":"ce4bhnh2rcd13ifvqgug","pricing_plan_id":"cebpf4jnsgd1na2vs0mg"},{"bike_id":"3e9e2561-6f54-485e-84b2-cff5e0916c34","system_id":"levelo_inurba_marseille","lat":43.3234,"lon":5.40625,"is_reserved":false,"is_disabled":false,"rental_uris":{"android":"levelo://app?vid=3e9e2561-6f54-485e-84b2-cff5e0916c34","ios":"levelo://app?vid=3e9e2561-6f54-485e-84b2-cff5e0916c34"},"vehicle_type_id":"4","last_reported":1733764134,"current_range_meters":16000,"station_id":"ce4bhq92rcd13ifvqhjg","pricing_plan_id":"cebpf4jnsgd1na2vs0mg"},{"bike_id":"4746b18c-6b66-40ad-8fbf-3e42781e8d21","system_id":"levelo_inurba_marseille","lat":43.29516,"lon":5.394,"is_reserved":false,"is_disabled":false,"rental_uris":{"android":"levelo://app?vid=4746b18c-6b66-40ad-8fbf-3e42781e8d21","ios":"levelo://app?vid=4746b18c-6b66-40ad-8fbf-3e42781e8d21"},"vehicle_type_id":"4","last_reported":1733764134,"current_range_meters":24800,"station_id":"ce4bh292rcd13ifvqdf0","pricing_plan_id":"cebpf4jnsgd1na2vs0mg"},{"bike_id":"1c5491e3-5640-4dec-a041-cae84c60627c","system_id":"levelo_inurba_marseille","lat":43.29005,"lon":5.35614,"is_reserved":false,"is_disabled":true,"rental_uris":{"android":"levelo://app?vid=1c5491e3-5640-4dec-a041-cae84c60627c","ios":"levelo://app?vid=1c5491e3-5640-4dec-a041-cae84c60627c"},"vehicle_type_id":"4","last_reported":1733764134,"current_range_meters":23200,"station_id":"ce4bhb92rcd13ifvqen0","pricing_plan_id":"cebpf4jnsgd1na2vs0mg"},{"bike_id":"15b9ccf6-fc83-4ed3-98d5-04f87f7c3306","system_id":"levelo_inurba_marseille","lat":43.29933,"lon":5.36541,"is_reserved":false,"is_disabled":false,"rental_uris":{"android":"levelo://app?vid=15b9ccf6-fc83-4ed3-98d5-04f87f7c3306","ios":"levelo://app?vid=15b9ccf6-fc83-4ed3-98d5-04f87f7c3306"},"vehicle_type_id":"4","last_reported":1733764134,"current_range_meters":30000,"station_id":"ce4bgm92rcd13ifvqbr0","pricing_plan_id":"cebpf4jnsgd1na2vs0mg"},{"bike_id":"5d9d33ed-3cf9-4f40-bcf4-4fd075009d99","system_id":"levelo_inurba_marseille","lat":43.26939,"lon":5.4025,"is_reserved":false,"is_disabled":false,"rental_uris":{"android":"levelo://app?vid=5d9d33ed-3cf9-4f40-bcf4-4fd075009d99","ios":"levelo://app?vid=5d9d33ed-3cf9-4f40-bcf4-4fd075009d99"},"vehicle_type_id":"4","last_reported":1733764134,"current_range_meters":6400,"station_id":"cjm6bp8fraef2m0cb0m0","pricing_plan_id":"cebpf4jnsgd1na2vs0mg"},{"bike_id":"eb8310ef-a487-4124-b4c5-0b74b37f91b5","system_id":"levelo_inurba_marseille","lat":43.28694,"lon":5.37389,"is_reserved":false,"is_disabled":false,"rental_uris":{"android":"levelo://app?vid=eb8310ef-a487-4124-b4c5-0b74b37f91b5","ios":"levelo://app?vid=eb8310ef-a487-4124-b4c5-0b74b37f91b5"},"vehicle_type_id":"4","last_reported":1733764134,"current_range_meters":18800,"station_id":"ce4bh3p2rcd13ifvqdq0","pricing_plan_id":"cebpf4jnsgd1na2vs0mg"},{"bike_id":"b8ec9b64-e348-44c1-9548-0544741a8e35","system_id":"levelo_inurba_marseille","lat":43.31748,"lon":5.38975,"is_reserved":false,"is_disabled":true,"rental_uris":{"android":"levelo://app?vid=b8ec9b64-e348-44c1-9548-0544741a8e35","ios":"levelo://app?vid=b8ec9b64-e348-44c1-9548-0544741a8e35"},"vehicle_type_id":"4","last_reported":1733764134,"current_range_meters":0,"station_id":"ce4bhqp2rcd13ifvqhng","pricing_plan_id":"cebpf4jnsgd1na2vs0mg"},{"bike_id":"70f06884-f792-4d15-93da-9552f67742b0","system_id":"levelo_inurba_marseille","lat":43.28002,"lon":5.40013,"is_reserved":false,"is_disabled":false,"rental_uris":{"android":"levelo://app?vid=70f06884-f792-4d15-93da-9552f67742b0","ios":"levelo://app?vid=70f06884-f792-4d15-93da-9552f67742b0"},"vehicle_type_id":"4","last_reported":1733764134,"current_range_meters":26000,"station_id":"ce4bho92rcd13ifvqh4g","pricing_plan_id":"cebpf4jnsgd1na2vs0mg"},{"bike_id":"f44c4128-7be2-4a46-a438-dfb677b443d7","system_id":"levelo_inurba_marseille","lat":43.31331,"lon":5.39677,"is_reserved":false,"is_disabled":false,"rental_uris":{"android":"levelo://app?vid=f44c4128-7be2-4a46-a438-dfb677b443d7","ios":"levelo://app?vid=f44c4128-7be2-4a46-a438-dfb677b443d7"},"vehicle_type_id":"4","last_reported":1733764134,"current_range_meters":28800,"station_id":"ce4bgvp2rcd13ifvqcu0","pricing_plan_id":"cebpf4jnsgd1na2vs0mg"},{"bike_id":"476769ba-6d63-4013-99e7-49c8cc318c7f","system_id":"levelo_inurba_marseille","lat":43.30149,"lon":5.37402,"is_reserved":false,"is_disabled":false,"rental_uris":{"android":"levelo://app?vid=476769ba-6d63-4013-99e7-49c8cc318c7f","ios":"levelo://app?vid=476769ba-6d63-4013-99e7-49c8cc318c7f"},"vehicle_type_id":"4","last_reported":1733764134,"current_range_meters":38000,"station_id":"ce4bgs92rcd13ifvqcc0","pricing_plan_id":"cebpf4jnsgd1na2vs0mg"},{"bike_id":"ac3858f4-4179-4fef-a133-d553fcaf3557","system_id":"levelo_inurba_marseille","lat":43.26942,"lon":5.40241,"is_reserved":false,"is_disabled":false,"rental_uris":{"android":"levelo://app?vid=ac3858f4-4179-4fef-a133-d553fcaf3557","ios":"levelo://app?vid=ac3858f4-4179-4fef-a133-d553fcaf3557"},"vehicle_type_id":"4","last_reported":1733764134,"current_range_meters":32400,"station_id":"cjm6bp8fraef2m0cb0m0","pricing_plan_id":"cebpf4jnsgd1na2vs0mg"},{"bike_id":"f04c662a-4856-4b9e-9ba1-300effb74f28","system_id":"levelo_inurba_marseille","lat":43.299793,"lon":5.384947,"is_reserved":false,"is_disabled":true,"rental_uris":{"android":"levelo://app?vid=f04c662a-4856-4b9e-9ba1-300effb74f28","ios":"levelo://app?vid=f04c662a-4856-4b9e-9ba1-300effb74f28"},"vehicle_type_id":"4","last_reported":1733764134,"current_range_meters":37600,"station_id":"ce4bgj92rcd13ifvqbd0","pricing_plan_id":"cebpf4jnsgd1na2vs0mg"},{"bike_id":"3f608eff-5fb9-4e53-a043-26f104f200a5","system_id":"levelo_inurba_marseille","lat":43.2808,"lon":5.39661,"is_reserved":false,"is_disabled":false,"rental_uris":{"android":"levelo://app?vid=3f608eff-5fb9-4e53-a043-26f104f200a5","ios":"levelo://app?vid=3f608eff-5fb9-4e53-a043-26f104f200a5"},"vehicle_type_id":"4","last_reported":1733764134,"current_range_meters":28400,"station_id":"ce4bho12rcd13ifvqh2g","pricing_plan_id":"cebpf4jnsgd1na2vs0mg"},{"bike_id":"b7704992-265d-44ce-8e30-e3b1a140a380","system_id":"levelo_inurba_marseille","lat":43.29783,"lon":5.38109,"is_reserved":false,"is_disabled":true,"rental_uris":{"android":"levelo://app?vid=b7704992-265d-44ce-8e30-e3b1a140a380","ios":"levelo://app?vid=b7704992-265d-44ce-8e30-e3b1a140a380"},"vehicle_type_id":"4","last_reported":1733764134,"current_range_meters":38800,"station_id":"ce4bgip2rcd13ifvqbb0","pricing_plan_id":"cebpf4jnsgd1na2vs0mg"},{"bike_id":"81f388f0-dac4-44d4-924a-a544e8578445","system_id":"levelo_inurba_marseille","lat":43.28083,"lon":5.39656,"is_reserved":false,"is_disabled":false,"rental_uris":{"android":"levelo://app?vid=81f388f0-dac4-44d4-924a-a544e8578445","ios":"levelo://app?vid=81f388f0-dac4-44d4-924a-a544e8578445"},"vehicle_type_id":"4","last_reported":1733764134,"current_range_meters":29600,"station_id":"ce4bho12rcd13ifvqh2g","pricing_plan_id":"cebpf4jnsgd1na2vs0mg"},{"bike_id":"4ad1fa6f-5f0d-4cea-b528-04df9e718c9c","system_id":"levelo_inurba_marseille","lat":43.28417,"lon":5.34998,"is_reserved":false,"is_disabled":false,"rental_uris":{"android":"levelo://app?vid=4ad1fa6f-5f0d-4cea-b528-04df9e718c9c","ios":"levelo://app?vid=4ad1fa6f-5f0d-4cea-b528-04df9e718c9c"},"vehicle_type_id":"4","last_reported":1733764134,"current_range_meters":35200,"station_id":"ce4bhbh2rcd13ifvqepg","pricing_plan_id":"cebpf4jnsgd1na2vs0mg"},{"bike_id":"d43e5ea8-13b0-4ee3-b5ea-caee40935a00","system_id":"levelo_inurba_marseille","lat":43.27169,"lon":5.40998,"is_reserved":false,"is_disabled":false,"rental_uris":{"android":"levelo://app?vid=d43e5ea8-13b0-4ee3-b5ea-caee40935a00","ios":"levelo://app?vid=d43e5ea8-13b0-4ee3-b5ea-caee40935a00"},"vehicle_type_id":"4","last_reported":1733764134,"current_range_meters":7200,"station_id":"ce4bhl12rcd13ifvqgf0","pricing_plan_id":"cebpf4jnsgd1na2vs0mg"},{"bike_id":"5260ced4-7564-448d-9818-7245cb224691","system_id":"levelo_inurba_marseille","lat":43.27614,"lon":5.36116,"is_reserved":false,"is_disabled":false,"rental_uris":{"android":"levelo://app?vid=5260ced4-7564-448d-9818-7245cb224691","ios":"levelo://app?vid=5260ced4-7564-448d-9818-7245cb224691"},"vehicle_type_id":"4","last_reported":1733764134,"current_range_meters":36400,"station_id":"ce4bgj92rcd13ifvqbe0","pricing_plan_id":"cebpf4jnsgd1na2vs0mg"},{"bike_id":"2df1b6bd-587f-4ca4-ad06-bd897fa4d758","system_id":"levelo_inurba_marseille","lat":43.314227,"lon":5.375934,"is_reserved":false,"is_disabled":false,"rental_uris":{"android":"levelo://app?vid=2df1b6bd-587f-4ca4-ad06-bd897fa4d758","ios":"levelo://app?vid=2df1b6bd-587f-4ca4-ad06-bd897fa4d758"},"vehicle_type_id":"4","last_reported":1733764134,"current_range_meters":22800,"station_id":"ce4bhqp2rcd13ifvqhog","pricing_plan_id":"cebpf4jnsgd1na2vs0mg"},{"bike_id":"89bd4214-516e-4586-9f50-75a13ea8ba39","system_id":"levelo_inurba_marseille","lat":43.26499,"lon":5.3954,"is_reserved":false,"is_disabled":false,"rental_uris":{"android":"levelo://app?vid=89bd4214-516e-4586-9f50-75a13ea8ba39","ios":"levelo://app?vid=89bd4214-516e-4586-9f50-75a13ea8ba39"},"vehicle_type_id":"4","last_reported":1733764134,"current_range_meters":5600,"station_id":"ce4bhi12rcd13ifvqfq0","pricing_plan_id":"cebpf4jnsgd1na2vs0mg"},{"bike_id":"eb4e32cd-a02d-4e92-a013-1fdc0dd71ccb","system_id":"levelo_inurba_marseille","lat":43.324799,"lon":5.365716,"is_reserved":false,"is_disabled":true,"rental_uris":{"android":"levelo://app?vid=eb4e32cd-a02d-4e92-a013-1fdc0dd71ccb","ios":"levelo://app?vid=eb4e32cd-a02d-4e92-a013-1fdc0dd71ccb"},"vehicle_type_id":"4","last_reported":1733764134,"current_range_meters":0,"station_id":"","pricing_plan_id":"cebpf4jnsgd1na2vs0mg"},{"bike_id":"ad24f16e-2206-4a3c-9b57-73b59ffe17ba","system_id":"levelo_inurba_marseille","lat":43.24167,"lon":5.36391,"is_reserved":false,"is_disabled":false,"rental_uris":{"android":"levelo://app?vid=ad24f16e-2206-4a3c-9b57-73b59ffe17ba","ios":"levelo://app?vid=ad24f16e-2206-4a3c-9b57-73b59ffe17ba"},"vehicle_type_id":"4","last_reported":1733764134,"current_range_meters":38400,"station_id":"cpo36qri1sfpv3e86is0","pricing_plan_id":"cebpf4jnsgd1na2vs0mg"},{"bike_id":"6cd95f08-d335-45b1-9e54-8a9012b6d431","system_id":"levelo_inurba_marseille","lat":43.29296,"lon":5.37454,"is_reserved":false,"is_disabled":false,"rental_uris":{"android":"levelo://app?vid=6cd95f08-d335-45b1-9e54-8a9012b6d431","ios":"levelo://app?vid=6cd95f08-d335-45b1-9e54-8a9012b6d431"},"vehicle_type_id":"4","last_reported":1733764134,"current_range_meters":38400,"station_id":"ce4bgi12rcd13ifvqb70","pricing_plan_id":"cebpf4jnsgd1na2vs0mg"},{"bike_id":"dd6cff6b-d813-4a50-8372-95033bd05d57","system_id":"levelo_inurba_marseille","lat":43.29301,"lon":5.3746,"is_reserved":false,"is_disabled":false,"rental_uris":{"android":"levelo://app?vid=dd6cff6b-d813-4a50-8372-95033bd05d57","ios":"levelo://app?vid=dd6cff6b-d813-4a50-8372-95033bd05d57"},"vehicle_type_id":"4","last_reported":1733764134,"current_range_meters":38000,"station_id":"ce4bgi12rcd13ifvqb70","pricing_plan_id":"cebpf4jnsgd1na2vs0mg"},{"bike_id":"26924fb9-4179-4abe-8b03-e0d47c141d92","system_id":"levelo_inurba_marseille","lat":43.27184,"lon":5.4099,"is_reserved":false,"is_disabled":false,"rental_uris":{"android":"levelo://app?vid=26924fb9-4179-4abe-8b03-e0d47c141d92","ios":"levelo://app?vid=26924fb9-4179-4abe-8b03-e0d47c141d92"},"vehicle_type_id":"4","last_reported":1733764134,"current_range_meters":30400,"station_id":"ce4bhl12rcd13ifvqgf0","pricing_plan_id":"cebpf4jnsgd1na2vs0mg"},{"bike_id":"4b41d300-af9d-4b48-aa66-7322d555c205","system_id":"levelo_inurba_marseille","lat":43.28702,"lon":5.37374,"is_reserved":false,"is_disabled":false,"rental_uris":{"android":"levelo://app?vid=4b41d300-af9d-4b48-aa66-7322d555c205","ios":"levelo://app?vid=4b41d300-af9d-4b48-aa66-7322d555c205"},"vehicle_type_id":"4","last_reported":1733764134,"current_range_meters":39200,"station_id":"ce4bh3p2rcd13ifvqdq0","pricing_plan_id":"cebpf4jnsgd1na2vs0mg"},{"bike_id":"db14e876-0fd6-46a7-8620-bb06967f83cc","system_id":"levelo_inurba_marseille","lat":43.31335,"lon":5.39704,"is_reserved":false,"is_disabled":true,"rental_uris":{"android":"levelo://app?vid=db14e876-0fd6-46a7-8620-bb06967f83cc","ios":"levelo://app?vid=db14e876-0fd6-46a7-8620-bb06967f83cc"},"vehicle_type_id":"4","last_reported":1733764134,"current_range_meters":37600,"station_id":"ce4bgvp2rcd13ifvqcu0","pricing_plan_id":"cebpf4jnsgd1na2vs0mg"},{"bike_id":"0189967e-58f8-420c-9fe1-42c0800eb5ea","system_id":"levelo_inurba_marseille","lat":43.32653,"lon":5.40982,"is_reserved":false,"is_disabled":false,"rental_uris":{"android":"levelo://app?vid=0189967e-58f8-420c-9fe1-42c0800eb5ea","ios":"levelo://app?vid=0189967e-58f8-420c-9fe1-42c0800eb5ea"},"vehicle_type_id":"4","last_reported":1733764134,"current_range_meters":38800,"station_id":"ce4bhpp2rcd13ifvqhgg","pricing_plan_id":"cebpf4jnsgd1na2vs0mg"},{"bike_id":"0045be96-bcb2-4984-ba65-8e88d66c6e36","system_id":"levelo_inurba_marseille","lat":43.2923,"lon":5.36079,"is_reserved":false,"is_disabled":false,"rental_uris":{"android":"levelo://app?vid=0045be96-bcb2-4984-ba65-8e88d66c6e36","ios":"levelo://app?vid=0045be96-bcb2-4984-ba65-8e88d66c6e36"},"vehicle_type_id":"4","last_reported":1733764134,"current_range_meters":38800,"station_id":"ce4bhbh2rcd13ifvqeqg","pricing_plan_id":"cebpf4jnsgd1na2vs0mg"},{"bike_id":"7986f744-f9dd-44d0-b04a-f34f2b9a7e4e","system_id":"levelo_inurba_marseille","lat":43.24664,"lon":5.38876,"is_reserved":false,"is_disabled":false,"rental_uris":{"android":"levelo://app?vid=7986f744-f9dd-44d0-b04a-f34f2b9a7e4e","ios":"levelo://app?vid=7986f744-f9dd-44d0-b04a-f34f2b9a7e4e"},"vehicle_type_id":"4","last_reported":1733764134,"current_range_meters":38800,"station_id":"ce4bhg12rcd13ifvqf60","pricing_plan_id":"cebpf4jnsgd1na2vs0mg"},{"bike_id":"cae7eff8-d88f-4cf8-afc1-de6299a5159d","system_id":"levelo_inurba_marseille","lat":43.28263,"lon":5.35063,"is_reserved":false,"is_disabled":false,"rental_uris":{"android":"levelo://app?vid=cae7eff8-d88f-4cf8-afc1-de6299a5159d","ios":"levelo://app?vid=cae7eff8-d88f-4cf8-afc1-de6299a5159d"},"vehicle_type_id":"4","last_reported":1733764134,"current_range_meters":38800,"station_id":"ce4bhbp2rcd13ifvqerg","pricing_plan_id":"cebpf4jnsgd1na2vs0mg"},{"bike_id":"6e90248b-1e1f-41e3-9105-f1c71a32874b","system_id":"levelo_inurba_marseille","lat":43.30604,"lon":5.37212,"is_reserved":false,"is_disabled":true,"rental_uris":{"android":"levelo://app?vid=6e90248b-1e1f-41e3-9105-f1c71a32874b","ios":"levelo://app?vid=6e90248b-1e1f-41e3-9105-f1c71a32874b"},"vehicle_type_id":"4","last_reported":1733764134,"current_range_meters":800,"station_id":"ce4bgqh2rcd13ifvqc4g","pricing_plan_id":"cebpf4jnsgd1na2vs0mg"},{"bike_id":"510dc2d9-9d30-41be-a7f7-a9bac15e2289","system_id":"levelo_inurba_marseille","lat":43.30215,"lon":5.39466,"is_reserved":false,"is_disabled":false,"rental_uris":{"android":"levelo://app?vid=510dc2d9-9d30-41be-a7f7-a9bac15e2289","ios":"levelo://app?vid=510dc2d9-9d30-41be-a7f7-a9bac15e2289"},"vehicle_type_id":"4","last_reported":1733764134,"current_range_meters":34800,"station_id":"ce4bh0p2rcd13ifvqd70","pricing_plan_id":"cebpf4jnsgd1na2vs0mg"},{"bike_id":"0bff9157-1c4b-44c6-bca8-a8d8094c2395","system_id":"levelo_inurba_marseille","lat":43.27055,"lon":5.40262,"is_reserved":false,"is_disabled":false,"rental_uris":{"android":"levelo://app?vid=0bff9157-1c4b-44c6-bca8-a8d8094c2395","ios":"levelo://app?vid=0bff9157-1c4b-44c6-bca8-a8d8094c2395"},"vehicle_type_id":"4","last_reported":1733764134,"current_range_meters":11200,"station_id":"ce4bhk92rcd13ifvqgc0","pricing_plan_id":"cebpf4jnsgd1na2vs0mg"},{"bike_id":"0ccd581d-9c76-4795-b702-2d923b116e9d","system_id":"levelo_inurba_marseille","lat":43.27179,"lon":5.40993,"is_reserved":false,"is_disabled":false,"rental_uris":{"android":"levelo://app?vid=0ccd581d-9c76-4795-b702-2d923b116e9d","ios":"levelo://app?vid=0ccd581d-9c76-4795-b702-2d923b116e9d"},"vehicle_type_id":"4","last_reported":1733764134,"current_range_meters":36400,"station_id":"ce4bhl12rcd13ifvqgf0","pricing_plan_id":"cebpf4jnsgd1na2vs0mg"},{"bike_id":"95d8628d-10b1-47e7-9a42-9b126ec315c6","system_id":"levelo_inurba_marseille","lat":43.23192,"lon":5.35554,"is_reserved":false,"is_disabled":false,"rental_uris":{"android":"levelo://app?vid=95d8628d-10b1-47e7-9a42-9b126ec315c6","ios":"levelo://app?vid=95d8628d-10b1-47e7-9a42-9b126ec315c6"},"vehicle_type_id":"4","last_reported":1733764134,"current_range_meters":28000,"station_id":"ce4bhu92rcd13ifvqi70","pricing_plan_id":"cebpf4jnsgd1na2vs0mg"},{"bike_id":"84160b40-ce7b-44a2-a7ca-4591eb995185","system_id":"levelo_inurba_marseille","lat":43.32073,"lon":5.38814,"is_reserved":false,"is_disabled":false,"rental_uris":{"android":"levelo://app?vid=84160b40-ce7b-44a2-a7ca-4591eb995185","ios":"levelo://app?vid=84160b40-ce7b-44a2-a7ca-4591eb995185"},"vehicle_type_id":"4","last_reported":1733764134,"current_range_meters":9600,"station_id":"","pricing_plan_id":"cebpf4jnsgd1na2vs0mg"},{"bike_id":"d6476c12-9601-48bb-81d1-c130012be534","system_id":"levelo_inurba_marseille","lat":43.24683,"lon":5.38152,"is_reserved":false,"is_disabled":false,"rental_uris":{"android":"levelo://app?vid=d6476c12-9601-48bb-81d1-c130012be534","ios":"levelo://app?vid=d6476c12-9601-48bb-81d1-c130012be534"},"vehicle_type_id":"4","last_reported":1733764134,"current_range_meters":22800,"station_id":"ce4bhih2rcd13ifvqfr0","pricing_plan_id":"cebpf4jnsgd1na2vs0mg"},{"bike_id":"756bbea7-0bd4-4faf-b3e6-6fa4742ced50","system_id":"levelo_inurba_marseille","lat":43.28739,"lon":5.36078,"is_reserved":false,"is_disabled":false,"rental_uris":{"android":"levelo://app?vid=756bbea7-0bd4-4faf-b3e6-6fa4742ced50","ios":"levelo://app?vid=756bbea7-0bd4-4faf-b3e6-6fa4742ced50"},"vehicle_type_id":"4","last_reported":1733764134,"current_range_meters":39200,"station_id":"cki0cbj6b192h4jlfktg","pricing_plan_id":"cebpf4jnsgd1na2vs0mg"},{"bike_id":"6db6bb85-5060-48f2-927c-0420f26bc169","system_id":"levelo_inurba_marseille","lat":43.2481,"lon":5.37462,"is_reserved":false,"is_disabled":false,"rental_uris":{"android":"levelo://app?vid=6db6bb85-5060-48f2-927c-0420f26bc169","ios":"levelo://app?vid=6db6bb85-5060-48f2-927c-0420f26bc169"},"vehicle_type_id":"4","last_reported":1733764134,"current_range_meters":38800,"station_id":"ce4bhgh2rcd13ifvqfb0","pricing_plan_id":"cebpf4jnsgd1na2vs0mg"},{"bike_id":"0f20b602-7b45-4989-92b6-4d1c64ab5468","system_id":"levelo_inurba_marseille","lat":43.26552,"lon":5.37288,"is_reserved":false,"is_disabled":false,"rental_uris":{"android":"levelo://app?vid=0f20b602-7b45-4989-92b6-4d1c64ab5468","ios":"levelo://app?vid=0f20b602-7b45-4989-92b6-4d1c64ab5468"},"vehicle_type_id":"4","last_reported":1733764134,"current_range_meters":37600,"station_id":"ce4bhg12rcd13ifvqf70","pricing_plan_id":"cebpf4jnsgd1na2vs0mg"},{"bike_id":"a82d634a-a49c-4d39-abc7-6109fc7823f3","system_id":"levelo_inurba_marseille","lat":43.26945,"lon":5.40251,"is_reserved":false,"is_disabled":false,"rental_uris":{"android":"levelo://app?vid=a82d634a-a49c-4d39-abc7-6109fc7823f3","ios":"levelo://app?vid=a82d634a-a49c-4d39-abc7-6109fc7823f3"},"vehicle_type_id":"4","last_reported":1733764134,"current_range_meters":37600,"station_id":"cjm6bp8fraef2m0cb0m0","pricing_plan_id":"cebpf4jnsgd1na2vs0mg"},{"bike_id":"5e0d1f63-c660-457a-98ee-215eff1ebf69","system_id":"levelo_inurba_marseille","lat":43.32662,"lon":5.41008,"is_reserved":false,"is_disabled":false,"rental_uris":{"android":"levelo://app?vid=5e0d1f63-c660-457a-98ee-215eff1ebf69","ios":"levelo://app?vid=5e0d1f63-c660-457a-98ee-215eff1ebf69"},"vehicle_type_id":"4","last_reported":1733764134,"current_range_meters":34800,"station_id":"ce4bhpp2rcd13ifvqhgg","pricing_plan_id":"cebpf4jnsgd1na2vs0mg"},{"bike_id":"049387ec-9b46-43b9-9ff7-0a9e1204b07e","system_id":"levelo_inurba_marseille","lat":43.2963,"lon":5.40599,"is_reserved":false,"is_disabled":false,"rental_uris":{"android":"levelo://app?vid=049387ec-9b46-43b9-9ff7-0a9e1204b07e","ios":"levelo://app?vid=049387ec-9b46-43b9-9ff7-0a9e1204b07e"},"vehicle_type_id":"4","last_reported":1733764134,"current_range_meters":18000,"station_id":"ce4bh0h2rcd13ifvqd60","pricing_plan_id":"cebpf4jnsgd1na2vs0mg"},{"bike_id":"418d73d5-d881-4e9d-bda9-9d2e01151eb7","system_id":"levelo_inurba_marseille","lat":43.288252,"lon":5.359047,"is_reserved":false,"is_disabled":false,"rental_uris":{"android":"levelo://app?vid=418d73d5-d881-4e9d-bda9-9d2e01151eb7","ios":"levelo://app?vid=418d73d5-d881-4e9d-bda9-9d2e01151eb7"},"vehicle_type_id":"4","last_reported":1733764134,"current_range_meters":13600,"station_id":"ce4bhb12rcd13ifvqem0","pricing_plan_id":"cebpf4jnsgd1na2vs0mg"},{"bike_id":"7bdd6ea7-bb42-4e6e-800a-52cdbbc2d2d3","system_id":"levelo_inurba_marseille","lat":43.30322,"lon":5.40428,"is_reserved":false,"is_disabled":true,"rental_uris":{"android":"levelo://app?vid=7bdd6ea7-bb42-4e6e-800a-52cdbbc2d2d3","ios":"levelo://app?vid=7bdd6ea7-bb42-4e6e-800a-52cdbbc2d2d3"},"vehicle_type_id":"4","last_reported":1733764134,"current_range_meters":1200,"station_id":"ce4bh012rcd13ifvqd10","pricing_plan_id":"cebpf4jnsgd1na2vs0mg"},{"bike_id":"b8e7f883-5b9b-422d-81e9-d00c2442da3b","system_id":"levelo_inurba_marseille","lat":43.23061,"lon":5.35491,"is_reserved":false,"is_disabled":false,"rental_uris":{"android":"levelo://app?vid=b8e7f883-5b9b-422d-81e9-d00c2442da3b","ios":"levelo://app?vid=b8e7f883-5b9b-422d-81e9-d00c2442da3b"},"vehicle_type_id":"4","last_reported":1733764134,"current_range_meters":38800,"station_id":"cpo3342slgdg3j2ifvpg","pricing_plan_id":"cebpf4jnsgd1na2vs0mg"},{"bike_id":"df530ce9-7550-4bc0-857d-aa2d9daf2958","system_id":"levelo_inurba_marseille","lat":43.33021,"lon":5.3904,"is_reserved":false,"is_disabled":false,"rental_uris":{"android":"levelo://app?vid=df530ce9-7550-4bc0-857d-aa2d9daf2958","ios":"levelo://app?vid=df530ce9-7550-4bc0-857d-aa2d9daf2958"},"vehicle_type_id":"4","last_reported":1733764134,"current_range_meters":38800,"station_id":"ce4bhr92rcd13ifvqhrg","pricing_plan_id":"cebpf4jnsgd1na2vs0mg"},{"bike_id":"00dfce39-0a3e-42bd-85ef-7a7a8f87f756","system_id":"levelo_inurba_marseille","lat":43.27059,"lon":5.40259,"is_reserved":false,"is_disabled":false,"rental_uris":{"android":"levelo://app?vid=00dfce39-0a3e-42bd-85ef-7a7a8f87f756","ios":"levelo://app?vid=00dfce39-0a3e-42bd-85ef-7a7a8f87f756"},"vehicle_type_id":"4","last_reported":1733764134,"current_range_meters":19600,"station_id":"ce4bhk92rcd13ifvqgc0","pricing_plan_id":"cebpf4jnsgd1na2vs0mg"},{"bike_id":"906df3e2-6732-4a7d-a642-3070115e11a9","system_id":"levelo_inurba_marseille","lat":43.298817,"lon":5.436649,"is_reserved":false,"is_disabled":false,"rental_uris":{"android":"levelo://app?vid=906df3e2-6732-4a7d-a642-3070115e11a9","ios":"levelo://app?vid=906df3e2-6732-4a7d-a642-3070115e11a9"},"vehicle_type_id":"4","last_reported":1733764134,"current_range_meters":17600,"station_id":"ce4bhpp2rcd13ifvqhfg","pricing_plan_id":"cebpf4jnsgd1na2vs0mg"},{"bike_id":"85fc986f-e237-494f-9a51-e8d825670ac9","system_id":"levelo_inurba_marseille","lat":43.31704,"lon":5.37762,"is_reserved":false,"is_disabled":false,"rental_uris":{"android":"levelo://app?vid=85fc986f-e237-494f-9a51-e8d825670ac9","ios":"levelo://app?vid=85fc986f-e237-494f-9a51-e8d825670ac9"},"vehicle_type_id":"4","last_reported":1733764134,"current_range_meters":38800,"station_id":"ce4bgth2rcd13ifvqch0","pricing_plan_id":"cebpf4jnsgd1na2vs0mg"},{"bike_id":"a0b44e86-9121-4df3-b62a-0fc9a0d1110c","system_id":"levelo_inurba_marseille","lat":43.23064,"lon":5.35496,"is_reserved":false,"is_disabled":false,"rental_uris":{"android":"levelo://app?vid=a0b44e86-9121-4df3-b62a-0fc9a0d1110c","ios":"levelo://app?vid=a0b44e86-9121-4df3-b62a-0fc9a0d1110c"},"vehicle_type_id":"4","last_reported":1733764134,"current_range_meters":38800,"station_id":"cpo3342slgdg3j2ifvpg","pricing_plan_id":"cebpf4jnsgd1na2vs0mg"},{"bike_id":"a0c230af-183e-4db9-b10f-8c1a6d844ebf","system_id":"levelo_inurba_marseille","lat":43.30138,"lon":5.38782,"is_reserved":false,"is_disabled":true,"rental_uris":{"android":"levelo://app?vid=a0c230af-183e-4db9-b10f-8c1a6d844ebf","ios":"levelo://app?vid=a0c230af-183e-4db9-b10f-8c1a6d844ebf"},"vehicle_type_id":"4","last_reported":1733764134,"current_range_meters":0,"station_id":"ce4bghh2rcd13ifvqb60","pricing_plan_id":"cebpf4jnsgd1na2vs0mg"},{"bike_id":"f87cf9e6-dfc9-4626-bb94-2221a897c82e","system_id":"levelo_inurba_marseille","lat":43.25502,"lon":5.3765,"is_reserved":false,"is_disabled":false,"rental_uris":{"android":"levelo://app?vid=f87cf9e6-dfc9-4626-bb94-2221a897c82e","ios":"levelo://app?vid=f87cf9e6-dfc9-4626-bb94-2221a897c82e"},"vehicle_type_id":"4","last_reported":1733764134,"current_range_meters":14400,"station_id":"ce4bhh12rcd13ifvqff0","pricing_plan_id":"cebpf4jnsgd1na2vs0mg"},{"bike_id":"2f2c35a2-b619-4656-a5c6-0a3dfacf5343","system_id":"levelo_inurba_marseille","lat":43.30668,"lon":5.40061,"is_reserved":false,"is_disabled":false,"rental_uris":{"android":"levelo://app?vid=2f2c35a2-b619-4656-a5c6-0a3dfacf5343","ios":"levelo://app?vid=2f2c35a2-b619-4656-a5c6-0a3dfacf5343"},"vehicle_type_id":"4","last_reported":1733764134,"current_range_meters":9200,"station_id":"ce4bh112rcd13ifvqda0","pricing_plan_id":"cebpf4jnsgd1na2vs0mg"},{"bike_id":"ce5a506f-35bc-40b5-b466-2638748f100c","system_id":"levelo_inurba_marseille","lat":43.28669,"lon":5.36346,"is_reserved":false,"is_disabled":false,"rental_uris":{"android":"levelo://app?vid=ce5a506f-35bc-40b5-b466-2638748f100c","ios":"levelo://app?vid=ce5a506f-35bc-40b5-b466-2638748f100c"},"vehicle_type_id":"4","last_reported":1733764134,"current_range_meters":32400,"station_id":"ce4bhah2rcd13ifvqej0","pricing_plan_id":"cebpf4jnsgd1na2vs0mg"},{"bike_id":"9bd2b5e5-0639-4be9-9583-38ea8d1d6988","system_id":"levelo_inurba_marseille","lat":43.24546,"lon":5.39525,"is_reserved":false,"is_disabled":true,"rental_uris":{"android":"levelo://app?vid=9bd2b5e5-0639-4be9-9583-38ea8d1d6988","ios":"levelo://app?vid=9bd2b5e5-0639-4be9-9583-38ea8d1d6988"},"vehicle_type_id":"4","last_reported":1733764134,"current_range_meters":0,"station_id":"ce4bhlp2rcd13ifvqgjg","pricing_plan_id":"cebpf4jnsgd1na2vs0mg"},{"bike_id":"4ae5fe7f-a755-40fe-9b35-59fbb2437146","system_id":"levelo_inurba_marseille","lat":43.241738,"lon":5.364075,"is_reserved":false,"is_disabled":false,"rental_uris":{"android":"levelo://app?vid=4ae5fe7f-a755-40fe-9b35-59fbb2437146","ios":"levelo://app?vid=4ae5fe7f-a755-40fe-9b35-59fbb2437146"},"vehicle_type_id":"4","last_reported":1733764134,"current_range_meters":22000,"station_id":"cpo36qri1sfpv3e86is0","pricing_plan_id":"cebpf4jnsgd1na2vs0mg"},{"bike_id":"ae10a726-acf0-4945-b89d-97aeed5dca91","system_id":"levelo_inurba_marseille","lat":43.27061,"lon":5.40261,"is_reserved":false,"is_disabled":false,"rental_uris":{"android":"levelo://app?vid=ae10a726-acf0-4945-b89d-97aeed5dca91","ios":"levelo://app?vid=ae10a726-acf0-4945-b89d-97aeed5dca91"},"vehicle_type_id":"4","last_reported":1733764134,"current_range_meters":6000,"station_id":"ce4bhk92rcd13ifvqgc0","pricing_plan_id":"cebpf4jnsgd1na2vs0mg"},{"bike_id":"7aefa5df-5010-4960-9bdf-9d8836d00d67","system_id":"levelo_inurba_marseille","lat":43.29524,"lon":5.39396,"is_reserved":false,"is_disabled":false,"rental_uris":{"android":"levelo://app?vid=7aefa5df-5010-4960-9bdf-9d8836d00d67","ios":"levelo://app?vid=7aefa5df-5010-4960-9bdf-9d8836d00d67"},"vehicle_type_id":"4","last_reported":1733764134,"current_range_meters":10800,"station_id":"ce4bh292rcd13ifvqdf0","pricing_plan_id":"cebpf4jnsgd1na2vs0mg"},{"bike_id":"93743f09-f9a2-40b2-8f33-37133d3c3227","system_id":"levelo_inurba_marseille","lat":43.29533,"lon":5.3855,"is_reserved":false,"is_disabled":false,"rental_uris":{"android":"levelo://app?vid=93743f09-f9a2-40b2-8f33-37133d3c3227","ios":"levelo://app?vid=93743f09-f9a2-40b2-8f33-37133d3c3227"},"vehicle_type_id":"4","last_reported":1733764134,"current_range_meters":32400,"station_id":"ce4bgih2rcd13ifvqba0","pricing_plan_id":"cebpf4jnsgd1na2vs0mg"},{"bike_id":"7258517d-e09f-4a05-970d-14b6ae7e086c","system_id":"levelo_inurba_marseille","lat":43.28968,"lon":5.37825,"is_reserved":false,"is_disabled":false,"rental_uris":{"android":"levelo://app?vid=7258517d-e09f-4a05-970d-14b6ae7e086c","ios":"levelo://app?vid=7258517d-e09f-4a05-970d-14b6ae7e086c"},"vehicle_type_id":"4","last_reported":1733764134,"current_range_meters":4800,"station_id":"ce4bh9p2rcd13ifvqed0","pricing_plan_id":"cebpf4jnsgd1na2vs0mg"},{"bike_id":"8fe11311-9ea0-413c-a2d5-e33d8df0bfb7","system_id":"levelo_inurba_marseille","lat":43.27177,"lon":5.40997,"is_reserved":false,"is_disabled":false,"rental_uris":{"android":"levelo://app?vid=8fe11311-9ea0-413c-a2d5-e33d8df0bfb7","ios":"levelo://app?vid=8fe11311-9ea0-413c-a2d5-e33d8df0bfb7"},"vehicle_type_id":"4","last_reported":1733764134,"current_range_meters":8000,"station_id":"ce4bhl12rcd13ifvqgf0","pricing_plan_id":"cebpf4jnsgd1na2vs0mg"},{"bike_id":"41b109e1-7867-4eed-b84d-27444e7d34b9","system_id":"levelo_inurba_marseille","lat":43.29369,"lon":5.37863,"is_reserved":false,"is_disabled":true,"rental_uris":{"android":"levelo://app?vid=41b109e1-7867-4eed-b84d-27444e7d34b9","ios":"levelo://app?vid=41b109e1-7867-4eed-b84d-27444e7d34b9"},"vehicle_type_id":"4","last_reported":1733764134,"current_range_meters":27600,"station_id":"ce4bgjh2rcd13ifvqbf0","pricing_plan_id":"cebpf4jnsgd1na2vs0mg"},{"bike_id":"76e85b42-6ef4-4ebe-a2d2-66a968f1b669","system_id":"levelo_inurba_marseille","lat":43.28846,"lon":5.35862,"is_reserved":false,"is_disabled":false,"rental_uris":{"android":"levelo://app?vid=76e85b42-6ef4-4ebe-a2d2-66a968f1b669","ios":"levelo://app?vid=76e85b42-6ef4-4ebe-a2d2-66a968f1b669"},"vehicle_type_id":"4","last_reported":1733764134,"current_range_meters":38400,"station_id":"ce4bhb12rcd13ifvqem0","pricing_plan_id":"cebpf4jnsgd1na2vs0mg"},{"bike_id":"5bd6bd78-4585-4412-88b0-3de4a55947a6","system_id":"levelo_inurba_marseille","lat":43.32291,"lon":5.38268,"is_reserved":false,"is_disabled":false,"rental_uris":{"android":"levelo://app?vid=5bd6bd78-4585-4412-88b0-3de4a55947a6","ios":"levelo://app?vid=5bd6bd78-4585-4412-88b0-3de4a55947a6"},"vehicle_type_id":"4","last_reported":1733764134,"current_range_meters":38800,"station_id":"ce4bhr12rcd13ifvqhqg","pricing_plan_id":"cebpf4jnsgd1na2vs0mg"},{"bike_id":"57ea3a45-12f5-4dc3-a8b6-fe671ec6cd27","system_id":"levelo_inurba_marseille","lat":43.30083,"lon":5.39062,"is_reserved":false,"is_disabled":false,"rental_uris":{"android":"levelo://app?vid=57ea3a45-12f5-4dc3-a8b6-fe671ec6cd27","ios":"levelo://app?vid=57ea3a45-12f5-4dc3-a8b6-fe671ec6cd27"},"vehicle_type_id":"4","last_reported":1733764134,"current_range_meters":27600,"station_id":"ce4bh192rcd13ifvqdb0","pricing_plan_id":"cebpf4jnsgd1na2vs0mg"},{"bike_id":"ba5e4c54-9e0f-419d-acd3-894b4507a88b","system_id":"levelo_inurba_marseille","lat":43.23056,"lon":5.35489,"is_reserved":false,"is_disabled":false,"rental_uris":{"android":"levelo://app?vid=ba5e4c54-9e0f-419d-acd3-894b4507a88b","ios":"levelo://app?vid=ba5e4c54-9e0f-419d-acd3-894b4507a88b"},"vehicle_type_id":"4","last_reported":1733764134,"current_range_meters":30000,"station_id":"cpo3342slgdg3j2ifvpg","pricing_plan_id":"cebpf4jnsgd1na2vs0mg"},{"bike_id":"9287d090-5a63-418b-8613-5c6e12ae0da9","system_id":"levelo_inurba_marseille","lat":43.26208,"lon":5.37929,"is_reserved":false,"is_disabled":false,"rental_uris":{"android":"levelo://app?vid=9287d090-5a63-418b-8613-5c6e12ae0da9","ios":"levelo://app?vid=9287d090-5a63-418b-8613-5c6e12ae0da9"},"vehicle_type_id":"4","last_reported":1733764134,"current_range_meters":29600,"station_id":"ce4bhjp2rcd13ifvqg90","pricing_plan_id":"cebpf4jnsgd1na2vs0mg"},{"bike_id":"69054ccc-7ceb-483d-9c75-3a542a4fbde6","system_id":"levelo_inurba_marseille","lat":43.25086,"lon":5.39525,"is_reserved":false,"is_disabled":false,"rental_uris":{"android":"levelo://app?vid=69054ccc-7ceb-483d-9c75-3a542a4fbde6","ios":"levelo://app?vid=69054ccc-7ceb-483d-9c75-3a542a4fbde6"},"vehicle_type_id":"4","last_reported":1733764134,"current_range_meters":4000,"station_id":"ce4bhm12rcd13ifvqgkg","pricing_plan_id":"cebpf4jnsgd1na2vs0mg"},{"bike_id":"e869d879-f96b-4f75-af36-9f90e9062aa4","system_id":"levelo_inurba_marseille","lat":43.2466,"lon":5.38165,"is_reserved":false,"is_disabled":false,"rental_uris":{"android":"levelo://app?vid=e869d879-f96b-4f75-af36-9f90e9062aa4","ios":"levelo://app?vid=e869d879-f96b-4f75-af36-9f90e9062aa4"},"vehicle_type_id":"4","last_reported":1733764134,"current_range_meters":24400,"station_id":"ce4bhih2rcd13ifvqfr0","pricing_plan_id":"cebpf4jnsgd1na2vs0mg"},{"bike_id":"155e4552-adf3-45a5-aa6c-6e25fcaf05e5","system_id":"levelo_inurba_marseille","lat":43.27174,"lon":5.40989,"is_reserved":false,"is_disabled":false,"rental_uris":{"android":"levelo://app?vid=155e4552-adf3-45a5-aa6c-6e25fcaf05e5","ios":"levelo://app?vid=155e4552-adf3-45a5-aa6c-6e25fcaf05e5"},"vehicle_type_id":"4","last_reported":1733764134,"current_range_meters":38800,"station_id":"ce4bhl12rcd13ifvqgf0","pricing_plan_id":"cebpf4jnsgd1na2vs0mg"},{"bike_id":"35f3c44e-0e88-42b6-9d0a-a15513a6f190","system_id":"levelo_inurba_marseille","lat":43.310938,"lon":5.367717,"is_reserved":false,"is_disabled":false,"rental_uris":{"android":"levelo://app?vid=35f3c44e-0e88-42b6-9d0a-a15513a6f190","ios":"levelo://app?vid=35f3c44e-0e88-42b6-9d0a-a15513a6f190"},"vehicle_type_id":"4","last_reported":1733764134,"current_range_meters":24400,"station_id":"","pricing_plan_id":"cebpf4jnsgd1na2vs0mg"},{"bike_id":"bd45d4b8-a794-47d3-b71a-c238d420c3d9","system_id":"levelo_inurba_marseille","lat":43.29001,"lon":5.35617,"is_reserved":false,"is_disabled":true,"rental_uris":{"android":"levelo://app?vid=bd45d4b8-a794-47d3-b71a-c238d420c3d9","ios":"levelo://app?vid=bd45d4b8-a794-47d3-b71a-c238d420c3d9"},"vehicle_type_id":"4","last_reported":1733764134,"current_range_meters":30400,"station_id":"ce4bhb92rcd13ifvqen0","pricing_plan_id":"cebpf4jnsgd1na2vs0mg"},{"bike_id":"b69a25c4-cb4a-4398-bd49-a12912254e2e","system_id":"levelo_inurba_marseille","lat":43.29894,"lon":5.43659,"is_reserved":false,"is_disabled":false,"rental_uris":{"android":"levelo://app?vid=b69a25c4-cb4a-4398-bd49-a12912254e2e","ios":"levelo://app?vid=b69a25c4-cb4a-4398-bd49-a12912254e2e"},"vehicle_type_id":"4","last_reported":1733764134,"current_range_meters":36400,"station_id":"ce4bhpp2rcd13ifvqhfg","pricing_plan_id":"cebpf4jnsgd1na2vs0mg"},{"bike_id":"b275cee9-afe6-42f4-a952-044dbc6fade8","system_id":"levelo_inurba_marseille","lat":43.30332,"lon":5.40436,"is_reserved":false,"is_disabled":false,"rental_uris":{"android":"levelo://app?vid=b275cee9-afe6-42f4-a952-044dbc6fade8","ios":"levelo://app?vid=b275cee9-afe6-42f4-a952-044dbc6fade8"},"vehicle_type_id":"4","last_reported":1733764134,"current_range_meters":14000,"station_id":"ce4bh012rcd13ifvqd10","pricing_plan_id":"cebpf4jnsgd1na2vs0mg"},{"bike_id":"7d3a1ce2-a50e-4a7c-b17f-7e7c96ef1b90","system_id":"levelo_inurba_marseille","lat":43.28672,"lon":5.36351,"is_reserved":false,"is_disabled":false,"rental_uris":{"android":"levelo://app?vid=7d3a1ce2-a50e-4a7c-b17f-7e7c96ef1b90","ios":"levelo://app?vid=7d3a1ce2-a50e-4a7c-b17f-7e7c96ef1b90"},"vehicle_type_id":"4","last_reported":1733764134,"current_range_meters":20000,"station_id":"ce4bhah2rcd13ifvqej0","pricing_plan_id":"cebpf4jnsgd1na2vs0mg"},{"bike_id":"6149d10a-ee53-4413-9592-38357ced78cb","system_id":"levelo_inurba_marseille","lat":43.26189,"lon":5.3745,"is_reserved":false,"is_disabled":false,"rental_uris":{"android":"levelo://app?vid=6149d10a-ee53-4413-9592-38357ced78cb","ios":"levelo://app?vid=6149d10a-ee53-4413-9592-38357ced78cb"},"vehicle_type_id":"4","last_reported":1733764134,"current_range_meters":38800,"station_id":"ce4bhgp2rcd13ifvqfc0","pricing_plan_id":"cebpf4jnsgd1na2vs0mg"},{"bike_id":"60d36cde-0a3c-49aa-a956-45c52e9e51c2","system_id":"levelo_inurba_marseille","lat":43.25825,"lon":5.39432,"is_reserved":false,"is_disabled":false,"rental_uris":{"android":"levelo://app?vid=60d36cde-0a3c-49aa-a956-45c52e9e51c2","ios":"levelo://app?vid=60d36cde-0a3c-49aa-a956-45c52e9e51c2"},"vehicle_type_id":"4","last_reported":1733764134,"current_range_meters":22000,"station_id":"ce4bhip2rcd13ifvqft0","pricing_plan_id":"cebpf4jnsgd1na2vs0mg"},{"bike_id":"f03a0fd2-8b78-4caf-823d-2d72f29eb1fc","system_id":"levelo_inurba_marseille","lat":43.27176,"lon":5.40995,"is_reserved":false,"is_disabled":false,"rental_uris":{"android":"levelo://app?vid=f03a0fd2-8b78-4caf-823d-2d72f29eb1fc","ios":"levelo://app?vid=f03a0fd2-8b78-4caf-823d-2d72f29eb1fc"},"vehicle_type_id":"4","last_reported":1733764134,"current_range_meters":38800,"station_id":"ce4bhl12rcd13ifvqgf0","pricing_plan_id":"cebpf4jnsgd1na2vs0mg"},{"bike_id":"20e9db8d-d68b-4418-94af-d9d63f8c2b96","system_id":"levelo_inurba_marseille","lat":43.337444,"lon":5.374475,"is_reserved":false,"is_disabled":true,"rental_uris":{"android":"levelo://app?vid=20e9db8d-d68b-4418-94af-d9d63f8c2b96","ios":"levelo://app?vid=20e9db8d-d68b-4418-94af-d9d63f8c2b96"},"vehicle_type_id":"4","last_reported":1733764134,"current_range_meters":0,"station_id":"","pricing_plan_id":"cebpf4jnsgd1na2vs0mg"},{"bike_id":"73309c46-62d5-4b1f-a358-733336da6b17","system_id":"levelo_inurba_marseille","lat":43.301636,"lon":5.380812,"is_reserved":false,"is_disabled":false,"rental_uris":{"android":"levelo://app?vid=73309c46-62d5-4b1f-a358-733336da6b17","ios":"levelo://app?vid=73309c46-62d5-4b1f-a358-733336da6b17"},"vehicle_type_id":"4","last_reported":1733764134,"current_range_meters":14800,"station_id":"ce4bgj92rcd13ifvqbe0","pricing_plan_id":"cebpf4jnsgd1na2vs0mg"},{"bike_id":"36b131f2-b3fd-48b6-97f6-07badfbd5a0f","system_id":"levelo_inurba_marseille","lat":43.29703,"lon":5.37697,"is_reserved":false,"is_disabled":false,"rental_uris":{"android":"levelo://app?vid=36b131f2-b3fd-48b6-97f6-07badfbd5a0f","ios":"levelo://app?vid=36b131f2-b3fd-48b6-97f6-07badfbd5a0f"},"vehicle_type_id":"4","last_reported":1733764134,"current_range_meters":38800,"station_id":"ce4bgkh2rcd13ifvqbl0","pricing_plan_id":"cebpf4jnsgd1na2vs0mg"},{"bike_id":"fa7f1210-1a59-49da-a06e-e9a907734490","system_id":"levelo_inurba_marseille","lat":43.27177,"lon":5.40994,"is_reserved":false,"is_disabled":false,"rental_uris":{"android":"levelo://app?vid=fa7f1210-1a59-49da-a06e-e9a907734490","ios":"levelo://app?vid=fa7f1210-1a59-49da-a06e-e9a907734490"},"vehicle_type_id":"4","last_reported":1733764134,"current_range_meters":38800,"station_id":"ce4bhl12rcd13ifvqgf0","pricing_plan_id":"cebpf4jnsgd1na2vs0mg"},{"bike_id":"6ea6064d-80c1-4695-9e3b-39ffe87494c2","system_id":"levelo_inurba_marseille","lat":43.280121,"lon":5.400272,"is_reserved":false,"is_disabled":false,"rental_uris":{"android":"levelo://app?vid=6ea6064d-80c1-4695-9e3b-39ffe87494c2","ios":"levelo://app?vid=6ea6064d-80c1-4695-9e3b-39ffe87494c2"},"vehicle_type_id":"4","last_reported":1733764134,"current_range_meters":38800,"station_id":"ce4bho92rcd13ifvqh4g","pricing_plan_id":"cebpf4jnsgd1na2vs0mg"},{"bike_id":"8d298818-a427-455d-87b8-203e283c5409","system_id":"levelo_inurba_marseille","lat":43.25087,"lon":5.39522,"is_reserved":false,"is_disabled":false,"rental_uris":{"android":"levelo://app?vid=8d298818-a427-455d-87b8-203e283c5409","ios":"levelo://app?vid=8d298818-a427-455d-87b8-203e283c5409"},"vehicle_type_id":"4","last_reported":1733764134,"current_range_meters":32800,"station_id":"ce4bhm12rcd13ifvqgkg","pricing_plan_id":"cebpf4jnsgd1na2vs0mg"},{"bike_id":"f6f6210d-5e07-46dd-93e4-3e102dd7cb0e","system_id":"levelo_inurba_marseille","lat":43.29395,"lon":5.38885,"is_reserved":false,"is_disabled":true,"rental_uris":{"android":"levelo://app?vid=f6f6210d-5e07-46dd-93e4-3e102dd7cb0e","ios":"levelo://app?vid=f6f6210d-5e07-46dd-93e4-3e102dd7cb0e"},"vehicle_type_id":"4","last_reported":1733764134,"current_range_meters":0,"station_id":"","pricing_plan_id":"cebpf4jnsgd1na2vs0mg"},{"bike_id":"f3b36430-cd45-4ab5-bba8-e402ae8b6d44","system_id":"levelo_inurba_marseille","lat":43.32538,"lon":5.41449,"is_reserved":false,"is_disabled":true,"rental_uris":{"android":"levelo://app?vid=f3b36430-cd45-4ab5-bba8-e402ae8b6d44","ios":"levelo://app?vid=f3b36430-cd45-4ab5-bba8-e402ae8b6d44"},"vehicle_type_id":"4","last_reported":1733764134,"current_range_meters":0,"station_id":"ce4bhq12rcd13ifvqhhg","pricing_plan_id":"cebpf4jnsgd1na2vs0mg"},{"bike_id":"6d8b4d42-f450-4734-acc6-2e713ae18747","system_id":"levelo_inurba_marseille","lat":43.28553,"lon":5.4813,"is_reserved":false,"is_disabled":true,"rental_uris":{"android":"levelo://app?vid=6d8b4d42-f450-4734-acc6-2e713ae18747","ios":"levelo://app?vid=6d8b4d42-f450-4734-acc6-2e713ae18747"},"vehicle_type_id":"4","last_reported":1733764134,"current_range_meters":20400,"station_id":"","pricing_plan_id":"cebpf4jnsgd1na2vs0mg"},{"bike_id":"bac2bc13-5b2f-433e-9f3b-9414525aa2a7","system_id":"levelo_inurba_marseille","lat":43.25082,"lon":5.39505,"is_reserved":false,"is_disabled":false,"rental_uris":{"android":"levelo://app?vid=bac2bc13-5b2f-433e-9f3b-9414525aa2a7","ios":"levelo://app?vid=bac2bc13-5b2f-433e-9f3b-9414525aa2a7"},"vehicle_type_id":"4","last_reported":1733764134,"current_range_meters":30400,"station_id":"ce4bhm12rcd13ifvqgkg","pricing_plan_id":"cebpf4jnsgd1na2vs0mg"},{"bike_id":"084db717-e0d1-461a-aa3c-8da58c000ced","system_id":"levelo_inurba_marseille","lat":43.25089,"lon":5.3952,"is_reserved":false,"is_disabled":false,"rental_uris":{"android":"levelo://app?vid=084db717-e0d1-461a-aa3c-8da58c000ced","ios":"levelo://app?vid=084db717-e0d1-461a-aa3c-8da58c000ced"},"vehicle_type_id":"4","last_reported":1733764134,"current_range_meters":35600,"station_id":"ce4bhm12rcd13ifvqgkg","pricing_plan_id":"cebpf4jnsgd1na2vs0mg"},{"bike_id":"0514c198-cac7-4370-9007-0f973260af7d","system_id":"levelo_inurba_marseille","lat":43.29269,"lon":5.38465,"is_reserved":false,"is_disabled":true,"rental_uris":{"android":"levelo://app?vid=0514c198-cac7-4370-9007-0f973260af7d","ios":"levelo://app?vid=0514c198-cac7-4370-9007-0f973260af7d"},"vehicle_type_id":"4","last_reported":1733764134,"current_range_meters":0,"station_id":"ce4bh2h2rcd13ifvqdh0","pricing_plan_id":"cebpf4jnsgd1na2vs0mg"},{"bike_id":"577c9392-ff84-4bf4-83a3-f052a7942bdb","system_id":"levelo_inurba_marseille","lat":43.27911,"lon":5.39589,"is_reserved":false,"is_disabled":false,"rental_uris":{"android":"levelo://app?vid=577c9392-ff84-4bf4-83a3-f052a7942bdb","ios":"levelo://app?vid=577c9392-ff84-4bf4-83a3-f052a7942bdb"},"vehicle_type_id":"4","last_reported":1733764134,"current_range_meters":4800,"station_id":"ce4bhf92rcd13ifvqf40","pricing_plan_id":"cebpf4jnsgd1na2vs0mg"},{"bike_id":"e934cd8e-0936-4129-a06c-f92781455551","system_id":"levelo_inurba_marseille","lat":43.29526,"lon":5.39395,"is_reserved":false,"is_disabled":false,"rental_uris":{"android":"levelo://app?vid=e934cd8e-0936-4129-a06c-f92781455551","ios":"levelo://app?vid=e934cd8e-0936-4129-a06c-f92781455551"},"vehicle_type_id":"4","last_reported":1733764134,"current_range_meters":20000,"station_id":"ce4bh292rcd13ifvqdf0","pricing_plan_id":"cebpf4jnsgd1na2vs0mg"},{"bike_id":"260ec3d0-1cf0-4b14-9be7-cea006f46fd5","system_id":"levelo_inurba_marseille","lat":43.237803,"lon":5.430542,"is_reserved":false,"is_disabled":false,"rental_uris":{"android":"levelo://app?vid=260ec3d0-1cf0-4b14-9be7-cea006f46fd5","ios":"levelo://app?vid=260ec3d0-1cf0-4b14-9be7-cea006f46fd5"},"vehicle_type_id":"4","last_reported":1733764134,"current_range_meters":8800,"station_id":"","pricing_plan_id":"cebpf4jnsgd1na2vs0mg"},{"bike_id":"62cae2d4-b84f-4f18-8692-e89e1f016cd6","system_id":"levelo_inurba_marseille","lat":43.29485,"lon":5.37626,"is_reserved":false,"is_disabled":true,"rental_uris":{"android":"levelo://app?vid=62cae2d4-b84f-4f18-8692-e89e1f016cd6","ios":"levelo://app?vid=62cae2d4-b84f-4f18-8692-e89e1f016cd6"},"vehicle_type_id":"4","last_reported":1733764134,"current_range_meters":0,"station_id":"","pricing_plan_id":"cebpf4jnsgd1na2vs0mg"},{"bike_id":"fd0805f5-a398-4cff-8d50-0b96555f8650","system_id":"levelo_inurba_marseille","lat":43.2947,"lon":5.37699,"is_reserved":false,"is_disabled":true,"rental_uris":{"android":"levelo://app?vid=fd0805f5-a398-4cff-8d50-0b96555f8650","ios":"levelo://app?vid=fd0805f5-a398-4cff-8d50-0b96555f8650"},"vehicle_type_id":"4","last_reported":1733764134,"current_range_meters":0,"station_id":"","pricing_plan_id":"cebpf4jnsgd1na2vs0mg"},{"bike_id":"88d700a1-f9a9-4c1f-9198-584b0729210d","system_id":"levelo_inurba_marseille","lat":43.23188,"lon":5.35556,"is_reserved":false,"is_disabled":false,"rental_uris":{"android":"levelo://app?vid=88d700a1-f9a9-4c1f-9198-584b0729210d","ios":"levelo://app?vid=88d700a1-f9a9-4c1f-9198-584b0729210d"},"vehicle_type_id":"4","last_reported":1733764134,"current_range_meters":8800,"station_id":"ce4bhu92rcd13ifvqi70","pricing_plan_id":"cebpf4jnsgd1na2vs0mg"},