{"last_updated":1737054414,"ttl":60,"version":"2.2","data":{"bikes":[{"bike_id":"97285aa9-5761-409a-831f-0e86e3084153","system_id":"levelo_inurba_marseille","lat":43.31329,"lon":5.39695,"is_reserved":false,"is_disabled":false,"rental_uris":{"android":"levelo://app?vid=97285aa9-5761-409a-831f-0e86e3084153","ios":"levelo://app?vid=97285aa9-5761-409a-831f-0e86e3084153"},"vehicle_type_id":"4","last_reported":1737054414,"current_range_meters":38800,"station_id":"ce4bgvp2rcd13ifvqcu0","pricing_plan_id":"cebpf4jnsgd1na2vs0mg"},{"bike_id":"fbba789f-860c-4d62-8452-c64ff2ef0dd3","system_id":"levelo_inurba_marseille","lat":43.25085,"lon":5.40379,"is_reserved":false,"is_disabled":false,"rental_uris":{"android":"levelo://app?vid=fbba789f-860c-4d62-8452-c64ff2ef0dd3","ios":"levelo://app?vid=fbba789f-860c-4d62-8452-c64ff2ef0dd3"},"vehicle_type_id":"4","last_reported":1737054414,"current_range_meters":14000,"station_id":"ce4bhlh2rcd13ifvqgig","pricing_plan_id":"cebpf4jnsgd1na2vs0mg"},{"bike_id":"c7201075-7a9d-43c5-b863-8493cb9526e5","system_id":"levelo_inurba_marseille","lat":43.29527,"lon":5.3904,"is_reserved":false,"is_disabled":false,"rental_uris":{"android":"levelo://app?vid=c7201075-7a9d-43c5-b863-8493cb9526e5","ios":"levelo://app?vid=c7201075-7a9d-43c5-b863-8493cb9526e5"},"vehicle_type_id":"4","last_reported":1737054414,"current_range_meters":6400,"station_id":"ce4bh3p2rcd13ifvqdp0","pricing_plan_id":"cebpf4jnsgd1na2vs0mg"},{"bike_id":"dedbd725-36bc-4db4-a0fd-a4817ef3a33a","system_id":"levelo_inurba_marseille","lat":43.31225,"lon":5.36858,"is_reserved":false,"is_disabled":false,"rental_uris":{"android":"levelo://app?vid=dedbd725-36bc-4db4-a0fd-a4817ef3a33a","ios":"levelo://app?vid=dedbd725-36bc-4db4-a0fd-a4817ef3a33a"},"vehicle_type_id":"4","last_reported":1737054414,"current_range_meters":30800,"station_id":"ce4bgl92rcd13ifvqbq0","pricing_plan_id":"cebpf4jnsgd1na2vs0mg"},{"bike_id":"a39c946b-f215-435b-b58f-d6dc4c7b0aaf","system_id":"levelo_inurba_marseille","lat":43.281542,"lon":5.426533,"is_reserved":false,"is_disabled":true,"rental_uris":{"android":"levelo://app?vid=a39c946b-f215-435b-b58f-d6dc4c7b0aaf","ios":"levelo://app?vid=a39c946b-f215-435b-b58f-d6dc4c7b0aaf"},"vehicle_type_id":"4","last_reported":1737054414,"current_range_meters":36800,"station_id":"ce4bhnh2rcd13ifvqgug","pricing_plan_id":"cebpf4jnsgd1na2vs0mg"},{"bike_id":"f920b982-cf2b-4f22-a8e5-d4ce681958df","system_id":"levelo_inurba_marseille","lat":43.29817,"lon":5.40408,"is_reserved":false,"is_disabled":false,"rental_uris":{"android":"levelo://app?vid=f920b982-cf2b-4f22-a8e5-d4ce681958df","ios":"levelo://app?vid=f920b982-cf2b-4f22-a8e5-d4ce681958df"},"vehicle_type_id":"4","last_reported":1737054414,"current_range_meters":39200,"station_id":"ce4bh112rcd13ifvqd90","pricing_plan_id":"cebpf4jnsgd1na2vs0mg"},{"bike_id":"d98da91a-d75a-4389-a26c-47ae7b03cbbb","system_id":"levelo_inurba_marseille","lat":43.2961,"lon":5.38092,"is_reserved":false,"is_disabled":false,"rental_uris":{"android":"levelo://app?vid=d98da91a-d75a-4389-a26c-47ae7b03cbbb","ios":"levelo://app?vid=d98da91a-d75a-4389-a26c-47ae7b03cbbb"},"vehicle_type_id":"4","last_reported":1737054414,"current_range_meters":12000,"station_id":"ce4bgl12rcd13ifvqbo0","pricing_plan_id":"cebpf4jnsgd1na2vs0mg"},{"bike_id":"a9302831-a977-42c7-a552-458f0d4a525a","system_id":"levelo_inurba_marseille","lat":43.29157,"lon":5.38063,"is_reserved":false,"is_disabled":false,"rental_uris":{"android":"levelo://app?vid=a9302831-a977-42c7-a552-458f0d4a525a","ios":"levelo://app?vid=a9302831-a977-42c7-a552-458f0d4a525a"},"vehicle_type_id":"4","last_reported":1737054414,"current_range_meters":31200,"station_id":"","pricing_plan_id":"cebpf4jnsgd1na2vs0mg"},{"bike_id":"0070a54a-014f-42bf-9d62-8ba3a7c2a8e6","system_id":"levelo_inurba_marseille","lat":43.27999,"lon":5.40011,"is_reserved":false,"is_disabled":false,"rental_uris":{"android":"levelo://app?vid=0070a54a-014f-42bf-9d62-8ba3a7c2a8e6","ios":"levelo://app?vid=0070a54a-014f-42bf-9d62-8ba3a7c2a8e6"},"vehicle_type_id":"4","last_reported":1737054414,"current_range_meters":30000,"station_id":"ce4bho92rcd13ifvqh4g","pricing_plan_id":"cebpf4jnsgd1na2vs0mg"},{"bike_id":"25b01166-8b4c-49d6-8386-8f83eb8111f5","system_id":"levelo_inurba_marseille","lat":43.25838,"lon":5.39443,"is_reserved":false,"is_disabled":false,"rental_uris":{"android":"levelo://app?vid=25b01166-8b4c-49d6-8386-8f83eb8111f5","ios":"levelo://app?vid=25b01166-8b4c-49d6-8386-8f83eb8111f5"},"vehicle_type_id":"4","last_reported":1737054414,"current_range_meters":8000,"station_id":"ce4bhip2rcd13ifvqft0","pricing_plan_id":"cebpf4jnsgd1na2vs0mg"},{"bike_id":"be62c402-a8c9-4471-b500-31bf53c1ceae","system_id":"levelo_inurba_marseille","lat":43.287,"lon":5.37394,"is_reserved":false,"is_disabled":false,"rental_uris":{"android":"levelo://app?vid=be62c402-a8c9-4471-b500-31bf53c1ceae","ios":"levelo://app?vid=be62c402-a8c9-4471-b500-31bf53c1ceae"},"vehicle_type_id":"4","last_reported":1737054414,"current_range_meters":36400,"station_id":"ce4bh3p2rcd13ifvqdq0","pricing_plan_id":"cebpf4jnsgd1na2vs0mg"},{"bike_id":"f0a92fb5-a1b4-48f0-adca-077cea1d20a2","system_id":"levelo_inurba_marseille","lat":43.2782,"lon":5.39207,"is_reserved":false,"is_disabled":false,"rental_uris":{"android":"levelo://app?vid=f0a92fb5-a1b4-48f0-adca-077cea1d20a2","ios":"levelo://app?vid=f0a92fb5-a1b4-48f0-adca-077cea1d20a2"},"vehicle_type_id":"4","last_reported":1737054414,"current_range_meters":38800,"station_id":"ce4bhjp2rcd13ifvqga0","pricing_plan_id":"cebpf4jnsgd1na2vs0mg"},{"bike_id":"4c981b7a-6a20-4f99-8f7f-b78dfe740cbc","system_id":"levelo_inurba_marseille","lat":43.27916,"lon":5.39593,"is_reserved":false,"is_disabled":false,"rental_uris":{"android":"levelo://app?vid=4c981b7a-6a20-4f99-8f7f-b78dfe740cbc","ios":"levelo://app?vid=4c981b7a-6a20-4f99-8f7f-b78dfe740cbc"},"vehicle_type_id":"4","last_reported":1737054414,"current_range_meters":38800,"station_id":"ce4bhf92rcd13ifvqf40","pricing_plan_id":"cebpf4jnsgd1na2vs0mg"},{"bike_id":"044de657-125b-44b9-a9ca-b96ab86f3594","system_id":"levelo_inurba_marseille","lat":43.27563,"lon":5.38431,"is_reserved":false,"is_disabled":false,"rental_uris":{"android":"levelo://app?vid=044de657-125b-44b9-a9ca-b96ab86f3594","ios":"levelo://app?vid=044de657-125b-44b9-a9ca-b96ab86f3594"},"vehicle_type_id":"4","last_reported":1737054414,"current_range_meters":37600,"station_id":"ce4bhh92rcd13ifvqfi0","pricing_plan_id":"cebpf4jnsgd1na2vs0mg"},{"bike_id":"c46fdbbf-0c6e-4103-9a90-9cfa4fc71f4a","system_id":"levelo_inurba_marseille","lat":43.29522,"lon":5.39397,"is_reserved":false,"is_disabled":false,"rental_uris":{"android":"levelo://app?vid=c46fdbbf-0c6e-4103-9a90-9cfa4fc71f4a","ios":"levelo://app?vid=c46fdbbf-0c6e-4103-9a90-9cfa4fc71f4a"},"vehicle_type_id":"4","last_reported":1737054414,"current_range_meters":25200,"station_id":"ce4bh292rcd13ifvqdf0","pricing_plan_id":"cebpf4jnsgd1na2vs0mg"},{"bike_id":"37eef42d-706e-47f5-94c0-ed430293a5ec","system_id":"levelo_inurba_marseille","lat":43.30906,"lon":5.36847,"is_reserved":false,"is_disabled":true,"rental_uris":{"android":"levelo://app?vid=37eef42d-706e-47f5-94c0-ed430293a5ec","ios":"levelo://app?vid=37eef42d-706e-47f5-94c0-ed430293a5ec"},"vehicle_type_id":"4","last_reported":1737054414,"current_range_meters":400,"station_id":"ce4bgn92rcd13ifvqbvg","pricing_plan_id":"cebpf4jnsgd1na2vs0mg"},{"bike_id":"8800286a-027a-4841-87ae-71bd90fd9e19","system_id":"levelo_inurba_marseille","lat":43.28676,"lon":5.36352,"is_reserved":false,"is_disabled":false,"rental_uris":{"android":"levelo://app?vid=8800286a-027a-4841-87ae-71bd90fd9e19","ios":"levelo://app?vid=8800286a-027a-4841-87ae-71bd90fd9e19"},"vehicle_type_id":"4","last_reported":1737054414,"current_range_meters":39200,"station_id":"ce4bhah2rcd13ifvqej0","pricing_plan_id":"cebpf4jnsgd1na2vs0mg"},{"bike_id":"eecf3b32-af9e-4a17-b6fb-3e0537ff5677","system_id":"levelo_inurba_marseille","lat":43.29854,"lon":5.39752,"is_reserved":false,"is_disabled":false,"rental_uris":{"android":"levelo://app?vid=eecf3b32-af9e-4a17-b6fb-3e0537ff5677","ios":"levelo://app?vid=eecf3b32-af9e-4a17-b6fb-3e0537ff5677"},"vehicle_type_id":"4","last_reported":1737054414,"current_range_meters":28400,"station_id":"ce4bh0h2rcd13ifvqd50","pricing_plan_id":"cebpf4jnsgd1na2vs0mg"},{"bike_id":"143eb404-bd39-4b35-b1b5-6b67f67e78f7","system_id":"levelo_inurba_marseille","lat":43.30601,"lon":5.37222,"is_reserved":false,"is_disabled":false,"rental_uris":{"android":"levelo://app?vid=143eb404-bd39-4b35-b1b5-6b67f67e78f7","ios":"levelo://app?vid=143eb404-bd39-4b35-b1b5-6b67f67e78f7"},"vehicle_type_id":"4","last_reported":1737054414,"current_range_meters":28400,"station_id":"ce4bgqh2rcd13ifvqc4g","pricing_plan_id":"cebpf4jnsgd1na2vs0mg"},{"bike_id":"d34c6170-6636-42c4-be73-54fa2e4fb83d","system_id":"levelo_inurba_marseille","lat":43.28153,"lon":5.42645,"is_reserved":false,"is_disabled":false,"rental_uris":{"android":"levelo://app?vid=d34c6170-6636-42c4-be73-54fa2e4fb83d","ios":"levelo://app?vid=d34c6170-6636-42c4-be73-54fa2e4fb83d"},"vehicle_type_id":"4","last_reported":1737054414,"current_range_meters":3200,"station_id":"ce4bhnh2rcd13ifvqgug","pricing_plan_id":"cebpf4jnsgd1na2vs0mg"},{"bike_id":"85697b48-7ca0-4d57-bbd7-b28f626dd05b","system_id":"levelo_inurba_marseille","lat":43.285776,"lon":5.359772,"is_reserved":false,"is_disabled":false,"rental_uris":{"android":"levelo://app?vid=85697b48-7ca0-4d57-bbd7-b28f626dd05b","ios":"levelo://app?vid=85697b48-7ca0-4d57-bbd7-b28f626dd05b"},"vehicle_type_id":"4","last_reported":1737054414,"current_range_meters":4800,"station_id":"","pricing_plan_id":"cebpf4jnsgd1na2vs0mg"},{"bike_id":"c4fc9679-1008-473b-9e9b-26f1ed62312e","system_id":"levelo_inurba_marseille","lat":43.22929,"lon":5.35381,"is_reserved":false,"is_disabled":false,"rental_uris":{"android":"levelo://app?vid=c4fc9679-1008-473b-9e9b-26f1ed62312e","ios":"levelo://app?vid=c4fc9679-1008-473b-9e9b-26f1ed62312e"},"vehicle_type_id":"4","last_reported":1737054414,"current_range_meters":22400,"station_id":"cpo3532slgdg3j2ikp40","pricing_plan_id":"cebpf4jnsgd1na2vs0mg"},{"bike_id":"046043ee-23d6-45d5-a372-f422bccb1d5a","system_id":"levelo_inurba_marseille","lat":43.262,"lon":5.37474,"is_reserved":false,"is_disabled":false,"rental_uris":{"android":"levelo://app?vid=046043ee-23d6-45d5-a372-f422bccb1d5a","ios":"levelo://app?vid=046043ee-23d6-45d5-a372-f422bccb1d5a"},"vehicle_type_id":"4","last_reported":1737054414,"current_range_meters":18800,"station_id":"ce4bhgp2rcd13ifvqfc0","pricing_plan_id":"cebpf4jnsgd1na2vs0mg"},{"bike_id":"f370759a-89eb-4893-8a3d-bb84daac47ec","system_id":"levelo_inurba_marseille","lat":43.23786,"lon":5.37373,"is_reserved":false,"is_disabled":false,"rental_uris":{"android":"levelo://app?vid=f370759a-89eb-4893-8a3d-bb84daac47ec","ios":"levelo://app?vid=f370759a-89eb-4893-8a3d-bb84daac47ec"},"vehicle_type_id":"4","last_reported":1737054414,"current_range_meters":18000,"station_id":"ce4bhnp2rcd13ifvqgvg","pricing_plan_id":"cebpf4jnsgd1na2vs0mg"},{"bike_id":"0e842b39-329d-48e2-b781-7e3babc96cf4","system_id":"levelo_inurba_marseille","lat":43.229379,"lon":5.353856,"is_reserved":false,"is_disabled":false,"rental_uris":{"android":"levelo://app?vid=0e842b39-329d-48e2-b781-7e3babc96cf4","ios":"levelo://app?vid=0e842b39-329d-48e2-b781-7e3babc96cf4"},"vehicle_type_id":"4","last_reported":1737054414,"current_range_meters":13600,"station_id":"cpo3532slgdg3j2ikp40","pricing_plan_id":"cebpf4jnsgd1na2vs0mg"},{"bike_id":"05b6f256-b329-45e6-a528-447120080515","system_id":"levelo_inurba_marseille","lat":43.30078,"lon":5.39085,"is_reserved":false,"is_disabled":false,"rental_uris":{"android":"levelo://app?vid=05b6f256-b329-45e6-a528-447120080515","ios":"levelo://app?vid=05b6f256-b329-45e6-a528-447120080515"},"vehicle_type_id":"4","last_reported":1737054414,"current_range_meters":26800,"station_id":"ce4bh192rcd13ifvqdb0","pricing_plan_id":"cebpf4jnsgd1na2vs0mg"},{"bike_id":"871856dd-5594-4a84-90c5-1f7714cebc6c","system_id":"levelo_inurba_marseille","lat":43.28934,"lon":5.36629,"is_reserved":false,"is_disabled":false,"rental_uris":{"android":"levelo://app?vid=871856dd-5594-4a84-90c5-1f7714cebc6c","ios":"levelo://app?vid=871856dd-5594-4a84-90c5-1f7714cebc6c"},"vehicle_type_id":"4","last_reported":1737054414,"current_range_meters":37600,"station_id":"ce4bhap2rcd13ifvqek0","pricing_plan_id":"cebpf4jnsgd1na2vs0mg"},{"bike_id":"99edffd1-a5ba-4759-befa-f12a00faec89","system_id":"levelo_inurba_marseille","lat":43.28574,"lon":5.39493,"is_reserved":false,"is_disabled":true,"rental_uris":{"android":"levelo://app?vid=99edffd1-a5ba-4759-befa-f12a00faec89","ios":"levelo://app?vid=99edffd1-a5ba-4759-befa-f12a00faec89"},"vehicle_type_id":"4","last_reported":1737054414,"current_range_meters":13600,"station_id":"ce4bh292rcd13ifvqdg0","pricing_plan_id":"cebpf4jnsgd1na2vs0mg"},{"bike_id":"54467b00-9bec-4b9f-b640-5ebcdc1b28bb","system_id":"levelo_inurba_marseille","lat":43.29263,"lon":5.36843,"is_reserved":false,"is_disabled":false,"rental_uris":{"android":"levelo://app?vid=54467b00-9bec-4b9f-b640-5ebcdc1b28bb","ios":"levelo://app?vid=54467b00-9bec-4b9f-b640-5ebcdc1b28bb"},"vehicle_type_id":"4","last_reported":1737054414,"current_range_meters":29600,"station_id":"ce4bhbp2rcd13ifvqesg","pricing_plan_id":"cebpf4jnsgd1na2vs0mg"},{"bike_id":"240793b7-2334-47eb-b07b-36073cab0422","system_id":"levelo_inurba_marseille","lat":43.2318,"lon":5.39983,"is_reserved":false,"is_disabled":false,"rental_uris":{"android":"levelo://app?vid=240793b7-2334-47eb-b07b-36073cab0422","ios":"levelo://app?vid=240793b7-2334-47eb-b07b-36073cab0422"},"vehicle_type_id":"4","last_reported":1737054414,"current_range_meters":39200,"station_id":"ce4bhn12rcd13ifvqgqg","pricing_plan_id":"cebpf4jnsgd1na2vs0mg"},{"bike_id":"3a6e72c5-734e-4bc0-9e42-0bea8bb69570","system_id":"levelo_inurba_marseille","lat":43.28154,"lon":5.42646,"is_reserved":false,"is_disabled":false,"rental_uris":{"android":"levelo://app?vid=3a6e72c5-734e-4bc0-9e42-0bea8bb69570","ios":"levelo://app?vid=3a6e72c5-734e-4bc0-9e42-0bea8bb69570"},"vehicle_type_id":"4","last_reported":1737054414,"current_range_meters":38800,"station_id":"ce4bhnh2rcd13ifvqgug","pricing_plan_id":"cebpf4jnsgd1na2vs0mg"},{"bike_id":"f39447bc-61fd-40cd-b483-a2bb87c70787","system_id":"levelo_inurba_marseille","lat":43.28569,"lon":5.39498,"is_reserved":false,"is_disabled":false,"rental_uris":{"android":"levelo://app?vid=f39447bc-61fd-40cd-b483-a2bb87c70787","ios":"levelo://app?vid=f39447bc-61fd-40cd-b483-a2bb87c70787"},"vehicle_type_id":"4","last_reported":1737054414,"current_range_meters":19600,"station_id":"ce4bh292rcd13ifvqdg0","pricing_plan_id":"cebpf4jnsgd1na2vs0mg"},{"bike_id":"71f83f18-c7e9-4e3c-9894-dc3c29078a76","system_id":"levelo_inurba_marseille","lat":43.30129,"lon":5.39856,"is_reserved":false,"is_disabled":false,"rental_uris":{"android":"levelo://app?vid=71f83f18-c7e9-4e3c-9894-dc3c29078a76","ios":"levelo://app?vid=71f83f18-c7e9-4e3c-9894-dc3c29078a76"},"vehicle_type_id":"4","last_reported":1737054414,"current_range_meters":28800,"station_id":"ce4bh0h2rcd13ifvqd40","pricing_plan_id":"cebpf4jnsgd1na2vs0mg"},{"bike_id":"70199fc2-df6a-4ec4-910c-a63d7bb31e5e","system_id":"levelo_inurba_marseille","lat":43.29199,"lon":5.35805,"is_reserved":false,"is_disabled":false,"rental_uris":{"android":"levelo://app?vid=70199fc2-df6a-4ec4-910c-a63d7bb31e5e","ios":"levelo://app?vid=70199fc2-df6a-4ec4-910c-a63d7bb31e5e"},"vehicle_type_id":"4","last_reported":1737054414,"current_range_meters":39200,"station_id":"ce4bhb12rcd13ifvqel0","pricing_plan_id":"cebpf4jnsgd1na2vs0mg"},{"bike_id":"7edfd060-522f-4e8d-bd3c-29a71f6f685e","system_id":"levelo_inurba_marseille","lat":43.27562,"lon":5.38419,"is_reserved":false,"is_disabled":false,"rental_uris":{"android":"levelo://app?vid=7edfd060-522f-4e8d-bd3c-29a71f6f685e","ios":"levelo://app?vid=7edfd060-522f-4e8d-bd3c-29a71f6f685e"},"vehicle_type_id":"4","last_reported":1737054414,"current_range_meters":6000,"station_id":"ce4bhh92rcd13ifvqfi0","pricing_plan_id":"cebpf4jnsgd1na2vs0mg"},{"bike_id":"66ec8711-3dbc-48f7-b091-25773ac6b77c","system_id":"levelo_inurba_marseille","lat":43.2814,"lon":5.44193,"is_reserved":false,"is_disabled":true,"rental_uris":{"android":"levelo://app?vid=66ec8711-3dbc-48f7-b091-25773ac6b77c","ios":"levelo://app?vid=66ec8711-3dbc-48f7-b091-25773ac6b77c"},"vehicle_type_id":"4","last_reported":1737054414,"current_range_meters":0,"station_id":"","pricing_plan_id":"cebpf4jnsgd1na2vs0mg"},{"bike_id":"85b17b88-0932-436f-a3cd-d6633f9898b6","system_id":"levelo_inurba_marseille","lat":43.23207,"lon":5.39944,"is_reserved":false,"is_disabled":false,"rental_uris":{"android":"levelo://app?vid=85b17b88-0932-436f-a3cd-d6633f9898b6","ios":"levelo://app?vid=85b17b88-0932-436f-a3cd-d6633f9898b6"},"vehicle_type_id":"4","last_reported":1737054414,"current_range_meters":28400,"station_id":"ce4bhn12rcd13ifvqgqg","pricing_plan_id":"cebpf4jnsgd1na2vs0mg"},{"bike_id":"d2ed35f8-7da5-4b4b-8781-01e92d76cd9e","system_id":"levelo_inurba_marseille","lat":43.28421,"lon":5.3751,"is_reserved":false,"is_disabled":false,"rental_uris":{"android":"levelo://app?vid=d2ed35f8-7da5-4b4b-8781-01e92d76cd9e","ios":"levelo://app?vid=d2ed35f8-7da5-4b4b-8781-01e92d76cd9e"},"vehicle_type_id":"4","last_reported":1737054414,"current_range_meters":38800,"station_id":"ce4bh412rcd13ifvqds0","pricing_plan_id":"cebpf4jnsgd1na2vs0mg"},{"bike_id":"18d8deee-1c5e-43f2-acc4-897789b5ade0","system_id":"levelo_inurba_marseille","lat":43.28442,"lon":5.39202,"is_reserved":false,"is_disabled":false,"rental_uris":{"android":"levelo://app?vid=18d8deee-1c5e-43f2-acc4-897789b5ade0","ios":"levelo://app?vid=18d8deee-1c5e-43f2-acc4-897789b5ade0"},"vehicle_type_id":"4","last_reported":1737054414,"current_range_meters":38800,"station_id":"ce4bhoh2rcd13ifvqh5g","pricing_plan_id":"cebpf4jnsgd1na2vs0mg"},{"bike_id":"c5810d7b-aa39-4c8a-a6e2-4400d6588abd","system_id":"levelo_inurba_marseille","lat":43.29278,"lon":5.36846,"is_reserved":false,"is_disabled":false,"rental_uris":{"android":"levelo://app?vid=c5810d7b-aa39-4c8a-a6e2-4400d6588abd","ios":"levelo://app?vid=c5810d7b-aa39-4c8a-a6e2-4400d6588abd"},"vehicle_type_id":"4","last_reported":1737054414,"current_range_meters":18800,"station_id":"ce4bhbp2rcd13ifvqesg","pricing_plan_id":"cebpf4jnsgd1na2vs0mg"},{"bike_id":"1d98b661-4d25-4ddf-8406-1904767674e6","system_id":"levelo_inurba_marseille","lat":43.29166,"lon":5.37164,"is_reserved":false,"is_disabled":false,"rental_uris":{"android":"levelo://app?vid=1d98b661-4d25-4ddf-8406-1904767674e6","ios":"levelo://app?vid=1d98b661-4d25-4ddf-8406-1904767674e6"},"vehicle_type_id":"4","last_reported":1737054414,"current_range_meters":36000,"station_id":"ce4bha92rcd13ifvqeh0","pricing_plan_id":"cebpf4jnsgd1na2vs0mg"},{"bike_id":"87707ecc-a555-4041-b4c9-046040370b07","system_id":"levelo_inurba_marseille","lat":43.31997,"lon":5.38166,"is_reserved":false,"is_disabled":true,"rental_uris":{"android":"levelo://app?vid=87707ecc-a555-4041-b4c9-046040370b07","ios":"levelo://app?vid=87707ecc-a555-4041-b4c9-046040370b07"},"vehicle_type_id":"4","last_reported":1737054414,"current_range_meters":800,"station_id":"ce4bhr12rcd13ifvqhpg","pricing_plan_id":"cebpf4jnsgd1na2vs0mg"},{"bike_id":"da143f62-84b5-4c93-b34d-76b7463c3781","system_id":"levelo_inurba_marseille","lat":43.26685,"lon":5.38273,"is_reserved":false,"is_disabled":false,"rental_uris":{"android":"levelo://app?vid=da143f62-84b5-4c93-b34d-76b7463c3781","ios":"levelo://app?vid=da143f62-84b5-4c93-b34d-76b7463c3781"},"vehicle_type_id":"4","last_reported":1737054414,"current_range_meters":24400,"station_id":"ce4bhg92rcd13ifvqf90","pricing_plan_id":"cebpf4jnsgd1na2vs0mg"},{"bike_id":"caceab87-eb58-4c60-8caf-9c8d71fa0f42","system_id":"levelo_inurba_marseille","lat":43.29634,"lon":5.40601,"is_reserved":false,"is_disabled":false,"rental_uris":{"android":"levelo://app?vid=caceab87-eb58-4c60-8caf-9c8d71fa0f42","ios":"levelo://app?vid=caceab87-eb58-4c60-8caf-9c8d71fa0f42"},"vehicle_type_id":"4","last_reported":1737054414,"current_range_meters":20400,"station_id":"ce4bh0h2rcd13ifvqd60","pricing_plan_id":"cebpf4jnsgd1na2vs0mg"},{"bike_id":"4d21a537-3816-432c-8aec-6acfffac2e27","system_id":"levelo_inurba_marseille","lat":43.31881,"lon":5.40735,"is_reserved":false,"is_disabled":true,"rental_uris":{"android":"levelo://app?vid=4d21a537-3816-432c-8aec-6acfffac2e27","ios":"levelo://app?vid=4d21a537-3816-432c-8aec-6acfffac2e27"},"vehicle_type_id":"4","last_reported":1737054414,"current_range_meters":0,"station_id":"ce4bhq12rcd13ifvqhig","pricing_plan_id":"cebpf4jnsgd1na2vs0mg"},{"bike_id":"9d6d1f26-fb82-4e0f-b072-6abb7d08dc00","system_id":"levelo_inurba_marseille","lat":43.29543,"lon":5.38537,"is_reserved":false,"is_disabled":false,"rental_uris":{"android":"levelo://app?vid=9d6d1f26-fb82-4e0f-b072-6abb7d08dc00","ios":"levelo://app?vid=9d6d1f26-fb82-4e0f-b072-6abb7d08dc00"},"vehicle_type_id":"4","last_reported":1737054414,"current_range_meters":24000,"station_id":"ce4bgih2rcd13ifvqba0","pricing_plan_id":"cebpf4jnsgd1na2vs0mg"},{"bike_id":"ee13df72-5036-438c-be4e-89942d8ad662","system_id":"levelo_inurba_marseille","lat":43.29963,"lon":5.38495,"is_reserved":false,"is_disabled":false,"rental_uris":{"android":"levelo://app?vid=ee13df72-5036-438c-be4e-89942d8ad662","ios":"levelo://app?vid=ee13df72-5036-438c-be4e-89942d8ad662"},"vehicle_type_id":"4","last_reported":1737054414,"current_range_meters":38800,"station_id":"ce4bgj92rcd13ifvqbd0","pricing_plan_id":"cebpf4jnsgd1na2vs0mg"},{"bike_id":"fa53afd0-c3c0-46c2-be7e-d056eb14f6b8","system_id":"levelo_inurba_marseille","lat":43.26108,"lon":5.3936,"is_reserved":false,"is_disabled":false,"rental_uris":{"android":"levelo://app?vid=fa53afd0-c3c0-46c2-be7e-d056eb14f6b8","ios":"levelo://app?vid=fa53afd0-c3c0-46c2-be7e-d056eb14f6b8"},"vehicle_type_id":"4","last_reported":1737054414,"current_range_meters":38800,"station_id":"","pricing_plan_id":"cebpf4jnsgd1na2vs0mg"},{"bike_id":"a47874b2-92b6-4162-9330-775ee9873e24","system_id":"levelo_inurba_marseille","lat":43.32346,"lon":5.40623,"is_reserved":false,"is_disabled":false,"rental_uris":{"android":"levelo://app?vid=a47874b2-92b6-4162-9330-775ee9873e24","ios":"levelo://app?vid=a47874b2-92b6-4162-9330-775ee9873e24"},"vehicle_type_id":"4","last_reported":1737054414,"current_range_meters":18800,"station_id":"ce4bhq92rcd13ifvqhjg","pricing_plan_id":"cebpf4jnsgd1na2vs0mg"},{"bike_id":"50474f82-faae-4cb8-a970-291e2ad23fd2","system_id":"levelo_inurba_marseille","lat":43.29536,"lon":5.38546,"is_reserved":false,"is_disabled":false,"rental_uris":{"android":"levelo://app?vid=50474f82-faae-4cb8-a970-291e2ad23fd2","ios":"levelo://app?vid=50474f82-faae-4cb8-a970-291e2ad23fd2"},"vehicle_type_id":"4","last_reported":1737054414,"current_range_meters":39200,"station_id":"ce4bgih2rcd13ifvqba0","pricing_plan_id":"cebpf4jnsgd1na2vs0mg"},{"bike_id":"fd881366-9616-428b-9769-11ec1f42349c","system_id":"levelo_inurba_marseille","lat":43.29891,"lon":5.3889,"is_reserved":false,"is_disabled":false,"rental_uris":{"android":"levelo://app?vid=fd881366-9616-428b-9769-11ec1f42349c","ios":"levelo://app?vid=fd881366-9616-428b-9769-11ec1f42349c"},"vehicle_type_id":"4","last_reported":1737054414,"current_range_meters":18000,"station_id":"ce4bh392rcd13ifvqdl0","pricing_plan_id":"cebpf4jnsgd1na2vs0mg"},{"bike_id":"c010a914-dced-4fd4-91d3-f749933b63c9","system_id":"levelo_inurba_marseille","lat":43.29242,"lon":5.38444,"is_reserved":false,"is_disabled":false,"rental_uris":{"android":"levelo://app?vid=c010a914-dced-4fd4-91d3-f749933b63c9","ios":"levelo://app?vid=c010a914-dced-4fd4-91d3-f749933b63c9"},"vehicle_type_id":"4","last_reported":1737054414,"current_range_meters":16000,"station_id":"ce4bh692rcd13ifvqea0","pricing_plan_id":"cebpf4jnsgd1na2vs0mg"},{"bike_id":"155dbf4b-d6fe-46aa-9097-9994452a5158","system_id":"levelo_inurba_marseille","lat":43.230653,"lon":5.354941,"is_reserved":false,"is_disabled":false,"rental_uris":{"android":"levelo://app?vid=155dbf4b-d6fe-46aa-9097-9994452a5158","ios":"levelo://app?vid=155dbf4b-d6fe-46aa-9097-9994452a5158"},"vehicle_type_id":"4","last_reported":1737054414,"current_range_meters":8400,"station_id":"cpo3342slgdg3j2ifvpg","pricing_plan_id":"cebpf4jnsgd1na2vs0mg"},{"bike_id":"44d65a31-bb68-4e49-86bf-b4d0ff0902f2","system_id":"levelo_inurba_marseille","lat":43.28451,"lon":5.3589,"is_reserved":false,"is_disabled":false,"rental_uris":{"android":"levelo://app?vid=44d65a31-bb68-4e49-86bf-b4d0ff0902f2","ios":"levelo://app?vid=44d65a31-bb68-4e49-86bf-b4d0ff0902f2"},"vehicle_type_id":"4","last_reported":1737054414,"current_range_meters":6000,"station_id":"ce4bhah2rcd13ifvqei0","pricing_plan_id":"cebpf4jnsgd1na2vs0mg"},{"bike_id":"80bc6287-ce2b-4ae4-b9d5-67d3150daa6d","system_id":"levelo_inurba_marseille","lat":43.27196,"lon":5.40996,"is_reserved":false,"is_disabled":false,"rental_uris":{"android":"levelo://app?vid=80bc6287-ce2b-4ae4-b9d5-67d3150daa6d","ios":"levelo://app?vid=80bc6287-ce2b-4ae4-b9d5-67d3150daa6d"},"vehicle_type_id":"4","last_reported":1737054414,"current_range_meters":28000,"station_id":"ce4bhl12rcd13ifvqgf0","pricing_plan_id":"cebpf4jnsgd1na2vs0mg"},{"bike_id":"31bbfcbf-90aa-49da-8603-41c413804280","system_id":"levelo_inurba_marseille","lat":43.32353,"lon":5.38884,"is_reserved":false,"is_disabled":false,"rental_uris":{"android":"levelo://app?vid=31bbfcbf-90aa-49da-8603-41c413804280","ios":"levelo://app?vid=31bbfcbf-90aa-49da-8603-41c413804280"},"vehicle_type_id":"4","last_reported":1737054414,"current_range_meters":36400,"station_id":"ce4bhqp2rcd13ifvqhog","pricing_plan_id":"cebpf4jnsgd1na2vs0mg"},{"bike_id":"ca0daeb3-551a-47db-9568-cfb249748609","system_id":"levelo_inurba_marseille","lat":43.29968,"lon":5.38496,"is_reserved":false,"is_disabled":true,"rental_uris":{"android":"levelo://app?vid=ca0daeb3-551a-47db-9568-cfb249748609","ios":"levelo://app?vid=ca0daeb3-551a-47db-9568-cfb249748609"},"vehicle_type_id":"4","last_reported":1737054414,"current_range_meters":28000,"station_id":"ce4bgj92rcd13ifvqbd0","pricing_plan_id":"cebpf4jnsgd1na2vs0mg"},{"bike_id":"4c0f1376-f6cb-4b66-b92f-109c6788a7aa","system_id":"levelo_inurba_marseille","lat":43.29527,"lon":5.39402,"is_reserved":false,"is_disabled":false,"rental_uris":{"android":"levelo://app?vid=4c0f1376-f6cb-4b66-b92f-109c6788a7aa","ios":"levelo://app?vid=4c0f1376-f6cb-4b66-b92f-109c6788a7aa"},"vehicle_type_id":"4","last_reported":1737054414,"current_range_meters":6400,"station_id":"ce4bh292rcd13ifvqdf0","pricing_plan_id":"cebpf4jnsgd1na2vs0mg"},{"bike_id":"160c4de7-7f2e-4ddd-89ef-4765ad4546e8","system_id":"levelo_inurba_marseille","lat":43.289999,"lon":5.356164,"is_reserved":false,"is_disabled":false,"rental_uris":{"android":"levelo://app?vid=160c4de7-7f2e-4ddd-89ef-4765ad4546e8","ios":"levelo://app?vid=160c4de7-7f2e-4ddd-89ef-4765ad4546e8"},"vehicle_type_id":"4","last_reported":1737054414,"current_range_meters":36800,"station_id":"ce4bhb92rcd13ifvqen0","pricing_plan_id":"cebpf4jnsgd1na2vs0mg"},{"bike_id":"fd11587d-2738-46f2-92a7-2edd7912ae40","system_id":"levelo_inurba_marseille","lat":43.26941,"lon":5.40243,"is_reserved":false,"is_disabled":false,"rental_uris":{"android":"levelo://app?vid=fd11587d-2738-46f2-92a7-2edd7912ae40","ios":"levelo://app?vid=fd11587d-2738-46f2-92a7-2edd7912ae40"},"vehicle_type_id":"4","last_reported":1737054414,"current_range_meters":38400,"station_id":"cjm6bp8fraef2m0cb0m0","pricing_plan_id":"cebpf4jnsgd1na2vs0mg"},{"bike_id":"f835befa-e0c4-4cbe-a2f0-932b8650c0b0","system_id":"levelo_inurba_marseille","lat":43.23183,"lon":5.39988,"is_reserved":false,"is_disabled":false,"rental_uris":{"android":"levelo://app?vid=f835befa-e0c4-4cbe-a2f0-932b8650c0b0","ios":"levelo://app?vid=f835befa-e0c4-4cbe-a2f0-932b8650c0b0"},"vehicle_type_id":"4","last_reported":1737054414,"current_range_meters":16000,"station_id":"ce4bhn12rcd13ifvqgqg","pricing_plan_id":"cebpf4jnsgd1na2vs0mg"},{"bike_id":"41b0b4ec-7526-4290-96f9-44cbe4cd1ada","system_id":"levelo_inurba_marseille","lat":43.26783,"lon":5.39405,"is_reserved":false,"is_disabled":true,"rental_uris":{"android":"levelo://app?vid=41b0b4ec-7526-4290-96f9-44cbe4cd1ada","ios":"levelo://app?vid=41b0b4ec-7526-4290-96f9-44cbe4cd1ada"},"vehicle_type_id":"4","last_reported":1737054414,"current_range_meters":20400,"station_id":"ce4bhh12rcd13ifvqfg0","pricing_plan_id":"cebpf4jnsgd1na2vs0mg"},{"bike_id":"6851d26c-9ce1-4383-9e14-ab406b67b568","system_id":"levelo_inurba_marseille","lat":43.26496,"lon":5.39536,"is_reserved":false,"is_disabled":false,"rental_uris":{"android":"levelo://app?vid=6851d26c-9ce1-4383-9e14-ab406b67b568","ios":"levelo://app?vid=6851d26c-9ce1-4383-9e14-ab406b67b568"},"vehicle_type_id":"4","last_reported":1737054414,"current_range_meters":8400,"station_id":"ce4bhi12rcd13ifvqfq0","pricing_plan_id":"cebpf4jnsgd1na2vs0mg"},{"bike_id":"2dacbace-b120-4b84-9774-e8d28e615b7e","system_id":"levelo_inurba_marseille","lat":43.33027,"lon":5.39037,"is_reserved":false,"is_disabled":false,"rental_uris":{"android":"levelo://app?vid=2dacbace-b120-4b84-9774-e8d28e615b7e","ios":"levelo://app?vid=2dacbace-b120-4b84-9774-e8d28e615b7e"},"vehicle_type_id":"4","last_reported":1737054414,"current_range_meters":28800,"station_id":"ce4bhr92rcd13ifvqhrg","pricing_plan_id":"cebpf4jnsgd1na2vs0mg"},{"bike_id":"4d67d339-e8e1-4f5a-8086-1d6e90a5223c","system_id":"levelo_inurba_marseille","lat":43.31448,"lon":5.37601,"is_reserved":false,"is_disabled":false,"rental_uris":{"android":"levelo://app?vid=4d67d339-e8e1-4f5a-8086-1d6e90a5223c","ios":"levelo://app?vid=4d67d339-e8e1-4f5a-8086-1d6e90a5223c"},"vehicle_type_id":"4","last_reported":1737054414,"current_range_meters":38800,"station_id":"","pricing_plan_id":"cebpf4jnsgd1na2vs0mg"},{"bike_id":"0ada9e65-a406-42d7-a3f3-23b1a0d2932a","system_id":"levelo_inurba_marseille","lat":43.30205,"lon":5.39484,"is_reserved":false,"is_disabled":false,"rental_uris":{"android":"levelo://app?vid=0ada9e65-a406-42d7-a3f3-23b1a0d2932a","ios":"levelo://app?vid=0ada9e65-a406-42d7-a3f3-23b1a0d2932a"},"vehicle_type_id":"4","last_reported":1737054414,"current_range_meters":30800,"station_id":"ce4bh0p2rcd13ifvqd70","pricing_plan_id":"cebpf4jnsgd1na2vs0mg"},{"bike_id":"e4756160-60fe-4ad4-bc8c-37770e5efee7","system_id":"levelo_inurba_marseille","lat":43.29057,"lon":5.37144,"is_reserved":false,"is_disabled":false,"rental_uris":{"android":"levelo://app?vid=e4756160-60fe-4ad4-bc8c-37770e5efee7","ios":"levelo://app?vid=e4756160-60fe-4ad4-bc8c-37770e5efee7"},"vehicle_type_id":"4","last_reported":1737054414,"current_range_meters":38000,"station_id":"ce4bh5p2rcd13ifvqe4g","pricing_plan_id":"cebpf4jnsgd1na2vs0mg"},{"bike_id":"9dd5eb0e-e4b7-4224-8da7-7d77946e21bf","system_id":"levelo_inurba_marseille","lat":43.30856,"lon":5.38417,"is_reserved":false,"is_disabled":true,"rental_uris":{"android":"levelo://app?vid=9dd5eb0e-e4b7-4224-8da7-7d77946e21bf","ios":"levelo://app?vid=9dd5eb0e-e4b7-4224-8da7-7d77946e21bf"},"vehicle_type_id":"4","last_reported":1737054414,"current_range_meters":2000,"station_id":"","pricing_plan_id":"cebpf4jnsgd1na2vs0mg"},{"bike_id":"2c839bfc-228b-4afd-9c45-0e54b8f36672","system_id":"levelo_inurba_marseille","lat":43.24655,"lon":5.389,"is_reserved":false,"is_disabled":false,"rental_uris":{"android":"levelo://app?vid=2c839bfc-228b-4afd-9c45-0e54b8f36672","ios":"levelo://app?vid=2c839bfc-228b-4afd-9c45-0e54b8f36672"},"vehicle_type_id":"4","last_reported":1737054414,"current_range_meters":38800,"station_id":"ce4bhg12rcd13ifvqf60","pricing_plan_id":"cebpf4jnsgd1na2vs0mg"},{"bike_id":"b1ddeadc-31f1-42f9-9a80-512818b293b3","system_id":"levelo_inurba_marseille","lat":43.294213,"lon":5.386217,"is_reserved":false,"is_disabled":false,"rental_uris":{"android":"levelo://app?vid=b1ddeadc-31f1-42f9-9a80-512818b293b3","ios":"levelo://app?vid=b1ddeadc-31f1-42f9-9a80-512818b293b3"},"vehicle_type_id":"4","last_reported":1737054414,"current_range_meters":38800,"station_id":"ce4bh2h2rcd13ifvqdh0","pricing_plan_id":"cebpf4jnsgd1na2vs0mg"},{"bike_id":"0ffbb6d5-5f43-44c9-bcfe-382d025fc0c1","system_id":"levelo_inurba_marseille","lat":43.24673,"lon":5.38145,"is_reserved":false,"is_disabled":false,"rental_uris":{"android":"levelo://app?vid=0ffbb6d5-5f43-44c9-bcfe-382d025fc0c1","ios":"levelo://app?vid=0ffbb6d5-5f43-44c9-bcfe-382d025fc0c1"},"vehicle_type_id":"4","last_reported":1737054414,"current_range_meters":18800,"station_id":"ce4bhih2rcd13ifvqfr0","pricing_plan_id":"cebpf4jnsgd1na2vs0mg"},{"bike_id":"fed11d0f-977e-443b-a693-d5ff6345bfde","system_id":"levelo_inurba_marseille","lat":43.2404,"lon":5.37725,"is_reserved":false,"is_disabled":false,"rental_uris":{"android":"levelo://app?vid=fed11d0f-977e-443b-a693-d5ff6345bfde","ios":"levelo://app?vid=fed11d0f-977e-443b-a693-d5ff6345bfde"},"vehicle_type_id":"4","last_reported":1737054414,"current_range_meters":28400,"station_id":"ce4bhnp2rcd13ifvqgvg","pricing_plan_id":"cebpf4jnsgd1na2vs0mg"},{"bike_id":"54a4f571-8730-4662-aa46-982e4a88ce26","system_id":"levelo_inurba_marseille","lat":43.29301,"lon":5.37457,"is_reserved":false,"is_disabled":false,"rental_uris":{"android":"levelo://app?vid=54a4f571-8730-4662-aa46-982e4a88ce26","ios":"levelo://app?vid=54a4f571-8730-4662-aa46-982e4a88ce26"},"vehicle_type_id":"4","last_reported":1737054414,"current_range_meters":32000,"station_id":"ce4bgi12rcd13ifvqb70","pricing_plan_id":"cebpf4jnsgd1na2vs0mg"},{"bike_id":"15b35c45-2683-40f5-bc1a-02f8c7ca4d85","system_id":"levelo_inurba_marseille","lat":43.28491,"lon":5.3842,"is_reserved":false,"is_disabled":false,"rental_uris":{"android":"levelo://app?vid=15b35c45-2683-40f5-bc1a-02f8c7ca4d85","ios":"levelo://app?vid=15b35c45-2683-40f5-bc1a-02f8c7ca4d85"},"vehicle_type_id":"4","last_reported":1737054414,"current_range_meters":8400,"station_id":"ce4bh512rcd13ifvqe3g","pricing_plan_id":"cebpf4jnsgd1na2vs0mg"},{"bike_id":"d713f6d1-865e-45c9-b9b4-c8de2d1973ff","system_id":"levelo_inurba_marseille","lat":43.27988,"lon":5.41665,"is_reserved":false,"is_disabled":false,"rental_uris":{"android":"levelo://app?vid=d713f6d1-865e-45c9-b9b4-c8de2d1973ff","ios":"levelo://app?vid=d713f6d1-865e-45c9-b9b4-c8de2d1973ff"},"vehicle_type_id":"4","last_reported":1737054414,"current_range_meters":38400,"station_id":"ce4bho12rcd13ifvqh1g","pricing_plan_id":"cebpf4jnsgd1na2vs0mg"},{"bike_id":"a15980ac-c225-4e68-8982-6cc8c4cbfd79","system_id":"levelo_inurba_marseille","lat":43.231996,"lon":5.35542,"is_reserved":false,"is_disabled":false,"rental_uris":{"android":"levelo://app?vid=a15980ac-c225-4e68-8982-6cc8c4cbfd79","ios":"levelo://app?vid=a15980ac-c225-4e68-8982-6cc8c4cbfd79"},"vehicle_type_id":"4","last_reported":1737054414,"current_range_meters":38800,"station_id":"ce4bhu92rcd13ifvqi70","pricing_plan_id":"cebpf4jnsgd1na2vs0mg"},{"bike_id":"7fa654ae-7830-4bb8-8064-8a9fb0bddebc","system_id":"levelo_inurba_marseille","lat":43.30882,"lon":5.39637,"is_reserved":false,"is_disabled":false,"rental_uris":{"android":"levelo://app?vid=7fa654ae-7830-4bb8-8064-8a9fb0bddebc","ios":"levelo://app?vid=7fa654ae-7830-4bb8-8064-8a9fb0bddebc"},"vehicle_type_id":"4","last_reported":1737054414,"current_range_meters":39200,"station_id":"ce4bh012rcd13ifvqcv0","pricing_plan_id":"cebpf4jnsgd1na2vs0mg"},{"bike_id":"0870932f-da46-45c1-9aa8-7f9f4fee2a13","system_id":"levelo_inurba_marseille","lat":43.31225,"lon":5.3685,"is_reserved":false,"is_disabled":false,"rental_uris":{"android":"levelo://app?vid=0870932f-da46-45c1-9aa8-7f9f4fee2a13","ios":"levelo://app?vid=0870932f-da46-45c1-9aa8-7f9f4fee2a13"},"vehicle_type_id":"4","last_reported":1737054414,"current_range_meters":19600,"station_id":"ce4bgl92rcd13ifvqbq0","pricing_plan_id":"cebpf4jnsgd1na2vs0mg"},{"bike_id":"9766d6c5-e220-4325-b16f-427a971cc03a","system_id":"levelo_inurba_marseille","lat":43.2962,"lon":5.37169,"is_reserved":false,"is_disabled":false,"rental_uris":{"android":"levelo://app?vid=9766d6c5-e220-4325-b16f-427a971cc03a","ios":"levelo://app?vid=9766d6c5-e220-4325-b16f-427a971cc03a"},"vehicle_type_id":"4","last_reported":1737054414,"current_range_meters":14000,"station_id":"ce4bgnh2rcd13ifvqc0g","pricing_plan_id":"cebpf4jnsgd1na2vs0mg"},{"bike_id":"b6ccc248-040f-41d1-8bad-00b4522a3543","system_id":"levelo_inurba_marseille","lat":43.29274,"lon":5.36843,"is_reserved":false,"is_disabled":false,"rental_uris":{"android":"levelo://app?vid=b6ccc248-040f-41d1-8bad-00b4522a3543","ios":"levelo://app?vid=b6ccc248-040f-41d1-8bad-00b4522a3543"},"vehicle_type_id":"4","last_reported":1737054414,"current_range_meters":21600,"station_id":"ce4bhbp2rcd13ifvqesg","pricing_plan_id":"cebpf4jnsgd1na2vs0mg"},{"bike_id":"dfa1fdd1-1fbd-4df5-a7ef-53ed4bf6496d","system_id":"levelo_inurba_marseille","lat":43.30929,"lon":5.40142,"is_reserved":false,"is_disabled":false,"rental_uris":{"android":"levelo://app?vid=dfa1fdd1-1fbd-4df5-a7ef-53ed4bf6496d","ios":"levelo://app?vid=dfa1fdd1-1fbd-4df5-a7ef-53ed4bf6496d"},"vehicle_type_id":"4","last_reported":1737054414,"current_range_meters":39200,"station_id":"ce4bgvp2rcd13ifvqct0","pricing_plan_id":"cebpf4jnsgd1na2vs0mg"},{"bike_id":"2bf14e65-d93d-45bb-bad1-71fdf26cad9f","system_id":"levelo_inurba_marseille","lat":43.25127,"lon":5.4031,"is_reserved":false,"is_disabled":false,"rental_uris":{"android":"levelo://app?vid=2bf14e65-d93d-45bb-bad1-71fdf26cad9f","ios":"levelo://app?vid=2bf14e65-d93d-45bb-bad1-71fdf26cad9f"},"vehicle_type_id":"4","last_reported":1737054414,"current_range_meters":9600,"station_id":"ce4bhlh2rcd13ifvqgig","pricing_plan_id":"cebpf4jnsgd1na2vs0mg"},{"bike_id":"116e7514-2e81-4563-a614-e60a431e2012","system_id":"levelo_inurba_marseille","lat":43.28664,"lon":5.36362,"is_reserved":false,"is_disabled":false,"rental_uris":{"android":"levelo://app?vid=116e7514-2e81-4563-a614-e60a431e2012","ios":"levelo://app?vid=116e7514-2e81-4563-a614-e60a431e2012"},"vehicle_type_id":"4","last_reported":1737054414,"current_range_meters":39200,"station_id":"ce4bhah2rcd13ifvqej0","pricing_plan_id":"cebpf4jnsgd1na2vs0mg"},{"bike_id":"e6d52744-fcef-4b04-b3e0-4aafb92377b1","system_id":"levelo_inurba_marseille","lat":43.30542,"lon":5.36702,"is_reserved":false,"is_disabled":true,"rental_uris":{"android":"levelo://app?vid=e6d52744-fcef-4b04-b3e0-4aafb92377b1","ios":"levelo://app?vid=e6d52744-fcef-4b04-b3e0-4aafb92377b1"},"vehicle_type_id":"4","last_reported":1737054414,"current_range_meters":36800,"station_id":"ce4bgrp2rcd13ifvqc9g","pricing_plan_id":"cebpf4jnsgd1na2vs0mg"},{"bike_id":"078fa2d8-b6e2-4689-814d-1564c1917c5d","system_id":"levelo_inurba_marseille","lat":43.24076,"lon":5.37735,"is_reserved":false,"is_disabled":false,"rental_uris":{"android":"levelo://app?vid=078fa2d8-b6e2-4689-814d-1564c1917c5d","ios":"levelo://app?vid=078fa2d8-b6e2-4689-814d-1564c1917c5d"},"vehicle_type_id":"4","last_reported":1737054414,"current_range_meters":38800,"station_id":"ce4bhnp2rcd13ifvqgvg","pricing_plan_id":"cebpf4jnsgd1na2vs0mg"},{"bike_id":"9be957d2-26d1-49a4-9f85-b06ee3432064","system_id":"levelo_inurba_marseille","lat":43.33733,"lon":5.39191,"is_reserved":false,"is_disabled":false,"rental_uris":{"android":"levelo://app?vid=9be957d2-26d1-49a4-9f85-b06ee3432064","ios":"levelo://app?vid=9be957d2-26d1-49a4-9f85-b06ee3432064"},"vehicle_type_id":"4","last_reported":1737054414,"current_range_meters":33600,"station_id":"ce4bhr92rcd13ifvqhsg","pricing_plan_id":"cebpf4jnsgd1na2vs0mg"},{"bike_id":"4488423e-fb64-4bbe-9192-9966dc0edac0","system_id":"levelo_inurba_marseille","lat":43.31712,"lon":5.37782,"is_reserved":false,"is_disabled":false,"rental_uris":{"android":"levelo://app?vid=4488423e-fb64-4bbe-9192-9966dc0edac0","ios":"levelo://app?vid=4488423e-fb64-4bbe-9192-9966dc0edac0"},"vehicle_type_id":"4","last_reported":1737054414,"current_range_meters":38000,"station_id":"ce4bgth2rcd13ifvqch0","pricing_plan_id":"cebpf4jnsgd1na2vs0mg"},{"bike_id":"d7dbcc25-391a-4e8a-9b74-7b40604397fc","system_id":"levelo_inurba_marseille","lat":43.33023,"lon":5.39035,"is_reserved":false,"is_disabled":false,"rental_uris":{"android":"levelo://app?vid=d7dbcc25-391a-4e8a-9b74-7b40604397fc","ios":"levelo://app?vid=d7dbcc25-391a-4e8a-9b74-7b40604397fc"},"vehicle_type_id":"4","last_reported":1737054414,"current_range_meters":38800,"station_id":"ce4bhr92rcd13ifvqhrg","pricing_plan_id":"cebpf4jnsgd1na2vs0mg"},{"bike_id":"abdea3bd-f4b8-4e57-bdda-7bcd1af14341","system_id":"levelo_inurba_marseille","lat":43.318858,"lon":5.407434,"is_reserved":false,"is_disabled":false,"rental_uris":{"android":"levelo://app?vid=abdea3bd-f4b8-4e57-bdda-7bcd1af14341","ios":"levelo://app?vid=abdea3bd-f4b8-4e57-bdda-7bcd1af14341"},"vehicle_type_id":"4","last_reported":1737054414,"current_range_meters":39200,"station_id":"ce4bhq12rcd13ifvqhig","pricing_plan_id":"cebpf4jnsgd1na2vs0mg"},{"bike_id":"b35aa2a1-d8b9-43af-bb0b-5abe2399ad3f","system_id":"levelo_inurba_marseille","lat":43.26061,"lon":5.39389,"is_reserved":false,"is_disabled":false,"rental_uris":{"android":"levelo://app?vid=b35aa2a1-d8b9-43af-bb0b-5abe2399ad3f","ios":"levelo://app?vid=b35aa2a1-d8b9-43af-bb0b-5abe2399ad3f"},"vehicle_type_id":"4","last_reported":1737054414,"current_range_meters":18800,"station_id":"ce4bhh92rcd13ifvqfj0","pricing_plan_id":"cebpf4jnsgd1na2vs0mg"},{"bike_id":"3bea599d-9d1d-4ce1-a78c-b94821d3e8a3","system_id":"levelo_inurba_marseille","lat":43.25002,"lon":5.38932,"is_reserved":false,"is_disabled":false,"rental_uris":{"android":"levelo://app?vid=3bea599d-9d1d-4ce1-a78c-b94821d3e8a3","ios":"levelo://app?vid=3bea599d-9d1d-4ce1-a78c-b94821d3e8a3"},"vehicle_type_id":"4","last_reported":1737054414,"current_range_meters":38800,"station_id":"ce4bhgp2rcd13ifvqfd0","pricing_plan_id":"cebpf4jnsgd1na2vs0mg"},{"bike_id":"4d2298b4-b398-4a2e-ac8d-5af2053ce27d","system_id":"levelo_inurba_marseille","lat":43.27617,"lon":5.36109,"is_reserved":false,"is_disabled":false,"rental_uris":{"android":"levelo://app?vid=4d2298b4-b398-4a2e-ac8d-5af2053ce27d","ios":"levelo://app?vid=4d2298b4-b398-4a2e-ac8d-5af2053ce27d"},"vehicle_type_id":"4","last_reported":1737054414,"current_range_meters":8400,"station_id":"ce4bgj92rcd13ifvqbe0","pricing_plan_id":"cebpf4jnsgd1na2vs0mg"},{"bike_id":"c72f0241-b8c1-44da-8744-7ccc8e668d26","system_id":"levelo_inurba_marseille","lat":43.24805,"lon":5.37472,"is_reserved":false,"is_disabled":false,"rental_uris":{"android":"levelo://app?vid=c72f0241-b8c1-44da-8744-7ccc8e668d26","ios":"levelo://app?vid=c72f0241-b8c1-44da-8744-7ccc8e668d26"},"vehicle_type_id":"4","last_reported":1737054414,"current_range_meters":33600,"station_id":"ce4bhgh2rcd13ifvqfb0","pricing_plan_id":"cebpf4jnsgd1na2vs0mg"},{"bike_id":"3b7186e6-26bc-41ed-accb-7520231aea1d","system_id":"levelo_inurba_marseille","lat":43.2873,"lon":5.39993,"is_reserved":false,"is_disabled":false,"rental_uris":{"android":"levelo://app?vid=3b7186e6-26bc-41ed-accb-7520231aea1d","ios":"levelo://app?vid=3b7186e6-26bc-41ed-accb-7520231aea1d"},"vehicle_type_id":"4","last_reported":1737054414,"current_range_meters":39200,"station_id":"ce4bho92rcd13ifvqh3g","pricing_plan_id":"cebpf4jnsgd1na2vs0mg"},{"bike_id":"18a4e803-9fed-490d-8b8f-cfa50d31713a","system_id":"levelo_inurba_marseille","lat":43.26055,"lon":5.39393,"is_reserved":false,"is_disabled":false,"rental_uris":{"android":"levelo://app?vid=18a4e803-9fed-490d-8b8f-cfa50d31713a","ios":"levelo://app?vid=18a4e803-9fed-490d-8b8f-cfa50d31713a"},"vehicle_type_id":"4","last_reported":1737054414,"current_range_meters":14000,"station_id":"ce4bhh92rcd13ifvqfj0","pricing_plan_id":"cebpf4jnsgd1na2vs0mg"},{"bike_id":"1a61462f-1503-4f82-8855-1d01f36a69d6","system_id":"levelo_inurba_marseille","lat":43.2902,"lon":5.38153,"is_reserved":false,"is_disabled":false,"rental_uris":{"android":"levelo://app?vid=1a61462f-1503-4f82-8855-1d01f36a69d6","ios":"levelo://app?vid=1a61462f-1503-4f82-8855-1d01f36a69d6"},"vehicle_type_id":"4","last_reported":1737054414,"current_range_meters":30000,"station_id":"ce4bh4p2rcd13ifvqe1g","pricing_plan_id":"cebpf4jnsgd1na2vs0mg"},{"bike_id":"e301c2b9-b14d-4a8e-8239-65737d8d0c3f","system_id":"levelo_inurba_marseille","lat":43.28354,"lon":5.38105,"is_reserved":false,"is_disabled":false,"rental_uris":{"android":"levelo://app?vid=e301c2b9-b14d-4a8e-8239-65737d8d0c3f","ios":"levelo://app?vid=e301c2b9-b14d-4a8e-8239-65737d8d0c3f"},"vehicle_type_id":"4","last_reported":1737054414,"current_range_meters":21600,"station_id":"ce4bh412rcd13ifvqdr0","pricing_plan_id":"cebpf4jnsgd1na2vs0mg"},{"bike_id":"4b2a9951-e9c3-48e0-8b22-f77f1838dfc7","system_id":"levelo_inurba_marseille","lat":43.29593,"lon":5.37579,"is_reserved":false,"is_disabled":false,"rental_uris":{"android":"levelo://app?vid=4b2a9951-e9c3-48e0-8b22-f77f1838dfc7","ios":"levelo://app?vid=4b2a9951-e9c3-48e0-8b22-f77f1838dfc7"},"vehicle_type_id":"4","last_reported":1737054414,"current_range_meters":15200,"station_id":"","pricing_plan_id":"cebpf4jnsgd1na2vs0mg"},{"bike_id":"f24a6f0e-9544-4f45-8664-e0810d9bc479","system_id":"levelo_inurba_marseille","lat":43.28153,"lon":5.42651,"is_reserved":false,"is_disabled":false,"rental_uris":{"android":"levelo://app?vid=f24a6f0e-9544-4f45-8664-e0810d9bc479","ios":"levelo://app?vid=f24a6f0e-9544-4f45-8664-e0810d9bc479"},"vehicle_type_id":"4","last_reported":1737054414,"current_range_meters":20400,"station_id":"ce4bhnh2rcd13ifvqgug","pricing_plan_id":"cebpf4jnsgd1na2vs0mg"},{"bike_id":"227e2104-9342-467a-bb13-dc81a29065f7","system_id":"levelo_inurba_marseille","lat":43.28486,"lon":5.38969,"is_reserved":false,"is_disabled":false,"rental_uris":{"android":"levelo://app?vid=227e2104-9342-467a-bb13-dc81a29065f7","ios":"levelo://app?vid=227e2104-9342-467a-bb13-dc81a29065f7"},"vehicle_type_id":"4","last_reported":1737054414,"current_range_meters":29600,"station_id":"","pricing_plan_id":"cebpf4jnsgd1na2vs0mg"},{"bike_id":"b2632576-d2f4-4f91-975b-2a6e65937421","system_id":"levelo_inurba_marseille","lat":43.25085,"lon":5.395119,"is_reserved":false,"is_disabled":false,"rental_uris":{"android":"levelo://app?vid=b2632576-d2f4-4f91-975b-2a6e65937421","ios":"levelo://app?vid=b2632576-d2f4-4f91-975b-2a6e65937421"},"vehicle_type_id":"4","last_reported":1737054414,"current_range_meters":33200,"station_id":"ce4bhm12rcd13ifvqgkg","pricing_plan_id":"cebpf4jnsgd1na2vs0mg"},{"bike_id":"1a4dede3-bc77-4568-811d-3cd820375dbc","system_id":"levelo_inurba_marseille","lat":43.29274,"lon":5.36853,"is_reserved":false,"is_disabled":false,"rental_uris":{"android":"levelo://app?vid=1a4dede3-bc77-4568-811d-3cd820375dbc","ios":"levelo://app?vid=1a4dede3-bc77-4568-811d-3cd820375dbc"},"vehicle_type_id":"4","last_reported":1737054414,"current_range_meters":33200,"station_id":"ce4bhbp2rcd13ifvqesg","pricing_plan_id":"cebpf4jnsgd1na2vs0mg"},{"bike_id":"6a1aca43-add9-4b6f-bb01-eda73237eebd","system_id":"levelo_inurba_marseille","lat":43.29244,"lon":5.3845,"is_reserved":false,"is_disabled":false,"rental_uris":{"android":"levelo://app?vid=6a1aca43-add9-4b6f-bb01-eda73237eebd","ios":"levelo://app?vid=6a1aca43-add9-4b6f-bb01-eda73237eebd"},"vehicle_type_id":"4","last_reported":1737054414,"current_range_meters":38800,"station_id":"ce4bh692rcd13ifvqea0","pricing_plan_id":"cebpf4jnsgd1na2vs0mg"},{"bike_id":"c2baf212-3b5f-423e-ad6b-f367686975c3","system_id":"levelo_inurba_marseille","lat":43.32481,"lon":5.3656,"is_reserved":false,"is_disabled":true,"rental_uris":{"android":"levelo://app?vid=c2baf212-3b5f-423e-ad6b-f367686975c3","ios":"levelo://app?vid=c2baf212-3b5f-423e-ad6b-f367686975c3"},"vehicle_type_id":"4","last_reported":1737054414,"current_range_meters":2000,"station_id":"ce4bhs12rcd13ifvqhvg","pricing_plan_id":"cebpf4jnsgd1na2vs0mg"},{"bike_id":"35f93268-d9ca-4676-a866-f2791e1f2c6d","system_id":"levelo_inurba_marseille","lat":43.27987,"lon":5.40036,"is_reserved":false,"is_disabled":false,"rental_uris":{"android":"levelo://app?vid=35f93268-d9ca-4676-a866-f2791e1f2c6d","ios":"levelo://app?vid=35f93268-d9ca-4676-a866-f2791e1f2c6d"},"vehicle_type_id":"4","last_reported":1737054414,"current_range_meters":10000,"station_id":"ce4bho92rcd13ifvqh4g","pricing_plan_id":"cebpf4jnsgd1na2vs0mg"},{"bike_id":"4781afe1-f472-48c7-b9f2-fa1f0239e3d2","system_id":"levelo_inurba_marseille","lat":43.23151,"lon":5.43717,"is_reserved":false,"is_disabled":false,"rental_uris":{"android":"levelo://app?vid=4781afe1-f472-48c7-b9f2-fa1f0239e3d2","ios":"levelo://app?vid=4781afe1-f472-48c7-b9f2-fa1f0239e3d2"},"vehicle_type_id":"4","last_reported":1737054414,"current_range_meters":38000,"station_id":"ce4bhmp2rcd13ifvqgog","pricing_plan_id":"cebpf4jnsgd1na2vs0mg"},{"bike_id":"1bc5285a-f8e6-470f-8534-9c1c69d7c06f","system_id":"levelo_inurba_marseille","lat":43.29577,"lon":5.37497,"is_reserved":false,"is_disabled":false,"rental_uris":{"android":"levelo://app?vid=1bc5285a-f8e6-470f-8534-9c1c69d7c06f","ios":"levelo://app?vid=1bc5285a-f8e6-470f-8534-9c1c69d7c06f"},"vehicle_type_id":"4","last_reported":1737054414,"current_range_meters":35200,"station_id":"ce4bgh92rcd13ifvqb50","pricing_plan_id":"cebpf4jnsgd1na2vs0mg"},{"bike_id":"fe5afe4f-5548-4096-b81c-1c8b034f10f5","system_id":"levelo_inurba_marseille","lat":43.29229,"lon":5.36061,"is_reserved":false,"is_disabled":false,"rental_uris":{"android":"levelo://app?vid=fe5afe4f-5548-4096-b81c-1c8b034f10f5","ios":"levelo://app?vid=fe5afe4f-5548-4096-b81c-1c8b034f10f5"},"vehicle_type_id":"4","last_reported":1737054414,"current_range_meters":22000,"station_id":"ce4bhbh2rcd13ifvqeqg","pricing_plan_id":"cebpf4jnsgd1na2vs0mg"},{"bike_id":"68d2aa27-7285-4898-92ae-751a441b0c6a","system_id":"levelo_inurba_marseille","lat":43.292291,"lon":5.362718,"is_reserved":false,"is_disabled":true,"rental_uris":{"android":"levelo://app?vid=68d2aa27-7285-4898-92ae-751a441b0c6a","ios":"levelo://app?vid=68d2aa27-7285-4898-92ae-751a441b0c6a"},"vehicle_type_id":"4","last_reported":1737054414,"current_range_meters":800,"station_id":"","pricing_plan_id":"cebpf4jnsgd1na2vs0mg"},{"bike_id":"8b636c79-4a49-40e3-9ea6-ad9baf60d593","system_id":"levelo_inurba_marseille","lat":43.29037,"lon":5.35912,"is_reserved":false,"is_disabled":false,"rental_uris":{"android":"levelo://app?vid=8b636c79-4a49-40e3-9ea6-ad9baf60d593","ios":"levelo://app?vid=8b636c79-4a49-40e3-9ea6-ad9baf60d593"},"vehicle_type_id":"4","last_reported":1737054414,"current_range_meters":25600,"station_id":"ce4bha92rcd13ifvqeg0","pricing_plan_id":"cebpf4jnsgd1na2vs0mg"},{"bike_id":"68ed5291-1070-42f8-b2af-3ba2f1c9de37","system_id":"levelo_inurba_marseille","lat":43.29261,"lon":5.38438,"is_reserved":false,"is_disabled":false,"rental_uris":{"android":"levelo://app?vid=68ed5291-1070-42f8-b2af-3ba2f1c9de37","ios":"levelo://app?vid=68ed5291-1070-42f8-b2af-3ba2f1c9de37"},"vehicle_type_id":"4","last_reported":1737054414,"current_range_meters":22800,"station_id":"ce4bh692rcd13ifvqea0","pricing_plan_id":"cebpf4jnsgd1na2vs0mg"},{"bike_id":"450e4b2e-2717-46bb-9250-32754d000e21","system_id":"levelo_inurba_marseille","lat":43.31706,"lon":5.37763,"is_reserved":false,"is_disabled":false,"rental_uris":{"android":"levelo://app?vid=450e4b2e-2717-46bb-9250-32754d000e21","ios":"levelo://app?vid=450e4b2e-2717-46bb-9250-32754d000e21"},"vehicle_type_id":"4","last_reported":1737054414,"current_range_meters":38800,"station_id":"ce4bgth2rcd13ifvqch0","pricing_plan_id":"cebpf4jnsgd1na2vs0mg"},{"bike_id":"4ab214df-7838-4bc9-b0cb-9af5f30ff903","system_id":"levelo_inurba_marseille","lat":43.30803,"lon":5.3815,"is_reserved":false,"is_disabled":false,"rental_uris":{"android":"levelo://app?vid=4ab214df-7838-4bc9-b0cb-9af5f30ff903","ios":"levelo://app?vid=4ab214df-7838-4bc9-b0cb-9af5f30ff903"},"vehicle_type_id":"4","last_reported":1737054414,"current_range_meters":38000,"station_id":"ce4bgt12rcd13ifvqce0","pricing_plan_id":"cebpf4jnsgd1na2vs0mg"},{"bike_id":"0f0eedc5-7df2-4fd9-bcaf-3cf757ddab04","system_id":"levelo_inurba_marseille","lat":43.29259,"lon":5.38433,"is_reserved":false,"is_disabled":false,"rental_uris":{"android":"levelo://app?vid=0f0eedc5-7df2-4fd9-bcaf-3cf757ddab04","ios":"levelo://app?vid=0f0eedc5-7df2-4fd9-bcaf-3cf757ddab04"},"vehicle_type_id":"4","last_reported":1737054414,"current_range_meters":38800,"station_id":"ce4bh692rcd13ifvqea0","pricing_plan_id":"cebpf4jnsgd1na2vs0mg"},{"bike_id":"3a6d1dc4-9c36-47dc-a08f-9eb94c40ac73","system_id":"levelo_inurba_marseille","lat":43.22934,"lon":5.35375,"is_reserved":false,"is_disabled":false,"rental_uris":{"android":"levelo://app?vid=3a6d1dc4-9c36-47dc-a08f-9eb94c40ac73","ios":"levelo://app?vid=3a6d1dc4-9c36-47dc-a08f-9eb94c40ac73"},"vehicle_type_id":"4","last_reported":1737054414,"current_range_meters":30400,"station_id":"cpo3532slgdg3j2ikp40","pricing_plan_id":"cebpf4jnsgd1na2vs0mg"},{"bike_id":"e390dd58-c820-4f30-936b-a1961c19f09f","system_id":"levelo_inurba_marseille","lat":43.30138,"lon":5.3878,"is_reserved":false,"is_disabled":false,"rental_uris":{"android":"levelo://app?vid=e390dd58-c820-4f30-936b-a1961c19f09f","ios":"levelo://app?vid=e390dd58-c820-4f30-936b-a1961c19f09f"},"vehicle_type_id":"4","last_reported":1737054414,"current_range_meters":24000,"station_id":"ce4bhoh2rcd13ifvqh6g","pricing_plan_id":"cebpf4jnsgd1na2vs0mg"},{"bike_id":"b8f8226c-3087-4177-968a-6603233543c4","system_id":"levelo_inurba_marseille","lat":43.26568,"lon":5.39017,"is_reserved":false,"is_disabled":false,"rental_uris":{"android":"levelo://app?vid=b8f8226c-3087-4177-968a-6603233543c4","ios":"levelo://app?vid=b8f8226c-3087-4177-968a-6603233543c4"},"vehicle_type_id":"4","last_reported":1737054414,"current_range_meters":30400,"station_id":"ce4bhe12rcd13ifvqf30","pricing_plan_id":"cebpf4jnsgd1na2vs0mg"},{"bike_id":"a4b779dc-e9f6-42d9-b786-46a4421bfccd","system_id":"levelo_inurba_marseille","lat":43.30595,"lon":5.37194,"is_reserved":false,"is_disabled":false,"rental_uris":{"android":"levelo://app?vid=a4b779dc-e9f6-42d9-b786-46a4421bfccd","ios":"levelo://app?vid=a4b779dc-e9f6-42d9-b786-46a4421bfccd"},"vehicle_type_id":"4","last_reported":1737054414,"current_range_meters":28400,"station_id":"ce4bgqh2rcd13ifvqc4g","pricing_plan_id":"cebpf4jnsgd1na2vs0mg"},{"bike_id":"10aa906e-8c50-403e-980e-7fe8342ed18e","system_id":"levelo_inurba_marseille","lat":43.30217,"lon":5.36443,"is_reserved":false,"is_disabled":true,"rental_uris":{"android":"levelo://app?vid=10aa906e-8c50-403e-980e-7fe8342ed18e","ios":"levelo://app?vid=10aa906e-8c50-403e-980e-7fe8342ed18e"},"vehicle_type_id":"4","last_reported":1737054414,"current_range_meters":0,"station_id":"ce4bgs12rcd13ifvqcag","pricing_plan_id":"cebpf4jnsgd1na2vs0mg"},{"bike_id":"f21955f8-a46c-4890-be70-66409620de02","system_id":"levelo_inurba_marseille","lat":43.23193,"lon":5.39978,"is_reserved":false,"is_disabled":false,"rental_uris":{"android":"levelo://app?vid=f21955f8-a46c-4890-be70-66409620de02","ios":"levelo://app?vid=f21955f8-a46c-4890-be70-66409620de02"},"vehicle_type_id":"4","last_reported":1737054414,"current_range_meters":8800,"station_id":"ce4bhn12rcd13ifvqgqg","pricing_plan_id":"cebpf4jnsgd1na2vs0mg"},{"bike_id":"34709e64-d1c8-4538-88a5-33805792c0a5","system_id":"levelo_inurba_marseille","lat":43.258268,"lon":5.394332,"is_reserved":false,"is_disabled":false,"rental_uris":{"android":"levelo://app?vid=34709e64-d1c8-4538-88a5-33805792c0a5","ios":"levelo://app?vid=34709e64-d1c8-4538-88a5-33805792c0a5"},"vehicle_type_id":"4","last_reported":1737054414,"current_range_meters":38800,"station_id":"ce4bhip2rcd13ifvqft0","pricing_plan_id":"cebpf4jnsgd1na2vs0mg"},{"bike_id":"5629894f-4d5c-4f55-9e8f-12791e838546","system_id":"levelo_inurba_marseille","lat":43.25579,"lon":5.38237,"is_reserved":false,"is_disabled":false,"rental_uris":{"android":"levelo://app?vid=5629894f-4d5c-4f55-9e8f-12791e838546","ios":"levelo://app?vid=5629894f-4d5c-4f55-9e8f-12791e838546"},"vehicle_type_id":"4","last_reported":1737054414,"current_range_meters":38800,"station_id":"ce4bhih2rcd13ifvqfs0","pricing_plan_id":"cebpf4jnsgd1na2vs0mg"},{"bike_id":"d39da91a-b698-4714-a206-e0164b345cc7","system_id":"levelo_inurba_marseille","lat":43.25581,"lon":5.38235,"is_reserved":false,"is_disabled":false,"rental_uris":{"android":"levelo://app?vid=d39da91a-b698-4714-a206-e0164b345cc7","ios":"levelo://app?vid=d39da91a-b698-4714-a206-e0164b345cc7"},"vehicle_type_id":"4","last_reported":1737054414,"current_range_meters":39200,"station_id":"ce4bhih2rcd13ifvqfs0","pricing_plan_id":"cebpf4jnsgd1na2vs0mg"},{"bike_id":"f2be7778-b6de-4880-adcb-065b4a5b8e7d","system_id":"levelo_inurba_marseille","lat":43.32332,"lon":5.40619,"is_reserved":false,"is_disabled":false,"rental_uris":{"android":"levelo://app?vid=f2be7778-b6de-4880-adcb-065b4a5b8e7d","ios":"levelo://app?vid=f2be7778-b6de-4880-adcb-065b4a5b8e7d"},"vehicle_type_id":"4","last_reported":1737054414,"current_range_meters":38800,"station_id":"ce4bhq92rcd13ifvqhjg","pricing_plan_id":"cebpf4jnsgd1na2vs0mg"},{"bike_id":"7a26b63c-652f-4d2d-8353-1a9dfb4e945a","system_id":"levelo_inurba_marseille","lat":43.33726,"lon":5.39186,"is_reserved":false,"is_disabled":false,"rental_uris":{"android":"levelo://app?vid=7a26b63c-652f-4d2d-8353-1a9dfb4e945a","ios":"levelo://app?vid=7a26b63c-652f-4d2d-8353-1a9dfb4e945a"},"vehicle_type_id":"4","last_reported":1737054414,"current_range_meters":38800,"station_id":"ce4bhr92rcd13ifvqhsg","pricing_plan_id":"cebpf4jnsgd1na2vs0mg"},{"bike_id":"6f3d53e4-85fb-45af-b662-bd72d6722deb","system_id":"levelo_inurba_marseille","lat":43.289357,"lon":5.366457,"is_reserved":false,"is_disabled":false,"rental_uris":{"android":"levelo://app?vid=6f3d53e4-85fb-45af-b662-bd72d6722deb","ios":"levelo://app?vid=6f3d53e4-85fb-45af-b662-bd72d6722deb"},"vehicle_type_id":"4","last_reported":1737054414,"current_range_meters":36000,"station_id":"ce4bhap2rcd13ifvqek0","pricing_plan_id":"cebpf4jnsgd1na2vs0mg"},{"bike_id":"bc274394-84df-40ba-9afe-ec83a73ce11b","system_id":"levelo_inurba_marseille","lat":43.27509,"lon":5.42445,"is_reserved":false,"is_disabled":false,"rental_uris":{"android":"levelo://app?vid=bc274394-84df-40ba-9afe-ec83a73ce11b","ios":"levelo://app?vid=bc274394-84df-40ba-9afe-ec83a73ce11b"},"vehicle_type_id":"4","last_reported":1737054414,"current_range_meters":18000,"station_id":"ce4bhn92rcd13ifvqgrg","pricing_plan_id":"cebpf4jnsgd1na2vs0mg"},{"bike_id":"56b8e9bc-f750-4815-bc98-9098414d16db","system_id":"levelo_inurba_marseille","lat":43.23193,"lon":5.35557,"is_reserved":false,"is_disabled":true,"rental_uris":{"android":"levelo://app?vid=56b8e9bc-f750-4815-bc98-9098414d16db","ios":"levelo://app?vid=56b8e9bc-f750-4815-bc98-9098414d16db"},"vehicle_type_id":"4","last_reported":1737054414,"current_range_meters":0,"station_id":"ce4bhu92rcd13ifvqi70","pricing_plan_id":"cebpf4jnsgd1na2vs0mg"},{"bike_id":"cd7904bf-4c14-432c-8b2f-3ca2e8b403b5","system_id":"levelo_inurba_marseille","lat":43.29034,"lon":5.38651,"is_reserved":false,"is_disabled":false,"rental_uris":{"android":"levelo://app?vid=cd7904bf-4c14-432c-8b2f-3ca2e8b403b5","ios":"levelo://app?vid=cd7904bf-4c14-432c-8b2f-3ca2e8b403b5"},"vehicle_type_id":"4","last_reported":1737054414,"current_range_meters":10800,"station_id":"ce4bh4p2rcd13ifvqe0g","pricing_plan_id":"cebpf4jnsgd1na2vs0mg"},{"bike_id":"efc3d83f-d7a8-4c74-a1fb-2e2a9f71f030","system_id":"levelo_inurba_marseille","lat":43.29586,"lon":5.38487,"is_reserved":false,"is_disabled":false,"rental_uris":{"android":"levelo://app?vid=efc3d83f-d7a8-4c74-a1fb-2e2a9f71f030","ios":"levelo://app?vid=efc3d83f-d7a8-4c74-a1fb-2e2a9f71f030"},"vehicle_type_id":"4","last_reported":1737054414,"current_range_meters":29600,"station_id":"","pricing_plan_id":"cebpf4jnsgd1na2vs0mg"},{"bike_id":"d7a710b0-adff-4c5c-bf44-f4013363962c","system_id":"levelo_inurba_marseille","lat":43.24691,"lon":5.39444,"is_reserved":false,"is_disabled":false,"rental_uris":{"android":"levelo://app?vid=d7a710b0-adff-4c5c-bf44-f4013363962c","ios":"levelo://app?vid=d7a710b0-adff-4c5c-bf44-f4013363962c"},"vehicle_type_id":"4","last_reported":1737054414,"current_range_meters":38800,"station_id":"","pricing_plan_id":"cebpf4jnsgd1na2vs0mg"},{"bike_id":"90d35e5c-f91c-4599-91cd-d5ef04b253fa","system_id":"levelo_inurba_marseille","lat":43.29037,"lon":5.39959,"is_reserved":false,"is_disabled":false,"rental_uris":{"android":"levelo://app?vid=90d35e5c-f91c-4599-91cd-d5ef04b253fa","ios":"levelo://app?vid=90d35e5c-f91c-4599-91cd-d5ef04b253fa"},"vehicle_type_id":"4","last_reported":1737054414,"current_range_meters":32000,"station_id":"ce4bh392rcd13ifvqdm0","pricing_plan_id":"cebpf4jnsgd1na2vs0mg"},{"bike_id":"f47ab076-41f5-4143-87f1-14710ac278f6","system_id":"levelo_inurba_marseille","lat":43.29016,"lon":5.38624,"is_reserved":false,"is_disabled":false,"rental_uris":{"android":"levelo://app?vid=f47ab076-41f5-4143-87f1-14710ac278f6","ios":"levelo://app?vid=f47ab076-41f5-4143-87f1-14710ac278f6"},"vehicle_type_id":"4","last_reported":1737054414,"current_range_meters":38800,"station_id":"ce4bh4p2rcd13ifvqe0g","pricing_plan_id":"cebpf4jnsgd1na2vs0mg"},{"bike_id":"e3d9a33a-1891-4890-93e0-435a22ab97a5","system_id":"levelo_inurba_marseille","lat":43.27998,"lon":5.40024,"is_reserved":false,"is_disabled":false,"rental_uris":{"android":"levelo://app?vid=e3d9a33a-1891-4890-93e0-435a22ab97a5","ios":"levelo://app?vid=e3d9a33a-1891-4890-93e0-435a22ab97a5"},"vehicle_type_id":"4","last_reported":1737054414,"current_range_meters":39200,"station_id":"ce4bho92rcd13ifvqh4g","pricing_plan_id":"cebpf4jnsgd1na2vs0mg"},{"bike_id":"a1efa4cb-90b8-4ba7-95c5-9f7094dd45e5","system_id":"levelo_inurba_marseille","lat":43.25111,"lon":5.40326,"is_reserved":false,"is_disabled":false,"rental_uris":{"android":"levelo://app?vid=a1efa4cb-90b8-4ba7-95c5-9f7094dd45e5","ios":"levelo://app?vid=a1efa4cb-90b8-4ba7-95c5-9f7094dd45e5"},"vehicle_type_id":"4","last_reported":1737054414,"current_range_meters":26800,"station_id":"ce4bhlh2rcd13ifvqgig","pricing_plan_id":"cebpf4jnsgd1na2vs0mg"},{"bike_id":"3badb9dc-30c2-4fd6-ba97-722705a3b10c","system_id":"levelo_inurba_marseille","lat":43.33028,"lon":5.39033,"is_reserved":false,"is_disabled":false,"rental_uris":{"android":"levelo://app?vid=3badb9dc-30c2-4fd6-ba97-722705a3b10c","ios":"levelo://app?vid=3badb9dc-30c2-4fd6-ba97-722705a3b10c"},"vehicle_type_id":"4","last_reported":1737054414,"current_range_meters":9600,"station_id":"ce4bhr92rcd13ifvqhrg","pricing_plan_id":"cebpf4jnsgd1na2vs0mg"},{"bike_id":"2e70836a-a10f-4618-953a-21e9a7e8b8d7","system_id":"levelo_inurba_marseille","lat":43.28423,"lon":5.37506,"is_reserved":false,"is_disabled":false,"rental_uris":{"android":"levelo://app?vid=2e70836a-a10f-4618-953a-21e9a7e8b8d7","ios":"levelo://app?vid=2e70836a-a10f-4618-953a-21e9a7e8b8d7"},"vehicle_type_id":"4","last_reported":1737054414,"current_range_meters":28800,"station_id":"ce4bh412rcd13ifvqds0","pricing_plan_id":"cebpf4jnsgd1na2vs0mg"},{"bike_id":"7607e5e4-bfb0-479d-9bfe-af6a7bc68285","system_id":"levelo_inurba_marseille","lat":43.28032,"lon":5.36949,"is_reserved":false,"is_disabled":false,"rental_uris":{"android":"levelo://app?vid=7607e5e4-bfb0-479d-9bfe-af6a7bc68285","ios":"levelo://app?vid=7607e5e4-bfb0-479d-9bfe-af6a7bc68285"},"vehicle_type_id":"4","last_reported":1737054414,"current_range_meters":16400,"station_id":"ce4bha12rcd13ifvqef0","pricing_plan_id":"cebpf4jnsgd1na2vs0mg"},{"bike_id":"22465212-93af-4e0b-b803-6ee82bba56d5","system_id":"levelo_inurba_marseille","lat":43.33764,"lon":5.37502,"is_reserved":false,"is_disabled":false,"rental_uris":{"android":"levelo://app?vid=22465212-93af-4e0b-b803-6ee82bba56d5","ios":"levelo://app?vid=22465212-93af-4e0b-b803-6ee82bba56d5"},"vehicle_type_id":"4","last_reported":1737054414,"current_range_meters":32800,"station_id":"","pricing_plan_id":"cebpf4jnsgd1na2vs0mg"},{"bike_id":"c51cc554-db55-4370-8ce5-1d643e4f4fac","system_id":"levelo_inurba_marseille","lat":43.31073,"lon":5.38353,"is_reserved":false,"is_disabled":false,"rental_uris":{"android":"levelo://app?vid=c51cc554-db55-4370-8ce5-1d643e4f4fac","ios":"levelo://app?vid=c51cc554-db55-4370-8ce5-1d643e4f4fac"},"vehicle_type_id":"4","last_reported":1737054414,"current_range_meters":38800,"station_id":"ce4bgv92rcd13ifvqcr0","pricing_plan_id":"cebpf4jnsgd1na2vs0mg"},{"bike_id":"aa35c715-5425-4ad7-abd4-5464410ee847","system_id":"levelo_inurba_marseille","lat":43.29273,"lon":5.36849,"is_reserved":false,"is_disabled":false,"rental_uris":{"android":"levelo://app?vid=aa35c715-5425-4ad7-abd4-5464410ee847","ios":"levelo://app?vid=aa35c715-5425-4ad7-abd4-5464410ee847"},"vehicle_type_id":"4","last_reported":1737054414,"current_range_meters":35600,"station_id":"ce4bhbp2rcd13ifvqesg","pricing_plan_id":"cebpf4jnsgd1na2vs0mg"},{"bike_id":"fc705563-96e6-45d0-adb3-8588f3962dd4","system_id":"levelo_inurba_marseille","lat":43.32366,"lon":5.38884,"is_reserved":false,"is_disabled":false,"rental_uris":{"android":"levelo://app?vid=fc705563-96e6-45d0-adb3-8588f3962dd4","ios":"levelo://app?vid=fc705563-96e6-45d0-adb3-8588f3962dd4"},"vehicle_type_id":"4","last_reported":1737054414,"current_range_meters":32000,"station_id":"ce4bhqp2rcd13ifvqhog","pricing_plan_id":"cebpf4jnsgd1na2vs0mg"},{"bike_id":"5c97235d-ea18-48ea-8ba2-f87f1c49c224","system_id":"levelo_inurba_marseille","lat":43.26936,"lon":5.40263,"is_reserved":false,"is_disabled":false,"rental_uris":{"android":"levelo://app?vid=5c97235d-ea18-48ea-8ba2-f87f1c49c224","ios":"levelo://app?vid=5c97235d-ea18-48ea-8ba2-f87f1c49c224"},"vehicle_type_id":"4","last_reported":1737054414,"current_range_meters":24000,"station_id":"cjm6bp8fraef2m0cb0m0","pricing_plan_id":"cebpf4jnsgd1na2vs0mg"},{"bike_id":"ec41b1e8-bba3-4e66-982f-aeea97468d8d","system_id":"levelo_inurba_marseille","lat":43.30638,"lon":5.40056,"is_reserved":false,"is_disabled":true,"rental_uris":{"android":"levelo://app?vid=ec41b1e8-bba3-4e66-982f-aeea97468d8d","ios":"levelo://app?vid=ec41b1e8-bba3-4e66-982f-aeea97468d8d"},"vehicle_type_id":"4","last_reported":1737054414,"current_range_meters":0,"station_id":"ce4bh112rcd13ifvqda0","pricing_plan_id":"cebpf4jnsgd1na2vs0mg"},{"bike_id":"4f40294b-90bc-42b3-a9e8-60d34148d04c","system_id":"levelo_inurba_marseille","lat":43.26194,"lon":5.37451,"is_reserved":false,"is_disabled":false,"rental_uris":{"android":"levelo://app?vid=4f40294b-90bc-42b3-a9e8-60d34148d04c","ios":"levelo://app?vid=4f40294b-90bc-42b3-a9e8-60d34148d04c"},"vehicle_type_id":"4","last_reported":1737054414,"current_range_meters":6800,"station_id":"ce4bhgp2rcd13ifvqfc0","pricing_plan_id":"cebpf4jnsgd1na2vs0mg"},{"bike_id":"f66c6286-c4cd-419d-a794-1dcbc590ec83","system_id":"levelo_inurba_marseille","lat":43.26462,"lon":5.39553,"is_reserved":false,"is_disabled":true,"rental_uris":{"android":"levelo://app?vid=f66c6286-c4cd-419d-a794-1dcbc590ec83","ios":"levelo://app?vid=f66c6286-c4cd-419d-a794-1dcbc590ec83"},"vehicle_type_id":"4","last_reported":1737054414,"current_range_meters":1600,"station_id":"ce4bhi12rcd13ifvqfq0","pricing_plan_id":"cebpf4jnsgd1na2vs0mg"},{"bike_id":"4665b84d-70b6-4332-a9e2-7d81094a4c02","system_id":"levelo_inurba_marseille","lat":43.30911,"lon":5.36848,"is_reserved":false,"is_disabled":false,"rental_uris":{"android":"levelo://app?vid=4665b84d-70b6-4332-a9e2-7d81094a4c02","ios":"levelo://app?vid=4665b84d-70b6-4332-a9e2-7d81094a4c02"},"vehicle_type_id":"4","last_reported":1737054414,"current_range_meters":18000,"station_id":"ce4bgn92rcd13ifvqbvg","pricing_plan_id":"cebpf4jnsgd1na2vs0mg"},{"bike_id":"12d1acc0-d47e-4031-b610-839a5a37f231","system_id":"levelo_inurba_marseille","lat":43.30774,"lon":5.37658,"is_reserved":false,"is_disabled":false,"rental_uris":{"android":"levelo://app?vid=12d1acc0-d47e-4031-b610-839a5a37f231","ios":"levelo://app?vid=12d1acc0-d47e-4031-b610-839a5a37f231"},"vehicle_type_id":"4","last_reported":1737054414,"current_range_meters":30800,"station_id":"ce4bgv92rcd13ifvqcq0","pricing_plan_id":"cebpf4jnsgd1na2vs0mg"},{"bike_id":"23159e8b-783e-416b-bd80-a5f9bdb7ac0b","system_id":"levelo_inurba_marseille","lat":43.30145,"lon":5.37426,"is_reserved":false,"is_disabled":false,"rental_uris":{"android":"levelo://app?vid=23159e8b-783e-416b-bd80-a5f9bdb7ac0b","ios":"levelo://app?vid=23159e8b-783e-416b-bd80-a5f9bdb7ac0b"},"vehicle_type_id":"4","last_reported":1737054414,"current_range_meters":20400,"station_id":"ce4bgs92rcd13ifvqcc0","pricing_plan_id":"cebpf4jnsgd1na2vs0mg"},{"bike_id":"e501bc45-b105-4431-b368-9d9682b80a8a","system_id":"levelo_inurba_marseille","lat":43.24389,"lon":5.37056,"is_reserved":false,"is_disabled":false,"rental_uris":{"android":"levelo://app?vid=e501bc45-b105-4431-b368-9d9682b80a8a","ios":"levelo://app?vid=e501bc45-b105-4431-b368-9d9682b80a8a"},"vehicle_type_id":"4","last_reported":1737054414,"current_range_meters":34000,"station_id":"ce4bhhh2rcd13ifvqfk0","pricing_plan_id":"cebpf4jnsgd1na2vs0mg"},{"bike_id":"3cd05619-9ee7-44d6-b4c8-4f199045fa98","system_id":"levelo_inurba_marseille","lat":43.32044,"lon":5.41604,"is_reserved":false,"is_disabled":false,"rental_uris":{"android":"levelo://app?vid=3cd05619-9ee7-44d6-b4c8-4f199045fa98","ios":"levelo://app?vid=3cd05619-9ee7-44d6-b4c8-4f199045fa98"},"vehicle_type_id":"4","last_reported":1737054414,"current_range_meters":38800,"station_id":"ce4bhq92rcd13ifvqhkg","pricing_plan_id":"cebpf4jnsgd1na2vs0mg"},{"bike_id":"88f06cab-f371-470b-85ff-7238b57cbcc5","system_id":"levelo_inurba_marseille","lat":43.25867,"lon":5.39896,"is_reserved":false,"is_disabled":false,"rental_uris":{"android":"levelo://app?vid=88f06cab-f371-470b-85ff-7238b57cbcc5","ios":"levelo://app?vid=88f06cab-f371-470b-85ff-7238b57cbcc5"},"vehicle_type_id":"4","last_reported":1737054414,"current_range_meters":16000,"station_id":"ce4bhl92rcd13ifvqghg","pricing_plan_id":"cebpf4jnsgd1na2vs0mg"},{"bike_id":"6a7366d7-ed8c-4629-bf0c-70c2abcda36d","system_id":"levelo_inurba_marseille","lat":43.23189,"lon":5.3556,"is_reserved":false,"is_disabled":false,"rental_uris":{"android":"levelo://app?vid=6a7366d7-ed8c-4629-bf0c-70c2abcda36d","ios":"levelo://app?vid=6a7366d7-ed8c-4629-bf0c-70c2abcda36d"},"vehicle_type_id":"4","last_reported":1737054414,"current_range_meters":10000,"station_id":"ce4bhu92rcd13ifvqi70","pricing_plan_id":"cebpf4jnsgd1na2vs0mg"},{"bike_id":"fb728eb9-c6dd-478e-b742-f6d266b3696e","system_id":"levelo_inurba_marseille","lat":43.2406,"lon":5.37749,"is_reserved":false,"is_disabled":false,"rental_uris":{"android":"levelo://app?vid=fb728eb9-c6dd-478e-b742-f6d266b3696e","ios":"levelo://app?vid=fb728eb9-c6dd-478e-b742-f6d266b3696e"},"vehicle_type_id":"4","last_reported":1737054414,"current_range_meters":20000,"station_id":"ce4bhnp2rcd13ifvqgvg","pricing_plan_id":"cebpf4jnsgd1na2vs0mg"},{"bike_id":"2d7f3353-743b-41e1-85f2-e32181d4ae48","system_id":"levelo_inurba_marseille","lat":43.31992,"lon":5.38146,"is_reserved":false,"is_disabled":false,"rental_uris":{"android":"levelo://app?vid=2d7f3353-743b-41e1-85f2-e32181d4ae48","ios":"levelo://app?vid=2d7f3353-743b-41e1-85f2-e32181d4ae48"},"vehicle_type_id":"4","last_reported":1737054414,"current_range_meters":32000,"station_id":"ce4bhr12rcd13ifvqhpg","pricing_plan_id":"cebpf4jnsgd1na2vs0mg"},{"bike_id":"573076c8-1172-47e5-b129-cb987286e5ee","system_id":"levelo_inurba_marseille","lat":43.278085,"lon":5.407185,"is_reserved":false,"is_disabled":false,"rental_uris":{"android":"levelo://app?vid=573076c8-1172-47e5-b129-cb987286e5ee","ios":"levelo://app?vid=573076c8-1172-47e5-b129-cb987286e5ee"},"vehicle_type_id":"4","last_reported":1737054414,"current_range_meters":38800,"station_id":"ce4bhnh2rcd13ifvqgtg","pricing_plan_id":"cebpf4jnsgd1na2vs0mg"},{"bike_id":"88793ffa-01a3-4e34-be8c-e520fd17e5e5","system_id":"levelo_inurba_marseille","lat":43.294235,"lon":5.386252,"is_reserved":false,"is_disabled":false,"rental_uris":{"android":"levelo://app?vid=88793ffa-01a3-4e34-be8c-e520fd17e5e5","ios":"levelo://app?vid=88793ffa-01a3-4e34-be8c-e520fd17e5e5"},"vehicle_type_id":"4","last_reported":1737054414,"current_range_meters":26000,"station_id":"ce4bh2h2rcd13ifvqdh0","pricing_plan_id":"cebpf4jnsgd1na2vs0mg"},{"bike_id":"35deb437-7ef2-4ee7-9ea5-27ce0001ca7b","system_id":"levelo_inurba_marseille","lat":43.26064,"lon":5.39398,"is_reserved":false,"is_disabled":false,"rental_uris":{"android":"levelo://app?vid=35deb437-7ef2-4ee7-9ea5-27ce0001ca7b","ios":"levelo://app?vid=35deb437-7ef2-4ee7-9ea5-27ce0001ca7b"},"vehicle_type_id":"4","last_reported":1737054414,"current_range_meters":38800,"station_id":"ce4bhh92rcd13ifvqfj0","pricing_plan_id":"cebpf4jnsgd1na2vs0mg"},{"bike_id":"d4e89925-3c31-4528-b1bf-cdde90d4148e","system_id":"levelo_inurba_marseille","lat":43.29865,"lon":5.39734,"is_reserved":false,"is_disabled":false,"rental_uris":{"android":"levelo://app?vid=d4e89925-3c31-4528-b1bf-cdde90d4148e","ios":"levelo://app?vid=d4e89925-3c31-4528-b1bf-cdde90d4148e"},"vehicle_type_id":"4","last_reported":1737054414,"current_range_meters":24000,"station_id":"ce4bh0h2rcd13ifvqd50","pricing_plan_id":"cebpf4jnsgd1na2vs0mg"},{"bike_id":"006eddf6-3b41-4a21-a985-f7a4350b5bf4","system_id":"levelo_inurba_marseille","lat":43.26041,"lon":5.39378,"is_reserved":false,"is_disabled":false,"rental_uris":{"android":"levelo://app?vid=006eddf6-3b41-4a21-a985-f7a4350b5bf4","ios":"levelo://app?vid=006eddf6-3b41-4a21-a985-f7a4350b5bf4"},"vehicle_type_id":"4","last_reported":1737054414,"current_range_meters":32000,"station_id":"ce4bhh92rcd13ifvqfj0","pricing_plan_id":"cebpf4jnsgd1na2vs0mg"},{"bike_id":"ed6fa31d-6e12-4552-91b0-03f764193d1c","system_id":"levelo_inurba_marseille","lat":43.30875,"lon":5.39617,"is_reserved":false,"is_disabled":false,"rental_uris":{"android":"levelo://app?vid=ed6fa31d-6e12-4552-91b0-03f764193d1c","ios":"levelo://app?vid=ed6fa31d-6e12-4552-91b0-03f764193d1c"},"vehicle_type_id":"4","last_reported":1737054414,"current_range_meters":20000,"station_id":"ce4bh012rcd13ifvqcv0","pricing_plan_id":"cebpf4jnsgd1na2vs0mg"},{"bike_id":"e2b2f78a-aa43-4460-82ba-2098e62e5e5c","system_id":"levelo_inurba_marseille","lat":43.32343,"lon":5.40603,"is_reserved":false,"is_disabled":false,"rental_uris":{"android":"levelo://app?vid=e2b2f78a-aa43-4460-82ba-2098e62e5e5c","ios":"levelo://app?vid=e2b2f78a-aa43-4460-82ba-2098e62e5e5c"},"vehicle_type_id":"4","last_reported":1737054414,"current_range_meters":38800,"station_id":"ce4bhq92rcd13ifvqhjg","pricing_plan_id":"cebpf4jnsgd1na2vs0mg"},{"bike_id":"36452efb-96f9-445e-b317-33f71c9508e2","system_id":"levelo_inurba_marseille","lat":43.29421,"lon":5.38634,"is_reserved":false,"is_disabled":false,"rental_uris":{"android":"levelo://app?vid=36452efb-96f9-445e-b317-33f71c9508e2","ios":"levelo://app?vid=36452efb-96f9-445e-b317-33f71c9508e2"},"vehicle_type_id":"4","last_reported":1737054414,"current_range_meters":28800,"station_id":"ce4bh2h2rcd13ifvqdh0","pricing_plan_id":"cebpf4jnsgd1na2vs0mg"},{"bike_id":"5d42a98e-bef8-43af-946e-751274f82d4c","system_id":"levelo_inurba_marseille","lat":43.23652,"lon":5.43591,"is_reserved":false,"is_disabled":true,"rental_uris":{"android":"levelo://app?vid=5d42a98e-bef8-43af-946e-751274f82d4c","ios":"levelo://app?vid=5d42a98e-bef8-43af-946e-751274f82d4c"},"vehicle_type_id":"4","last_reported":1737054414,"current_range_meters":30800,"station_id":"","pricing_plan_id":"cebpf4jnsgd1na2vs0mg"},{"bike_id":"34984edb-db06-4534-b336-9d37c344a8c7","system_id":"levelo_inurba_marseille","lat":43.3013,"lon":5.38788,"is_reserved":false,"is_disabled":false,"rental_uris":{"android":"levelo://app?vid=34984edb-db06-4534-b336-9d37c344a8c7","ios":"levelo://app?vid=34984edb-db06-4534-b336-9d37c344a8c7"},"vehicle_type_id":"4","last_reported":1737054414,"current_range_meters":38400,"station_id":"ce4bghh2rcd13ifvqb60","pricing_plan_id":"cebpf4jnsgd1na2vs0mg"},{"bike_id":"9fef62c1-09f6-4d53-ab83-76888bceebbd","system_id":"levelo_inurba_marseille","lat":43.26179,"lon":5.42063,"is_reserved":false,"is_disabled":false,"rental_uris":{"android":"levelo://app?vid=9fef62c1-09f6-4d53-ab83-76888bceebbd","ios":"levelo://app?vid=9fef62c1-09f6-4d53-ab83-76888bceebbd"},"vehicle_type_id":"4","last_reported":1737054414,"current_range_meters":27600,"station_id":"","pricing_plan_id":"cebpf4jnsgd1na2vs0mg"},{"bike_id":"aebdac77-20b6-4157-94b5-ede5a1b97d03","system_id":"levelo_inurba_marseille","lat":43.29598,"lon":5.38102,"is_reserved":false,"is_disabled":false,"rental_uris":{"android":"levelo://app?vid=aebdac77-20b6-4157-94b5-ede5a1b97d03","ios":"levelo://app?vid=aebdac77-20b6-4157-94b5-ede5a1b97d03"},"vehicle_type_id":"4","last_reported":1737054414,"current_range_meters":38400,"station_id":"ce4bgl12rcd13ifvqbo0","pricing_plan_id":"cebpf4jnsgd1na2vs0mg"},{"bike_id":"f82b49c3-eae7-4beb-9bf0-f2964a4e2408","system_id":"levelo_inurba_marseille","lat":43.25869,"lon":5.39899,"is_reserved":false,"is_disabled":false,"rental_uris":{"android":"levelo://app?vid=f82b49c3-eae7-4beb-9bf0-f2964a4e2408","ios":"levelo://app?vid=f82b49c3-eae7-4beb-9bf0-f2964a4e2408"},"vehicle_type_id":"4","last_reported":1737054414,"current_range_meters":38800,"station_id":"ce4bhl92rcd13ifvqghg","pricing_plan_id":"cebpf4jnsgd1na2vs0mg"},{"bike_id":"70458501-78f7-4652-bc47-95dbf7b28673","system_id":"levelo_inurba_marseille","lat":43.31073,"lon":5.38352,"is_reserved":false,"is_disabled":false,"rental_uris":{"android":"levelo://app?vid=70458501-78f7-4652-bc47-95dbf7b28673","ios":"levelo://app?vid=70458501-78f7-4652-bc47-95dbf7b28673"},"vehicle_type_id":"4","last_reported":1737054414,"current_range_meters":19600,"station_id":"ce4bgv92rcd13ifvqcr0","pricing_plan_id":"cebpf4jnsgd1na2vs0mg"},{"bike_id":"c00bc195-a15c-4f3b-9a6a-fb6af373d505","system_id":"levelo_inurba_marseille","lat":43.3307,"lon":5.39023,"is_reserved":false,"is_disabled":false,"rental_uris":{"android":"levelo://app?vid=c00bc195-a15c-4f3b-9a6a-fb6af373d505","ios":"levelo://app?vid=c00bc195-a15c-4f3b-9a6a-fb6af373d505"},"vehicle_type_id":"4","last_reported":1737054414,"current_range_meters":25600,"station_id":"","pricing_plan_id":"cebpf4jnsgd1na2vs0mg"},{"bike_id":"95e5cef9-a6ab-4163-8090-529e2f8b5216","system_id":"levelo_inurba_marseille","lat":43.28447,"lon":5.39205,"is_reserved":false,"is_disabled":false,"rental_uris":{"android":"levelo://app?vid=95e5cef9-a6ab-4163-8090-529e2f8b5216","ios":"levelo://app?vid=95e5cef9-a6ab-4163-8090-529e2f8b5216"},"vehicle_type_id":"4","last_reported":1737054414,"current_range_meters":11200,"station_id":"ce4bhoh2rcd13ifvqh5g","pricing_plan_id":"cebpf4jnsgd1na2vs0mg"},{"bike_id":"22bcfc63-71b5-42f3-bcaa-3c604649d561","system_id":"levelo_inurba_marseille","lat":43.29418,"lon":5.38629,"is_reserved":false,"is_disabled":false,"rental_uris":{"android":"levelo://app?vid=22bcfc63-71b5-42f3-bcaa-3c604649d561","ios":"levelo://app?vid=22bcfc63-71b5-42f3-bcaa-3c604649d561"},"vehicle_type_id":"4","last_reported":1737054414,"current_range_meters":8000,"station_id":"ce4bh2h2rcd13ifvqdh0","pricing_plan_id":"cebpf4jnsgd1na2vs0mg"},{"bike_id":"e21a33db-4ff7-44b2-a73f-b5c05a38c476","system_id":"levelo_inurba_marseille","lat":43.254906,"lon":5.376489,"is_reserved":false,"is_disabled":false,"rental_uris":{"android":"levelo://app?vid=e21a33db-4ff7-44b2-a73f-b5c05a38c476","ios":"levelo://app?vid=e21a33db-4ff7-44b2-a73f-b5c05a38c476"},"vehicle_type_id":"4","last_reported":1737054414,"current_range_meters":37600,"station_id":"ce4bhh12rcd13ifvqff0","pricing_plan_id":"cebpf4jnsgd1na2vs0mg"},{"bike_id":"bb069b90-e19b-44a3-90f1-6ebea9546b0e","system_id":"levelo_inurba_marseille","lat":43.29583,"lon":5.39973,"is_reserved":false,"is_disabled":false,"rental_uris":{"android":"levelo://app?vid=bb069b90-e19b-44a3-90f1-6ebea9546b0e","ios":"levelo://app?vid=bb069b90-e19b-44a3-90f1-6ebea9546b0e"},"vehicle_type_id":"4","last_reported":1737054414,"current_range_meters":22000,"station_id":"ce4bh312rcd13ifvqdj0","pricing_plan_id":"cebpf4jnsgd1na2vs0mg"},{"bike_id":"ea68a76e-b4c6-4be9-ab98-1a2f34b18dea","system_id":"levelo_inurba_marseille","lat":43.24173,"lon":5.3975,"is_reserved":false,"is_disabled":false,"rental_uris":{"android":"levelo://app?vid=ea68a76e-b4c6-4be9-ab98-1a2f34b18dea","ios":"levelo://app?vid=ea68a76e-b4c6-4be9-ab98-1a2f34b18dea"},"vehicle_type_id":"4","last_reported":1737054414,"current_range_meters":18800,"station_id":"ce4bhn12rcd13ifvqgpg","pricing_plan_id":"cebpf4jnsgd1na2vs0mg"},{"bike_id":"deed0929-0128-456e-9f76-6afc5444b63c","system_id":"levelo_inurba_marseille","lat":43.2846,"lon":5.35875,"is_reserved":false,"is_disabled":false,"rental_uris":{"android":"levelo://app?vid=deed0929-0128-456e-9f76-6afc5444b63c","ios":"levelo://app?vid=deed0929-0128-456e-9f76-6afc5444b63c"},"vehicle_type_id":"4","last_reported":1737054414,"current_range_meters":8400,"station_id":"ce4bhah2rcd13ifvqei0","pricing_plan_id":"cebpf4jnsgd1na2vs0mg"},{"bike_id":"3ec906c5-7b8c-47b9-9760-8d8e29d26ff1","system_id":"levelo_inurba_marseille","lat":43.27965,"lon":5.38741,"is_reserved":false,"is_disabled":false,"rental_uris":{"android":"levelo://app?vid=3ec906c5-7b8c-47b9-9760-8d8e29d26ff1","ios":"levelo://app?vid=3ec906c5-7b8c-47b9-9760-8d8e29d26ff1"},"vehicle_type_id":"4","last_reported":1737054414,"current_range_meters":22400,"station_id":"ce4bhg12rcd13ifvqf80","pricing_plan_id":"cebpf4jnsgd1na2vs0mg"},{"bike_id":"e0d60d20-04c9-41ed-9eb2-accf760d5958","system_id":"levelo_inurba_marseille","lat":43.28467,"lon":5.3841,"is_reserved":false,"is_disabled":true,"rental_uris":{"android":"levelo://app?vid=e0d60d20-04c9-41ed-9eb2-accf760d5958","ios":"levelo://app?vid=e0d60d20-04c9-41ed-9eb2-accf760d5958"},"vehicle_type_id":"4","last_reported":1737054414,"current_range_meters":1600,"station_id":"ce4bh512rcd13ifvqe3g","pricing_plan_id":"cebpf4jnsgd1na2vs0mg"},{"bike_id":"7383474c-b45a-4438-837c-99d7ae866fe7","system_id":"levelo_inurba_marseille","lat":43.26063,"lon":5.39391,"is_reserved":false,"is_disabled":false,"rental_uris":{"android":"levelo://app?vid=7383474c-b45a-4438-837c-99d7ae866fe7","ios":"levelo://app?vid=7383474c-b45a-4438-837c-99d7ae866fe7"},"vehicle_type_id":"4","last_reported":1737054414,"current_range_meters":38800,"station_id":"ce4bhh92rcd13ifvqfj0","pricing_plan_id":"cebpf4jnsgd1na2vs0mg"},{"bike_id":"04087219-b91e-4c26-957d-42bfbda20cd2","system_id":"levelo_inurba_marseille","lat":43.27567,"lon":5.38419,"is_reserved":false,"is_disabled":false,"rental_uris":{"android":"levelo://app?vid=04087219-b91e-4c26-957d-42bfbda20cd2","ios":"levelo://app?vid=04087219-b91e-4c26-957d-42bfbda20cd2"},"vehicle_type_id":"4","last_reported":1737054414,"current_range_meters":36000,"station_id":"ce4bhh92rcd13ifvqfi0","pricing_plan_id":"cebpf4jnsgd1na2vs0mg"},{"bike_id":"69ae9584-9a03-4c67-af99-00b3bcfab561","system_id":"levelo_inurba_marseille","lat":43.27802,"lon":5.40713,"is_reserved":false,"is_disabled":false,"rental_uris":{"android":"levelo://app?vid=69ae9584-9a03-4c67-af99-00b3bcfab561","ios":"levelo://app?vid=69ae9584-9a03-4c67-af99-00b3bcfab561"},"vehicle_type_id":"4","last_reported":1737054414,"current_range_meters":30800,"station_id":"ce4bhnh2rcd13ifvqgtg","pricing_plan_id":"cebpf4jnsgd1na2vs0mg"},{"bike_id":"9eb8e58d-02d8-47e4-a3bd-13b422680bda","system_id":"levelo_inurba_marseille","lat":43.2942,"lon":5.38624,"is_reserved":false,"is_disabled":false,"rental_uris":{"android":"levelo://app?vid=9eb8e58d-02d8-47e4-a3bd-13b422680bda","ios":"levelo://app?vid=9eb8e58d-02d8-47e4-a3bd-13b422680bda"},"vehicle_type_id":"4","last_reported":1737054414,"current_range_meters":38800,"station_id":"ce4bh2h2rcd13ifvqdh0","pricing_plan_id":"cebpf4jnsgd1na2vs0mg"},{"bike_id":"df4f4eb3-9fd6-42c2-89e3-b32e9569e8d9","system_id":"levelo_inurba_marseille","lat":43.27669,"lon":5.38882,"is_reserved":false,"is_disabled":false,"rental_uris":{"android":"levelo://app?vid=df4f4eb3-9fd6-42c2-89e3-b32e9569e8d9","ios":"levelo://app?vid=df4f4eb3-9fd6-42c2-89e3-b32e9569e8d9"},"vehicle_type_id":"4","last_reported":1737054414,"current_range_meters":20000,"station_id":"ce4bhi12rcd13ifvqfo0","pricing_plan_id":"cebpf4jnsgd1na2vs0mg"},{"bike_id":"2b306c98-f95b-42a1-9aee-b5e32b2b0bbb","system_id":"levelo_inurba_marseille","lat":43.2559,"lon":5.38239,"is_reserved":false,"is_disabled":false,"rental_uris":{"android":"levelo://app?vid=2b306c98-f95b-42a1-9aee-b5e32b2b0bbb","ios":"levelo://app?vid=2b306c98-f95b-42a1-9aee-b5e32b2b0bbb"},"vehicle_type_id":"4","last_reported":1737054414,"current_range_meters":33600,"station_id":"ce4bhih2rcd13ifvqfs0","pricing_plan_id":"cebpf4jnsgd1na2vs0mg"},{"bike_id":"d1dcd18a-eb93-445d-900c-6ce54ea675fd","system_id":"levelo_inurba_marseille","lat":43.28938,"lon":5.36662,"is_reserved":false,"is_disabled":false,"rental_uris":{"android":"levelo://app?vid=d1dcd18a-eb93-445d-900c-6ce54ea675fd","ios":"levelo://app?vid=d1dcd18a-eb93-445d-900c-6ce54ea675fd"},"vehicle_type_id":"4","last_reported":1737054414,"current_range_meters":22000,"station_id":"ce4bhap2rcd13ifvqek0","pricing_plan_id":"cebpf4jnsgd1na2vs0mg"},{"bike_id":"7bff17cc-1c44-40d8-87ad-42c14976da2f","system_id":"levelo_inurba_marseille","lat":43.30568,"lon":5.3804,"is_reserved":false,"is_disabled":false,"rental_uris":{"android":"levelo://app?vid=7bff17cc-1c44-40d8-87ad-42c14976da2f","ios":"levelo://app?vid=7bff17cc-1c44-40d8-87ad-42c14976da2f"},"vehicle_type_id":"4","last_reported":1737054414,"current_range_meters":11600,"station_id":"","pricing_plan_id":"cebpf4jnsgd1na2vs0mg"},{"bike_id":"44721705-52d0-4eba-b0b2-b41ea9586411","system_id":"levelo_inurba_marseille","lat":43.23196,"lon":5.35531,"is_reserved":false,"is_disabled":false,"rental_uris":{"android":"levelo://app?vid=44721705-52d0-4eba-b0b2-b41ea9586411","ios":"levelo://app?vid=44721705-52d0-4eba-b0b2-b41ea9586411"},"vehicle_type_id":"4","last_reported":1737054414,"current_range_meters":33200,"station_id":"ce4bhu92rcd13ifvqi70","pricing_plan_id":"cebpf4jnsgd1na2vs0mg"},{"bike_id":"b1c76eb4-e5ec-4ec4-abcf-d9d0a5284616","system_id":"levelo_inurba_marseille","lat":43.287,"lon":5.37389,"is_reserved":false,"is_disabled":false,"rental_uris":{"android":"levelo://app?vid=b1c76eb4-e5ec-4ec4-abcf-d9d0a5284616","ios":"levelo://app?vid=b1c76eb4-e5ec-4ec4-abcf-d9d0a5284616"},"vehicle_type_id":"4","last_reported":1737054414,"current_range_meters":37600,"station_id":"ce4bh3p2rcd13ifvqdq0","pricing_plan_id":"cebpf4jnsgd1na2vs0mg"},{"bike_id":"909709b7-8ff0-4c51-ad64-f152a669307f","system_id":"levelo_inurba_marseille","lat":43.29273,"lon":5.36846,"is_reserved":false,"is_disabled":false,"rental_uris":{"android":"levelo://app?vid=909709b7-8ff0-4c51-ad64-f152a669307f","ios":"levelo://app?vid=909709b7-8ff0-4c51-ad64-f152a669307f"},"vehicle_type_id":"4","last_reported":1737054414,"current_range_meters":15200,"station_id":"ce4bhbp2rcd13ifvqesg","pricing_plan_id":"cebpf4jnsgd1na2vs0mg"},{"bike_id":"d29e4d69-5605-4d7d-8e17-e6bf1f43bb88","system_id":"levelo_inurba_marseille","lat":43.28003,"lon":5.40009,"is_reserved":false,"is_disabled":false,"rental_uris":{"android":"levelo://app?vid=d29e4d69-5605-4d7d-8e17-e6bf1f43bb88","ios":"levelo://app?vid=d29e4d69-5605-4d7d-8e17-e6bf1f43bb88"},"vehicle_type_id":"4","last_reported":1737054414,"current_range_meters":38400,"station_id":"ce4bho92rcd13ifvqh4g","pricing_plan_id":"cebpf4jnsgd1na2vs0mg"},{"bike_id":"bdd9c923-0b2c-4f8d-857d-3afa0648e406","system_id":"levelo_inurba_marseille","lat":43.30359,"lon":5.41882,"is_reserved":false,"is_disabled":false,"rental_uris":{"android":"levelo://app?vid=bdd9c923-0b2c-4f8d-857d-3afa0648e406","ios":"levelo://app?vid=bdd9c923-0b2c-4f8d-857d-3afa0648e406"},"vehicle_type_id":"4","last_reported":1737054414,"current_range_meters":16400,"station_id":"ce4bhop2rcd13ifvqh7g","pricing_plan_id":"cebpf4jnsgd1na2vs0mg"},{"bike_id":"65ce034a-f255-430b-b7d5-7d708fcfda04","system_id":"levelo_inurba_marseille","lat":43.28264,"lon":5.35068,"is_reserved":false,"is_disabled":false,"rental_uris":{"android":"levelo://app?vid=65ce034a-f255-430b-b7d5-7d708fcfda04","ios":"levelo://app?vid=65ce034a-f255-430b-b7d5-7d708fcfda04"},"vehicle_type_id":"4","last_reported":1737054414,"current_range_meters":39200,"station_id":"ce4bhbp2rcd13ifvqerg","pricing_plan_id":"cebpf4jnsgd1na2vs0mg"},{"bike_id":"27371fc3-88d5-40e0-8fcb-13c0dd889d55","system_id":"levelo_inurba_marseille","lat":43.25838,"lon":5.39412,"is_reserved":false,"is_disabled":false,"rental_uris":{"android":"levelo://app?vid=27371fc3-88d5-40e0-8fcb-13c0dd889d55","ios":"levelo://app?vid=27371fc3-88d5-40e0-8fcb-13c0dd889d55"},"vehicle_type_id":"4","last_reported":1737054414,"current_range_meters":24400,"station_id":"ce4bhip2rcd13ifvqft0","pricing_plan_id":"cebpf4jnsgd1na2vs0mg"},{"bike_id":"e1f9a0b5-1419-4e67-ab24-a72ee45dfd85","system_id":"levelo_inurba_marseille","lat":43.24157,"lon":5.36401,"is_reserved":false,"is_disabled":false,"rental_uris":{"android":"levelo://app?vid=e1f9a0b5-1419-4e67-ab24-a72ee45dfd85","ios":"levelo://app?vid=e1f9a0b5-1419-4e67-ab24-a72ee45dfd85"},"vehicle_type_id":"4","last_reported":1737054414,"current_range_meters":19600,"station_id":"cpo36qri1sfpv3e86is0","pricing_plan_id":"cebpf4jnsgd1na2vs0mg"},{"bike_id":"9a582c56-bbf8-4319-a059-65116fb6f262","system_id":"levelo_inurba_marseille","lat":43.29643,"lon":5.405956,"is_reserved":false,"is_disabled":false,"rental_uris":{"android":"levelo://app?vid=9a582c56-bbf8-4319-a059-65116fb6f262","ios":"levelo://app?vid=9a582c56-bbf8-4319-a059-65116fb6f262"},"vehicle_type_id":"4","last_reported":1737054414,"current_range_meters":6000,"station_id":"ce4bh0h2rcd13ifvqd60","pricing_plan_id":"cebpf4jnsgd1na2vs0mg"},{"bike_id":"75747a38-6811-45a3-b0a9-3d8a8d59725a","system_id":"levelo_inurba_marseille","lat":43.30529,"lon":5.3842,"is_reserved":false,"is_disabled":false,"rental_uris":{"android":"levelo://app?vid=75747a38-6811-45a3-b0a9-3d8a8d59725a","ios":"levelo://app?vid=75747a38-6811-45a3-b0a9-3d8a8d59725a"},"vehicle_type_id":"4","last_reported":1737054414,"current_range_meters":28400,"station_id":"ce4bgg92rcd13ifvqb30","pricing_plan_id":"cebpf4jnsgd1na2vs0mg"},{"bike_id":"f7a93299-4b31-44c2-976e-82f7878bc418","system_id":"levelo_inurba_marseille","lat":43.25497,"lon":5.37643,"is_reserved":false,"is_disabled":false,"rental_uris":{"android":"levelo://app?vid=f7a93299-4b31-44c2-976e-82f7878bc418","ios":"levelo://app?vid=f7a93299-4b31-44c2-976e-82f7878bc418"},"vehicle_type_id":"4","last_reported":1737054414,"current_range_meters":39200,"station_id":"ce4bhh12rcd13ifvqff0","pricing_plan_id":"cebpf4jnsgd1na2vs0mg"},{"bike_id":"3d9c9263-63d7-45a7-9fea-4bbd176cc3e7","system_id":"levelo_inurba_marseille","lat":43.31165,"lon":5.3871,"is_reserved":false,"is_disabled":false,"rental_uris":{"android":"levelo://app?vid=3d9c9263-63d7-45a7-9fea-4bbd176cc3e7","ios":"levelo://app?vid=3d9c9263-63d7-45a7-9fea-4bbd176cc3e7"},"vehicle_type_id":"4","last_reported":1737054414,"current_range_meters":23200,"station_id":"ce4bgv12rcd13ifvqcp0","pricing_plan_id":"cebpf4jnsgd1na2vs0mg"},{"bike_id":"46580e00-2807-4673-9283-149a40d91155","system_id":"levelo_inurba_marseille","lat":43.31365,"lon":5.38494,"is_reserved":false,"is_disabled":false,"rental_uris":{"android":"levelo://app?vid=46580e00-2807-4673-9283-149a40d91155","ios":"levelo://app?vid=46580e00-2807-4673-9283-149a40d91155"},"vehicle_type_id":"4","last_reported":1737054414,"current_range_meters":27200,"station_id":"ce4bgt92rcd13ifvqcf0","pricing_plan_id":"cebpf4jnsgd1na2vs0mg"},{"bike_id":"338fb549-b079-41f1-8868-93f63b36c832","system_id":"levelo_inurba_marseille","lat":43.27681,"lon":5.3888,"is_reserved":false,"is_disabled":true,"rental_uris":{"android":"levelo://app?vid=338fb549-b079-41f1-8868-93f63b36c832","ios":"levelo://app?vid=338fb549-b079-41f1-8868-93f63b36c832"},"vehicle_type_id":"4","last_reported":1737054414,"current_range_meters":38000,"station_id":"ce4bhi12rcd13ifvqfo0","pricing_plan_id":"cebpf4jnsgd1na2vs0mg"},{"bike_id":"8ccdb8e3-5350-4cab-8a81-1bd6181a6c06","system_id":"levelo_inurba_marseille","lat":43.23229,"lon":5.35529,"is_reserved":false,"is_disabled":false,"rental_uris":{"android":"levelo://app?vid=8ccdb8e3-5350-4cab-8a81-1bd6181a6c06","ios":"levelo://app?vid=8ccdb8e3-5350-4cab-8a81-1bd6181a6c06"},"vehicle_type_id":"4","last_reported":1737054414,"current_range_meters":28800,"station_id":"ce4bhu92rcd13ifvqi70","pricing_plan_id":"cebpf4jnsgd1na2vs0mg"},{"bike_id":"c7021a5f-fa0d-4c1c-8eb3-79200b8205c7","system_id":"levelo_inurba_marseille","lat":43.25818,"lon":5.39435,"is_reserved":false,"is_disabled":false,"rental_uris":{"android":"levelo://app?vid=c7021a5f-fa0d-4c1c-8eb3-79200b8205c7","ios":"levelo://app?vid=c7021a5f-fa0d-4c1c-8eb3-79200b8205c7"},"vehicle_type_id":"4","last_reported":1737054414,"current_range_meters":13600,"station_id":"ce4bhip2rcd13ifvqft0","pricing_plan_id":"cebpf4jnsgd1na2vs0mg"},{"bike_id":"8c5b2f85-de16-4494-824b-fd886a61b673","system_id":"levelo_inurba_marseille","lat":43.25823,"lon":5.39422,"is_reserved":false,"is_disabled":false,"rental_uris":{"android":"levelo://app?vid=8c5b2f85-de16-4494-824b-fd886a61b673","ios":"levelo://app?vid=8c5b2f85-de16-4494-824b-fd886a61b673"},"vehicle_type_id":"4","last_reported":1737054414,"current_range_meters":38800,"station_id":"ce4bhip2rcd13ifvqft0","pricing_plan_id":"cebpf4jnsgd1na2vs0mg"},{"bike_id":"debf1d68-8b1d-4b6b-9d17-2e6033da6eb8","system_id":"levelo_inurba_marseille","lat":43.31299,"lon":5.39737,"is_reserved":false,"is_disabled":false,"rental_uris":{"android":"levelo://app?vid=debf1d68-8b1d-4b6b-9d17-2e6033da6eb8","ios":"levelo://app?vid=debf1d68-8b1d-4b6b-9d17-2e6033da6eb8"},"vehicle_type_id":"4","last_reported":1737054414,"current_range_meters":38800,"station_id":"ce4bgvp2rcd13ifvqcu0","pricing_plan_id":"cebpf4jnsgd1na2vs0mg"},{"bike_id":"58816f06-6b5d-4f25-9ea2-ac8707506d12","system_id":"levelo_inurba_marseille","lat":43.26204,"lon":5.37436,"is_reserved":false,"is_disabled":false,"rental_uris":{"android":"levelo://app?vid=58816f06-6b5d-4f25-9ea2-ac8707506d12","ios":"levelo://app?vid=58816f06-6b5d-4f25-9ea2-ac8707506d12"},"vehicle_type_id":"4","last_reported":1737054414,"current_range_meters":30000,"station_id":"ce4bhgp2rcd13ifvqfc0","pricing_plan_id":"cebpf4jnsgd1na2vs0mg"},{"bike_id":"8552f64f-d2d5-4f57-8e2c-5cd7c6a4c0be","system_id":"levelo_inurba_marseille","lat":43.28666,"lon":5.36357,"is_reserved":false,"is_disabled":false,"rental_uris":{"android":"levelo://app?vid=8552f64f-d2d5-4f57-8e2c-5cd7c6a4c0be","ios":"levelo://app?vid=8552f64f-d2d5-4f57-8e2c-5cd7c6a4c0be"},"vehicle_type_id":"4","last_reported":1737054414,"current_range_meters":30400,"station_id":"ce4bhah2rcd13ifvqej0","pricing_plan_id":"cebpf4jnsgd1na2vs0mg"},{"bike_id":"f5863b18-13a1-4c6e-92de-5668ea912ad3","system_id":"levelo_inurba_marseille","lat":43.26184,"lon":5.40361,"is_reserved":false,"is_disabled":true,"rental_uris":{"android":"levelo://app?vid=f5863b18-13a1-4c6e-92de-5668ea912ad3","ios":"levelo://app?vid=f5863b18-13a1-4c6e-92de-5668ea912ad3"},"vehicle_type_id":"4","last_reported":1737054414,"current_range_meters":1200,"station_id":"","pricing_plan_id":"cebpf4jnsgd1na2vs0mg"},{"bike_id":"4c8647fa-0c61-48ea-aded-a855e7f60ea4","system_id":"levelo_inurba_marseille","lat":43.29023,"lon":5.38651,"is_reserved":false,"is_disabled":false,"rental_uris":{"android":"levelo://app?vid=4c8647fa-0c61-48ea-aded-a855e7f60ea4","ios":"levelo://app?vid=4c8647fa-0c61-48ea-aded-a855e7f60ea4"},"vehicle_type_id":"4","last_reported":1737054414,"current_range_meters":33200,"station_id":"ce4bh4p2rcd13ifvqe0g","pricing_plan_id":"cebpf4jnsgd1na2vs0mg"},{"bike_id":"a8fad254-19bb-48fe-801d-9e93d4767cef","system_id":"levelo_inurba_marseille","lat":43.31433,"lon":5.37387,"is_reserved":false,"is_disabled":true,"rental_uris":{"android":"levelo://app?vid=a8fad254-19bb-48fe-801d-9e93d4767cef","ios":"levelo://app?vid=a8fad254-19bb-48fe-801d-9e93d4767cef"},"vehicle_type_id":"4","last_reported":1737054414,"current_range_meters":1200,"station_id":"","pricing_plan_id":"cebpf4jnsgd1na2vs0mg"},{"bike_id":"37c3b29e-0263-444b-a673-4bd496b32d78","system_id":"levelo_inurba_marseille","lat":43.29527,"lon":5.38543,"is_reserved":false,"is_disabled":false,"rental_uris":{"android":"levelo://app?vid=37c3b29e-0263-444b-a673-4bd496b32d78","ios":"levelo://app?vid=37c3b29e-0263-444b-a673-4bd496b32d78"},"vehicle_type_id":"4","last_reported":1737054414,"current_range_meters":22000,"station_id":"ce4bgih2rcd13ifvqba0","pricing_plan_id":"cebpf4jnsgd1na2vs0mg"},{"bike_id":"026d94ea-1a76-449f-9e5d-c9dac35fe9cb","system_id":"levelo_inurba_marseille","lat":43.25079,"lon":5.39501,"is_reserved":false,"is_disabled":false,"rental_uris":{"android":"levelo://app?vid=026d94ea-1a76-449f-9e5d-c9dac35fe9cb","ios":"levelo://app?vid=026d94ea-1a76-449f-9e5d-c9dac35fe9cb"},"vehicle_type_id":"4","last_reported":1737054414,"current_range_meters":12000,"station_id":"ce4bhm12rcd13ifvqgkg","pricing_plan_id":"cebpf4jnsgd1na2vs0mg"},{"bike_id":"b80538f1-bed7-4fbe-806c-123f996da5e7","system_id":"levelo_inurba_marseille","lat":43.30655,"lon":5.40076,"is_reserved":false,"is_disabled":false,"rental_uris":{"android":"levelo://app?vid=b80538f1-bed7-4fbe-806c-123f996da5e7","ios":"levelo://app?vid=b80538f1-bed7-4fbe-806c-123f996da5e7"},"vehicle_type_id":"4","last_reported":1737054414,"current_range_meters":38800,"station_id":"ce4bh112rcd13ifvqda0","pricing_plan_id":"cebpf4jnsgd1na2vs0mg"},{"bike_id":"e5f71037-c3e2-4a5c-b185-51bcddd625d8","system_id":"levelo_inurba_marseille","lat":43.23058,"lon":5.35501,"is_reserved":false,"is_disabled":false,"rental_uris":{"android":"levelo://app?vid=e5f71037-c3e2-4a5c-b185-51bcddd625d8","ios":"levelo://app?vid=e5f71037-c3e2-4a5c-b185-51bcddd625d8"},"vehicle_type_id":"4","last_reported":1737054414,"current_range_meters":8000,"station_id":"cpo3342slgdg3j2ifvpg","pricing_plan_id":"cebpf4jnsgd1na2vs0mg"},{"bike_id":"26743e82-4e38-42f6-b2e8-0668d537b588","system_id":"levelo_inurba_marseille","lat":43.30932,"lon":5.40142,"is_reserved":false,"is_disabled":false,"rental_uris":{"android":"levelo://app?vid=26743e82-4e38-42f6-b2e8-0668d537b588","ios":"levelo://app?vid=26743e82-4e38-42f6-b2e8-0668d537b588"},"vehicle_type_id":"4","last_reported":1737054414,"current_range_meters":30400,"station_id":"ce4bgvp2rcd13ifvqct0","pricing_plan_id":"cebpf4jnsgd1na2vs0mg"},{"bike_id":"d2b9ef70-30ff-4d52-902b-abdd8b54d8a5","system_id":"levelo_inurba_marseille","lat":43.3091,"lon":5.36841,"is_reserved":false,"is_disabled":true,"rental_uris":{"android":"levelo://app?vid=d2b9ef70-30ff-4d52-902b-abdd8b54d8a5","ios":"levelo://app?vid=d2b9ef70-30ff-4d52-902b-abdd8b54d8a5"},"vehicle_type_id":"4","last_reported":1737054414,"current_range_meters":0,"station_id":"ce4bgn92rcd13ifvqbvg","pricing_plan_id":"cebpf4jnsgd1na2vs0mg"},{"bike_id":"e5918d9a-34c5-4bcb-9faf-7587d7544894","system_id":"levelo_inurba_marseille","lat":43.291616,"lon":5.354201,"is_reserved":false,"is_disabled":false,"rental_uris":{"android":"levelo://app?vid=e5918d9a-34c5-4bcb-9faf-7587d7544894","ios":"levelo://app?vid=e5918d9a-34c5-4bcb-9faf-7587d7544894"},"vehicle_type_id":"4","last_reported":1737054414,"current_range_meters":32000,"station_id":"ce4bhb12rcd13ifvqel0","pricing_plan_id":"cebpf4jnsgd1na2vs0mg"},{"bike_id":"dd3f4150-3ecf-4f19-a7a6-851ea1ba83d2","system_id":"levelo_inurba_marseille","lat":43.2618,"lon":5.37474,"is_reserved":false,"is_disabled":false,"rental_uris":{"android":"levelo://app?vid=dd3f4150-3ecf-4f19-a7a6-851ea1ba83d2","ios":"levelo://app?vid=dd3f4150-3ecf-4f19-a7a6-851ea1ba83d2"},"vehicle_type_id":"4","last_reported":1737054414,"current_range_meters":6800,"station_id":"ce4bhgp2rcd13ifvqfc0","pricing_plan_id":"cebpf4jnsgd1na2vs0mg"},{"bike_id":"94d9dc24-6ca4-4948-90b1-b8a8e0186a02","system_id":"levelo_inurba_marseille","lat":43.31228,"lon":5.36855,"is_reserved":false,"is_disabled":false,"rental_uris":{"android":"levelo://app?vid=94d9dc24-6ca4-4948-90b1-b8a8e0186a02","ios":"levelo://app?vid=94d9dc24-6ca4-4948-90b1-b8a8e0186a02"},"vehicle_type_id":"4","last_reported":1737054414,"current_range_meters":38000,"station_id":"ce4bgl92rcd13ifvqbq0","pricing_plan_id":"cebpf4jnsgd1na2vs0mg"},{"bike_id":"c8fd9861-261a-4dc1-b31e-b1fb93392a22","system_id":"levelo_inurba_marseille","lat":43.28931,"lon":5.38409,"is_reserved":false,"is_disabled":false,"rental_uris":{"android":"levelo://app?vid=c8fd9861-261a-4dc1-b31e-b1fb93392a22","ios":"levelo://app?vid=c8fd9861-261a-4dc1-b31e-b1fb93392a22"},"vehicle_type_id":"4","last_reported":1737054414,"current_range_meters":36400,"station_id":"ce4bh612rcd13ifvqe6g","pricing_plan_id":"cebpf4jnsgd1na2vs0mg"},