{"last_updated":1778917696,"ttl":60,"version":"2.2","data":{"bikes":[{"bike_id":"cf94c8b9-6815-4ed1-bd95-33abbebf4478","system_id":"levelo_inurba_marseille","lat":43.25088,"lon":5.40579,"is_reserved":false,"is_disabled":false,"rental_uris":{"android":"levelo://app?vid=cf94c8b9-6815-4ed1-bd95-33abbebf4478","ios":"levelo://app?vid=cf94c8b9-6815-4ed1-bd95-33abbebf4478"},"vehicle_type_id":"4","last_reported":1778917697,"current_range_meters":400,"station_id":"","pricing_plan_id":"cebpf4jnsgd1na2vs0mg"},{"bike_id":"b377143e-4597-406b-9854-5cc8360be131","system_id":"levelo_inurba_marseille","lat":43.27919,"lon":5.39223,"is_reserved":false,"is_disabled":false,"rental_uris":{"android":"levelo://app?vid=b377143e-4597-406b-9854-5cc8360be131","ios":"levelo://app?vid=b377143e-4597-406b-9854-5cc8360be131"},"vehicle_type_id":"4","last_reported":1778917697,"current_range_meters":2800,"station_id":"","pricing_plan_id":"cebpf4jnsgd1na2vs0mg"},{"bike_id":"0480a6db-899e-4c68-a9ed-6d90f8abcaec","system_id":"levelo_inurba_marseille","lat":43.267862,"lon":5.39413,"is_reserved":false,"is_disabled":false,"rental_uris":{"android":"levelo://app?vid=0480a6db-899e-4c68-a9ed-6d90f8abcaec","ios":"levelo://app?vid=0480a6db-899e-4c68-a9ed-6d90f8abcaec"},"vehicle_type_id":"4","last_reported":1778917697,"current_range_meters":2800,"station_id":"ce4bhh12rcd13ifvqfg0","pricing_plan_id":"cebpf4jnsgd1na2vs0mg"},{"bike_id":"936fa868-782b-40af-831a-a0159a0c0157","system_id":"levelo_inurba_marseille","lat":43.22536,"lon":5.34837,"is_reserved":false,"is_disabled":false,"rental_uris":{"android":"levelo://app?vid=936fa868-782b-40af-831a-a0159a0c0157","ios":"levelo://app?vid=936fa868-782b-40af-831a-a0159a0c0157"},"vehicle_type_id":"4","last_reported":1778917697,"current_range_meters":2800,"station_id":"st_cvj5dfep6f1abm77gieg","pricing_plan_id":"cebpf4jnsgd1na2vs0mg"},{"bike_id":"2c900b6d-c6bc-4eeb-a695-1fac18b6e8ba","system_id":"levelo_inurba_marseille","lat":43.27048,"lon":5.40268,"is_reserved":false,"is_disabled":false,"rental_uris":{"android":"levelo://app?vid=2c900b6d-c6bc-4eeb-a695-1fac18b6e8ba","ios":"levelo://app?vid=2c900b6d-c6bc-4eeb-a695-1fac18b6e8ba"},"vehicle_type_id":"4","last_reported":1778917697,"current_range_meters":2800,"station_id":"ce4bhk92rcd13ifvqgc0","pricing_plan_id":"cebpf4jnsgd1na2vs0mg"},{"bike_id":"d58e0ee0-c9e9-4c89-addb-a7403a06ed2a","system_id":"levelo_inurba_marseille","lat":43.24161,"lon":5.39736,"is_reserved":false,"is_disabled":false,"rental_uris":{"android":"levelo://app?vid=d58e0ee0-c9e9-4c89-addb-a7403a06ed2a","ios":"levelo://app?vid=d58e0ee0-c9e9-4c89-addb-a7403a06ed2a"},"vehicle_type_id":"4","last_reported":1778917697,"current_range_meters":2800,"station_id":"ce4bhn12rcd13ifvqgpg","pricing_plan_id":"cebpf4jnsgd1na2vs0mg"},{"bike_id":"cc311a05-7fc9-47f5-97fc-c740da8111df","system_id":"levelo_inurba_marseille","lat":43.29529,"lon":5.38547,"is_reserved":false,"is_disabled":true,"rental_uris":{"android":"levelo://app?vid=cc311a05-7fc9-47f5-97fc-c740da8111df","ios":"levelo://app?vid=cc311a05-7fc9-47f5-97fc-c740da8111df"},"vehicle_type_id":"4","last_reported":1778917697,"current_range_meters":2800,"station_id":"","pricing_plan_id":"cebpf4jnsgd1na2vs0mg"},{"bike_id":"b689131c-c740-461c-a491-d793d63702b1","system_id":"levelo_inurba_marseille","lat":43.22541,"lon":5.3486,"is_reserved":false,"is_disabled":false,"rental_uris":{"android":"levelo://app?vid=b689131c-c740-461c-a491-d793d63702b1","ios":"levelo://app?vid=b689131c-c740-461c-a491-d793d63702b1"},"vehicle_type_id":"4","last_reported":1778917697,"current_range_meters":3200,"station_id":"st_cvj5dfep6f1abm77gieg","pricing_plan_id":"cebpf4jnsgd1na2vs0mg"},{"bike_id":"6333e7f6-67b5-49dd-8ef5-f232d586c2bb","system_id":"levelo_inurba_marseille","lat":43.26224,"lon":5.38771,"is_reserved":false,"is_disabled":false,"rental_uris":{"android":"levelo://app?vid=6333e7f6-67b5-49dd-8ef5-f232d586c2bb","ios":"levelo://app?vid=6333e7f6-67b5-49dd-8ef5-f232d586c2bb"},"vehicle_type_id":"4","last_reported":1778917697,"current_range_meters":3200,"station_id":"","pricing_plan_id":"cebpf4jnsgd1na2vs0mg"},{"bike_id":"c015344b-21f4-4daa-bd8e-6d232c97c068","system_id":"levelo_inurba_marseille","lat":43.29024,"lon":5.39957,"is_reserved":false,"is_disabled":false,"rental_uris":{"android":"levelo://app?vid=c015344b-21f4-4daa-bd8e-6d232c97c068","ios":"levelo://app?vid=c015344b-21f4-4daa-bd8e-6d232c97c068"},"vehicle_type_id":"4","last_reported":1778917697,"current_range_meters":3200,"station_id":"ce4bh392rcd13ifvqdm0","pricing_plan_id":"cebpf4jnsgd1na2vs0mg"},{"bike_id":"49dde2ef-9bde-469e-a709-f081dbfd2afb","system_id":"levelo_inurba_marseille","lat":43.23966,"lon":5.36631,"is_reserved":false,"is_disabled":false,"rental_uris":{"android":"levelo://app?vid=49dde2ef-9bde-469e-a709-f081dbfd2afb","ios":"levelo://app?vid=49dde2ef-9bde-469e-a709-f081dbfd2afb"},"vehicle_type_id":"4","last_reported":1778917697,"current_range_meters":3200,"station_id":"ce4bhi12rcd13ifvqfp0","pricing_plan_id":"cebpf4jnsgd1na2vs0mg"},{"bike_id":"dadc9d3c-9366-4814-bf9b-a97d77bb6988","system_id":"levelo_inurba_marseille","lat":43.26034,"lon":5.3754,"is_reserved":false,"is_disabled":false,"rental_uris":{"android":"levelo://app?vid=dadc9d3c-9366-4814-bf9b-a97d77bb6988","ios":"levelo://app?vid=dadc9d3c-9366-4814-bf9b-a97d77bb6988"},"vehicle_type_id":"4","last_reported":1778917697,"current_range_meters":3200,"station_id":"ce4bhgh2rcd13ifvqfa0","pricing_plan_id":"cebpf4jnsgd1na2vs0mg"},{"bike_id":"683c2f64-d560-477d-bf79-f81884be1301","system_id":"levelo_inurba_marseille","lat":43.26372,"lon":5.40286,"is_reserved":false,"is_disabled":false,"rental_uris":{"android":"levelo://app?vid=683c2f64-d560-477d-bf79-f81884be1301","ios":"levelo://app?vid=683c2f64-d560-477d-bf79-f81884be1301"},"vehicle_type_id":"4","last_reported":1778917697,"current_range_meters":3200,"station_id":"","pricing_plan_id":"cebpf4jnsgd1na2vs0mg"},{"bike_id":"9d5f879f-815c-4108-9149-5d6da1dbb023","system_id":"levelo_inurba_marseille","lat":43.24474,"lon":5.42524,"is_reserved":false,"is_disabled":false,"rental_uris":{"android":"levelo://app?vid=9d5f879f-815c-4108-9149-5d6da1dbb023","ios":"levelo://app?vid=9d5f879f-815c-4108-9149-5d6da1dbb023"},"vehicle_type_id":"4","last_reported":1778917697,"current_range_meters":3200,"station_id":"st_d4a3vfp97mjs738cd8kg","pricing_plan_id":"cebpf4jnsgd1na2vs0mg"},{"bike_id":"38e5524f-9270-46e3-9347-904a53ccf264","system_id":"levelo_inurba_marseille","lat":43.29523,"lon":5.39036,"is_reserved":false,"is_disabled":false,"rental_uris":{"android":"levelo://app?vid=38e5524f-9270-46e3-9347-904a53ccf264","ios":"levelo://app?vid=38e5524f-9270-46e3-9347-904a53ccf264"},"vehicle_type_id":"4","last_reported":1778917697,"current_range_meters":3600,"station_id":"ce4bh3p2rcd13ifvqdp0","pricing_plan_id":"cebpf4jnsgd1na2vs0mg"},{"bike_id":"08c772e3-0504-446f-b5ab-8f8a5debda77","system_id":"levelo_inurba_marseille","lat":43.28163,"lon":5.42646,"is_reserved":false,"is_disabled":false,"rental_uris":{"android":"levelo://app?vid=08c772e3-0504-446f-b5ab-8f8a5debda77","ios":"levelo://app?vid=08c772e3-0504-446f-b5ab-8f8a5debda77"},"vehicle_type_id":"4","last_reported":1778917697,"current_range_meters":3600,"station_id":"ce4bhnh2rcd13ifvqgug","pricing_plan_id":"cebpf4jnsgd1na2vs0mg"},{"bike_id":"216987c8-1f68-4f7b-91e0-236683f77960","system_id":"levelo_inurba_marseille","lat":43.2463,"lon":5.38919,"is_reserved":false,"is_disabled":false,"rental_uris":{"android":"levelo://app?vid=216987c8-1f68-4f7b-91e0-236683f77960","ios":"levelo://app?vid=216987c8-1f68-4f7b-91e0-236683f77960"},"vehicle_type_id":"4","last_reported":1778917697,"current_range_meters":3600,"station_id":"ce4bhg12rcd13ifvqf60","pricing_plan_id":"cebpf4jnsgd1na2vs0mg"},{"bike_id":"95253244-89cc-4e41-8d16-5de9b0d3b390","system_id":"levelo_inurba_marseille","lat":43.28621,"lon":5.39978,"is_reserved":false,"is_disabled":false,"rental_uris":{"android":"levelo://app?vid=95253244-89cc-4e41-8d16-5de9b0d3b390","ios":"levelo://app?vid=95253244-89cc-4e41-8d16-5de9b0d3b390"},"vehicle_type_id":"4","last_reported":1778917697,"current_range_meters":3600,"station_id":"","pricing_plan_id":"cebpf4jnsgd1na2vs0mg"},{"bike_id":"19717bab-9b37-4808-a40f-d3577021bda8","system_id":"levelo_inurba_marseille","lat":43.29851,"lon":5.36288,"is_reserved":false,"is_disabled":false,"rental_uris":{"android":"levelo://app?vid=19717bab-9b37-4808-a40f-d3577021bda8","ios":"levelo://app?vid=19717bab-9b37-4808-a40f-d3577021bda8"},"vehicle_type_id":"4","last_reported":1778917697,"current_range_meters":3600,"station_id":"ce4bgpp2rcd13ifvqc3g","pricing_plan_id":"cebpf4jnsgd1na2vs0mg"},{"bike_id":"b1b1c9ad-0e11-41a8-95b1-ee1803460284","system_id":"levelo_inurba_marseille","lat":43.33542,"lon":5.37479,"is_reserved":false,"is_disabled":false,"rental_uris":{"android":"levelo://app?vid=b1b1c9ad-0e11-41a8-95b1-ee1803460284","ios":"levelo://app?vid=b1b1c9ad-0e11-41a8-95b1-ee1803460284"},"vehicle_type_id":"4","last_reported":1778917697,"current_range_meters":3600,"station_id":"st_d46tts09ee8s73dlu43g","pricing_plan_id":"cebpf4jnsgd1na2vs0mg"},{"bike_id":"e95d3c0c-a37f-41c8-8e42-81fa6e69c3d7","system_id":"levelo_inurba_marseille","lat":43.24407,"lon":5.37042,"is_reserved":false,"is_disabled":false,"rental_uris":{"android":"levelo://app?vid=e95d3c0c-a37f-41c8-8e42-81fa6e69c3d7","ios":"levelo://app?vid=e95d3c0c-a37f-41c8-8e42-81fa6e69c3d7"},"vehicle_type_id":"4","last_reported":1778917697,"current_range_meters":3600,"station_id":"ce4bhhh2rcd13ifvqfk0","pricing_plan_id":"cebpf4jnsgd1na2vs0mg"},{"bike_id":"0d5dd8d5-22ce-4cf4-96c4-a16487c95253","system_id":"levelo_inurba_marseille","lat":43.29964,"lon":5.38689,"is_reserved":false,"is_disabled":false,"rental_uris":{"android":"levelo://app?vid=0d5dd8d5-22ce-4cf4-96c4-a16487c95253","ios":"levelo://app?vid=0d5dd8d5-22ce-4cf4-96c4-a16487c95253"},"vehicle_type_id":"4","last_reported":1778917697,"current_range_meters":3600,"station_id":"","pricing_plan_id":"cebpf4jnsgd1na2vs0mg"},{"bike_id":"4f205719-8da2-4580-881f-4eea763f8c56","system_id":"levelo_inurba_marseille","lat":43.2909,"lon":5.38129,"is_reserved":false,"is_disabled":false,"rental_uris":{"android":"levelo://app?vid=4f205719-8da2-4580-881f-4eea763f8c56","ios":"levelo://app?vid=4f205719-8da2-4580-881f-4eea763f8c56"},"vehicle_type_id":"4","last_reported":1778917697,"current_range_meters":3600,"station_id":"","pricing_plan_id":"cebpf4jnsgd1na2vs0mg"},{"bike_id":"d8f85cb9-935d-44f7-8b4c-b6b61be4ba0b","system_id":"levelo_inurba_marseille","lat":43.29974,"lon":5.38487,"is_reserved":false,"is_disabled":false,"rental_uris":{"android":"levelo://app?vid=d8f85cb9-935d-44f7-8b4c-b6b61be4ba0b","ios":"levelo://app?vid=d8f85cb9-935d-44f7-8b4c-b6b61be4ba0b"},"vehicle_type_id":"4","last_reported":1778917697,"current_range_meters":4000,"station_id":"ce4bgj92rcd13ifvqbd0","pricing_plan_id":"cebpf4jnsgd1na2vs0mg"},{"bike_id":"c4ee361f-040e-4ad9-8fc8-7b730e9f0c39","system_id":"levelo_inurba_marseille","lat":43.337444,"lon":5.374475,"is_reserved":false,"is_disabled":true,"rental_uris":{"android":"levelo://app?vid=c4ee361f-040e-4ad9-8fc8-7b730e9f0c39","ios":"levelo://app?vid=c4ee361f-040e-4ad9-8fc8-7b730e9f0c39"},"vehicle_type_id":"4","last_reported":1778917697,"current_range_meters":4000,"station_id":"","pricing_plan_id":"cebpf4jnsgd1na2vs0mg"},{"bike_id":"9b0d300e-df14-4113-9c71-af15c744e30b","system_id":"levelo_inurba_marseille","lat":43.31725,"lon":5.42418,"is_reserved":false,"is_disabled":false,"rental_uris":{"android":"levelo://app?vid=9b0d300e-df14-4113-9c71-af15c744e30b","ios":"levelo://app?vid=9b0d300e-df14-4113-9c71-af15c744e30b"},"vehicle_type_id":"4","last_reported":1778917697,"current_range_meters":4000,"station_id":"ce4bhp92rcd13ifvqhbg","pricing_plan_id":"cebpf4jnsgd1na2vs0mg"},{"bike_id":"70fc0df1-c0cc-48b7-9459-b433be18cb12","system_id":"levelo_inurba_marseille","lat":43.269531,"lon":5.386267,"is_reserved":false,"is_disabled":false,"rental_uris":{"android":"levelo://app?vid=70fc0df1-c0cc-48b7-9459-b433be18cb12","ios":"levelo://app?vid=70fc0df1-c0cc-48b7-9459-b433be18cb12"},"vehicle_type_id":"4","last_reported":1778917697,"current_range_meters":4000,"station_id":"ce4bhh92rcd13ifvqfh0","pricing_plan_id":"cebpf4jnsgd1na2vs0mg"},{"bike_id":"1acf4b9e-bc2a-4444-8faa-988509eb626f","system_id":"levelo_inurba_marseille","lat":43.31051,"lon":5.3717,"is_reserved":false,"is_disabled":false,"rental_uris":{"android":"levelo://app?vid=1acf4b9e-bc2a-4444-8faa-988509eb626f","ios":"levelo://app?vid=1acf4b9e-bc2a-4444-8faa-988509eb626f"},"vehicle_type_id":"4","last_reported":1778917697,"current_range_meters":4000,"station_id":"st_d4kl2rp97mjs73e7tdfg","pricing_plan_id":"cebpf4jnsgd1na2vs0mg"},{"bike_id":"caeefb51-7c3c-45aa-bafa-17ab17688b10","system_id":"levelo_inurba_marseille","lat":43.26028,"lon":5.3756,"is_reserved":false,"is_disabled":false,"rental_uris":{"android":"levelo://app?vid=caeefb51-7c3c-45aa-bafa-17ab17688b10","ios":"levelo://app?vid=caeefb51-7c3c-45aa-bafa-17ab17688b10"},"vehicle_type_id":"4","last_reported":1778917697,"current_range_meters":4000,"station_id":"ce4bhgh2rcd13ifvqfa0","pricing_plan_id":"cebpf4jnsgd1na2vs0mg"},{"bike_id":"d35a5361-ecbd-4756-a272-e790a164bf93","system_id":"levelo_inurba_marseille","lat":43.26225,"lon":5.40456,"is_reserved":false,"is_disabled":false,"rental_uris":{"android":"levelo://app?vid=d35a5361-ecbd-4756-a272-e790a164bf93","ios":"levelo://app?vid=d35a5361-ecbd-4756-a272-e790a164bf93"},"vehicle_type_id":"4","last_reported":1778917697,"current_range_meters":4000,"station_id":"ce4bhmh2rcd13ifvqgmg","pricing_plan_id":"cebpf4jnsgd1na2vs0mg"},{"bike_id":"f3198137-cbc8-4311-8899-b4ab689fee46","system_id":"levelo_inurba_marseille","lat":43.26033,"lon":5.37555,"is_reserved":false,"is_disabled":false,"rental_uris":{"android":"levelo://app?vid=f3198137-cbc8-4311-8899-b4ab689fee46","ios":"levelo://app?vid=f3198137-cbc8-4311-8899-b4ab689fee46"},"vehicle_type_id":"4","last_reported":1778917697,"current_range_meters":4000,"station_id":"ce4bhgh2rcd13ifvqfa0","pricing_plan_id":"cebpf4jnsgd1na2vs0mg"},{"bike_id":"19d69b75-f53d-4f9d-b459-a8ec1a163024","system_id":"levelo_inurba_marseille","lat":43.3017,"lon":5.38104,"is_reserved":false,"is_disabled":true,"rental_uris":{"android":"levelo://app?vid=19d69b75-f53d-4f9d-b459-a8ec1a163024","ios":"levelo://app?vid=19d69b75-f53d-4f9d-b459-a8ec1a163024"},"vehicle_type_id":"4","last_reported":1778917697,"current_range_meters":4000,"station_id":"ce4bgjp2rcd13ifvqbh0","pricing_plan_id":"cebpf4jnsgd1na2vs0mg"},{"bike_id":"18eb90ac-eec2-4913-9241-dd8d26049a6e","system_id":"levelo_inurba_marseille","lat":43.28706,"lon":5.46691,"is_reserved":false,"is_disabled":false,"rental_uris":{"android":"levelo://app?vid=18eb90ac-eec2-4913-9241-dd8d26049a6e","ios":"levelo://app?vid=18eb90ac-eec2-4913-9241-dd8d26049a6e"},"vehicle_type_id":"4","last_reported":1778917697,"current_range_meters":4000,"station_id":"st_d6tc3vkotcvc738tfjhg","pricing_plan_id":"cebpf4jnsgd1na2vs0mg"},{"bike_id":"a9ae89fc-206c-4d68-b57f-4b9d3c27636e","system_id":"levelo_inurba_marseille","lat":43.22553,"lon":5.41627,"is_reserved":false,"is_disabled":false,"rental_uris":{"android":"levelo://app?vid=a9ae89fc-206c-4d68-b57f-4b9d3c27636e","ios":"levelo://app?vid=a9ae89fc-206c-4d68-b57f-4b9d3c27636e"},"vehicle_type_id":"4","last_reported":1778917697,"current_range_meters":4000,"station_id":"st_d2o4gvlbi1j2169b742g","pricing_plan_id":"cebpf4jnsgd1na2vs0mg"},{"bike_id":"0851ef02-abf8-47b5-8d41-445bb5757760","system_id":"levelo_inurba_marseille","lat":43.26946,"lon":5.40223,"is_reserved":false,"is_disabled":false,"rental_uris":{"android":"levelo://app?vid=0851ef02-abf8-47b5-8d41-445bb5757760","ios":"levelo://app?vid=0851ef02-abf8-47b5-8d41-445bb5757760"},"vehicle_type_id":"4","last_reported":1778917697,"current_range_meters":4000,"station_id":"cjm6bp8fraef2m0cb0m0","pricing_plan_id":"cebpf4jnsgd1na2vs0mg"},{"bike_id":"eb69ded8-3844-4366-a6c0-c2401c6cc839","system_id":"levelo_inurba_marseille","lat":43.28719,"lon":5.46676,"is_reserved":false,"is_disabled":false,"rental_uris":{"android":"levelo://app?vid=eb69ded8-3844-4366-a6c0-c2401c6cc839","ios":"levelo://app?vid=eb69ded8-3844-4366-a6c0-c2401c6cc839"},"vehicle_type_id":"4","last_reported":1778917697,"current_range_meters":4000,"station_id":"st_d6tc3vkotcvc738tfjhg","pricing_plan_id":"cebpf4jnsgd1na2vs0mg"},{"bike_id":"bbe275d8-1d7d-42ea-8fb6-7f3180ca80c1","system_id":"levelo_inurba_marseille","lat":43.30884,"lon":5.39658,"is_reserved":false,"is_disabled":false,"rental_uris":{"android":"levelo://app?vid=bbe275d8-1d7d-42ea-8fb6-7f3180ca80c1","ios":"levelo://app?vid=bbe275d8-1d7d-42ea-8fb6-7f3180ca80c1"},"vehicle_type_id":"4","last_reported":1778917697,"current_range_meters":4400,"station_id":"ce4bh012rcd13ifvqcv0","pricing_plan_id":"cebpf4jnsgd1na2vs0mg"},{"bike_id":"4c4af55b-f60f-4b0e-bc18-caba52c3f95e","system_id":"levelo_inurba_marseille","lat":43.29561,"lon":5.4229,"is_reserved":false,"is_disabled":false,"rental_uris":{"android":"levelo://app?vid=4c4af55b-f60f-4b0e-bc18-caba52c3f95e","ios":"levelo://app?vid=4c4af55b-f60f-4b0e-bc18-caba52c3f95e"},"vehicle_type_id":"4","last_reported":1778917697,"current_range_meters":4400,"station_id":"ce4bhph2rcd13ifvqhdg","pricing_plan_id":"cebpf4jnsgd1na2vs0mg"},{"bike_id":"295b23cf-88f3-4532-bfd2-e73c230f5c13","system_id":"levelo_inurba_marseille","lat":43.27947,"lon":5.38741,"is_reserved":false,"is_disabled":false,"rental_uris":{"android":"levelo://app?vid=295b23cf-88f3-4532-bfd2-e73c230f5c13","ios":"levelo://app?vid=295b23cf-88f3-4532-bfd2-e73c230f5c13"},"vehicle_type_id":"4","last_reported":1778917697,"current_range_meters":4400,"station_id":"ce4bhg12rcd13ifvqf80","pricing_plan_id":"cebpf4jnsgd1na2vs0mg"},{"bike_id":"664a66cf-32f5-4d4e-b164-e0c7e3c4db03","system_id":"levelo_inurba_marseille","lat":43.250836,"lon":5.395278,"is_reserved":false,"is_disabled":false,"rental_uris":{"android":"levelo://app?vid=664a66cf-32f5-4d4e-b164-e0c7e3c4db03","ios":"levelo://app?vid=664a66cf-32f5-4d4e-b164-e0c7e3c4db03"},"vehicle_type_id":"4","last_reported":1778917697,"current_range_meters":4400,"station_id":"ce4bhm12rcd13ifvqgkg","pricing_plan_id":"cebpf4jnsgd1na2vs0mg"},{"bike_id":"a5b30788-7f54-4822-ab18-9d03c3d0a4c9","system_id":"levelo_inurba_marseille","lat":43.2736,"lon":5.36259,"is_reserved":false,"is_disabled":false,"rental_uris":{"android":"levelo://app?vid=a5b30788-7f54-4822-ab18-9d03c3d0a4c9","ios":"levelo://app?vid=a5b30788-7f54-4822-ab18-9d03c3d0a4c9"},"vehicle_type_id":"4","last_reported":1778917697,"current_range_meters":4400,"station_id":"ce4bhbh2rcd13ifvqeo0","pricing_plan_id":"cebpf4jnsgd1na2vs0mg"},{"bike_id":"c15b7d9d-4d2e-4558-9fe7-1ee3f2efc7ae","system_id":"levelo_inurba_marseille","lat":43.2949,"lon":5.43312,"is_reserved":false,"is_disabled":false,"rental_uris":{"android":"levelo://app?vid=c15b7d9d-4d2e-4558-9fe7-1ee3f2efc7ae","ios":"levelo://app?vid=c15b7d9d-4d2e-4558-9fe7-1ee3f2efc7ae"},"vehicle_type_id":"4","last_reported":1778917697,"current_range_meters":4400,"station_id":"st_d3j5ugp08ojc73fj9d10","pricing_plan_id":"cebpf4jnsgd1na2vs0mg"},{"bike_id":"579c1010-a0a4-4e44-bcba-24d9838b4262","system_id":"levelo_inurba_marseille","lat":43.24962,"lon":5.40532,"is_reserved":false,"is_disabled":false,"rental_uris":{"android":"levelo://app?vid=579c1010-a0a4-4e44-bcba-24d9838b4262","ios":"levelo://app?vid=579c1010-a0a4-4e44-bcba-24d9838b4262"},"vehicle_type_id":"4","last_reported":1778917697,"current_range_meters":4400,"station_id":"st_d2ngiaodas8pm72gd1h0","pricing_plan_id":"cebpf4jnsgd1na2vs0mg"},{"bike_id":"2d670795-ba4f-472c-8cb2-f6597f8549c8","system_id":"levelo_inurba_marseille","lat":43.29785,"lon":5.39368,"is_reserved":false,"is_disabled":true,"rental_uris":{"android":"levelo://app?vid=2d670795-ba4f-472c-8cb2-f6597f8549c8","ios":"levelo://app?vid=2d670795-ba4f-472c-8cb2-f6597f8549c8"},"vehicle_type_id":"4","last_reported":1778917697,"current_range_meters":4800,"station_id":"chh1huq6cuj3fo74tm60","pricing_plan_id":"cebpf4jnsgd1na2vs0mg"},{"bike_id":"df06f853-df8b-44c5-8abd-63dd254e997c","system_id":"levelo_inurba_marseille","lat":43.29818,"lon":5.38645,"is_reserved":false,"is_disabled":false,"rental_uris":{"android":"levelo://app?vid=df06f853-df8b-44c5-8abd-63dd254e997c","ios":"levelo://app?vid=df06f853-df8b-44c5-8abd-63dd254e997c"},"vehicle_type_id":"4","last_reported":1778917697,"current_range_meters":4800,"station_id":"","pricing_plan_id":"cebpf4jnsgd1na2vs0mg"},{"bike_id":"67ecae68-d24a-4dbc-b685-351365b700de","system_id":"levelo_inurba_marseille","lat":43.25485,"lon":5.37696,"is_reserved":false,"is_disabled":false,"rental_uris":{"android":"levelo://app?vid=67ecae68-d24a-4dbc-b685-351365b700de","ios":"levelo://app?vid=67ecae68-d24a-4dbc-b685-351365b700de"},"vehicle_type_id":"4","last_reported":1778917697,"current_range_meters":4800,"station_id":"ce4bhh12rcd13ifvqff0","pricing_plan_id":"cebpf4jnsgd1na2vs0mg"},{"bike_id":"197f8590-4140-4e11-8b87-67ad98bb4bca","system_id":"levelo_inurba_marseille","lat":43.28609,"lon":5.37071,"is_reserved":false,"is_disabled":true,"rental_uris":{"android":"levelo://app?vid=197f8590-4140-4e11-8b87-67ad98bb4bca","ios":"levelo://app?vid=197f8590-4140-4e11-8b87-67ad98bb4bca"},"vehicle_type_id":"4","last_reported":1778917697,"current_range_meters":4800,"station_id":"ce4bht12rcd13ifvqi60","pricing_plan_id":"cebpf4jnsgd1na2vs0mg"},{"bike_id":"538f37b0-047f-427d-bdee-4c68e20fce42","system_id":"levelo_inurba_marseille","lat":43.26599,"lon":5.37271,"is_reserved":false,"is_disabled":false,"rental_uris":{"android":"levelo://app?vid=538f37b0-047f-427d-bdee-4c68e20fce42","ios":"levelo://app?vid=538f37b0-047f-427d-bdee-4c68e20fce42"},"vehicle_type_id":"4","last_reported":1778917697,"current_range_meters":4800,"station_id":"ce4bhg12rcd13ifvqf70","pricing_plan_id":"cebpf4jnsgd1na2vs0mg"},{"bike_id":"3007388a-056f-4684-be3d-794e8cb052f8","system_id":"levelo_inurba_marseille","lat":43.2974,"lon":5.37684,"is_reserved":false,"is_disabled":false,"rental_uris":{"android":"levelo://app?vid=3007388a-056f-4684-be3d-794e8cb052f8","ios":"levelo://app?vid=3007388a-056f-4684-be3d-794e8cb052f8"},"vehicle_type_id":"4","last_reported":1778917697,"current_range_meters":4800,"station_id":"ce4bgkh2rcd13ifvqbl0","pricing_plan_id":"cebpf4jnsgd1na2vs0mg"},{"bike_id":"c73b603c-d18f-447d-ac06-429d2b6b15a8","system_id":"levelo_inurba_marseille","lat":43.22943,"lon":5.35384,"is_reserved":false,"is_disabled":false,"rental_uris":{"android":"levelo://app?vid=c73b603c-d18f-447d-ac06-429d2b6b15a8","ios":"levelo://app?vid=c73b603c-d18f-447d-ac06-429d2b6b15a8"},"vehicle_type_id":"4","last_reported":1778917697,"current_range_meters":4800,"station_id":"cpo3532slgdg3j2ikp40","pricing_plan_id":"cebpf4jnsgd1na2vs0mg"},{"bike_id":"dc0c6757-b834-4a5b-94c9-a7b9f022d20f","system_id":"levelo_inurba_marseille","lat":43.2737,"lon":5.36236,"is_reserved":false,"is_disabled":false,"rental_uris":{"android":"levelo://app?vid=dc0c6757-b834-4a5b-94c9-a7b9f022d20f","ios":"levelo://app?vid=dc0c6757-b834-4a5b-94c9-a7b9f022d20f"},"vehicle_type_id":"4","last_reported":1778917697,"current_range_meters":4800,"station_id":"ce4bhbh2rcd13ifvqeo0","pricing_plan_id":"cebpf4jnsgd1na2vs0mg"},{"bike_id":"69a4de94-ae1f-4385-aa61-58a2336f8cb8","system_id":"levelo_inurba_marseille","lat":43.30024,"lon":5.43054,"is_reserved":false,"is_disabled":false,"rental_uris":{"android":"levelo://app?vid=69a4de94-ae1f-4385-aa61-58a2336f8cb8","ios":"levelo://app?vid=69a4de94-ae1f-4385-aa61-58a2336f8cb8"},"vehicle_type_id":"4","last_reported":1778917697,"current_range_meters":4800,"station_id":"","pricing_plan_id":"cebpf4jnsgd1na2vs0mg"},{"bike_id":"417bd26b-1701-485b-b896-bb7adc98bac9","system_id":"levelo_inurba_marseille","lat":43.2396,"lon":5.36627,"is_reserved":false,"is_disabled":true,"rental_uris":{"android":"levelo://app?vid=417bd26b-1701-485b-b896-bb7adc98bac9","ios":"levelo://app?vid=417bd26b-1701-485b-b896-bb7adc98bac9"},"vehicle_type_id":"4","last_reported":1778917697,"current_range_meters":4800,"station_id":"ce4bhi12rcd13ifvqfp0","pricing_plan_id":"cebpf4jnsgd1na2vs0mg"},{"bike_id":"db0bf439-071c-4cae-a137-7c84db3cf1d8","system_id":"levelo_inurba_marseille","lat":43.257204,"lon":5.411129,"is_reserved":false,"is_disabled":false,"rental_uris":{"android":"levelo://app?vid=db0bf439-071c-4cae-a137-7c84db3cf1d8","ios":"levelo://app?vid=db0bf439-071c-4cae-a137-7c84db3cf1d8"},"vehicle_type_id":"4","last_reported":1778917697,"current_range_meters":4800,"station_id":"ce4bhkp2rcd13ifvqgd0","pricing_plan_id":"cebpf4jnsgd1na2vs0mg"},{"bike_id":"44d71ae5-a5e6-42a3-99db-4175ddd046fa","system_id":"levelo_inurba_marseille","lat":43.31047,"lon":5.37157,"is_reserved":false,"is_disabled":false,"rental_uris":{"android":"levelo://app?vid=44d71ae5-a5e6-42a3-99db-4175ddd046fa","ios":"levelo://app?vid=44d71ae5-a5e6-42a3-99db-4175ddd046fa"},"vehicle_type_id":"4","last_reported":1778917697,"current_range_meters":4800,"station_id":"st_d4kl2rp97mjs73e7tdfg","pricing_plan_id":"cebpf4jnsgd1na2vs0mg"},{"bike_id":"4c1456b4-c5f4-49ed-bd33-6f63525d7c4f","system_id":"levelo_inurba_marseille","lat":43.27986,"lon":5.3872,"is_reserved":false,"is_disabled":true,"rental_uris":{"android":"levelo://app?vid=4c1456b4-c5f4-49ed-bd33-6f63525d7c4f","ios":"levelo://app?vid=4c1456b4-c5f4-49ed-bd33-6f63525d7c4f"},"vehicle_type_id":"4","last_reported":1778917697,"current_range_meters":4800,"station_id":"ce4bhg12rcd13ifvqf80","pricing_plan_id":"cebpf4jnsgd1na2vs0mg"},{"bike_id":"bea8f6dc-3107-47d3-94c4-947f2ef9741a","system_id":"levelo_inurba_marseille","lat":43.24164,"lon":5.3639,"is_reserved":false,"is_disabled":false,"rental_uris":{"android":"levelo://app?vid=bea8f6dc-3107-47d3-94c4-947f2ef9741a","ios":"levelo://app?vid=bea8f6dc-3107-47d3-94c4-947f2ef9741a"},"vehicle_type_id":"4","last_reported":1778917697,"current_range_meters":4800,"station_id":"cpo36qri1sfpv3e86is0","pricing_plan_id":"cebpf4jnsgd1na2vs0mg"},{"bike_id":"55ba4af7-a49e-4f0b-adbf-e969fb355a90","system_id":"levelo_inurba_marseille","lat":43.30141,"lon":5.39884,"is_reserved":false,"is_disabled":false,"rental_uris":{"android":"levelo://app?vid=55ba4af7-a49e-4f0b-adbf-e969fb355a90","ios":"levelo://app?vid=55ba4af7-a49e-4f0b-adbf-e969fb355a90"},"vehicle_type_id":"4","last_reported":1778917697,"current_range_meters":4800,"station_id":"ce4bh0h2rcd13ifvqd40","pricing_plan_id":"cebpf4jnsgd1na2vs0mg"},{"bike_id":"2143e575-068a-477e-a5ad-1b8c1c42c969","system_id":"levelo_inurba_marseille","lat":43.26561,"lon":5.37295,"is_reserved":false,"is_disabled":false,"rental_uris":{"android":"levelo://app?vid=2143e575-068a-477e-a5ad-1b8c1c42c969","ios":"levelo://app?vid=2143e575-068a-477e-a5ad-1b8c1c42c969"},"vehicle_type_id":"4","last_reported":1778917697,"current_range_meters":4800,"station_id":"ce4bhg12rcd13ifvqf70","pricing_plan_id":"cebpf4jnsgd1na2vs0mg"},{"bike_id":"24cad884-f326-447a-9ef4-dd08493578cd","system_id":"levelo_inurba_marseille","lat":43.3011,"lon":5.39049,"is_reserved":false,"is_disabled":false,"rental_uris":{"android":"levelo://app?vid=24cad884-f326-447a-9ef4-dd08493578cd","ios":"levelo://app?vid=24cad884-f326-447a-9ef4-dd08493578cd"},"vehicle_type_id":"4","last_reported":1778917697,"current_range_meters":5600,"station_id":"ce4bh192rcd13ifvqdb0","pricing_plan_id":"cebpf4jnsgd1na2vs0mg"},{"bike_id":"305f8012-853c-4e5c-b4a3-badea1215a44","system_id":"levelo_inurba_marseille","lat":43.33754,"lon":5.37506,"is_reserved":false,"is_disabled":false,"rental_uris":{"android":"levelo://app?vid=305f8012-853c-4e5c-b4a3-badea1215a44","ios":"levelo://app?vid=305f8012-853c-4e5c-b4a3-badea1215a44"},"vehicle_type_id":"4","last_reported":1778917697,"current_range_meters":5600,"station_id":"","pricing_plan_id":"cebpf4jnsgd1na2vs0mg"},{"bike_id":"37d316cd-6e63-4dba-996f-5684dc1ba64d","system_id":"levelo_inurba_marseille","lat":43.24819,"lon":5.37455,"is_reserved":false,"is_disabled":false,"rental_uris":{"android":"levelo://app?vid=37d316cd-6e63-4dba-996f-5684dc1ba64d","ios":"levelo://app?vid=37d316cd-6e63-4dba-996f-5684dc1ba64d"},"vehicle_type_id":"4","last_reported":1778917697,"current_range_meters":5600,"station_id":"ce4bhgh2rcd13ifvqfb0","pricing_plan_id":"cebpf4jnsgd1na2vs0mg"},{"bike_id":"580fe52f-7e9c-457a-b814-ad9e2d2f32ba","system_id":"levelo_inurba_marseille","lat":43.26543,"lon":5.37299,"is_reserved":false,"is_disabled":false,"rental_uris":{"android":"levelo://app?vid=580fe52f-7e9c-457a-b814-ad9e2d2f32ba","ios":"levelo://app?vid=580fe52f-7e9c-457a-b814-ad9e2d2f32ba"},"vehicle_type_id":"4","last_reported":1778917697,"current_range_meters":5600,"station_id":"ce4bhg12rcd13ifvqf70","pricing_plan_id":"cebpf4jnsgd1na2vs0mg"},{"bike_id":"f35538c5-f923-479b-ac74-73e10ca6c589","system_id":"levelo_inurba_marseille","lat":43.25568,"lon":5.38225,"is_reserved":false,"is_disabled":false,"rental_uris":{"android":"levelo://app?vid=f35538c5-f923-479b-ac74-73e10ca6c589","ios":"levelo://app?vid=f35538c5-f923-479b-ac74-73e10ca6c589"},"vehicle_type_id":"4","last_reported":1778917697,"current_range_meters":5600,"station_id":"ce4bhih2rcd13ifvqfs0","pricing_plan_id":"cebpf4jnsgd1na2vs0mg"},{"bike_id":"4a8828bf-5352-4721-8c19-0a06947545c0","system_id":"levelo_inurba_marseille","lat":43.27993,"lon":5.41653,"is_reserved":false,"is_disabled":false,"rental_uris":{"android":"levelo://app?vid=4a8828bf-5352-4721-8c19-0a06947545c0","ios":"levelo://app?vid=4a8828bf-5352-4721-8c19-0a06947545c0"},"vehicle_type_id":"4","last_reported":1778917697,"current_range_meters":5600,"station_id":"ce4bho12rcd13ifvqh1g","pricing_plan_id":"cebpf4jnsgd1na2vs0mg"},{"bike_id":"89a26143-74c4-49ae-b5cf-e30eaecdc6d9","system_id":"levelo_inurba_marseille","lat":43.2534,"lon":5.42165,"is_reserved":false,"is_disabled":false,"rental_uris":{"android":"levelo://app?vid=89a26143-74c4-49ae-b5cf-e30eaecdc6d9","ios":"levelo://app?vid=89a26143-74c4-49ae-b5cf-e30eaecdc6d9"},"vehicle_type_id":"4","last_reported":1778917697,"current_range_meters":5600,"station_id":"st_d2m65c5bi1j21697t3ng","pricing_plan_id":"cebpf4jnsgd1na2vs0mg"},{"bike_id":"a4d50b46-8145-44ba-8a7c-9dfc5ac5c408","system_id":"levelo_inurba_marseille","lat":43.30933,"lon":5.40139,"is_reserved":false,"is_disabled":false,"rental_uris":{"android":"levelo://app?vid=a4d50b46-8145-44ba-8a7c-9dfc5ac5c408","ios":"levelo://app?vid=a4d50b46-8145-44ba-8a7c-9dfc5ac5c408"},"vehicle_type_id":"4","last_reported":1778917697,"current_range_meters":6000,"station_id":"ce4bgvp2rcd13ifvqct0","pricing_plan_id":"cebpf4jnsgd1na2vs0mg"},{"bike_id":"6661dcda-2c61-4ee5-8306-6a982459bb60","system_id":"levelo_inurba_marseille","lat":43.25764,"lon":5.4108,"is_reserved":false,"is_disabled":false,"rental_uris":{"android":"levelo://app?vid=6661dcda-2c61-4ee5-8306-6a982459bb60","ios":"levelo://app?vid=6661dcda-2c61-4ee5-8306-6a982459bb60"},"vehicle_type_id":"4","last_reported":1778917697,"current_range_meters":6000,"station_id":"","pricing_plan_id":"cebpf4jnsgd1na2vs0mg"},{"bike_id":"ceeae13a-87c9-4495-9238-e5a5cc9c4c69","system_id":"levelo_inurba_marseille","lat":43.296255,"lon":5.37151,"is_reserved":false,"is_disabled":false,"rental_uris":{"android":"levelo://app?vid=ceeae13a-87c9-4495-9238-e5a5cc9c4c69","ios":"levelo://app?vid=ceeae13a-87c9-4495-9238-e5a5cc9c4c69"},"vehicle_type_id":"4","last_reported":1778917697,"current_range_meters":6000,"station_id":"ce4bgnh2rcd13ifvqc0g","pricing_plan_id":"cebpf4jnsgd1na2vs0mg"},{"bike_id":"4a1cb5aa-30fd-413c-854e-87a16ba9759a","system_id":"levelo_inurba_marseille","lat":43.30159,"lon":5.3808,"is_reserved":false,"is_disabled":false,"rental_uris":{"android":"levelo://app?vid=4a1cb5aa-30fd-413c-854e-87a16ba9759a","ios":"levelo://app?vid=4a1cb5aa-30fd-413c-854e-87a16ba9759a"},"vehicle_type_id":"4","last_reported":1778917697,"current_range_meters":6000,"station_id":"ce4bgjp2rcd13ifvqbh0","pricing_plan_id":"cebpf4jnsgd1na2vs0mg"},{"bike_id":"9f099b54-5b53-4454-8009-293b63c1af4a","system_id":"levelo_inurba_marseille","lat":43.27996,"lon":5.41683,"is_reserved":false,"is_disabled":true,"rental_uris":{"android":"levelo://app?vid=9f099b54-5b53-4454-8009-293b63c1af4a","ios":"levelo://app?vid=9f099b54-5b53-4454-8009-293b63c1af4a"},"vehicle_type_id":"4","last_reported":1778917697,"current_range_meters":6000,"station_id":"ce4bho12rcd13ifvqh1g","pricing_plan_id":"cebpf4jnsgd1na2vs0mg"},{"bike_id":"1f27b9c7-f593-4ee3-b394-7ce199ed2756","system_id":"levelo_inurba_marseille","lat":43.309018,"lon":5.37188,"is_reserved":false,"is_disabled":false,"rental_uris":{"android":"levelo://app?vid=1f27b9c7-f593-4ee3-b394-7ce199ed2756","ios":"levelo://app?vid=1f27b9c7-f593-4ee3-b394-7ce199ed2756"},"vehicle_type_id":"4","last_reported":1778917697,"current_range_meters":6000,"station_id":"","pricing_plan_id":"cebpf4jnsgd1na2vs0mg"},{"bike_id":"432944d6-33e6-4bed-af1c-ead24600ae1a","system_id":"levelo_inurba_marseille","lat":43.32103,"lon":5.36778,"is_reserved":false,"is_disabled":false,"rental_uris":{"android":"levelo://app?vid=432944d6-33e6-4bed-af1c-ead24600ae1a","ios":"levelo://app?vid=432944d6-33e6-4bed-af1c-ead24600ae1a"},"vehicle_type_id":"4","last_reported":1778917697,"current_range_meters":6000,"station_id":"ce4bhrh2rcd13ifvqhug","pricing_plan_id":"cebpf4jnsgd1na2vs0mg"},{"bike_id":"dcec64ae-b356-4132-8856-dfb3218b0d77","system_id":"levelo_inurba_marseille","lat":43.26223,"lon":5.37451,"is_reserved":false,"is_disabled":false,"rental_uris":{"android":"levelo://app?vid=dcec64ae-b356-4132-8856-dfb3218b0d77","ios":"levelo://app?vid=dcec64ae-b356-4132-8856-dfb3218b0d77"},"vehicle_type_id":"4","last_reported":1778917697,"current_range_meters":6000,"station_id":"ce4bhgp2rcd13ifvqfc0","pricing_plan_id":"cebpf4jnsgd1na2vs0mg"},{"bike_id":"ca01c33c-99c8-4ff8-a274-d065c7262a1a","system_id":"levelo_inurba_marseille","lat":43.26403,"lon":5.38832,"is_reserved":false,"is_disabled":false,"rental_uris":{"android":"levelo://app?vid=ca01c33c-99c8-4ff8-a274-d065c7262a1a","ios":"levelo://app?vid=ca01c33c-99c8-4ff8-a274-d065c7262a1a"},"vehicle_type_id":"4","last_reported":1778917697,"current_range_meters":6000,"station_id":"","pricing_plan_id":"cebpf4jnsgd1na2vs0mg"},{"bike_id":"b19257af-9e4e-49cb-ad22-4cd5e6b7cb98","system_id":"levelo_inurba_marseille","lat":43.260226,"lon":5.375542,"is_reserved":false,"is_disabled":false,"rental_uris":{"android":"levelo://app?vid=b19257af-9e4e-49cb-ad22-4cd5e6b7cb98","ios":"levelo://app?vid=b19257af-9e4e-49cb-ad22-4cd5e6b7cb98"},"vehicle_type_id":"4","last_reported":1778917697,"current_range_meters":6000,"station_id":"ce4bhgh2rcd13ifvqfa0","pricing_plan_id":"cebpf4jnsgd1na2vs0mg"},{"bike_id":"b467cf52-e84d-42b9-ad71-bed97235ec79","system_id":"levelo_inurba_marseille","lat":43.29706,"lon":5.37704,"is_reserved":false,"is_disabled":false,"rental_uris":{"android":"levelo://app?vid=b467cf52-e84d-42b9-ad71-bed97235ec79","ios":"levelo://app?vid=b467cf52-e84d-42b9-ad71-bed97235ec79"},"vehicle_type_id":"4","last_reported":1778917697,"current_range_meters":6400,"station_id":"ce4bgkh2rcd13ifvqbl0","pricing_plan_id":"cebpf4jnsgd1na2vs0mg"},{"bike_id":"fc3434ec-3f12-4fe2-a883-c7406c4652f9","system_id":"levelo_inurba_marseille","lat":43.29488,"lon":5.43306,"is_reserved":false,"is_disabled":false,"rental_uris":{"android":"levelo://app?vid=fc3434ec-3f12-4fe2-a883-c7406c4652f9","ios":"levelo://app?vid=fc3434ec-3f12-4fe2-a883-c7406c4652f9"},"vehicle_type_id":"4","last_reported":1778917697,"current_range_meters":6400,"station_id":"st_d3j5ugp08ojc73fj9d10","pricing_plan_id":"cebpf4jnsgd1na2vs0mg"},{"bike_id":"931dcfac-d30f-4735-8e52-5f4470372184","system_id":"levelo_inurba_marseille","lat":43.30131,"lon":5.43109,"is_reserved":false,"is_disabled":false,"rental_uris":{"android":"levelo://app?vid=931dcfac-d30f-4735-8e52-5f4470372184","ios":"levelo://app?vid=931dcfac-d30f-4735-8e52-5f4470372184"},"vehicle_type_id":"4","last_reported":1778917697,"current_range_meters":6400,"station_id":"st_d3js3co5814s73ftftug","pricing_plan_id":"cebpf4jnsgd1na2vs0mg"},{"bike_id":"310313f9-4c8b-458d-834b-81e71f22dc3f","system_id":"levelo_inurba_marseille","lat":43.27911,"lon":5.39582,"is_reserved":false,"is_disabled":true,"rental_uris":{"android":"levelo://app?vid=310313f9-4c8b-458d-834b-81e71f22dc3f","ios":"levelo://app?vid=310313f9-4c8b-458d-834b-81e71f22dc3f"},"vehicle_type_id":"4","last_reported":1778917697,"current_range_meters":6400,"station_id":"ce4bhf92rcd13ifvqf40","pricing_plan_id":"cebpf4jnsgd1na2vs0mg"},{"bike_id":"ba857fbd-dfd7-4912-a275-4ec1b34f9a01","system_id":"levelo_inurba_marseille","lat":43.28032,"lon":5.36936,"is_reserved":false,"is_disabled":false,"rental_uris":{"android":"levelo://app?vid=ba857fbd-dfd7-4912-a275-4ec1b34f9a01","ios":"levelo://app?vid=ba857fbd-dfd7-4912-a275-4ec1b34f9a01"},"vehicle_type_id":"4","last_reported":1778917697,"current_range_meters":6400,"station_id":"ce4bha12rcd13ifvqef0","pricing_plan_id":"cebpf4jnsgd1na2vs0mg"},{"bike_id":"e609a89a-6410-4875-a945-42b2ad423f10","system_id":"levelo_inurba_marseille","lat":43.28345,"lon":5.38098,"is_reserved":false,"is_disabled":false,"rental_uris":{"android":"levelo://app?vid=e609a89a-6410-4875-a945-42b2ad423f10","ios":"levelo://app?vid=e609a89a-6410-4875-a945-42b2ad423f10"},"vehicle_type_id":"4","last_reported":1778917697,"current_range_meters":6400,"station_id":"ce4bh412rcd13ifvqdr0","pricing_plan_id":"cebpf4jnsgd1na2vs0mg"},{"bike_id":"eb1530c2-05ee-47e4-9578-08c4c36eedd7","system_id":"levelo_inurba_marseille","lat":43.30117,"lon":5.39065,"is_reserved":false,"is_disabled":true,"rental_uris":{"android":"levelo://app?vid=eb1530c2-05ee-47e4-9578-08c4c36eedd7","ios":"levelo://app?vid=eb1530c2-05ee-47e4-9578-08c4c36eedd7"},"vehicle_type_id":"4","last_reported":1778917697,"current_range_meters":6400,"station_id":"ce4bh192rcd13ifvqdb0","pricing_plan_id":"cebpf4jnsgd1na2vs0mg"},{"bike_id":"76e33348-6a4a-4160-8477-e9650ddfdc10","system_id":"levelo_inurba_marseille","lat":43.29552,"lon":5.42286,"is_reserved":false,"is_disabled":false,"rental_uris":{"android":"levelo://app?vid=76e33348-6a4a-4160-8477-e9650ddfdc10","ios":"levelo://app?vid=76e33348-6a4a-4160-8477-e9650ddfdc10"},"vehicle_type_id":"4","last_reported":1778917697,"current_range_meters":6400,"station_id":"ce4bhph2rcd13ifvqhdg","pricing_plan_id":"cebpf4jnsgd1na2vs0mg"},{"bike_id":"ab883a8a-7183-49e5-b0ca-478bfd40dbb5","system_id":"levelo_inurba_marseille","lat":43.2756,"lon":5.38419,"is_reserved":false,"is_disabled":false,"rental_uris":{"android":"levelo://app?vid=ab883a8a-7183-49e5-b0ca-478bfd40dbb5","ios":"levelo://app?vid=ab883a8a-7183-49e5-b0ca-478bfd40dbb5"},"vehicle_type_id":"4","last_reported":1778917697,"current_range_meters":6400,"station_id":"ce4bhh92rcd13ifvqfi0","pricing_plan_id":"cebpf4jnsgd1na2vs0mg"},{"bike_id":"c522deca-789e-49b3-982f-1f0402a24572","system_id":"levelo_inurba_marseille","lat":43.24662,"lon":5.38844,"is_reserved":false,"is_disabled":false,"rental_uris":{"android":"levelo://app?vid=c522deca-789e-49b3-982f-1f0402a24572","ios":"levelo://app?vid=c522deca-789e-49b3-982f-1f0402a24572"},"vehicle_type_id":"4","last_reported":1778917697,"current_range_meters":6400,"station_id":"ce4bhg12rcd13ifvqf60","pricing_plan_id":"cebpf4jnsgd1na2vs0mg"},{"bike_id":"a5c5be50-ce00-4da7-abf1-c1c9f0e32704","system_id":"levelo_inurba_marseille","lat":43.29648,"lon":5.40579,"is_reserved":false,"is_disabled":false,"rental_uris":{"android":"levelo://app?vid=a5c5be50-ce00-4da7-abf1-c1c9f0e32704","ios":"levelo://app?vid=a5c5be50-ce00-4da7-abf1-c1c9f0e32704"},"vehicle_type_id":"4","last_reported":1778917697,"current_range_meters":6400,"station_id":"ce4bh0h2rcd13ifvqd60","pricing_plan_id":"cebpf4jnsgd1na2vs0mg"},{"bike_id":"9ff893e8-a35b-4276-8349-bacec107d22b","system_id":"levelo_inurba_marseille","lat":43.31221,"lon":5.37923,"is_reserved":false,"is_disabled":false,"rental_uris":{"android":"levelo://app?vid=9ff893e8-a35b-4276-8349-bacec107d22b","ios":"levelo://app?vid=9ff893e8-a35b-4276-8349-bacec107d22b"},"vehicle_type_id":"4","last_reported":1778917697,"current_range_meters":6400,"station_id":"","pricing_plan_id":"cebpf4jnsgd1na2vs0mg"},{"bike_id":"c9b1ac49-d9f8-4375-bdc3-bd1b41ef209b","system_id":"levelo_inurba_marseille","lat":43.3108,"lon":5.42452,"is_reserved":false,"is_disabled":false,"rental_uris":{"android":"levelo://app?vid=c9b1ac49-d9f8-4375-bdc3-bd1b41ef209b","ios":"levelo://app?vid=c9b1ac49-d9f8-4375-bdc3-bd1b41ef209b"},"vehicle_type_id":"4","last_reported":1778917697,"current_range_meters":6400,"station_id":"ce4bhp92rcd13ifvqhag","pricing_plan_id":"cebpf4jnsgd1na2vs0mg"},{"bike_id":"3aaea1d2-93de-4683-931c-fdaa0d1fca0c","system_id":"levelo_inurba_marseille","lat":43.29974,"lon":5.3717,"is_reserved":false,"is_disabled":false,"rental_uris":{"android":"levelo://app?vid=3aaea1d2-93de-4683-931c-fdaa0d1fca0c","ios":"levelo://app?vid=3aaea1d2-93de-4683-931c-fdaa0d1fca0c"},"vehicle_type_id":"4","last_reported":1778917697,"current_range_meters":6400,"station_id":"ce4bgr92rcd13ifvqc7g","pricing_plan_id":"cebpf4jnsgd1na2vs0mg"},{"bike_id":"2b985fc8-08fa-4ec6-960d-c0c57f8b93de","system_id":"levelo_inurba_marseille","lat":43.24549,"lon":5.39523,"is_reserved":false,"is_disabled":false,"rental_uris":{"android":"levelo://app?vid=2b985fc8-08fa-4ec6-960d-c0c57f8b93de","ios":"levelo://app?vid=2b985fc8-08fa-4ec6-960d-c0c57f8b93de"},"vehicle_type_id":"4","last_reported":1778917697,"current_range_meters":6400,"station_id":"ce4bhlp2rcd13ifvqgjg","pricing_plan_id":"cebpf4jnsgd1na2vs0mg"},{"bike_id":"2e9752dd-56d6-4ed8-aeb7-442842038533","system_id":"levelo_inurba_marseille","lat":43.27491,"lon":5.42454,"is_reserved":false,"is_disabled":false,"rental_uris":{"android":"levelo://app?vid=2e9752dd-56d6-4ed8-aeb7-442842038533","ios":"levelo://app?vid=2e9752dd-56d6-4ed8-aeb7-442842038533"},"vehicle_type_id":"4","last_reported":1778917697,"current_range_meters":6400,"station_id":"ce4bhn92rcd13ifvqgrg","pricing_plan_id":"cebpf4jnsgd1na2vs0mg"},{"bike_id":"a31b0904-d014-4ccb-8341-50edb15d7f66","system_id":"levelo_inurba_marseille","lat":43.26686,"lon":5.38261,"is_reserved":false,"is_disabled":false,"rental_uris":{"android":"levelo://app?vid=a31b0904-d014-4ccb-8341-50edb15d7f66","ios":"levelo://app?vid=a31b0904-d014-4ccb-8341-50edb15d7f66"},"vehicle_type_id":"4","last_reported":1778917697,"current_range_meters":6400,"station_id":"ce4bhg92rcd13ifvqf90","pricing_plan_id":"cebpf4jnsgd1na2vs0mg"},{"bike_id":"9e90ecb9-eb42-4b6f-b217-a489aed4d6ac","system_id":"levelo_inurba_marseille","lat":43.32499,"lon":5.38302,"is_reserved":false,"is_disabled":false,"rental_uris":{"android":"levelo://app?vid=9e90ecb9-eb42-4b6f-b217-a489aed4d6ac","ios":"levelo://app?vid=9e90ecb9-eb42-4b6f-b217-a489aed4d6ac"},"vehicle_type_id":"4","last_reported":1778917697,"current_range_meters":6400,"station_id":"st_d4asgbiv49dc73anf9m0","pricing_plan_id":"cebpf4jnsgd1na2vs0mg"},{"bike_id":"a704520b-7f8f-4940-8659-58281d89e054","system_id":"levelo_inurba_marseille","lat":43.25722,"lon":5.41093,"is_reserved":false,"is_disabled":false,"rental_uris":{"android":"levelo://app?vid=a704520b-7f8f-4940-8659-58281d89e054","ios":"levelo://app?vid=a704520b-7f8f-4940-8659-58281d89e054"},"vehicle_type_id":"4","last_reported":1778917697,"current_range_meters":6400,"station_id":"ce4bhkp2rcd13ifvqgd0","pricing_plan_id":"cebpf4jnsgd1na2vs0mg"},{"bike_id":"c9c70cd7-6f40-4957-9af6-281ee3b7acd5","system_id":"levelo_inurba_marseille","lat":43.28614,"lon":5.39898,"is_reserved":false,"is_disabled":false,"rental_uris":{"android":"levelo://app?vid=c9c70cd7-6f40-4957-9af6-281ee3b7acd5","ios":"levelo://app?vid=c9c70cd7-6f40-4957-9af6-281ee3b7acd5"},"vehicle_type_id":"4","last_reported":1778917697,"current_range_meters":6400,"station_id":"st_d4a7ka997mjs738ck50g","pricing_plan_id":"cebpf4jnsgd1na2vs0mg"},{"bike_id":"d90e1575-ec76-461f-9701-a245bb59404f","system_id":"levelo_inurba_marseille","lat":43.24384,"lon":5.37037,"is_reserved":false,"is_disabled":false,"rental_uris":{"android":"levelo://app?vid=d90e1575-ec76-461f-9701-a245bb59404f","ios":"levelo://app?vid=d90e1575-ec76-461f-9701-a245bb59404f"},"vehicle_type_id":"4","last_reported":1778917697,"current_range_meters":6400,"station_id":"ce4bhhh2rcd13ifvqfk0","pricing_plan_id":"cebpf4jnsgd1na2vs0mg"},{"bike_id":"2c4e2c80-7a7f-49e7-8a11-230c3e37ee87","system_id":"levelo_inurba_marseille","lat":43.22565,"lon":5.41628,"is_reserved":false,"is_disabled":false,"rental_uris":{"android":"levelo://app?vid=2c4e2c80-7a7f-49e7-8a11-230c3e37ee87","ios":"levelo://app?vid=2c4e2c80-7a7f-49e7-8a11-230c3e37ee87"},"vehicle_type_id":"4","last_reported":1778917697,"current_range_meters":6800,"station_id":"st_d2o4gvlbi1j2169b742g","pricing_plan_id":"cebpf4jnsgd1na2vs0mg"},{"bike_id":"14b4d5ff-5bff-497e-8206-75d2399ff363","system_id":"levelo_inurba_marseille","lat":43.31074,"lon":5.3715,"is_reserved":false,"is_disabled":false,"rental_uris":{"android":"levelo://app?vid=14b4d5ff-5bff-497e-8206-75d2399ff363","ios":"levelo://app?vid=14b4d5ff-5bff-497e-8206-75d2399ff363"},"vehicle_type_id":"4","last_reported":1778917697,"current_range_meters":6800,"station_id":"st_d4kl2rp97mjs73e7tdfg","pricing_plan_id":"cebpf4jnsgd1na2vs0mg"},{"bike_id":"da25d015-d7dd-4fbf-997f-9acf97aa246b","system_id":"levelo_inurba_marseille","lat":43.28608,"lon":5.35105,"is_reserved":false,"is_disabled":false,"rental_uris":{"android":"levelo://app?vid=da25d015-d7dd-4fbf-997f-9acf97aa246b","ios":"levelo://app?vid=da25d015-d7dd-4fbf-997f-9acf97aa246b"},"vehicle_type_id":"4","last_reported":1778917697,"current_range_meters":6800,"station_id":"ce4bhch2rcd13ifvqeug","pricing_plan_id":"cebpf4jnsgd1na2vs0mg"},{"bike_id":"84496ff4-7ca0-4094-8a0f-b50184415265","system_id":"levelo_inurba_marseille","lat":43.26547,"lon":5.37292,"is_reserved":false,"is_disabled":false,"rental_uris":{"android":"levelo://app?vid=84496ff4-7ca0-4094-8a0f-b50184415265","ios":"levelo://app?vid=84496ff4-7ca0-4094-8a0f-b50184415265"},"vehicle_type_id":"4","last_reported":1778917697,"current_range_meters":6800,"station_id":"ce4bhg12rcd13ifvqf70","pricing_plan_id":"cebpf4jnsgd1na2vs0mg"},{"bike_id":"fd543899-18cf-4478-b86b-854229cf6c99","system_id":"levelo_inurba_marseille","lat":43.29267,"lon":5.38439,"is_reserved":false,"is_disabled":false,"rental_uris":{"android":"levelo://app?vid=fd543899-18cf-4478-b86b-854229cf6c99","ios":"levelo://app?vid=fd543899-18cf-4478-b86b-854229cf6c99"},"vehicle_type_id":"4","last_reported":1778917697,"current_range_meters":6800,"station_id":"ce4bh692rcd13ifvqea0","pricing_plan_id":"cebpf4jnsgd1na2vs0mg"},{"bike_id":"f2155f52-8bee-4917-9ad6-c70fd2ebaa35","system_id":"levelo_inurba_marseille","lat":43.25337,"lon":5.42177,"is_reserved":false,"is_disabled":false,"rental_uris":{"android":"levelo://app?vid=f2155f52-8bee-4917-9ad6-c70fd2ebaa35","ios":"levelo://app?vid=f2155f52-8bee-4917-9ad6-c70fd2ebaa35"},"vehicle_type_id":"4","last_reported":1778917697,"current_range_meters":6800,"station_id":"st_d2m65c5bi1j21697t3ng","pricing_plan_id":"cebpf4jnsgd1na2vs0mg"},{"bike_id":"996bb126-198e-42bb-99a0-1c834dfbb3ba","system_id":"levelo_inurba_marseille","lat":43.30154,"lon":5.38101,"is_reserved":false,"is_disabled":false,"rental_uris":{"android":"levelo://app?vid=996bb126-198e-42bb-99a0-1c834dfbb3ba","ios":"levelo://app?vid=996bb126-198e-42bb-99a0-1c834dfbb3ba"},"vehicle_type_id":"4","last_reported":1778917697,"current_range_meters":6800,"station_id":"ce4bgjp2rcd13ifvqbh0","pricing_plan_id":"cebpf4jnsgd1na2vs0mg"},{"bike_id":"a7c68890-a173-43aa-8f53-5e8d56e89b57","system_id":"levelo_inurba_marseille","lat":43.307291,"lon":5.40954,"is_reserved":false,"is_disabled":false,"rental_uris":{"android":"levelo://app?vid=a7c68890-a173-43aa-8f53-5e8d56e89b57","ios":"levelo://app?vid=a7c68890-a173-43aa-8f53-5e8d56e89b57"},"vehicle_type_id":"4","last_reported":1778917697,"current_range_meters":6800,"station_id":"","pricing_plan_id":"cebpf4jnsgd1na2vs0mg"},{"bike_id":"1c155cb8-50aa-4ad8-95d4-a32cca5f7a07","system_id":"levelo_inurba_marseille","lat":43.24467,"lon":5.42539,"is_reserved":false,"is_disabled":false,"rental_uris":{"android":"levelo://app?vid=1c155cb8-50aa-4ad8-95d4-a32cca5f7a07","ios":"levelo://app?vid=1c155cb8-50aa-4ad8-95d4-a32cca5f7a07"},"vehicle_type_id":"4","last_reported":1778917697,"current_range_meters":6800,"station_id":"st_d4a3vfp97mjs738cd8kg","pricing_plan_id":"cebpf4jnsgd1na2vs0mg"},{"bike_id":"bf4140c2-b60d-49c9-a4a2-8e589e154982","system_id":"levelo_inurba_marseille","lat":43.33552,"lon":5.37396,"is_reserved":false,"is_disabled":false,"rental_uris":{"android":"levelo://app?vid=bf4140c2-b60d-49c9-a4a2-8e589e154982","ios":"levelo://app?vid=bf4140c2-b60d-49c9-a4a2-8e589e154982"},"vehicle_type_id":"4","last_reported":1778917697,"current_range_meters":6800,"station_id":"","pricing_plan_id":"cebpf4jnsgd1na2vs0mg"},{"bike_id":"bc1ceef2-7ab6-4b29-97cf-e699caf1898f","system_id":"levelo_inurba_marseille","lat":43.24649,"lon":5.38891,"is_reserved":false,"is_disabled":false,"rental_uris":{"android":"levelo://app?vid=bc1ceef2-7ab6-4b29-97cf-e699caf1898f","ios":"levelo://app?vid=bc1ceef2-7ab6-4b29-97cf-e699caf1898f"},"vehicle_type_id":"4","last_reported":1778917697,"current_range_meters":6800,"station_id":"ce4bhg12rcd13ifvqf60","pricing_plan_id":"cebpf4jnsgd1na2vs0mg"},{"bike_id":"ecb43cf3-4571-441f-b7de-470cf95dfc38","system_id":"levelo_inurba_marseille","lat":43.21755,"lon":5.34617,"is_reserved":false,"is_disabled":false,"rental_uris":{"android":"levelo://app?vid=ecb43cf3-4571-441f-b7de-470cf95dfc38","ios":"levelo://app?vid=ecb43cf3-4571-441f-b7de-470cf95dfc38"},"vehicle_type_id":"4","last_reported":1778917697,"current_range_meters":6800,"station_id":"st_cvj6r9ubvosntc0bgbag","pricing_plan_id":"cebpf4jnsgd1na2vs0mg"},{"bike_id":"d2b9001b-3bd6-4e11-a455-c06b5cf0ca28","system_id":"levelo_inurba_marseille","lat":43.29591,"lon":5.381,"is_reserved":false,"is_disabled":true,"rental_uris":{"android":"levelo://app?vid=d2b9001b-3bd6-4e11-a455-c06b5cf0ca28","ios":"levelo://app?vid=d2b9001b-3bd6-4e11-a455-c06b5cf0ca28"},"vehicle_type_id":"4","last_reported":1778917697,"current_range_meters":6800,"station_id":"ce4bgl12rcd13ifvqbo0","pricing_plan_id":"cebpf4jnsgd1na2vs0mg"},{"bike_id":"c92eee69-21ac-4706-88a8-527d3a7dfc5c","system_id":"levelo_inurba_marseille","lat":43.28702,"lon":5.37365,"is_reserved":false,"is_disabled":false,"rental_uris":{"android":"levelo://app?vid=c92eee69-21ac-4706-88a8-527d3a7dfc5c","ios":"levelo://app?vid=c92eee69-21ac-4706-88a8-527d3a7dfc5c"},"vehicle_type_id":"4","last_reported":1778917697,"current_range_meters":6800,"station_id":"ce4bh3p2rcd13ifvqdq0","pricing_plan_id":"cebpf4jnsgd1na2vs0mg"},{"bike_id":"c0afe38e-1b1f-4737-9474-5d6681e1c046","system_id":"levelo_inurba_marseille","lat":43.29865,"lon":5.42071,"is_reserved":false,"is_disabled":false,"rental_uris":{"android":"levelo://app?vid=c0afe38e-1b1f-4737-9474-5d6681e1c046","ios":"levelo://app?vid=c0afe38e-1b1f-4737-9474-5d6681e1c046"},"vehicle_type_id":"4","last_reported":1778917697,"current_range_meters":7200,"station_id":"st_d6tc004otcvc738tfe70","pricing_plan_id":"cebpf4jnsgd1na2vs0mg"},{"bike_id":"03891f04-e4d5-4f4c-a686-0dee6d4aa3c1","system_id":"levelo_inurba_marseille","lat":43.30917,"lon":5.36861,"is_reserved":false,"is_disabled":false,"rental_uris":{"android":"levelo://app?vid=03891f04-e4d5-4f4c-a686-0dee6d4aa3c1","ios":"levelo://app?vid=03891f04-e4d5-4f4c-a686-0dee6d4aa3c1"},"vehicle_type_id":"4","last_reported":1778917697,"current_range_meters":7200,"station_id":"ce4bgn92rcd13ifvqbvg","pricing_plan_id":"cebpf4jnsgd1na2vs0mg"},{"bike_id":"2afb1c43-c4ae-4dbf-a94b-bbd6e75c31b0","system_id":"levelo_inurba_marseille","lat":43.2976,"lon":5.37648,"is_reserved":false,"is_disabled":false,"rental_uris":{"android":"levelo://app?vid=2afb1c43-c4ae-4dbf-a94b-bbd6e75c31b0","ios":"levelo://app?vid=2afb1c43-c4ae-4dbf-a94b-bbd6e75c31b0"},"vehicle_type_id":"4","last_reported":1778917697,"current_range_meters":7200,"station_id":"","pricing_plan_id":"cebpf4jnsgd1na2vs0mg"},{"bike_id":"30bdff29-9aa2-4944-9e9e-fbb89a71a011","system_id":"levelo_inurba_marseille","lat":43.29521,"lon":5.39409,"is_reserved":false,"is_disabled":true,"rental_uris":{"android":"levelo://app?vid=30bdff29-9aa2-4944-9e9e-fbb89a71a011","ios":"levelo://app?vid=30bdff29-9aa2-4944-9e9e-fbb89a71a011"},"vehicle_type_id":"4","last_reported":1778917697,"current_range_meters":7200,"station_id":"ce4bh292rcd13ifvqdf0","pricing_plan_id":"cebpf4jnsgd1na2vs0mg"},{"bike_id":"a56a8a0c-3ab9-465a-bdae-f5897ec1f98a","system_id":"levelo_inurba_marseille","lat":43.24166,"lon":5.36394,"is_reserved":false,"is_disabled":false,"rental_uris":{"android":"levelo://app?vid=a56a8a0c-3ab9-465a-bdae-f5897ec1f98a","ios":"levelo://app?vid=a56a8a0c-3ab9-465a-bdae-f5897ec1f98a"},"vehicle_type_id":"4","last_reported":1778917697,"current_range_meters":7200,"station_id":"cpo36qri1sfpv3e86is0","pricing_plan_id":"cebpf4jnsgd1na2vs0mg"},{"bike_id":"015aad6e-f7c0-4598-9ad7-38c4d3fee62c","system_id":"levelo_inurba_marseille","lat":43.28611,"lon":5.35108,"is_reserved":false,"is_disabled":false,"rental_uris":{"android":"levelo://app?vid=015aad6e-f7c0-4598-9ad7-38c4d3fee62c","ios":"levelo://app?vid=015aad6e-f7c0-4598-9ad7-38c4d3fee62c"},"vehicle_type_id":"4","last_reported":1778917697,"current_range_meters":7200,"station_id":"ce4bhch2rcd13ifvqeug","pricing_plan_id":"cebpf4jnsgd1na2vs0mg"},{"bike_id":"8d4da0a0-2079-44d4-825d-24f7411e190b","system_id":"levelo_inurba_marseille","lat":43.3199,"lon":5.38152,"is_reserved":false,"is_disabled":false,"rental_uris":{"android":"levelo://app?vid=8d4da0a0-2079-44d4-825d-24f7411e190b","ios":"levelo://app?vid=8d4da0a0-2079-44d4-825d-24f7411e190b"},"vehicle_type_id":"4","last_reported":1778917697,"current_range_meters":7200,"station_id":"ce4bhr12rcd13ifvqhpg","pricing_plan_id":"cebpf4jnsgd1na2vs0mg"},{"bike_id":"a62cbf92-2c84-4b8b-8455-b7c2ecf0213a","system_id":"levelo_inurba_marseille","lat":43.29558,"lon":5.3989,"is_reserved":false,"is_disabled":false,"rental_uris":{"android":"levelo://app?vid=a62cbf92-2c84-4b8b-8455-b7c2ecf0213a","ios":"levelo://app?vid=a62cbf92-2c84-4b8b-8455-b7c2ecf0213a"},"vehicle_type_id":"4","last_reported":1778917697,"current_range_meters":7200,"station_id":"","pricing_plan_id":"cebpf4jnsgd1na2vs0mg"},{"bike_id":"92aa287c-1ffd-4e0d-a777-d680461d889a","system_id":"levelo_inurba_marseille","lat":43.22553,"lon":5.41638,"is_reserved":false,"is_disabled":false,"rental_uris":{"android":"levelo://app?vid=92aa287c-1ffd-4e0d-a777-d680461d889a","ios":"levelo://app?vid=92aa287c-1ffd-4e0d-a777-d680461d889a"},"vehicle_type_id":"4","last_reported":1778917697,"current_range_meters":7200,"station_id":"st_d2o4gvlbi1j2169b742g","pricing_plan_id":"cebpf4jnsgd1na2vs0mg"},{"bike_id":"6ed28fa0-f20b-450d-a789-f0b565e64f1b","system_id":"levelo_inurba_marseille","lat":43.29814,"lon":5.38296,"is_reserved":false,"is_disabled":false,"rental_uris":{"android":"levelo://app?vid=6ed28fa0-f20b-450d-a789-f0b565e64f1b","ios":"levelo://app?vid=6ed28fa0-f20b-450d-a789-f0b565e64f1b"},"vehicle_type_id":"4","last_reported":1778917697,"current_range_meters":7200,"station_id":"","pricing_plan_id":"cebpf4jnsgd1na2vs0mg"},{"bike_id":"055a60b0-3aaa-43d9-a34f-b28b189e58ea","system_id":"levelo_inurba_marseille","lat":43.29163,"lon":5.37156,"is_reserved":false,"is_disabled":true,"rental_uris":{"android":"levelo://app?vid=055a60b0-3aaa-43d9-a34f-b28b189e58ea","ios":"levelo://app?vid=055a60b0-3aaa-43d9-a34f-b28b189e58ea"},"vehicle_type_id":"4","last_reported":1778917697,"current_range_meters":7200,"station_id":"ce4bha92rcd13ifvqeh0","pricing_plan_id":"cebpf4jnsgd1na2vs0mg"},{"bike_id":"2d2c7674-d2ca-402f-b8b0-47c4cc0178f0","system_id":"levelo_inurba_marseille","lat":43.23143,"lon":5.43711,"is_reserved":false,"is_disabled":false,"rental_uris":{"android":"levelo://app?vid=2d2c7674-d2ca-402f-b8b0-47c4cc0178f0","ios":"levelo://app?vid=2d2c7674-d2ca-402f-b8b0-47c4cc0178f0"},"vehicle_type_id":"4","last_reported":1778917697,"current_range_meters":7200,"station_id":"ce4bhmp2rcd13ifvqgog","pricing_plan_id":"cebpf4jnsgd1na2vs0mg"},{"bike_id":"c6c3ffa5-2514-4dce-9955-6dea3b87213e","system_id":"levelo_inurba_marseille","lat":43.33546,"lon":5.37456,"is_reserved":false,"is_disabled":false,"rental_uris":{"android":"levelo://app?vid=c6c3ffa5-2514-4dce-9955-6dea3b87213e","ios":"levelo://app?vid=c6c3ffa5-2514-4dce-9955-6dea3b87213e"},"vehicle_type_id":"4","last_reported":1778917697,"current_range_meters":7200,"station_id":"st_d46tts09ee8s73dlu43g","pricing_plan_id":"cebpf4jnsgd1na2vs0mg"},{"bike_id":"47ed1e61-4521-4891-9a88-a361ffece6cb","system_id":"levelo_inurba_marseille","lat":43.29561,"lon":5.37504,"is_reserved":false,"is_disabled":false,"rental_uris":{"android":"levelo://app?vid=47ed1e61-4521-4891-9a88-a361ffece6cb","ios":"levelo://app?vid=47ed1e61-4521-4891-9a88-a361ffece6cb"},"vehicle_type_id":"4","last_reported":1778917697,"current_range_meters":7200,"station_id":"ce4bgh92rcd13ifvqb50","pricing_plan_id":"cebpf4jnsgd1na2vs0mg"},{"bike_id":"e36e9ae6-760f-4d6b-b27b-2683e1da6b8e","system_id":"levelo_inurba_marseille","lat":43.31782,"lon":5.38996,"is_reserved":false,"is_disabled":false,"rental_uris":{"android":"levelo://app?vid=e36e9ae6-760f-4d6b-b27b-2683e1da6b8e","ios":"levelo://app?vid=e36e9ae6-760f-4d6b-b27b-2683e1da6b8e"},"vehicle_type_id":"4","last_reported":1778917697,"current_range_meters":7200,"station_id":"ce4bhqp2rcd13ifvqhng","pricing_plan_id":"cebpf4jnsgd1na2vs0mg"},{"bike_id":"dc437964-578c-4f7a-be1e-9a5b7abec9f5","system_id":"levelo_inurba_marseille","lat":43.24501,"lon":5.37598,"is_reserved":false,"is_disabled":false,"rental_uris":{"android":"levelo://app?vid=dc437964-578c-4f7a-be1e-9a5b7abec9f5","ios":"levelo://app?vid=dc437964-578c-4f7a-be1e-9a5b7abec9f5"},"vehicle_type_id":"4","last_reported":1778917697,"current_range_meters":7200,"station_id":"","pricing_plan_id":"cebpf4jnsgd1na2vs0mg"},{"bike_id":"bc8c2695-d41e-43a5-a503-073f39b3a18d","system_id":"levelo_inurba_marseille","lat":43.27616,"lon":5.36119,"is_reserved":false,"is_disabled":false,"rental_uris":{"android":"levelo://app?vid=bc8c2695-d41e-43a5-a503-073f39b3a18d","ios":"levelo://app?vid=bc8c2695-d41e-43a5-a503-073f39b3a18d"},"vehicle_type_id":"4","last_reported":1778917697,"current_range_meters":7200,"station_id":"ce4bgj92rcd13ifvqbe0","pricing_plan_id":"cebpf4jnsgd1na2vs0mg"},{"bike_id":"559d1e2a-3378-464a-bb49-bac80a61d607","system_id":"levelo_inurba_marseille","lat":43.24461,"lon":5.42548,"is_reserved":false,"is_disabled":false,"rental_uris":{"android":"levelo://app?vid=559d1e2a-3378-464a-bb49-bac80a61d607","ios":"levelo://app?vid=559d1e2a-3378-464a-bb49-bac80a61d607"},"vehicle_type_id":"4","last_reported":1778917697,"current_range_meters":7200,"station_id":"st_d4a3vfp97mjs738cd8kg","pricing_plan_id":"cebpf4jnsgd1na2vs0mg"},{"bike_id":"489a1706-c3ea-4b0e-8e98-c2ee70717ba8","system_id":"levelo_inurba_marseille","lat":43.22553,"lon":5.41657,"is_reserved":false,"is_disabled":false,"rental_uris":{"android":"levelo://app?vid=489a1706-c3ea-4b0e-8e98-c2ee70717ba8","ios":"levelo://app?vid=489a1706-c3ea-4b0e-8e98-c2ee70717ba8"},"vehicle_type_id":"4","last_reported":1778917697,"current_range_meters":7200,"station_id":"st_d2o4gvlbi1j2169b742g","pricing_plan_id":"cebpf4jnsgd1na2vs0mg"},{"bike_id":"255a8db9-6ac5-445d-8da2-584280160595","system_id":"levelo_inurba_marseille","lat":43.29966,"lon":5.36728,"is_reserved":false,"is_disabled":false,"rental_uris":{"android":"levelo://app?vid=255a8db9-6ac5-445d-8da2-584280160595","ios":"levelo://app?vid=255a8db9-6ac5-445d-8da2-584280160595"},"vehicle_type_id":"4","last_reported":1778917697,"current_range_meters":7200,"station_id":"","pricing_plan_id":"cebpf4jnsgd1na2vs0mg"},{"bike_id":"14c55078-8297-4fb4-9c71-8d8160583bf5","system_id":"levelo_inurba_marseille","lat":43.25506,"lon":5.37669,"is_reserved":false,"is_disabled":false,"rental_uris":{"android":"levelo://app?vid=14c55078-8297-4fb4-9c71-8d8160583bf5","ios":"levelo://app?vid=14c55078-8297-4fb4-9c71-8d8160583bf5"},"vehicle_type_id":"4","last_reported":1778917697,"current_range_meters":7200,"station_id":"ce4bhh12rcd13ifvqff0","pricing_plan_id":"cebpf4jnsgd1na2vs0mg"},{"bike_id":"a4daa27a-ef2c-44dd-9374-6a461d1eeb5c","system_id":"levelo_inurba_marseille","lat":43.30264,"lon":5.40073,"is_reserved":false,"is_disabled":false,"rental_uris":{"android":"levelo://app?vid=a4daa27a-ef2c-44dd-9374-6a461d1eeb5c","ios":"levelo://app?vid=a4daa27a-ef2c-44dd-9374-6a461d1eeb5c"},"vehicle_type_id":"4","last_reported":1778917697,"current_range_meters":7200,"station_id":"ce4bgvh2rcd13ifvqcs0","pricing_plan_id":"cebpf4jnsgd1na2vs0mg"},{"bike_id":"25d874e2-4fb0-465d-875a-02b69a82441a","system_id":"levelo_inurba_marseille","lat":43.248,"lon":5.37469,"is_reserved":false,"is_disabled":false,"rental_uris":{"android":"levelo://app?vid=25d874e2-4fb0-465d-875a-02b69a82441a","ios":"levelo://app?vid=25d874e2-4fb0-465d-875a-02b69a82441a"},"vehicle_type_id":"4","last_reported":1778917697,"current_range_meters":7200,"station_id":"ce4bhgh2rcd13ifvqfb0","pricing_plan_id":"cebpf4jnsgd1na2vs0mg"},{"bike_id":"3688e233-d22d-4334-be4d-cc358b6380ef","system_id":"levelo_inurba_marseille","lat":43.29082,"lon":5.38127,"is_reserved":false,"is_disabled":false,"rental_uris":{"android":"levelo://app?vid=3688e233-d22d-4334-be4d-cc358b6380ef","ios":"levelo://app?vid=3688e233-d22d-4334-be4d-cc358b6380ef"},"vehicle_type_id":"4","last_reported":1778917697,"current_range_meters":8000,"station_id":"ce4bh512rcd13ifvqe2g","pricing_plan_id":"cebpf4jnsgd1na2vs0mg"},{"bike_id":"171050af-87b6-4745-966b-011c90f35208","system_id":"levelo_inurba_marseille","lat":43.29629,"lon":5.40608,"is_reserved":false,"is_disabled":false,"rental_uris":{"android":"levelo://app?vid=171050af-87b6-4745-966b-011c90f35208","ios":"levelo://app?vid=171050af-87b6-4745-966b-011c90f35208"},"vehicle_type_id":"4","last_reported":1778917697,"current_range_meters":8000,"station_id":"ce4bh0h2rcd13ifvqd60","pricing_plan_id":"cebpf4jnsgd1na2vs0mg"},{"bike_id":"74f12a6d-7a94-4ce3-8725-e3fbbe23ae70","system_id":"levelo_inurba_marseille","lat":43.33549,"lon":5.3746,"is_reserved":false,"is_disabled":false,"rental_uris":{"android":"levelo://app?vid=74f12a6d-7a94-4ce3-8725-e3fbbe23ae70","ios":"levelo://app?vid=74f12a6d-7a94-4ce3-8725-e3fbbe23ae70"},"vehicle_type_id":"4","last_reported":1778917697,"current_range_meters":8000,"station_id":"st_d46tts09ee8s73dlu43g","pricing_plan_id":"cebpf4jnsgd1na2vs0mg"},{"bike_id":"b3d3f46d-8b61-4048-a49d-46db42a99359","system_id":"levelo_inurba_marseille","lat":43.24803,"lon":5.37454,"is_reserved":false,"is_disabled":false,"rental_uris":{"android":"levelo://app?vid=b3d3f46d-8b61-4048-a49d-46db42a99359","ios":"levelo://app?vid=b3d3f46d-8b61-4048-a49d-46db42a99359"},"vehicle_type_id":"4","last_reported":1778917697,"current_range_meters":8000,"station_id":"ce4bhgh2rcd13ifvqfb0","pricing_plan_id":"cebpf4jnsgd1na2vs0mg"},{"bike_id":"9328df09-7c77-4ef9-a326-cd1cda9dd29d","system_id":"levelo_inurba_marseille","lat":43.30812,"lon":5.38434,"is_reserved":false,"is_disabled":false,"rental_uris":{"android":"levelo://app?vid=9328df09-7c77-4ef9-a326-cd1cda9dd29d","ios":"levelo://app?vid=9328df09-7c77-4ef9-a326-cd1cda9dd29d"},"vehicle_type_id":"4","last_reported":1778917697,"current_range_meters":8000,"station_id":"","pricing_plan_id":"cebpf4jnsgd1na2vs0mg"},{"bike_id":"3b37c839-ad07-497f-82aa-34f721cf3fa2","system_id":"levelo_inurba_marseille","lat":43.30099,"lon":5.39084,"is_reserved":false,"is_disabled":false,"rental_uris":{"android":"levelo://app?vid=3b37c839-ad07-497f-82aa-34f721cf3fa2","ios":"levelo://app?vid=3b37c839-ad07-497f-82aa-34f721cf3fa2"},"vehicle_type_id":"4","last_reported":1778917697,"current_range_meters":8000,"station_id":"ce4bh192rcd13ifvqdb0","pricing_plan_id":"cebpf4jnsgd1na2vs0mg"},{"bike_id":"b9fc383d-7675-4ac1-96a8-b14863e064c9","system_id":"levelo_inurba_marseille","lat":43.31286,"lon":5.37276,"is_reserved":false,"is_disabled":false,"rental_uris":{"android":"levelo://app?vid=b9fc383d-7675-4ac1-96a8-b14863e064c9","ios":"levelo://app?vid=b9fc383d-7675-4ac1-96a8-b14863e064c9"},"vehicle_type_id":"4","last_reported":1778917697,"current_range_meters":8000,"station_id":"","pricing_plan_id":"cebpf4jnsgd1na2vs0mg"},{"bike_id":"1124e8ed-181a-445d-9220-36e963831e6c","system_id":"levelo_inurba_marseille","lat":43.23894,"lon":5.37473,"is_reserved":false,"is_disabled":true,"rental_uris":{"android":"levelo://app?vid=1124e8ed-181a-445d-9220-36e963831e6c","ios":"levelo://app?vid=1124e8ed-181a-445d-9220-36e963831e6c"},"vehicle_type_id":"4","last_reported":1778917697,"current_range_meters":8000,"station_id":"st_d6sm7csbq4hs73f8fpjg","pricing_plan_id":"cebpf4jnsgd1na2vs0mg"},{"bike_id":"b307ebcf-a623-4ce8-bd6b-ce1a3ee616ac","system_id":"levelo_inurba_marseille","lat":43.25099,"lon":5.3952,"is_reserved":false,"is_disabled":false,"rental_uris":{"android":"levelo://app?vid=b307ebcf-a623-4ce8-bd6b-ce1a3ee616ac","ios":"levelo://app?vid=b307ebcf-a623-4ce8-bd6b-ce1a3ee616ac"},"vehicle_type_id":"4","last_reported":1778917697,"current_range_meters":8000,"station_id":"ce4bhm12rcd13ifvqgkg","pricing_plan_id":"cebpf4jnsgd1na2vs0mg"},{"bike_id":"40fba273-30a0-4610-9faa-17aeee18cf47","system_id":"levelo_inurba_marseille","lat":43.29619,"lon":5.38068,"is_reserved":false,"is_disabled":false,"rental_uris":{"android":"levelo://app?vid=40fba273-30a0-4610-9faa-17aeee18cf47","ios":"levelo://app?vid=40fba273-30a0-4610-9faa-17aeee18cf47"},"vehicle_type_id":"4","last_reported":1778917697,"current_range_meters":8000,"station_id":"ce4bgl12rcd13ifvqbo0","pricing_plan_id":"cebpf4jnsgd1na2vs0mg"},{"bike_id":"8ae83668-f991-4348-baf0-16da5513f81f","system_id":"levelo_inurba_marseille","lat":43.3155,"lon":5.37988,"is_reserved":false,"is_disabled":false,"rental_uris":{"android":"levelo://app?vid=8ae83668-f991-4348-baf0-16da5513f81f","ios":"levelo://app?vid=8ae83668-f991-4348-baf0-16da5513f81f"},"vehicle_type_id":"4","last_reported":1778917697,"current_range_meters":8000,"station_id":"ce4bhsp2rcd13ifvqi50","pricing_plan_id":"cebpf4jnsgd1na2vs0mg"},{"bike_id":"57716f1b-e850-455e-8535-b5db4b2543ce","system_id":"levelo_inurba_marseille","lat":43.27945,"lon":5.3868,"is_reserved":false,"is_disabled":false,"rental_uris":{"android":"levelo://app?vid=57716f1b-e850-455e-8535-b5db4b2543ce","ios":"levelo://app?vid=57716f1b-e850-455e-8535-b5db4b2543ce"},"vehicle_type_id":"4","last_reported":1778917697,"current_range_meters":8000,"station_id":"","pricing_plan_id":"cebpf4jnsgd1na2vs0mg"},{"bike_id":"810ef53a-5aff-49f3-99db-34213da1b1cf","system_id":"levelo_inurba_marseille","lat":43.28716,"lon":5.46675,"is_reserved":false,"is_disabled":false,"rental_uris":{"android":"levelo://app?vid=810ef53a-5aff-49f3-99db-34213da1b1cf","ios":"levelo://app?vid=810ef53a-5aff-49f3-99db-34213da1b1cf"},"vehicle_type_id":"4","last_reported":1778917697,"current_range_meters":8000,"station_id":"st_d6tc3vkotcvc738tfjhg","pricing_plan_id":"cebpf4jnsgd1na2vs0mg"},{"bike_id":"4cf8e064-21a7-4e57-ac70-a7acee42c98c","system_id":"levelo_inurba_marseille","lat":43.2761,"lon":5.36107,"is_reserved":false,"is_disabled":false,"rental_uris":{"android":"levelo://app?vid=4cf8e064-21a7-4e57-ac70-a7acee42c98c","ios":"levelo://app?vid=4cf8e064-21a7-4e57-ac70-a7acee42c98c"},"vehicle_type_id":"4","last_reported":1778917697,"current_range_meters":8000,"station_id":"ce4bgj92rcd13ifvqbe0","pricing_plan_id":"cebpf4jnsgd1na2vs0mg"},{"bike_id":"616c4552-df5e-4086-868d-328766d4b208","system_id":"levelo_inurba_marseille","lat":43.32295,"lon":5.38268,"is_reserved":false,"is_disabled":false,"rental_uris":{"android":"levelo://app?vid=616c4552-df5e-4086-868d-328766d4b208","ios":"levelo://app?vid=616c4552-df5e-4086-868d-328766d4b208"},"vehicle_type_id":"4","last_reported":1778917697,"current_range_meters":8000,"station_id":"ce4bhr12rcd13ifvqhqg","pricing_plan_id":"cebpf4jnsgd1na2vs0mg"},{"bike_id":"5b61ad3d-c4b3-4bf0-9170-da55ed29dbbb","system_id":"levelo_inurba_marseille","lat":43.30775,"lon":5.39343,"is_reserved":false,"is_disabled":false,"rental_uris":{"android":"levelo://app?vid=5b61ad3d-c4b3-4bf0-9170-da55ed29dbbb","ios":"levelo://app?vid=5b61ad3d-c4b3-4bf0-9170-da55ed29dbbb"},"vehicle_type_id":"4","last_reported":1778917697,"current_range_meters":8000,"station_id":"","pricing_plan_id":"cebpf4jnsgd1na2vs0mg"},{"bike_id":"b645593d-f67c-4f1b-b9f9-f8e1b08f24ee","system_id":"levelo_inurba_marseille","lat":43.25078,"lon":5.41348,"is_reserved":false,"is_disabled":false,"rental_uris":{"android":"levelo://app?vid=b645593d-f67c-4f1b-b9f9-f8e1b08f24ee","ios":"levelo://app?vid=b645593d-f67c-4f1b-b9f9-f8e1b08f24ee"},"vehicle_type_id":"4","last_reported":1778917697,"current_range_meters":8000,"station_id":"","pricing_plan_id":"cebpf4jnsgd1na2vs0mg"},{"bike_id":"a36168d9-0b2a-4981-8b8e-6a59ec3108e0","system_id":"levelo_inurba_marseille","lat":43.296282,"lon":5.377098,"is_reserved":false,"is_disabled":true,"rental_uris":{"android":"levelo://app?vid=a36168d9-0b2a-4981-8b8e-6a59ec3108e0","ios":"levelo://app?vid=a36168d9-0b2a-4981-8b8e-6a59ec3108e0"},"vehicle_type_id":"4","last_reported":1778917697,"current_range_meters":8000,"station_id":"","pricing_plan_id":"cebpf4jnsgd1na2vs0mg"},{"bike_id":"62d156b1-3ed6-496f-9d27-264502b676a3","system_id":"levelo_inurba_marseille","lat":43.33541,"lon":5.37476,"is_reserved":false,"is_disabled":false,"rental_uris":{"android":"levelo://app?vid=62d156b1-3ed6-496f-9d27-264502b676a3","ios":"levelo://app?vid=62d156b1-3ed6-496f-9d27-264502b676a3"},"vehicle_type_id":"4","last_reported":1778917697,"current_range_meters":8000,"station_id":"st_d46tts09ee8s73dlu43g","pricing_plan_id":"cebpf4jnsgd1na2vs0mg"},{"bike_id":"275452fa-49c7-4ee3-b3e6-44621052e7fd","system_id":"levelo_inurba_marseille","lat":43.28406,"lon":5.34995,"is_reserved":false,"is_disabled":false,"rental_uris":{"android":"levelo://app?vid=275452fa-49c7-4ee3-b3e6-44621052e7fd","ios":"levelo://app?vid=275452fa-49c7-4ee3-b3e6-44621052e7fd"},"vehicle_type_id":"4","last_reported":1778917697,"current_range_meters":8000,"station_id":"ce4bhbh2rcd13ifvqepg","pricing_plan_id":"cebpf4jnsgd1na2vs0mg"},{"bike_id":"78a05d99-04e8-4d44-b30f-76f897048f1b","system_id":"levelo_inurba_marseille","lat":43.27926,"lon":5.3958,"is_reserved":false,"is_disabled":false,"rental_uris":{"android":"levelo://app?vid=78a05d99-04e8-4d44-b30f-76f897048f1b","ios":"levelo://app?vid=78a05d99-04e8-4d44-b30f-76f897048f1b"},"vehicle_type_id":"4","last_reported":1778917697,"current_range_meters":8000,"station_id":"ce4bhf92rcd13ifvqf40","pricing_plan_id":"cebpf4jnsgd1na2vs0mg"},{"bike_id":"4ec959dd-1de1-448f-b442-aa2685dcb0b4","system_id":"levelo_inurba_marseille","lat":43.31214,"lon":5.36881,"is_reserved":false,"is_disabled":false,"rental_uris":{"android":"levelo://app?vid=4ec959dd-1de1-448f-b442-aa2685dcb0b4","ios":"levelo://app?vid=4ec959dd-1de1-448f-b442-aa2685dcb0b4"},"vehicle_type_id":"4","last_reported":1778917697,"current_range_meters":8000,"station_id":"ce4bgl92rcd13ifvqbq0","pricing_plan_id":"cebpf4jnsgd1na2vs0mg"},{"bike_id":"04c9ba06-a3b7-44d0-90b8-b53efcb0ab27","system_id":"levelo_inurba_marseille","lat":43.28509,"lon":5.38416,"is_reserved":false,"is_disabled":false,"rental_uris":{"android":"levelo://app?vid=04c9ba06-a3b7-44d0-90b8-b53efcb0ab27","ios":"levelo://app?vid=04c9ba06-a3b7-44d0-90b8-b53efcb0ab27"},"vehicle_type_id":"4","last_reported":1778917697,"current_range_meters":8000,"station_id":"ce4bh512rcd13ifvqe3g","pricing_plan_id":"cebpf4jnsgd1na2vs0mg"},{"bike_id":"ee15264c-c5fd-4c69-a06f-329fd6fb9d0d","system_id":"levelo_inurba_marseille","lat":43.3012,"lon":5.43119,"is_reserved":false,"is_disabled":false,"rental_uris":{"android":"levelo://app?vid=ee15264c-c5fd-4c69-a06f-329fd6fb9d0d","ios":"levelo://app?vid=ee15264c-c5fd-4c69-a06f-329fd6fb9d0d"},"vehicle_type_id":"4","last_reported":1778917697,"current_range_meters":8000,"station_id":"st_d3js3co5814s73ftftug","pricing_plan_id":"cebpf4jnsgd1na2vs0mg"},{"bike_id":"493397ed-d9be-4600-9fe1-57b99e6de4f4","system_id":"levelo_inurba_marseille","lat":43.29762,"lon":5.42793,"is_reserved":false,"is_disabled":false,"rental_uris":{"android":"levelo://app?vid=493397ed-d9be-4600-9fe1-57b99e6de4f4","ios":"levelo://app?vid=493397ed-d9be-4600-9fe1-57b99e6de4f4"},"vehicle_type_id":"4","last_reported":1778917697,"current_range_meters":8000,"station_id":"st_d3md5207bmas73dh9klg","pricing_plan_id":"cebpf4jnsgd1na2vs0mg"},{"bike_id":"9ab203a0-aded-4bb2-b7a8-94fae23f197e","system_id":"levelo_inurba_marseille","lat":43.23956,"lon":5.36612,"is_reserved":false,"is_disabled":false,"rental_uris":{"android":"levelo://app?vid=9ab203a0-aded-4bb2-b7a8-94fae23f197e","ios":"levelo://app?vid=9ab203a0-aded-4bb2-b7a8-94fae23f197e"},"vehicle_type_id":"4","last_reported":1778917697,"current_range_meters":8000,"station_id":"ce4bhi12rcd13ifvqfp0","pricing_plan_id":"cebpf4jnsgd1na2vs0mg"},{"bike_id":"965dbdf1-b8e3-4c38-83d5-0be6eb46d8fe","system_id":"levelo_inurba_marseille","lat":43.26228,"lon":5.40453,"is_reserved":false,"is_disabled":false,"rental_uris":{"android":"levelo://app?vid=965dbdf1-b8e3-4c38-83d5-0be6eb46d8fe","ios":"levelo://app?vid=965dbdf1-b8e3-4c38-83d5-0be6eb46d8fe"},"vehicle_type_id":"4","last_reported":1778917697,"current_range_meters":8000,"station_id":"ce4bhmh2rcd13ifvqgmg","pricing_plan_id":"cebpf4jnsgd1na2vs0mg"},{"bike_id":"11cfcfb7-7cef-4ca3-94fd-d649299b0219","system_id":"levelo_inurba_marseille","lat":43.31714,"lon":5.42416,"is_reserved":false,"is_disabled":false,"rental_uris":{"android":"levelo://app?vid=11cfcfb7-7cef-4ca3-94fd-d649299b0219","ios":"levelo://app?vid=11cfcfb7-7cef-4ca3-94fd-d649299b0219"},"vehicle_type_id":"4","last_reported":1778917697,"current_range_meters":8000,"station_id":"ce4bhp92rcd13ifvqhbg","pricing_plan_id":"cebpf4jnsgd1na2vs0mg"},{"bike_id":"e0ce2f37-052e-484f-8e3c-c297b98b6f87","system_id":"levelo_inurba_marseille","lat":43.30162,"lon":5.38097,"is_reserved":false,"is_disabled":false,"rental_uris":{"android":"levelo://app?vid=e0ce2f37-052e-484f-8e3c-c297b98b6f87","ios":"levelo://app?vid=e0ce2f37-052e-484f-8e3c-c297b98b6f87"},"vehicle_type_id":"4","last_reported":1778917697,"current_range_meters":8000,"station_id":"ce4bgjp2rcd13ifvqbh0","pricing_plan_id":"cebpf4jnsgd1na2vs0mg"},{"bike_id":"b48aa10c-bd41-47b2-81ea-431d3ed55830","system_id":"levelo_inurba_marseille","lat":43.29602,"lon":5.38092,"is_reserved":false,"is_disabled":false,"rental_uris":{"android":"levelo://app?vid=b48aa10c-bd41-47b2-81ea-431d3ed55830","ios":"levelo://app?vid=b48aa10c-bd41-47b2-81ea-431d3ed55830"},"vehicle_type_id":"4","last_reported":1778917697,"current_range_meters":8400,"station_id":"ce4bgl12rcd13ifvqbo0","pricing_plan_id":"cebpf4jnsgd1na2vs0mg"},{"bike_id":"4ef7aba0-b09a-4e31-9a6a-36b933089c45","system_id":"levelo_inurba_marseille","lat":43.29573,"lon":5.39959,"is_reserved":false,"is_disabled":false,"rental_uris":{"android":"levelo://app?vid=4ef7aba0-b09a-4e31-9a6a-36b933089c45","ios":"levelo://app?vid=4ef7aba0-b09a-4e31-9a6a-36b933089c45"},"vehicle_type_id":"4","last_reported":1778917697,"current_range_meters":8400,"station_id":"ce4bh312rcd13ifvqdj0","pricing_plan_id":"cebpf4jnsgd1na2vs0mg"},{"bike_id":"dbf94776-63a1-426f-85ae-41abd5903310","system_id":"levelo_inurba_marseille","lat":43.30954,"lon":5.37632,"is_reserved":false,"is_disabled":false,"rental_uris":{"android":"levelo://app?vid=dbf94776-63a1-426f-85ae-41abd5903310","ios":"levelo://app?vid=dbf94776-63a1-426f-85ae-41abd5903310"},"vehicle_type_id":"4","last_reported":1778917697,"current_range_meters":8400,"station_id":"","pricing_plan_id":"cebpf4jnsgd1na2vs0mg"},{"bike_id":"9d9da9b1-62c5-4232-8888-7d36c96bb153","system_id":"levelo_inurba_marseille","lat":43.27495,"lon":5.41602,"is_reserved":false,"is_disabled":false,"rental_uris":{"android":"levelo://app?vid=9d9da9b1-62c5-4232-8888-7d36c96bb153","ios":"levelo://app?vid=9d9da9b1-62c5-4232-8888-7d36c96bb153"},"vehicle_type_id":"4","last_reported":1778917697,"current_range_meters":8400,"station_id":"st_d6im8g6chgec73a5pndg","pricing_plan_id":"cebpf4jnsgd1na2vs0mg"},{"bike_id":"616353f1-4754-4f57-9465-e46d49d24354","system_id":"levelo_inurba_marseille","lat":43.3362,"lon":5.36306,"is_reserved":false,"is_disabled":false,"rental_uris":{"android":"levelo://app?vid=616353f1-4754-4f57-9465-e46d49d24354","ios":"levelo://app?vid=616353f1-4754-4f57-9465-e46d49d24354"},"vehicle_type_id":"4","last_reported":1778917697,"current_range_meters":8400,"station_id":"","pricing_plan_id":"cebpf4jnsgd1na2vs0mg"},{"bike_id":"fd40b65e-4533-406f-9f7a-1eb7ebc9e5a5","system_id":"levelo_inurba_marseille","lat":43.3018,"lon":5.36589,"is_reserved":false,"is_disabled":false,"rental_uris":{"android":"levelo://app?vid=fd40b65e-4533-406f-9f7a-1eb7ebc9e5a5","ios":"levelo://app?vid=fd40b65e-4533-406f-9f7a-1eb7ebc9e5a5"},"vehicle_type_id":"4","last_reported":1778917697,"current_range_meters":8400,"station_id":"ce4bgrh2rcd13ifvqc8g","pricing_plan_id":"cebpf4jnsgd1na2vs0mg"},{"bike_id":"4d31ed6e-13e0-4959-aa6c-cce6ffc3f7ff","system_id":"levelo_inurba_marseille","lat":43.27475,"lon":5.4159,"is_reserved":false,"is_disabled":false,"rental_uris":{"android":"levelo://app?vid=4d31ed6e-13e0-4959-aa6c-cce6ffc3f7ff","ios":"levelo://app?vid=4d31ed6e-13e0-4959-aa6c-cce6ffc3f7ff"},"vehicle_type_id":"4","last_reported":1778917697,"current_range_meters":8400,"station_id":"st_d6im8g6chgec73a5pndg","pricing_plan_id":"cebpf4jnsgd1na2vs0mg"},{"bike_id":"95d4bd31-b89c-4cb2-afa3-9e6e4ba15e30","system_id":"levelo_inurba_marseille","lat":43.25452,"lon":5.37648,"is_reserved":false,"is_disabled":false,"rental_uris":{"android":"levelo://app?vid=95d4bd31-b89c-4cb2-afa3-9e6e4ba15e30","ios":"levelo://app?vid=95d4bd31-b89c-4cb2-afa3-9e6e4ba15e30"},"vehicle_type_id":"4","last_reported":1778917697,"current_range_meters":8400,"station_id":"ce4bhh12rcd13ifvqff0","pricing_plan_id":"cebpf4jnsgd1na2vs0mg"},{"bike_id":"d603376b-37cb-4769-b2bf-07fc154e42df","system_id":"levelo_inurba_marseille","lat":43.262,"lon":5.37945,"is_reserved":false,"is_disabled":false,"rental_uris":{"android":"levelo://app?vid=d603376b-37cb-4769-b2bf-07fc154e42df","ios":"levelo://app?vid=d603376b-37cb-4769-b2bf-07fc154e42df"},"vehicle_type_id":"4","last_reported":1778917697,"current_range_meters":8400,"station_id":"ce4bhjp2rcd13ifvqg90","pricing_plan_id":"cebpf4jnsgd1na2vs0mg"},{"bike_id":"c840fdcf-1e65-4005-a5a6-debdb0deb9d7","system_id":"levelo_inurba_marseille","lat":43.31114,"lon":5.37762,"is_reserved":false,"is_disabled":false,"rental_uris":{"android":"levelo://app?vid=c840fdcf-1e65-4005-a5a6-debdb0deb9d7","ios":"levelo://app?vid=c840fdcf-1e65-4005-a5a6-debdb0deb9d7"},"vehicle_type_id":"4","last_reported":1778917697,"current_range_meters":8400,"station_id":"ce4bgt92rcd13ifvqcg0","pricing_plan_id":"cebpf4jnsgd1na2vs0mg"},{"bike_id":"b9785728-d604-45a3-8811-1929b23ae6f4","system_id":"levelo_inurba_marseille","lat":43.2439,"lon":5.37055,"is_reserved":false,"is_disabled":false,"rental_uris":{"android":"levelo://app?vid=b9785728-d604-45a3-8811-1929b23ae6f4","ios":"levelo://app?vid=b9785728-d604-45a3-8811-1929b23ae6f4"},"vehicle_type_id":"4","last_reported":1778917697,"current_range_meters":8400,"station_id":"ce4bhhh2rcd13ifvqfk0","pricing_plan_id":"cebpf4jnsgd1na2vs0mg"},{"bike_id":"4ee69d41-30d6-469e-829a-74d2ce79aff4","system_id":"levelo_inurba_marseille","lat":43.33536,"lon":5.37471,"is_reserved":false,"is_disabled":false,"rental_uris":{"android":"levelo://app?vid=4ee69d41-30d6-469e-829a-74d2ce79aff4","ios":"levelo://app?vid=4ee69d41-30d6-469e-829a-74d2ce79aff4"},"vehicle_type_id":"4","last_reported":1778917697,"current_range_meters":8400,"station_id":"st_d46tts09ee8s73dlu43g","pricing_plan_id":"cebpf4jnsgd1na2vs0mg"},{"bike_id":"34678a1c-60f3-45d1-98d5-4a975c55a3b5","system_id":"levelo_inurba_marseille","lat":43.292229,"lon":5.360571,"is_reserved":false,"is_disabled":true,"rental_uris":{"android":"levelo://app?vid=34678a1c-60f3-45d1-98d5-4a975c55a3b5","ios":"levelo://app?vid=34678a1c-60f3-45d1-98d5-4a975c55a3b5"},"vehicle_type_id":"4","last_reported":1778917697,"current_range_meters":8400,"station_id":"ce4bhbh2rcd13ifvqeqg","pricing_plan_id":"cebpf4jnsgd1na2vs0mg"},{"bike_id":"06d88995-f1a7-44a9-813a-43111681d777","system_id":"levelo_inurba_marseille","lat":43.29972,"lon":5.37185,"is_reserved":false,"is_disabled":false,"rental_uris":{"android":"levelo://app?vid=06d88995-f1a7-44a9-813a-43111681d777","ios":"levelo://app?vid=06d88995-f1a7-44a9-813a-43111681d777"},"vehicle_type_id":"4","last_reported":1778917697,"current_range_meters":8400,"station_id":"ce4bgr92rcd13ifvqc7g","pricing_plan_id":"cebpf4jnsgd1na2vs0mg"},{"bike_id":"dbcb99d7-b21a-4ba8-9326-06fe4ababdac","system_id":"levelo_inurba_marseille","lat":43.23192,"lon":5.35556,"is_reserved":false,"is_disabled":false,"rental_uris":{"android":"levelo://app?vid=dbcb99d7-b21a-4ba8-9326-06fe4ababdac","ios":"levelo://app?vid=dbcb99d7-b21a-4ba8-9326-06fe4ababdac"},"vehicle_type_id":"4","last_reported":1778917697,"current_range_meters":8400,"station_id":"ce4bhu92rcd13ifvqi70","pricing_plan_id":"cebpf4jnsgd1na2vs0mg"},{"bike_id":"edd5c786-8d24-46bc-bdcd-f0f00a11c1c1","system_id":"levelo_inurba_marseille","lat":43.25512,"lon":5.3765,"is_reserved":false,"is_disabled":true,"rental_uris":{"android":"levelo://app?vid=edd5c786-8d24-46bc-bdcd-f0f00a11c1c1","ios":"levelo://app?vid=edd5c786-8d24-46bc-bdcd-f0f00a11c1c1"},"vehicle_type_id":"4","last_reported":1778917697,"current_range_meters":8400,"station_id":"ce4bhh12rcd13ifvqff0","pricing_plan_id":"cebpf4jnsgd1na2vs0mg"},{"bike_id":"a90bb131-ab97-4866-93b6-a21239fc5036","system_id":"levelo_inurba_marseille","lat":43.29263,"lon":5.38424,"is_reserved":false,"is_disabled":false,"rental_uris":{"android":"levelo://app?vid=a90bb131-ab97-4866-93b6-a21239fc5036","ios":"levelo://app?vid=a90bb131-ab97-4866-93b6-a21239fc5036"},"vehicle_type_id":"4","last_reported":1778917697,"current_range_meters":8400,"station_id":"ce4bh692rcd13ifvqea0","pricing_plan_id":"cebpf4jnsgd1na2vs0mg"},{"bike_id":"b5700011-a486-4e56-b8fb-207aaf85d4db","system_id":"levelo_inurba_marseille","lat":43.31882,"lon":5.36818,"is_reserved":false,"is_disabled":false,"rental_uris":{"android":"levelo://app?vid=b5700011-a486-4e56-b8fb-207aaf85d4db","ios":"levelo://app?vid=b5700011-a486-4e56-b8fb-207aaf85d4db"},"vehicle_type_id":"4","last_reported":1778917697,"current_range_meters":8400,"station_id":"st_d6o2h0d0559c73evc1b0","pricing_plan_id":"cebpf4jnsgd1na2vs0mg"},{"bike_id":"d1f3b13b-a61c-41fc-b986-79acc9b16fe8","system_id":"levelo_inurba_marseille","lat":43.28511,"lon":5.44087,"is_reserved":false,"is_disabled":false,"rental_uris":{"android":"levelo://app?vid=d1f3b13b-a61c-41fc-b986-79acc9b16fe8","ios":"levelo://app?vid=d1f3b13b-a61c-41fc-b986-79acc9b16fe8"},"vehicle_type_id":"4","last_reported":1778917697,"current_range_meters":8400,"station_id":"st_d3j3df2ikq2c7380ej80","pricing_plan_id":"cebpf4jnsgd1na2vs0mg"},{"bike_id":"2f701455-9a88-4bab-99f0-da0dade42e53","system_id":"levelo_inurba_marseille","lat":43.29518,"lon":5.43253,"is_reserved":false,"is_disabled":false,"rental_uris":{"android":"levelo://app?vid=2f701455-9a88-4bab-99f0-da0dade42e53","ios":"levelo://app?vid=2f701455-9a88-4bab-99f0-da0dade42e53"},"vehicle_type_id":"4","last_reported":1778917697,"current_range_meters":8400,"station_id":"","pricing_plan_id":"cebpf4jnsgd1na2vs0mg"},{"bike_id":"52fb7434-896e-4c97-817e-ac9657918ab4","system_id":"levelo_inurba_marseille","lat":43.33554,"lon":5.37462,"is_reserved":false,"is_disabled":false,"rental_uris":{"android":"levelo://app?vid=52fb7434-896e-4c97-817e-ac9657918ab4","ios":"levelo://app?vid=52fb7434-896e-4c97-817e-ac9657918ab4"},"vehicle_type_id":"4","last_reported":1778917697,"current_range_meters":8400,"station_id":"st_d46tts09ee8s73dlu43g","pricing_plan_id":"cebpf4jnsgd1na2vs0mg"},{"bike_id":"093e7273-5765-48c3-9705-472bc9926db2","system_id":"levelo_inurba_marseille","lat":43.3043,"lon":5.41253,"is_reserved":false,"is_disabled":false,"rental_uris":{"android":"levelo://app?vid=093e7273-5765-48c3-9705-472bc9926db2","ios":"levelo://app?vid=093e7273-5765-48c3-9705-472bc9926db2"},"vehicle_type_id":"4","last_reported":1778917697,"current_range_meters":8400,"station_id":"ce4bhop2rcd13ifvqh8g","pricing_plan_id":"cebpf4jnsgd1na2vs0mg"},{"bike_id":"5552fb11-5bcf-44e2-ace4-35d7aad55027","system_id":"levelo_inurba_marseille","lat":43.28583,"lon":5.39919,"is_reserved":false,"is_disabled":false,"rental_uris":{"android":"levelo://app?vid=5552fb11-5bcf-44e2-ace4-35d7aad55027","ios":"levelo://app?vid=5552fb11-5bcf-44e2-ace4-35d7aad55027"},"vehicle_type_id":"4","last_reported":1778917697,"current_range_meters":8400,"station_id":"st_d4a7ka997mjs738ck50g","pricing_plan_id":"cebpf4jnsgd1na2vs0mg"},{"bike_id":"fea54104-bb98-4d6d-b765-f71a537f5666","system_id":"levelo_inurba_marseille","lat":43.23528,"lon":5.40688,"is_reserved":false,"is_disabled":false,"rental_uris":{"android":"levelo://app?vid=fea54104-bb98-4d6d-b765-f71a537f5666","ios":"levelo://app?vid=fea54104-bb98-4d6d-b765-f71a537f5666"},"vehicle_type_id":"4","last_reported":1778917697,"current_range_meters":8400,"station_id":"","pricing_plan_id":"cebpf4jnsgd1na2vs0mg"},{"bike_id":"b180d7c1-ccdb-46b5-8d1b-afd47b2cb1fa","system_id":"levelo_inurba_marseille","lat":43.26206,"lon":5.41554,"is_reserved":false,"is_disabled":false,"rental_uris":{"android":"levelo://app?vid=b180d7c1-ccdb-46b5-8d1b-afd47b2cb1fa","ios":"levelo://app?vid=b180d7c1-ccdb-46b5-8d1b-afd47b2cb1fa"},"vehicle_type_id":"4","last_reported":1778917697,"current_range_meters":8400,"station_id":"","pricing_plan_id":"cebpf4jnsgd1na2vs0mg"},{"bike_id":"aed59901-c94a-4d43-9c03-97688f404923","system_id":"levelo_inurba_marseille","lat":43.287,"lon":5.3739,"is_reserved":false,"is_disabled":false,"rental_uris":{"android":"levelo://app?vid=aed59901-c94a-4d43-9c03-97688f404923","ios":"levelo://app?vid=aed59901-c94a-4d43-9c03-97688f404923"},"vehicle_type_id":"4","last_reported":1778917697,"current_range_meters":8400,"station_id":"ce4bh3p2rcd13ifvqdq0","pricing_plan_id":"cebpf4jnsgd1na2vs0mg"},{"bike_id":"f641f050-a3dd-4978-9e2d-374df26e365f","system_id":"levelo_inurba_marseille","lat":43.30942,"lon":5.40143,"is_reserved":false,"is_disabled":false,"rental_uris":{"android":"levelo://app?vid=f641f050-a3dd-4978-9e2d-374df26e365f","ios":"levelo://app?vid=f641f050-a3dd-4978-9e2d-374df26e365f"},"vehicle_type_id":"4","last_reported":1778917697,"current_range_meters":8400,"station_id":"ce4bgvp2rcd13ifvqct0","pricing_plan_id":"cebpf4jnsgd1na2vs0mg"},{"bike_id":"4f287bb7-15a3-482a-b520-e0d62e7381db","system_id":"levelo_inurba_marseille","lat":43.29773,"lon":5.39369,"is_reserved":false,"is_disabled":false,"rental_uris":{"android":"levelo://app?vid=4f287bb7-15a3-482a-b520-e0d62e7381db","ios":"levelo://app?vid=4f287bb7-15a3-482a-b520-e0d62e7381db"},"vehicle_type_id":"4","last_reported":1778917697,"current_range_meters":8400,"station_id":"chh1huq6cuj3fo74tm60","pricing_plan_id":"cebpf4jnsgd1na2vs0mg"},{"bike_id":"757ba9b3-5c4c-45e5-81c3-57be93074fe4","system_id":"levelo_inurba_marseille","lat":43.26577,"lon":5.40321,"is_reserved":false,"is_disabled":false,"rental_uris":{"android":"levelo://app?vid=757ba9b3-5c4c-45e5-81c3-57be93074fe4","ios":"levelo://app?vid=757ba9b3-5c4c-45e5-81c3-57be93074fe4"},"vehicle_type_id":"4","last_reported":1778917697,"current_range_meters":8800,"station_id":"ce4bhmp2rcd13ifvqgng","pricing_plan_id":"cebpf4jnsgd1na2vs0mg"},{"bike_id":"e7eff05d-9c47-4345-89af-7e5c9fdb779c","system_id":"levelo_inurba_marseille","lat":43.28269,"lon":5.35077,"is_reserved":false,"is_disabled":true,"rental_uris":{"android":"levelo://app?vid=e7eff05d-9c47-4345-89af-7e5c9fdb779c","ios":"levelo://app?vid=e7eff05d-9c47-4345-89af-7e5c9fdb779c"},"vehicle_type_id":"4","last_reported":1778917697,"current_range_meters":8800,"station_id":"ce4bhbp2rcd13ifvqerg","pricing_plan_id":"cebpf4jnsgd1na2vs0mg"},{"bike_id":"df3b4c65-b594-43d2-9619-bf34b1560986","system_id":"levelo_inurba_marseille","lat":43.33548,"lon":5.37467,"is_reserved":false,"is_disabled":false,"rental_uris":{"android":"levelo://app?vid=df3b4c65-b594-43d2-9619-bf34b1560986","ios":"levelo://app?vid=df3b4c65-b594-43d2-9619-bf34b1560986"},"vehicle_type_id":"4","last_reported":1778917697,"current_range_meters":8800,"station_id":"st_d46tts09ee8s73dlu43g","pricing_plan_id":"cebpf4jnsgd1na2vs0mg"},{"bike_id":"5b744d3a-164e-40a7-b9c8-92dc8a498fc5","system_id":"levelo_inurba_marseille","lat":43.2621,"lon":5.3755,"is_reserved":false,"is_disabled":false,"rental_uris":{"android":"levelo://app?vid=5b744d3a-164e-40a7-b9c8-92dc8a498fc5","ios":"levelo://app?vid=5b744d3a-164e-40a7-b9c8-92dc8a498fc5"},"vehicle_type_id":"4","last_reported":1778917697,"current_range_meters":8800,"station_id":"","pricing_plan_id":"cebpf4jnsgd1na2vs0mg"},{"bike_id":"b85e5116-5679-4844-b278-022f916e1ca9","system_id":"levelo_inurba_marseille","lat":43.28666,"lon":5.36357,"is_reserved":false,"is_disabled":false,"rental_uris":{"android":"levelo://app?vid=b85e5116-5679-4844-b278-022f916e1ca9","ios":"levelo://app?vid=b85e5116-5679-4844-b278-022f916e1ca9"},"vehicle_type_id":"4","last_reported":1778917697,"current_range_meters":8800,"station_id":"ce4bhah2rcd13ifvqej0","pricing_plan_id":"cebpf4jnsgd1na2vs0mg"},{"bike_id":"6d33eede-1808-4886-b572-697220686ed0","system_id":"levelo_inurba_marseille","lat":43.28348,"lon":5.38101,"is_reserved":false,"is_disabled":false,"rental_uris":{"android":"levelo://app?vid=6d33eede-1808-4886-b572-697220686ed0","ios":"levelo://app?vid=6d33eede-1808-4886-b572-697220686ed0"},"vehicle_type_id":"4","last_reported":1778917697,"current_range_meters":8800,"station_id":"","pricing_plan_id":"cebpf4jnsgd1na2vs0mg"},{"bike_id":"08f41fad-e10f-408b-a52a-5d873a187e82","system_id":"levelo_inurba_marseille","lat":43.28621,"lon":5.35101,"is_reserved":false,"is_disabled":false,"rental_uris":{"android":"levelo://app?vid=08f41fad-e10f-408b-a52a-5d873a187e82","ios":"levelo://app?vid=08f41fad-e10f-408b-a52a-5d873a187e82"},"vehicle_type_id":"4","last_reported":1778917697,"current_range_meters":8800,"station_id":"ce4bhch2rcd13ifvqeug","pricing_plan_id":"cebpf4jnsgd1na2vs0mg"},{"bike_id":"ef20a65f-19f4-4491-8360-61efaea0f2fe","system_id":"levelo_inurba_marseille","lat":43.27671,"lon":5.41375,"is_reserved":false,"is_disabled":false,"rental_uris":{"android":"levelo://app?vid=ef20a65f-19f4-4491-8360-61efaea0f2fe","ios":"levelo://app?vid=ef20a65f-19f4-4491-8360-61efaea0f2fe"},"vehicle_type_id":"4","last_reported":1778917697,"current_range_meters":8800,"station_id":"","pricing_plan_id":"cebpf4jnsgd1na2vs0mg"},{"bike_id":"ae7403ca-0977-4483-ae79-22789f9ae640","system_id":"levelo_inurba_marseille","lat":43.2587,"lon":5.399,"is_reserved":false,"is_disabled":false,"rental_uris":{"android":"levelo://app?vid=ae7403ca-0977-4483-ae79-22789f9ae640","ios":"levelo://app?vid=ae7403ca-0977-4483-ae79-22789f9ae640"},"vehicle_type_id":"4","last_reported":1778917697,"current_range_meters":8800,"station_id":"ce4bhl92rcd13ifvqghg","pricing_plan_id":"cebpf4jnsgd1na2vs0mg"},{"bike_id":"59063f1e-10d8-4690-9ce0-08923f74ec53","system_id":"levelo_inurba_marseille","lat":43.28987,"lon":5.35636,"is_reserved":false,"is_disabled":false,"rental_uris":{"android":"levelo://app?vid=59063f1e-10d8-4690-9ce0-08923f74ec53","ios":"levelo://app?vid=59063f1e-10d8-4690-9ce0-08923f74ec53"},"vehicle_type_id":"4","last_reported":1778917697,"current_range_meters":8800,"station_id":"ce4bhb92rcd13ifvqen0","pricing_plan_id":"cebpf4jnsgd1na2vs0mg"},{"bike_id":"707aeda5-beeb-4b0f-a43b-8908dbd6120b","system_id":"levelo_inurba_marseille","lat":43.30138,"lon":5.36602,"is_reserved":false,"is_disabled":false,"rental_uris":{"android":"levelo://app?vid=707aeda5-beeb-4b0f-a43b-8908dbd6120b","ios":"levelo://app?vid=707aeda5-beeb-4b0f-a43b-8908dbd6120b"},"vehicle_type_id":"4","last_reported":1778917697,"current_range_meters":8800,"station_id":"","pricing_plan_id":"cebpf4jnsgd1na2vs0mg"},{"bike_id":"0aabf782-ccac-4c6e-b424-2952407b7d7c","system_id":"levelo_inurba_marseille","lat":43.2315,"lon":5.43711,"is_reserved":false,"is_disabled":false,"rental_uris":{"android":"levelo://app?vid=0aabf782-ccac-4c6e-b424-2952407b7d7c","ios":"levelo://app?vid=0aabf782-ccac-4c6e-b424-2952407b7d7c"},"vehicle_type_id":"4","last_reported":1778917697,"current_range_meters":8800,"station_id":"ce4bhmp2rcd13ifvqgog","pricing_plan_id":"cebpf4jnsgd1na2vs0mg"},{"bike_id":"354d080a-1008-4187-b941-ae4e1ae24a6a","system_id":"levelo_inurba_marseille","lat":43.25332,"lon":5.42179,"is_reserved":false,"is_disabled":false,"rental_uris":{"android":"levelo://app?vid=354d080a-1008-4187-b941-ae4e1ae24a6a","ios":"levelo://app?vid=354d080a-1008-4187-b941-ae4e1ae24a6a"},"vehicle_type_id":"4","last_reported":1778917697,"current_range_meters":8800,"station_id":"st_d2m65c5bi1j21697t3ng","pricing_plan_id":"cebpf4jnsgd1na2vs0mg"},{"bike_id":"3b262f3c-5b03-4b53-8a66-da358a5a543b","system_id":"levelo_inurba_marseille","lat":43.29592,"lon":5.38114,"is_reserved":false,"is_disabled":false,"rental_uris":{"android":"levelo://app?vid=3b262f3c-5b03-4b53-8a66-da358a5a543b","ios":"levelo://app?vid=3b262f3c-5b03-4b53-8a66-da358a5a543b"},"vehicle_type_id":"4","last_reported":1778917697,"current_range_meters":8800,"station_id":"ce4bgl12rcd13ifvqbo0","pricing_plan_id":"cebpf4jnsgd1na2vs0mg"},{"bike_id":"5ce80697-225a-4775-9620-63268fa34f78","system_id":"levelo_inurba_marseille","lat":43.30151,"lon":5.38082,"is_reserved":false,"is_disabled":false,"rental_uris":{"android":"levelo://app?vid=5ce80697-225a-4775-9620-63268fa34f78","ios":"levelo://app?vid=5ce80697-225a-4775-9620-63268fa34f78"},"vehicle_type_id":"4","last_reported":1778917697,"current_range_meters":8800,"station_id":"ce4bgjp2rcd13ifvqbh0","pricing_plan_id":"cebpf4jnsgd1na2vs0mg"},{"bike_id":"b99f3fcb-1bd8-490c-9327-4f96d9f8fa4c","system_id":"levelo_inurba_marseille","lat":43.27964,"lon":5.38721,"is_reserved":false,"is_disabled":false,"rental_uris":{"android":"levelo://app?vid=b99f3fcb-1bd8-490c-9327-4f96d9f8fa4c","ios":"levelo://app?vid=b99f3fcb-1bd8-490c-9327-4f96d9f8fa4c"},"vehicle_type_id":"4","last_reported":1778917697,"current_range_meters":8800,"station_id":"ce4bhg12rcd13ifvqf80","pricing_plan_id":"cebpf4jnsgd1na2vs0mg"},{"bike_id":"d74e6cb2-9b2e-4676-ab53-3e763325f771","system_id":"levelo_inurba_marseille","lat":43.24388,"lon":5.37122,"is_reserved":false,"is_disabled":false,"rental_uris":{"android":"levelo://app?vid=d74e6cb2-9b2e-4676-ab53-3e763325f771","ios":"levelo://app?vid=d74e6cb2-9b2e-4676-ab53-3e763325f771"},"vehicle_type_id":"4","last_reported":1778917697,"current_range_meters":8800,"station_id":"ce4bhhh2rcd13ifvqfk0","pricing_plan_id":"cebpf4jnsgd1na2vs0mg"},{"bike_id":"88676436-b644-4b39-91d3-cc5d29c9ef88","system_id":"levelo_inurba_marseille","lat":43.29873,"lon":5.38359,"is_reserved":false,"is_disabled":false,"rental_uris":{"android":"levelo://app?vid=88676436-b644-4b39-91d3-cc5d29c9ef88","ios":"levelo://app?vid=88676436-b644-4b39-91d3-cc5d29c9ef88"},"vehicle_type_id":"4","last_reported":1778917697,"current_range_meters":8800,"station_id":"","pricing_plan_id":"cebpf4jnsgd1na2vs0mg"},{"bike_id":"0e4b3cc2-d0d1-4acc-8ee4-dbc0c18861db","system_id":"levelo_inurba_marseille","lat":43.32498,"lon":5.38292,"is_reserved":false,"is_disabled":false,"rental_uris":{"android":"levelo://app?vid=0e4b3cc2-d0d1-4acc-8ee4-dbc0c18861db","ios":"levelo://app?vid=0e4b3cc2-d0d1-4acc-8ee4-dbc0c18861db"},"vehicle_type_id":"4","last_reported":1778917697,"current_range_meters":8800,"station_id":"st_d4asgbiv49dc73anf9m0","pricing_plan_id":"cebpf4jnsgd1na2vs0mg"},{"bike_id":"183ecbf2-1487-4e31-a0b0-97fce68bdb3c","system_id":"levelo_inurba_marseille","lat":43.31355,"lon":5.38508,"is_reserved":false,"is_disabled":false,"rental_uris":{"android":"levelo://app?vid=183ecbf2-1487-4e31-a0b0-97fce68bdb3c","ios":"levelo://app?vid=183ecbf2-1487-4e31-a0b0-97fce68bdb3c"},"vehicle_type_id":"4","last_reported":1778917697,"current_range_meters":8800,"station_id":"ce4bgt92rcd13ifvqcf0","pricing_plan_id":"cebpf4jnsgd1na2vs0mg"},{"bike_id":"1ae09a14-67bb-40e6-80f5-46dc8dc1bfea","system_id":"levelo_inurba_marseille","lat":43.30938,"lon":5.40138,"is_reserved":false,"is_disabled":false,"rental_uris":{"android":"levelo://app?vid=1ae09a14-67bb-40e6-80f5-46dc8dc1bfea","ios":"levelo://app?vid=1ae09a14-67bb-40e6-80f5-46dc8dc1bfea"},"vehicle_type_id":"4","last_reported":1778917697,"current_range_meters":8800,"station_id":"ce4bgvp2rcd13ifvqct0","pricing_plan_id":"cebpf4jnsgd1na2vs0mg"},{"bike_id":"dace259d-e3eb-491e-95dc-863daa176674","system_id":"levelo_inurba_marseille","lat":43.24168,"lon":5.36394,"is_reserved":false,"is_disabled":false,"rental_uris":{"android":"levelo://app?vid=dace259d-e3eb-491e-95dc-863daa176674","ios":"levelo://app?vid=dace259d-e3eb-491e-95dc-863daa176674"},"vehicle_type_id":"4","last_reported":1778917697,"current_range_meters":8800,"station_id":"cpo36qri1sfpv3e86is0","pricing_plan_id":"cebpf4jnsgd1na2vs0mg"},{"bike_id":"36225832-cd2c-4cf4-b480-1c8d96dcbc00","system_id":"levelo_inurba_marseille","lat":43.27199,"lon":5.40989,"is_reserved":false,"is_disabled":false,"rental_uris":{"android":"levelo://app?vid=36225832-cd2c-4cf4-b480-1c8d96dcbc00","ios":"levelo://app?vid=36225832-cd2c-4cf4-b480-1c8d96dcbc00"},"vehicle_type_id":"4","last_reported":1778917697,"current_range_meters":8800,"station_id":"ce4bhl12rcd13ifvqgf0","pricing_plan_id":"cebpf4jnsgd1na2vs0mg"},{"bike_id":"fedccf78-7208-491e-ad79-9052f3365971","system_id":"levelo_inurba_marseille","lat":43.27617,"lon":5.36103,"is_reserved":false,"is_disabled":false,"rental_uris":{"android":"levelo://app?vid=fedccf78-7208-491e-ad79-9052f3365971","ios":"levelo://app?vid=fedccf78-7208-491e-ad79-9052f3365971"},"vehicle_type_id":"4","last_reported":1778917697,"current_range_meters":8800,"station_id":"ce4bgj92rcd13ifvqbe0","pricing_plan_id":"cebpf4jnsgd1na2vs0mg"},{"bike_id":"698b85c5-bf11-437e-913f-7d2243a0f74a","system_id":"levelo_inurba_marseille","lat":43.26236,"lon":5.37559,"is_reserved":false,"is_disabled":false,"rental_uris":{"android":"levelo://app?vid=698b85c5-bf11-437e-913f-7d2243a0f74a","ios":"levelo://app?vid=698b85c5-bf11-437e-913f-7d2243a0f74a"},"vehicle_type_id":"4","last_reported":1778917697,"current_range_meters":8800,"station_id":"","pricing_plan_id":"cebpf4jnsgd1na2vs0mg"},{"bike_id":"acb74f7b-0e8d-4aa0-a451-a35d8a14e4b7","system_id":"levelo_inurba_marseille","lat":43.28344,"lon":5.38105,"is_reserved":false,"is_disabled":true,"rental_uris":{"android":"levelo://app?vid=acb74f7b-0e8d-4aa0-a451-a35d8a14e4b7","ios":"levelo://app?vid=acb74f7b-0e8d-4aa0-a451-a35d8a14e4b7"},"vehicle_type_id":"4","last_reported":1778917697,"current_range_meters":8800,"station_id":"ce4bh412rcd13ifvqdr0","pricing_plan_id":"cebpf4jnsgd1na2vs0mg"},{"bike_id":"a0d53d4e-4145-4e00-adb7-fa5466b16fe6","system_id":"levelo_inurba_marseille","lat":43.28426,"lon":5.37507,"is_reserved":false,"is_disabled":false,"rental_uris":{"android":"levelo://app?vid=a0d53d4e-4145-4e00-adb7-fa5466b16fe6","ios":"levelo://app?vid=a0d53d4e-4145-4e00-adb7-fa5466b16fe6"},"vehicle_type_id":"4","last_reported":1778917697,"current_range_meters":9200,"station_id":"ce4bh412rcd13ifvqds0","pricing_plan_id":"cebpf4jnsgd1na2vs0mg"},{"bike_id":"03708e57-f82c-472f-9ce8-535a83c715b0","system_id":"levelo_inurba_marseille","lat":43.22935,"lon":5.35374,"is_reserved":false,"is_disabled":false,"rental_uris":{"android":"levelo://app?vid=03708e57-f82c-472f-9ce8-535a83c715b0","ios":"levelo://app?vid=03708e57-f82c-472f-9ce8-535a83c715b0"},"vehicle_type_id":"4","last_reported":1778917697,"current_range_meters":9200,"station_id":"cpo3532slgdg3j2ikp40","pricing_plan_id":"cebpf4jnsgd1na2vs0mg"},{"bike_id":"b85c6d79-bf2e-49ca-8635-115961a7a63d","system_id":"levelo_inurba_marseille","lat":43.30933,"lon":5.40086,"is_reserved":false,"is_disabled":false,"rental_uris":{"android":"levelo://app?vid=b85c6d79-bf2e-49ca-8635-115961a7a63d","ios":"levelo://app?vid=b85c6d79-bf2e-49ca-8635-115961a7a63d"},"vehicle_type_id":"4","last_reported":1778917697,"current_range_meters":9200,"station_id":"ce4bgvp2rcd13ifvqct0","pricing_plan_id":"cebpf4jnsgd1na2vs0mg"},{"bike_id":"f87478db-494d-43a5-bfc5-7a3e984e86f0","system_id":"levelo_inurba_marseille","lat":43.26575,"lon":5.37265,"is_reserved":false,"is_disabled":false,"rental_uris":{"android":"levelo://app?vid=f87478db-494d-43a5-bfc5-7a3e984e86f0","ios":"levelo://app?vid=f87478db-494d-43a5-bfc5-7a3e984e86f0"},