{"last_updated":1724436665,"ttl":30,"version":"2.2","data":{"bikes":[{"bike_id":"f7ede48a-e486-49fb-b92d-2ee8df5272a8","system_id":"levelo_inurba_marseille","lat":43.312239,"lon":5.368562,"is_reserved":false,"is_disabled":false,"rental_uris":{"android":"levelo://app?vid=f7ede48a-e486-49fb-b92d-2ee8df5272a8","ios":"levelo://app?vid=f7ede48a-e486-49fb-b92d-2ee8df5272a8"},"vehicle_type_id":"4","last_reported":1724436665,"current_range_meters":4400,"station_id":"ce4bgl92rcd13ifvqbq0","pricing_plan_id":"cebpf4jnsgd1na2vs0mg"},{"bike_id":"3818618b-d297-49f1-bd52-afee350e6f53","system_id":"levelo_inurba_marseille","lat":43.311911,"lon":5.368783,"is_reserved":false,"is_disabled":false,"rental_uris":{"android":"levelo://app?vid=3818618b-d297-49f1-bd52-afee350e6f53","ios":"levelo://app?vid=3818618b-d297-49f1-bd52-afee350e6f53"},"vehicle_type_id":"4","last_reported":1724436665,"current_range_meters":25600,"station_id":"ce4bgl92rcd13ifvqbq0","pricing_plan_id":"cebpf4jnsgd1na2vs0mg"},{"bike_id":"bb66170f-1b69-4d11-9612-e08d26e9cddf","system_id":"levelo_inurba_marseille","lat":43.309076,"lon":5.368465,"is_reserved":false,"is_disabled":false,"rental_uris":{"android":"levelo://app?vid=bb66170f-1b69-4d11-9612-e08d26e9cddf","ios":"levelo://app?vid=bb66170f-1b69-4d11-9612-e08d26e9cddf"},"vehicle_type_id":"4","last_reported":1724436665,"current_range_meters":0,"station_id":"ce4bgn92rcd13ifvqbvg","pricing_plan_id":"cebpf4jnsgd1na2vs0mg"},{"bike_id":"f967524b-0ee8-4c94-8ebc-5eb3798d9a0d","system_id":"levelo_inurba_marseille","lat":43.314811,"lon":5.373103,"is_reserved":false,"is_disabled":false,"rental_uris":{"android":"levelo://app?vid=f967524b-0ee8-4c94-8ebc-5eb3798d9a0d","ios":"levelo://app?vid=f967524b-0ee8-4c94-8ebc-5eb3798d9a0d"},"vehicle_type_id":"4","last_reported":1724436665,"current_range_meters":13600,"station_id":"ce4bgt12rcd13ifvqcd0","pricing_plan_id":"cebpf4jnsgd1na2vs0mg"},{"bike_id":"dcc128db-6725-4351-8e40-35a70febbda2","system_id":"levelo_inurba_marseille","lat":43.314811,"lon":5.373103,"is_reserved":false,"is_disabled":false,"rental_uris":{"android":"levelo://app?vid=dcc128db-6725-4351-8e40-35a70febbda2","ios":"levelo://app?vid=dcc128db-6725-4351-8e40-35a70febbda2"},"vehicle_type_id":"4","last_reported":1724436665,"current_range_meters":14400,"station_id":"ce4bgt12rcd13ifvqcd0","pricing_plan_id":"cebpf4jnsgd1na2vs0mg"},{"bike_id":"7d7f4786-7083-417d-afdf-befb7a7a0f26","system_id":"levelo_inurba_marseille","lat":43.314811,"lon":5.373103,"is_reserved":false,"is_disabled":false,"rental_uris":{"android":"levelo://app?vid=7d7f4786-7083-417d-afdf-befb7a7a0f26","ios":"levelo://app?vid=7d7f4786-7083-417d-afdf-befb7a7a0f26"},"vehicle_type_id":"4","last_reported":1724436665,"current_range_meters":6400,"station_id":"ce4bgt12rcd13ifvqcd0","pricing_plan_id":"cebpf4jnsgd1na2vs0mg"},{"bike_id":"e85ebb8f-430d-4c25-bcc7-97734885f311","system_id":"levelo_inurba_marseille","lat":43.31502,"lon":5.37308,"is_reserved":false,"is_disabled":false,"rental_uris":{"android":"levelo://app?vid=e85ebb8f-430d-4c25-bcc7-97734885f311","ios":"levelo://app?vid=e85ebb8f-430d-4c25-bcc7-97734885f311"},"vehicle_type_id":"4","last_reported":1724436665,"current_range_meters":0,"station_id":"ce4bgt12rcd13ifvqcd0","pricing_plan_id":"cebpf4jnsgd1na2vs0mg"},{"bike_id":"8d6055b1-8991-4241-b3e2-93e1b0434306","system_id":"levelo_inurba_marseille","lat":43.309039,"lon":5.371797,"is_reserved":false,"is_disabled":false,"rental_uris":{"android":"levelo://app?vid=8d6055b1-8991-4241-b3e2-93e1b0434306","ios":"levelo://app?vid=8d6055b1-8991-4241-b3e2-93e1b0434306"},"vehicle_type_id":"4","last_reported":1724436665,"current_range_meters":8800,"station_id":"ce4bguh2rcd13ifvqckg","pricing_plan_id":"cebpf4jnsgd1na2vs0mg"},{"bike_id":"776932d5-6a98-4e90-b7fc-4a849eda29a8","system_id":"levelo_inurba_marseille","lat":43.309034,"lon":5.371783,"is_reserved":false,"is_disabled":false,"rental_uris":{"android":"levelo://app?vid=776932d5-6a98-4e90-b7fc-4a849eda29a8","ios":"levelo://app?vid=776932d5-6a98-4e90-b7fc-4a849eda29a8"},"vehicle_type_id":"4","last_reported":1724436665,"current_range_meters":0,"station_id":"ce4bguh2rcd13ifvqckg","pricing_plan_id":"cebpf4jnsgd1na2vs0mg"},{"bike_id":"6f4e2251-0c54-4128-9597-d5b0bc1cce57","system_id":"levelo_inurba_marseille","lat":43.305989,"lon":5.37225,"is_reserved":false,"is_disabled":false,"rental_uris":{"android":"levelo://app?vid=6f4e2251-0c54-4128-9597-d5b0bc1cce57","ios":"levelo://app?vid=6f4e2251-0c54-4128-9597-d5b0bc1cce57"},"vehicle_type_id":"4","last_reported":1724436665,"current_range_meters":0,"station_id":"ce4bgqh2rcd13ifvqc4g","pricing_plan_id":"cebpf4jnsgd1na2vs0mg"},{"bike_id":"cba81788-42ff-4d80-9212-45ce981abdac","system_id":"levelo_inurba_marseille","lat":43.305989,"lon":5.37225,"is_reserved":false,"is_disabled":false,"rental_uris":{"android":"levelo://app?vid=cba81788-42ff-4d80-9212-45ce981abdac","ios":"levelo://app?vid=cba81788-42ff-4d80-9212-45ce981abdac"},"vehicle_type_id":"4","last_reported":1724436665,"current_range_meters":0,"station_id":"ce4bgqh2rcd13ifvqc4g","pricing_plan_id":"cebpf4jnsgd1na2vs0mg"},{"bike_id":"c30d283f-005e-431d-ad8c-0257375e99bf","system_id":"levelo_inurba_marseille","lat":43.3112,"lon":5.37753,"is_reserved":false,"is_disabled":false,"rental_uris":{"android":"levelo://app?vid=c30d283f-005e-431d-ad8c-0257375e99bf","ios":"levelo://app?vid=c30d283f-005e-431d-ad8c-0257375e99bf"},"vehicle_type_id":"4","last_reported":1724436665,"current_range_meters":0,"station_id":"ce4bgt92rcd13ifvqcg0","pricing_plan_id":"cebpf4jnsgd1na2vs0mg"},{"bike_id":"1ba0ca3a-990a-4fa3-9d63-d8dac8d89540","system_id":"levelo_inurba_marseille","lat":43.31125,"lon":5.37768,"is_reserved":false,"is_disabled":false,"rental_uris":{"android":"levelo://app?vid=1ba0ca3a-990a-4fa3-9d63-d8dac8d89540","ios":"levelo://app?vid=1ba0ca3a-990a-4fa3-9d63-d8dac8d89540"},"vehicle_type_id":"4","last_reported":1724436665,"current_range_meters":0,"station_id":"ce4bgt92rcd13ifvqcg0","pricing_plan_id":"cebpf4jnsgd1na2vs0mg"},{"bike_id":"f780840f-9914-4a83-b852-ee38eb027113","system_id":"levelo_inurba_marseille","lat":43.31107,"lon":5.37766,"is_reserved":false,"is_disabled":false,"rental_uris":{"android":"levelo://app?vid=f780840f-9914-4a83-b852-ee38eb027113","ios":"levelo://app?vid=f780840f-9914-4a83-b852-ee38eb027113"},"vehicle_type_id":"4","last_reported":1724436665,"current_range_meters":7600,"station_id":"ce4bgt92rcd13ifvqcg0","pricing_plan_id":"cebpf4jnsgd1na2vs0mg"},{"bike_id":"b637677e-6ca4-4436-bb0c-014a5e7e7dfa","system_id":"levelo_inurba_marseille","lat":43.311125,"lon":5.377624,"is_reserved":false,"is_disabled":false,"rental_uris":{"android":"levelo://app?vid=b637677e-6ca4-4436-bb0c-014a5e7e7dfa","ios":"levelo://app?vid=b637677e-6ca4-4436-bb0c-014a5e7e7dfa"},"vehicle_type_id":"4","last_reported":1724436665,"current_range_meters":17200,"station_id":"ce4bgt92rcd13ifvqcg0","pricing_plan_id":"cebpf4jnsgd1na2vs0mg"},{"bike_id":"896a908e-1c7a-4f9b-988d-870030d2413b","system_id":"levelo_inurba_marseille","lat":43.31111,"lon":5.37774,"is_reserved":false,"is_disabled":false,"rental_uris":{"android":"levelo://app?vid=896a908e-1c7a-4f9b-988d-870030d2413b","ios":"levelo://app?vid=896a908e-1c7a-4f9b-988d-870030d2413b"},"vehicle_type_id":"4","last_reported":1724436665,"current_range_meters":10000,"station_id":"ce4bgt92rcd13ifvqcg0","pricing_plan_id":"cebpf4jnsgd1na2vs0mg"},{"bike_id":"ddc88dec-4d68-4ac2-90d5-b8221024e899","system_id":"levelo_inurba_marseille","lat":43.31113,"lon":5.37776,"is_reserved":false,"is_disabled":false,"rental_uris":{"android":"levelo://app?vid=ddc88dec-4d68-4ac2-90d5-b8221024e899","ios":"levelo://app?vid=ddc88dec-4d68-4ac2-90d5-b8221024e899"},"vehicle_type_id":"4","last_reported":1724436665,"current_range_meters":11200,"station_id":"ce4bgt92rcd13ifvqcg0","pricing_plan_id":"cebpf4jnsgd1na2vs0mg"},{"bike_id":"a5b0c2af-8c15-4753-9f5e-73118286bcd6","system_id":"levelo_inurba_marseille","lat":43.311125,"lon":5.377624,"is_reserved":false,"is_disabled":false,"rental_uris":{"android":"levelo://app?vid=a5b0c2af-8c15-4753-9f5e-73118286bcd6","ios":"levelo://app?vid=a5b0c2af-8c15-4753-9f5e-73118286bcd6"},"vehicle_type_id":"4","last_reported":1724436665,"current_range_meters":13600,"station_id":"ce4bgt92rcd13ifvqcg0","pricing_plan_id":"cebpf4jnsgd1na2vs0mg"},{"bike_id":"1937eb28-2656-4822-a849-bbf811d5e1ae","system_id":"levelo_inurba_marseille","lat":43.3111,"lon":5.37779,"is_reserved":false,"is_disabled":false,"rental_uris":{"android":"levelo://app?vid=1937eb28-2656-4822-a849-bbf811d5e1ae","ios":"levelo://app?vid=1937eb28-2656-4822-a849-bbf811d5e1ae"},"vehicle_type_id":"4","last_reported":1724436665,"current_range_meters":19600,"station_id":"ce4bgt92rcd13ifvqcg0","pricing_plan_id":"cebpf4jnsgd1na2vs0mg"},{"bike_id":"f9ec9ed1-29a7-4f39-8be3-3b77f060323a","system_id":"levelo_inurba_marseille","lat":43.307945,"lon":5.376487,"is_reserved":false,"is_disabled":false,"rental_uris":{"android":"levelo://app?vid=f9ec9ed1-29a7-4f39-8be3-3b77f060323a","ios":"levelo://app?vid=f9ec9ed1-29a7-4f39-8be3-3b77f060323a"},"vehicle_type_id":"4","last_reported":1724436665,"current_range_meters":4400,"station_id":"ce4bgv92rcd13ifvqcq0","pricing_plan_id":"cebpf4jnsgd1na2vs0mg"},{"bike_id":"91535e66-5de8-464d-bf74-ec55e8328082","system_id":"levelo_inurba_marseille","lat":43.307945,"lon":5.376487,"is_reserved":false,"is_disabled":false,"rental_uris":{"android":"levelo://app?vid=91535e66-5de8-464d-bf74-ec55e8328082","ios":"levelo://app?vid=91535e66-5de8-464d-bf74-ec55e8328082"},"vehicle_type_id":"4","last_reported":1724436665,"current_range_meters":0,"station_id":"ce4bgv92rcd13ifvqcq0","pricing_plan_id":"cebpf4jnsgd1na2vs0mg"},{"bike_id":"80e047f2-f0bd-445b-92a7-b939bcc1b59b","system_id":"levelo_inurba_marseille","lat":43.303046,"lon":5.368981,"is_reserved":false,"is_disabled":false,"rental_uris":{"android":"levelo://app?vid=80e047f2-f0bd-445b-92a7-b939bcc1b59b","ios":"levelo://app?vid=80e047f2-f0bd-445b-92a7-b939bcc1b59b"},"vehicle_type_id":"4","last_reported":1724436665,"current_range_meters":22000,"station_id":"ce4bgqh2rcd13ifvqc5g","pricing_plan_id":"cebpf4jnsgd1na2vs0mg"},{"bike_id":"9a245f35-524a-46cd-ab4c-589487dff081","system_id":"levelo_inurba_marseille","lat":43.303046,"lon":5.368981,"is_reserved":false,"is_disabled":false,"rental_uris":{"android":"levelo://app?vid=9a245f35-524a-46cd-ab4c-589487dff081","ios":"levelo://app?vid=9a245f35-524a-46cd-ab4c-589487dff081"},"vehicle_type_id":"4","last_reported":1724436665,"current_range_meters":19200,"station_id":"ce4bgqh2rcd13ifvqc5g","pricing_plan_id":"cebpf4jnsgd1na2vs0mg"},{"bike_id":"9d9e6305-68a7-4e51-b125-597288649693","system_id":"levelo_inurba_marseille","lat":43.315293,"lon":5.380349,"is_reserved":false,"is_disabled":false,"rental_uris":{"android":"levelo://app?vid=9d9e6305-68a7-4e51-b125-597288649693","ios":"levelo://app?vid=9d9e6305-68a7-4e51-b125-597288649693"},"vehicle_type_id":"4","last_reported":1724436665,"current_range_meters":4000,"station_id":"ce4bhsp2rcd13ifvqi50","pricing_plan_id":"cebpf4jnsgd1na2vs0mg"},{"bike_id":"4d1c9256-30ce-43b8-8035-f56ed3f91b6d","system_id":"levelo_inurba_marseille","lat":43.315289,"lon":5.380349,"is_reserved":false,"is_disabled":false,"rental_uris":{"android":"levelo://app?vid=4d1c9256-30ce-43b8-8035-f56ed3f91b6d","ios":"levelo://app?vid=4d1c9256-30ce-43b8-8035-f56ed3f91b6d"},"vehicle_type_id":"4","last_reported":1724436665,"current_range_meters":2400,"station_id":"ce4bhsp2rcd13ifvqi50","pricing_plan_id":"cebpf4jnsgd1na2vs0mg"},{"bike_id":"b5d6946d-5bd2-438c-93fa-63b48c615253","system_id":"levelo_inurba_marseille","lat":43.315289,"lon":5.380349,"is_reserved":false,"is_disabled":false,"rental_uris":{"android":"levelo://app?vid=b5d6946d-5bd2-438c-93fa-63b48c615253","ios":"levelo://app?vid=b5d6946d-5bd2-438c-93fa-63b48c615253"},"vehicle_type_id":"4","last_reported":1724436665,"current_range_meters":10000,"station_id":"ce4bhsp2rcd13ifvqi50","pricing_plan_id":"cebpf4jnsgd1na2vs0mg"},{"bike_id":"b8a9a6e1-15bf-496d-97ae-6ba1e9f8ae55","system_id":"levelo_inurba_marseille","lat":43.30806,"lon":5.38153,"is_reserved":false,"is_disabled":false,"rental_uris":{"android":"levelo://app?vid=b8a9a6e1-15bf-496d-97ae-6ba1e9f8ae55","ios":"levelo://app?vid=b8a9a6e1-15bf-496d-97ae-6ba1e9f8ae55"},"vehicle_type_id":"4","last_reported":1724436665,"current_range_meters":15600,"station_id":"ce4bgt12rcd13ifvqce0","pricing_plan_id":"cebpf4jnsgd1na2vs0mg"},{"bike_id":"da1868c4-58fc-44be-9b19-03415f924163","system_id":"levelo_inurba_marseille","lat":43.30804,"lon":5.38158,"is_reserved":false,"is_disabled":false,"rental_uris":{"android":"levelo://app?vid=da1868c4-58fc-44be-9b19-03415f924163","ios":"levelo://app?vid=da1868c4-58fc-44be-9b19-03415f924163"},"vehicle_type_id":"4","last_reported":1724436665,"current_range_meters":2800,"station_id":"ce4bgt12rcd13ifvqce0","pricing_plan_id":"cebpf4jnsgd1na2vs0mg"},{"bike_id":"dcfe42d0-c721-43b8-ae79-c82b337e38ab","system_id":"levelo_inurba_marseille","lat":43.324771,"lon":5.36557,"is_reserved":false,"is_disabled":false,"rental_uris":{"android":"levelo://app?vid=dcfe42d0-c721-43b8-ae79-c82b337e38ab","ios":"levelo://app?vid=dcfe42d0-c721-43b8-ae79-c82b337e38ab"},"vehicle_type_id":"4","last_reported":1724436665,"current_range_meters":12000,"station_id":"ce4bhs12rcd13ifvqhvg","pricing_plan_id":"cebpf4jnsgd1na2vs0mg"},{"bike_id":"1324a6e5-ac3e-4494-b969-e878d4ed2fcc","system_id":"levelo_inurba_marseille","lat":43.324771,"lon":5.36557,"is_reserved":false,"is_disabled":false,"rental_uris":{"android":"levelo://app?vid=1324a6e5-ac3e-4494-b969-e878d4ed2fcc","ios":"levelo://app?vid=1324a6e5-ac3e-4494-b969-e878d4ed2fcc"},"vehicle_type_id":"4","last_reported":1724436665,"current_range_meters":31600,"station_id":"ce4bhs12rcd13ifvqhvg","pricing_plan_id":"cebpf4jnsgd1na2vs0mg"},{"bike_id":"a1ac0451-3398-4947-9ccd-6a7080d125c4","system_id":"levelo_inurba_marseille","lat":43.324771,"lon":5.36557,"is_reserved":false,"is_disabled":false,"rental_uris":{"android":"levelo://app?vid=a1ac0451-3398-4947-9ccd-6a7080d125c4","ios":"levelo://app?vid=a1ac0451-3398-4947-9ccd-6a7080d125c4"},"vehicle_type_id":"4","last_reported":1724436665,"current_range_meters":20800,"station_id":"ce4bhs12rcd13ifvqhvg","pricing_plan_id":"cebpf4jnsgd1na2vs0mg"},{"bike_id":"248604cf-f7b1-4135-b528-764a31d63a5e","system_id":"levelo_inurba_marseille","lat":43.32484,"lon":5.3656,"is_reserved":false,"is_disabled":false,"rental_uris":{"android":"levelo://app?vid=248604cf-f7b1-4135-b528-764a31d63a5e","ios":"levelo://app?vid=248604cf-f7b1-4135-b528-764a31d63a5e"},"vehicle_type_id":"4","last_reported":1724436665,"current_range_meters":0,"station_id":"ce4bhs12rcd13ifvqhvg","pricing_plan_id":"cebpf4jnsgd1na2vs0mg"},{"bike_id":"fa4728c9-467b-4bdc-88d2-f56075148a06","system_id":"levelo_inurba_marseille","lat":43.324771,"lon":5.36557,"is_reserved":false,"is_disabled":false,"rental_uris":{"android":"levelo://app?vid=fa4728c9-467b-4bdc-88d2-f56075148a06","ios":"levelo://app?vid=fa4728c9-467b-4bdc-88d2-f56075148a06"},"vehicle_type_id":"4","last_reported":1724436665,"current_range_meters":17200,"station_id":"ce4bhs12rcd13ifvqhvg","pricing_plan_id":"cebpf4jnsgd1na2vs0mg"},{"bike_id":"7fcd07c3-b936-4ec9-9ed3-f193fcad5baf","system_id":"levelo_inurba_marseille","lat":43.324771,"lon":5.36557,"is_reserved":false,"is_disabled":false,"rental_uris":{"android":"levelo://app?vid=7fcd07c3-b936-4ec9-9ed3-f193fcad5baf","ios":"levelo://app?vid=7fcd07c3-b936-4ec9-9ed3-f193fcad5baf"},"vehicle_type_id":"4","last_reported":1724436665,"current_range_meters":18800,"station_id":"ce4bhs12rcd13ifvqhvg","pricing_plan_id":"cebpf4jnsgd1na2vs0mg"},{"bike_id":"4b068ad2-1221-4476-9487-2b7eb5619d8a","system_id":"levelo_inurba_marseille","lat":43.31366,"lon":5.38364,"is_reserved":false,"is_disabled":false,"rental_uris":{"android":"levelo://app?vid=4b068ad2-1221-4476-9487-2b7eb5619d8a","ios":"levelo://app?vid=4b068ad2-1221-4476-9487-2b7eb5619d8a"},"vehicle_type_id":"4","last_reported":1724436665,"current_range_meters":8800,"station_id":"","pricing_plan_id":"cebpf4jnsgd1na2vs0mg"},{"bike_id":"4c4d2c5e-cf06-41ce-9b31-c6d20051894a","system_id":"levelo_inurba_marseille","lat":43.31073,"lon":5.38356,"is_reserved":false,"is_disabled":false,"rental_uris":{"android":"levelo://app?vid=4c4d2c5e-cf06-41ce-9b31-c6d20051894a","ios":"levelo://app?vid=4c4d2c5e-cf06-41ce-9b31-c6d20051894a"},"vehicle_type_id":"4","last_reported":1724436665,"current_range_meters":1600,"station_id":"ce4bgv92rcd13ifvqcr0","pricing_plan_id":"cebpf4jnsgd1na2vs0mg"},{"bike_id":"20f66bd5-16f5-49c9-9461-2b57ade47fb0","system_id":"levelo_inurba_marseille","lat":43.302784,"lon":5.377158,"is_reserved":false,"is_disabled":false,"rental_uris":{"android":"levelo://app?vid=20f66bd5-16f5-49c9-9461-2b57ade47fb0","ios":"levelo://app?vid=20f66bd5-16f5-49c9-9461-2b57ade47fb0"},"vehicle_type_id":"4","last_reported":1724436665,"current_range_meters":22000,"station_id":"ce4bguh2rcd13ifvqcj0","pricing_plan_id":"cebpf4jnsgd1na2vs0mg"},{"bike_id":"aed1ea43-603a-413f-86a3-e4df2af3a2a8","system_id":"levelo_inurba_marseille","lat":43.301429,"lon":5.37413,"is_reserved":false,"is_disabled":false,"rental_uris":{"android":"levelo://app?vid=aed1ea43-603a-413f-86a3-e4df2af3a2a8","ios":"levelo://app?vid=aed1ea43-603a-413f-86a3-e4df2af3a2a8"},"vehicle_type_id":"4","last_reported":1724436665,"current_range_meters":20000,"station_id":"ce4bgs92rcd13ifvqcc0","pricing_plan_id":"cebpf4jnsgd1na2vs0mg"},{"bike_id":"0158f74a-e2c5-4fcc-bc55-cb1fffa33530","system_id":"levelo_inurba_marseille","lat":43.319935,"lon":5.381699,"is_reserved":false,"is_disabled":false,"rental_uris":{"android":"levelo://app?vid=0158f74a-e2c5-4fcc-bc55-cb1fffa33530","ios":"levelo://app?vid=0158f74a-e2c5-4fcc-bc55-cb1fffa33530"},"vehicle_type_id":"4","last_reported":1724436665,"current_range_meters":0,"station_id":"ce4bhr12rcd13ifvqhpg","pricing_plan_id":"cebpf4jnsgd1na2vs0mg"},{"bike_id":"2d472cc6-1696-4a97-926d-37a1efad8267","system_id":"levelo_inurba_marseille","lat":43.319935,"lon":5.381699,"is_reserved":false,"is_disabled":false,"rental_uris":{"android":"levelo://app?vid=2d472cc6-1696-4a97-926d-37a1efad8267","ios":"levelo://app?vid=2d472cc6-1696-4a97-926d-37a1efad8267"},"vehicle_type_id":"4","last_reported":1724436665,"current_range_meters":31600,"station_id":"ce4bhr12rcd13ifvqhpg","pricing_plan_id":"cebpf4jnsgd1na2vs0mg"},{"bike_id":"18dc2d6a-07d6-412d-b925-700aa472c317","system_id":"levelo_inurba_marseille","lat":43.32006,"lon":5.38155,"is_reserved":false,"is_disabled":false,"rental_uris":{"android":"levelo://app?vid=18dc2d6a-07d6-412d-b925-700aa472c317","ios":"levelo://app?vid=18dc2d6a-07d6-412d-b925-700aa472c317"},"vehicle_type_id":"4","last_reported":1724436665,"current_range_meters":0,"station_id":"ce4bhr12rcd13ifvqhpg","pricing_plan_id":"cebpf4jnsgd1na2vs0mg"},{"bike_id":"0a264eb7-2bdb-4e36-89bd-822f53cae450","system_id":"levelo_inurba_marseille","lat":43.313571,"lon":5.384829,"is_reserved":false,"is_disabled":false,"rental_uris":{"android":"levelo://app?vid=0a264eb7-2bdb-4e36-89bd-822f53cae450","ios":"levelo://app?vid=0a264eb7-2bdb-4e36-89bd-822f53cae450"},"vehicle_type_id":"4","last_reported":1724436665,"current_range_meters":10000,"station_id":"ce4bgt92rcd13ifvqcf0","pricing_plan_id":"cebpf4jnsgd1na2vs0mg"},{"bike_id":"1d9c6c21-b6fe-46da-8dcd-648966904bc1","system_id":"levelo_inurba_marseille","lat":43.31361,"lon":5.38485,"is_reserved":false,"is_disabled":false,"rental_uris":{"android":"levelo://app?vid=1d9c6c21-b6fe-46da-8dcd-648966904bc1","ios":"levelo://app?vid=1d9c6c21-b6fe-46da-8dcd-648966904bc1"},"vehicle_type_id":"4","last_reported":1724436665,"current_range_meters":0,"station_id":"","pricing_plan_id":"cebpf4jnsgd1na2vs0mg"},{"bike_id":"a14ec9d8-9287-4f55-a0f4-55720ff1e6e5","system_id":"levelo_inurba_marseille","lat":43.313571,"lon":5.384829,"is_reserved":false,"is_disabled":false,"rental_uris":{"android":"levelo://app?vid=a14ec9d8-9287-4f55-a0f4-55720ff1e6e5","ios":"levelo://app?vid=a14ec9d8-9287-4f55-a0f4-55720ff1e6e5"},"vehicle_type_id":"4","last_reported":1724436665,"current_range_meters":3600,"station_id":"ce4bgt92rcd13ifvqcf0","pricing_plan_id":"cebpf4jnsgd1na2vs0mg"},{"bike_id":"977518c1-25f2-4d30-9160-4803e8ca0d84","system_id":"levelo_inurba_marseille","lat":43.313571,"lon":5.384829,"is_reserved":false,"is_disabled":false,"rental_uris":{"android":"levelo://app?vid=977518c1-25f2-4d30-9160-4803e8ca0d84","ios":"levelo://app?vid=977518c1-25f2-4d30-9160-4803e8ca0d84"},"vehicle_type_id":"4","last_reported":1724436665,"current_range_meters":2000,"station_id":"ce4bgt92rcd13ifvqcf0","pricing_plan_id":"cebpf4jnsgd1na2vs0mg"},{"bike_id":"f59b48c0-8687-4444-8966-badc1551adef","system_id":"levelo_inurba_marseille","lat":43.313571,"lon":5.384829,"is_reserved":false,"is_disabled":false,"rental_uris":{"android":"levelo://app?vid=f59b48c0-8687-4444-8966-badc1551adef","ios":"levelo://app?vid=f59b48c0-8687-4444-8966-badc1551adef"},"vehicle_type_id":"4","last_reported":1724436665,"current_range_meters":18000,"station_id":"ce4bgt92rcd13ifvqcf0","pricing_plan_id":"cebpf4jnsgd1na2vs0mg"},{"bike_id":"16cb840c-73c1-4368-8447-e9aeee70b7ec","system_id":"levelo_inurba_marseille","lat":43.313571,"lon":5.384829,"is_reserved":false,"is_disabled":false,"rental_uris":{"android":"levelo://app?vid=16cb840c-73c1-4368-8447-e9aeee70b7ec","ios":"levelo://app?vid=16cb840c-73c1-4368-8447-e9aeee70b7ec"},"vehicle_type_id":"4","last_reported":1724436665,"current_range_meters":10400,"station_id":"ce4bgt92rcd13ifvqcf0","pricing_plan_id":"cebpf4jnsgd1na2vs0mg"},{"bike_id":"71101761-650e-434c-82fa-d3528cdc01f8","system_id":"levelo_inurba_marseille","lat":43.299222,"lon":5.365554,"is_reserved":false,"is_disabled":false,"rental_uris":{"android":"levelo://app?vid=71101761-650e-434c-82fa-d3528cdc01f8","ios":"levelo://app?vid=71101761-650e-434c-82fa-d3528cdc01f8"},"vehicle_type_id":"4","last_reported":1724436665,"current_range_meters":26800,"station_id":"ce4bgm92rcd13ifvqbr0","pricing_plan_id":"cebpf4jnsgd1na2vs0mg"},{"bike_id":"3dc43982-8bbd-44a1-aaef-edd1c03a2d51","system_id":"levelo_inurba_marseille","lat":43.299222,"lon":5.365554,"is_reserved":false,"is_disabled":false,"rental_uris":{"android":"levelo://app?vid=3dc43982-8bbd-44a1-aaef-edd1c03a2d51","ios":"levelo://app?vid=3dc43982-8bbd-44a1-aaef-edd1c03a2d51"},"vehicle_type_id":"4","last_reported":1724436665,"current_range_meters":400,"station_id":"ce4bgm92rcd13ifvqbr0","pricing_plan_id":"cebpf4jnsgd1na2vs0mg"},{"bike_id":"0e78df00-69b3-48bf-b201-bee9d1949a12","system_id":"levelo_inurba_marseille","lat":43.305994,"lon":5.393687,"is_reserved":false,"is_disabled":false,"rental_uris":{"android":"levelo://app?vid=0e78df00-69b3-48bf-b201-bee9d1949a12","ios":"levelo://app?vid=0e78df00-69b3-48bf-b201-bee9d1949a12"},"vehicle_type_id":"4","last_reported":1724436665,"current_range_meters":22800,"station_id":"ce4bh0p2rcd13ifvqd80","pricing_plan_id":"cebpf4jnsgd1na2vs0mg"},{"bike_id":"29535196-9336-4c11-9023-11642da1a2d4","system_id":"levelo_inurba_marseille","lat":43.29982,"lon":5.37569,"is_reserved":false,"is_disabled":false,"rental_uris":{"android":"levelo://app?vid=29535196-9336-4c11-9023-11642da1a2d4","ios":"levelo://app?vid=29535196-9336-4c11-9023-11642da1a2d4"},"vehicle_type_id":"4","last_reported":1724436665,"current_range_meters":28400,"station_id":"","pricing_plan_id":"cebpf4jnsgd1na2vs0mg"},{"bike_id":"5aca239e-8838-4851-81c7-8e2cc5fe99a6","system_id":"levelo_inurba_marseille","lat":43.305364,"lon":5.384119,"is_reserved":false,"is_disabled":false,"rental_uris":{"android":"levelo://app?vid=5aca239e-8838-4851-81c7-8e2cc5fe99a6","ios":"levelo://app?vid=5aca239e-8838-4851-81c7-8e2cc5fe99a6"},"vehicle_type_id":"4","last_reported":1724436665,"current_range_meters":19200,"station_id":"ce4bgg92rcd13ifvqb30","pricing_plan_id":"cebpf4jnsgd1na2vs0mg"},{"bike_id":"4bc05b4a-5181-40d4-8c99-b417c54b8d42","system_id":"levelo_inurba_marseille","lat":43.305364,"lon":5.384119,"is_reserved":false,"is_disabled":false,"rental_uris":{"android":"levelo://app?vid=4bc05b4a-5181-40d4-8c99-b417c54b8d42","ios":"levelo://app?vid=4bc05b4a-5181-40d4-8c99-b417c54b8d42"},"vehicle_type_id":"4","last_reported":1724436665,"current_range_meters":26000,"station_id":"ce4bgg92rcd13ifvqb30","pricing_plan_id":"cebpf4jnsgd1na2vs0mg"},{"bike_id":"c0d6cbfa-e261-43c2-80cf-cd7da05f544f","system_id":"levelo_inurba_marseille","lat":43.305364,"lon":5.384119,"is_reserved":false,"is_disabled":false,"rental_uris":{"android":"levelo://app?vid=c0d6cbfa-e261-43c2-80cf-cd7da05f544f","ios":"levelo://app?vid=c0d6cbfa-e261-43c2-80cf-cd7da05f544f"},"vehicle_type_id":"4","last_reported":1724436665,"current_range_meters":0,"station_id":"ce4bgg92rcd13ifvqb30","pricing_plan_id":"cebpf4jnsgd1na2vs0mg"},{"bike_id":"260f5da8-9d21-48db-b694-ae96943ce60d","system_id":"levelo_inurba_marseille","lat":43.309589,"lon":5.390258,"is_reserved":false,"is_disabled":false,"rental_uris":{"android":"levelo://app?vid=260f5da8-9d21-48db-b694-ae96943ce60d","ios":"levelo://app?vid=260f5da8-9d21-48db-b694-ae96943ce60d"},"vehicle_type_id":"4","last_reported":1724436665,"current_range_meters":17600,"station_id":"ce4bgup2rcd13ifvqco0","pricing_plan_id":"cebpf4jnsgd1na2vs0mg"},{"bike_id":"92cd3333-28c0-4311-a478-8cea50a5969a","system_id":"levelo_inurba_marseille","lat":43.311722,"lon":5.387247,"is_reserved":false,"is_disabled":false,"rental_uris":{"android":"levelo://app?vid=92cd3333-28c0-4311-a478-8cea50a5969a","ios":"levelo://app?vid=92cd3333-28c0-4311-a478-8cea50a5969a"},"vehicle_type_id":"4","last_reported":1724436665,"current_range_meters":0,"station_id":"ce4bgv12rcd13ifvqcp0","pricing_plan_id":"cebpf4jnsgd1na2vs0mg"},{"bike_id":"682921a9-b9fd-41ea-90c3-a56e713e8902","system_id":"levelo_inurba_marseille","lat":43.311722,"lon":5.387247,"is_reserved":false,"is_disabled":false,"rental_uris":{"android":"levelo://app?vid=682921a9-b9fd-41ea-90c3-a56e713e8902","ios":"levelo://app?vid=682921a9-b9fd-41ea-90c3-a56e713e8902"},"vehicle_type_id":"4","last_reported":1724436665,"current_range_meters":10400,"station_id":"ce4bgv12rcd13ifvqcp0","pricing_plan_id":"cebpf4jnsgd1na2vs0mg"},{"bike_id":"1fff0908-b220-43e9-8966-b31547adf4b3","system_id":"levelo_inurba_marseille","lat":43.299243,"lon":5.37481,"is_reserved":false,"is_disabled":false,"rental_uris":{"android":"levelo://app?vid=1fff0908-b220-43e9-8966-b31547adf4b3","ios":"levelo://app?vid=1fff0908-b220-43e9-8966-b31547adf4b3"},"vehicle_type_id":"4","last_reported":1724436665,"current_range_meters":27600,"station_id":"ce4bgjh2rcd13ifvqbg0","pricing_plan_id":"cebpf4jnsgd1na2vs0mg"},{"bike_id":"8895f6c8-1746-4a55-a54f-d87da200649e","system_id":"levelo_inurba_marseille","lat":43.311722,"lon":5.387247,"is_reserved":false,"is_disabled":false,"rental_uris":{"android":"levelo://app?vid=8895f6c8-1746-4a55-a54f-d87da200649e","ios":"levelo://app?vid=8895f6c8-1746-4a55-a54f-d87da200649e"},"vehicle_type_id":"4","last_reported":1724436665,"current_range_meters":19600,"station_id":"ce4bgv12rcd13ifvqcp0","pricing_plan_id":"cebpf4jnsgd1na2vs0mg"},{"bike_id":"ff0cf9a7-ba79-436b-9b37-cc6e2a6fd794","system_id":"levelo_inurba_marseille","lat":43.311722,"lon":5.387247,"is_reserved":false,"is_disabled":false,"rental_uris":{"android":"levelo://app?vid=ff0cf9a7-ba79-436b-9b37-cc6e2a6fd794","ios":"levelo://app?vid=ff0cf9a7-ba79-436b-9b37-cc6e2a6fd794"},"vehicle_type_id":"4","last_reported":1724436665,"current_range_meters":24000,"station_id":"ce4bgv12rcd13ifvqcp0","pricing_plan_id":"cebpf4jnsgd1na2vs0mg"},{"bike_id":"299f5f72-10c5-4b8c-973d-96b6d9ee001a","system_id":"levelo_inurba_marseille","lat":43.301417,"lon":5.3809,"is_reserved":false,"is_disabled":false,"rental_uris":{"android":"levelo://app?vid=299f5f72-10c5-4b8c-973d-96b6d9ee001a","ios":"levelo://app?vid=299f5f72-10c5-4b8c-973d-96b6d9ee001a"},"vehicle_type_id":"4","last_reported":1724436665,"current_range_meters":20800,"station_id":"ce4bgjp2rcd13ifvqbh0","pricing_plan_id":"cebpf4jnsgd1na2vs0mg"},{"bike_id":"5cfe33c5-9806-4edb-a379-21877242319f","system_id":"levelo_inurba_marseille","lat":43.29773,"lon":5.37104,"is_reserved":false,"is_disabled":false,"rental_uris":{"android":"levelo://app?vid=5cfe33c5-9806-4edb-a379-21877242319f","ios":"levelo://app?vid=5cfe33c5-9806-4edb-a379-21877242319f"},"vehicle_type_id":"4","last_reported":1724436665,"current_range_meters":27600,"station_id":"","pricing_plan_id":"cebpf4jnsgd1na2vs0mg"},{"bike_id":"eef6a8b3-054e-44a5-8fd5-816f139809af","system_id":"levelo_inurba_marseille","lat":43.322872,"lon":5.382756,"is_reserved":false,"is_disabled":false,"rental_uris":{"android":"levelo://app?vid=eef6a8b3-054e-44a5-8fd5-816f139809af","ios":"levelo://app?vid=eef6a8b3-054e-44a5-8fd5-816f139809af"},"vehicle_type_id":"4","last_reported":1724436665,"current_range_meters":25600,"station_id":"ce4bhr12rcd13ifvqhqg","pricing_plan_id":"cebpf4jnsgd1na2vs0mg"},{"bike_id":"19fa88a7-0105-417e-99b1-2b95d62efefa","system_id":"levelo_inurba_marseille","lat":43.32297,"lon":5.38264,"is_reserved":false,"is_disabled":false,"rental_uris":{"android":"levelo://app?vid=19fa88a7-0105-417e-99b1-2b95d62efefa","ios":"levelo://app?vid=19fa88a7-0105-417e-99b1-2b95d62efefa"},"vehicle_type_id":"4","last_reported":1724436665,"current_range_meters":26000,"station_id":"ce4bhr12rcd13ifvqhqg","pricing_plan_id":"cebpf4jnsgd1na2vs0mg"},{"bike_id":"49a25728-93b0-4dd5-8eb5-d2bfa6142304","system_id":"levelo_inurba_marseille","lat":43.29706,"lon":5.36619,"is_reserved":false,"is_disabled":false,"rental_uris":{"android":"levelo://app?vid=49a25728-93b0-4dd5-8eb5-d2bfa6142304","ios":"levelo://app?vid=49a25728-93b0-4dd5-8eb5-d2bfa6142304"},"vehicle_type_id":"4","last_reported":1724436665,"current_range_meters":1600,"station_id":"ce4bgn12rcd13ifvqbt0","pricing_plan_id":"cebpf4jnsgd1na2vs0mg"},{"bike_id":"c92cc799-93e6-4861-8663-f17f991dadec","system_id":"levelo_inurba_marseille","lat":43.29705,"lon":5.36628,"is_reserved":false,"is_disabled":false,"rental_uris":{"android":"levelo://app?vid=c92cc799-93e6-4861-8663-f17f991dadec","ios":"levelo://app?vid=c92cc799-93e6-4861-8663-f17f991dadec"},"vehicle_type_id":"4","last_reported":1724436665,"current_range_meters":29200,"station_id":"","pricing_plan_id":"cebpf4jnsgd1na2vs0mg"},{"bike_id":"10fec973-3eb2-4f6e-a183-4643d37825c2","system_id":"levelo_inurba_marseille","lat":43.296253,"lon":5.368945,"is_reserved":false,"is_disabled":false,"rental_uris":{"android":"levelo://app?vid=10fec973-3eb2-4f6e-a183-4643d37825c2","ios":"levelo://app?vid=10fec973-3eb2-4f6e-a183-4643d37825c2"},"vehicle_type_id":"4","last_reported":1724436665,"current_range_meters":0,"station_id":"ce4bgph2rcd13ifvqc2g","pricing_plan_id":"cebpf4jnsgd1na2vs0mg"},{"bike_id":"ee56e36e-998b-4884-ac56-c9be8ca80464","system_id":"levelo_inurba_marseille","lat":43.29679,"lon":5.36026,"is_reserved":false,"is_disabled":false,"rental_uris":{"android":"levelo://app?vid=ee56e36e-998b-4884-ac56-c9be8ca80464","ios":"levelo://app?vid=ee56e36e-998b-4884-ac56-c9be8ca80464"},"vehicle_type_id":"4","last_reported":1724436665,"current_range_meters":11200,"station_id":"","pricing_plan_id":"cebpf4jnsgd1na2vs0mg"},{"bike_id":"55b8cf8a-a479-4a31-a8bd-ef181c3bc9fe","system_id":"levelo_inurba_marseille","lat":43.29623,"lon":5.37169,"is_reserved":false,"is_disabled":false,"rental_uris":{"android":"levelo://app?vid=55b8cf8a-a479-4a31-a8bd-ef181c3bc9fe","ios":"levelo://app?vid=55b8cf8a-a479-4a31-a8bd-ef181c3bc9fe"},"vehicle_type_id":"4","last_reported":1724436665,"current_range_meters":800,"station_id":"ce4bgnh2rcd13ifvqc0g","pricing_plan_id":"cebpf4jnsgd1na2vs0mg"},{"bike_id":"840a546d-09ce-4576-be5f-66767ded3f5c","system_id":"levelo_inurba_marseille","lat":43.29587,"lon":5.36734,"is_reserved":false,"is_disabled":false,"rental_uris":{"android":"levelo://app?vid=840a546d-09ce-4576-be5f-66767ded3f5c","ios":"levelo://app?vid=840a546d-09ce-4576-be5f-66767ded3f5c"},"vehicle_type_id":"4","last_reported":1724436665,"current_range_meters":31200,"station_id":"ce4bgph2rcd13ifvqc2g","pricing_plan_id":"cebpf4jnsgd1na2vs0mg"},{"bike_id":"f52bd836-fc90-4af2-a075-d9e61569927f","system_id":"levelo_inurba_marseille","lat":43.296131,"lon":5.370773,"is_reserved":false,"is_disabled":false,"rental_uris":{"android":"levelo://app?vid=f52bd836-fc90-4af2-a075-d9e61569927f","ios":"levelo://app?vid=f52bd836-fc90-4af2-a075-d9e61569927f"},"vehicle_type_id":"4","last_reported":1724436665,"current_range_meters":12400,"station_id":"ce4bgnh2rcd13ifvqc0g","pricing_plan_id":"cebpf4jnsgd1na2vs0mg"},{"bike_id":"f9ac8e1e-26c0-4174-b12d-08fa5c491413","system_id":"levelo_inurba_marseille","lat":43.296131,"lon":5.370791,"is_reserved":false,"is_disabled":false,"rental_uris":{"android":"levelo://app?vid=f9ac8e1e-26c0-4174-b12d-08fa5c491413","ios":"levelo://app?vid=f9ac8e1e-26c0-4174-b12d-08fa5c491413"},"vehicle_type_id":"4","last_reported":1724436665,"current_range_meters":27200,"station_id":"ce4bgnh2rcd13ifvqc0g","pricing_plan_id":"cebpf4jnsgd1na2vs0mg"},{"bike_id":"4db8e491-06d8-41b3-bca4-f7329767c71b","system_id":"levelo_inurba_marseille","lat":43.29581,"lon":5.36744,"is_reserved":false,"is_disabled":false,"rental_uris":{"android":"levelo://app?vid=4db8e491-06d8-41b3-bca4-f7329767c71b","ios":"levelo://app?vid=4db8e491-06d8-41b3-bca4-f7329767c71b"},"vehicle_type_id":"4","last_reported":1724436665,"current_range_meters":15600,"station_id":"ce4bgph2rcd13ifvqc2g","pricing_plan_id":"cebpf4jnsgd1na2vs0mg"},{"bike_id":"a373fa57-fa23-4948-96cf-237564b6983e","system_id":"levelo_inurba_marseille","lat":43.29575,"lon":5.36742,"is_reserved":false,"is_disabled":false,"rental_uris":{"android":"levelo://app?vid=a373fa57-fa23-4948-96cf-237564b6983e","ios":"levelo://app?vid=a373fa57-fa23-4948-96cf-237564b6983e"},"vehicle_type_id":"4","last_reported":1724436665,"current_range_meters":18400,"station_id":"ce4bgph2rcd13ifvqc2g","pricing_plan_id":"cebpf4jnsgd1na2vs0mg"},{"bike_id":"8c64226f-2782-4589-8713-96d2d88bd25e","system_id":"levelo_inurba_marseille","lat":43.29573,"lon":5.36744,"is_reserved":false,"is_disabled":false,"rental_uris":{"android":"levelo://app?vid=8c64226f-2782-4589-8713-96d2d88bd25e","ios":"levelo://app?vid=8c64226f-2782-4589-8713-96d2d88bd25e"},"vehicle_type_id":"4","last_reported":1724436665,"current_range_meters":25200,"station_id":"ce4bgph2rcd13ifvqc2g","pricing_plan_id":"cebpf4jnsgd1na2vs0mg"},{"bike_id":"d2897c0d-b112-4758-aaa4-6872ed2d438f","system_id":"levelo_inurba_marseille","lat":43.296921,"lon":5.376579,"is_reserved":false,"is_disabled":false,"rental_uris":{"android":"levelo://app?vid=d2897c0d-b112-4758-aaa4-6872ed2d438f","ios":"levelo://app?vid=d2897c0d-b112-4758-aaa4-6872ed2d438f"},"vehicle_type_id":"4","last_reported":1724436665,"current_range_meters":14000,"station_id":"ce4bgkh2rcd13ifvqbl0","pricing_plan_id":"cebpf4jnsgd1na2vs0mg"},{"bike_id":"0ea61dc0-62b0-4302-9ebf-5f6bc3d353ce","system_id":"levelo_inurba_marseille","lat":43.29723,"lon":5.37694,"is_reserved":false,"is_disabled":false,"rental_uris":{"android":"levelo://app?vid=0ea61dc0-62b0-4302-9ebf-5f6bc3d353ce","ios":"levelo://app?vid=0ea61dc0-62b0-4302-9ebf-5f6bc3d353ce"},"vehicle_type_id":"4","last_reported":1724436665,"current_range_meters":23600,"station_id":"ce4bgkh2rcd13ifvqbl0","pricing_plan_id":"cebpf4jnsgd1na2vs0mg"},{"bike_id":"5e16da49-b42b-4119-bf95-45ee7973f9b3","system_id":"levelo_inurba_marseille","lat":43.309589,"lon":5.390258,"is_reserved":false,"is_disabled":false,"rental_uris":{"android":"levelo://app?vid=5e16da49-b42b-4119-bf95-45ee7973f9b3","ios":"levelo://app?vid=5e16da49-b42b-4119-bf95-45ee7973f9b3"},"vehicle_type_id":"4","last_reported":1724436665,"current_range_meters":9200,"station_id":"ce4bgup2rcd13ifvqco0","pricing_plan_id":"cebpf4jnsgd1na2vs0mg"},{"bike_id":"2f692d02-89a0-4bd0-8302-dc6500f9790d","system_id":"levelo_inurba_marseille","lat":43.309589,"lon":5.390258,"is_reserved":false,"is_disabled":false,"rental_uris":{"android":"levelo://app?vid=2f692d02-89a0-4bd0-8302-dc6500f9790d","ios":"levelo://app?vid=2f692d02-89a0-4bd0-8302-dc6500f9790d"},"vehicle_type_id":"4","last_reported":1724436665,"current_range_meters":2800,"station_id":"ce4bgup2rcd13ifvqco0","pricing_plan_id":"cebpf4jnsgd1na2vs0mg"},{"bike_id":"c4114b55-5068-4100-981d-2be79a374632","system_id":"levelo_inurba_marseille","lat":43.309589,"lon":5.390258,"is_reserved":false,"is_disabled":false,"rental_uris":{"android":"levelo://app?vid=c4114b55-5068-4100-981d-2be79a374632","ios":"levelo://app?vid=c4114b55-5068-4100-981d-2be79a374632"},"vehicle_type_id":"4","last_reported":1724436665,"current_range_meters":20000,"station_id":"ce4bgup2rcd13ifvqco0","pricing_plan_id":"cebpf4jnsgd1na2vs0mg"},{"bike_id":"8255b9f1-9352-40f2-a0c4-29df3cccb366","system_id":"levelo_inurba_marseille","lat":43.299028,"lon":5.381509,"is_reserved":false,"is_disabled":false,"rental_uris":{"android":"levelo://app?vid=8255b9f1-9352-40f2-a0c4-29df3cccb366","ios":"levelo://app?vid=8255b9f1-9352-40f2-a0c4-29df3cccb366"},"vehicle_type_id":"4","last_reported":1724436665,"current_range_meters":17200,"station_id":"ce4bgj12rcd13ifvqbc0","pricing_plan_id":"cebpf4jnsgd1na2vs0mg"},{"bike_id":"cb1ade17-1368-4166-83e1-9054e895f0c9","system_id":"levelo_inurba_marseille","lat":43.309589,"lon":5.390258,"is_reserved":false,"is_disabled":false,"rental_uris":{"android":"levelo://app?vid=cb1ade17-1368-4166-83e1-9054e895f0c9","ios":"levelo://app?vid=cb1ade17-1368-4166-83e1-9054e895f0c9"},"vehicle_type_id":"4","last_reported":1724436665,"current_range_meters":16800,"station_id":"ce4bgup2rcd13ifvqco0","pricing_plan_id":"cebpf4jnsgd1na2vs0mg"},{"bike_id":"0529f48a-1b63-4311-a194-e73d05f2f449","system_id":"levelo_inurba_marseille","lat":43.309589,"lon":5.390258,"is_reserved":false,"is_disabled":false,"rental_uris":{"android":"levelo://app?vid=0529f48a-1b63-4311-a194-e73d05f2f449","ios":"levelo://app?vid=0529f48a-1b63-4311-a194-e73d05f2f449"},"vehicle_type_id":"4","last_reported":1724436665,"current_range_meters":0,"station_id":"ce4bgup2rcd13ifvqco0","pricing_plan_id":"cebpf4jnsgd1na2vs0mg"},{"bike_id":"15e319bf-d12a-4aa7-acb2-677672f5bb4e","system_id":"levelo_inurba_marseille","lat":43.309589,"lon":5.390258,"is_reserved":false,"is_disabled":false,"rental_uris":{"android":"levelo://app?vid=15e319bf-d12a-4aa7-acb2-677672f5bb4e","ios":"levelo://app?vid=15e319bf-d12a-4aa7-acb2-677672f5bb4e"},"vehicle_type_id":"4","last_reported":1724436665,"current_range_meters":7200,"station_id":"ce4bgup2rcd13ifvqco0","pricing_plan_id":"cebpf4jnsgd1na2vs0mg"},{"bike_id":"02c68555-4fa0-4cee-b1b3-4cde03b687e3","system_id":"levelo_inurba_marseille","lat":43.309589,"lon":5.390258,"is_reserved":false,"is_disabled":false,"rental_uris":{"android":"levelo://app?vid=02c68555-4fa0-4cee-b1b3-4cde03b687e3","ios":"levelo://app?vid=02c68555-4fa0-4cee-b1b3-4cde03b687e3"},"vehicle_type_id":"4","last_reported":1724436665,"current_range_meters":11200,"station_id":"ce4bgup2rcd13ifvqco0","pricing_plan_id":"cebpf4jnsgd1na2vs0mg"},{"bike_id":"6df8e13f-1860-46cd-ba1d-c10fcda7929e","system_id":"levelo_inurba_marseille","lat":43.309589,"lon":5.390258,"is_reserved":false,"is_disabled":false,"rental_uris":{"android":"levelo://app?vid=6df8e13f-1860-46cd-ba1d-c10fcda7929e","ios":"levelo://app?vid=6df8e13f-1860-46cd-ba1d-c10fcda7929e"},"vehicle_type_id":"4","last_reported":1724436665,"current_range_meters":8400,"station_id":"ce4bgup2rcd13ifvqco0","pricing_plan_id":"cebpf4jnsgd1na2vs0mg"},{"bike_id":"e6bae6d8-1bdf-42cf-94ad-58338becf440","system_id":"levelo_inurba_marseille","lat":43.309589,"lon":5.390258,"is_reserved":false,"is_disabled":false,"rental_uris":{"android":"levelo://app?vid=e6bae6d8-1bdf-42cf-94ad-58338becf440","ios":"levelo://app?vid=e6bae6d8-1bdf-42cf-94ad-58338becf440"},"vehicle_type_id":"4","last_reported":1724436665,"current_range_meters":4400,"station_id":"ce4bgup2rcd13ifvqco0","pricing_plan_id":"cebpf4jnsgd1na2vs0mg"},{"bike_id":"0a93403c-990c-400c-963b-b9b1a9bb7533","system_id":"levelo_inurba_marseille","lat":43.309589,"lon":5.390258,"is_reserved":false,"is_disabled":false,"rental_uris":{"android":"levelo://app?vid=0a93403c-990c-400c-963b-b9b1a9bb7533","ios":"levelo://app?vid=0a93403c-990c-400c-963b-b9b1a9bb7533"},"vehicle_type_id":"4","last_reported":1724436665,"current_range_meters":2400,"station_id":"ce4bgup2rcd13ifvqco0","pricing_plan_id":"cebpf4jnsgd1na2vs0mg"},{"bike_id":"05e21782-91dc-4a28-8a11-01fd0fb1515c","system_id":"levelo_inurba_marseille","lat":43.309589,"lon":5.390258,"is_reserved":false,"is_disabled":false,"rental_uris":{"android":"levelo://app?vid=05e21782-91dc-4a28-8a11-01fd0fb1515c","ios":"levelo://app?vid=05e21782-91dc-4a28-8a11-01fd0fb1515c"},"vehicle_type_id":"4","last_reported":1724436665,"current_range_meters":24400,"station_id":"ce4bgup2rcd13ifvqco0","pricing_plan_id":"cebpf4jnsgd1na2vs0mg"},{"bike_id":"ed6d0639-9fef-4462-93de-6c64aa469507","system_id":"levelo_inurba_marseille","lat":43.309589,"lon":5.390258,"is_reserved":false,"is_disabled":false,"rental_uris":{"android":"levelo://app?vid=ed6d0639-9fef-4462-93de-6c64aa469507","ios":"levelo://app?vid=ed6d0639-9fef-4462-93de-6c64aa469507"},"vehicle_type_id":"4","last_reported":1724436665,"current_range_meters":30400,"station_id":"ce4bgup2rcd13ifvqco0","pricing_plan_id":"cebpf4jnsgd1na2vs0mg"},{"bike_id":"0bec0af6-c069-4fef-8b5f-96ef86a1578c","system_id":"levelo_inurba_marseille","lat":43.309589,"lon":5.390258,"is_reserved":false,"is_disabled":false,"rental_uris":{"android":"levelo://app?vid=0bec0af6-c069-4fef-8b5f-96ef86a1578c","ios":"levelo://app?vid=0bec0af6-c069-4fef-8b5f-96ef86a1578c"},"vehicle_type_id":"4","last_reported":1724436665,"current_range_meters":1200,"station_id":"ce4bgup2rcd13ifvqco0","pricing_plan_id":"cebpf4jnsgd1na2vs0mg"},{"bike_id":"1d8a3223-7de6-4126-8b51-b317de62d7cb","system_id":"levelo_inurba_marseille","lat":43.30948,"lon":5.39031,"is_reserved":false,"is_disabled":false,"rental_uris":{"android":"levelo://app?vid=1d8a3223-7de6-4126-8b51-b317de62d7cb","ios":"levelo://app?vid=1d8a3223-7de6-4126-8b51-b317de62d7cb"},"vehicle_type_id":"4","last_reported":1724436665,"current_range_meters":22400,"station_id":"ce4bgup2rcd13ifvqco0","pricing_plan_id":"cebpf4jnsgd1na2vs0mg"},{"bike_id":"7998fd82-90e2-4cdf-bfa1-30696d6ed374","system_id":"levelo_inurba_marseille","lat":43.309589,"lon":5.390258,"is_reserved":false,"is_disabled":false,"rental_uris":{"android":"levelo://app?vid=7998fd82-90e2-4cdf-bfa1-30696d6ed374","ios":"levelo://app?vid=7998fd82-90e2-4cdf-bfa1-30696d6ed374"},"vehicle_type_id":"4","last_reported":1724436665,"current_range_meters":21600,"station_id":"ce4bgup2rcd13ifvqco0","pricing_plan_id":"cebpf4jnsgd1na2vs0mg"},{"bike_id":"c7a9f593-c7b8-4799-9c17-fc1a69821dff","system_id":"levelo_inurba_marseille","lat":43.30951,"lon":5.39034,"is_reserved":false,"is_disabled":false,"rental_uris":{"android":"levelo://app?vid=c7a9f593-c7b8-4799-9c17-fc1a69821dff","ios":"levelo://app?vid=c7a9f593-c7b8-4799-9c17-fc1a69821dff"},"vehicle_type_id":"4","last_reported":1724436665,"current_range_meters":6000,"station_id":"ce4bgup2rcd13ifvqco0","pricing_plan_id":"cebpf4jnsgd1na2vs0mg"},{"bike_id":"e3040317-7434-4b46-b8c8-3e6c02f650d3","system_id":"levelo_inurba_marseille","lat":43.309589,"lon":5.390258,"is_reserved":false,"is_disabled":false,"rental_uris":{"android":"levelo://app?vid=e3040317-7434-4b46-b8c8-3e6c02f650d3","ios":"levelo://app?vid=e3040317-7434-4b46-b8c8-3e6c02f650d3"},"vehicle_type_id":"4","last_reported":1724436665,"current_range_meters":8000,"station_id":"ce4bgup2rcd13ifvqco0","pricing_plan_id":"cebpf4jnsgd1na2vs0mg"},{"bike_id":"dcd65d83-3b46-4548-a10d-10463a0b7565","system_id":"levelo_inurba_marseille","lat":43.309589,"lon":5.390258,"is_reserved":false,"is_disabled":false,"rental_uris":{"android":"levelo://app?vid=dcd65d83-3b46-4548-a10d-10463a0b7565","ios":"levelo://app?vid=dcd65d83-3b46-4548-a10d-10463a0b7565"},"vehicle_type_id":"4","last_reported":1724436665,"current_range_meters":0,"station_id":"ce4bgup2rcd13ifvqco0","pricing_plan_id":"cebpf4jnsgd1na2vs0mg"},{"bike_id":"98972b3f-8e60-41ff-8f0e-1e623080f453","system_id":"levelo_inurba_marseille","lat":43.309589,"lon":5.390258,"is_reserved":false,"is_disabled":false,"rental_uris":{"android":"levelo://app?vid=98972b3f-8e60-41ff-8f0e-1e623080f453","ios":"levelo://app?vid=98972b3f-8e60-41ff-8f0e-1e623080f453"},"vehicle_type_id":"4","last_reported":1724436665,"current_range_meters":8800,"station_id":"ce4bgup2rcd13ifvqco0","pricing_plan_id":"cebpf4jnsgd1na2vs0mg"},{"bike_id":"82bf6de8-60d9-443a-a50d-ce430644e7d5","system_id":"levelo_inurba_marseille","lat":43.309589,"lon":5.390258,"is_reserved":false,"is_disabled":false,"rental_uris":{"android":"levelo://app?vid=82bf6de8-60d9-443a-a50d-ce430644e7d5","ios":"levelo://app?vid=82bf6de8-60d9-443a-a50d-ce430644e7d5"},"vehicle_type_id":"4","last_reported":1724436665,"current_range_meters":4400,"station_id":"ce4bgup2rcd13ifvqco0","pricing_plan_id":"cebpf4jnsgd1na2vs0mg"},{"bike_id":"9ff19bb9-0c3a-423b-8a74-7cbf1758f5d3","system_id":"levelo_inurba_marseille","lat":43.309589,"lon":5.390258,"is_reserved":false,"is_disabled":false,"rental_uris":{"android":"levelo://app?vid=9ff19bb9-0c3a-423b-8a74-7cbf1758f5d3","ios":"levelo://app?vid=9ff19bb9-0c3a-423b-8a74-7cbf1758f5d3"},"vehicle_type_id":"4","last_reported":1724436665,"current_range_meters":6800,"station_id":"ce4bgup2rcd13ifvqco0","pricing_plan_id":"cebpf4jnsgd1na2vs0mg"},{"bike_id":"d3185cb0-5c87-4b19-9fd4-de93f616c0d5","system_id":"levelo_inurba_marseille","lat":43.309589,"lon":5.390258,"is_reserved":false,"is_disabled":false,"rental_uris":{"android":"levelo://app?vid=d3185cb0-5c87-4b19-9fd4-de93f616c0d5","ios":"levelo://app?vid=d3185cb0-5c87-4b19-9fd4-de93f616c0d5"},"vehicle_type_id":"4","last_reported":1724436665,"current_range_meters":22400,"station_id":"ce4bgup2rcd13ifvqco0","pricing_plan_id":"cebpf4jnsgd1na2vs0mg"},{"bike_id":"a772aab7-1706-459b-bd04-4ca36c8dcfc3","system_id":"levelo_inurba_marseille","lat":43.30936,"lon":5.39034,"is_reserved":false,"is_disabled":false,"rental_uris":{"android":"levelo://app?vid=a772aab7-1706-459b-bd04-4ca36c8dcfc3","ios":"levelo://app?vid=a772aab7-1706-459b-bd04-4ca36c8dcfc3"},"vehicle_type_id":"4","last_reported":1724436665,"current_range_meters":23600,"station_id":"ce4bgup2rcd13ifvqco0","pricing_plan_id":"cebpf4jnsgd1na2vs0mg"},{"bike_id":"5b3c0dee-671f-4cf9-9f53-b72422a692b5","system_id":"levelo_inurba_marseille","lat":43.309589,"lon":5.390258,"is_reserved":false,"is_disabled":false,"rental_uris":{"android":"levelo://app?vid=5b3c0dee-671f-4cf9-9f53-b72422a692b5","ios":"levelo://app?vid=5b3c0dee-671f-4cf9-9f53-b72422a692b5"},"vehicle_type_id":"4","last_reported":1724436665,"current_range_meters":15200,"station_id":"ce4bgup2rcd13ifvqco0","pricing_plan_id":"cebpf4jnsgd1na2vs0mg"},{"bike_id":"fba7c451-abe2-4700-a71c-f91f3083ca83","system_id":"levelo_inurba_marseille","lat":43.309589,"lon":5.390258,"is_reserved":false,"is_disabled":false,"rental_uris":{"android":"levelo://app?vid=fba7c451-abe2-4700-a71c-f91f3083ca83","ios":"levelo://app?vid=fba7c451-abe2-4700-a71c-f91f3083ca83"},"vehicle_type_id":"4","last_reported":1724436665,"current_range_meters":400,"station_id":"ce4bgup2rcd13ifvqco0","pricing_plan_id":"cebpf4jnsgd1na2vs0mg"},{"bike_id":"ffe37b28-fff3-48d7-9bdd-add73c03d590","system_id":"levelo_inurba_marseille","lat":43.309589,"lon":5.390258,"is_reserved":false,"is_disabled":false,"rental_uris":{"android":"levelo://app?vid=ffe37b28-fff3-48d7-9bdd-add73c03d590","ios":"levelo://app?vid=ffe37b28-fff3-48d7-9bdd-add73c03d590"},"vehicle_type_id":"4","last_reported":1724436665,"current_range_meters":4800,"station_id":"ce4bgup2rcd13ifvqco0","pricing_plan_id":"cebpf4jnsgd1na2vs0mg"},{"bike_id":"fdc65334-36b7-43de-9e8f-2b2691664765","system_id":"levelo_inurba_marseille","lat":43.30957,"lon":5.39046,"is_reserved":false,"is_disabled":false,"rental_uris":{"android":"levelo://app?vid=fdc65334-36b7-43de-9e8f-2b2691664765","ios":"levelo://app?vid=fdc65334-36b7-43de-9e8f-2b2691664765"},"vehicle_type_id":"4","last_reported":1724436665,"current_range_meters":22400,"station_id":"ce4bgup2rcd13ifvqco0","pricing_plan_id":"cebpf4jnsgd1na2vs0mg"},{"bike_id":"a435ed20-96c0-4bb5-8400-2c74aa9f451d","system_id":"levelo_inurba_marseille","lat":43.317557,"lon":5.390173,"is_reserved":false,"is_disabled":false,"rental_uris":{"android":"levelo://app?vid=a435ed20-96c0-4bb5-8400-2c74aa9f451d","ios":"levelo://app?vid=a435ed20-96c0-4bb5-8400-2c74aa9f451d"},"vehicle_type_id":"4","last_reported":1724436665,"current_range_meters":4400,"station_id":"ce4bhqp2rcd13ifvqhng","pricing_plan_id":"cebpf4jnsgd1na2vs0mg"},{"bike_id":"f1014bf8-4e6f-4485-857a-f1e205650984","system_id":"levelo_inurba_marseille","lat":43.29589,"lon":5.37518,"is_reserved":false,"is_disabled":false,"rental_uris":{"android":"levelo://app?vid=f1014bf8-4e6f-4485-857a-f1e205650984","ios":"levelo://app?vid=f1014bf8-4e6f-4485-857a-f1e205650984"},"vehicle_type_id":"4","last_reported":1724436665,"current_range_meters":27600,"station_id":"","pricing_plan_id":"cebpf4jnsgd1na2vs0mg"},{"bike_id":"03f70759-2df2-40e2-82cd-47bacd9e7d28","system_id":"levelo_inurba_marseille","lat":43.295825,"lon":5.375115,"is_reserved":false,"is_disabled":false,"rental_uris":{"android":"levelo://app?vid=03f70759-2df2-40e2-82cd-47bacd9e7d28","ios":"levelo://app?vid=03f70759-2df2-40e2-82cd-47bacd9e7d28"},"vehicle_type_id":"4","last_reported":1724436665,"current_range_meters":400,"station_id":"ce4bgh92rcd13ifvqb50","pricing_plan_id":"cebpf4jnsgd1na2vs0mg"},{"bike_id":"4c93b301-ac5c-46cd-a1f0-e9d1f3163701","system_id":"levelo_inurba_marseille","lat":43.29577,"lon":5.37514,"is_reserved":false,"is_disabled":false,"rental_uris":{"android":"levelo://app?vid=4c93b301-ac5c-46cd-a1f0-e9d1f3163701","ios":"levelo://app?vid=4c93b301-ac5c-46cd-a1f0-e9d1f3163701"},"vehicle_type_id":"4","last_reported":1724436665,"current_range_meters":0,"station_id":"ce4bgh92rcd13ifvqb50","pricing_plan_id":"cebpf4jnsgd1na2vs0mg"},{"bike_id":"0a34f34c-ee81-4798-adac-7ab7b1098895","system_id":"levelo_inurba_marseille","lat":43.29571,"lon":5.37508,"is_reserved":false,"is_disabled":false,"rental_uris":{"android":"levelo://app?vid=0a34f34c-ee81-4798-adac-7ab7b1098895","ios":"levelo://app?vid=0a34f34c-ee81-4798-adac-7ab7b1098895"},"vehicle_type_id":"4","last_reported":1724436665,"current_range_meters":21600,"station_id":"ce4bgh92rcd13ifvqb50","pricing_plan_id":"cebpf4jnsgd1na2vs0mg"},{"bike_id":"2e6fcb15-47b8-40c5-8c33-4928a6cb7e23","system_id":"levelo_inurba_marseille","lat":43.304274,"lon":5.388873,"is_reserved":false,"is_disabled":false,"rental_uris":{"android":"levelo://app?vid=2e6fcb15-47b8-40c5-8c33-4928a6cb7e23","ios":"levelo://app?vid=2e6fcb15-47b8-40c5-8c33-4928a6cb7e23"},"vehicle_type_id":"4","last_reported":1724436665,"current_range_meters":28400,"station_id":"ce4bgk12rcd13ifvqbi0","pricing_plan_id":"cebpf4jnsgd1na2vs0mg"},{"bike_id":"feeec14b-d91f-4b56-b838-9fd703795424","system_id":"levelo_inurba_marseille","lat":43.298037,"lon":5.381066,"is_reserved":false,"is_disabled":false,"rental_uris":{"android":"levelo://app?vid=feeec14b-d91f-4b56-b838-9fd703795424","ios":"levelo://app?vid=feeec14b-d91f-4b56-b838-9fd703795424"},"vehicle_type_id":"4","last_reported":1724436665,"current_range_meters":17600,"station_id":"ce4bgip2rcd13ifvqbb0","pricing_plan_id":"cebpf4jnsgd1na2vs0mg"},{"bike_id":"b3d8a65c-d5c3-49b4-9a67-5e713f39111e","system_id":"levelo_inurba_marseille","lat":43.296263,"lon":5.377094,"is_reserved":false,"is_disabled":false,"rental_uris":{"android":"levelo://app?vid=b3d8a65c-d5c3-49b4-9a67-5e713f39111e","ios":"levelo://app?vid=b3d8a65c-d5c3-49b4-9a67-5e713f39111e"},"vehicle_type_id":"4","last_reported":1724436665,"current_range_meters":27200,"station_id":"ce4bgi92rcd13ifvqb90","pricing_plan_id":"cebpf4jnsgd1na2vs0mg"},{"bike_id":"8bb77199-48d1-42e2-b986-c2d2a0621415","system_id":"levelo_inurba_marseille","lat":43.296277,"lon":5.377108,"is_reserved":false,"is_disabled":false,"rental_uris":{"android":"levelo://app?vid=8bb77199-48d1-42e2-b986-c2d2a0621415","ios":"levelo://app?vid=8bb77199-48d1-42e2-b986-c2d2a0621415"},"vehicle_type_id":"4","last_reported":1724436665,"current_range_meters":28800,"station_id":"ce4bgi92rcd13ifvqb90","pricing_plan_id":"cebpf4jnsgd1na2vs0mg"},{"bike_id":"5546bb53-4633-4613-ac2a-dace8d8b7c80","system_id":"levelo_inurba_marseille","lat":43.296277,"lon":5.377108,"is_reserved":false,"is_disabled":false,"rental_uris":{"android":"levelo://app?vid=5546bb53-4633-4613-ac2a-dace8d8b7c80","ios":"levelo://app?vid=5546bb53-4633-4613-ac2a-dace8d8b7c80"},"vehicle_type_id":"4","last_reported":1724436665,"current_range_meters":31200,"station_id":"ce4bgi92rcd13ifvqb90","pricing_plan_id":"cebpf4jnsgd1na2vs0mg"},{"bike_id":"2b048dd0-8f24-44d5-8441-cf2596620756","system_id":"levelo_inurba_marseille","lat":43.295279,"lon":5.375048,"is_reserved":false,"is_disabled":false,"rental_uris":{"android":"levelo://app?vid=2b048dd0-8f24-44d5-8441-cf2596620756","ios":"levelo://app?vid=2b048dd0-8f24-44d5-8441-cf2596620756"},"vehicle_type_id":"4","last_reported":1724436665,"current_range_meters":0,"station_id":"ce4bgkp2rcd13ifvqbmg","pricing_plan_id":"cebpf4jnsgd1na2vs0mg"},{"bike_id":"3fc604d8-f980-4fd7-8905-156da7869f66","system_id":"levelo_inurba_marseille","lat":43.299707,"lon":5.384859,"is_reserved":false,"is_disabled":false,"rental_uris":{"android":"levelo://app?vid=3fc604d8-f980-4fd7-8905-156da7869f66","ios":"levelo://app?vid=3fc604d8-f980-4fd7-8905-156da7869f66"},"vehicle_type_id":"4","last_reported":1724436665,"current_range_meters":1600,"station_id":"ce4bgj92rcd13ifvqbd0","pricing_plan_id":"cebpf4jnsgd1na2vs0mg"},{"bike_id":"c655ae97-35c0-4130-9f25-4724070167e2","system_id":"levelo_inurba_marseille","lat":43.299724,"lon":5.384848,"is_reserved":false,"is_disabled":false,"rental_uris":{"android":"levelo://app?vid=c655ae97-35c0-4130-9f25-4724070167e2","ios":"levelo://app?vid=c655ae97-35c0-4130-9f25-4724070167e2"},"vehicle_type_id":"4","last_reported":1724436665,"current_range_meters":4800,"station_id":"ce4bgj92rcd13ifvqbd0","pricing_plan_id":"cebpf4jnsgd1na2vs0mg"},{"bike_id":"0f5d8844-5df8-42cf-b66a-53049d89f87e","system_id":"levelo_inurba_marseille","lat":43.304647,"lon":5.390037,"is_reserved":false,"is_disabled":false,"rental_uris":{"android":"levelo://app?vid=0f5d8844-5df8-42cf-b66a-53049d89f87e","ios":"levelo://app?vid=0f5d8844-5df8-42cf-b66a-53049d89f87e"},"vehicle_type_id":"4","last_reported":1724436665,"current_range_meters":2800,"station_id":"","pricing_plan_id":"cebpf4jnsgd1na2vs0mg"},{"bike_id":"d5da870a-370f-4501-8862-6182f388133a","system_id":"levelo_inurba_marseille","lat":43.309589,"lon":5.390258,"is_reserved":false,"is_disabled":false,"rental_uris":{"android":"levelo://app?vid=d5da870a-370f-4501-8862-6182f388133a","ios":"levelo://app?vid=d5da870a-370f-4501-8862-6182f388133a"},"vehicle_type_id":"4","last_reported":1724436665,"current_range_meters":3600,"station_id":"ce4bgup2rcd13ifvqco0","pricing_plan_id":"cebpf4jnsgd1na2vs0mg"},{"bike_id":"9fd8a19c-ece4-4896-87ef-55781f2ccee0","system_id":"levelo_inurba_marseille","lat":43.301396,"lon":5.387812,"is_reserved":false,"is_disabled":false,"rental_uris":{"android":"levelo://app?vid=9fd8a19c-ece4-4896-87ef-55781f2ccee0","ios":"levelo://app?vid=9fd8a19c-ece4-4896-87ef-55781f2ccee0"},"vehicle_type_id":"4","last_reported":1724436665,"current_range_meters":8000,"station_id":"ce4bghh2rcd13ifvqb60","pricing_plan_id":"cebpf4jnsgd1na2vs0mg"},{"bike_id":"2e500683-e2b0-44f9-8f67-cb8dcb49e71d","system_id":"levelo_inurba_marseille","lat":43.301396,"lon":5.387812,"is_reserved":false,"is_disabled":false,"rental_uris":{"android":"levelo://app?vid=2e500683-e2b0-44f9-8f67-cb8dcb49e71d","ios":"levelo://app?vid=2e500683-e2b0-44f9-8f67-cb8dcb49e71d"},"vehicle_type_id":"4","last_reported":1724436665,"current_range_meters":12800,"station_id":"ce4bghh2rcd13ifvqb60","pricing_plan_id":"cebpf4jnsgd1na2vs0mg"},{"bike_id":"56fbaad6-a7f6-4fe3-9ffc-d621c6400981","system_id":"levelo_inurba_marseille","lat":43.301396,"lon":5.387812,"is_reserved":false,"is_disabled":false,"rental_uris":{"android":"levelo://app?vid=56fbaad6-a7f6-4fe3-9ffc-d621c6400981","ios":"levelo://app?vid=56fbaad6-a7f6-4fe3-9ffc-d621c6400981"},"vehicle_type_id":"4","last_reported":1724436665,"current_range_meters":10800,"station_id":"ce4bghh2rcd13ifvqb60","pricing_plan_id":"cebpf4jnsgd1na2vs0mg"},{"bike_id":"0f4da3ee-1768-44b8-8741-9981c05f214c","system_id":"levelo_inurba_marseille","lat":43.301396,"lon":5.387812,"is_reserved":false,"is_disabled":false,"rental_uris":{"android":"levelo://app?vid=0f4da3ee-1768-44b8-8741-9981c05f214c","ios":"levelo://app?vid=0f4da3ee-1768-44b8-8741-9981c05f214c"},"vehicle_type_id":"4","last_reported":1724436665,"current_range_meters":30400,"station_id":"ce4bghh2rcd13ifvqb60","pricing_plan_id":"cebpf4jnsgd1na2vs0mg"},{"bike_id":"bbb696cb-c2d9-47f7-951a-6cb0f0c529b5","system_id":"levelo_inurba_marseille","lat":43.309589,"lon":5.390258,"is_reserved":false,"is_disabled":false,"rental_uris":{"android":"levelo://app?vid=bbb696cb-c2d9-47f7-951a-6cb0f0c529b5","ios":"levelo://app?vid=bbb696cb-c2d9-47f7-951a-6cb0f0c529b5"},"vehicle_type_id":"4","last_reported":1724436665,"current_range_meters":14800,"station_id":"ce4bgup2rcd13ifvqco0","pricing_plan_id":"cebpf4jnsgd1na2vs0mg"},{"bike_id":"242ffcba-68ff-4615-b006-4ec9a37c7cf2","system_id":"levelo_inurba_marseille","lat":43.29601,"lon":5.381084,"is_reserved":false,"is_disabled":false,"rental_uris":{"android":"levelo://app?vid=242ffcba-68ff-4615-b006-4ec9a37c7cf2","ios":"levelo://app?vid=242ffcba-68ff-4615-b006-4ec9a37c7cf2"},"vehicle_type_id":"4","last_reported":1724436665,"current_range_meters":20000,"station_id":"ce4bgl12rcd13ifvqbo0","pricing_plan_id":"cebpf4jnsgd1na2vs0mg"},{"bike_id":"baae911f-ae79-47b9-9891-32fc80c2d348","system_id":"levelo_inurba_marseille","lat":43.29597,"lon":5.38103,"is_reserved":false,"is_disabled":false,"rental_uris":{"android":"levelo://app?vid=baae911f-ae79-47b9-9891-32fc80c2d348","ios":"levelo://app?vid=baae911f-ae79-47b9-9891-32fc80c2d348"},"vehicle_type_id":"4","last_reported":1724436665,"current_range_meters":28800,"station_id":"ce4bgl12rcd13ifvqbo0","pricing_plan_id":"cebpf4jnsgd1na2vs0mg"},{"bike_id":"48f9e3c5-93ca-4628-a974-efe0d1f72cdb","system_id":"levelo_inurba_marseille","lat":43.293259,"lon":5.371586,"is_reserved":false,"is_disabled":false,"rental_uris":{"android":"levelo://app?vid=48f9e3c5-93ca-4628-a974-efe0d1f72cdb","ios":"levelo://app?vid=48f9e3c5-93ca-4628-a974-efe0d1f72cdb"},"vehicle_type_id":"4","last_reported":1724436665,"current_range_meters":4800,"station_id":"ce4bgh92rcd13ifvqb40","pricing_plan_id":"cebpf4jnsgd1na2vs0mg"},{"bike_id":"128ed7f3-a1da-4feb-abbc-9e4bd293e3b6","system_id":"levelo_inurba_marseille","lat":43.293259,"lon":5.371586,"is_reserved":false,"is_disabled":false,"rental_uris":{"android":"levelo://app?vid=128ed7f3-a1da-4feb-abbc-9e4bd293e3b6","ios":"levelo://app?vid=128ed7f3-a1da-4feb-abbc-9e4bd293e3b6"},"vehicle_type_id":"4","last_reported":1724436665,"current_range_meters":4000,"station_id":"ce4bgh92rcd13ifvqb40","pricing_plan_id":"cebpf4jnsgd1na2vs0mg"},{"bike_id":"e3873cd4-5aca-440e-b53f-a32ee4d0cb98","system_id":"levelo_inurba_marseille","lat":43.29278,"lon":5.3685,"is_reserved":false,"is_disabled":false,"rental_uris":{"android":"levelo://app?vid=e3873cd4-5aca-440e-b53f-a32ee4d0cb98","ios":"levelo://app?vid=e3873cd4-5aca-440e-b53f-a32ee4d0cb98"},"vehicle_type_id":"4","last_reported":1724436665,"current_range_meters":20800,"station_id":"ce4bhbp2rcd13ifvqesg","pricing_plan_id":"cebpf4jnsgd1na2vs0mg"},{"bike_id":"6ccc0233-454f-4bf0-a380-b542ad8998d9","system_id":"levelo_inurba_marseille","lat":43.29304,"lon":5.37171,"is_reserved":false,"is_disabled":false,"rental_uris":{"android":"levelo://app?vid=6ccc0233-454f-4bf0-a380-b542ad8998d9","ios":"levelo://app?vid=6ccc0233-454f-4bf0-a380-b542ad8998d9"},"vehicle_type_id":"4","last_reported":1724436665,"current_range_meters":16000,"station_id":"ce4bgh92rcd13ifvqb40","pricing_plan_id":"cebpf4jnsgd1na2vs0mg"},{"bike_id":"a053cfde-6f7f-48d0-b4eb-b98b2bf679c4","system_id":"levelo_inurba_marseille","lat":43.293259,"lon":5.371586,"is_reserved":false,"is_disabled":false,"rental_uris":{"android":"levelo://app?vid=a053cfde-6f7f-48d0-b4eb-b98b2bf679c4","ios":"levelo://app?vid=a053cfde-6f7f-48d0-b4eb-b98b2bf679c4"},"vehicle_type_id":"4","last_reported":1724436665,"current_range_meters":2800,"station_id":"ce4bgh92rcd13ifvqb40","pricing_plan_id":"cebpf4jnsgd1na2vs0mg"},{"bike_id":"bdac24c5-c531-4140-94ec-e47baaacf3de","system_id":"levelo_inurba_marseille","lat":43.293259,"lon":5.371586,"is_reserved":false,"is_disabled":false,"rental_uris":{"android":"levelo://app?vid=bdac24c5-c531-4140-94ec-e47baaacf3de","ios":"levelo://app?vid=bdac24c5-c531-4140-94ec-e47baaacf3de"},"vehicle_type_id":"4","last_reported":1724436665,"current_range_meters":12800,"station_id":"ce4bgh92rcd13ifvqb40","pricing_plan_id":"cebpf4jnsgd1na2vs0mg"},{"bike_id":"fc21f6a6-b6ba-4901-a10a-5675891625a6","system_id":"levelo_inurba_marseille","lat":43.292749,"lon":5.368398,"is_reserved":false,"is_disabled":false,"rental_uris":{"android":"levelo://app?vid=fc21f6a6-b6ba-4901-a10a-5675891625a6","ios":"levelo://app?vid=fc21f6a6-b6ba-4901-a10a-5675891625a6"},"vehicle_type_id":"4","last_reported":1724436665,"current_range_meters":0,"station_id":"ce4bhbp2rcd13ifvqesg","pricing_plan_id":"cebpf4jnsgd1na2vs0mg"},{"bike_id":"ecfae155-0621-4d7a-9f27-41ef07a9eba8","system_id":"levelo_inurba_marseille","lat":43.293009,"lon":5.374584,"is_reserved":false,"is_disabled":false,"rental_uris":{"android":"levelo://app?vid=ecfae155-0621-4d7a-9f27-41ef07a9eba8","ios":"levelo://app?vid=ecfae155-0621-4d7a-9f27-41ef07a9eba8"},"vehicle_type_id":"4","last_reported":1724436665,"current_range_meters":31600,"station_id":"ce4bgi12rcd13ifvqb70","pricing_plan_id":"cebpf4jnsgd1na2vs0mg"},{"bike_id":"e2c6ce51-3ef4-4b9a-baca-7c64580c971d","system_id":"levelo_inurba_marseille","lat":43.293009,"lon":5.374584,"is_reserved":false,"is_disabled":false,"rental_uris":{"android":"levelo://app?vid=e2c6ce51-3ef4-4b9a-baca-7c64580c971d","ios":"levelo://app?vid=e2c6ce51-3ef4-4b9a-baca-7c64580c971d"},"vehicle_type_id":"4","last_reported":1724436665,"current_range_meters":9600,"station_id":"ce4bgi12rcd13ifvqb70","pricing_plan_id":"cebpf4jnsgd1na2vs0mg"},{"bike_id":"533c9362-5057-4f5f-83cd-245fd65cfc68","system_id":"levelo_inurba_marseille","lat":43.293009,"lon":5.374584,"is_reserved":false,"is_disabled":false,"rental_uris":{"android":"levelo://app?vid=533c9362-5057-4f5f-83cd-245fd65cfc68","ios":"levelo://app?vid=533c9362-5057-4f5f-83cd-245fd65cfc68"},"vehicle_type_id":"4","last_reported":1724436665,"current_range_meters":5200,"station_id":"ce4bgi12rcd13ifvqb70","pricing_plan_id":"cebpf4jnsgd1na2vs0mg"},{"bike_id":"3bd3ca6e-9b0e-4e69-bacb-4eaa053ad643","system_id":"levelo_inurba_marseille","lat":43.293009,"lon":5.374584,"is_reserved":false,"is_disabled":false,"rental_uris":{"android":"levelo://app?vid=3bd3ca6e-9b0e-4e69-bacb-4eaa053ad643","ios":"levelo://app?vid=3bd3ca6e-9b0e-4e69-bacb-4eaa053ad643"},"vehicle_type_id":"4","last_reported":1724436665,"current_range_meters":12000,"station_id":"ce4bgi12rcd13ifvqb70","pricing_plan_id":"cebpf4jnsgd1na2vs0mg"},{"bike_id":"bc3a1331-85f5-4f52-84dd-c97e66ec58c0","system_id":"levelo_inurba_marseille","lat":43.293,"lon":5.37458,"is_reserved":false,"is_disabled":false,"rental_uris":{"android":"levelo://app?vid=bc3a1331-85f5-4f52-84dd-c97e66ec58c0","ios":"levelo://app?vid=bc3a1331-85f5-4f52-84dd-c97e66ec58c0"},"vehicle_type_id":"4","last_reported":1724436665,"current_range_meters":13200,"station_id":"ce4bgi12rcd13ifvqb70","pricing_plan_id":"cebpf4jnsgd1na2vs0mg"},{"bike_id":"1a691d7a-f080-4bc7-9fde-a3c07b27732d","system_id":"levelo_inurba_marseille","lat":43.293009,"lon":5.374584,"is_reserved":false,"is_disabled":false,"rental_uris":{"android":"levelo://app?vid=1a691d7a-f080-4bc7-9fde-a3c07b27732d","ios":"levelo://app?vid=1a691d7a-f080-4bc7-9fde-a3c07b27732d"},"vehicle_type_id":"4","last_reported":1724436665,"current_range_meters":0,"station_id":"ce4bgi12rcd13ifvqb70","pricing_plan_id":"cebpf4jnsgd1na2vs0mg"},{"bike_id":"52cb15f8-cf59-4577-8cdc-d563047d5324","system_id":"levelo_inurba_marseille","lat":43.293009,"lon":5.374584,"is_reserved":false,"is_disabled":false,"rental_uris":{"android":"levelo://app?vid=52cb15f8-cf59-4577-8cdc-d563047d5324","ios":"levelo://app?vid=52cb15f8-cf59-4577-8cdc-d563047d5324"},"vehicle_type_id":"4","last_reported":1724436665,"current_range_meters":5600,"station_id":"ce4bgi12rcd13ifvqb70","pricing_plan_id":"cebpf4jnsgd1na2vs0mg"},{"bike_id":"8ca29bc8-2a9e-48f7-b93e-0b95d5de9fd3","system_id":"levelo_inurba_marseille","lat":43.293009,"lon":5.374584,"is_reserved":false,"is_disabled":false,"rental_uris":{"android":"levelo://app?vid=8ca29bc8-2a9e-48f7-b93e-0b95d5de9fd3","ios":"levelo://app?vid=8ca29bc8-2a9e-48f7-b93e-0b95d5de9fd3"},"vehicle_type_id":"4","last_reported":1724436665,"current_range_meters":9600,"station_id":"ce4bgi12rcd13ifvqb70","pricing_plan_id":"cebpf4jnsgd1na2vs0mg"},{"bike_id":"1c9000fa-b42d-4052-b38e-491d263a7e10","system_id":"levelo_inurba_marseille","lat":43.305903,"lon":5.393547,"is_reserved":false,"is_disabled":false,"rental_uris":{"android":"levelo://app?vid=1c9000fa-b42d-4052-b38e-491d263a7e10","ios":"levelo://app?vid=1c9000fa-b42d-4052-b38e-491d263a7e10"},"vehicle_type_id":"4","last_reported":1724436665,"current_range_meters":0,"station_id":"ce4bh0p2rcd13ifvqd80","pricing_plan_id":"cebpf4jnsgd1na2vs0mg"},{"bike_id":"ed27dcdf-56f8-4112-9ebe-859fffa1286d","system_id":"levelo_inurba_marseille","lat":43.30305,"lon":5.39206,"is_reserved":false,"is_disabled":false,"rental_uris":{"android":"levelo://app?vid=ed27dcdf-56f8-4112-9ebe-859fffa1286d","ios":"levelo://app?vid=ed27dcdf-56f8-4112-9ebe-859fffa1286d"},"vehicle_type_id":"4","last_reported":1724436665,"current_range_meters":26800,"station_id":"ce4bgkh2rcd13ifvqbk0","pricing_plan_id":"cebpf4jnsgd1na2vs0mg"},{"bike_id":"cf9bb453-c9cb-49f7-90ef-8486f31cb275","system_id":"levelo_inurba_marseille","lat":43.29377,"lon":5.37856,"is_reserved":false,"is_disabled":false,"rental_uris":{"android":"levelo://app?vid=cf9bb453-c9cb-49f7-90ef-8486f31cb275","ios":"levelo://app?vid=cf9bb453-c9cb-49f7-90ef-8486f31cb275"},"vehicle_type_id":"4","last_reported":1724436665,"current_range_meters":0,"station_id":"ce4bgjh2rcd13ifvqbf0","pricing_plan_id":"cebpf4jnsgd1na2vs0mg"},{"bike_id":"f85ea2de-fa8d-4dd4-a0c3-f5bfb0b41b68","system_id":"levelo_inurba_marseille","lat":43.29373,"lon":5.37857,"is_reserved":false,"is_disabled":false,"rental_uris":{"android":"levelo://app?vid=f85ea2de-fa8d-4dd4-a0c3-f5bfb0b41b68","ios":"levelo://app?vid=f85ea2de-fa8d-4dd4-a0c3-f5bfb0b41b68"},"vehicle_type_id":"4","last_reported":1724436665,"current_range_meters":0,"station_id":"ce4bgjh2rcd13ifvqbf0","pricing_plan_id":"cebpf4jnsgd1na2vs0mg"},{"bike_id":"6d926f6e-15d8-4dbf-a2d3-04b7202c6612","system_id":"levelo_inurba_marseille","lat":43.2936,"lon":5.37835,"is_reserved":false,"is_disabled":false,"rental_uris":{"android":"levelo://app?vid=6d926f6e-15d8-4dbf-a2d3-04b7202c6612","ios":"levelo://app?vid=6d926f6e-15d8-4dbf-a2d3-04b7202c6612"},"vehicle_type_id":"4","last_reported":1724436665,"current_range_meters":21600,"station_id":"ce4bgjh2rcd13ifvqbf0","pricing_plan_id":"cebpf4jnsgd1na2vs0mg"},{"bike_id":"05d3cf57-a409-4bc2-bb01-17329641c32b","system_id":"levelo_inurba_marseille","lat":43.2936,"lon":5.37835,"is_reserved":false,"is_disabled":false,"rental_uris":{"android":"levelo://app?vid=05d3cf57-a409-4bc2-bb01-17329641c32b","ios":"levelo://app?vid=05d3cf57-a409-4bc2-bb01-17329641c32b"},"vehicle_type_id":"4","last_reported":1724436665,"current_range_meters":27600,"station_id":"ce4bgjh2rcd13ifvqbf0","pricing_plan_id":"cebpf4jnsgd1na2vs0mg"},{"bike_id":"c756a2f4-e17f-456e-a1c6-9e9ad14389d9","system_id":"levelo_inurba_marseille","lat":43.2936,"lon":5.37835,"is_reserved":false,"is_disabled":false,"rental_uris":{"android":"levelo://app?vid=c756a2f4-e17f-456e-a1c6-9e9ad14389d9","ios":"levelo://app?vid=c756a2f4-e17f-456e-a1c6-9e9ad14389d9"},"vehicle_type_id":"4","last_reported":1724436665,"current_range_meters":4000,"station_id":"ce4bgjh2rcd13ifvqbf0","pricing_plan_id":"cebpf4jnsgd1na2vs0mg"},{"bike_id":"ff22d9ed-09ca-4203-b246-504f8923dd75","system_id":"levelo_inurba_marseille","lat":43.2936,"lon":5.37835,"is_reserved":false,"is_disabled":false,"rental_uris":{"android":"levelo://app?vid=ff22d9ed-09ca-4203-b246-504f8923dd75","ios":"levelo://app?vid=ff22d9ed-09ca-4203-b246-504f8923dd75"},"vehicle_type_id":"4","last_reported":1724436665,"current_range_meters":14400,"station_id":"ce4bgjh2rcd13ifvqbf0","pricing_plan_id":"cebpf4jnsgd1na2vs0mg"},{"bike_id":"2c9b93b3-01c3-4401-b599-bfe635ea423f","system_id":"levelo_inurba_marseille","lat":43.2936,"lon":5.37835,"is_reserved":false,"is_disabled":false,"rental_uris":{"android":"levelo://app?vid=2c9b93b3-01c3-4401-b599-bfe635ea423f","ios":"levelo://app?vid=2c9b93b3-01c3-4401-b599-bfe635ea423f"},"vehicle_type_id":"4","last_reported":1724436665,"current_range_meters":25200,"station_id":"ce4bgjh2rcd13ifvqbf0","pricing_plan_id":"cebpf4jnsgd1na2vs0mg"},{"bike_id":"3c7b25c2-7907-4916-ae2f-8b5e9c394e69","system_id":"levelo_inurba_marseille","lat":43.30489,"lon":5.39365,"is_reserved":false,"is_disabled":false,"rental_uris":{"android":"levelo://app?vid=3c7b25c2-7907-4916-ae2f-8b5e9c394e69","ios":"levelo://app?vid=3c7b25c2-7907-4916-ae2f-8b5e9c394e69"},"vehicle_type_id":"4","last_reported":1724436665,"current_range_meters":7200,"station_id":"","pricing_plan_id":"cebpf4jnsgd1na2vs0mg"},{"bike_id":"226baab9-6713-44c0-bed4-d4668e5d4331","system_id":"levelo_inurba_marseille","lat":43.29222,"lon":5.3608,"is_reserved":false,"is_disabled":false,"rental_uris":{"android":"levelo://app?vid=226baab9-6713-44c0-bed4-d4668e5d4331","ios":"levelo://app?vid=226baab9-6713-44c0-bed4-d4668e5d4331"},"vehicle_type_id":"4","last_reported":1724436665,"current_range_meters":0,"station_id":"ce4bhbh2rcd13ifvqeqg","pricing_plan_id":"cebpf4jnsgd1na2vs0mg"},{"bike_id":"c8349f77-40b4-4263-af18-433a49e8698d","system_id":"levelo_inurba_marseille","lat":43.292311,"lon":5.360731,"is_reserved":false,"is_disabled":false,"rental_uris":{"android":"levelo://app?vid=c8349f77-40b4-4263-af18-433a49e8698d","ios":"levelo://app?vid=c8349f77-40b4-4263-af18-433a49e8698d"},"vehicle_type_id":"4","last_reported":1724436665,"current_range_meters":9200,"station_id":"ce4bhbh2rcd13ifvqeqg","pricing_plan_id":"cebpf4jnsgd1na2vs0mg"},{"bike_id":"3624574b-0bec-4942-88f5-125d85bde314","system_id":"levelo_inurba_marseille","lat":43.291994,"lon":5.357886,"is_reserved":false,"is_disabled":false,"rental_uris":{"android":"levelo://app?vid=3624574b-0bec-4942-88f5-125d85bde314","ios":"levelo://app?vid=3624574b-0bec-4942-88f5-125d85bde314"},"vehicle_type_id":"4","last_reported":1724436665,"current_range_meters":26000,"station_id":"ce4bhb12rcd13ifvqel0","pricing_plan_id":"cebpf4jnsgd1na2vs0mg"},{"bike_id":"89410a4a-5a97-4f4f-8615-1729cd3e4329","system_id":"levelo_inurba_marseille","lat":43.292311,"lon":5.360731,"is_reserved":false,"is_disabled":false,"rental_uris":{"android":"levelo://app?vid=89410a4a-5a97-4f4f-8615-1729cd3e4329","ios":"levelo://app?vid=89410a4a-5a97-4f4f-8615-1729cd3e4329"},"vehicle_type_id":"4","last_reported":1724436665,"current_range_meters":0,"station_id":"ce4bhbh2rcd13ifvqeqg","pricing_plan_id":"cebpf4jnsgd1na2vs0mg"},{"bike_id":"45667bf9-0244-430d-b8c3-05ba3aad476a","system_id":"levelo_inurba_marseille","lat":43.29217,"lon":5.36072,"is_reserved":false,"is_disabled":false,"rental_uris":{"android":"levelo://app?vid=45667bf9-0244-430d-b8c3-05ba3aad476a","ios":"levelo://app?vid=45667bf9-0244-430d-b8c3-05ba3aad476a"},"vehicle_type_id":"4","last_reported":1724436665,"current_range_meters":31200,"station_id":"ce4bhbh2rcd13ifvqeqg","pricing_plan_id":"cebpf4jnsgd1na2vs0mg"},{"bike_id":"81dc5749-3bfc-44c2-9a9e-fd6116783603","system_id":"levelo_inurba_marseille","lat":43.292311,"lon":5.360731,"is_reserved":false,"is_disabled":false,"rental_uris":{"android":"levelo://app?vid=81dc5749-3bfc-44c2-9a9e-fd6116783603","ios":"levelo://app?vid=81dc5749-3bfc-44c2-9a9e-fd6116783603"},"vehicle_type_id":"4","last_reported":1724436665,"current_range_meters":31200,"station_id":"ce4bhbh2rcd13ifvqeqg","pricing_plan_id":"cebpf4jnsgd1na2vs0mg"},{"bike_id":"240d1cd0-ec32-4c67-9670-3ba656393e2a","system_id":"levelo_inurba_marseille","lat":43.292311,"lon":5.360731,"is_reserved":false,"is_disabled":false,"rental_uris":{"android":"levelo://app?vid=240d1cd0-ec32-4c67-9670-3ba656393e2a","ios":"levelo://app?vid=240d1cd0-ec32-4c67-9670-3ba656393e2a"},"vehicle_type_id":"4","last_reported":1724436665,"current_range_meters":31200,"station_id":"ce4bhbh2rcd13ifvqeqg","pricing_plan_id":"cebpf4jnsgd1na2vs0mg"},{"bike_id":"338ddc9b-da62-48aa-97fb-0a057209db12","system_id":"levelo_inurba_marseille","lat":43.29221,"lon":5.3604,"is_reserved":false,"is_disabled":false,"rental_uris":{"android":"levelo://app?vid=338ddc9b-da62-48aa-97fb-0a057209db12","ios":"levelo://app?vid=338ddc9b-da62-48aa-97fb-0a057209db12"},"vehicle_type_id":"4","last_reported":1724436665,"current_range_meters":31200,"station_id":"ce4bhbh2rcd13ifvqeqg","pricing_plan_id":"cebpf4jnsgd1na2vs0mg"},{"bike_id":"bc663816-52db-40e5-96b5-390f87225b2f","system_id":"levelo_inurba_marseille","lat":43.29215,"lon":5.36062,"is_reserved":false,"is_disabled":false,"rental_uris":{"android":"levelo://app?vid=bc663816-52db-40e5-96b5-390f87225b2f","ios":"levelo://app?vid=bc663816-52db-40e5-96b5-390f87225b2f"},"vehicle_type_id":"4","last_reported":1724436665,"current_range_meters":31200,"station_id":"ce4bhbh2rcd13ifvqeqg","pricing_plan_id":"cebpf4jnsgd1na2vs0mg"},{"bike_id":"04f3b4a1-b975-43cf-ab66-8592518a21d1","system_id":"levelo_inurba_marseille","lat":43.292311,"lon":5.360731,"is_reserved":false,"is_disabled":false,"rental_uris":{"android":"levelo://app?vid=04f3b4a1-b975-43cf-ab66-8592518a21d1","ios":"levelo://app?vid=04f3b4a1-b975-43cf-ab66-8592518a21d1"},"vehicle_type_id":"4","last_reported":1724436665,"current_range_meters":21600,"station_id":"ce4bhbh2rcd13ifvqeqg","pricing_plan_id":"cebpf4jnsgd1na2vs0mg"},{"bike_id":"ffae95d2-190b-425f-9b05-f0c64b48c7a6","system_id":"levelo_inurba_marseille","lat":43.292311,"lon":5.360731,"is_reserved":false,"is_disabled":false,"rental_uris":{"android":"levelo://app?vid=ffae95d2-190b-425f-9b05-f0c64b48c7a6","ios":"levelo://app?vid=ffae95d2-190b-425f-9b05-f0c64b48c7a6"},"vehicle_type_id":"4","last_reported":1724436665,"current_range_meters":30000,"station_id":"ce4bhbh2rcd13ifvqeqg","pricing_plan_id":"cebpf4jnsgd1na2vs0mg"},{"bike_id":"c486a202-ed3e-4819-9835-9e25d0253523","system_id":"levelo_inurba_marseille","lat":43.29262,"lon":5.37608,"is_reserved":false,"is_disabled":false,"rental_uris":{"android":"levelo://app?vid=c486a202-ed3e-4819-9835-9e25d0253523","ios":"levelo://app?vid=c486a202-ed3e-4819-9835-9e25d0253523"},"vehicle_type_id":"4","last_reported":1724436665,"current_range_meters":27200,"station_id":"ce4bgi12rcd13ifvqb80","pricing_plan_id":"cebpf4jnsgd1na2vs0mg"},{"bike_id":"c66b3424-4a29-4687-8802-5b1ea9d830dc","system_id":"levelo_inurba_marseille","lat":43.29259,"lon":5.376163,"is_reserved":false,"is_disabled":false,"rental_uris":{"android":"levelo://app?vid=c66b3424-4a29-4687-8802-5b1ea9d830dc","ios":"levelo://app?vid=c66b3424-4a29-4687-8802-5b1ea9d830dc"},"vehicle_type_id":"4","last_reported":1724436665,"current_range_meters":0,"station_id":"ce4bgi12rcd13ifvqb80","pricing_plan_id":"cebpf4jnsgd1na2vs0mg"},{"bike_id":"28ff22aa-8189-4122-8e46-56d7552e1a5a","system_id":"levelo_inurba_marseille","lat":43.298764,"lon":5.388973,"is_reserved":false,"is_disabled":false,"rental_uris":{"android":"levelo://app?vid=28ff22aa-8189-4122-8e46-56d7552e1a5a","ios":"levelo://app?vid=28ff22aa-8189-4122-8e46-56d7552e1a5a"},"vehicle_type_id":"4","last_reported":1724436665,"current_range_meters":8000,"station_id":"ce4bh392rcd13ifvqdl0","pricing_plan_id":"cebpf4jnsgd1na2vs0mg"},{"bike_id":"47ddccd5-73f1-4924-b8f0-c8c0c1fb5abb","system_id":"levelo_inurba_marseille","lat":43.291671,"lon":5.371575,"is_reserved":false,"is_disabled":false,"rental_uris":{"android":"levelo://app?vid=47ddccd5-73f1-4924-b8f0-c8c0c1fb5abb","ios":"levelo://app?vid=47ddccd5-73f1-4924-b8f0-c8c0c1fb5abb"},"vehicle_type_id":"4","last_reported":1724436665,"current_range_meters":400,"station_id":"ce4bha92rcd13ifvqeh0","pricing_plan_id":"cebpf4jnsgd1na2vs0mg"},{"bike_id":"b262ebd1-c8de-4628-929a-44d8d50e74f6","system_id":"levelo_inurba_marseille","lat":43.291675,"lon":5.371583,"is_reserved":false,"is_disabled":false,"rental_uris":{"android":"levelo://app?vid=b262ebd1-c8de-4628-929a-44d8d50e74f6","ios":"levelo://app?vid=b262ebd1-c8de-4628-929a-44d8d50e74f6"},"vehicle_type_id":"4","last_reported":1724436665,"current_range_meters":0,"station_id":"ce4bha92rcd13ifvqeh0","pricing_plan_id":"cebpf4jnsgd1na2vs0mg"},{"bike_id":"ed22ba2c-8206-4a2d-b0fe-497fe1b7251c","system_id":"levelo_inurba_marseille","lat":43.295725,"lon":5.3855,"is_reserved":false,"is_disabled":false,"rental_uris":{"android":"levelo://app?vid=ed22ba2c-8206-4a2d-b0fe-497fe1b7251c","ios":"levelo://app?vid=ed22ba2c-8206-4a2d-b0fe-497fe1b7251c"},"vehicle_type_id":"4","last_reported":1724436665,"current_range_meters":0,"station_id":"ce4bgih2rcd13ifvqba0","pricing_plan_id":"cebpf4jnsgd1na2vs0mg"},{"bike_id":"15e57503-101e-47b6-8757-fd7757f4c422","system_id":"levelo_inurba_marseille","lat":43.313291,"lon":5.396838,"is_reserved":false,"is_disabled":false,"rental_uris":{"android":"levelo://app?vid=15e57503-101e-47b6-8757-fd7757f4c422","ios":"levelo://app?vid=15e57503-101e-47b6-8757-fd7757f4c422"},"vehicle_type_id":"4","last_reported":1724436665,"current_range_meters":31200,"station_id":"ce4bgvp2rcd13ifvqcu0","pricing_plan_id":"cebpf4jnsgd1na2vs0mg"},{"bike_id":"2f0ac195-cff0-4960-8fd0-0ba9f3ebdf14","system_id":"levelo_inurba_marseille","lat":43.308937,"lon":5.396413,"is_reserved":false,"is_disabled":false,"rental_uris":{"android":"levelo://app?vid=2f0ac195-cff0-4960-8fd0-0ba9f3ebdf14","ios":"levelo://app?vid=2f0ac195-cff0-4960-8fd0-0ba9f3ebdf14"},"vehicle_type_id":"4","last_reported":1724436665,"current_range_meters":0,"station_id":"ce4bh012rcd13ifvqcv0","pricing_plan_id":"cebpf4jnsgd1na2vs0mg"},{"bike_id":"5262bca2-6143-4825-96b6-43aa64ce1166","system_id":"levelo_inurba_marseille","lat":43.313291,"lon":5.396838,"is_reserved":false,"is_disabled":false,"rental_uris":{"android":"levelo://app?vid=5262bca2-6143-4825-96b6-43aa64ce1166","ios":"levelo://app?vid=5262bca2-6143-4825-96b6-43aa64ce1166"},"vehicle_type_id":"4","last_reported":1724436665,"current_range_meters":31200,"station_id":"ce4bgvp2rcd13ifvqcu0","pricing_plan_id":"cebpf4jnsgd1na2vs0mg"},{"bike_id":"62c6e113-0ea1-4dc8-90f5-860bcb63f06a","system_id":"levelo_inurba_marseille","lat":43.313291,"lon":5.396838,"is_reserved":false,"is_disabled":false,"rental_uris":{"android":"levelo://app?vid=62c6e113-0ea1-4dc8-90f5-860bcb63f06a","ios":"levelo://app?vid=62c6e113-0ea1-4dc8-90f5-860bcb63f06a"},"vehicle_type_id":"4","last_reported":1724436665,"current_range_meters":16800,"station_id":"ce4bgvp2rcd13ifvqcu0","pricing_plan_id":"cebpf4jnsgd1na2vs0mg"},{"bike_id":"4e9a27a4-45fe-4d81-bf6d-1645fca5083d","system_id":"levelo_inurba_marseille","lat":43.29192,"lon":5.35803,"is_reserved":false,"is_disabled":false,"rental_uris":{"android":"levelo://app?vid=4e9a27a4-45fe-4d81-bf6d-1645fca5083d","ios":"levelo://app?vid=4e9a27a4-45fe-4d81-bf6d-1645fca5083d"},"vehicle_type_id":"4","last_reported":1724436665,"current_range_meters":0,"station_id":"ce4bhb12rcd13ifvqel0","pricing_plan_id":"cebpf4jnsgd1na2vs0mg"},{"bike_id":"cf87d765-4ac0-4408-acf9-af28adff46b7","system_id":"levelo_inurba_marseille","lat":43.31324,"lon":5.39689,"is_reserved":false,"is_disabled":false,"rental_uris":{"android":"levelo://app?vid=cf87d765-4ac0-4408-acf9-af28adff46b7","ios":"levelo://app?vid=cf87d765-4ac0-4408-acf9-af28adff46b7"},"vehicle_type_id":"4","last_reported":1724436665,"current_range_meters":1200,"station_id":"ce4bgvp2rcd13ifvqcu0","pricing_plan_id":"cebpf4jnsgd1na2vs0mg"},{"bike_id":"188d31c6-7a9a-4312-ab83-c9865e55a156","system_id":"levelo_inurba_marseille","lat":43.31326,"lon":5.3969,"is_reserved":false,"is_disabled":false,"rental_uris":{"android":"levelo://app?vid=188d31c6-7a9a-4312-ab83-c9865e55a156","ios":"levelo://app?vid=188d31c6-7a9a-4312-ab83-c9865e55a156"},"vehicle_type_id":"4","last_reported":1724436665,"current_range_meters":21600,"station_id":"ce4bgvp2rcd13ifvqcu0","pricing_plan_id":"cebpf4jnsgd1na2vs0mg"},{"bike_id":"a53ebf0c-91ed-47f2-9ef6-74ac619bfbe9","system_id":"levelo_inurba_marseille","lat":43.313291,"lon":5.396838,"is_reserved":false,"is_disabled":false,"rental_uris":{"android":"levelo://app?vid=a53ebf0c-91ed-47f2-9ef6-74ac619bfbe9","ios":"levelo://app?vid=a53ebf0c-91ed-47f2-9ef6-74ac619bfbe9"},"vehicle_type_id":"4","last_reported":1724436665,"current_range_meters":5600,"station_id":"ce4bgvp2rcd13ifvqcu0","pricing_plan_id":"cebpf4jnsgd1na2vs0mg"},{"bike_id":"027163cd-c6c9-4fbf-9498-e80dbccc3288","system_id":"levelo_inurba_marseille","lat":43.313291,"lon":5.396838,"is_reserved":false,"is_disabled":false,"rental_uris":{"android":"levelo://app?vid=027163cd-c6c9-4fbf-9498-e80dbccc3288","ios":"levelo://app?vid=027163cd-c6c9-4fbf-9498-e80dbccc3288"},"vehicle_type_id":"4","last_reported":1724436665,"current_range_meters":4000,"station_id":"ce4bgvp2rcd13ifvqcu0","pricing_plan_id":"cebpf4jnsgd1na2vs0mg"},{"bike_id":"ff1060f0-e014-4ba9-95d6-0c458f4d4dd0","system_id":"levelo_inurba_marseille","lat":43.313291,"lon":5.396838,"is_reserved":false,"is_disabled":false,"rental_uris":{"android":"levelo://app?vid=ff1060f0-e014-4ba9-95d6-0c458f4d4dd0","ios":"levelo://app?vid=ff1060f0-e014-4ba9-95d6-0c458f4d4dd0"},"vehicle_type_id":"4","last_reported":1724436665,"current_range_meters":31600,"station_id":"ce4bgvp2rcd13ifvqcu0","pricing_plan_id":"cebpf4jnsgd1na2vs0mg"},{"bike_id":"ed9668b3-75a7-4318-a4a0-94c1e180c4fe","system_id":"levelo_inurba_marseille","lat":43.29191,"lon":5.35787,"is_reserved":false,"is_disabled":false,"rental_uris":{"android":"levelo://app?vid=ed9668b3-75a7-4318-a4a0-94c1e180c4fe","ios":"levelo://app?vid=ed9668b3-75a7-4318-a4a0-94c1e180c4fe"},"vehicle_type_id":"4","last_reported":1724436665,"current_range_meters":28800,"station_id":"ce4bhb12rcd13ifvqel0","pricing_plan_id":"cebpf4jnsgd1na2vs0mg"},{"bike_id":"7ecd8231-8bf8-44ba-885d-e094928b725f","system_id":"levelo_inurba_marseille","lat":43.308856,"lon":5.396506,"is_reserved":false,"is_disabled":false,"rental_uris":{"android":"levelo://app?vid=7ecd8231-8bf8-44ba-885d-e094928b725f","ios":"levelo://app?vid=7ecd8231-8bf8-44ba-885d-e094928b725f"},"vehicle_type_id":"4","last_reported":1724436665,"current_range_meters":3200,"station_id":"ce4bh012rcd13ifvqcv0","pricing_plan_id":"cebpf4jnsgd1na2vs0mg"},{"bike_id":"49c17802-8b82-4906-ae24-fdbac0f201cb","system_id":"levelo_inurba_marseille","lat":43.313291,"lon":5.396838,"is_reserved":false,"is_disabled":false,"rental_uris":{"android":"levelo://app?vid=49c17802-8b82-4906-ae24-fdbac0f201cb","ios":"levelo://app?vid=49c17802-8b82-4906-ae24-fdbac0f201cb"},"vehicle_type_id":"4","last_reported":1724436665,"current_range_meters":26400,"station_id":"ce4bgvp2rcd13ifvqcu0","pricing_plan_id":"cebpf4jnsgd1na2vs0mg"},{"bike_id":"5174fc4f-02bf-4493-be67-ecbca7d9373a","system_id":"levelo_inurba_marseille","lat":43.31317,"lon":5.39703,"is_reserved":false,"is_disabled":false,"rental_uris":{"android":"levelo://app?vid=5174fc4f-02bf-4493-be67-ecbca7d9373a","ios":"levelo://app?vid=5174fc4f-02bf-4493-be67-ecbca7d9373a"},"vehicle_type_id":"4","last_reported":1724436665,"current_range_meters":31200,"station_id":"ce4bgvp2rcd13ifvqcu0","pricing_plan_id":"cebpf4jnsgd1na2vs0mg"},{"bike_id":"02942e18-1753-4f23-af04-03a354468272","system_id":"levelo_inurba_marseille","lat":43.31338,"lon":5.39706,"is_reserved":false,"is_disabled":false,"rental_uris":{"android":"levelo://app?vid=02942e18-1753-4f23-af04-03a354468272","ios":"levelo://app?vid=02942e18-1753-4f23-af04-03a354468272"},"vehicle_type_id":"4","last_reported":1724436665,"current_range_meters":31200,"station_id":"ce4bgvp2rcd13ifvqcu0","pricing_plan_id":"cebpf4jnsgd1na2vs0mg"},{"bike_id":"361cb7bf-82ad-48af-bffd-0655ebdc685a","system_id":"levelo_inurba_marseille","lat":43.30871,"lon":5.397185,"is_reserved":false,"is_disabled":false,"rental_uris":{"android":"levelo://app?vid=361cb7bf-82ad-48af-bffd-0655ebdc685a","ios":"levelo://app?vid=361cb7bf-82ad-48af-bffd-0655ebdc685a"},"vehicle_type_id":"4","last_reported":1724436665,"current_range_meters":2000,"station_id":"ce4bgvp2rcd13ifvqcu0","pricing_plan_id":"cebpf4jnsgd1na2vs0mg"},{"bike_id":"ca89aa58-3238-435c-9fbf-feec81caa4bb","system_id":"levelo_inurba_marseille","lat":43.290624,"lon":5.359245,"is_reserved":false,"is_disabled":false,"rental_uris":{"android":"levelo://app?vid=ca89aa58-3238-435c-9fbf-feec81caa4bb","ios":"levelo://app?vid=ca89aa58-3238-435c-9fbf-feec81caa4bb"},"vehicle_type_id":"4","last_reported":1724436665,"current_range_meters":0,"station_id":"ce4bha92rcd13ifvqeg0","pricing_plan_id":"cebpf4jnsgd1na2vs0mg"},{"bike_id":"6262d65d-698b-49ae-afae-2909ebf76b6e","system_id":"levelo_inurba_marseille","lat":43.290631,"lon":5.359244,"is_reserved":false,"is_disabled":false,"rental_uris":{"android":"levelo://app?vid=6262d65d-698b-49ae-afae-2909ebf76b6e","ios":"levelo://app?vid=6262d65d-698b-49ae-afae-2909ebf76b6e"},"vehicle_type_id":"4","last_reported":1724436665,"current_range_meters":3200,"station_id":"ce4bha92rcd13ifvqeg0","pricing_plan_id":"cebpf4jnsgd1na2vs0mg"},{"bike_id":"4e64dade-c09b-4e59-9e1c-eb039a6fe58e","system_id":"levelo_inurba_marseille","lat":43.290631,"lon":5.359244,"is_reserved":false,"is_disabled":false,"rental_uris":{"android":"levelo://app?vid=4e64dade-c09b-4e59-9e1c-eb039a6fe58e","ios":"levelo://app?vid=4e64dade-c09b-4e59-9e1c-eb039a6fe58e"},"vehicle_type_id":"4","last_reported":1724436665,"current_range_meters":6800,"station_id":"ce4bha92rcd13ifvqeg0","pricing_plan_id":"cebpf4jnsgd1na2vs0mg"},{"bike_id":"ad5ae597-3843-405f-b1ee-77223facf720","system_id":"levelo_inurba_marseille","lat":43.290631,"lon":5.359244,"is_reserved":false,"is_disabled":false,"rental_uris":{"android":"levelo://app?vid=ad5ae597-3843-405f-b1ee-77223facf720","ios":"levelo://app?vid=ad5ae597-3843-405f-b1ee-77223facf720"},"vehicle_type_id":"4","last_reported":1724436665,"current_range_meters":0,"station_id":"ce4bha92rcd13ifvqeg0","pricing_plan_id":"cebpf4jnsgd1na2vs0mg"},{"bike_id":"407bca37-fe27-4dc8-81b8-d267d1413ac0","system_id":"levelo_inurba_marseille","lat":43.290624,"lon":5.359245,"is_reserved":false,"is_disabled":false,"rental_uris":{"android":"levelo://app?vid=407bca37-fe27-4dc8-81b8-d267d1413ac0","ios":"levelo://app?vid=407bca37-fe27-4dc8-81b8-d267d1413ac0"},"vehicle_type_id":"4","last_reported":1724436665,"current_range_meters":22400,"station_id":"ce4bha92rcd13ifvqeg0","pricing_plan_id":"cebpf4jnsgd1na2vs0mg"},{"bike_id":"531251c2-ca48-461a-93bf-186118b6b5c2","system_id":"levelo_inurba_marseille","lat":43.290631,"lon":5.359244,"is_reserved":false,"is_disabled":false,"rental_uris":{"android":"levelo://app?vid=531251c2-ca48-461a-93bf-186118b6b5c2","ios":"levelo://app?vid=531251c2-ca48-461a-93bf-186118b6b5c2"},"vehicle_type_id":"4","last_reported":1724436665,"current_range_meters":7200,"station_id":"ce4bha92rcd13ifvqeg0","pricing_plan_id":"cebpf4jnsgd1na2vs0mg"},{"bike_id":"c6b66892-f744-47d9-93dd-e36186f0481b","system_id":"levelo_inurba_marseille","lat":43.290631,"lon":5.359244,"is_reserved":false,"is_disabled":false,"rental_uris":{"android":"levelo://app?vid=c6b66892-f744-47d9-93dd-e36186f0481b","ios":"levelo://app?vid=c6b66892-f744-47d9-93dd-e36186f0481b"},"vehicle_type_id":"4","last_reported":1724436665,"current_range_meters":4800,"station_id":"ce4bha92rcd13ifvqeg0","pricing_plan_id":"cebpf4jnsgd1na2vs0mg"},{"bike_id":"7e608f3f-2d61-4f05-88fd-c5d45f8c6ae0","system_id":"levelo_inurba_marseille","lat":43.290631,"lon":5.359244,"is_reserved":false,"is_disabled":false,"rental_uris":{"android":"levelo://app?vid=7e608f3f-2d61-4f05-88fd-c5d45f8c6ae0","ios":"levelo://app?vid=7e608f3f-2d61-4f05-88fd-c5d45f8c6ae0"},"vehicle_type_id":"4","last_reported":1724436665,"current_range_meters":26800,"station_id":"ce4bha92rcd13ifvqeg0","pricing_plan_id":"cebpf4jnsgd1na2vs0mg"},{"bike_id":"aa3ef41b-5887-427c-938e-c587fbabc143","system_id":"levelo_inurba_marseille","lat":43.290103,"lon":5.356114,"is_reserved":false,"is_disabled":false,"rental_uris":{"android":"levelo://app?vid=aa3ef41b-5887-427c-938e-c587fbabc143","ios":"levelo://app?vid=aa3ef41b-5887-427c-938e-c587fbabc143"},"vehicle_type_id":"4","last_reported":1724436665,"current_range_meters":0,"station_id":"ce4bhb92rcd13ifvqen0","pricing_plan_id":"cebpf4jnsgd1na2vs0mg"},{"bike_id":"7f534a98-a752-4730-b9a3-b8ca1d27c04e","system_id":"levelo_inurba_marseille","lat":43.289748,"lon":5.363376,"is_reserved":false,"is_disabled":false,"rental_uris":{"android":"levelo://app?vid=7f534a98-a752-4730-b9a3-b8ca1d27c04e","ios":"levelo://app?vid=7f534a98-a752-4730-b9a3-b8ca1d27c04e"},"vehicle_type_id":"4","last_reported":1724436665,"current_range_meters":26800,"station_id":"ce4bhc92rcd13ifvqetg","pricing_plan_id":"cebpf4jnsgd1na2vs0mg"},{"bike_id":"fba7ab7c-8c95-41d6-ae4f-955097fb00bd","system_id":"levelo_inurba_marseille","lat":43.290327,"lon":5.375711,"is_reserved":false,"is_disabled":false,"rental_uris":{"android":"levelo://app?vid=fba7ab7c-8c95-41d6-ae4f-955097fb00bd","ios":"levelo://app?vid=fba7ab7c-8c95-41d6-ae4f-955097fb00bd"},"vehicle_type_id":"4","last_reported":1724436665,"current_range_meters":24400,"station_id":"ce4bh692rcd13ifvqe90","pricing_plan_id":"cebpf4jnsgd1na2vs0mg"},{"bike_id":"2cc3cea3-eabf-43f9-b4a7-34bb6686cd6d","system_id":"levelo_inurba_marseille","lat":43.290327,"lon":5.375711,"is_reserved":false,"is_disabled":false,"rental_uris":{"android":"levelo://app?vid=2cc3cea3-eabf-43f9-b4a7-34bb6686cd6d","ios":"levelo://app?vid=2cc3cea3-eabf-43f9-b4a7-34bb6686cd6d"},"vehicle_type_id":"4","last_reported":1724436665,"current_range_meters":28800,"station_id":"ce4bh692rcd13ifvqe90","pricing_plan_id":"cebpf4jnsgd1na2vs0mg"},{"bike_id":"fbb75c8c-1ce8-422e-bf76-1c502d264fd0","system_id":"levelo_inurba_marseille","lat":43.29416,"lon":5.38621,"is_reserved":false,"is_disabled":false,"rental_uris":{"android":"levelo://app?vid=fbb75c8c-1ce8-422e-bf76-1c502d264fd0","ios":"levelo://app?vid=fbb75c8c-1ce8-422e-bf76-1c502d264fd0"},"vehicle_type_id":"4","last_reported":1724436665,"current_range_meters":0,"station_id":"ce4bh2h2rcd13ifvqdh0","pricing_plan_id":"cebpf4jnsgd1na2vs0mg"},{"bike_id":"e920f340-e1a3-4ce2-90e9-e2ea452b4649","system_id":"levelo_inurba_marseille","lat":43.290327,"lon":5.375711,"is_reserved":false,"is_disabled":false,"rental_uris":{"android":"levelo://app?vid=e920f340-e1a3-4ce2-90e9-e2ea452b4649","ios":"levelo://app?vid=e920f340-e1a3-4ce2-90e9-e2ea452b4649"},"vehicle_type_id":"4","last_reported":1724436665,"current_range_meters":25600,"station_id":"ce4bh692rcd13ifvqe90","pricing_plan_id":"cebpf4jnsgd1na2vs0mg"},{"bike_id":"68639014-fece-44be-b9c6-ef592dfcf60d","system_id":"levelo_inurba_marseille","lat":43.29414,"lon":5.38622,"is_reserved":false,"is_disabled":false,"rental_uris":{"android":"levelo://app?vid=68639014-fece-44be-b9c6-ef592dfcf60d","ios":"levelo://app?vid=68639014-fece-44be-b9c6-ef592dfcf60d"},"vehicle_type_id":"4","last_reported":1724436665,"current_range_meters":0,"station_id":"ce4bh2h2rcd13ifvqdh0","pricing_plan_id":"cebpf4jnsgd1na2vs0mg"},{"bike_id":"375c958f-fd18-4649-b814-d093a6948c20","system_id":"levelo_inurba_marseille","lat":43.290319,"lon":5.375732,"is_reserved":false,"is_disabled":false,"rental_uris":{"android":"levelo://app?vid=375c958f-fd18-4649-b814-d093a6948c20","ios":"levelo://app?vid=375c958f-fd18-4649-b814-d093a6948c20"},"vehicle_type_id":"4","last_reported":1724436665,"current_range_meters":0,"station_id":"ce4bh692rcd13ifvqe90","pricing_plan_id":"cebpf4jnsgd1na2vs0mg"},{"bike_id":"501a1ef1-1ee0-4cd3-a1a1-69fdfd88d94b","system_id":"levelo_inurba_marseille","lat":43.289184,"lon":5.366408,"is_reserved":false,"is_disabled":false,"rental_uris":{"android":"levelo://app?vid=501a1ef1-1ee0-4cd3-a1a1-69fdfd88d94b","ios":"levelo://app?vid=501a1ef1-1ee0-4cd3-a1a1-69fdfd88d94b"},"vehicle_type_id":"4","last_reported":1724436665,"current_range_meters":31200,"station_id":"ce4bhap2rcd13ifvqek0","pricing_plan_id":"cebpf4jnsgd1na2vs0mg"},{"bike_id":"730a6c50-337b-4f11-9db7-40bea7dc8d2d","system_id":"levelo_inurba_marseille","lat":43.289184,"lon":5.366408,"is_reserved":false,"is_disabled":false,"rental_uris":{"android":"levelo://app?vid=730a6c50-337b-4f11-9db7-40bea7dc8d2d","ios":"levelo://app?vid=730a6c50-337b-4f11-9db7-40bea7dc8d2d"},"vehicle_type_id":"4","last_reported":1724436665,"current_range_meters":13600,"station_id":"ce4bhap2rcd13ifvqek0","pricing_plan_id":"cebpf4jnsgd1na2vs0mg"},{"bike_id":"ea4fbdf6-76a2-4ee5-a38b-43dc05a14c8c","system_id":"levelo_inurba_marseille","lat":43.289184,"lon":5.366408,"is_reserved":false,"is_disabled":false,"rental_uris":{"android":"levelo://app?vid=ea4fbdf6-76a2-4ee5-a38b-43dc05a14c8c","ios":"levelo://app?vid=ea4fbdf6-76a2-4ee5-a38b-43dc05a14c8c"},"vehicle_type_id":"4","last_reported":1724436665,"current_range_meters":26800,"station_id":"ce4bhap2rcd13ifvqek0","pricing_plan_id":"cebpf4jnsgd1na2vs0mg"},{"bike_id":"5d432c42-329e-4fb7-a0cc-c297ddc9d315","system_id":"levelo_inurba_marseille","lat":43.29027,"lon":5.37553,"is_reserved":false,"is_disabled":false,"rental_uris":{"android":"levelo://app?vid=5d432c42-329e-4fb7-a0cc-c297ddc9d315","ios":"levelo://app?vid=5d432c42-329e-4fb7-a0cc-c297ddc9d315"},"vehicle_type_id":"4","last_reported":1724436665,"current_range_meters":0,"station_id":"ce4bh692rcd13ifvqe90","pricing_plan_id":"cebpf4jnsgd1na2vs0mg"},{"bike_id":"6318ce3f-f15b-4580-9fee-27c561a13742","system_id":"levelo_inurba_marseille","lat":43.29172,"lon":5.38083,"is_reserved":false,"is_disabled":false,"rental_uris":{"android":"levelo://app?vid=6318ce3f-f15b-4580-9fee-27c561a13742","ios":"levelo://app?vid=6318ce3f-f15b-4580-9fee-27c561a13742"},"vehicle_type_id":"4","last_reported":1724436665,"current_range_meters":18000,"station_id":"","pricing_plan_id":"cebpf4jnsgd1na2vs0mg"},{"bike_id":"8c805024-bf5a-4f37-b5e3-6e228474b5e2","system_id":"levelo_inurba_marseille","lat":43.289184,"lon":5.366408,"is_reserved":false,"is_disabled":false,"rental_uris":{"android":"levelo://app?vid=8c805024-bf5a-4f37-b5e3-6e228474b5e2","ios":"levelo://app?vid=8c805024-bf5a-4f37-b5e3-6e228474b5e2"},"vehicle_type_id":"4","last_reported":1724436665,"current_range_meters":31600,"station_id":"ce4bhap2rcd13ifvqek0","pricing_plan_id":"cebpf4jnsgd1na2vs0mg"},{"bike_id":"338297e0-75a2-42da-9500-b3fec0e2941f","system_id":"levelo_inurba_marseille","lat":43.294162,"lon":5.386292,"is_reserved":false,"is_disabled":false,"rental_uris":{"android":"levelo://app?vid=338297e0-75a2-42da-9500-b3fec0e2941f","ios":"levelo://app?vid=338297e0-75a2-42da-9500-b3fec0e2941f"},"vehicle_type_id":"4","last_reported":1724436665,"current_range_meters":14000,"station_id":"ce4bh2h2rcd13ifvqdh0","pricing_plan_id":"cebpf4jnsgd1na2vs0mg"},{"bike_id":"1a7724ee-f196-44de-b48b-fe3963729c95","system_id":"levelo_inurba_marseille","lat":43.289184,"lon":5.366408,"is_reserved":false,"is_disabled":false,"rental_uris":{"android":"levelo://app?vid=1a7724ee-f196-44de-b48b-fe3963729c95","ios":"levelo://app?vid=1a7724ee-f196-44de-b48b-fe3963729c95"},"vehicle_type_id":"4","last_reported":1724436665,"current_range_meters":2000,"station_id":"ce4bhap2rcd13ifvqek0","pricing_plan_id":"cebpf4jnsgd1na2vs0mg"},{"bike_id":"6e18a80b-4be5-4a28-849e-3d3020bba7fc","system_id":"levelo_inurba_marseille","lat":43.289184,"lon":5.366408,"is_reserved":false,"is_disabled":false,"rental_uris":{"android":"levelo://app?vid=6e18a80b-4be5-4a28-849e-3d3020bba7fc","ios":"levelo://app?vid=6e18a80b-4be5-4a28-849e-3d3020bba7fc"},"vehicle_type_id":"4","last_reported":1724436665,"current_range_meters":10800,"station_id":"ce4bhap2rcd13ifvqek0","pricing_plan_id":"cebpf4jnsgd1na2vs0mg"},{"bike_id":"88a1ef03-10e5-41a1-846b-ed63b7ec49ed","system_id":"levelo_inurba_marseille","lat":43.289387,"lon":5.366373,"is_reserved":false,"is_disabled":false,"rental_uris":{"android":"levelo://app?vid=88a1ef03-10e5-41a1-846b-ed63b7ec49ed","ios":"levelo://app?vid=88a1ef03-10e5-41a1-846b-ed63b7ec49ed"},"vehicle_type_id":"4","last_reported":1724436665,"current_range_meters":31200,"station_id":"ce4bhap2rcd13ifvqek0","pricing_plan_id":"cebpf4jnsgd1na2vs0mg"},{"bike_id":"a341aaed-42ca-4075-984d-3f5b9f4b43cc","system_id":"levelo_inurba_marseille","lat":43.289386,"lon":5.366329,"is_reserved":false,"is_disabled":false,"rental_uris":{"android":"levelo://app?vid=a341aaed-42ca-4075-984d-3f5b9f4b43cc","ios":"levelo://app?vid=a341aaed-42ca-4075-984d-3f5b9f4b43cc"},"vehicle_type_id":"4","last_reported":1724436665,"current_range_meters":31200,"station_id":"ce4bhap2rcd13ifvqek0","pricing_plan_id":"cebpf4jnsgd1na2vs0mg"},{"bike_id":"071e8427-cb63-46a1-a5ae-2c57ede62a91","system_id":"levelo_inurba_marseille","lat":43.28938,"lon":5.36642,"is_reserved":false,"is_disabled":false,"rental_uris":{"android":"levelo://app?vid=071e8427-cb63-46a1-a5ae-2c57ede62a91","ios":"levelo://app?vid=071e8427-cb63-46a1-a5ae-2c57ede62a91"},"vehicle_type_id":"4","last_reported":1724436665,"current_range_meters":19200,"station_id":"ce4bhap2rcd13ifvqek0","pricing_plan_id":"cebpf4jnsgd1na2vs0mg"},{"bike_id":"42248f7b-9493-4223-863b-03ab5c93adb3","system_id":"levelo_inurba_marseille","lat":43.28937,"lon":5.3663,"is_reserved":false,"is_disabled":false,"rental_uris":{"android":"levelo://app?vid=42248f7b-9493-4223-863b-03ab5c93adb3","ios":"levelo://app?vid=42248f7b-9493-4223-863b-03ab5c93adb3"},"vehicle_type_id":"4","last_reported":1724436665,"current_range_meters":6400,"station_id":"ce4bhap2rcd13ifvqek0","pricing_plan_id":"cebpf4jnsgd1na2vs0mg"},{"bike_id":"19952a0d-a16e-417b-a9d7-1845f5b2cabd","system_id":"levelo_inurba_marseille","lat":43.289184,"lon":5.366408,"is_reserved":false,"is_disabled":false,"rental_uris":{"android":"levelo://app?vid=19952a0d-a16e-417b-a9d7-1845f5b2cabd","ios":"levelo://app?vid=19952a0d-a16e-417b-a9d7-1845f5b2cabd"},"vehicle_type_id":"4","last_reported":1724436665,"current_range_meters":12400,"station_id":"ce4bhap2rcd13ifvqek0","pricing_plan_id":"cebpf4jnsgd1na2vs0mg"},{"bike_id":"6d7cbbab-eb59-4dfc-a69d-941544720259","system_id":"levelo_inurba_marseille","lat":43.289184,"lon":5.366408,"is_reserved":false,"is_disabled":false,"rental_uris":{"android":"levelo://app?vid=6d7cbbab-eb59-4dfc-a69d-941544720259","ios":"levelo://app?vid=6d7cbbab-eb59-4dfc-a69d-941544720259"},"vehicle_type_id":"4","last_reported":1724436665,"current_range_meters":5200,"station_id":"ce4bhap2rcd13ifvqek0","pricing_plan_id":"cebpf4jnsgd1na2vs0mg"},{"bike_id":"fc1f1cf4-33f7-40fd-9e7e-1a5190ae62a8","system_id":"levelo_inurba_marseille","lat":43.289184,"lon":5.366408,"is_reserved":false,"is_disabled":false,"rental_uris":{"android":"levelo://app?vid=fc1f1cf4-33f7-40fd-9e7e-1a5190ae62a8","ios":"levelo://app?vid=fc1f1cf4-33f7-40fd-9e7e-1a5190ae62a8"},"vehicle_type_id":"4","last_reported":1724436665,"current_range_meters":30000,"station_id":"ce4bhap2rcd13ifvqek0","pricing_plan_id":"cebpf4jnsgd1na2vs0mg"},{"bike_id":"2c3c9e69-ebfc-4aac-9631-5c9882b36070","system_id":"levelo_inurba_marseille","lat":43.28935,"lon":5.36639,"is_reserved":false,"is_disabled":false,"rental_uris":{"android":"levelo://app?vid=2c3c9e69-ebfc-4aac-9631-5c9882b36070","ios":"levelo://app?vid=2c3c9e69-ebfc-4aac-9631-5c9882b36070"},"vehicle_type_id":"4","last_reported":1724436665,"current_range_meters":23600,"station_id":"ce4bhap2rcd13ifvqek0","pricing_plan_id":"cebpf4jnsgd1na2vs0mg"},{"bike_id":"9c647ee8-6500-4c68-bec5-616bde834bdb","system_id":"levelo_inurba_marseille","lat":43.294162,"lon":5.386292,"is_reserved":false,"is_disabled":false,"rental_uris":{"android":"levelo://app?vid=9c647ee8-6500-4c68-bec5-616bde834bdb","ios":"levelo://app?vid=9c647ee8-6500-4c68-bec5-616bde834bdb"},