{"last_updated":1707242915,"ttl":30,"version":"2.2","data":{"bikes":[{"bike_id":"29fbf5f5-e6dd-4a7e-9947-c34fdc4e6461","system_id":"levelo_inurba_marseille","lat":43.312239,"lon":5.368562,"is_reserved":false,"is_disabled":false,"rental_uris":{"android":"levelo://app?vid=29fbf5f5-e6dd-4a7e-9947-c34fdc4e6461","ios":"levelo://app?vid=29fbf5f5-e6dd-4a7e-9947-c34fdc4e6461"},"vehicle_type_id":"4","last_reported":1707242915,"current_range_meters":11200,"station_id":"ce4bgl92rcd13ifvqbq0","pricing_plan_id":"free"},{"bike_id":"d9f75e1b-9077-4f20-8d7d-f42bda8d3086","system_id":"levelo_inurba_marseille","lat":43.309076,"lon":5.368465,"is_reserved":false,"is_disabled":false,"rental_uris":{"android":"levelo://app?vid=d9f75e1b-9077-4f20-8d7d-f42bda8d3086","ios":"levelo://app?vid=d9f75e1b-9077-4f20-8d7d-f42bda8d3086"},"vehicle_type_id":"4","last_reported":1707242915,"current_range_meters":19200,"station_id":"ce4bgn92rcd13ifvqbvg","pricing_plan_id":"free"},{"bike_id":"3b0669b2-b455-4862-a8f4-0071592f2317","system_id":"levelo_inurba_marseille","lat":43.314811,"lon":5.373104,"is_reserved":false,"is_disabled":false,"rental_uris":{"android":"levelo://app?vid=3b0669b2-b455-4862-a8f4-0071592f2317","ios":"levelo://app?vid=3b0669b2-b455-4862-a8f4-0071592f2317"},"vehicle_type_id":"4","last_reported":1707242915,"current_range_meters":21600,"station_id":"ce4bgt12rcd13ifvqcd0","pricing_plan_id":"free"},{"bike_id":"39801f0b-4850-4de1-bf96-999ecd37e633","system_id":"levelo_inurba_marseille","lat":43.297163,"lon":5.365866,"is_reserved":false,"is_disabled":false,"rental_uris":{"android":"levelo://app?vid=39801f0b-4850-4de1-bf96-999ecd37e633","ios":"levelo://app?vid=39801f0b-4850-4de1-bf96-999ecd37e633"},"vehicle_type_id":"4","last_reported":1707242915,"current_range_meters":31200,"station_id":"ce4bgn12rcd13ifvqbt0","pricing_plan_id":"free"},{"bike_id":"e46e8ff3-6efb-422c-88bb-36c5e9ce66e4","system_id":"levelo_inurba_marseille","lat":43.31211,"lon":5.37576,"is_reserved":false,"is_disabled":false,"rental_uris":{"android":"levelo://app?vid=e46e8ff3-6efb-422c-88bb-36c5e9ce66e4","ios":"levelo://app?vid=e46e8ff3-6efb-422c-88bb-36c5e9ce66e4"},"vehicle_type_id":"4","last_reported":1707242915,"current_range_meters":16400,"station_id":"","pricing_plan_id":"free"},{"bike_id":"59da6869-5cef-4563-8a13-37ac21f7f3c1","system_id":"levelo_inurba_marseille","lat":43.30537,"lon":5.367345,"is_reserved":false,"is_disabled":false,"rental_uris":{"android":"levelo://app?vid=59da6869-5cef-4563-8a13-37ac21f7f3c1","ios":"levelo://app?vid=59da6869-5cef-4563-8a13-37ac21f7f3c1"},"vehicle_type_id":"4","last_reported":1707242915,"current_range_meters":0,"station_id":"ce4bgrp2rcd13ifvqc9g","pricing_plan_id":"free"},{"bike_id":"fdf0d5ca-8a88-430f-85f5-48336d1e42e3","system_id":"levelo_inurba_marseille","lat":43.305368,"lon":5.367343,"is_reserved":false,"is_disabled":false,"rental_uris":{"android":"levelo://app?vid=fdf0d5ca-8a88-430f-85f5-48336d1e42e3","ios":"levelo://app?vid=fdf0d5ca-8a88-430f-85f5-48336d1e42e3"},"vehicle_type_id":"4","last_reported":1707242915,"current_range_meters":3200,"station_id":"ce4bgrp2rcd13ifvqc9g","pricing_plan_id":"free"},{"bike_id":"2c8099b9-dd21-4d08-98e6-a62ccffe7917","system_id":"levelo_inurba_marseille","lat":43.305706,"lon":5.365654,"is_reserved":false,"is_disabled":false,"rental_uris":{"android":"levelo://app?vid=2c8099b9-dd21-4d08-98e6-a62ccffe7917","ios":"levelo://app?vid=2c8099b9-dd21-4d08-98e6-a62ccffe7917"},"vehicle_type_id":"4","last_reported":1707242915,"current_range_meters":7200,"station_id":"ce4bgs12rcd13ifvqcag","pricing_plan_id":"free"},{"bike_id":"b67bd18a-175f-4162-bf5f-08868e2711fb","system_id":"levelo_inurba_marseille","lat":43.305989,"lon":5.37225,"is_reserved":false,"is_disabled":false,"rental_uris":{"android":"levelo://app?vid=b67bd18a-175f-4162-bf5f-08868e2711fb","ios":"levelo://app?vid=b67bd18a-175f-4162-bf5f-08868e2711fb"},"vehicle_type_id":"4","last_reported":1707242915,"current_range_meters":6800,"station_id":"ce4bgqh2rcd13ifvqc4g","pricing_plan_id":"free"},{"bike_id":"6e4d97ee-6d36-496d-88ba-5ab55d58d391","system_id":"levelo_inurba_marseille","lat":43.311379,"lon":5.378062,"is_reserved":false,"is_disabled":false,"rental_uris":{"android":"levelo://app?vid=6e4d97ee-6d36-496d-88ba-5ab55d58d391","ios":"levelo://app?vid=6e4d97ee-6d36-496d-88ba-5ab55d58d391"},"vehicle_type_id":"4","last_reported":1707242915,"current_range_meters":9600,"station_id":"","pricing_plan_id":"free"},{"bike_id":"b1efbab6-575e-49d9-941e-bf4f20131f18","system_id":"levelo_inurba_marseille","lat":43.307945,"lon":5.376487,"is_reserved":false,"is_disabled":false,"rental_uris":{"android":"levelo://app?vid=b1efbab6-575e-49d9-941e-bf4f20131f18","ios":"levelo://app?vid=b1efbab6-575e-49d9-941e-bf4f20131f18"},"vehicle_type_id":"4","last_reported":1707242915,"current_range_meters":28800,"station_id":"ce4bgv92rcd13ifvqcq0","pricing_plan_id":"free"},{"bike_id":"a9330a2d-8a80-4acd-afac-dfbc9b7de59e","system_id":"levelo_inurba_marseille","lat":43.307945,"lon":5.376487,"is_reserved":false,"is_disabled":false,"rental_uris":{"android":"levelo://app?vid=a9330a2d-8a80-4acd-afac-dfbc9b7de59e","ios":"levelo://app?vid=a9330a2d-8a80-4acd-afac-dfbc9b7de59e"},"vehicle_type_id":"4","last_reported":1707242915,"current_range_meters":27600,"station_id":"ce4bgv92rcd13ifvqcq0","pricing_plan_id":"free"},{"bike_id":"5d4fe4eb-e967-4c56-8eeb-81e947f6b0ed","system_id":"levelo_inurba_marseille","lat":43.3078,"lon":5.37658,"is_reserved":false,"is_disabled":false,"rental_uris":{"android":"levelo://app?vid=5d4fe4eb-e967-4c56-8eeb-81e947f6b0ed","ios":"levelo://app?vid=5d4fe4eb-e967-4c56-8eeb-81e947f6b0ed"},"vehicle_type_id":"4","last_reported":1707242915,"current_range_meters":31200,"station_id":"ce4bgv92rcd13ifvqcq0","pricing_plan_id":"free"},{"bike_id":"88aaa6f6-b84c-4386-b758-c512c01dff52","system_id":"levelo_inurba_marseille","lat":43.307945,"lon":5.376487,"is_reserved":false,"is_disabled":false,"rental_uris":{"android":"levelo://app?vid=88aaa6f6-b84c-4386-b758-c512c01dff52","ios":"levelo://app?vid=88aaa6f6-b84c-4386-b758-c512c01dff52"},"vehicle_type_id":"4","last_reported":1707242915,"current_range_meters":20400,"station_id":"ce4bgv92rcd13ifvqcq0","pricing_plan_id":"free"},{"bike_id":"0e9f86b7-3c9f-4316-a95a-adf781f349d9","system_id":"levelo_inurba_marseille","lat":43.317075,"lon":5.377367,"is_reserved":false,"is_disabled":false,"rental_uris":{"android":"levelo://app?vid=0e9f86b7-3c9f-4316-a95a-adf781f349d9","ios":"levelo://app?vid=0e9f86b7-3c9f-4316-a95a-adf781f349d9"},"vehicle_type_id":"4","last_reported":1707242915,"current_range_meters":4000,"station_id":"ce4bgth2rcd13ifvqch0","pricing_plan_id":"free"},{"bike_id":"101295eb-e0ba-43f8-aae6-3dd3e31c47f9","system_id":"levelo_inurba_marseille","lat":43.307945,"lon":5.376487,"is_reserved":false,"is_disabled":false,"rental_uris":{"android":"levelo://app?vid=101295eb-e0ba-43f8-aae6-3dd3e31c47f9","ios":"levelo://app?vid=101295eb-e0ba-43f8-aae6-3dd3e31c47f9"},"vehicle_type_id":"4","last_reported":1707242915,"current_range_meters":24800,"station_id":"ce4bgv92rcd13ifvqcq0","pricing_plan_id":"free"},{"bike_id":"77073416-f815-46ad-b414-33ec95709bea","system_id":"levelo_inurba_marseille","lat":43.317075,"lon":5.377367,"is_reserved":false,"is_disabled":false,"rental_uris":{"android":"levelo://app?vid=77073416-f815-46ad-b414-33ec95709bea","ios":"levelo://app?vid=77073416-f815-46ad-b414-33ec95709bea"},"vehicle_type_id":"4","last_reported":1707242915,"current_range_meters":29200,"station_id":"ce4bgth2rcd13ifvqch0","pricing_plan_id":"free"},{"bike_id":"0c466ccc-d747-4327-be86-c3896d0bbba3","system_id":"levelo_inurba_marseille","lat":43.317075,"lon":5.377367,"is_reserved":false,"is_disabled":false,"rental_uris":{"android":"levelo://app?vid=0c466ccc-d747-4327-be86-c3896d0bbba3","ios":"levelo://app?vid=0c466ccc-d747-4327-be86-c3896d0bbba3"},"vehicle_type_id":"4","last_reported":1707242915,"current_range_meters":31200,"station_id":"ce4bgth2rcd13ifvqch0","pricing_plan_id":"free"},{"bike_id":"c0accd4b-7a21-4484-866e-302b75c61799","system_id":"levelo_inurba_marseille","lat":43.317075,"lon":5.377367,"is_reserved":false,"is_disabled":false,"rental_uris":{"android":"levelo://app?vid=c0accd4b-7a21-4484-866e-302b75c61799","ios":"levelo://app?vid=c0accd4b-7a21-4484-866e-302b75c61799"},"vehicle_type_id":"4","last_reported":1707242915,"current_range_meters":25600,"station_id":"ce4bgth2rcd13ifvqch0","pricing_plan_id":"free"},{"bike_id":"b4e423a2-39cc-489d-818c-3a962e49f6af","system_id":"levelo_inurba_marseille","lat":43.30325,"lon":5.36658,"is_reserved":false,"is_disabled":false,"rental_uris":{"android":"levelo://app?vid=b4e423a2-39cc-489d-818c-3a962e49f6af","ios":"levelo://app?vid=b4e423a2-39cc-489d-818c-3a962e49f6af"},"vehicle_type_id":"4","last_reported":1707242915,"current_range_meters":20000,"station_id":"","pricing_plan_id":"free"},{"bike_id":"724f311e-9cdf-4b6b-bba4-99ee4dc487ad","system_id":"levelo_inurba_marseille","lat":43.30304,"lon":5.368987,"is_reserved":false,"is_disabled":false,"rental_uris":{"android":"levelo://app?vid=724f311e-9cdf-4b6b-bba4-99ee4dc487ad","ios":"levelo://app?vid=724f311e-9cdf-4b6b-bba4-99ee4dc487ad"},"vehicle_type_id":"4","last_reported":1707242915,"current_range_meters":0,"station_id":"ce4bgqh2rcd13ifvqc5g","pricing_plan_id":"free"},{"bike_id":"c3eb0486-c9f1-4610-978a-c48f7af8fd75","system_id":"levelo_inurba_marseille","lat":43.315293,"lon":5.380349,"is_reserved":false,"is_disabled":false,"rental_uris":{"android":"levelo://app?vid=c3eb0486-c9f1-4610-978a-c48f7af8fd75","ios":"levelo://app?vid=c3eb0486-c9f1-4610-978a-c48f7af8fd75"},"vehicle_type_id":"4","last_reported":1707242915,"current_range_meters":12000,"station_id":"ce4bhsp2rcd13ifvqi50","pricing_plan_id":"free"},{"bike_id":"32b3688b-c940-47a5-8354-60d524c82719","system_id":"levelo_inurba_marseille","lat":43.30193,"lon":5.3662,"is_reserved":false,"is_disabled":false,"rental_uris":{"android":"levelo://app?vid=32b3688b-c940-47a5-8354-60d524c82719","ios":"levelo://app?vid=32b3688b-c940-47a5-8354-60d524c82719"},"vehicle_type_id":"4","last_reported":1707242915,"current_range_meters":0,"station_id":"ce4bgrh2rcd13ifvqc8g","pricing_plan_id":"free"},{"bike_id":"93dc3199-52f5-4845-a829-e3fae8453099","system_id":"levelo_inurba_marseille","lat":43.301939,"lon":5.366286,"is_reserved":false,"is_disabled":false,"rental_uris":{"android":"levelo://app?vid=93dc3199-52f5-4845-a829-e3fae8453099","ios":"levelo://app?vid=93dc3199-52f5-4845-a829-e3fae8453099"},"vehicle_type_id":"4","last_reported":1707242915,"current_range_meters":17600,"station_id":"ce4bgrh2rcd13ifvqc8g","pricing_plan_id":"free"},{"bike_id":"a394aba6-316e-493c-898e-32b69ac36ef0","system_id":"levelo_inurba_marseille","lat":43.308624,"lon":5.381811,"is_reserved":false,"is_disabled":false,"rental_uris":{"android":"levelo://app?vid=a394aba6-316e-493c-898e-32b69ac36ef0","ios":"levelo://app?vid=a394aba6-316e-493c-898e-32b69ac36ef0"},"vehicle_type_id":"4","last_reported":1707242915,"current_range_meters":17600,"station_id":"","pricing_plan_id":"free"},{"bike_id":"d6060134-86f6-4283-93c6-5c3774952c41","system_id":"levelo_inurba_marseille","lat":43.304606,"lon":5.379026,"is_reserved":false,"is_disabled":false,"rental_uris":{"android":"levelo://app?vid=d6060134-86f6-4283-93c6-5c3774952c41","ios":"levelo://app?vid=d6060134-86f6-4283-93c6-5c3774952c41"},"vehicle_type_id":"4","last_reported":1707242915,"current_range_meters":10800,"station_id":"ce4bgup2rcd13ifvqcn0","pricing_plan_id":"free"},{"bike_id":"b31ed7d7-3095-489b-a0ee-530927335ba5","system_id":"levelo_inurba_marseille","lat":43.304606,"lon":5.379026,"is_reserved":false,"is_disabled":false,"rental_uris":{"android":"levelo://app?vid=b31ed7d7-3095-489b-a0ee-530927335ba5","ios":"levelo://app?vid=b31ed7d7-3095-489b-a0ee-530927335ba5"},"vehicle_type_id":"4","last_reported":1707242915,"current_range_meters":28000,"station_id":"ce4bgup2rcd13ifvqcn0","pricing_plan_id":"free"},{"bike_id":"4bd5a25e-f252-4250-ae48-d821f9ebd6f0","system_id":"levelo_inurba_marseille","lat":43.304606,"lon":5.379026,"is_reserved":false,"is_disabled":false,"rental_uris":{"android":"levelo://app?vid=4bd5a25e-f252-4250-ae48-d821f9ebd6f0","ios":"levelo://app?vid=4bd5a25e-f252-4250-ae48-d821f9ebd6f0"},"vehicle_type_id":"4","last_reported":1707242915,"current_range_meters":31600,"station_id":"ce4bgup2rcd13ifvqcn0","pricing_plan_id":"free"},{"bike_id":"9fb3aa8e-6800-472b-b7a1-b582d089344a","system_id":"levelo_inurba_marseille","lat":43.324771,"lon":5.36557,"is_reserved":false,"is_disabled":false,"rental_uris":{"android":"levelo://app?vid=9fb3aa8e-6800-472b-b7a1-b582d089344a","ios":"levelo://app?vid=9fb3aa8e-6800-472b-b7a1-b582d089344a"},"vehicle_type_id":"4","last_reported":1707242915,"current_range_meters":18800,"station_id":"ce4bhs12rcd13ifvqhvg","pricing_plan_id":"free"},{"bike_id":"919e23f4-28e3-46c5-b282-0fa33d736570","system_id":"levelo_inurba_marseille","lat":43.310804,"lon":5.38359,"is_reserved":false,"is_disabled":false,"rental_uris":{"android":"levelo://app?vid=919e23f4-28e3-46c5-b282-0fa33d736570","ios":"levelo://app?vid=919e23f4-28e3-46c5-b282-0fa33d736570"},"vehicle_type_id":"4","last_reported":1707242915,"current_range_meters":30000,"station_id":"ce4bgv92rcd13ifvqcr0","pricing_plan_id":"free"},{"bike_id":"97f71f75-d414-4d74-9636-20377fab8590","system_id":"levelo_inurba_marseille","lat":43.324771,"lon":5.36557,"is_reserved":false,"is_disabled":false,"rental_uris":{"android":"levelo://app?vid=97f71f75-d414-4d74-9636-20377fab8590","ios":"levelo://app?vid=97f71f75-d414-4d74-9636-20377fab8590"},"vehicle_type_id":"4","last_reported":1707242915,"current_range_meters":30400,"station_id":"ce4bhs12rcd13ifvqhvg","pricing_plan_id":"free"},{"bike_id":"5e3f4117-bf71-4295-8fac-b33a9c44e6b6","system_id":"levelo_inurba_marseille","lat":43.324771,"lon":5.36557,"is_reserved":false,"is_disabled":false,"rental_uris":{"android":"levelo://app?vid=5e3f4117-bf71-4295-8fac-b33a9c44e6b6","ios":"levelo://app?vid=5e3f4117-bf71-4295-8fac-b33a9c44e6b6"},"vehicle_type_id":"4","last_reported":1707242915,"current_range_meters":24400,"station_id":"ce4bhs12rcd13ifvqhvg","pricing_plan_id":"free"},{"bike_id":"ba1fabf6-799a-4fe9-ae30-e87c0b036395","system_id":"levelo_inurba_marseille","lat":43.30284,"lon":5.37698,"is_reserved":false,"is_disabled":false,"rental_uris":{"android":"levelo://app?vid=ba1fabf6-799a-4fe9-ae30-e87c0b036395","ios":"levelo://app?vid=ba1fabf6-799a-4fe9-ae30-e87c0b036395"},"vehicle_type_id":"4","last_reported":1707242915,"current_range_meters":0,"station_id":"ce4bguh2rcd13ifvqcj0","pricing_plan_id":"free"},{"bike_id":"63a22b05-a90e-4dcc-9897-9ebf8b32ab94","system_id":"levelo_inurba_marseille","lat":43.302317,"lon":5.376158,"is_reserved":false,"is_disabled":false,"rental_uris":{"android":"levelo://app?vid=63a22b05-a90e-4dcc-9897-9ebf8b32ab94","ios":"levelo://app?vid=63a22b05-a90e-4dcc-9897-9ebf8b32ab94"},"vehicle_type_id":"4","last_reported":1707242915,"current_range_meters":3200,"station_id":"ce4bguh2rcd13ifvqcj0","pricing_plan_id":"free"},{"bike_id":"1c25a4cd-9cf0-4c3b-88f3-a47ab8939f20","system_id":"levelo_inurba_marseille","lat":43.3199,"lon":5.38134,"is_reserved":false,"is_disabled":false,"rental_uris":{"android":"levelo://app?vid=1c25a4cd-9cf0-4c3b-88f3-a47ab8939f20","ios":"levelo://app?vid=1c25a4cd-9cf0-4c3b-88f3-a47ab8939f20"},"vehicle_type_id":"4","last_reported":1707242915,"current_range_meters":15200,"station_id":"ce4bhr12rcd13ifvqhpg","pricing_plan_id":"free"},{"bike_id":"0abbaad6-12a6-4f04-8257-739b9ff8f24b","system_id":"levelo_inurba_marseille","lat":43.319935,"lon":5.381699,"is_reserved":false,"is_disabled":false,"rental_uris":{"android":"levelo://app?vid=0abbaad6-12a6-4f04-8257-739b9ff8f24b","ios":"levelo://app?vid=0abbaad6-12a6-4f04-8257-739b9ff8f24b"},"vehicle_type_id":"4","last_reported":1707242915,"current_range_meters":9600,"station_id":"ce4bhr12rcd13ifvqhpg","pricing_plan_id":"free"},{"bike_id":"4505dd3b-e70e-4db9-b95e-a6d146ab3434","system_id":"levelo_inurba_marseille","lat":43.319935,"lon":5.381699,"is_reserved":false,"is_disabled":false,"rental_uris":{"android":"levelo://app?vid=4505dd3b-e70e-4db9-b95e-a6d146ab3434","ios":"levelo://app?vid=4505dd3b-e70e-4db9-b95e-a6d146ab3434"},"vehicle_type_id":"4","last_reported":1707242915,"current_range_meters":14400,"station_id":"ce4bhr12rcd13ifvqhpg","pricing_plan_id":"free"},{"bike_id":"ccf2a241-3d64-4fde-891f-1d3d7e7db1c1","system_id":"levelo_inurba_marseille","lat":43.319935,"lon":5.381699,"is_reserved":false,"is_disabled":false,"rental_uris":{"android":"levelo://app?vid=ccf2a241-3d64-4fde-891f-1d3d7e7db1c1","ios":"levelo://app?vid=ccf2a241-3d64-4fde-891f-1d3d7e7db1c1"},"vehicle_type_id":"4","last_reported":1707242915,"current_range_meters":26800,"station_id":"ce4bhr12rcd13ifvqhpg","pricing_plan_id":"free"},{"bike_id":"12ce1b51-e513-48d4-8826-d38689553faa","system_id":"levelo_inurba_marseille","lat":43.319935,"lon":5.381699,"is_reserved":false,"is_disabled":false,"rental_uris":{"android":"levelo://app?vid=12ce1b51-e513-48d4-8826-d38689553faa","ios":"levelo://app?vid=12ce1b51-e513-48d4-8826-d38689553faa"},"vehicle_type_id":"4","last_reported":1707242915,"current_range_meters":26400,"station_id":"ce4bhr12rcd13ifvqhpg","pricing_plan_id":"free"},{"bike_id":"cd1697dc-c996-412f-9980-2785b058e155","system_id":"levelo_inurba_marseille","lat":43.319935,"lon":5.381699,"is_reserved":false,"is_disabled":false,"rental_uris":{"android":"levelo://app?vid=cd1697dc-c996-412f-9980-2785b058e155","ios":"levelo://app?vid=cd1697dc-c996-412f-9980-2785b058e155"},"vehicle_type_id":"4","last_reported":1707242915,"current_range_meters":17600,"station_id":"ce4bhr12rcd13ifvqhpg","pricing_plan_id":"free"},{"bike_id":"cd930c75-f2d0-49f4-a962-1ba9d506628f","system_id":"levelo_inurba_marseille","lat":43.319935,"lon":5.381699,"is_reserved":false,"is_disabled":false,"rental_uris":{"android":"levelo://app?vid=cd930c75-f2d0-49f4-a962-1ba9d506628f","ios":"levelo://app?vid=cd930c75-f2d0-49f4-a962-1ba9d506628f"},"vehicle_type_id":"4","last_reported":1707242915,"current_range_meters":18000,"station_id":"ce4bhr12rcd13ifvqhpg","pricing_plan_id":"free"},{"bike_id":"8656c34f-ea84-4265-adeb-d0e88a2b6dd8","system_id":"levelo_inurba_marseille","lat":43.313571,"lon":5.384829,"is_reserved":false,"is_disabled":false,"rental_uris":{"android":"levelo://app?vid=8656c34f-ea84-4265-adeb-d0e88a2b6dd8","ios":"levelo://app?vid=8656c34f-ea84-4265-adeb-d0e88a2b6dd8"},"vehicle_type_id":"4","last_reported":1707242915,"current_range_meters":30000,"station_id":"ce4bgt92rcd13ifvqcf0","pricing_plan_id":"free"},{"bike_id":"6f91a601-1741-4d57-9f29-9bfccb99b03c","system_id":"levelo_inurba_marseille","lat":43.299385,"lon":5.365354,"is_reserved":false,"is_disabled":false,"rental_uris":{"android":"levelo://app?vid=6f91a601-1741-4d57-9f29-9bfccb99b03c","ios":"levelo://app?vid=6f91a601-1741-4d57-9f29-9bfccb99b03c"},"vehicle_type_id":"4","last_reported":1707242915,"current_range_meters":28800,"station_id":"ce4bgm92rcd13ifvqbr0","pricing_plan_id":"free"},{"bike_id":"ef38826b-46bb-4670-99d3-c4e5922dd33c","system_id":"levelo_inurba_marseille","lat":43.29934,"lon":5.3656,"is_reserved":false,"is_disabled":false,"rental_uris":{"android":"levelo://app?vid=ef38826b-46bb-4670-99d3-c4e5922dd33c","ios":"levelo://app?vid=ef38826b-46bb-4670-99d3-c4e5922dd33c"},"vehicle_type_id":"4","last_reported":1707242915,"current_range_meters":2000,"station_id":"ce4bgm92rcd13ifvqbr0","pricing_plan_id":"free"},{"bike_id":"89373bdc-af7f-426e-9a37-03929319bb1f","system_id":"levelo_inurba_marseille","lat":43.299222,"lon":5.365554,"is_reserved":false,"is_disabled":false,"rental_uris":{"android":"levelo://app?vid=89373bdc-af7f-426e-9a37-03929319bb1f","ios":"levelo://app?vid=89373bdc-af7f-426e-9a37-03929319bb1f"},"vehicle_type_id":"4","last_reported":1707242915,"current_range_meters":16000,"station_id":"ce4bgm92rcd13ifvqbr0","pricing_plan_id":"free"},{"bike_id":"9055fe6a-e61c-46f2-9988-44cbed59ec40","system_id":"levelo_inurba_marseille","lat":43.299222,"lon":5.365554,"is_reserved":false,"is_disabled":false,"rental_uris":{"android":"levelo://app?vid=9055fe6a-e61c-46f2-9988-44cbed59ec40","ios":"levelo://app?vid=9055fe6a-e61c-46f2-9988-44cbed59ec40"},"vehicle_type_id":"4","last_reported":1707242915,"current_range_meters":12800,"station_id":"ce4bgm92rcd13ifvqbr0","pricing_plan_id":"free"},{"bike_id":"552722a4-8508-47d3-8978-3dd9257437a7","system_id":"levelo_inurba_marseille","lat":43.299209,"lon":5.365547,"is_reserved":false,"is_disabled":false,"rental_uris":{"android":"levelo://app?vid=552722a4-8508-47d3-8978-3dd9257437a7","ios":"levelo://app?vid=552722a4-8508-47d3-8978-3dd9257437a7"},"vehicle_type_id":"4","last_reported":1707242915,"current_range_meters":12400,"station_id":"ce4bgm92rcd13ifvqbr0","pricing_plan_id":"free"},{"bike_id":"d73908e2-2bfd-489b-804e-d4e95fac72d2","system_id":"levelo_inurba_marseille","lat":43.326525,"lon":5.36078,"is_reserved":false,"is_disabled":false,"rental_uris":{"android":"levelo://app?vid=d73908e2-2bfd-489b-804e-d4e95fac72d2","ios":"levelo://app?vid=d73908e2-2bfd-489b-804e-d4e95fac72d2"},"vehicle_type_id":"4","last_reported":1707242915,"current_range_meters":13600,"station_id":"","pricing_plan_id":"free"},{"bike_id":"a17eb57a-fe78-47f7-a10e-216ec44895d7","system_id":"levelo_inurba_marseille","lat":43.305364,"lon":5.384119,"is_reserved":false,"is_disabled":false,"rental_uris":{"android":"levelo://app?vid=a17eb57a-fe78-47f7-a10e-216ec44895d7","ios":"levelo://app?vid=a17eb57a-fe78-47f7-a10e-216ec44895d7"},"vehicle_type_id":"4","last_reported":1707242915,"current_range_meters":9200,"station_id":"ce4bgg92rcd13ifvqb30","pricing_plan_id":"free"},{"bike_id":"f84610e3-b374-4971-ac5b-3cf0993bc3f8","system_id":"levelo_inurba_marseille","lat":43.311722,"lon":5.387247,"is_reserved":false,"is_disabled":false,"rental_uris":{"android":"levelo://app?vid=f84610e3-b374-4971-ac5b-3cf0993bc3f8","ios":"levelo://app?vid=f84610e3-b374-4971-ac5b-3cf0993bc3f8"},"vehicle_type_id":"4","last_reported":1707242915,"current_range_meters":18800,"station_id":"ce4bgv12rcd13ifvqcp0","pricing_plan_id":"free"},{"bike_id":"251db69b-0529-447c-ab49-508126bf452a","system_id":"levelo_inurba_marseille","lat":43.31168,"lon":5.38725,"is_reserved":false,"is_disabled":false,"rental_uris":{"android":"levelo://app?vid=251db69b-0529-447c-ab49-508126bf452a","ios":"levelo://app?vid=251db69b-0529-447c-ab49-508126bf452a"},"vehicle_type_id":"4","last_reported":1707242915,"current_range_meters":2800,"station_id":"ce4bgv12rcd13ifvqcp0","pricing_plan_id":"free"},{"bike_id":"a05ee59a-171e-43d3-b5bb-ab47ab73893f","system_id":"levelo_inurba_marseille","lat":43.311722,"lon":5.387247,"is_reserved":false,"is_disabled":false,"rental_uris":{"android":"levelo://app?vid=a05ee59a-171e-43d3-b5bb-ab47ab73893f","ios":"levelo://app?vid=a05ee59a-171e-43d3-b5bb-ab47ab73893f"},"vehicle_type_id":"4","last_reported":1707242915,"current_range_meters":4000,"station_id":"ce4bgv12rcd13ifvqcp0","pricing_plan_id":"free"},{"bike_id":"068825c3-0e30-4039-9991-0f25d2c61d15","system_id":"levelo_inurba_marseille","lat":43.327882,"lon":5.366924,"is_reserved":false,"is_disabled":false,"rental_uris":{"android":"levelo://app?vid=068825c3-0e30-4039-9991-0f25d2c61d15","ios":"levelo://app?vid=068825c3-0e30-4039-9991-0f25d2c61d15"},"vehicle_type_id":"4","last_reported":1707242915,"current_range_meters":15600,"station_id":"","pricing_plan_id":"free"},{"bike_id":"f05ba268-8024-4397-b67e-d5d6848bf3c7","system_id":"levelo_inurba_marseille","lat":43.322872,"lon":5.382756,"is_reserved":false,"is_disabled":false,"rental_uris":{"android":"levelo://app?vid=f05ba268-8024-4397-b67e-d5d6848bf3c7","ios":"levelo://app?vid=f05ba268-8024-4397-b67e-d5d6848bf3c7"},"vehicle_type_id":"4","last_reported":1707242915,"current_range_meters":14400,"station_id":"ce4bhr12rcd13ifvqhqg","pricing_plan_id":"free"},{"bike_id":"aeda78ec-de39-407e-8a5b-89262fd5c123","system_id":"levelo_inurba_marseille","lat":43.322872,"lon":5.382756,"is_reserved":false,"is_disabled":false,"rental_uris":{"android":"levelo://app?vid=aeda78ec-de39-407e-8a5b-89262fd5c123","ios":"levelo://app?vid=aeda78ec-de39-407e-8a5b-89262fd5c123"},"vehicle_type_id":"4","last_reported":1707242915,"current_range_meters":30400,"station_id":"ce4bhr12rcd13ifvqhqg","pricing_plan_id":"free"},{"bike_id":"2e7d1277-a3ec-4c37-831b-c0b641935959","system_id":"levelo_inurba_marseille","lat":43.32817,"lon":5.36694,"is_reserved":false,"is_disabled":false,"rental_uris":{"android":"levelo://app?vid=2e7d1277-a3ec-4c37-831b-c0b641935959","ios":"levelo://app?vid=2e7d1277-a3ec-4c37-831b-c0b641935959"},"vehicle_type_id":"4","last_reported":1707242915,"current_range_meters":11600,"station_id":"ce4bhs92rcd13ifvqi0g","pricing_plan_id":"free"},{"bike_id":"1900e2ea-9239-49b1-933e-57903fa99707","system_id":"levelo_inurba_marseille","lat":43.32826,"lon":5.36695,"is_reserved":false,"is_disabled":false,"rental_uris":{"android":"levelo://app?vid=1900e2ea-9239-49b1-933e-57903fa99707","ios":"levelo://app?vid=1900e2ea-9239-49b1-933e-57903fa99707"},"vehicle_type_id":"4","last_reported":1707242915,"current_range_meters":2400,"station_id":"ce4bhs92rcd13ifvqi0g","pricing_plan_id":"free"},{"bike_id":"6a5b4a9f-7323-472e-b759-8dae709cba6c","system_id":"levelo_inurba_marseille","lat":43.32826,"lon":5.36685,"is_reserved":false,"is_disabled":false,"rental_uris":{"android":"levelo://app?vid=6a5b4a9f-7323-472e-b759-8dae709cba6c","ios":"levelo://app?vid=6a5b4a9f-7323-472e-b759-8dae709cba6c"},"vehicle_type_id":"4","last_reported":1707242915,"current_range_meters":14400,"station_id":"ce4bhs92rcd13ifvqi0g","pricing_plan_id":"free"},{"bike_id":"752b438a-8c6c-4573-b771-477e2c6e9126","system_id":"levelo_inurba_marseille","lat":43.32826,"lon":5.3668,"is_reserved":false,"is_disabled":false,"rental_uris":{"android":"levelo://app?vid=752b438a-8c6c-4573-b771-477e2c6e9126","ios":"levelo://app?vid=752b438a-8c6c-4573-b771-477e2c6e9126"},"vehicle_type_id":"4","last_reported":1707242915,"current_range_meters":20400,"station_id":"ce4bhs92rcd13ifvqi0g","pricing_plan_id":"free"},{"bike_id":"5c57f415-95d6-428c-9dfc-4fb51ef0c85b","system_id":"levelo_inurba_marseille","lat":43.32827,"lon":5.36695,"is_reserved":false,"is_disabled":false,"rental_uris":{"android":"levelo://app?vid=5c57f415-95d6-428c-9dfc-4fb51ef0c85b","ios":"levelo://app?vid=5c57f415-95d6-428c-9dfc-4fb51ef0c85b"},"vehicle_type_id":"4","last_reported":1707242915,"current_range_meters":18800,"station_id":"ce4bhs92rcd13ifvqi0g","pricing_plan_id":"free"},{"bike_id":"36243836-0b62-45d5-b00e-078a5c9e3add","system_id":"levelo_inurba_marseille","lat":43.32827,"lon":5.36676,"is_reserved":false,"is_disabled":false,"rental_uris":{"android":"levelo://app?vid=36243836-0b62-45d5-b00e-078a5c9e3add","ios":"levelo://app?vid=36243836-0b62-45d5-b00e-078a5c9e3add"},"vehicle_type_id":"4","last_reported":1707242915,"current_range_meters":5600,"station_id":"ce4bhs92rcd13ifvqi0g","pricing_plan_id":"free"},{"bike_id":"6cd6b889-8d57-4573-b2a2-aa0a2c9636a8","system_id":"levelo_inurba_marseille","lat":43.32827,"lon":5.36672,"is_reserved":false,"is_disabled":false,"rental_uris":{"android":"levelo://app?vid=6cd6b889-8d57-4573-b2a2-aa0a2c9636a8","ios":"levelo://app?vid=6cd6b889-8d57-4573-b2a2-aa0a2c9636a8"},"vehicle_type_id":"4","last_reported":1707242915,"current_range_meters":800,"station_id":"ce4bhs92rcd13ifvqi0g","pricing_plan_id":"free"},{"bike_id":"a7f79efb-1544-4a9c-90b1-63c97e52bce2","system_id":"levelo_inurba_marseille","lat":43.32829,"lon":5.36679,"is_reserved":false,"is_disabled":false,"rental_uris":{"android":"levelo://app?vid=a7f79efb-1544-4a9c-90b1-63c97e52bce2","ios":"levelo://app?vid=a7f79efb-1544-4a9c-90b1-63c97e52bce2"},"vehicle_type_id":"4","last_reported":1707242915,"current_range_meters":11200,"station_id":"ce4bhs92rcd13ifvqi0g","pricing_plan_id":"free"},{"bike_id":"edc20a40-193c-4187-8cea-08e6765f7c9c","system_id":"levelo_inurba_marseille","lat":43.32831,"lon":5.36679,"is_reserved":false,"is_disabled":false,"rental_uris":{"android":"levelo://app?vid=edc20a40-193c-4187-8cea-08e6765f7c9c","ios":"levelo://app?vid=edc20a40-193c-4187-8cea-08e6765f7c9c"},"vehicle_type_id":"4","last_reported":1707242915,"current_range_meters":15600,"station_id":"ce4bhs92rcd13ifvqi0g","pricing_plan_id":"free"},{"bike_id":"46ffd311-8d24-4a9c-a424-d0bccfd813b8","system_id":"levelo_inurba_marseille","lat":43.328327,"lon":5.366869,"is_reserved":false,"is_disabled":false,"rental_uris":{"android":"levelo://app?vid=46ffd311-8d24-4a9c-a424-d0bccfd813b8","ios":"levelo://app?vid=46ffd311-8d24-4a9c-a424-d0bccfd813b8"},"vehicle_type_id":"4","last_reported":1707242915,"current_range_meters":4800,"station_id":"ce4bhs92rcd13ifvqi0g","pricing_plan_id":"free"},{"bike_id":"dc6e27fa-5a0d-4158-bdd0-de6f45e648eb","system_id":"levelo_inurba_marseille","lat":43.297101,"lon":5.366087,"is_reserved":false,"is_disabled":false,"rental_uris":{"android":"levelo://app?vid=dc6e27fa-5a0d-4158-bdd0-de6f45e648eb","ios":"levelo://app?vid=dc6e27fa-5a0d-4158-bdd0-de6f45e648eb"},"vehicle_type_id":"4","last_reported":1707242915,"current_range_meters":12400,"station_id":"ce4bgn12rcd13ifvqbt0","pricing_plan_id":"free"},{"bike_id":"8ab87873-e9c8-48fd-926e-ab43de2a43f3","system_id":"levelo_inurba_marseille","lat":43.296921,"lon":5.376579,"is_reserved":false,"is_disabled":false,"rental_uris":{"android":"levelo://app?vid=8ab87873-e9c8-48fd-926e-ab43de2a43f3","ios":"levelo://app?vid=8ab87873-e9c8-48fd-926e-ab43de2a43f3"},"vehicle_type_id":"4","last_reported":1707242915,"current_range_meters":5200,"station_id":"ce4bgkh2rcd13ifvqbl0","pricing_plan_id":"free"},{"bike_id":"2d169b59-bb57-4f21-86d5-198f6665dc3f","system_id":"levelo_inurba_marseille","lat":43.299028,"lon":5.381509,"is_reserved":false,"is_disabled":false,"rental_uris":{"android":"levelo://app?vid=2d169b59-bb57-4f21-86d5-198f6665dc3f","ios":"levelo://app?vid=2d169b59-bb57-4f21-86d5-198f6665dc3f"},"vehicle_type_id":"4","last_reported":1707242915,"current_range_meters":27600,"station_id":"ce4bgj12rcd13ifvqbc0","pricing_plan_id":"free"},{"bike_id":"35c53ea4-4d65-4a48-8448-551b472bc5a7","system_id":"levelo_inurba_marseille","lat":43.299119,"lon":5.381545,"is_reserved":false,"is_disabled":false,"rental_uris":{"android":"levelo://app?vid=35c53ea4-4d65-4a48-8448-551b472bc5a7","ios":"levelo://app?vid=35c53ea4-4d65-4a48-8448-551b472bc5a7"},"vehicle_type_id":"4","last_reported":1707242915,"current_range_meters":9200,"station_id":"","pricing_plan_id":"free"},{"bike_id":"35907d79-5b6a-457e-a7c4-cf3f346a0c53","system_id":"levelo_inurba_marseille","lat":43.299028,"lon":5.381509,"is_reserved":false,"is_disabled":false,"rental_uris":{"android":"levelo://app?vid=35907d79-5b6a-457e-a7c4-cf3f346a0c53","ios":"levelo://app?vid=35907d79-5b6a-457e-a7c4-cf3f346a0c53"},"vehicle_type_id":"4","last_reported":1707242915,"current_range_meters":17200,"station_id":"ce4bgj12rcd13ifvqbc0","pricing_plan_id":"free"},{"bike_id":"da231969-b3ac-4017-b927-511caf3f771c","system_id":"levelo_inurba_marseille","lat":43.30959,"lon":5.39036,"is_reserved":false,"is_disabled":false,"rental_uris":{"android":"levelo://app?vid=da231969-b3ac-4017-b927-511caf3f771c","ios":"levelo://app?vid=da231969-b3ac-4017-b927-511caf3f771c"},"vehicle_type_id":"4","last_reported":1707242915,"current_range_meters":0,"station_id":"ce4bgup2rcd13ifvqco0","pricing_plan_id":"free"},{"bike_id":"b393e380-9b9a-4239-8934-e30e3f7bac4e","system_id":"levelo_inurba_marseille","lat":43.31734,"lon":5.39012,"is_reserved":false,"is_disabled":false,"rental_uris":{"android":"levelo://app?vid=b393e380-9b9a-4239-8934-e30e3f7bac4e","ios":"levelo://app?vid=b393e380-9b9a-4239-8934-e30e3f7bac4e"},"vehicle_type_id":"4","last_reported":1707242915,"current_range_meters":15600,"station_id":"ce4bhqp2rcd13ifvqhng","pricing_plan_id":"free"},{"bike_id":"66357aae-b1d5-4c5d-8e0d-6e6b5408b3e9","system_id":"levelo_inurba_marseille","lat":43.31756,"lon":5.39013,"is_reserved":false,"is_disabled":false,"rental_uris":{"android":"levelo://app?vid=66357aae-b1d5-4c5d-8e0d-6e6b5408b3e9","ios":"levelo://app?vid=66357aae-b1d5-4c5d-8e0d-6e6b5408b3e9"},"vehicle_type_id":"4","last_reported":1707242915,"current_range_meters":17600,"station_id":"ce4bhqp2rcd13ifvqhng","pricing_plan_id":"free"},{"bike_id":"8236458b-34ca-49b5-ab60-c4f12ac61945","system_id":"levelo_inurba_marseille","lat":43.31755,"lon":5.39015,"is_reserved":false,"is_disabled":false,"rental_uris":{"android":"levelo://app?vid=8236458b-34ca-49b5-ab60-c4f12ac61945","ios":"levelo://app?vid=8236458b-34ca-49b5-ab60-c4f12ac61945"},"vehicle_type_id":"4","last_reported":1707242915,"current_range_meters":16400,"station_id":"ce4bhqp2rcd13ifvqhng","pricing_plan_id":"free"},{"bike_id":"cd483cf2-ddf7-4bc2-8846-13c380942b93","system_id":"levelo_inurba_marseille","lat":43.317567,"lon":5.390147,"is_reserved":false,"is_disabled":false,"rental_uris":{"android":"levelo://app?vid=cd483cf2-ddf7-4bc2-8846-13c380942b93","ios":"levelo://app?vid=cd483cf2-ddf7-4bc2-8846-13c380942b93"},"vehicle_type_id":"4","last_reported":1707242915,"current_range_meters":21200,"station_id":"ce4bhqp2rcd13ifvqhng","pricing_plan_id":"free"},{"bike_id":"acfb1a76-9d92-4e60-b5a5-bb928051e624","system_id":"levelo_inurba_marseille","lat":43.317557,"lon":5.390173,"is_reserved":false,"is_disabled":false,"rental_uris":{"android":"levelo://app?vid=acfb1a76-9d92-4e60-b5a5-bb928051e624","ios":"levelo://app?vid=acfb1a76-9d92-4e60-b5a5-bb928051e624"},"vehicle_type_id":"4","last_reported":1707242915,"current_range_meters":30000,"station_id":"ce4bhqp2rcd13ifvqhng","pricing_plan_id":"free"},{"bike_id":"3ccd3931-8811-4b7f-a846-c32a0a6915a2","system_id":"levelo_inurba_marseille","lat":43.317557,"lon":5.390173,"is_reserved":false,"is_disabled":false,"rental_uris":{"android":"levelo://app?vid=3ccd3931-8811-4b7f-a846-c32a0a6915a2","ios":"levelo://app?vid=3ccd3931-8811-4b7f-a846-c32a0a6915a2"},"vehicle_type_id":"4","last_reported":1707242915,"current_range_meters":26000,"station_id":"ce4bhqp2rcd13ifvqhng","pricing_plan_id":"free"},{"bike_id":"3c453d5b-83dd-4499-9d12-a38d59d5c115","system_id":"levelo_inurba_marseille","lat":43.317579,"lon":5.390169,"is_reserved":false,"is_disabled":false,"rental_uris":{"android":"levelo://app?vid=3c453d5b-83dd-4499-9d12-a38d59d5c115","ios":"levelo://app?vid=3c453d5b-83dd-4499-9d12-a38d59d5c115"},"vehicle_type_id":"4","last_reported":1707242915,"current_range_meters":21600,"station_id":"ce4bhqp2rcd13ifvqhng","pricing_plan_id":"free"},{"bike_id":"cff55c77-7ebe-4284-bc48-2fbd9d0bf89e","system_id":"levelo_inurba_marseille","lat":43.317501,"lon":5.390251,"is_reserved":false,"is_disabled":false,"rental_uris":{"android":"levelo://app?vid=cff55c77-7ebe-4284-bc48-2fbd9d0bf89e","ios":"levelo://app?vid=cff55c77-7ebe-4284-bc48-2fbd9d0bf89e"},"vehicle_type_id":"4","last_reported":1707242915,"current_range_meters":18400,"station_id":"ce4bhqp2rcd13ifvqhng","pricing_plan_id":"free"},{"bike_id":"9268b101-79ac-4bcb-b66b-b3aa5eb7916b","system_id":"levelo_inurba_marseille","lat":43.31753,"lon":5.39026,"is_reserved":false,"is_disabled":false,"rental_uris":{"android":"levelo://app?vid=9268b101-79ac-4bcb-b66b-b3aa5eb7916b","ios":"levelo://app?vid=9268b101-79ac-4bcb-b66b-b3aa5eb7916b"},"vehicle_type_id":"4","last_reported":1707242915,"current_range_meters":18000,"station_id":"ce4bhqp2rcd13ifvqhng","pricing_plan_id":"free"},{"bike_id":"353a8076-fe4e-4941-bf3d-10e08d5bd46a","system_id":"levelo_inurba_marseille","lat":43.31754,"lon":5.39029,"is_reserved":false,"is_disabled":false,"rental_uris":{"android":"levelo://app?vid=353a8076-fe4e-4941-bf3d-10e08d5bd46a","ios":"levelo://app?vid=353a8076-fe4e-4941-bf3d-10e08d5bd46a"},"vehicle_type_id":"4","last_reported":1707242915,"current_range_meters":3600,"station_id":"ce4bhqp2rcd13ifvqhng","pricing_plan_id":"free"},{"bike_id":"211f186d-35fc-4407-a75f-a4e75d95c601","system_id":"levelo_inurba_marseille","lat":43.31757,"lon":5.39033,"is_reserved":false,"is_disabled":false,"rental_uris":{"android":"levelo://app?vid=211f186d-35fc-4407-a75f-a4e75d95c601","ios":"levelo://app?vid=211f186d-35fc-4407-a75f-a4e75d95c601"},"vehicle_type_id":"4","last_reported":1707242915,"current_range_meters":2400,"station_id":"ce4bhqp2rcd13ifvqhng","pricing_plan_id":"free"},{"bike_id":"7aef56eb-d693-4292-baae-a62fd37a6730","system_id":"levelo_inurba_marseille","lat":43.295807,"lon":5.374879,"is_reserved":false,"is_disabled":false,"rental_uris":{"android":"levelo://app?vid=7aef56eb-d693-4292-baae-a62fd37a6730","ios":"levelo://app?vid=7aef56eb-d693-4292-baae-a62fd37a6730"},"vehicle_type_id":"4","last_reported":1707242915,"current_range_meters":0,"station_id":"ce4bgh92rcd13ifvqb50","pricing_plan_id":"free"},{"bike_id":"bae4dc69-d06a-4a5d-9ad5-b962bd19e281","system_id":"levelo_inurba_marseille","lat":43.298,"lon":5.38092,"is_reserved":false,"is_disabled":false,"rental_uris":{"android":"levelo://app?vid=bae4dc69-d06a-4a5d-9ad5-b962bd19e281","ios":"levelo://app?vid=bae4dc69-d06a-4a5d-9ad5-b962bd19e281"},"vehicle_type_id":"4","last_reported":1707242915,"current_range_meters":26800,"station_id":"","pricing_plan_id":"free"},{"bike_id":"f24f4f23-d90e-4cbc-a105-35407d03b3e3","system_id":"levelo_inurba_marseille","lat":43.304274,"lon":5.388873,"is_reserved":false,"is_disabled":false,"rental_uris":{"android":"levelo://app?vid=f24f4f23-d90e-4cbc-a105-35407d03b3e3","ios":"levelo://app?vid=f24f4f23-d90e-4cbc-a105-35407d03b3e3"},"vehicle_type_id":"4","last_reported":1707242915,"current_range_meters":22000,"station_id":"ce4bgk12rcd13ifvqbi0","pricing_plan_id":"free"},{"bike_id":"47d9788e-487b-4d22-b796-ca3af1b86db4","system_id":"levelo_inurba_marseille","lat":43.304274,"lon":5.388873,"is_reserved":false,"is_disabled":false,"rental_uris":{"android":"levelo://app?vid=47d9788e-487b-4d22-b796-ca3af1b86db4","ios":"levelo://app?vid=47d9788e-487b-4d22-b796-ca3af1b86db4"},"vehicle_type_id":"4","last_reported":1707242915,"current_range_meters":9600,"station_id":"ce4bgk12rcd13ifvqbi0","pricing_plan_id":"free"},{"bike_id":"9efa0dd4-d057-40ac-ac2d-68b20024c31c","system_id":"levelo_inurba_marseille","lat":43.297912,"lon":5.381062,"is_reserved":false,"is_disabled":false,"rental_uris":{"android":"levelo://app?vid=9efa0dd4-d057-40ac-ac2d-68b20024c31c","ios":"levelo://app?vid=9efa0dd4-d057-40ac-ac2d-68b20024c31c"},"vehicle_type_id":"4","last_reported":1707242915,"current_range_meters":0,"station_id":"ce4bgip2rcd13ifvqbb0","pricing_plan_id":"free"},{"bike_id":"16cf5350-94d7-4f28-935e-f9bbb4a45752","system_id":"levelo_inurba_marseille","lat":43.304278,"lon":5.388868,"is_reserved":false,"is_disabled":false,"rental_uris":{"android":"levelo://app?vid=16cf5350-94d7-4f28-935e-f9bbb4a45752","ios":"levelo://app?vid=16cf5350-94d7-4f28-935e-f9bbb4a45752"},"vehicle_type_id":"4","last_reported":1707242915,"current_range_meters":26800,"station_id":"ce4bgk12rcd13ifvqbi0","pricing_plan_id":"free"},{"bike_id":"d12de72a-38af-4571-af10-7460c6e5042d","system_id":"levelo_inurba_marseille","lat":43.304274,"lon":5.388873,"is_reserved":false,"is_disabled":false,"rental_uris":{"android":"levelo://app?vid=d12de72a-38af-4571-af10-7460c6e5042d","ios":"levelo://app?vid=d12de72a-38af-4571-af10-7460c6e5042d"},"vehicle_type_id":"4","last_reported":1707242915,"current_range_meters":17600,"station_id":"ce4bgk12rcd13ifvqbi0","pricing_plan_id":"free"},{"bike_id":"1a250681-f4b4-4c91-a9a7-f36075d598a3","system_id":"levelo_inurba_marseille","lat":43.304274,"lon":5.388873,"is_reserved":false,"is_disabled":false,"rental_uris":{"android":"levelo://app?vid=1a250681-f4b4-4c91-a9a7-f36075d598a3","ios":"levelo://app?vid=1a250681-f4b4-4c91-a9a7-f36075d598a3"},"vehicle_type_id":"4","last_reported":1707242915,"current_range_meters":12800,"station_id":"ce4bgk12rcd13ifvqbi0","pricing_plan_id":"free"},{"bike_id":"ce5914a1-fbf0-4ab9-a099-6638f788dc5f","system_id":"levelo_inurba_marseille","lat":43.304274,"lon":5.388873,"is_reserved":false,"is_disabled":false,"rental_uris":{"android":"levelo://app?vid=ce5914a1-fbf0-4ab9-a099-6638f788dc5f","ios":"levelo://app?vid=ce5914a1-fbf0-4ab9-a099-6638f788dc5f"},"vehicle_type_id":"4","last_reported":1707242915,"current_range_meters":20000,"station_id":"ce4bgk12rcd13ifvqbi0","pricing_plan_id":"free"},{"bike_id":"5115fe53-82b1-46e1-83e2-b51b00127d9c","system_id":"levelo_inurba_marseille","lat":43.295748,"lon":5.37522,"is_reserved":false,"is_disabled":false,"rental_uris":{"android":"levelo://app?vid=5115fe53-82b1-46e1-83e2-b51b00127d9c","ios":"levelo://app?vid=5115fe53-82b1-46e1-83e2-b51b00127d9c"},"vehicle_type_id":"4","last_reported":1707242915,"current_range_meters":0,"station_id":"ce4bgh92rcd13ifvqb50","pricing_plan_id":"free"},{"bike_id":"b41ee59d-63ff-4d47-ac16-848845685e71","system_id":"levelo_inurba_marseille","lat":43.304274,"lon":5.388873,"is_reserved":false,"is_disabled":false,"rental_uris":{"android":"levelo://app?vid=b41ee59d-63ff-4d47-ac16-848845685e71","ios":"levelo://app?vid=b41ee59d-63ff-4d47-ac16-848845685e71"},"vehicle_type_id":"4","last_reported":1707242915,"current_range_meters":2000,"station_id":"ce4bgk12rcd13ifvqbi0","pricing_plan_id":"free"},{"bike_id":"c92648a0-07c2-4c03-8a41-edb88d69f0a3","system_id":"levelo_inurba_marseille","lat":43.304274,"lon":5.388873,"is_reserved":false,"is_disabled":false,"rental_uris":{"android":"levelo://app?vid=c92648a0-07c2-4c03-8a41-edb88d69f0a3","ios":"levelo://app?vid=c92648a0-07c2-4c03-8a41-edb88d69f0a3"},"vehicle_type_id":"4","last_reported":1707242915,"current_range_meters":1600,"station_id":"ce4bgk12rcd13ifvqbi0","pricing_plan_id":"free"},{"bike_id":"ee999ebc-e7cd-43dc-acb3-443fcf957414","system_id":"levelo_inurba_marseille","lat":43.304278,"lon":5.388868,"is_reserved":false,"is_disabled":false,"rental_uris":{"android":"levelo://app?vid=ee999ebc-e7cd-43dc-acb3-443fcf957414","ios":"levelo://app?vid=ee999ebc-e7cd-43dc-acb3-443fcf957414"},"vehicle_type_id":"4","last_reported":1707242915,"current_range_meters":10800,"station_id":"ce4bgk12rcd13ifvqbi0","pricing_plan_id":"free"},{"bike_id":"cd3b3dd6-b6c7-4ef7-9b7f-3feb8a84d13d","system_id":"levelo_inurba_marseille","lat":43.304274,"lon":5.388873,"is_reserved":false,"is_disabled":false,"rental_uris":{"android":"levelo://app?vid=cd3b3dd6-b6c7-4ef7-9b7f-3feb8a84d13d","ios":"levelo://app?vid=cd3b3dd6-b6c7-4ef7-9b7f-3feb8a84d13d"},"vehicle_type_id":"4","last_reported":1707242915,"current_range_meters":11600,"station_id":"ce4bgk12rcd13ifvqbi0","pricing_plan_id":"free"},{"bike_id":"3b07cbfa-5c14-4621-b388-c4706716d335","system_id":"levelo_inurba_marseille","lat":43.297457,"lon":5.380787,"is_reserved":false,"is_disabled":false,"rental_uris":{"android":"levelo://app?vid=3b07cbfa-5c14-4621-b388-c4706716d335","ios":"levelo://app?vid=3b07cbfa-5c14-4621-b388-c4706716d335"},"vehicle_type_id":"4","last_reported":1707242915,"current_range_meters":2000,"station_id":"","pricing_plan_id":"free"},{"bike_id":"e026fca0-fd3f-481f-8fe2-3582a63e5618","system_id":"levelo_inurba_marseille","lat":43.295279,"lon":5.375048,"is_reserved":false,"is_disabled":false,"rental_uris":{"android":"levelo://app?vid=e026fca0-fd3f-481f-8fe2-3582a63e5618","ios":"levelo://app?vid=e026fca0-fd3f-481f-8fe2-3582a63e5618"},"vehicle_type_id":"4","last_reported":1707242915,"current_range_meters":0,"station_id":"ce4bgkp2rcd13ifvqbmg","pricing_plan_id":"free"},{"bike_id":"dc0307de-319c-46f2-8b9e-2836adcb9203","system_id":"levelo_inurba_marseille","lat":43.295279,"lon":5.375048,"is_reserved":false,"is_disabled":false,"rental_uris":{"android":"levelo://app?vid=dc0307de-319c-46f2-8b9e-2836adcb9203","ios":"levelo://app?vid=dc0307de-319c-46f2-8b9e-2836adcb9203"},"vehicle_type_id":"4","last_reported":1707242915,"current_range_meters":18400,"station_id":"ce4bgkp2rcd13ifvqbmg","pricing_plan_id":"free"},{"bike_id":"79504888-bb8d-44f6-8d76-3d2899a6bdf2","system_id":"levelo_inurba_marseille","lat":43.295279,"lon":5.375048,"is_reserved":false,"is_disabled":false,"rental_uris":{"android":"levelo://app?vid=79504888-bb8d-44f6-8d76-3d2899a6bdf2","ios":"levelo://app?vid=79504888-bb8d-44f6-8d76-3d2899a6bdf2"},"vehicle_type_id":"4","last_reported":1707242915,"current_range_meters":19600,"station_id":"ce4bgkp2rcd13ifvqbmg","pricing_plan_id":"free"},{"bike_id":"b2180001-e57d-42eb-b057-d6791a6c5f13","system_id":"levelo_inurba_marseille","lat":43.3236,"lon":5.388091,"is_reserved":false,"is_disabled":false,"rental_uris":{"android":"levelo://app?vid=b2180001-e57d-42eb-b057-d6791a6c5f13","ios":"levelo://app?vid=b2180001-e57d-42eb-b057-d6791a6c5f13"},"vehicle_type_id":"4","last_reported":1707242915,"current_range_meters":10400,"station_id":"ce4bhqp2rcd13ifvqhog","pricing_plan_id":"free"},{"bike_id":"7f9c8a85-7606-4041-8b10-e1b75872ef39","system_id":"levelo_inurba_marseille","lat":43.29629,"lon":5.38034,"is_reserved":false,"is_disabled":false,"rental_uris":{"android":"levelo://app?vid=7f9c8a85-7606-4041-8b10-e1b75872ef39","ios":"levelo://app?vid=7f9c8a85-7606-4041-8b10-e1b75872ef39"},"vehicle_type_id":"4","last_reported":1707242915,"current_range_meters":16000,"station_id":"","pricing_plan_id":"free"},{"bike_id":"ed5d3f68-f6ae-4628-a68b-31e6c4c8b97c","system_id":"levelo_inurba_marseille","lat":43.32358,"lon":5.38878,"is_reserved":false,"is_disabled":false,"rental_uris":{"android":"levelo://app?vid=ed5d3f68-f6ae-4628-a68b-31e6c4c8b97c","ios":"levelo://app?vid=ed5d3f68-f6ae-4628-a68b-31e6c4c8b97c"},"vehicle_type_id":"4","last_reported":1707242915,"current_range_meters":1200,"station_id":"ce4bhqp2rcd13ifvqhog","pricing_plan_id":"free"},{"bike_id":"27e7d923-81e0-4c18-9a4b-aeb5de43f55c","system_id":"levelo_inurba_marseille","lat":43.32367,"lon":5.388836,"is_reserved":false,"is_disabled":false,"rental_uris":{"android":"levelo://app?vid=27e7d923-81e0-4c18-9a4b-aeb5de43f55c","ios":"levelo://app?vid=27e7d923-81e0-4c18-9a4b-aeb5de43f55c"},"vehicle_type_id":"4","last_reported":1707242915,"current_range_meters":18800,"station_id":"ce4bhqp2rcd13ifvqhog","pricing_plan_id":"free"},{"bike_id":"8b53a42d-07d1-44d1-95b6-3a8a98cff51c","system_id":"levelo_inurba_marseille","lat":43.32366,"lon":5.38885,"is_reserved":false,"is_disabled":false,"rental_uris":{"android":"levelo://app?vid=8b53a42d-07d1-44d1-95b6-3a8a98cff51c","ios":"levelo://app?vid=8b53a42d-07d1-44d1-95b6-3a8a98cff51c"},"vehicle_type_id":"4","last_reported":1707242915,"current_range_meters":15600,"station_id":"ce4bhqp2rcd13ifvqhog","pricing_plan_id":"free"},{"bike_id":"593326ed-2cc1-41f5-9d97-b4674f983682","system_id":"levelo_inurba_marseille","lat":43.32367,"lon":5.388836,"is_reserved":false,"is_disabled":false,"rental_uris":{"android":"levelo://app?vid=593326ed-2cc1-41f5-9d97-b4674f983682","ios":"levelo://app?vid=593326ed-2cc1-41f5-9d97-b4674f983682"},"vehicle_type_id":"4","last_reported":1707242915,"current_range_meters":9600,"station_id":"ce4bhqp2rcd13ifvqhog","pricing_plan_id":"free"},{"bike_id":"5656df08-aef0-4613-9860-e7caf477ce86","system_id":"levelo_inurba_marseille","lat":43.3237,"lon":5.38887,"is_reserved":false,"is_disabled":false,"rental_uris":{"android":"levelo://app?vid=5656df08-aef0-4613-9860-e7caf477ce86","ios":"levelo://app?vid=5656df08-aef0-4613-9860-e7caf477ce86"},"vehicle_type_id":"4","last_reported":1707242915,"current_range_meters":20000,"station_id":"ce4bhqp2rcd13ifvqhog","pricing_plan_id":"free"},{"bike_id":"0457b434-45e4-4e7f-8b13-ad3297283c5a","system_id":"levelo_inurba_marseille","lat":43.32367,"lon":5.38892,"is_reserved":false,"is_disabled":false,"rental_uris":{"android":"levelo://app?vid=0457b434-45e4-4e7f-8b13-ad3297283c5a","ios":"levelo://app?vid=0457b434-45e4-4e7f-8b13-ad3297283c5a"},"vehicle_type_id":"4","last_reported":1707242915,"current_range_meters":0,"station_id":"ce4bhqp2rcd13ifvqhog","pricing_plan_id":"free"},{"bike_id":"9dfddb66-8bfb-4283-b195-6666f3055fab","system_id":"levelo_inurba_marseille","lat":43.29601,"lon":5.381084,"is_reserved":false,"is_disabled":false,"rental_uris":{"android":"levelo://app?vid=9dfddb66-8bfb-4283-b195-6666f3055fab","ios":"levelo://app?vid=9dfddb66-8bfb-4283-b195-6666f3055fab"},"vehicle_type_id":"4","last_reported":1707242915,"current_range_meters":15600,"station_id":"ce4bgl12rcd13ifvqbo0","pricing_plan_id":"free"},{"bike_id":"43cd15e0-c3c1-4962-aff3-0ec6e8201e67","system_id":"levelo_inurba_marseille","lat":43.29599,"lon":5.38102,"is_reserved":false,"is_disabled":false,"rental_uris":{"android":"levelo://app?vid=43cd15e0-c3c1-4962-aff3-0ec6e8201e67","ios":"levelo://app?vid=43cd15e0-c3c1-4962-aff3-0ec6e8201e67"},"vehicle_type_id":"4","last_reported":1707242915,"current_range_meters":12000,"station_id":"ce4bgl12rcd13ifvqbo0","pricing_plan_id":"free"},{"bike_id":"9b6c01ae-b008-4566-b610-8742c3797745","system_id":"levelo_inurba_marseille","lat":43.2959,"lon":5.38106,"is_reserved":false,"is_disabled":false,"rental_uris":{"android":"levelo://app?vid=9b6c01ae-b008-4566-b610-8742c3797745","ios":"levelo://app?vid=9b6c01ae-b008-4566-b610-8742c3797745"},"vehicle_type_id":"4","last_reported":1707242915,"current_range_meters":3600,"station_id":"ce4bgl12rcd13ifvqbo0","pricing_plan_id":"free"},{"bike_id":"97e59df3-a663-41d2-bf1f-62bc40c4a61d","system_id":"levelo_inurba_marseille","lat":43.29601,"lon":5.381084,"is_reserved":false,"is_disabled":false,"rental_uris":{"android":"levelo://app?vid=97e59df3-a663-41d2-bf1f-62bc40c4a61d","ios":"levelo://app?vid=97e59df3-a663-41d2-bf1f-62bc40c4a61d"},"vehicle_type_id":"4","last_reported":1707242915,"current_range_meters":0,"station_id":"ce4bgl12rcd13ifvqbo0","pricing_plan_id":"free"},{"bike_id":"2699b29a-e584-4936-892c-96f311fc0314","system_id":"levelo_inurba_marseille","lat":43.32367,"lon":5.388836,"is_reserved":false,"is_disabled":false,"rental_uris":{"android":"levelo://app?vid=2699b29a-e584-4936-892c-96f311fc0314","ios":"levelo://app?vid=2699b29a-e584-4936-892c-96f311fc0314"},"vehicle_type_id":"4","last_reported":1707242915,"current_range_meters":6800,"station_id":"ce4bhqp2rcd13ifvqhog","pricing_plan_id":"free"},{"bike_id":"d44d3d18-2a51-4a06-9dd7-92eb625afce0","system_id":"levelo_inurba_marseille","lat":43.293009,"lon":5.374584,"is_reserved":false,"is_disabled":false,"rental_uris":{"android":"levelo://app?vid=d44d3d18-2a51-4a06-9dd7-92eb625afce0","ios":"levelo://app?vid=d44d3d18-2a51-4a06-9dd7-92eb625afce0"},"vehicle_type_id":"4","last_reported":1707242915,"current_range_meters":19200,"station_id":"ce4bgi12rcd13ifvqb70","pricing_plan_id":"free"},{"bike_id":"0d546c7a-04f8-49a2-a740-66b485ea60e3","system_id":"levelo_inurba_marseille","lat":43.293259,"lon":5.371586,"is_reserved":false,"is_disabled":false,"rental_uris":{"android":"levelo://app?vid=0d546c7a-04f8-49a2-a740-66b485ea60e3","ios":"levelo://app?vid=0d546c7a-04f8-49a2-a740-66b485ea60e3"},"vehicle_type_id":"4","last_reported":1707242915,"current_range_meters":24000,"station_id":"ce4bgh92rcd13ifvqb40","pricing_plan_id":"free"},{"bike_id":"6e6393a5-9ff5-4aec-b695-e3bb34499563","system_id":"levelo_inurba_marseille","lat":43.29276,"lon":5.3685,"is_reserved":false,"is_disabled":false,"rental_uris":{"android":"levelo://app?vid=6e6393a5-9ff5-4aec-b695-e3bb34499563","ios":"levelo://app?vid=6e6393a5-9ff5-4aec-b695-e3bb34499563"},"vehicle_type_id":"4","last_reported":1707242915,"current_range_meters":13200,"station_id":"","pricing_plan_id":"free"},{"bike_id":"e171f578-b353-4524-9142-e0ecc9d3855e","system_id":"levelo_inurba_marseille","lat":43.292749,"lon":5.368402,"is_reserved":false,"is_disabled":false,"rental_uris":{"android":"levelo://app?vid=e171f578-b353-4524-9142-e0ecc9d3855e","ios":"levelo://app?vid=e171f578-b353-4524-9142-e0ecc9d3855e"},"vehicle_type_id":"4","last_reported":1707242915,"current_range_meters":3600,"station_id":"ce4bhbp2rcd13ifvqesg","pricing_plan_id":"free"},{"bike_id":"c7231ec3-6954-4688-9632-0295229feb3b","system_id":"levelo_inurba_marseille","lat":43.292749,"lon":5.368402,"is_reserved":false,"is_disabled":false,"rental_uris":{"android":"levelo://app?vid=c7231ec3-6954-4688-9632-0295229feb3b","ios":"levelo://app?vid=c7231ec3-6954-4688-9632-0295229feb3b"},"vehicle_type_id":"4","last_reported":1707242915,"current_range_meters":7600,"station_id":"ce4bhbp2rcd13ifvqesg","pricing_plan_id":"free"},{"bike_id":"636183b4-d34d-479d-9921-3f272356bcf0","system_id":"levelo_inurba_marseille","lat":43.293408,"lon":5.374343,"is_reserved":false,"is_disabled":false,"rental_uris":{"android":"levelo://app?vid=636183b4-d34d-479d-9921-3f272356bcf0","ios":"levelo://app?vid=636183b4-d34d-479d-9921-3f272356bcf0"},"vehicle_type_id":"4","last_reported":1707242915,"current_range_meters":19600,"station_id":"ce4bgi12rcd13ifvqb70","pricing_plan_id":"free"},{"bike_id":"969f5b8c-0771-4fd2-8969-d6a4a2923cb8","system_id":"levelo_inurba_marseille","lat":43.2927,"lon":5.36853,"is_reserved":false,"is_disabled":false,"rental_uris":{"android":"levelo://app?vid=969f5b8c-0771-4fd2-8969-d6a4a2923cb8","ios":"levelo://app?vid=969f5b8c-0771-4fd2-8969-d6a4a2923cb8"},"vehicle_type_id":"4","last_reported":1707242915,"current_range_meters":4800,"station_id":"","pricing_plan_id":"free"},{"bike_id":"3b92645c-f5c7-4533-8731-61566c5fabd9","system_id":"levelo_inurba_marseille","lat":43.29293,"lon":5.37147,"is_reserved":false,"is_disabled":false,"rental_uris":{"android":"levelo://app?vid=3b92645c-f5c7-4533-8731-61566c5fabd9","ios":"levelo://app?vid=3b92645c-f5c7-4533-8731-61566c5fabd9"},"vehicle_type_id":"4","last_reported":1707242915,"current_range_meters":1200,"station_id":"ce4bgh92rcd13ifvqb40","pricing_plan_id":"free"},{"bike_id":"6eee2a96-9c8e-478b-94da-c7715a02025f","system_id":"levelo_inurba_marseille","lat":43.293259,"lon":5.371586,"is_reserved":false,"is_disabled":false,"rental_uris":{"android":"levelo://app?vid=6eee2a96-9c8e-478b-94da-c7715a02025f","ios":"levelo://app?vid=6eee2a96-9c8e-478b-94da-c7715a02025f"},"vehicle_type_id":"4","last_reported":1707242915,"current_range_meters":11600,"station_id":"ce4bgh92rcd13ifvqb40","pricing_plan_id":"free"},{"bike_id":"58ce6322-a791-48f0-8bcc-95a1314180fc","system_id":"levelo_inurba_marseille","lat":43.29551,"lon":5.381633,"is_reserved":false,"is_disabled":false,"rental_uris":{"android":"levelo://app?vid=58ce6322-a791-48f0-8bcc-95a1314180fc","ios":"levelo://app?vid=58ce6322-a791-48f0-8bcc-95a1314180fc"},"vehicle_type_id":"4","last_reported":1707242915,"current_range_meters":30400,"station_id":"","pricing_plan_id":"free"},{"bike_id":"113fd414-3635-4ea9-8cdc-8fa9d2d3ac9e","system_id":"levelo_inurba_marseille","lat":43.293009,"lon":5.374584,"is_reserved":false,"is_disabled":false,"rental_uris":{"android":"levelo://app?vid=113fd414-3635-4ea9-8cdc-8fa9d2d3ac9e","ios":"levelo://app?vid=113fd414-3635-4ea9-8cdc-8fa9d2d3ac9e"},"vehicle_type_id":"4","last_reported":1707242915,"current_range_meters":15600,"station_id":"ce4bgi12rcd13ifvqb70","pricing_plan_id":"free"},{"bike_id":"e38eb346-417d-411a-8de4-0ba05e1d4f45","system_id":"levelo_inurba_marseille","lat":43.29304,"lon":5.3748,"is_reserved":false,"is_disabled":false,"rental_uris":{"android":"levelo://app?vid=e38eb346-417d-411a-8de4-0ba05e1d4f45","ios":"levelo://app?vid=e38eb346-417d-411a-8de4-0ba05e1d4f45"},"vehicle_type_id":"4","last_reported":1707242915,"current_range_meters":0,"station_id":"ce4bgi12rcd13ifvqb70","pricing_plan_id":"free"},{"bike_id":"d2446cd3-9f75-4f47-8350-7a3d853b997b","system_id":"levelo_inurba_marseille","lat":43.293,"lon":5.37466,"is_reserved":false,"is_disabled":false,"rental_uris":{"android":"levelo://app?vid=d2446cd3-9f75-4f47-8350-7a3d853b997b","ios":"levelo://app?vid=d2446cd3-9f75-4f47-8350-7a3d853b997b"},"vehicle_type_id":"4","last_reported":1707242915,"current_range_meters":6800,"station_id":"ce4bgi12rcd13ifvqb70","pricing_plan_id":"free"},{"bike_id":"1710e1a6-da8e-41ac-8eb4-42653750c2ea","system_id":"levelo_inurba_marseille","lat":43.293009,"lon":5.374584,"is_reserved":false,"is_disabled":false,"rental_uris":{"android":"levelo://app?vid=1710e1a6-da8e-41ac-8eb4-42653750c2ea","ios":"levelo://app?vid=1710e1a6-da8e-41ac-8eb4-42653750c2ea"},"vehicle_type_id":"4","last_reported":1707242915,"current_range_meters":8000,"station_id":"ce4bgi12rcd13ifvqb70","pricing_plan_id":"free"},{"bike_id":"92332a06-0058-4c88-b4b0-16e441133591","system_id":"levelo_inurba_marseille","lat":43.2936,"lon":5.37835,"is_reserved":false,"is_disabled":false,"rental_uris":{"android":"levelo://app?vid=92332a06-0058-4c88-b4b0-16e441133591","ios":"levelo://app?vid=92332a06-0058-4c88-b4b0-16e441133591"},"vehicle_type_id":"4","last_reported":1707242915,"current_range_meters":13200,"station_id":"ce4bgjh2rcd13ifvqbf0","pricing_plan_id":"free"},{"bike_id":"3b87a3a4-9c1c-4cc5-a44f-c1213be9c8ae","system_id":"levelo_inurba_marseille","lat":43.2936,"lon":5.37835,"is_reserved":false,"is_disabled":false,"rental_uris":{"android":"levelo://app?vid=3b87a3a4-9c1c-4cc5-a44f-c1213be9c8ae","ios":"levelo://app?vid=3b87a3a4-9c1c-4cc5-a44f-c1213be9c8ae"},"vehicle_type_id":"4","last_reported":1707242915,"current_range_meters":21200,"station_id":"ce4bgjh2rcd13ifvqbf0","pricing_plan_id":"free"},{"bike_id":"5b08f849-ad6d-481e-8168-8f7391220200","system_id":"levelo_inurba_marseille","lat":43.2936,"lon":5.37835,"is_reserved":false,"is_disabled":false,"rental_uris":{"android":"levelo://app?vid=5b08f849-ad6d-481e-8168-8f7391220200","ios":"levelo://app?vid=5b08f849-ad6d-481e-8168-8f7391220200"},"vehicle_type_id":"4","last_reported":1707242915,"current_range_meters":12800,"station_id":"ce4bgjh2rcd13ifvqbf0","pricing_plan_id":"free"},{"bike_id":"426e9288-f914-43fe-a658-bdf1a0590ffb","system_id":"levelo_inurba_marseille","lat":43.302992,"lon":5.392136,"is_reserved":false,"is_disabled":false,"rental_uris":{"android":"levelo://app?vid=426e9288-f914-43fe-a658-bdf1a0590ffb","ios":"levelo://app?vid=426e9288-f914-43fe-a658-bdf1a0590ffb"},"vehicle_type_id":"4","last_reported":1707242915,"current_range_meters":16400,"station_id":"ce4bgkh2rcd13ifvqbk0","pricing_plan_id":"free"},{"bike_id":"9ad25619-709a-4825-a40c-9982b4d9c3db","system_id":"levelo_inurba_marseille","lat":43.2936,"lon":5.37835,"is_reserved":false,"is_disabled":false,"rental_uris":{"android":"levelo://app?vid=9ad25619-709a-4825-a40c-9982b4d9c3db","ios":"levelo://app?vid=9ad25619-709a-4825-a40c-9982b4d9c3db"},"vehicle_type_id":"4","last_reported":1707242915,"current_range_meters":16800,"station_id":"ce4bgjh2rcd13ifvqbf0","pricing_plan_id":"free"},{"bike_id":"286b1a03-e549-4802-982a-242b9e310c4b","system_id":"levelo_inurba_marseille","lat":43.292311,"lon":5.360731,"is_reserved":false,"is_disabled":false,"rental_uris":{"android":"levelo://app?vid=286b1a03-e549-4802-982a-242b9e310c4b","ios":"levelo://app?vid=286b1a03-e549-4802-982a-242b9e310c4b"},"vehicle_type_id":"4","last_reported":1707242915,"current_range_meters":6000,"station_id":"ce4bhbh2rcd13ifvqeqg","pricing_plan_id":"free"},{"bike_id":"2c557ed1-1b3f-4c4f-abd3-515cdd524eac","system_id":"levelo_inurba_marseille","lat":43.30085,"lon":5.390856,"is_reserved":false,"is_disabled":false,"rental_uris":{"android":"levelo://app?vid=2c557ed1-1b3f-4c4f-abd3-515cdd524eac","ios":"levelo://app?vid=2c557ed1-1b3f-4c4f-abd3-515cdd524eac"},"vehicle_type_id":"4","last_reported":1707242915,"current_range_meters":19600,"station_id":"ce4bh192rcd13ifvqdb0","pricing_plan_id":"free"},{"bike_id":"6c9be7ad-6ff9-4aad-ac53-6a802f19da0d","system_id":"levelo_inurba_marseille","lat":43.300852,"lon":5.390859,"is_reserved":false,"is_disabled":false,"rental_uris":{"android":"levelo://app?vid=6c9be7ad-6ff9-4aad-ac53-6a802f19da0d","ios":"levelo://app?vid=6c9be7ad-6ff9-4aad-ac53-6a802f19da0d"},"vehicle_type_id":"4","last_reported":1707242915,"current_range_meters":0,"station_id":"ce4bh192rcd13ifvqdb0","pricing_plan_id":"free"},{"bike_id":"bcb2f130-b4de-4c57-b85d-c82746ceaf90","system_id":"levelo_inurba_marseille","lat":43.292711,"lon":5.376323,"is_reserved":false,"is_disabled":false,"rental_uris":{"android":"levelo://app?vid=bcb2f130-b4de-4c57-b85d-c82746ceaf90","ios":"levelo://app?vid=bcb2f130-b4de-4c57-b85d-c82746ceaf90"},"vehicle_type_id":"4","last_reported":1707242915,"current_range_meters":400,"station_id":"","pricing_plan_id":"free"},{"bike_id":"ef9a195a-2426-4756-a1cd-7077e67863c6","system_id":"levelo_inurba_marseille","lat":43.292618,"lon":5.376203,"is_reserved":false,"is_disabled":false,"rental_uris":{"android":"levelo://app?vid=ef9a195a-2426-4756-a1cd-7077e67863c6","ios":"levelo://app?vid=ef9a195a-2426-4756-a1cd-7077e67863c6"},"vehicle_type_id":"4","last_reported":1707242915,"current_range_meters":0,"station_id":"","pricing_plan_id":"free"},{"bike_id":"016eed1c-23ac-4386-995f-da799d52f6ce","system_id":"levelo_inurba_marseille","lat":43.291671,"lon":5.371575,"is_reserved":false,"is_disabled":false,"rental_uris":{"android":"levelo://app?vid=016eed1c-23ac-4386-995f-da799d52f6ce","ios":"levelo://app?vid=016eed1c-23ac-4386-995f-da799d52f6ce"},"vehicle_type_id":"4","last_reported":1707242915,"current_range_meters":8000,"station_id":"ce4bha92rcd13ifvqeh0","pricing_plan_id":"free"},{"bike_id":"a119ea9b-87bc-4a44-b638-ac09c79b9e76","system_id":"levelo_inurba_marseille","lat":43.298764,"lon":5.388973,"is_reserved":false,"is_disabled":false,"rental_uris":{"android":"levelo://app?vid=a119ea9b-87bc-4a44-b638-ac09c79b9e76","ios":"levelo://app?vid=a119ea9b-87bc-4a44-b638-ac09c79b9e76"},"vehicle_type_id":"4","last_reported":1707242915,"current_range_meters":0,"station_id":"ce4bh392rcd13ifvqdl0","pricing_plan_id":"free"},{"bike_id":"08df73d5-10a0-4ecb-8630-2492ba888ae3","system_id":"levelo_inurba_marseille","lat":43.29885,"lon":5.38922,"is_reserved":false,"is_disabled":false,"rental_uris":{"android":"levelo://app?vid=08df73d5-10a0-4ecb-8630-2492ba888ae3","ios":"levelo://app?vid=08df73d5-10a0-4ecb-8630-2492ba888ae3"},"vehicle_type_id":"4","last_reported":1707242915,"current_range_meters":10000,"station_id":"ce4bh392rcd13ifvqdl0","pricing_plan_id":"free"},{"bike_id":"00561447-ee10-4eb0-b131-5a93bc3b9d70","system_id":"levelo_inurba_marseille","lat":43.29873,"lon":5.38917,"is_reserved":false,"is_disabled":false,"rental_uris":{"android":"levelo://app?vid=00561447-ee10-4eb0-b131-5a93bc3b9d70","ios":"levelo://app?vid=00561447-ee10-4eb0-b131-5a93bc3b9d70"},"vehicle_type_id":"4","last_reported":1707242915,"current_range_meters":7600,"station_id":"ce4bh392rcd13ifvqdl0","pricing_plan_id":"free"},{"bike_id":"33e84bf1-d164-4ddd-a2ed-5ca5de9ef1f1","system_id":"levelo_inurba_marseille","lat":43.295659,"lon":5.38485,"is_reserved":false,"is_disabled":false,"rental_uris":{"android":"levelo://app?vid=33e84bf1-d164-4ddd-a2ed-5ca5de9ef1f1","ios":"levelo://app?vid=33e84bf1-d164-4ddd-a2ed-5ca5de9ef1f1"},"vehicle_type_id":"4","last_reported":1707242915,"current_range_meters":1600,"station_id":"ce4bgl12rcd13ifvqbo0","pricing_plan_id":"free"},{"bike_id":"f302b8ed-7237-4fd1-bf56-2b374a6499a9","system_id":"levelo_inurba_marseille","lat":43.291994,"lon":5.357886,"is_reserved":false,"is_disabled":false,"rental_uris":{"android":"levelo://app?vid=f302b8ed-7237-4fd1-bf56-2b374a6499a9","ios":"levelo://app?vid=f302b8ed-7237-4fd1-bf56-2b374a6499a9"},"vehicle_type_id":"4","last_reported":1707242915,"current_range_meters":27600,"station_id":"ce4bhb12rcd13ifvqel0","pricing_plan_id":"free"},{"bike_id":"5595d1f6-720f-4471-9e3d-e0255729bbee","system_id":"levelo_inurba_marseille","lat":43.313291,"lon":5.396838,"is_reserved":false,"is_disabled":false,"rental_uris":{"android":"levelo://app?vid=5595d1f6-720f-4471-9e3d-e0255729bbee","ios":"levelo://app?vid=5595d1f6-720f-4471-9e3d-e0255729bbee"},"vehicle_type_id":"4","last_reported":1707242915,"current_range_meters":31200,"station_id":"ce4bgvp2rcd13ifvqcu0","pricing_plan_id":"free"},{"bike_id":"d35e5a1f-caa2-40a6-acc0-a0667c5b74de","system_id":"levelo_inurba_marseille","lat":43.313291,"lon":5.396838,"is_reserved":false,"is_disabled":false,"rental_uris":{"android":"levelo://app?vid=d35e5a1f-caa2-40a6-acc0-a0667c5b74de","ios":"levelo://app?vid=d35e5a1f-caa2-40a6-acc0-a0667c5b74de"},"vehicle_type_id":"4","last_reported":1707242915,"current_range_meters":22400,"station_id":"ce4bgvp2rcd13ifvqcu0","pricing_plan_id":"free"},{"bike_id":"c0f3e4d9-3ac1-48a0-8f12-6fe148c7f075","system_id":"levelo_inurba_marseille","lat":43.313291,"lon":5.396838,"is_reserved":false,"is_disabled":false,"rental_uris":{"android":"levelo://app?vid=c0f3e4d9-3ac1-48a0-8f12-6fe148c7f075","ios":"levelo://app?vid=c0f3e4d9-3ac1-48a0-8f12-6fe148c7f075"},"vehicle_type_id":"4","last_reported":1707242915,"current_range_meters":20400,"station_id":"ce4bgvp2rcd13ifvqcu0","pricing_plan_id":"free"},{"bike_id":"dd2bb48a-1a28-49e0-a92a-4b79c31be3e4","system_id":"levelo_inurba_marseille","lat":43.31327,"lon":5.39692,"is_reserved":false,"is_disabled":false,"rental_uris":{"android":"levelo://app?vid=dd2bb48a-1a28-49e0-a92a-4b79c31be3e4","ios":"levelo://app?vid=dd2bb48a-1a28-49e0-a92a-4b79c31be3e4"},"vehicle_type_id":"4","last_reported":1707242915,"current_range_meters":1600,"station_id":"ce4bgvp2rcd13ifvqcu0","pricing_plan_id":"free"},{"bike_id":"e7fe5c6d-9452-4b58-9e12-58bb7769d8cf","system_id":"levelo_inurba_marseille","lat":43.29197,"lon":5.376173,"is_reserved":false,"is_disabled":false,"rental_uris":{"android":"levelo://app?vid=e7fe5c6d-9452-4b58-9e12-58bb7769d8cf","ios":"levelo://app?vid=e7fe5c6d-9452-4b58-9e12-58bb7769d8cf"},"vehicle_type_id":"4","last_reported":1707242915,"current_range_meters":20400,"station_id":"","pricing_plan_id":"free"},{"bike_id":"6ff4414e-1536-41bd-926d-71c79dfc563e","system_id":"levelo_inurba_marseille","lat":43.313291,"lon":5.396838,"is_reserved":false,"is_disabled":false,"rental_uris":{"android":"levelo://app?vid=6ff4414e-1536-41bd-926d-71c79dfc563e","ios":"levelo://app?vid=6ff4414e-1536-41bd-926d-71c79dfc563e"},"vehicle_type_id":"4","last_reported":1707242915,"current_range_meters":31200,"station_id":"ce4bgvp2rcd13ifvqcu0","pricing_plan_id":"free"},{"bike_id":"2b593266-fa57-48e1-abe3-84e731e5edd5","system_id":"levelo_inurba_marseille","lat":43.313291,"lon":5.396838,"is_reserved":false,"is_disabled":false,"rental_uris":{"android":"levelo://app?vid=2b593266-fa57-48e1-abe3-84e731e5edd5","ios":"levelo://app?vid=2b593266-fa57-48e1-abe3-84e731e5edd5"},"vehicle_type_id":"4","last_reported":1707242915,"current_range_meters":26400,"station_id":"ce4bgvp2rcd13ifvqcu0","pricing_plan_id":"free"},{"bike_id":"a5694600-38e4-4956-8e0a-9ad71ee47efb","system_id":"levelo_inurba_marseille","lat":43.313291,"lon":5.396838,"is_reserved":false,"is_disabled":false,"rental_uris":{"android":"levelo://app?vid=a5694600-38e4-4956-8e0a-9ad71ee47efb","ios":"levelo://app?vid=a5694600-38e4-4956-8e0a-9ad71ee47efb"},"vehicle_type_id":"4","last_reported":1707242915,"current_range_meters":3200,"station_id":"ce4bgvp2rcd13ifvqcu0","pricing_plan_id":"free"},{"bike_id":"37861716-6d5c-4ec8-be0a-fdf775ed8bb1","system_id":"levelo_inurba_marseille","lat":43.313291,"lon":5.396838,"is_reserved":false,"is_disabled":false,"rental_uris":{"android":"levelo://app?vid=37861716-6d5c-4ec8-be0a-fdf775ed8bb1","ios":"levelo://app?vid=37861716-6d5c-4ec8-be0a-fdf775ed8bb1"},"vehicle_type_id":"4","last_reported":1707242915,"current_range_meters":28000,"station_id":"ce4bgvp2rcd13ifvqcu0","pricing_plan_id":"free"},{"bike_id":"6122d0f1-94a6-40c9-85e2-93469815683a","system_id":"levelo_inurba_marseille","lat":43.295534,"lon":5.3855,"is_reserved":false,"is_disabled":false,"rental_uris":{"android":"levelo://app?vid=6122d0f1-94a6-40c9-85e2-93469815683a","ios":"levelo://app?vid=6122d0f1-94a6-40c9-85e2-93469815683a"},"vehicle_type_id":"4","last_reported":1707242915,"current_range_meters":0,"station_id":"ce4bgih2rcd13ifvqba0","pricing_plan_id":"free"},{"bike_id":"6778677d-c908-48a1-9478-139eb986f887","system_id":"levelo_inurba_marseille","lat":43.313291,"lon":5.396838,"is_reserved":false,"is_disabled":false,"rental_uris":{"android":"levelo://app?vid=6778677d-c908-48a1-9478-139eb986f887","ios":"levelo://app?vid=6778677d-c908-48a1-9478-139eb986f887"},"vehicle_type_id":"4","last_reported":1707242915,"current_range_meters":19600,"station_id":"ce4bgvp2rcd13ifvqcu0","pricing_plan_id":"free"},{"bike_id":"6d436c31-e76c-4d61-9de3-9549ec74cb3f","system_id":"levelo_inurba_marseille","lat":43.313291,"lon":5.396838,"is_reserved":false,"is_disabled":false,"rental_uris":{"android":"levelo://app?vid=6d436c31-e76c-4d61-9de3-9549ec74cb3f","ios":"levelo://app?vid=6d436c31-e76c-4d61-9de3-9549ec74cb3f"},"vehicle_type_id":"4","last_reported":1707242915,"current_range_meters":16000,"station_id":"ce4bgvp2rcd13ifvqcu0","pricing_plan_id":"free"},{"bike_id":"627dffa6-e62a-40c4-b8bc-7c8c425c9869","system_id":"levelo_inurba_marseille","lat":43.309038,"lon":5.396546,"is_reserved":false,"is_disabled":false,"rental_uris":{"android":"levelo://app?vid=627dffa6-e62a-40c4-b8bc-7c8c425c9869","ios":"levelo://app?vid=627dffa6-e62a-40c4-b8bc-7c8c425c9869"},"vehicle_type_id":"4","last_reported":1707242915,"current_range_meters":20400,"station_id":"ce4bh012rcd13ifvqcv0","pricing_plan_id":"free"},{"bike_id":"f9eb26bb-df26-4fd6-b6ef-04f3b96e514a","system_id":"levelo_inurba_marseille","lat":43.309038,"lon":5.396546,"is_reserved":false,"is_disabled":false,"rental_uris":{"android":"levelo://app?vid=f9eb26bb-df26-4fd6-b6ef-04f3b96e514a","ios":"levelo://app?vid=f9eb26bb-df26-4fd6-b6ef-04f3b96e514a"},"vehicle_type_id":"4","last_reported":1707242915,"current_range_meters":12400,"station_id":"ce4bh012rcd13ifvqcv0","pricing_plan_id":"free"},{"bike_id":"a6509c96-19a6-4859-af4b-1a5ab9e55e3d","system_id":"levelo_inurba_marseille","lat":43.31322,"lon":5.39702,"is_reserved":false,"is_disabled":false,"rental_uris":{"android":"levelo://app?vid=a6509c96-19a6-4859-af4b-1a5ab9e55e3d","ios":"levelo://app?vid=a6509c96-19a6-4859-af4b-1a5ab9e55e3d"},"vehicle_type_id":"4","last_reported":1707242915,"current_range_meters":22000,"station_id":"ce4bgvp2rcd13ifvqcu0","pricing_plan_id":"free"},{"bike_id":"0c7b6894-87eb-443c-9da3-dc9be332ca2d","system_id":"levelo_inurba_marseille","lat":43.313291,"lon":5.396838,"is_reserved":false,"is_disabled":false,"rental_uris":{"android":"levelo://app?vid=0c7b6894-87eb-443c-9da3-dc9be332ca2d","ios":"levelo://app?vid=0c7b6894-87eb-443c-9da3-dc9be332ca2d"},"vehicle_type_id":"4","last_reported":1707242915,"current_range_meters":31200,"station_id":"ce4bgvp2rcd13ifvqcu0","pricing_plan_id":"free"},{"bike_id":"a293a0b2-8b20-499f-a068-9b4fa7dc5bf4","system_id":"levelo_inurba_marseille","lat":43.30889,"lon":5.39656,"is_reserved":false,"is_disabled":false,"rental_uris":{"android":"levelo://app?vid=a293a0b2-8b20-499f-a068-9b4fa7dc5bf4","ios":"levelo://app?vid=a293a0b2-8b20-499f-a068-9b4fa7dc5bf4"},"vehicle_type_id":"4","last_reported":1707242915,"current_range_meters":28800,"station_id":"","pricing_plan_id":"free"},{"bike_id":"57d223c9-c636-4d36-99d2-fc36d7fce21a","system_id":"levelo_inurba_marseille","lat":43.29529,"lon":5.385581,"is_reserved":false,"is_disabled":false,"rental_uris":{"android":"levelo://app?vid=57d223c9-c636-4d36-99d2-fc36d7fce21a","ios":"levelo://app?vid=57d223c9-c636-4d36-99d2-fc36d7fce21a"},"vehicle_type_id":"4","last_reported":1707242915,"current_range_meters":8000,"station_id":"ce4bgih2rcd13ifvqba0","pricing_plan_id":"free"},{"bike_id":"787be47b-261f-41e9-b2fb-42c5a77a5f09","system_id":"levelo_inurba_marseille","lat":43.29529,"lon":5.385581,"is_reserved":false,"is_disabled":false,"rental_uris":{"android":"levelo://app?vid=787be47b-261f-41e9-b2fb-42c5a77a5f09","ios":"levelo://app?vid=787be47b-261f-41e9-b2fb-42c5a77a5f09"},"vehicle_type_id":"4","last_reported":1707242915,"current_range_meters":12800,"station_id":"ce4bgih2rcd13ifvqba0","pricing_plan_id":"free"},{"bike_id":"b50892ac-9d06-4ba2-be6a-a8128ba98e95","system_id":"levelo_inurba_marseille","lat":43.29078,"lon":5.37173,"is_reserved":false,"is_disabled":false,"rental_uris":{"android":"levelo://app?vid=b50892ac-9d06-4ba2-be6a-a8128ba98e95","ios":"levelo://app?vid=b50892ac-9d06-4ba2-be6a-a8128ba98e95"},"vehicle_type_id":"4","last_reported":1707242915,"current_range_meters":4000,"station_id":"","pricing_plan_id":"free"},{"bike_id":"16174914-06d5-494f-97f2-d928de9fd362","system_id":"levelo_inurba_marseille","lat":43.290779,"lon":5.371482,"is_reserved":false,"is_disabled":false,"rental_uris":{"android":"levelo://app?vid=16174914-06d5-494f-97f2-d928de9fd362","ios":"levelo://app?vid=16174914-06d5-494f-97f2-d928de9fd362"},"vehicle_type_id":"4","last_reported":1707242915,"current_range_meters":16000,"station_id":"ce4bh5p2rcd13ifvqe4g","pricing_plan_id":"free"},{"bike_id":"51bdf9ff-b035-434a-a13a-5b30e5c7522d","system_id":"levelo_inurba_marseille","lat":43.302008,"lon":5.394694,"is_reserved":false,"is_disabled":false,"rental_uris":{"android":"levelo://app?vid=51bdf9ff-b035-434a-a13a-5b30e5c7522d","ios":"levelo://app?vid=51bdf9ff-b035-434a-a13a-5b30e5c7522d"},"vehicle_type_id":"4","last_reported":1707242915,"current_range_meters":3600,"station_id":"ce4bh0p2rcd13ifvqd70","pricing_plan_id":"free"},{"bike_id":"318537f0-b5af-4e0d-b559-01d25a4d2bf7","system_id":"levelo_inurba_marseille","lat":43.294162,"lon":5.386292,"is_reserved":false,"is_disabled":false,"rental_uris":{"android":"levelo://app?vid=318537f0-b5af-4e0d-b559-01d25a4d2bf7","ios":"levelo://app?vid=318537f0-b5af-4e0d-b559-01d25a4d2bf7"},"vehicle_type_id":"4","last_reported":1707242915,"current_range_meters":1600,"station_id":"ce4bh2h2rcd13ifvqdh0","pricing_plan_id":"free"},{"bike_id":"b0e446c7-ef10-4d20-b6a8-8ad8bee6d83b","system_id":"levelo_inurba_marseille","lat":43.294162,"lon":5.386292,"is_reserved":false,"is_disabled":false,"rental_uris":{"android":"levelo://app?vid=b0e446c7-ef10-4d20-b6a8-8ad8bee6d83b","ios":"levelo://app?vid=b0e446c7-ef10-4d20-b6a8-8ad8bee6d83b"},"vehicle_type_id":"4","last_reported":1707242915,"current_range_meters":11200,"station_id":"ce4bh2h2rcd13ifvqdh0","pricing_plan_id":"free"},{"bike_id":"67412c0d-d378-4939-8b89-c7f7d0b671a9","system_id":"levelo_inurba_marseille","lat":43.294162,"lon":5.386292,"is_reserved":false,"is_disabled":false,"rental_uris":{"android":"levelo://app?vid=67412c0d-d378-4939-8b89-c7f7d0b671a9","ios":"levelo://app?vid=67412c0d-d378-4939-8b89-c7f7d0b671a9"},"vehicle_type_id":"4","last_reported":1707242915,"current_range_meters":0,"station_id":"ce4bh2h2rcd13ifvqdh0","pricing_plan_id":"free"},{"bike_id":"6e4ecf83-b5f5-4cfc-a072-d7f0732d562e","system_id":"levelo_inurba_marseille","lat":43.290631,"lon":5.359244,"is_reserved":false,"is_disabled":false,"rental_uris":{"android":"levelo://app?vid=6e4ecf83-b5f5-4cfc-a072-d7f0732d562e","ios":"levelo://app?vid=6e4ecf83-b5f5-4cfc-a072-d7f0732d562e"},"vehicle_type_id":"4","last_reported":1707242915,"current_range_meters":30400,"station_id":"ce4bha92rcd13ifvqeg0","pricing_plan_id":"free"},{"bike_id":"5df12e7f-0e4e-416f-8a8a-457d67375289","system_id":"levelo_inurba_marseille","lat":43.29065,"lon":5.37568,"is_reserved":false,"is_disabled":false,"rental_uris":{"android":"levelo://app?vid=5df12e7f-0e4e-416f-8a8a-457d67375289","ios":"levelo://app?vid=5df12e7f-0e4e-416f-8a8a-457d67375289"},"vehicle_type_id":"4","last_reported":1707242915,"current_range_meters":22000,"station_id":"ce4bh692rcd13ifvqe90","pricing_plan_id":"free"},{"bike_id":"43790687-1344-4845-867a-fc4dad2372dc","system_id":"levelo_inurba_marseille","lat":43.290631,"lon":5.359244,"is_reserved":false,"is_disabled":false,"rental_uris":{"android":"levelo://app?vid=43790687-1344-4845-867a-fc4dad2372dc","ios":"levelo://app?vid=43790687-1344-4845-867a-fc4dad2372dc"},"vehicle_type_id":"4","last_reported":1707242915,"current_range_meters":23600,"station_id":"ce4bha92rcd13ifvqeg0","pricing_plan_id":"free"},{"bike_id":"ec50c226-a396-4d80-852c-03f173d6e4b8","system_id":"levelo_inurba_marseille","lat":43.294153,"lon":5.386305,"is_reserved":false,"is_disabled":false,"rental_uris":{"android":"levelo://app?vid=ec50c226-a396-4d80-852c-03f173d6e4b8","ios":"levelo://app?vid=ec50c226-a396-4d80-852c-03f173d6e4b8"},"vehicle_type_id":"4","last_reported":1707242915,"current_range_meters":0,"station_id":"ce4bh2h2rcd13ifvqdh0","pricing_plan_id":"free"},{"bike_id":"4d4bc9ff-8c57-4f85-af3c-e6b553023563","system_id":"levelo_inurba_marseille","lat":43.294153,"lon":5.386305,"is_reserved":false,"is_disabled":false,"rental_uris":{"android":"levelo://app?vid=4d4bc9ff-8c57-4f85-af3c-e6b553023563","ios":"levelo://app?vid=4d4bc9ff-8c57-4f85-af3c-e6b553023563"},"vehicle_type_id":"4","last_reported":1707242915,"current_range_meters":21600,"station_id":"ce4bh2h2rcd13ifvqdh0","pricing_plan_id":"free"},{"bike_id":"b712e999-5c09-4208-99df-ab9d2bc67b7b","system_id":"levelo_inurba_marseille","lat":43.294153,"lon":5.386305,"is_reserved":false,"is_disabled":false,"rental_uris":{"android":"levelo://app?vid=b712e999-5c09-4208-99df-ab9d2bc67b7b","ios":"levelo://app?vid=b712e999-5c09-4208-99df-ab9d2bc67b7b"},"vehicle_type_id":"4","last_reported":1707242915,"current_range_meters":26000,"station_id":"ce4bh2h2rcd13ifvqdh0","pricing_plan_id":"free"},{"bike_id":"a62fc8e4-3f94-43ea-a4fc-b549aef112d4","system_id":"levelo_inurba_marseille","lat":43.294257,"lon":5.386267,"is_reserved":false,"is_disabled":false,"rental_uris":{"android":"levelo://app?vid=a62fc8e4-3f94-43ea-a4fc-b549aef112d4","ios":"levelo://app?vid=a62fc8e4-3f94-43ea-a4fc-b549aef112d4"},"vehicle_type_id":"4","last_reported":1707242915,"current_range_meters":2000,"station_id":"ce4bh2h2rcd13ifvqdh0","pricing_plan_id":"free"},{"bike_id":"00e483d9-09a3-4b9b-bce2-1520a03f6f0d","system_id":"levelo_inurba_marseille","lat":43.290327,"lon":5.375711,"is_reserved":false,"is_disabled":false,"rental_uris":{"android":"levelo://app?vid=00e483d9-09a3-4b9b-bce2-1520a03f6f0d","ios":"levelo://app?vid=00e483d9-09a3-4b9b-bce2-1520a03f6f0d"},"vehicle_type_id":"4","last_reported":1707242915,"current_range_meters":800,"station_id":"ce4bh692rcd13ifvqe90","pricing_plan_id":"free"},{"bike_id":"b5c26910-5f8f-4617-b8f2-5f4625b7340a","system_id":"levelo_inurba_marseille","lat":43.29422,"lon":5.38628,"is_reserved":false,"is_disabled":false,"rental_uris":{"android":"levelo://app?vid=b5c26910-5f8f-4617-b8f2-5f4625b7340a","ios":"levelo://app?vid=b5c26910-5f8f-4617-b8f2-5f4625b7340a"},"vehicle_type_id":"4","last_reported":1707242915,"current_range_meters":0,"station_id":"ce4bh2h2rcd13ifvqdh0","pricing_plan_id":"free"},{"bike_id":"818333b0-3f6d-4334-a383-5ce16bf5be10","system_id":"levelo_inurba_marseille","lat":43.294162,"lon":5.386292,"is_reserved":false,"is_disabled":false,"rental_uris":{"android":"levelo://app?vid=818333b0-3f6d-4334-a383-5ce16bf5be10","ios":"levelo://app?vid=818333b0-3f6d-4334-a383-5ce16bf5be10"},"vehicle_type_id":"4","last_reported":1707242915,"current_range_meters":25600,"station_id":"ce4bh2h2rcd13ifvqdh0","pricing_plan_id":"free"},{"bike_id":"657bb025-1891-4024-93d6-7edbaddcaef2","system_id":"levelo_inurba_marseille","lat":43.294162,"lon":5.386292,"is_reserved":false,"is_disabled":false,"rental_uris":{"android":"levelo://app?vid=657bb025-1891-4024-93d6-7edbaddcaef2","ios":"levelo://app?vid=657bb025-1891-4024-93d6-7edbaddcaef2"},"vehicle_type_id":"4","last_reported":1707242915,"current_range_meters":4000,"station_id":"ce4bh2h2rcd13ifvqdh0","pricing_plan_id":"free"},{"bike_id":"f53c9664-dff6-4163-a34e-240b29756a9a","system_id":"levelo_inurba_marseille","lat":43.294162,"lon":5.386292,"is_reserved":false,"is_disabled":false,"rental_uris":{"android":"levelo://app?vid=f53c9664-dff6-4163-a34e-240b29756a9a","ios":"levelo://app?vid=f53c9664-dff6-4163-a34e-240b29756a9a"},"vehicle_type_id":"4","last_reported":1707242915,"current_range_meters":6400,"station_id":"ce4bh2h2rcd13ifvqdh0","pricing_plan_id":"free"},{"bike_id":"435f5838-7ee9-4aa7-8ddb-eb2dbaec6a92","system_id":"levelo_inurba_marseille","lat":43.294162,"lon":5.386292,"is_reserved":false,"is_disabled":false,"rental_uris":{"android":"levelo://app?vid=435f5838-7ee9-4aa7-8ddb-eb2dbaec6a92","ios":"levelo://app?vid=435f5838-7ee9-4aa7-8ddb-eb2dbaec6a92"},"vehicle_type_id":"4","last_reported":1707242915,"current_range_meters":400,"station_id":"ce4bh2h2rcd13ifvqdh0","pricing_plan_id":"free"},{"bike_id":"ae83824c-cd7a-4bc2-ac34-b19d06c5e228","system_id":"levelo_inurba_marseille","lat":43.294162,"lon":5.386292,"is_reserved":false,"is_disabled":false,"rental_uris":{"android":"levelo://app?vid=ae83824c-cd7a-4bc2-ac34-b19d06c5e228","ios":"levelo://app?vid=ae83824c-cd7a-4bc2-ac34-b19d06c5e228"},"vehicle_type_id":"4","last_reported":1707242915,"current_range_meters":6000,"station_id":"ce4bh2h2rcd13ifvqdh0","pricing_plan_id":"free"},{"bike_id":"9f8e61c5-d6db-4120-a494-ec2fa9bb653b","system_id":"levelo_inurba_marseille","lat":43.294162,"lon":5.386292,"is_reserved":false,"is_disabled":false,"rental_uris":{"android":"levelo://app?vid=9f8e61c5-d6db-4120-a494-ec2fa9bb653b","ios":"levelo://app?vid=9f8e61c5-d6db-4120-a494-ec2fa9bb653b"},"vehicle_type_id":"4","last_reported":1707242915,"current_range_meters":3600,"station_id":"ce4bh2h2rcd13ifvqdh0","pricing_plan_id":"free"},{"bike_id":"0e2b7f6d-5b87-4d3b-8e2e-125ed1268b9f","system_id":"levelo_inurba_marseille","lat":43.294162,"lon":5.386292,"is_reserved":false,"is_disabled":false,"rental_uris":{"android":"levelo://app?vid=0e2b7f6d-5b87-4d3b-8e2e-125ed1268b9f","ios":"levelo://app?vid=0e2b7f6d-5b87-4d3b-8e2e-125ed1268b9f"},"vehicle_type_id":"4","last_reported":1707242915,"current_range_meters":13200,"station_id":"ce4bh2h2rcd13ifvqdh0","pricing_plan_id":"free"},{"bike_id":"94405626-e966-43a0-bd8b-42dd0eef2538","system_id":"levelo_inurba_marseille","lat":43.289184,"lon":5.366408,"is_reserved":false,"is_disabled":false,"rental_uris":{"android":"levelo://app?vid=94405626-e966-43a0-bd8b-42dd0eef2538","ios":"levelo://app?vid=94405626-e966-43a0-bd8b-42dd0eef2538"},"vehicle_type_id":"4","last_reported":1707242915,"current_range_meters":17600,"station_id":"ce4bhap2rcd13ifvqek0","pricing_plan_id":"free"},{"bike_id":"63a927a1-ddfa-4193-8ff4-a8d4900208d2","system_id":"levelo_inurba_marseille","lat":43.289468,"lon":5.363719,"is_reserved":false,"is_disabled":false,"rental_uris":{"android":"levelo://app?vid=63a927a1-ddfa-4193-8ff4-a8d4900208d2","ios":"levelo://app?vid=63a927a1-ddfa-4193-8ff4-a8d4900208d2"},"vehicle_type_id":"4","last_reported":1707242915,"current_range_meters":10800,"station_id":"ce4bhc92rcd13ifvqetg","pricing_plan_id":"free"},{"bike_id":"a7811152-66da-41b7-a35e-8925d6376881","system_id":"levelo_inurba_marseille","lat":43.292642,"lon":5.384254,"is_reserved":false,"is_disabled":false,"rental_uris":{"android":"levelo://app?vid=a7811152-66da-41b7-a35e-8925d6376881","ios":"levelo://app?vid=a7811152-66da-41b7-a35e-8925d6376881"},"vehicle_type_id":"4","last_reported":1707242915,"current_range_meters":15200,"station_id":"ce4bh692rcd13ifvqea0","pricing_plan_id":"free"},{"bike_id":"2994d8d7-d114-4450-82bb-aa8adf7d05c3","system_id":"levelo_inurba_marseille","lat":43.29272,"lon":5.38455,"is_reserved":false,"is_disabled":false,"rental_uris":{"android":"levelo://app?vid=2994d8d7-d114-4450-82bb-aa8adf7d05c3","ios":"levelo://app?vid=2994d8d7-d114-4450-82bb-aa8adf7d05c3"},"vehicle_type_id":"4","last_reported":1707242915,"current_range_meters":11200,"station_id":"ce4bh692rcd13ifvqea0","pricing_plan_id":"free"},{"bike_id":"8896827e-60c7-4d2b-9018-82e664e69a82","system_id":"levelo_inurba_marseille","lat":43.29267,"lon":5.38445,"is_reserved":false,"is_disabled":false,"rental_uris":{"android":"levelo://app?vid=8896827e-60c7-4d2b-9018-82e664e69a82","ios":"levelo://app?vid=8896827e-60c7-4d2b-9018-82e664e69a82"},"vehicle_type_id":"4","last_reported":1707242915,"current_range_meters":9200,"station_id":"ce4bh692rcd13ifvqea0","pricing_plan_id":"free"},{"bike_id":"6c4ada89-3aa3-49ac-a55f-617ff7fb8f3a","system_id":"levelo_inurba_marseille","lat":43.292642,"lon":5.384254,"is_reserved":false,"is_disabled":false,"rental_uris":{"android":"levelo://app?vid=6c4ada89-3aa3-49ac-a55f-617ff7fb8f3a","ios":"levelo://app?vid=6c4ada89-3aa3-49ac-a55f-617ff7fb8f3a"},"vehicle_type_id":"4","last_reported":1707242915,"current_range_meters":22000,"station_id":"ce4bh692rcd13ifvqea0","pricing_plan_id":"free"},{"bike_id":"31b3c655-5bec-4d2f-808d-c166b392dcda","system_id":"levelo_inurba_marseille","lat":43.292642,"lon":5.384254,"is_reserved":false,"is_disabled":false,"rental_uris":{"android":"levelo://app?vid=31b3c655-5bec-4d2f-808d-c166b392dcda","ios":"levelo://app?vid=31b3c655-5bec-4d2f-808d-c166b392dcda"},"vehicle_type_id":"4","last_reported":1707242915,"current_range_meters":24400,"station_id":"ce4bh692rcd13ifvqea0","pricing_plan_id":"free"},{"bike_id":"85fd0a97-70d8-428c-bc86-32a287fdd0cf","system_id":"levelo_inurba_marseille","lat":43.292644,"lon":5.384257,"is_reserved":false,"is_disabled":false,"rental_uris":{"android":"levelo://app?vid=85fd0a97-70d8-428c-bc86-32a287fdd0cf","ios":"levelo://app?vid=85fd0a97-70d8-428c-bc86-32a287fdd0cf"},"vehicle_type_id":"4","last_reported":1707242915,"current_range_meters":29200,"station_id":"ce4bh692rcd13ifvqea0","pricing_plan_id":"free"},{"bike_id":"96018a78-cf50-4382-8c6f-9c30be4a7f55","system_id":"levelo_inurba_marseille","lat":43.292642,"lon":5.384254,"is_reserved":false,"is_disabled":false,"rental_uris":{"android":"levelo://app?vid=96018a78-cf50-4382-8c6f-9c30be4a7f55","ios":"levelo://app?vid=96018a78-cf50-4382-8c6f-9c30be4a7f55"},"vehicle_type_id":"4","last_reported":1707242915,"current_range_meters":3600,"station_id":"ce4bh692rcd13ifvqea0","pricing_plan_id":"free"},{"bike_id":"9b6e0ee6-75b5-4e05-9847-82e0d5311959","system_id":"levelo_inurba_marseille","lat":43.290104,"lon":5.356111,"is_reserved":false,"is_disabled":false,"rental_uris":{"android":"levelo://app?vid=9b6e0ee6-75b5-4e05-9847-82e0d5311959","ios":"levelo://app?vid=9b6e0ee6-75b5-4e05-9847-82e0d5311959"},"vehicle_type_id":"4","last_reported":1707242915,"current_range_meters":0,"station_id":"ce4bhb92rcd13ifvqen0","pricing_plan_id":"free"},{"bike_id":"f2f4c289-955e-48e8-abe2-0804fa8bc7b2","system_id":"levelo_inurba_marseille","lat":43.290103,"lon":5.356114,"is_reserved":false,"is_disabled":false,"rental_uris":{"android":"levelo://app?vid=f2f4c289-955e-48e8-abe2-0804fa8bc7b2","ios":"levelo://app?vid=f2f4c289-955e-48e8-abe2-0804fa8bc7b2"},"vehicle_type_id":"4","last_reported":1707242915,"current_range_meters":0,"station_id":"ce4bhb92rcd13ifvqen0","pricing_plan_id":"free"},{"bike_id":"da05ebb4-df5c-4d46-92ce-bea7c1692712","system_id":"levelo_inurba_marseille","lat":43.286595,"lon":5.386795,"is_reserved":false,"is_disabled":false,"rental_uris":{"android":"levelo://app?vid=da05ebb4-df5c-4d46-92ce-bea7c1692712","ios":"levelo://app?vid=da05ebb4-df5c-4d46-92ce-bea7c1692712"},"vehicle_type_id":"4","last_reported":1707242915,"current_range_meters":400,"station_id":"ce4bh492rcd13ifvqdug","pricing_plan_id":"free"},{"bike_id":"720f4422-3846-45de-8a63-3a452d0a756c","system_id":"levelo_inurba_marseille","lat":43.290995,"lon":5.381361,"is_reserved":false,"is_disabled":false,"rental_uris":{"android":"levelo://app?vid=720f4422-3846-45de-8a63-3a452d0a756c","ios":"levelo://app?vid=720f4422-3846-45de-8a63-3a452d0a756c"},"vehicle_type_id":"4","last_reported":1707242915,"current_range_meters":23200,"station_id":"ce4bh512rcd13ifvqe2g","pricing_plan_id":"free"},{"bike_id":"490e3b1d-e5c9-451a-bc27-9093c744087f","system_id":"levelo_inurba_marseille","lat":43.29781,"lon":5.39327,"is_reserved":false,"is_disabled":false,"rental_uris":{"android":"levelo://app?vid=490e3b1d-e5c9-451a-bc27-9093c744087f","ios":"levelo://app?vid=490e3b1d-e5c9-451a-bc27-9093c744087f"},"vehicle_type_id":"4","last_reported":1707242915,"current_range_meters":25600,"station_id":"chh1huq6cuj3fo74tm60","pricing_plan_id":"free"},{"bike_id":"62ca35d7-f049-4885-9fd9-beb6af1eb797","system_id":"levelo_inurba_marseille","lat":43.33015,"lon":5.39035,"is_reserved":false,"is_disabled":false,"rental_uris":{"android":"levelo://app?vid=62ca35d7-f049-4885-9fd9-beb6af1eb797","ios":"levelo://app?vid=62ca35d7-f049-4885-9fd9-beb6af1eb797"},"vehicle_type_id":"4","last_reported":1707242915,"current_range_meters":12800,"station_id":"ce4bhr92rcd13ifvqhrg","pricing_plan_id":"free"},{"bike_id":"9be19af2-00eb-4adf-afc6-6b25dc013c2f","system_id":"levelo_inurba_marseille","lat":43.33015,"lon":5.39041,"is_reserved":false,"is_disabled":false,"rental_uris":{"android":"levelo://app?vid=9be19af2-00eb-4adf-afc6-6b25dc013c2f","ios":"levelo://app?vid=9be19af2-00eb-4adf-afc6-6b25dc013c2f"},"vehicle_type_id":"4","last_reported":1707242915,"current_range_meters":4400,"station_id":"ce4bhr92rcd13ifvqhrg","pricing_plan_id":"free"},{"bike_id":"e3cdd8db-1a8c-42b0-8a1d-74e27724a81e","system_id":"levelo_inurba_marseille","lat":43.33021,"lon":5.39035,"is_reserved":false,"is_disabled":false,"rental_uris":{"android":"levelo://app?vid=e3cdd8db-1a8c-42b0-8a1d-74e27724a81e","ios":"levelo://app?vid=e3cdd8db-1a8c-42b0-8a1d-74e27724a81e"},"vehicle_type_id":"4","last_reported":1707242915,"current_range_meters":29200,"station_id":"ce4bhr92rcd13ifvqhrg","pricing_plan_id":"free"},{"bike_id":"b5c14bc8-0bdf-48a6-9a9f-af1b4756e3aa","system_id":"levelo_inurba_marseille","lat":43.297815,"lon":5.393548,"is_reserved":false,"is_disabled":false,"rental_uris":{"android":"levelo://app?vid=b5c14bc8-0bdf-48a6-9a9f-af1b4756e3aa","ios":"levelo://app?vid=b5c14bc8-0bdf-48a6-9a9f-af1b4756e3aa"},"vehicle_type_id":"4","last_reported":1707242915,"current_range_meters":12000,"station_id":"chh1huq6cuj3fo74tm60","pricing_plan_id":"free"},{"bike_id":"7d9c88cc-b379-4f7e-afa0-885a9a44585d","system_id":"levelo_inurba_marseille","lat":43.33023,"lon":5.39037,"is_reserved":false,"is_disabled":false,"rental_uris":{"android":"levelo://app?vid=7d9c88cc-b379-4f7e-afa0-885a9a44585d","ios":"levelo://app?vid=7d9c88cc-b379-4f7e-afa0-885a9a44585d"},"vehicle_type_id":"4","last_reported":1707242915,"current_range_meters":18400,"station_id":"ce4bhr92rcd13ifvqhrg","pricing_plan_id":"free"},{"bike_id":"191e5a48-25eb-42b2-aa0f-b63755aec4fc","system_id":"levelo_inurba_marseille","lat":43.33019,"lon":5.39043,"is_reserved":false,"is_disabled":false,"rental_uris":{"android":"levelo://app?vid=191e5a48-25eb-42b2-aa0f-b63755aec4fc","ios":"levelo://app?vid=191e5a48-25eb-42b2-aa0f-b63755aec4fc"},"vehicle_type_id":"4","last_reported":1707242915,"current_range_meters":17600,"station_id":"ce4bhr92rcd13ifvqhrg","pricing_plan_id":"free"},{"bike_id":"9f74ab4e-9d60-4afa-867a-49240bd6e097","system_id":"levelo_inurba_marseille","lat":43.3302,"lon":5.39042,"is_reserved":false,"is_disabled":false,"rental_uris":{"android":"levelo://app?vid=9f74ab4e-9d60-4afa-867a-49240bd6e097","ios":"levelo://app?vid=9f74ab4e-9d60-4afa-867a-49240bd6e097"},"vehicle_type_id":"4","last_reported":1707242915,"current_range_meters":18400,"station_id":"ce4bhr92rcd13ifvqhrg","pricing_plan_id":"free"},{"bike_id":"397db575-5859-4e88-b680-c446f72b852d","system_id":"levelo_inurba_marseille","lat":43.330442,"lon":5.389148,"is_reserved":false,"is_disabled":false,"rental_uris":{"android":"levelo://app?vid=397db575-5859-4e88-b680-c446f72b852d","ios":"levelo://app?vid=397db575-5859-4e88-b680-c446f72b852d"},"vehicle_type_id":"4","last_reported":1707242915,"current_range_meters":4000,"station_id":"ce4bhr92rcd13ifvqhrg","pricing_plan_id":"free"},{"bike_id":"cc494f2d-db2e-4727-ae99-d194e75996be","system_id":"levelo_inurba_marseille","lat":43.33023,"lon":5.3904,"is_reserved":false,"is_disabled":false,"rental_uris":{"android":"levelo://app?vid=cc494f2d-db2e-4727-ae99-d194e75996be","ios":"levelo://app?vid=cc494f2d-db2e-4727-ae99-d194e75996be"},"vehicle_type_id":"4","last_reported":1707242915,"current_range_meters":8400,"station_id":"ce4bhr92rcd13ifvqhrg","pricing_plan_id":"free"},{"bike_id":"fd72c297-d0df-4a2c-b38e-6177668e633b","system_id":"levelo_inurba_marseille","lat":43.33021,"lon":5.39044,"is_reserved":false,"is_disabled":false,"rental_uris":{"android":"levelo://app?vid=fd72c297-d0df-4a2c-b38e-6177668e633b","ios":"levelo://app?vid=fd72c297-d0df-4a2c-b38e-6177668e633b"},"vehicle_type_id":"4","last_reported":1707242915,"current_range_meters":4400,"station_id":"ce4bhr92rcd13ifvqhrg","pricing_plan_id":"free"},{"bike_id":"2e111dff-3c6a-45c9-9e51-8ccb512570b2","system_id":"levelo_inurba_marseille","lat":43.33023,"lon":5.39046,"is_reserved":false,"is_disabled":false,"rental_uris":{"android":"levelo://app?vid=2e111dff-3c6a-45c9-9e51-8ccb512570b2","ios":"levelo://app?vid=2e111dff-3c6a-45c9-9e51-8ccb512570b2"},"vehicle_type_id":"4","last_reported":1707242915,"current_range_meters":30400,"station_id":"ce4bhr92rcd13ifvqhrg","pricing_plan_id":"free"},{"bike_id":"91cdfa23-27aa-4d6f-a74c-9ea3014f5a1c","system_id":"levelo_inurba_marseille","lat":43.297815,"lon":5.393548,"is_reserved":false,"is_disabled":false,"rental_uris":{"android":"levelo://app?vid=91cdfa23-27aa-4d6f-a74c-9ea3014f5a1c","ios":"levelo://app?vid=91cdfa23-27aa-4d6f-a74c-9ea3014f5a1c"},"vehicle_type_id":"4","last_reported":1707242915,"current_range_meters":4000,"station_id":"chh1huq6cuj3fo74tm60","pricing_plan_id":"free"},{"bike_id":"8ca3da1e-5def-4150-85c1-93059ad4ca52","system_id":"levelo_inurba_marseille","lat":43.33021,"lon":5.3905,"is_reserved":false,"is_disabled":false,"rental_uris":{"android":"levelo://app?vid=8ca3da1e-5def-4150-85c1-93059ad4ca52","ios":"levelo://app?vid=8ca3da1e-5def-4150-85c1-93059ad4ca52"},"vehicle_type_id":"4","last_reported":1707242915,"current_range_meters":20800,"station_id":"ce4bhr92rcd13ifvqhrg","pricing_plan_id":"free"},{"bike_id":"ba7895df-fdf0-43d4-b40a-e7e64d29137d","system_id":"levelo_inurba_marseille","lat":43.330442,"lon":5.389148,"is_reserved":false,"is_disabled":false,"rental_uris":{"android":"levelo://app?vid=ba7895df-fdf0-43d4-b40a-e7e64d29137d","ios":"levelo://app?vid=ba7895df-fdf0-43d4-b40a-e7e64d29137d"},"vehicle_type_id":"4","last_reported":1707242915,"current_range_meters":25600,"station_id":"ce4bhr92rcd13ifvqhrg","pricing_plan_id":"free"},{"bike_id":"91c7103d-a014-41cc-98eb-7654676ff40e","system_id":"levelo_inurba_marseille","lat":43.289741,"lon":5.378306,"is_reserved":false,"is_disabled":false,"rental_uris":{"android":"levelo://app?vid=91c7103d-a014-41cc-98eb-7654676ff40e","ios":"levelo://app?vid=91c7103d-a014-41cc-98eb-7654676ff40e"},"vehicle_type_id":"4","last_reported":1707242915,"current_range_meters":2400,"station_id":"ce4bh9p2rcd13ifvqed0","pricing_plan_id":"free"},{"bike_id":"0c70fe0e-f77f-4d51-951c-9d6975c40c53","system_id":"levelo_inurba_marseille","lat":43.29523,"lon":5.39053,"is_reserved":false,"is_disabled":false,"rental_uris":{"android":"levelo://app?vid=0c70fe0e-f77f-4d51-951c-9d6975c40c53","ios":"levelo://app?vid=0c70fe0e-f77f-4d51-951c-9d6975c40c53"},"vehicle_type_id":"4","last_reported":1707242915,"current_range_meters":8400,"station_id":"ce4bh3p2rcd13ifvqdp0","pricing_plan_id":"free"},{"bike_id":"86b5d1fd-7ba6-4a9d-b0e8-24b6ef8e4a56","system_id":"levelo_inurba_marseille","lat":43.2901,"lon":5.381269,"is_reserved":false,"is_disabled":false,"rental_uris":{"android":"levelo://app?vid=86b5d1fd-7ba6-4a9d-b0e8-24b6ef8e4a56","ios":"levelo://app?vid=86b5d1fd-7ba6-4a9d-b0e8-24b6ef8e4a56"},"vehicle_type_id":"4","last_reported":1707242915,"current_range_meters":20000,"station_id":"ce4bh4p2rcd13ifvqe1g","pricing_plan_id":"free"},{"bike_id":"c0ee850a-3f1f-4ab0-b9fe-23ef0036d7ee","system_id":"levelo_inurba_marseille","lat":43.28856,"lon":5.358371,"is_reserved":false,"is_disabled":false,"rental_uris":{"android":"levelo://app?vid=c0ee850a-3f1f-4ab0-b9fe-23ef0036d7ee","ios":"levelo://app?vid=c0ee850a-3f1f-4ab0-b9fe-23ef0036d7ee"},"vehicle_type_id":"4","last_reported":1707242915,"current_range_meters":18000,"station_id":"ce4bhb12rcd13ifvqem0","pricing_plan_id":"free"},{"bike_id":"5aea5c0b-6c60-4bd1-ba81-193e83f97619","system_id":"levelo_inurba_marseille","lat":43.28852,"lon":5.3586,"is_reserved":false,"is_disabled":false,"rental_uris":{"android":"levelo://app?vid=5aea5c0b-6c60-4bd1-ba81-193e83f97619","ios":"levelo://app?vid=5aea5c0b-6c60-4bd1-ba81-193e83f97619"},"vehicle_type_id":"4","last_reported":1707242915,"current_range_meters":28000,"station_id":"ce4bhb12rcd13ifvqem0","pricing_plan_id":"free"},{"bike_id":"46cccd01-deeb-42ea-bed8-44e0859906a8","system_id":"levelo_inurba_marseille","lat":43.28856,"lon":5.358371,"is_reserved":false,"is_disabled":false,"rental_uris":{"android":"levelo://app?vid=46cccd01-deeb-42ea-bed8-44e0859906a8","ios":"levelo://app?vid=46cccd01-deeb-42ea-bed8-44e0859906a8"},"vehicle_type_id":"4","last_reported":1707242915,"current_range_meters":2400,"station_id":"ce4bhb12rcd13ifvqem0","pricing_plan_id":"free"},{"bike_id":"5cf52488-0a4f-45ea-867d-bde7992eca16","system_id":"levelo_inurba_marseille","lat":43.288443,"lon":5.358607,"is_reserved":false,"is_disabled":false,"rental_uris":{"android":"levelo://app?vid=5cf52488-0a4f-45ea-867d-bde7992eca16","ios":"levelo://app?vid=5cf52488-0a4f-45ea-867d-bde7992eca16"},"vehicle_type_id":"4","last_reported":1707242915,"current_range_meters":3600,"station_id":"ce4bhb12rcd13ifvqem0","pricing_plan_id":"free"},{"bike_id":"80ee9af0-1caf-481f-9ad9-d55af86c4869","system_id":"levelo_inurba_marseille","lat":43.309371,"lon":5.401449,"is_reserved":false,"is_disabled":false,"rental_uris":{"android":"levelo://app?vid=80ee9af0-1caf-481f-9ad9-d55af86c4869","ios":"levelo://app?vid=80ee9af0-1caf-481f-9ad9-d55af86c4869"},"vehicle_type_id":"4","last_reported":1707242915,"current_range_meters":2800,"station_id":"ce4bgvp2rcd13ifvqct0","pricing_plan_id":"free"},{"bike_id":"5828cf03-6222-4aeb-bd8e-9846ea04e9ed","system_id":"levelo_inurba_marseille","lat":43.337484,"lon":5.374774,"is_reserved":false,"is_disabled":false,"rental_uris":{"android":"levelo://app?vid=5828cf03-6222-4aeb-bd8e-9846ea04e9ed","ios":"levelo://app?vid=5828cf03-6222-4aeb-bd8e-9846ea04e9ed"},"vehicle_type_id":"4","last_reported":1707242915,"current_range_meters":25600,"station_id":"","pricing_plan_id":"free"},{"bike_id":"7b2f4bf2-e2be-46b8-a887-d9758fb283f6","system_id":"levelo_inurba_marseille","lat":43.306412,"lon":5.401035,"is_reserved":false,"is_disabled":false,"rental_uris":{"android":"levelo://app?vid=7b2f4bf2-e2be-46b8-a887-d9758fb283f6","ios":"levelo://app?vid=7b2f4bf2-e2be-46b8-a887-d9758fb283f6"},"vehicle_type_id":"4","last_reported":1707242915,"current_range_meters":3600,"station_id":"ce4bh112rcd13ifvqda0","pricing_plan_id":"free"},{"bike_id":"397ea3bf-115b-4033-991a-c4d3c76ab478","system_id":"levelo_inurba_marseille","lat":43.33757,"lon":5.37462,"is_reserved":false,"is_disabled":false,"rental_uris":{"android":"levelo://app?vid=397ea3bf-115b-4033-991a-c4d3c76ab478","ios":"levelo://app?vid=397ea3bf-115b-4033-991a-c4d3c76ab478"},"vehicle_type_id":"4","last_reported":1707242915,"current_range_meters":7600,"station_id":"","pricing_plan_id":"free"},{"bike_id":"9aefdff5-3e3c-4449-9c5d-c5373fdac0dd","system_id":"levelo_inurba_marseille","lat":43.306412,"lon":5.401035,"is_reserved":false,"is_disabled":false,"rental_uris":{"android":"levelo://app?vid=9aefdff5-3e3c-4449-9c5d-c5373fdac0dd","ios":"levelo://app?vid=9aefdff5-3e3c-4449-9c5d-c5373fdac0dd"},"vehicle_type_id":"4","last_reported":1707242915,"current_range_meters":20800,"station_id":"ce4bh112rcd13ifvqda0","pricing_plan_id":"free"},{"bike_id":"b9777a92-5255-42f2-a490-64124b66b04a","system_id":"levelo_inurba_marseille","lat":43.30642,"lon":5.401031,"is_reserved":false,"is_disabled":false,"rental_uris":{"android":"levelo://app?vid=b9777a92-5255-42f2-a490-64124b66b04a","ios":"levelo://app?vid=b9777a92-5255-42f2-a490-64124b66b04a"},"vehicle_type_id":"4","last_reported":1707242915,"current_range_meters":4800,"station_id":"ce4bh112rcd13ifvqda0","pricing_plan_id":"free"},{"bike_id":"b88a04af-ac2a-40f1-9ae7-02e93dd574b8","system_id":"levelo_inurba_marseille","lat":43.3376,"lon":5.3749,"is_reserved":false,"is_disabled":false,"rental_uris":{"android":"levelo://app?vid=b88a04af-ac2a-40f1-9ae7-02e93dd574b8","ios":"levelo://app?vid=b88a04af-ac2a-40f1-9ae7-02e93dd574b8"},"vehicle_type_id":"4","last_reported":1707242915,"current_range_meters":24800,"station_id":"","pricing_plan_id":"free"},{"bike_id":"b5c8cd35-34dd-45ee-b3e7-3050ef3cbe6a","system_id":"levelo_inurba_marseille","lat":43.337673,"lon":5.374918,"is_reserved":false,"is_disabled":false,"rental_uris":{"android":"levelo://app?vid=b5c8cd35-34dd-45ee-b3e7-3050ef3cbe6a","ios":"levelo://app?vid=b5c8cd35-34dd-45ee-b3e7-3050ef3cbe6a"},"vehicle_type_id":"4","last_reported":1707242915,"current_range_meters":4000,"station_id":"","pricing_plan_id":"free"},