{"last_updated":1680005631,"ttl":30,"version":"2.2","data":{"bikes":[{"bike_id":"bf72034d-a1dc-4f3b-9206-d2b5edca239e","system_id":"levelo_inurba_marseille","lat":43.312239,"lon":5.368562,"is_reserved":false,"is_disabled":false,"rental_uris":{"android":"levelo://app?vid=bf72034d-a1dc-4f3b-9206-d2b5edca239e","ios":"levelo://app?vid=bf72034d-a1dc-4f3b-9206-d2b5edca239e"},"vehicle_type_id":"4","last_reported":1680005632,"current_range_meters":0,"station_id":"ce4bgl92rcd13ifvqbq0","pricing_plan_id":"free"},{"bike_id":"b45b4cef-3e1b-414f-b955-a1ba257039f7","system_id":"levelo_inurba_marseille","lat":43.30563,"lon":5.36676,"is_reserved":false,"is_disabled":false,"rental_uris":{"android":"levelo://app?vid=b45b4cef-3e1b-414f-b955-a1ba257039f7","ios":"levelo://app?vid=b45b4cef-3e1b-414f-b955-a1ba257039f7"},"vehicle_type_id":"4","last_reported":1680005632,"current_range_meters":8000,"station_id":"","pricing_plan_id":"free"},{"bike_id":"0f05ec60-0e68-4d8c-a046-3f79a0640344","system_id":"levelo_inurba_marseille","lat":43.30537,"lon":5.36728,"is_reserved":false,"is_disabled":false,"rental_uris":{"android":"levelo://app?vid=0f05ec60-0e68-4d8c-a046-3f79a0640344","ios":"levelo://app?vid=0f05ec60-0e68-4d8c-a046-3f79a0640344"},"vehicle_type_id":"4","last_reported":1680005632,"current_range_meters":18800,"station_id":"","pricing_plan_id":"free"},{"bike_id":"b311ac0f-8326-4c1f-b161-f0a210e5a597","system_id":"levelo_inurba_marseille","lat":43.3053,"lon":5.36722,"is_reserved":false,"is_disabled":false,"rental_uris":{"android":"levelo://app?vid=b311ac0f-8326-4c1f-b161-f0a210e5a597","ios":"levelo://app?vid=b311ac0f-8326-4c1f-b161-f0a210e5a597"},"vehicle_type_id":"4","last_reported":1680005632,"current_range_meters":8000,"station_id":"","pricing_plan_id":"free"},{"bike_id":"480fa5d7-6155-43e5-9488-4d5c0524de6c","system_id":"levelo_inurba_marseille","lat":43.305989,"lon":5.37225,"is_reserved":false,"is_disabled":false,"rental_uris":{"android":"levelo://app?vid=480fa5d7-6155-43e5-9488-4d5c0524de6c","ios":"levelo://app?vid=480fa5d7-6155-43e5-9488-4d5c0524de6c"},"vehicle_type_id":"4","last_reported":1680005632,"current_range_meters":0,"station_id":"ce4bgqh2rcd13ifvqc4g","pricing_plan_id":"free"},{"bike_id":"2a893205-fa93-4da4-ab1c-5bcb33ab28fc","system_id":"levelo_inurba_marseille","lat":43.310729,"lon":5.37802,"is_reserved":false,"is_disabled":false,"rental_uris":{"android":"levelo://app?vid=2a893205-fa93-4da4-ab1c-5bcb33ab28fc","ios":"levelo://app?vid=2a893205-fa93-4da4-ab1c-5bcb33ab28fc"},"vehicle_type_id":"4","last_reported":1680005632,"current_range_meters":16800,"station_id":"","pricing_plan_id":"free"},{"bike_id":"ddb7d506-ffb2-42f8-861d-e760303052ab","system_id":"levelo_inurba_marseille","lat":43.317075,"lon":5.377367,"is_reserved":false,"is_disabled":false,"rental_uris":{"android":"levelo://app?vid=ddb7d506-ffb2-42f8-861d-e760303052ab","ios":"levelo://app?vid=ddb7d506-ffb2-42f8-861d-e760303052ab"},"vehicle_type_id":"4","last_reported":1680005632,"current_range_meters":31600,"station_id":"ce4bgth2rcd13ifvqch0","pricing_plan_id":"free"},{"bike_id":"02ef5974-a276-433c-bd6c-7512cf0b3c34","system_id":"levelo_inurba_marseille","lat":43.31714,"lon":5.37743,"is_reserved":false,"is_disabled":false,"rental_uris":{"android":"levelo://app?vid=02ef5974-a276-433c-bd6c-7512cf0b3c34","ios":"levelo://app?vid=02ef5974-a276-433c-bd6c-7512cf0b3c34"},"vehicle_type_id":"4","last_reported":1680005632,"current_range_meters":2000,"station_id":"ce4bgth2rcd13ifvqch0","pricing_plan_id":"free"},{"bike_id":"6a6e10e7-0a20-46e2-9df9-19d920795f31","system_id":"levelo_inurba_marseille","lat":43.317075,"lon":5.377367,"is_reserved":false,"is_disabled":false,"rental_uris":{"android":"levelo://app?vid=6a6e10e7-0a20-46e2-9df9-19d920795f31","ios":"levelo://app?vid=6a6e10e7-0a20-46e2-9df9-19d920795f31"},"vehicle_type_id":"4","last_reported":1680005632,"current_range_meters":24000,"station_id":"ce4bgth2rcd13ifvqch0","pricing_plan_id":"free"},{"bike_id":"c3f3a074-13b5-40d4-851e-d37e08e16dca","system_id":"levelo_inurba_marseille","lat":43.317075,"lon":5.377367,"is_reserved":false,"is_disabled":false,"rental_uris":{"android":"levelo://app?vid=c3f3a074-13b5-40d4-851e-d37e08e16dca","ios":"levelo://app?vid=c3f3a074-13b5-40d4-851e-d37e08e16dca"},"vehicle_type_id":"4","last_reported":1680005632,"current_range_meters":30400,"station_id":"ce4bgth2rcd13ifvqch0","pricing_plan_id":"free"},{"bike_id":"53a893aa-99bc-472c-8069-64ab7c7d46af","system_id":"levelo_inurba_marseille","lat":43.301939,"lon":5.366286,"is_reserved":false,"is_disabled":false,"rental_uris":{"android":"levelo://app?vid=53a893aa-99bc-472c-8069-64ab7c7d46af","ios":"levelo://app?vid=53a893aa-99bc-472c-8069-64ab7c7d46af"},"vehicle_type_id":"4","last_reported":1680005632,"current_range_meters":20000,"station_id":"ce4bgrh2rcd13ifvqc8g","pricing_plan_id":"free"},{"bike_id":"66a1ce85-f6bf-4692-905d-913d0165963b","system_id":"levelo_inurba_marseille","lat":43.301939,"lon":5.366286,"is_reserved":false,"is_disabled":false,"rental_uris":{"android":"levelo://app?vid=66a1ce85-f6bf-4692-905d-913d0165963b","ios":"levelo://app?vid=66a1ce85-f6bf-4692-905d-913d0165963b"},"vehicle_type_id":"4","last_reported":1680005632,"current_range_meters":400,"station_id":"ce4bgrh2rcd13ifvqc8g","pricing_plan_id":"free"},{"bike_id":"27db0a57-6940-4283-b4e9-e1e998bfc54e","system_id":"levelo_inurba_marseille","lat":43.308012,"lon":5.381511,"is_reserved":false,"is_disabled":false,"rental_uris":{"android":"levelo://app?vid=27db0a57-6940-4283-b4e9-e1e998bfc54e","ios":"levelo://app?vid=27db0a57-6940-4283-b4e9-e1e998bfc54e"},"vehicle_type_id":"4","last_reported":1680005632,"current_range_meters":8800,"station_id":"ce4bgt12rcd13ifvqce0","pricing_plan_id":"free"},{"bike_id":"cef250f7-f199-4255-9a39-a8cfeee8024c","system_id":"levelo_inurba_marseille","lat":43.308012,"lon":5.381511,"is_reserved":false,"is_disabled":false,"rental_uris":{"android":"levelo://app?vid=cef250f7-f199-4255-9a39-a8cfeee8024c","ios":"levelo://app?vid=cef250f7-f199-4255-9a39-a8cfeee8024c"},"vehicle_type_id":"4","last_reported":1680005632,"current_range_meters":17600,"station_id":"ce4bgt12rcd13ifvqce0","pricing_plan_id":"free"},{"bike_id":"b229fe45-bac5-4ce7-bd9f-47c36025a88d","system_id":"levelo_inurba_marseille","lat":43.304606,"lon":5.379026,"is_reserved":false,"is_disabled":false,"rental_uris":{"android":"levelo://app?vid=b229fe45-bac5-4ce7-bd9f-47c36025a88d","ios":"levelo://app?vid=b229fe45-bac5-4ce7-bd9f-47c36025a88d"},"vehicle_type_id":"4","last_reported":1680005632,"current_range_meters":14800,"station_id":"ce4bgup2rcd13ifvqcn0","pricing_plan_id":"free"},{"bike_id":"5a369cdf-2233-48c1-b91e-6389503ec3e7","system_id":"levelo_inurba_marseille","lat":43.304606,"lon":5.379026,"is_reserved":false,"is_disabled":false,"rental_uris":{"android":"levelo://app?vid=5a369cdf-2233-48c1-b91e-6389503ec3e7","ios":"levelo://app?vid=5a369cdf-2233-48c1-b91e-6389503ec3e7"},"vehicle_type_id":"4","last_reported":1680005632,"current_range_meters":3600,"station_id":"ce4bgup2rcd13ifvqcn0","pricing_plan_id":"free"},{"bike_id":"743383bc-15ea-4468-b76b-281e6615e658","system_id":"levelo_inurba_marseille","lat":43.313571,"lon":5.384829,"is_reserved":false,"is_disabled":false,"rental_uris":{"android":"levelo://app?vid=743383bc-15ea-4468-b76b-281e6615e658","ios":"levelo://app?vid=743383bc-15ea-4468-b76b-281e6615e658"},"vehicle_type_id":"4","last_reported":1680005632,"current_range_meters":27600,"station_id":"ce4bgt92rcd13ifvqcf0","pricing_plan_id":"free"},{"bike_id":"c5f871d1-5333-4387-b571-90eef75162c5","system_id":"levelo_inurba_marseille","lat":43.313571,"lon":5.384829,"is_reserved":false,"is_disabled":false,"rental_uris":{"android":"levelo://app?vid=c5f871d1-5333-4387-b571-90eef75162c5","ios":"levelo://app?vid=c5f871d1-5333-4387-b571-90eef75162c5"},"vehicle_type_id":"4","last_reported":1680005632,"current_range_meters":10000,"station_id":"ce4bgt92rcd13ifvqcf0","pricing_plan_id":"free"},{"bike_id":"d1d3fbc9-941a-494f-a681-bcb58354a5ea","system_id":"levelo_inurba_marseille","lat":43.31366,"lon":5.385037,"is_reserved":false,"is_disabled":false,"rental_uris":{"android":"levelo://app?vid=d1d3fbc9-941a-494f-a681-bcb58354a5ea","ios":"levelo://app?vid=d1d3fbc9-941a-494f-a681-bcb58354a5ea"},"vehicle_type_id":"4","last_reported":1680005632,"current_range_meters":31600,"station_id":"ce4bgt92rcd13ifvqcf0","pricing_plan_id":"free"},{"bike_id":"6eafb1e6-696b-47cb-a787-abaf39ed021b","system_id":"levelo_inurba_marseille","lat":43.299094,"lon":5.365415,"is_reserved":false,"is_disabled":false,"rental_uris":{"android":"levelo://app?vid=6eafb1e6-696b-47cb-a787-abaf39ed021b","ios":"levelo://app?vid=6eafb1e6-696b-47cb-a787-abaf39ed021b"},"vehicle_type_id":"4","last_reported":1680005632,"current_range_meters":24400,"station_id":"ce4bgm92rcd13ifvqbr0","pricing_plan_id":"free"},{"bike_id":"483cefb0-ab97-46ef-b731-2271748e4705","system_id":"levelo_inurba_marseille","lat":43.299094,"lon":5.365415,"is_reserved":false,"is_disabled":false,"rental_uris":{"android":"levelo://app?vid=483cefb0-ab97-46ef-b731-2271748e4705","ios":"levelo://app?vid=483cefb0-ab97-46ef-b731-2271748e4705"},"vehicle_type_id":"4","last_reported":1680005632,"current_range_meters":26000,"station_id":"ce4bgm92rcd13ifvqbr0","pricing_plan_id":"free"},{"bike_id":"3f84e33e-f07a-4525-8af3-d4e83fab7b0e","system_id":"levelo_inurba_marseille","lat":43.29933,"lon":5.36543,"is_reserved":false,"is_disabled":false,"rental_uris":{"android":"levelo://app?vid=3f84e33e-f07a-4525-8af3-d4e83fab7b0e","ios":"levelo://app?vid=3f84e33e-f07a-4525-8af3-d4e83fab7b0e"},"vehicle_type_id":"4","last_reported":1680005632,"current_range_meters":18400,"station_id":"","pricing_plan_id":"free"},{"bike_id":"641135a0-7c14-48b1-8601-a29943ad4de5","system_id":"levelo_inurba_marseille","lat":43.30162,"lon":5.3798,"is_reserved":false,"is_disabled":false,"rental_uris":{"android":"levelo://app?vid=641135a0-7c14-48b1-8601-a29943ad4de5","ios":"levelo://app?vid=641135a0-7c14-48b1-8601-a29943ad4de5"},"vehicle_type_id":"4","last_reported":1680005632,"current_range_meters":0,"station_id":"","pricing_plan_id":"free"},{"bike_id":"f9b8f158-1dbc-4731-a70b-80dcd668fab4","system_id":"levelo_inurba_marseille","lat":43.311563,"lon":5.386863,"is_reserved":false,"is_disabled":false,"rental_uris":{"android":"levelo://app?vid=f9b8f158-1dbc-4731-a70b-80dcd668fab4","ios":"levelo://app?vid=f9b8f158-1dbc-4731-a70b-80dcd668fab4"},"vehicle_type_id":"4","last_reported":1680005632,"current_range_meters":31600,"station_id":"","pricing_plan_id":"free"},{"bike_id":"ee3daf0c-3260-40ee-94e1-e3b4417e3b53","system_id":"levelo_inurba_marseille","lat":43.305364,"lon":5.384119,"is_reserved":false,"is_disabled":false,"rental_uris":{"android":"levelo://app?vid=ee3daf0c-3260-40ee-94e1-e3b4417e3b53","ios":"levelo://app?vid=ee3daf0c-3260-40ee-94e1-e3b4417e3b53"},"vehicle_type_id":"4","last_reported":1680005632,"current_range_meters":4400,"station_id":"ce4bgg92rcd13ifvqb30","pricing_plan_id":"free"},{"bike_id":"f9ad54ec-5e59-4e4b-b977-18e063dce2e8","system_id":"levelo_inurba_marseille","lat":43.298445,"lon":5.362711,"is_reserved":false,"is_disabled":false,"rental_uris":{"android":"levelo://app?vid=f9ad54ec-5e59-4e4b-b977-18e063dce2e8","ios":"levelo://app?vid=f9ad54ec-5e59-4e4b-b977-18e063dce2e8"},"vehicle_type_id":"4","last_reported":1680005632,"current_range_meters":16000,"station_id":"ce4bgpp2rcd13ifvqc3g","pricing_plan_id":"free"},{"bike_id":"f6b973fe-e5d7-46c2-bb4e-5f6e565da8f0","system_id":"levelo_inurba_marseille","lat":43.298433,"lon":5.362774,"is_reserved":false,"is_disabled":false,"rental_uris":{"android":"levelo://app?vid=f6b973fe-e5d7-46c2-bb4e-5f6e565da8f0","ios":"levelo://app?vid=f6b973fe-e5d7-46c2-bb4e-5f6e565da8f0"},"vehicle_type_id":"4","last_reported":1680005632,"current_range_meters":4000,"station_id":"ce4bgpp2rcd13ifvqc3g","pricing_plan_id":"free"},{"bike_id":"6ea3e58e-3d4c-4601-bc42-6b0f655d3d82","system_id":"levelo_inurba_marseille","lat":43.299195,"lon":5.374664,"is_reserved":false,"is_disabled":false,"rental_uris":{"android":"levelo://app?vid=6ea3e58e-3d4c-4601-bc42-6b0f655d3d82","ios":"levelo://app?vid=6ea3e58e-3d4c-4601-bc42-6b0f655d3d82"},"vehicle_type_id":"4","last_reported":1680005632,"current_range_meters":14800,"station_id":"ce4bgjh2rcd13ifvqbg0","pricing_plan_id":"free"},{"bike_id":"b969ec13-a948-466a-93cb-b68afdd2f67a","system_id":"levelo_inurba_marseille","lat":43.31167,"lon":5.38714,"is_reserved":false,"is_disabled":false,"rental_uris":{"android":"levelo://app?vid=b969ec13-a948-466a-93cb-b68afdd2f67a","ios":"levelo://app?vid=b969ec13-a948-466a-93cb-b68afdd2f67a"},"vehicle_type_id":"4","last_reported":1680005632,"current_range_meters":28800,"station_id":"ce4bgv12rcd13ifvqcp0","pricing_plan_id":"free"},{"bike_id":"d9b74f6b-c263-4337-8370-b9254bfd35a1","system_id":"levelo_inurba_marseille","lat":43.327525,"lon":5.367099,"is_reserved":false,"is_disabled":false,"rental_uris":{"android":"levelo://app?vid=d9b74f6b-c263-4337-8370-b9254bfd35a1","ios":"levelo://app?vid=d9b74f6b-c263-4337-8370-b9254bfd35a1"},"vehicle_type_id":"4","last_reported":1680005632,"current_range_meters":0,"station_id":"","pricing_plan_id":"free"},{"bike_id":"a3ea0fd3-3543-43f5-9286-6ee38bf507bc","system_id":"levelo_inurba_marseille","lat":43.298044,"lon":5.364332,"is_reserved":false,"is_disabled":false,"rental_uris":{"android":"levelo://app?vid=a3ea0fd3-3543-43f5-9286-6ee38bf507bc","ios":"levelo://app?vid=a3ea0fd3-3543-43f5-9286-6ee38bf507bc"},"vehicle_type_id":"4","last_reported":1680005632,"current_range_meters":18000,"station_id":"","pricing_plan_id":"free"},{"bike_id":"13252435-80f3-42bf-8e7c-3d221a971480","system_id":"levelo_inurba_marseille","lat":43.328371,"lon":5.366909,"is_reserved":false,"is_disabled":false,"rental_uris":{"android":"levelo://app?vid=13252435-80f3-42bf-8e7c-3d221a971480","ios":"levelo://app?vid=13252435-80f3-42bf-8e7c-3d221a971480"},"vehicle_type_id":"4","last_reported":1680005632,"current_range_meters":400,"station_id":"ce4bhs92rcd13ifvqi0g","pricing_plan_id":"free"},{"bike_id":"42964514-cfa5-4b3b-8c88-f5fdbfc83625","system_id":"levelo_inurba_marseille","lat":43.32824,"lon":5.36686,"is_reserved":false,"is_disabled":false,"rental_uris":{"android":"levelo://app?vid=42964514-cfa5-4b3b-8c88-f5fdbfc83625","ios":"levelo://app?vid=42964514-cfa5-4b3b-8c88-f5fdbfc83625"},"vehicle_type_id":"4","last_reported":1680005632,"current_range_meters":0,"station_id":"ce4bhs92rcd13ifvqi0g","pricing_plan_id":"free"},{"bike_id":"5ea38185-c7f7-46e6-97fa-9267811c3816","system_id":"levelo_inurba_marseille","lat":43.328371,"lon":5.366909,"is_reserved":false,"is_disabled":false,"rental_uris":{"android":"levelo://app?vid=5ea38185-c7f7-46e6-97fa-9267811c3816","ios":"levelo://app?vid=5ea38185-c7f7-46e6-97fa-9267811c3816"},"vehicle_type_id":"4","last_reported":1680005632,"current_range_meters":1200,"station_id":"ce4bhs92rcd13ifvqi0g","pricing_plan_id":"free"},{"bike_id":"3bd08f77-1dbd-4aa6-87f1-e3521a967024","system_id":"levelo_inurba_marseille","lat":43.328371,"lon":5.366909,"is_reserved":false,"is_disabled":false,"rental_uris":{"android":"levelo://app?vid=3bd08f77-1dbd-4aa6-87f1-e3521a967024","ios":"levelo://app?vid=3bd08f77-1dbd-4aa6-87f1-e3521a967024"},"vehicle_type_id":"4","last_reported":1680005632,"current_range_meters":2400,"station_id":"ce4bhs92rcd13ifvqi0g","pricing_plan_id":"free"},{"bike_id":"759782b2-c746-4025-a11a-d4b3bdae70a3","system_id":"levelo_inurba_marseille","lat":43.328281,"lon":5.366841,"is_reserved":false,"is_disabled":false,"rental_uris":{"android":"levelo://app?vid=759782b2-c746-4025-a11a-d4b3bdae70a3","ios":"levelo://app?vid=759782b2-c746-4025-a11a-d4b3bdae70a3"},"vehicle_type_id":"4","last_reported":1680005632,"current_range_meters":0,"station_id":"","pricing_plan_id":"free"},{"bike_id":"08e377e4-d865-4a2c-9db9-ef9516133856","system_id":"levelo_inurba_marseille","lat":43.29748,"lon":5.36275,"is_reserved":false,"is_disabled":false,"rental_uris":{"android":"levelo://app?vid=08e377e4-d865-4a2c-9db9-ef9516133856","ios":"levelo://app?vid=08e377e4-d865-4a2c-9db9-ef9516133856"},"vehicle_type_id":"4","last_reported":1680005632,"current_range_meters":8400,"station_id":"","pricing_plan_id":"free"},{"bike_id":"ecce4341-cc5c-49f3-b63a-39a41d26050b","system_id":"levelo_inurba_marseille","lat":43.32849,"lon":5.36675,"is_reserved":false,"is_disabled":false,"rental_uris":{"android":"levelo://app?vid=ecce4341-cc5c-49f3-b63a-39a41d26050b","ios":"levelo://app?vid=ecce4341-cc5c-49f3-b63a-39a41d26050b"},"vehicle_type_id":"4","last_reported":1680005632,"current_range_meters":23200,"station_id":"ce4bhs92rcd13ifvqi0g","pricing_plan_id":"free"},{"bike_id":"f893f892-fb8d-40e7-8122-2697cffa37d6","system_id":"levelo_inurba_marseille","lat":43.29719,"lon":5.36265,"is_reserved":false,"is_disabled":false,"rental_uris":{"android":"levelo://app?vid=f893f892-fb8d-40e7-8122-2697cffa37d6","ios":"levelo://app?vid=f893f892-fb8d-40e7-8122-2697cffa37d6"},"vehicle_type_id":"4","last_reported":1680005632,"current_range_meters":7600,"station_id":"","pricing_plan_id":"free"},{"bike_id":"17821d68-025e-4521-a70f-af757033b5c5","system_id":"levelo_inurba_marseille","lat":43.29679,"lon":5.37287,"is_reserved":false,"is_disabled":false,"rental_uris":{"android":"levelo://app?vid=17821d68-025e-4521-a70f-af757033b5c5","ios":"levelo://app?vid=17821d68-025e-4521-a70f-af757033b5c5"},"vehicle_type_id":"4","last_reported":1680005632,"current_range_meters":31600,"station_id":"","pricing_plan_id":"free"},{"bike_id":"2b9f33a4-8a80-43a9-bbac-423669487209","system_id":"levelo_inurba_marseille","lat":43.309589,"lon":5.390258,"is_reserved":false,"is_disabled":false,"rental_uris":{"android":"levelo://app?vid=2b9f33a4-8a80-43a9-bbac-423669487209","ios":"levelo://app?vid=2b9f33a4-8a80-43a9-bbac-423669487209"},"vehicle_type_id":"4","last_reported":1680005632,"current_range_meters":10400,"station_id":"ce4bgup2rcd13ifvqco0","pricing_plan_id":"free"},{"bike_id":"84c83164-02d7-4db1-9781-d9fb3cbb2544","system_id":"levelo_inurba_marseille","lat":43.296921,"lon":5.376579,"is_reserved":false,"is_disabled":false,"rental_uris":{"android":"levelo://app?vid=84c83164-02d7-4db1-9781-d9fb3cbb2544","ios":"levelo://app?vid=84c83164-02d7-4db1-9781-d9fb3cbb2544"},"vehicle_type_id":"4","last_reported":1680005632,"current_range_meters":0,"station_id":"ce4bgkh2rcd13ifvqbl0","pricing_plan_id":"free"},{"bike_id":"b02f0ce6-5f92-437e-aabe-446379056a1d","system_id":"levelo_inurba_marseille","lat":43.317557,"lon":5.390173,"is_reserved":false,"is_disabled":false,"rental_uris":{"android":"levelo://app?vid=b02f0ce6-5f92-437e-aabe-446379056a1d","ios":"levelo://app?vid=b02f0ce6-5f92-437e-aabe-446379056a1d"},"vehicle_type_id":"4","last_reported":1680005632,"current_range_meters":400,"station_id":"ce4bhqp2rcd13ifvqhng","pricing_plan_id":"free"},{"bike_id":"ef8b451d-155f-4aec-be9d-a7604e8a58d4","system_id":"levelo_inurba_marseille","lat":43.29796,"lon":5.38085,"is_reserved":false,"is_disabled":false,"rental_uris":{"android":"levelo://app?vid=ef8b451d-155f-4aec-be9d-a7604e8a58d4","ios":"levelo://app?vid=ef8b451d-155f-4aec-be9d-a7604e8a58d4"},"vehicle_type_id":"4","last_reported":1680005632,"current_range_meters":0,"station_id":"ce4bgip2rcd13ifvqbb0","pricing_plan_id":"free"},{"bike_id":"038ea848-e5ca-4a1d-834a-3e525b7227cf","system_id":"levelo_inurba_marseille","lat":43.295748,"lon":5.37522,"is_reserved":false,"is_disabled":false,"rental_uris":{"android":"levelo://app?vid=038ea848-e5ca-4a1d-834a-3e525b7227cf","ios":"levelo://app?vid=038ea848-e5ca-4a1d-834a-3e525b7227cf"},"vehicle_type_id":"4","last_reported":1680005632,"current_range_meters":16800,"station_id":"ce4bgh92rcd13ifvqb50","pricing_plan_id":"free"},{"bike_id":"a385a038-14c9-47a5-b971-a4f37418b1f5","system_id":"levelo_inurba_marseille","lat":43.304274,"lon":5.388873,"is_reserved":false,"is_disabled":false,"rental_uris":{"android":"levelo://app?vid=a385a038-14c9-47a5-b971-a4f37418b1f5","ios":"levelo://app?vid=a385a038-14c9-47a5-b971-a4f37418b1f5"},"vehicle_type_id":"4","last_reported":1680005632,"current_range_meters":23600,"station_id":"ce4bgk12rcd13ifvqbi0","pricing_plan_id":"free"},{"bike_id":"21ff36f9-1b68-4e9b-a503-bafd9f406858","system_id":"levelo_inurba_marseille","lat":43.30432,"lon":5.38885,"is_reserved":false,"is_disabled":false,"rental_uris":{"android":"levelo://app?vid=21ff36f9-1b68-4e9b-a503-bafd9f406858","ios":"levelo://app?vid=21ff36f9-1b68-4e9b-a503-bafd9f406858"},"vehicle_type_id":"4","last_reported":1680005632,"current_range_meters":21200,"station_id":"ce4bgk12rcd13ifvqbi0","pricing_plan_id":"free"},{"bike_id":"4c3359fc-ea06-4a29-812e-5d706188dad7","system_id":"levelo_inurba_marseille","lat":43.304274,"lon":5.388873,"is_reserved":false,"is_disabled":false,"rental_uris":{"android":"levelo://app?vid=4c3359fc-ea06-4a29-812e-5d706188dad7","ios":"levelo://app?vid=4c3359fc-ea06-4a29-812e-5d706188dad7"},"vehicle_type_id":"4","last_reported":1680005632,"current_range_meters":1600,"station_id":"ce4bgk12rcd13ifvqbi0","pricing_plan_id":"free"},{"bike_id":"9a2d8203-8fd8-4bce-aca3-275242d2c215","system_id":"levelo_inurba_marseille","lat":43.304278,"lon":5.388868,"is_reserved":false,"is_disabled":false,"rental_uris":{"android":"levelo://app?vid=9a2d8203-8fd8-4bce-aca3-275242d2c215","ios":"levelo://app?vid=9a2d8203-8fd8-4bce-aca3-275242d2c215"},"vehicle_type_id":"4","last_reported":1680005632,"current_range_meters":5600,"station_id":"ce4bgk12rcd13ifvqbi0","pricing_plan_id":"free"},{"bike_id":"9b24ba2c-f025-4f85-9e77-efc681ae60e3","system_id":"levelo_inurba_marseille","lat":43.29784,"lon":5.38109,"is_reserved":false,"is_disabled":false,"rental_uris":{"android":"levelo://app?vid=9b24ba2c-f025-4f85-9e77-efc681ae60e3","ios":"levelo://app?vid=9b24ba2c-f025-4f85-9e77-efc681ae60e3"},"vehicle_type_id":"4","last_reported":1680005632,"current_range_meters":9600,"station_id":"ce4bgip2rcd13ifvqbb0","pricing_plan_id":"free"},{"bike_id":"2aa6aaec-2788-4218-96a9-ea65ed9bfeb1","system_id":"levelo_inurba_marseille","lat":43.296263,"lon":5.377094,"is_reserved":false,"is_disabled":false,"rental_uris":{"android":"levelo://app?vid=2aa6aaec-2788-4218-96a9-ea65ed9bfeb1","ios":"levelo://app?vid=2aa6aaec-2788-4218-96a9-ea65ed9bfeb1"},"vehicle_type_id":"4","last_reported":1680005632,"current_range_meters":22000,"station_id":"ce4bgi92rcd13ifvqb90","pricing_plan_id":"free"},{"bike_id":"637586cc-f64b-44a6-910b-7d3e0345c155","system_id":"levelo_inurba_marseille","lat":43.295543,"lon":5.375283,"is_reserved":false,"is_disabled":false,"rental_uris":{"android":"levelo://app?vid=637586cc-f64b-44a6-910b-7d3e0345c155","ios":"levelo://app?vid=637586cc-f64b-44a6-910b-7d3e0345c155"},"vehicle_type_id":"4","last_reported":1680005632,"current_range_meters":15600,"station_id":"","pricing_plan_id":"free"},{"bike_id":"875368d6-507a-4768-9c55-03061f47d96c","system_id":"levelo_inurba_marseille","lat":43.299769,"lon":5.384853,"is_reserved":false,"is_disabled":false,"rental_uris":{"android":"levelo://app?vid=875368d6-507a-4768-9c55-03061f47d96c","ios":"levelo://app?vid=875368d6-507a-4768-9c55-03061f47d96c"},"vehicle_type_id":"4","last_reported":1680005632,"current_range_meters":0,"station_id":"ce4bgj92rcd13ifvqbd0","pricing_plan_id":"free"},{"bike_id":"22d2f6c9-7598-4e98-bdd9-1b3a2025050b","system_id":"levelo_inurba_marseille","lat":43.3222,"lon":5.3894,"is_reserved":false,"is_disabled":false,"rental_uris":{"android":"levelo://app?vid=22d2f6c9-7598-4e98-bdd9-1b3a2025050b","ios":"levelo://app?vid=22d2f6c9-7598-4e98-bdd9-1b3a2025050b"},"vehicle_type_id":"4","last_reported":1680005632,"current_range_meters":28400,"station_id":"","pricing_plan_id":"free"},{"bike_id":"a63057fb-8960-4a82-aefe-059bf73521c6","system_id":"levelo_inurba_marseille","lat":43.29368,"lon":5.378408,"is_reserved":false,"is_disabled":false,"rental_uris":{"android":"levelo://app?vid=a63057fb-8960-4a82-aefe-059bf73521c6","ios":"levelo://app?vid=a63057fb-8960-4a82-aefe-059bf73521c6"},"vehicle_type_id":"4","last_reported":1680005632,"current_range_meters":9200,"station_id":"","pricing_plan_id":"free"},{"bike_id":"d3bafb3c-56b1-450e-b8b5-686936f5f143","system_id":"levelo_inurba_marseille","lat":43.298764,"lon":5.388973,"is_reserved":false,"is_disabled":false,"rental_uris":{"android":"levelo://app?vid=d3bafb3c-56b1-450e-b8b5-686936f5f143","ios":"levelo://app?vid=d3bafb3c-56b1-450e-b8b5-686936f5f143"},"vehicle_type_id":"4","last_reported":1680005632,"current_range_meters":1200,"station_id":"ce4bh392rcd13ifvqdl0","pricing_plan_id":"free"},{"bike_id":"96a32783-718d-41e7-bdb2-839c4e7f2b6a","system_id":"levelo_inurba_marseille","lat":43.313291,"lon":5.396838,"is_reserved":false,"is_disabled":false,"rental_uris":{"android":"levelo://app?vid=96a32783-718d-41e7-bdb2-839c4e7f2b6a","ios":"levelo://app?vid=96a32783-718d-41e7-bdb2-839c4e7f2b6a"},"vehicle_type_id":"4","last_reported":1680005632,"current_range_meters":4000,"station_id":"ce4bgvp2rcd13ifvqcu0","pricing_plan_id":"free"},{"bike_id":"0df312c0-7e6b-437f-896e-9e094e283982","system_id":"levelo_inurba_marseille","lat":43.309038,"lon":5.396546,"is_reserved":false,"is_disabled":false,"rental_uris":{"android":"levelo://app?vid=0df312c0-7e6b-437f-896e-9e094e283982","ios":"levelo://app?vid=0df312c0-7e6b-437f-896e-9e094e283982"},"vehicle_type_id":"4","last_reported":1680005632,"current_range_meters":6400,"station_id":"ce4bh012rcd13ifvqcv0","pricing_plan_id":"free"},{"bike_id":"11f8a7a6-1443-4baa-8e8d-691c0cf90bfc","system_id":"levelo_inurba_marseille","lat":43.29529,"lon":5.385581,"is_reserved":false,"is_disabled":false,"rental_uris":{"android":"levelo://app?vid=11f8a7a6-1443-4baa-8e8d-691c0cf90bfc","ios":"levelo://app?vid=11f8a7a6-1443-4baa-8e8d-691c0cf90bfc"},"vehicle_type_id":"4","last_reported":1680005632,"current_range_meters":1600,"station_id":"ce4bgih2rcd13ifvqba0","pricing_plan_id":"free"},{"bike_id":"be23e9ff-5176-47e8-a7c1-748a2c95489f","system_id":"levelo_inurba_marseille","lat":43.29529,"lon":5.385581,"is_reserved":false,"is_disabled":false,"rental_uris":{"android":"levelo://app?vid=be23e9ff-5176-47e8-a7c1-748a2c95489f","ios":"levelo://app?vid=be23e9ff-5176-47e8-a7c1-748a2c95489f"},"vehicle_type_id":"4","last_reported":1680005632,"current_range_meters":0,"station_id":"ce4bgih2rcd13ifvqba0","pricing_plan_id":"free"},{"bike_id":"4d612669-df4e-45c7-9c16-c1184cbcf31b","system_id":"levelo_inurba_marseille","lat":43.322574,"lon":5.394453,"is_reserved":false,"is_disabled":false,"rental_uris":{"android":"levelo://app?vid=4d612669-df4e-45c7-9c16-c1184cbcf31b","ios":"levelo://app?vid=4d612669-df4e-45c7-9c16-c1184cbcf31b"},"vehicle_type_id":"4","last_reported":1680005632,"current_range_meters":0,"station_id":"","pricing_plan_id":"free"},{"bike_id":"d32ea199-d715-4f3b-8c01-f79e3fc3ba17","system_id":"levelo_inurba_marseille","lat":43.30206,"lon":5.39473,"is_reserved":false,"is_disabled":false,"rental_uris":{"android":"levelo://app?vid=d32ea199-d715-4f3b-8c01-f79e3fc3ba17","ios":"levelo://app?vid=d32ea199-d715-4f3b-8c01-f79e3fc3ba17"},"vehicle_type_id":"4","last_reported":1680005632,"current_range_meters":14400,"station_id":"ce4bh0p2rcd13ifvqd70","pricing_plan_id":"free"},{"bike_id":"96a26952-eafc-4bd9-a4ae-8df9fe774741","system_id":"levelo_inurba_marseille","lat":43.290327,"lon":5.375711,"is_reserved":false,"is_disabled":false,"rental_uris":{"android":"levelo://app?vid=96a26952-eafc-4bd9-a4ae-8df9fe774741","ios":"levelo://app?vid=96a26952-eafc-4bd9-a4ae-8df9fe774741"},"vehicle_type_id":"4","last_reported":1680005632,"current_range_meters":0,"station_id":"ce4bh692rcd13ifvqe90","pricing_plan_id":"free"},{"bike_id":"eac49bd8-7f07-4be3-a776-bc54b182bba9","system_id":"levelo_inurba_marseille","lat":43.29412,"lon":5.386183,"is_reserved":false,"is_disabled":false,"rental_uris":{"android":"levelo://app?vid=eac49bd8-7f07-4be3-a776-bc54b182bba9","ios":"levelo://app?vid=eac49bd8-7f07-4be3-a776-bc54b182bba9"},"vehicle_type_id":"4","last_reported":1680005632,"current_range_meters":25600,"station_id":"ce4bh2h2rcd13ifvqdh0","pricing_plan_id":"free"},{"bike_id":"35147572-e476-45f9-b8a5-f598194152ca","system_id":"levelo_inurba_marseille","lat":43.29273,"lon":5.38437,"is_reserved":false,"is_disabled":false,"rental_uris":{"android":"levelo://app?vid=35147572-e476-45f9-b8a5-f598194152ca","ios":"levelo://app?vid=35147572-e476-45f9-b8a5-f598194152ca"},"vehicle_type_id":"4","last_reported":1680005632,"current_range_meters":10000,"station_id":"","pricing_plan_id":"free"},{"bike_id":"a9283769-3755-4a2b-a854-3127e0304430","system_id":"levelo_inurba_marseille","lat":43.330442,"lon":5.389148,"is_reserved":false,"is_disabled":false,"rental_uris":{"android":"levelo://app?vid=a9283769-3755-4a2b-a854-3127e0304430","ios":"levelo://app?vid=a9283769-3755-4a2b-a854-3127e0304430"},"vehicle_type_id":"4","last_reported":1680005632,"current_range_meters":0,"station_id":"ce4bhr92rcd13ifvqhrg","pricing_plan_id":"free"},{"bike_id":"059020e5-f196-4f54-98d4-932901c32840","system_id":"levelo_inurba_marseille","lat":43.309314,"lon":5.400459,"is_reserved":false,"is_disabled":false,"rental_uris":{"android":"levelo://app?vid=059020e5-f196-4f54-98d4-932901c32840","ios":"levelo://app?vid=059020e5-f196-4f54-98d4-932901c32840"},"vehicle_type_id":"4","last_reported":1680005632,"current_range_meters":7200,"station_id":"","pricing_plan_id":"free"},{"bike_id":"22535ed8-f71e-4210-94e1-03cc5a1444ec","system_id":"levelo_inurba_marseille","lat":43.2901,"lon":5.381269,"is_reserved":false,"is_disabled":false,"rental_uris":{"android":"levelo://app?vid=22535ed8-f71e-4210-94e1-03cc5a1444ec","ios":"levelo://app?vid=22535ed8-f71e-4210-94e1-03cc5a1444ec"},"vehicle_type_id":"4","last_reported":1680005632,"current_range_meters":20400,"station_id":"ce4bh4p2rcd13ifvqe1g","pricing_plan_id":"free"},{"bike_id":"46731676-f921-4242-a7d5-33d71f1913e3","system_id":"levelo_inurba_marseille","lat":43.30642,"lon":5.401031,"is_reserved":false,"is_disabled":false,"rental_uris":{"android":"levelo://app?vid=46731676-f921-4242-a7d5-33d71f1913e3","ios":"levelo://app?vid=46731676-f921-4242-a7d5-33d71f1913e3"},"vehicle_type_id":"4","last_reported":1680005632,"current_range_meters":0,"station_id":"ce4bh112rcd13ifvqda0","pricing_plan_id":"free"},{"bike_id":"cd8082d5-7b45-416b-b236-e9742a1eed48","system_id":"levelo_inurba_marseille","lat":43.33787,"lon":5.37457,"is_reserved":false,"is_disabled":false,"rental_uris":{"android":"levelo://app?vid=cd8082d5-7b45-416b-b236-e9742a1eed48","ios":"levelo://app?vid=cd8082d5-7b45-416b-b236-e9742a1eed48"},"vehicle_type_id":"4","last_reported":1680005632,"current_range_meters":22800,"station_id":"","pricing_plan_id":"free"},{"bike_id":"bcd9cb6a-1671-4622-be09-637066948e8c","system_id":"levelo_inurba_marseille","lat":43.298681,"lon":5.397225,"is_reserved":false,"is_disabled":false,"rental_uris":{"android":"levelo://app?vid=bcd9cb6a-1671-4622-be09-637066948e8c","ios":"levelo://app?vid=bcd9cb6a-1671-4622-be09-637066948e8c"},"vehicle_type_id":"4","last_reported":1680005632,"current_range_meters":9200,"station_id":"ce4bh0h2rcd13ifvqd50","pricing_plan_id":"free"},{"bike_id":"a4c8ba9e-87c9-4ce1-b546-fd11a32b78c7","system_id":"levelo_inurba_marseille","lat":43.298681,"lon":5.397225,"is_reserved":false,"is_disabled":false,"rental_uris":{"android":"levelo://app?vid=a4c8ba9e-87c9-4ce1-b546-fd11a32b78c7","ios":"levelo://app?vid=a4c8ba9e-87c9-4ce1-b546-fd11a32b78c7"},"vehicle_type_id":"4","last_reported":1680005632,"current_range_meters":4400,"station_id":"ce4bh0h2rcd13ifvqd50","pricing_plan_id":"free"},{"bike_id":"c7aef0cd-30c9-4fe6-a5b1-e298ed0623d4","system_id":"levelo_inurba_marseille","lat":43.29514,"lon":5.39402,"is_reserved":false,"is_disabled":false,"rental_uris":{"android":"levelo://app?vid=c7aef0cd-30c9-4fe6-a5b1-e298ed0623d4","ios":"levelo://app?vid=c7aef0cd-30c9-4fe6-a5b1-e298ed0623d4"},"vehicle_type_id":"4","last_reported":1680005632,"current_range_meters":22400,"station_id":"ce4bh212rcd13ifvqde0","pricing_plan_id":"free"},{"bike_id":"1a21115a-b2e3-4b97-8093-c7a66293c8ae","system_id":"levelo_inurba_marseille","lat":43.295748,"lon":5.37522,"is_reserved":false,"is_disabled":false,"rental_uris":{"android":"levelo://app?vid=1a21115a-b2e3-4b97-8093-c7a66293c8ae","ios":"levelo://app?vid=1a21115a-b2e3-4b97-8093-c7a66293c8ae"},"vehicle_type_id":"4","last_reported":1680005632,"current_range_meters":13200,"station_id":"ce4bgh92rcd13ifvqb50","pricing_plan_id":"free"},{"bike_id":"40a8bd8c-d722-4b22-9cb1-a73bcf27be37","system_id":"levelo_inurba_marseille","lat":43.295748,"lon":5.37522,"is_reserved":false,"is_disabled":false,"rental_uris":{"android":"levelo://app?vid=40a8bd8c-d722-4b22-9cb1-a73bcf27be37","ios":"levelo://app?vid=40a8bd8c-d722-4b22-9cb1-a73bcf27be37"},"vehicle_type_id":"4","last_reported":1680005632,"current_range_meters":19200,"station_id":"ce4bgh92rcd13ifvqb50","pricing_plan_id":"free"},{"bike_id":"65640c55-83c6-4558-97e3-fce65edefd34","system_id":"levelo_inurba_marseille","lat":43.295748,"lon":5.37522,"is_reserved":false,"is_disabled":false,"rental_uris":{"android":"levelo://app?vid=65640c55-83c6-4558-97e3-fce65edefd34","ios":"levelo://app?vid=65640c55-83c6-4558-97e3-fce65edefd34"},"vehicle_type_id":"4","last_reported":1680005632,"current_range_meters":0,"station_id":"ce4bgh92rcd13ifvqb50","pricing_plan_id":"free"},{"bike_id":"a2822710-7c57-41e9-a50b-cee85a8c1819","system_id":"levelo_inurba_marseille","lat":43.30263,"lon":5.40063,"is_reserved":false,"is_disabled":false,"rental_uris":{"android":"levelo://app?vid=a2822710-7c57-41e9-a50b-cee85a8c1819","ios":"levelo://app?vid=a2822710-7c57-41e9-a50b-cee85a8c1819"},"vehicle_type_id":"4","last_reported":1680005632,"current_range_meters":0,"station_id":"ce4bgvh2rcd13ifvqcs0","pricing_plan_id":"free"},{"bike_id":"30300a5a-1dc7-4ea8-bd44-e62e1c7f6029","system_id":"levelo_inurba_marseille","lat":43.295748,"lon":5.37522,"is_reserved":false,"is_disabled":false,"rental_uris":{"android":"levelo://app?vid=30300a5a-1dc7-4ea8-bd44-e62e1c7f6029","ios":"levelo://app?vid=30300a5a-1dc7-4ea8-bd44-e62e1c7f6029"},"vehicle_type_id":"4","last_reported":1680005632,"current_range_meters":24800,"station_id":"ce4bgh92rcd13ifvqb50","pricing_plan_id":"free"},{"bike_id":"fc728432-064f-4077-910d-44cef8434e82","system_id":"levelo_inurba_marseille","lat":43.302759,"lon":5.400793,"is_reserved":false,"is_disabled":false,"rental_uris":{"android":"levelo://app?vid=fc728432-064f-4077-910d-44cef8434e82","ios":"levelo://app?vid=fc728432-064f-4077-910d-44cef8434e82"},"vehicle_type_id":"4","last_reported":1680005632,"current_range_meters":24800,"station_id":"ce4bgvh2rcd13ifvqcs0","pricing_plan_id":"free"},{"bike_id":"94e74aa2-e6a9-44f0-93bd-b6b93e4ab417","system_id":"levelo_inurba_marseille","lat":43.295748,"lon":5.37522,"is_reserved":false,"is_disabled":false,"rental_uris":{"android":"levelo://app?vid=94e74aa2-e6a9-44f0-93bd-b6b93e4ab417","ios":"levelo://app?vid=94e74aa2-e6a9-44f0-93bd-b6b93e4ab417"},"vehicle_type_id":"4","last_reported":1680005632,"current_range_meters":27600,"station_id":"ce4bgh92rcd13ifvqb50","pricing_plan_id":"free"},{"bike_id":"0e4f1c2a-f342-4cdd-b681-026ca36ac0ff","system_id":"levelo_inurba_marseille","lat":43.29029,"lon":5.38649,"is_reserved":false,"is_disabled":false,"rental_uris":{"android":"levelo://app?vid=0e4f1c2a-f342-4cdd-b681-026ca36ac0ff","ios":"levelo://app?vid=0e4f1c2a-f342-4cdd-b681-026ca36ac0ff"},"vehicle_type_id":"4","last_reported":1680005632,"current_range_meters":24000,"station_id":"","pricing_plan_id":"free"},{"bike_id":"7bea9f16-497f-405d-a3ef-0d86abad3357","system_id":"levelo_inurba_marseille","lat":43.287184,"lon":5.37937,"is_reserved":false,"is_disabled":false,"rental_uris":{"android":"levelo://app?vid=7bea9f16-497f-405d-a3ef-0d86abad3357","ios":"levelo://app?vid=7bea9f16-497f-405d-a3ef-0d86abad3357"},"vehicle_type_id":"4","last_reported":1680005632,"current_range_meters":24800,"station_id":"ce4bh9p2rcd13ifvqec0","pricing_plan_id":"free"},{"bike_id":"aa196162-48de-43d2-8a0d-ad0561e83462","system_id":"levelo_inurba_marseille","lat":43.287184,"lon":5.37937,"is_reserved":false,"is_disabled":false,"rental_uris":{"android":"levelo://app?vid=aa196162-48de-43d2-8a0d-ad0561e83462","ios":"levelo://app?vid=aa196162-48de-43d2-8a0d-ad0561e83462"},"vehicle_type_id":"4","last_reported":1680005632,"current_range_meters":400,"station_id":"ce4bh9p2rcd13ifvqec0","pricing_plan_id":"free"},{"bike_id":"86e06dac-f8dc-4092-a6ad-10dcac45c3ce","system_id":"levelo_inurba_marseille","lat":43.287184,"lon":5.37937,"is_reserved":false,"is_disabled":false,"rental_uris":{"android":"levelo://app?vid=86e06dac-f8dc-4092-a6ad-10dcac45c3ce","ios":"levelo://app?vid=86e06dac-f8dc-4092-a6ad-10dcac45c3ce"},"vehicle_type_id":"4","last_reported":1680005632,"current_range_meters":8000,"station_id":"ce4bh9p2rcd13ifvqec0","pricing_plan_id":"free"},{"bike_id":"0e48b022-ac43-42d8-bc00-624a84b41f4d","system_id":"levelo_inurba_marseille","lat":43.287184,"lon":5.37937,"is_reserved":false,"is_disabled":false,"rental_uris":{"android":"levelo://app?vid=0e48b022-ac43-42d8-bc00-624a84b41f4d","ios":"levelo://app?vid=0e48b022-ac43-42d8-bc00-624a84b41f4d"},"vehicle_type_id":"4","last_reported":1680005632,"current_range_meters":9600,"station_id":"ce4bh9p2rcd13ifvqec0","pricing_plan_id":"free"},{"bike_id":"e5a876cf-d6bc-4281-a6a3-2b5471bc3969","system_id":"levelo_inurba_marseille","lat":43.31642,"lon":5.40431,"is_reserved":false,"is_disabled":false,"rental_uris":{"android":"levelo://app?vid=e5a876cf-d6bc-4281-a6a3-2b5471bc3969","ios":"levelo://app?vid=e5a876cf-d6bc-4281-a6a3-2b5471bc3969"},"vehicle_type_id":"4","last_reported":1680005632,"current_range_meters":0,"station_id":"ce4bh012rcd13ifvqd00","pricing_plan_id":"free"},{"bike_id":"27359014-63df-46ad-9c4e-95c3e6f8221e","system_id":"levelo_inurba_marseille","lat":43.284534,"lon":5.358662,"is_reserved":false,"is_disabled":false,"rental_uris":{"android":"levelo://app?vid=27359014-63df-46ad-9c4e-95c3e6f8221e","ios":"levelo://app?vid=27359014-63df-46ad-9c4e-95c3e6f8221e"},"vehicle_type_id":"4","last_reported":1680005632,"current_range_meters":0,"station_id":"ce4bhah2rcd13ifvqei0","pricing_plan_id":"free"},{"bike_id":"baa43945-5d7e-424a-b875-e5f91d7c2009","system_id":"levelo_inurba_marseille","lat":43.295713,"lon":5.399639,"is_reserved":false,"is_disabled":false,"rental_uris":{"android":"levelo://app?vid=baa43945-5d7e-424a-b875-e5f91d7c2009","ios":"levelo://app?vid=baa43945-5d7e-424a-b875-e5f91d7c2009"},"vehicle_type_id":"4","last_reported":1680005632,"current_range_meters":6000,"station_id":"ce4bh312rcd13ifvqdj0","pricing_plan_id":"free"},{"bike_id":"ad5be174-3353-4174-adc9-7aac80815016","system_id":"levelo_inurba_marseille","lat":43.286595,"lon":5.386795,"is_reserved":false,"is_disabled":false,"rental_uris":{"android":"levelo://app?vid=ad5be174-3353-4174-adc9-7aac80815016","ios":"levelo://app?vid=ad5be174-3353-4174-adc9-7aac80815016"},"vehicle_type_id":"4","last_reported":1680005632,"current_range_meters":31600,"station_id":"ce4bh492rcd13ifvqdug","pricing_plan_id":"free"},{"bike_id":"aba6c876-44be-430f-b114-5a3ef00459d2","system_id":"levelo_inurba_marseille","lat":43.28497,"lon":5.384195,"is_reserved":false,"is_disabled":false,"rental_uris":{"android":"levelo://app?vid=aba6c876-44be-430f-b114-5a3ef00459d2","ios":"levelo://app?vid=aba6c876-44be-430f-b114-5a3ef00459d2"},"vehicle_type_id":"4","last_reported":1680005632,"current_range_meters":4000,"station_id":"ce4bh512rcd13ifvqe3g","pricing_plan_id":"free"},{"bike_id":"d09a6265-bac8-4180-ad67-539a3bd6c082","system_id":"levelo_inurba_marseille","lat":43.32332,"lon":5.40622,"is_reserved":false,"is_disabled":false,"rental_uris":{"android":"levelo://app?vid=d09a6265-bac8-4180-ad67-539a3bd6c082","ios":"levelo://app?vid=d09a6265-bac8-4180-ad67-539a3bd6c082"},"vehicle_type_id":"4","last_reported":1680005632,"current_range_meters":0,"station_id":"ce4bhq92rcd13ifvqhjg","pricing_plan_id":"free"},{"bike_id":"3e9cdb2a-caa8-48c0-a226-d944666fe0b1","system_id":"levelo_inurba_marseille","lat":43.2848,"lon":5.38408,"is_reserved":false,"is_disabled":false,"rental_uris":{"android":"levelo://app?vid=3e9cdb2a-caa8-48c0-a226-d944666fe0b1","ios":"levelo://app?vid=3e9cdb2a-caa8-48c0-a226-d944666fe0b1"},"vehicle_type_id":"4","last_reported":1680005632,"current_range_meters":11200,"station_id":"ce4bh512rcd13ifvqe3g","pricing_plan_id":"free"},{"bike_id":"3d32dd8e-df2f-4481-8086-1a0100cb8ab4","system_id":"levelo_inurba_marseille","lat":43.284793,"lon":5.384113,"is_reserved":false,"is_disabled":false,"rental_uris":{"android":"levelo://app?vid=3d32dd8e-df2f-4481-8086-1a0100cb8ab4","ios":"levelo://app?vid=3d32dd8e-df2f-4481-8086-1a0100cb8ab4"},"vehicle_type_id":"4","last_reported":1680005632,"current_range_meters":4800,"station_id":"ce4bh512rcd13ifvqe3g","pricing_plan_id":"free"},{"bike_id":"46923d0b-79ab-4e00-a289-b409ef30ebc2","system_id":"levelo_inurba_marseille","lat":43.284793,"lon":5.384119,"is_reserved":false,"is_disabled":false,"rental_uris":{"android":"levelo://app?vid=46923d0b-79ab-4e00-a289-b409ef30ebc2","ios":"levelo://app?vid=46923d0b-79ab-4e00-a289-b409ef30ebc2"},"vehicle_type_id":"4","last_reported":1680005632,"current_range_meters":16000,"station_id":"ce4bh512rcd13ifvqe3g","pricing_plan_id":"free"},{"bike_id":"5e08fd99-8b2e-47e9-8c0b-8f6d36d2d054","system_id":"levelo_inurba_marseille","lat":43.284653,"lon":5.38416,"is_reserved":false,"is_disabled":false,"rental_uris":{"android":"levelo://app?vid=5e08fd99-8b2e-47e9-8c0b-8f6d36d2d054","ios":"levelo://app?vid=5e08fd99-8b2e-47e9-8c0b-8f6d36d2d054"},"vehicle_type_id":"4","last_reported":1680005632,"current_range_meters":17200,"station_id":"ce4bh512rcd13ifvqe3g","pricing_plan_id":"free"},{"bike_id":"c79833d2-bb26-4c50-8979-c01d286eb52f","system_id":"levelo_inurba_marseille","lat":43.28857,"lon":5.39316,"is_reserved":false,"is_disabled":false,"rental_uris":{"android":"levelo://app?vid=c79833d2-bb26-4c50-8979-c01d286eb52f","ios":"levelo://app?vid=c79833d2-bb26-4c50-8979-c01d286eb52f"},"vehicle_type_id":"4","last_reported":1680005632,"current_range_meters":0,"station_id":"","pricing_plan_id":"free"},{"bike_id":"e8cabebe-6712-4012-9d16-a4a3fab391e4","system_id":"levelo_inurba_marseille","lat":43.2835,"lon":5.38108,"is_reserved":false,"is_disabled":false,"rental_uris":{"android":"levelo://app?vid=e8cabebe-6712-4012-9d16-a4a3fab391e4","ios":"levelo://app?vid=e8cabebe-6712-4012-9d16-a4a3fab391e4"},"vehicle_type_id":"4","last_reported":1680005632,"current_range_meters":1200,"station_id":"","pricing_plan_id":"free"},{"bike_id":"a1125be4-a25e-4706-b000-80ba6d501abf","system_id":"levelo_inurba_marseille","lat":43.28349,"lon":5.38111,"is_reserved":false,"is_disabled":false,"rental_uris":{"android":"levelo://app?vid=a1125be4-a25e-4706-b000-80ba6d501abf","ios":"levelo://app?vid=a1125be4-a25e-4706-b000-80ba6d501abf"},"vehicle_type_id":"4","last_reported":1680005632,"current_range_meters":4800,"station_id":"","pricing_plan_id":"free"},{"bike_id":"86025458-2b83-4f6e-bbd2-cf45452390b1","system_id":"levelo_inurba_marseille","lat":43.289363,"lon":5.396322,"is_reserved":false,"is_disabled":false,"rental_uris":{"android":"levelo://app?vid=86025458-2b83-4f6e-bbd2-cf45452390b1","ios":"levelo://app?vid=86025458-2b83-4f6e-bbd2-cf45452390b1"},"vehicle_type_id":"4","last_reported":1680005632,"current_range_meters":25200,"station_id":"ce4bh3h2rcd13ifvqdn0","pricing_plan_id":"free"},{"bike_id":"6ddd912d-997e-46a6-9b71-47d60b5f9693","system_id":"levelo_inurba_marseille","lat":43.292724,"lon":5.401131,"is_reserved":false,"is_disabled":false,"rental_uris":{"android":"levelo://app?vid=6ddd912d-997e-46a6-9b71-47d60b5f9693","ios":"levelo://app?vid=6ddd912d-997e-46a6-9b71-47d60b5f9693"},"vehicle_type_id":"4","last_reported":1680005632,"current_range_meters":11200,"station_id":"ce4bh312rcd13ifvqdk0","pricing_plan_id":"free"},{"bike_id":"f726d8a9-26c9-46d0-bf5c-f99caea6f41c","system_id":"levelo_inurba_marseille","lat":43.292731,"lon":5.401078,"is_reserved":false,"is_disabled":false,"rental_uris":{"android":"levelo://app?vid=f726d8a9-26c9-46d0-bf5c-f99caea6f41c","ios":"levelo://app?vid=f726d8a9-26c9-46d0-bf5c-f99caea6f41c"},"vehicle_type_id":"4","last_reported":1680005632,"current_range_meters":23200,"station_id":"ce4bh312rcd13ifvqdk0","pricing_plan_id":"free"},{"bike_id":"30d182bd-438d-4967-832e-65920eb4853d","system_id":"levelo_inurba_marseille","lat":43.327808,"lon":5.406118,"is_reserved":false,"is_disabled":false,"rental_uris":{"android":"levelo://app?vid=30d182bd-438d-4967-832e-65920eb4853d","ios":"levelo://app?vid=30d182bd-438d-4967-832e-65920eb4853d"},"vehicle_type_id":"4","last_reported":1680005632,"current_range_meters":0,"station_id":"","pricing_plan_id":"free"},{"bike_id":"a1fb0f21-247a-4bb3-ac1c-ec4743dbec0f","system_id":"levelo_inurba_marseille","lat":43.282707,"lon":5.350597,"is_reserved":false,"is_disabled":false,"rental_uris":{"android":"levelo://app?vid=a1fb0f21-247a-4bb3-ac1c-ec4743dbec0f","ios":"levelo://app?vid=a1fb0f21-247a-4bb3-ac1c-ec4743dbec0f"},"vehicle_type_id":"4","last_reported":1680005632,"current_range_meters":8400,"station_id":"ce4bhbp2rcd13ifvqerg","pricing_plan_id":"free"},{"bike_id":"aa1f33d4-4b7f-4e0d-9cdc-b4fbc14a838a","system_id":"levelo_inurba_marseille","lat":43.282754,"lon":5.350519,"is_reserved":false,"is_disabled":false,"rental_uris":{"android":"levelo://app?vid=aa1f33d4-4b7f-4e0d-9cdc-b4fbc14a838a","ios":"levelo://app?vid=aa1f33d4-4b7f-4e0d-9cdc-b4fbc14a838a"},"vehicle_type_id":"4","last_reported":1680005632,"current_range_meters":18000,"station_id":"ce4bhbp2rcd13ifvqerg","pricing_plan_id":"free"},{"bike_id":"46404dff-e5dd-426a-ac8a-f99599d3eecc","system_id":"levelo_inurba_marseille","lat":43.282754,"lon":5.350519,"is_reserved":false,"is_disabled":false,"rental_uris":{"android":"levelo://app?vid=46404dff-e5dd-426a-ac8a-f99599d3eecc","ios":"levelo://app?vid=46404dff-e5dd-426a-ac8a-f99599d3eecc"},"vehicle_type_id":"4","last_reported":1680005632,"current_range_meters":2400,"station_id":"ce4bhbp2rcd13ifvqerg","pricing_plan_id":"free"},{"bike_id":"36d51f9b-6834-4ab7-a881-671388488fe4","system_id":"levelo_inurba_marseille","lat":43.282754,"lon":5.350519,"is_reserved":false,"is_disabled":false,"rental_uris":{"android":"levelo://app?vid=36d51f9b-6834-4ab7-a881-671388488fe4","ios":"levelo://app?vid=36d51f9b-6834-4ab7-a881-671388488fe4"},"vehicle_type_id":"4","last_reported":1680005632,"current_range_meters":800,"station_id":"ce4bhbp2rcd13ifvqerg","pricing_plan_id":"free"},{"bike_id":"ed6e4f85-26a9-4a88-8dc9-62c2e28e9d07","system_id":"levelo_inurba_marseille","lat":43.282744,"lon":5.350533,"is_reserved":false,"is_disabled":false,"rental_uris":{"android":"levelo://app?vid=ed6e4f85-26a9-4a88-8dc9-62c2e28e9d07","ios":"levelo://app?vid=ed6e4f85-26a9-4a88-8dc9-62c2e28e9d07"},"vehicle_type_id":"4","last_reported":1680005632,"current_range_meters":1600,"station_id":"ce4bhbp2rcd13ifvqerg","pricing_plan_id":"free"},{"bike_id":"a9e85fca-49a7-46e6-a1f5-19f0f2571f6d","system_id":"levelo_inurba_marseille","lat":43.2835,"lon":5.38637,"is_reserved":false,"is_disabled":false,"rental_uris":{"android":"levelo://app?vid=a9e85fca-49a7-46e6-a1f5-19f0f2571f6d","ios":"levelo://app?vid=a9e85fca-49a7-46e6-a1f5-19f0f2571f6d"},"vehicle_type_id":"4","last_reported":1680005632,"current_range_meters":14400,"station_id":"ce4bh492rcd13ifvqdvg","pricing_plan_id":"free"},{"bike_id":"44747cc3-9d69-4efe-aed2-039e8dd3dea6","system_id":"levelo_inurba_marseille","lat":43.290412,"lon":5.399633,"is_reserved":false,"is_disabled":false,"rental_uris":{"android":"levelo://app?vid=44747cc3-9d69-4efe-aed2-039e8dd3dea6","ios":"levelo://app?vid=44747cc3-9d69-4efe-aed2-039e8dd3dea6"},"vehicle_type_id":"4","last_reported":1680005632,"current_range_meters":2800,"station_id":"ce4bh392rcd13ifvqdm0","pricing_plan_id":"free"},{"bike_id":"5c8c1062-dcfa-4a00-ba06-42ade933bbf6","system_id":"levelo_inurba_marseille","lat":43.290412,"lon":5.399633,"is_reserved":false,"is_disabled":false,"rental_uris":{"android":"levelo://app?vid=5c8c1062-dcfa-4a00-ba06-42ade933bbf6","ios":"levelo://app?vid=5c8c1062-dcfa-4a00-ba06-42ade933bbf6"},"vehicle_type_id":"4","last_reported":1680005632,"current_range_meters":23200,"station_id":"ce4bh392rcd13ifvqdm0","pricing_plan_id":"free"},{"bike_id":"21a19897-be06-4460-b893-f17135fbb464","system_id":"levelo_inurba_marseille","lat":43.29041,"lon":5.399634,"is_reserved":false,"is_disabled":false,"rental_uris":{"android":"levelo://app?vid=21a19897-be06-4460-b893-f17135fbb464","ios":"levelo://app?vid=21a19897-be06-4460-b893-f17135fbb464"},"vehicle_type_id":"4","last_reported":1680005632,"current_range_meters":2800,"station_id":"ce4bh392rcd13ifvqdm0","pricing_plan_id":"free"},{"bike_id":"665a7075-a3dd-4a33-b093-b3da46504993","system_id":"levelo_inurba_marseille","lat":43.281044,"lon":5.378308,"is_reserved":false,"is_disabled":false,"rental_uris":{"android":"levelo://app?vid=665a7075-a3dd-4a33-b093-b3da46504993","ios":"levelo://app?vid=665a7075-a3dd-4a33-b093-b3da46504993"},"vehicle_type_id":"4","last_reported":1680005632,"current_range_meters":12800,"station_id":"ce4bha12rcd13ifvqee0","pricing_plan_id":"free"},{"bike_id":"c2127b23-d078-4c7a-a0f0-aa0b81c7f8e6","system_id":"levelo_inurba_marseille","lat":43.281044,"lon":5.378308,"is_reserved":false,"is_disabled":false,"rental_uris":{"android":"levelo://app?vid=c2127b23-d078-4c7a-a0f0-aa0b81c7f8e6","ios":"levelo://app?vid=c2127b23-d078-4c7a-a0f0-aa0b81c7f8e6"},"vehicle_type_id":"4","last_reported":1680005632,"current_range_meters":8000,"station_id":"ce4bha12rcd13ifvqee0","pricing_plan_id":"free"},{"bike_id":"7d7f8772-0f65-4e37-be24-158b88af5dd1","system_id":"levelo_inurba_marseille","lat":43.281044,"lon":5.378308,"is_reserved":false,"is_disabled":false,"rental_uris":{"android":"levelo://app?vid=7d7f8772-0f65-4e37-be24-158b88af5dd1","ios":"levelo://app?vid=7d7f8772-0f65-4e37-be24-158b88af5dd1"},"vehicle_type_id":"4","last_reported":1680005632,"current_range_meters":2400,"station_id":"ce4bha12rcd13ifvqee0","pricing_plan_id":"free"},{"bike_id":"d930f5cf-4463-4d15-8363-3c46b1054b9a","system_id":"levelo_inurba_marseille","lat":43.281044,"lon":5.378308,"is_reserved":false,"is_disabled":false,"rental_uris":{"android":"levelo://app?vid=d930f5cf-4463-4d15-8363-3c46b1054b9a","ios":"levelo://app?vid=d930f5cf-4463-4d15-8363-3c46b1054b9a"},"vehicle_type_id":"4","last_reported":1680005632,"current_range_meters":6000,"station_id":"ce4bha12rcd13ifvqee0","pricing_plan_id":"free"},{"bike_id":"ef2103b3-13bb-454c-9a26-3d86c67f3f7c","system_id":"levelo_inurba_marseille","lat":43.284462,"lon":5.392121,"is_reserved":false,"is_disabled":false,"rental_uris":{"android":"levelo://app?vid=ef2103b3-13bb-454c-9a26-3d86c67f3f7c","ios":"levelo://app?vid=ef2103b3-13bb-454c-9a26-3d86c67f3f7c"},"vehicle_type_id":"4","last_reported":1680005632,"current_range_meters":4400,"station_id":"ce4bhoh2rcd13ifvqh5g","pricing_plan_id":"free"},{"bike_id":"ccc5b2c7-7ce5-487f-b2ca-17f59ef957c4","system_id":"levelo_inurba_marseille","lat":43.284462,"lon":5.392121,"is_reserved":false,"is_disabled":false,"rental_uris":{"android":"levelo://app?vid=ccc5b2c7-7ce5-487f-b2ca-17f59ef957c4","ios":"levelo://app?vid=ccc5b2c7-7ce5-487f-b2ca-17f59ef957c4"},"vehicle_type_id":"4","last_reported":1680005632,"current_range_meters":19600,"station_id":"ce4bhoh2rcd13ifvqh5g","pricing_plan_id":"free"},{"bike_id":"5cb5fb68-001d-422c-b7d2-91e0c78d0d06","system_id":"levelo_inurba_marseille","lat":43.287154,"lon":5.399979,"is_reserved":false,"is_disabled":false,"rental_uris":{"android":"levelo://app?vid=5cb5fb68-001d-422c-b7d2-91e0c78d0d06","ios":"levelo://app?vid=5cb5fb68-001d-422c-b7d2-91e0c78d0d06"},"vehicle_type_id":"4","last_reported":1680005632,"current_range_meters":2800,"station_id":"ce4bho92rcd13ifvqh3g","pricing_plan_id":"free"},{"bike_id":"8d287b73-9b39-40ee-b6a8-388b011c3e8b","system_id":"levelo_inurba_marseille","lat":43.299579,"lon":5.413255,"is_reserved":false,"is_disabled":false,"rental_uris":{"android":"levelo://app?vid=8d287b73-9b39-40ee-b6a8-388b011c3e8b","ios":"levelo://app?vid=8d287b73-9b39-40ee-b6a8-388b011c3e8b"},"vehicle_type_id":"4","last_reported":1680005632,"current_range_meters":8000,"station_id":"ce4bhp12rcd13ifvqh9g","pricing_plan_id":"free"},{"bike_id":"60405b14-c38a-4a2a-bba4-9642668bd1c9","system_id":"levelo_inurba_marseille","lat":43.299579,"lon":5.413255,"is_reserved":false,"is_disabled":false,"rental_uris":{"android":"levelo://app?vid=60405b14-c38a-4a2a-bba4-9642668bd1c9","ios":"levelo://app?vid=60405b14-c38a-4a2a-bba4-9642668bd1c9"},"vehicle_type_id":"4","last_reported":1680005632,"current_range_meters":28400,"station_id":"ce4bhp12rcd13ifvqh9g","pricing_plan_id":"free"},{"bike_id":"ecd30316-e23f-41cb-b3a3-1303e19e3455","system_id":"levelo_inurba_marseille","lat":43.279742,"lon":5.38744,"is_reserved":false,"is_disabled":false,"rental_uris":{"android":"levelo://app?vid=ecd30316-e23f-41cb-b3a3-1303e19e3455","ios":"levelo://app?vid=ecd30316-e23f-41cb-b3a3-1303e19e3455"},"vehicle_type_id":"4","last_reported":1680005632,"current_range_meters":11600,"station_id":"ce4bhg12rcd13ifvqf80","pricing_plan_id":"free"},{"bike_id":"00c4e809-d4f8-434c-a3b6-e31a122786cd","system_id":"levelo_inurba_marseille","lat":43.299577,"lon":5.413277,"is_reserved":false,"is_disabled":false,"rental_uris":{"android":"levelo://app?vid=00c4e809-d4f8-434c-a3b6-e31a122786cd","ios":"levelo://app?vid=00c4e809-d4f8-434c-a3b6-e31a122786cd"},"vehicle_type_id":"4","last_reported":1680005632,"current_range_meters":24000,"station_id":"ce4bhp12rcd13ifvqh9g","pricing_plan_id":"free"},{"bike_id":"9ea19aac-069d-459f-bbfc-57a70378f663","system_id":"levelo_inurba_marseille","lat":43.27968,"lon":5.38744,"is_reserved":false,"is_disabled":false,"rental_uris":{"android":"levelo://app?vid=9ea19aac-069d-459f-bbfc-57a70378f663","ios":"levelo://app?vid=9ea19aac-069d-459f-bbfc-57a70378f663"},"vehicle_type_id":"4","last_reported":1680005632,"current_range_meters":18800,"station_id":"ce4bhg12rcd13ifvqf80","pricing_plan_id":"free"},{"bike_id":"3d49197a-22ca-4928-8388-3fd77e067219","system_id":"levelo_inurba_marseille","lat":43.27636,"lon":5.36108,"is_reserved":false,"is_disabled":false,"rental_uris":{"android":"levelo://app?vid=3d49197a-22ca-4928-8388-3fd77e067219","ios":"levelo://app?vid=3d49197a-22ca-4928-8388-3fd77e067219"},"vehicle_type_id":"4","last_reported":1680005632,"current_range_meters":22000,"station_id":"ce4bgj92rcd13ifvqbe0","pricing_plan_id":"free"},{"bike_id":"1b3e7d44-f688-4543-9f93-862d4a9abda9","system_id":"levelo_inurba_marseille","lat":43.32522,"lon":5.41439,"is_reserved":false,"is_disabled":false,"rental_uris":{"android":"levelo://app?vid=1b3e7d44-f688-4543-9f93-862d4a9abda9","ios":"levelo://app?vid=1b3e7d44-f688-4543-9f93-862d4a9abda9"},"vehicle_type_id":"4","last_reported":1680005632,"current_range_meters":0,"station_id":"","pricing_plan_id":"free"},{"bike_id":"e75a122b-8628-43c8-b983-9a38402d021e","system_id":"levelo_inurba_marseille","lat":43.292571,"lon":5.409107,"is_reserved":false,"is_disabled":false,"rental_uris":{"android":"levelo://app?vid=e75a122b-8628-43c8-b983-9a38402d021e","ios":"levelo://app?vid=e75a122b-8628-43c8-b983-9a38402d021e"},"vehicle_type_id":"4","last_reported":1680005632,"current_range_meters":25600,"station_id":"ce4bh192rcd13ifvqdc0","pricing_plan_id":"free"},{"bike_id":"3776ac18-6c96-43a2-bb40-6303ce656395","system_id":"levelo_inurba_marseille","lat":43.27618,"lon":5.361009,"is_reserved":false,"is_disabled":false,"rental_uris":{"android":"levelo://app?vid=3776ac18-6c96-43a2-bb40-6303ce656395","ios":"levelo://app?vid=3776ac18-6c96-43a2-bb40-6303ce656395"},"vehicle_type_id":"4","last_reported":1680005632,"current_range_meters":10800,"station_id":"ce4bgj92rcd13ifvqbe0","pricing_plan_id":"free"},{"bike_id":"d668f8bb-74d1-4dec-9cea-a8d4d6a858b4","system_id":"levelo_inurba_marseille","lat":43.292571,"lon":5.409107,"is_reserved":false,"is_disabled":false,"rental_uris":{"android":"levelo://app?vid=d668f8bb-74d1-4dec-9cea-a8d4d6a858b4","ios":"levelo://app?vid=d668f8bb-74d1-4dec-9cea-a8d4d6a858b4"},"vehicle_type_id":"4","last_reported":1680005632,"current_range_meters":24000,"station_id":"ce4bh192rcd13ifvqdc0","pricing_plan_id":"free"},{"bike_id":"1d7805f3-851f-4a69-a383-ed8b166447b0","system_id":"levelo_inurba_marseille","lat":43.27618,"lon":5.36102,"is_reserved":false,"is_disabled":false,"rental_uris":{"android":"levelo://app?vid=1d7805f3-851f-4a69-a383-ed8b166447b0","ios":"levelo://app?vid=1d7805f3-851f-4a69-a383-ed8b166447b0"},"vehicle_type_id":"4","last_reported":1680005632,"current_range_meters":16400,"station_id":"","pricing_plan_id":"free"},{"bike_id":"574b47d1-eed2-4205-be7a-0e9df3157e6f","system_id":"levelo_inurba_marseille","lat":43.332575,"lon":5.411058,"is_reserved":false,"is_disabled":false,"rental_uris":{"android":"levelo://app?vid=574b47d1-eed2-4205-be7a-0e9df3157e6f","ios":"levelo://app?vid=574b47d1-eed2-4205-be7a-0e9df3157e6f"},"vehicle_type_id":"4","last_reported":1680005632,"current_range_meters":0,"station_id":"","pricing_plan_id":"free"},{"bike_id":"3b5f422c-db1f-42e1-af22-56aaac539ee4","system_id":"levelo_inurba_marseille","lat":43.280784,"lon":5.396622,"is_reserved":false,"is_disabled":false,"rental_uris":{"android":"levelo://app?vid=3b5f422c-db1f-42e1-af22-56aaac539ee4","ios":"levelo://app?vid=3b5f422c-db1f-42e1-af22-56aaac539ee4"},"vehicle_type_id":"4","last_reported":1680005632,"current_range_meters":9200,"station_id":"ce4bho12rcd13ifvqh2g","pricing_plan_id":"free"},{"bike_id":"e288450e-15b1-486f-b01c-169f2854d913","system_id":"levelo_inurba_marseille","lat":43.273613,"lon":5.362705,"is_reserved":false,"is_disabled":false,"rental_uris":{"android":"levelo://app?vid=e288450e-15b1-486f-b01c-169f2854d913","ios":"levelo://app?vid=e288450e-15b1-486f-b01c-169f2854d913"},"vehicle_type_id":"4","last_reported":1680005632,"current_range_meters":5600,"station_id":"ce4bhbh2rcd13ifvqeo0","pricing_plan_id":"free"},{"bike_id":"f37d15f8-ee05-490d-87f5-f74cae612b4d","system_id":"levelo_inurba_marseille","lat":43.273613,"lon":5.362705,"is_reserved":false,"is_disabled":false,"rental_uris":{"android":"levelo://app?vid=f37d15f8-ee05-490d-87f5-f74cae612b4d","ios":"levelo://app?vid=f37d15f8-ee05-490d-87f5-f74cae612b4d"},"vehicle_type_id":"4","last_reported":1680005632,"current_range_meters":2000,"station_id":"ce4bhbh2rcd13ifvqeo0","pricing_plan_id":"free"},{"bike_id":"56db4c8e-d8d7-4c11-8d5a-993450d47861","system_id":"levelo_inurba_marseille","lat":43.273613,"lon":5.362705,"is_reserved":false,"is_disabled":false,"rental_uris":{"android":"levelo://app?vid=56db4c8e-d8d7-4c11-8d5a-993450d47861","ios":"levelo://app?vid=56db4c8e-d8d7-4c11-8d5a-993450d47861"},"vehicle_type_id":"4","last_reported":1680005632,"current_range_meters":15200,"station_id":"ce4bhbh2rcd13ifvqeo0","pricing_plan_id":"free"},{"bike_id":"80e7d701-5ec2-4e19-aa66-a0dee5808ec4","system_id":"levelo_inurba_marseille","lat":43.273613,"lon":5.362705,"is_reserved":false,"is_disabled":false,"rental_uris":{"android":"levelo://app?vid=80e7d701-5ec2-4e19-aa66-a0dee5808ec4","ios":"levelo://app?vid=80e7d701-5ec2-4e19-aa66-a0dee5808ec4"},"vehicle_type_id":"4","last_reported":1680005632,"current_range_meters":3200,"station_id":"ce4bhbh2rcd13ifvqeo0","pricing_plan_id":"free"},{"bike_id":"24007495-c4a7-4090-9376-b0eeecfbd692","system_id":"levelo_inurba_marseille","lat":43.273613,"lon":5.362705,"is_reserved":false,"is_disabled":false,"rental_uris":{"android":"levelo://app?vid=24007495-c4a7-4090-9376-b0eeecfbd692","ios":"levelo://app?vid=24007495-c4a7-4090-9376-b0eeecfbd692"},"vehicle_type_id":"4","last_reported":1680005632,"current_range_meters":31200,"station_id":"ce4bhbh2rcd13ifvqeo0","pricing_plan_id":"free"},{"bike_id":"987d861f-40ea-4adc-a8d3-e6d5368c8e3d","system_id":"levelo_inurba_marseille","lat":43.273613,"lon":5.362705,"is_reserved":false,"is_disabled":false,"rental_uris":{"android":"levelo://app?vid=987d861f-40ea-4adc-a8d3-e6d5368c8e3d","ios":"levelo://app?vid=987d861f-40ea-4adc-a8d3-e6d5368c8e3d"},"vehicle_type_id":"4","last_reported":1680005632,"current_range_meters":6000,"station_id":"ce4bhbh2rcd13ifvqeo0","pricing_plan_id":"free"},{"bike_id":"242fee70-80df-445a-ba2f-1d474dffbcc3","system_id":"levelo_inurba_marseille","lat":43.273613,"lon":5.362705,"is_reserved":false,"is_disabled":false,"rental_uris":{"android":"levelo://app?vid=242fee70-80df-445a-ba2f-1d474dffbcc3","ios":"levelo://app?vid=242fee70-80df-445a-ba2f-1d474dffbcc3"},"vehicle_type_id":"4","last_reported":1680005632,"current_range_meters":21600,"station_id":"ce4bhbh2rcd13ifvqeo0","pricing_plan_id":"free"},{"bike_id":"ceb99a38-a01e-4715-b5a1-d713afaa7705","system_id":"levelo_inurba_marseille","lat":43.27671,"lon":5.38879,"is_reserved":false,"is_disabled":false,"rental_uris":{"android":"levelo://app?vid=ceb99a38-a01e-4715-b5a1-d713afaa7705","ios":"levelo://app?vid=ceb99a38-a01e-4715-b5a1-d713afaa7705"},"vehicle_type_id":"4","last_reported":1680005632,"current_range_meters":0,"station_id":"ce4bhi12rcd13ifvqfo0","pricing_plan_id":"free"},{"bike_id":"b0edd17e-c6e7-42ce-b1a0-0c16f63fbf78","system_id":"levelo_inurba_marseille","lat":43.276694,"lon":5.389056,"is_reserved":false,"is_disabled":false,"rental_uris":{"android":"levelo://app?vid=b0edd17e-c6e7-42ce-b1a0-0c16f63fbf78","ios":"levelo://app?vid=b0edd17e-c6e7-42ce-b1a0-0c16f63fbf78"},"vehicle_type_id":"4","last_reported":1680005632,"current_range_meters":0,"station_id":"ce4bhi12rcd13ifvqfo0","pricing_plan_id":"free"},{"bike_id":"d95ebb88-7fbb-4558-8345-12946022594d","system_id":"levelo_inurba_marseille","lat":43.327783,"lon":5.417619,"is_reserved":false,"is_disabled":false,"rental_uris":{"android":"levelo://app?vid=d95ebb88-7fbb-4558-8345-12946022594d","ios":"levelo://app?vid=d95ebb88-7fbb-4558-8345-12946022594d"},"vehicle_type_id":"4","last_reported":1680005632,"current_range_meters":14400,"station_id":"","pricing_plan_id":"free"},{"bike_id":"2bcbec03-7280-4671-9054-ea8815e66531","system_id":"levelo_inurba_marseille","lat":43.310805,"lon":5.424355,"is_reserved":false,"is_disabled":false,"rental_uris":{"android":"levelo://app?vid=2bcbec03-7280-4671-9054-ea8815e66531","ios":"levelo://app?vid=2bcbec03-7280-4671-9054-ea8815e66531"},"vehicle_type_id":"4","last_reported":1680005632,"current_range_meters":0,"station_id":"","pricing_plan_id":"free"},{"bike_id":"0ff9332d-7121-44a3-9885-c3a4bdbc41b0","system_id":"levelo_inurba_marseille","lat":43.27437,"lon":5.39416,"is_reserved":false,"is_disabled":false,"rental_uris":{"android":"levelo://app?vid=0ff9332d-7121-44a3-9885-c3a4bdbc41b0","ios":"levelo://app?vid=0ff9332d-7121-44a3-9885-c3a4bdbc41b0"},"vehicle_type_id":"4","last_reported":1680005632,"current_range_meters":0,"station_id":"","pricing_plan_id":"free"},{"bike_id":"54a920ce-c2f0-4b7c-a9b4-8067eeaf044e","system_id":"levelo_inurba_marseille","lat":43.27314,"lon":5.39081,"is_reserved":false,"is_disabled":false,"rental_uris":{"android":"levelo://app?vid=54a920ce-c2f0-4b7c-a9b4-8067eeaf044e","ios":"levelo://app?vid=54a920ce-c2f0-4b7c-a9b4-8067eeaf044e"},"vehicle_type_id":"4","last_reported":1680005632,"current_range_meters":0,"station_id":"ce4bhgp2rcd13ifvqfe0","pricing_plan_id":"free"},{"bike_id":"961e55f2-5d1c-4c97-a1cf-0bc4c25a4afd","system_id":"levelo_inurba_marseille","lat":43.274271,"lon":5.394103,"is_reserved":false,"is_disabled":false,"rental_uris":{"android":"levelo://app?vid=961e55f2-5d1c-4c97-a1cf-0bc4c25a4afd","ios":"levelo://app?vid=961e55f2-5d1c-4c97-a1cf-0bc4c25a4afd"},"vehicle_type_id":"4","last_reported":1680005632,"current_range_meters":0,"station_id":"ce4bhdp2rcd13ifvqf20","pricing_plan_id":"free"},{"bike_id":"94e8101a-0eb7-4116-b678-ce0c5a9f9116","system_id":"levelo_inurba_marseille","lat":43.274231,"lon":5.394044,"is_reserved":false,"is_disabled":false,"rental_uris":{"android":"levelo://app?vid=94e8101a-0eb7-4116-b678-ce0c5a9f9116","ios":"levelo://app?vid=94e8101a-0eb7-4116-b678-ce0c5a9f9116"},"vehicle_type_id":"4","last_reported":1680005632,"current_range_meters":0,"station_id":"ce4bhdp2rcd13ifvqf20","pricing_plan_id":"free"},{"bike_id":"86812e88-26f6-4c60-a985-9b9a8c8aff2b","system_id":"levelo_inurba_marseille","lat":43.27308,"lon":5.39077,"is_reserved":false,"is_disabled":false,"rental_uris":{"android":"levelo://app?vid=86812e88-26f6-4c60-a985-9b9a8c8aff2b","ios":"levelo://app?vid=86812e88-26f6-4c60-a985-9b9a8c8aff2b"},"vehicle_type_id":"4","last_reported":1680005632,"current_range_meters":9200,"station_id":"ce4bhgp2rcd13ifvqfe0","pricing_plan_id":"free"},{"bike_id":"d9793577-3a93-4059-a7da-ccf450b59344","system_id":"levelo_inurba_marseille","lat":43.29551,"lon":5.4228,"is_reserved":false,"is_disabled":false,"rental_uris":{"android":"levelo://app?vid=d9793577-3a93-4059-a7da-ccf450b59344","ios":"levelo://app?vid=d9793577-3a93-4059-a7da-ccf450b59344"},"vehicle_type_id":"4","last_reported":1680005632,"current_range_meters":27200,"station_id":"ce4bhph2rcd13ifvqhdg","pricing_plan_id":"free"},{"bike_id":"a8f02565-3cef-4970-b53f-ef843794a799","system_id":"levelo_inurba_marseille","lat":43.295523,"lon":5.422926,"is_reserved":false,"is_disabled":false,"rental_uris":{"android":"levelo://app?vid=a8f02565-3cef-4970-b53f-ef843794a799","ios":"levelo://app?vid=a8f02565-3cef-4970-b53f-ef843794a799"},"vehicle_type_id":"4","last_reported":1680005632,"current_range_meters":23600,"station_id":"ce4bhph2rcd13ifvqhdg","pricing_plan_id":"free"},{"bike_id":"478cc2a8-bc10-45b4-8287-c12753741881","system_id":"levelo_inurba_marseille","lat":43.278128,"lon":5.407195,"is_reserved":false,"is_disabled":false,"rental_uris":{"android":"levelo://app?vid=478cc2a8-bc10-45b4-8287-c12753741881","ios":"levelo://app?vid=478cc2a8-bc10-45b4-8287-c12753741881"},"vehicle_type_id":"4","last_reported":1680005632,"current_range_meters":15600,"station_id":"ce4bhnh2rcd13ifvqgtg","pricing_plan_id":"free"},{"bike_id":"f749fdeb-b774-4bc0-92cf-7c22a9a7563f","system_id":"levelo_inurba_marseille","lat":43.278128,"lon":5.407195,"is_reserved":false,"is_disabled":false,"rental_uris":{"android":"levelo://app?vid=f749fdeb-b774-4bc0-92cf-7c22a9a7563f","ios":"levelo://app?vid=f749fdeb-b774-4bc0-92cf-7c22a9a7563f"},"vehicle_type_id":"4","last_reported":1680005632,"current_range_meters":0,"station_id":"ce4bhnh2rcd13ifvqgtg","pricing_plan_id":"free"},{"bike_id":"48319c96-e128-4e94-af64-29c395b4b6e5","system_id":"levelo_inurba_marseille","lat":43.269467,"lon":5.386439,"is_reserved":false,"is_disabled":false,"rental_uris":{"android":"levelo://app?vid=48319c96-e128-4e94-af64-29c395b4b6e5","ios":"levelo://app?vid=48319c96-e128-4e94-af64-29c395b4b6e5"},"vehicle_type_id":"4","last_reported":1680005632,"current_range_meters":20800,"station_id":"ce4bhh92rcd13ifvqfh0","pricing_plan_id":"free"},{"bike_id":"e1e39796-a9d4-4765-861a-7a130e92168e","system_id":"levelo_inurba_marseille","lat":43.269467,"lon":5.386439,"is_reserved":false,"is_disabled":false,"rental_uris":{"android":"levelo://app?vid=e1e39796-a9d4-4765-861a-7a130e92168e","ios":"levelo://app?vid=e1e39796-a9d4-4765-861a-7a130e92168e"},"vehicle_type_id":"4","last_reported":1680005632,"current_range_meters":23200,"station_id":"ce4bhh92rcd13ifvqfh0","pricing_plan_id":"free"},{"bike_id":"2e1a15d6-0cbb-4e5e-a437-8255199fd5fe","system_id":"levelo_inurba_marseille","lat":43.26954,"lon":5.38628,"is_reserved":false,"is_disabled":false,"rental_uris":{"android":"levelo://app?vid=2e1a15d6-0cbb-4e5e-a437-8255199fd5fe","ios":"levelo://app?vid=2e1a15d6-0cbb-4e5e-a437-8255199fd5fe"},"vehicle_type_id":"4","last_reported":1680005632,"current_range_meters":20400,"station_id":"ce4bhh92rcd13ifvqfh0","pricing_plan_id":"free"},{"bike_id":"82439469-7e85-4ff7-9b1e-96305d76c365","system_id":"levelo_inurba_marseille","lat":43.265714,"lon":5.372891,"is_reserved":false,"is_disabled":false,"rental_uris":{"android":"levelo://app?vid=82439469-7e85-4ff7-9b1e-96305d76c365","ios":"levelo://app?vid=82439469-7e85-4ff7-9b1e-96305d76c365"},"vehicle_type_id":"4","last_reported":1680005632,"current_range_meters":18800,"station_id":"ce4bhg12rcd13ifvqf70","pricing_plan_id":"free"},{"bike_id":"210f2b4e-cfdd-4414-8cfa-db733aa5e281","system_id":"levelo_inurba_marseille","lat":43.26681,"lon":5.382694,"is_reserved":false,"is_disabled":false,"rental_uris":{"android":"levelo://app?vid=210f2b4e-cfdd-4414-8cfa-db733aa5e281","ios":"levelo://app?vid=210f2b4e-cfdd-4414-8cfa-db733aa5e281"},"vehicle_type_id":"4","last_reported":1680005632,"current_range_meters":25600,"station_id":"ce4bhg92rcd13ifvqf90","pricing_plan_id":"free"},{"bike_id":"98721844-2348-4372-ac12-d4de865fbe42","system_id":"levelo_inurba_marseille","lat":43.26681,"lon":5.382694,"is_reserved":false,"is_disabled":false,"rental_uris":{"android":"levelo://app?vid=98721844-2348-4372-ac12-d4de865fbe42","ios":"levelo://app?vid=98721844-2348-4372-ac12-d4de865fbe42"},"vehicle_type_id":"4","last_reported":1680005632,"current_range_meters":26800,"station_id":"ce4bhg92rcd13ifvqf90","pricing_plan_id":"free"},{"bike_id":"562c6bf4-795d-4fbc-a41c-dfca6a48155a","system_id":"levelo_inurba_marseille","lat":43.26681,"lon":5.382694,"is_reserved":false,"is_disabled":false,"rental_uris":{"android":"levelo://app?vid=562c6bf4-795d-4fbc-a41c-dfca6a48155a","ios":"levelo://app?vid=562c6bf4-795d-4fbc-a41c-dfca6a48155a"},"vehicle_type_id":"4","last_reported":1680005632,"current_range_meters":8800,"station_id":"ce4bhg92rcd13ifvqf90","pricing_plan_id":"free"},{"bike_id":"b6af84d0-52ca-43ce-906d-29fb34b06ab3","system_id":"levelo_inurba_marseille","lat":43.265714,"lon":5.372891,"is_reserved":false,"is_disabled":false,"rental_uris":{"android":"levelo://app?vid=b6af84d0-52ca-43ce-906d-29fb34b06ab3","ios":"levelo://app?vid=b6af84d0-52ca-43ce-906d-29fb34b06ab3"},"vehicle_type_id":"4","last_reported":1680005632,"current_range_meters":16000,"station_id":"ce4bhg12rcd13ifvqf70","pricing_plan_id":"free"},{"bike_id":"e58b396f-b27e-4ec8-b08b-031d09e64b72","system_id":"levelo_inurba_marseille","lat":43.26681,"lon":5.382694,"is_reserved":false,"is_disabled":false,"rental_uris":{"android":"levelo://app?vid=e58b396f-b27e-4ec8-b08b-031d09e64b72","ios":"levelo://app?vid=e58b396f-b27e-4ec8-b08b-031d09e64b72"},"vehicle_type_id":"4","last_reported":1680005632,"current_range_meters":29200,"station_id":"ce4bhg92rcd13ifvqf90","pricing_plan_id":"free"},{"bike_id":"ef6f16da-3f87-430a-b666-97ff39b81395","system_id":"levelo_inurba_marseille","lat":43.279954,"lon":5.416615,"is_reserved":false,"is_disabled":false,"rental_uris":{"android":"levelo://app?vid=ef6f16da-3f87-430a-b666-97ff39b81395","ios":"levelo://app?vid=ef6f16da-3f87-430a-b666-97ff39b81395"},"vehicle_type_id":"4","last_reported":1680005632,"current_range_meters":0,"station_id":"ce4bho12rcd13ifvqh1g","pricing_plan_id":"free"},{"bike_id":"a859f733-c54b-44ec-b387-7bd639d2d269","system_id":"levelo_inurba_marseille","lat":43.27984,"lon":5.41659,"is_reserved":false,"is_disabled":false,"rental_uris":{"android":"levelo://app?vid=a859f733-c54b-44ec-b387-7bd639d2d269","ios":"levelo://app?vid=a859f733-c54b-44ec-b387-7bd639d2d269"},"vehicle_type_id":"4","last_reported":1680005632,"current_range_meters":10800,"station_id":"ce4bho12rcd13ifvqh1g","pricing_plan_id":"free"},{"bike_id":"26982173-340c-4d57-b0a0-bafe359bbf38","system_id":"levelo_inurba_marseille","lat":43.267966,"lon":5.393976,"is_reserved":false,"is_disabled":false,"rental_uris":{"android":"levelo://app?vid=26982173-340c-4d57-b0a0-bafe359bbf38","ios":"levelo://app?vid=26982173-340c-4d57-b0a0-bafe359bbf38"},"vehicle_type_id":"4","last_reported":1680005632,"current_range_meters":26000,"station_id":"ce4bhh12rcd13ifvqfg0","pricing_plan_id":"free"},{"bike_id":"2ae02556-3475-49ea-9c73-8a65d847d59b","system_id":"levelo_inurba_marseille","lat":43.267966,"lon":5.393976,"is_reserved":false,"is_disabled":false,"rental_uris":{"android":"levelo://app?vid=2ae02556-3475-49ea-9c73-8a65d847d59b","ios":"levelo://app?vid=2ae02556-3475-49ea-9c73-8a65d847d59b"},"vehicle_type_id":"4","last_reported":1680005632,"current_range_meters":8000,"station_id":"ce4bhh12rcd13ifvqfg0","pricing_plan_id":"free"},{"bike_id":"afca5ac1-f8f1-48e0-9281-93834d35b351","system_id":"levelo_inurba_marseille","lat":43.263819,"lon":5.378019,"is_reserved":false,"is_disabled":false,"rental_uris":{"android":"levelo://app?vid=afca5ac1-f8f1-48e0-9281-93834d35b351","ios":"levelo://app?vid=afca5ac1-f8f1-48e0-9281-93834d35b351"},"vehicle_type_id":"4","last_reported":1680005632,"current_range_meters":1200,"station_id":"","pricing_plan_id":"free"},{"bike_id":"ad4196af-4869-4fc8-a05e-5aa2d48ce160","system_id":"levelo_inurba_marseille","lat":43.308051,"lon":5.43527,"is_reserved":false,"is_disabled":false,"rental_uris":{"android":"levelo://app?vid=ad4196af-4869-4fc8-a05e-5aa2d48ce160","ios":"levelo://app?vid=ad4196af-4869-4fc8-a05e-5aa2d48ce160"},"vehicle_type_id":"4","last_reported":1680005632,"current_range_meters":25200,"station_id":"ce4bhph2rcd13ifvqheg","pricing_plan_id":"free"},{"bike_id":"1eba9b8b-9afe-4b38-860f-f6e31dfe9ea7","system_id":"levelo_inurba_marseille","lat":43.26572,"lon":5.38999,"is_reserved":false,"is_disabled":false,"rental_uris":{"android":"levelo://app?vid=1eba9b8b-9afe-4b38-860f-f6e31dfe9ea7","ios":"levelo://app?vid=1eba9b8b-9afe-4b38-860f-f6e31dfe9ea7"},"vehicle_type_id":"4","last_reported":1680005632,"current_range_meters":25600,"station_id":"ce4bhe12rcd13ifvqf30","pricing_plan_id":"free"},{"bike_id":"f7dc4acf-7321-4a61-bde1-c81f6b2d0d21","system_id":"levelo_inurba_marseille","lat":43.2657,"lon":5.38995,"is_reserved":false,"is_disabled":false,"rental_uris":{"android":"levelo://app?vid=f7dc4acf-7321-4a61-bde1-c81f6b2d0d21","ios":"levelo://app?vid=f7dc4acf-7321-4a61-bde1-c81f6b2d0d21"},"vehicle_type_id":"4","last_reported":1680005632,"current_range_meters":22400,"station_id":"ce4bhe12rcd13ifvqf30","pricing_plan_id":"free"},{"bike_id":"e6085e2c-f457-4c8a-8103-404cabc69cd6","system_id":"levelo_inurba_marseille","lat":43.26568,"lon":5.38996,"is_reserved":false,"is_disabled":false,"rental_uris":{"android":"levelo://app?vid=e6085e2c-f457-4c8a-8103-404cabc69cd6","ios":"levelo://app?vid=e6085e2c-f457-4c8a-8103-404cabc69cd6"},"vehicle_type_id":"4","last_reported":1680005632,"current_range_meters":3200,"station_id":"ce4bhe12rcd13ifvqf30","pricing_plan_id":"free"},{"bike_id":"b0638426-9eb7-4821-907f-118b4feaf138","system_id":"levelo_inurba_marseille","lat":43.26565,"lon":5.38994,"is_reserved":false,"is_disabled":false,"rental_uris":{"android":"levelo://app?vid=b0638426-9eb7-4821-907f-118b4feaf138","ios":"levelo://app?vid=b0638426-9eb7-4821-907f-118b4feaf138"},"vehicle_type_id":"4","last_reported":1680005632,"current_range_meters":400,"station_id":"ce4bhe12rcd13ifvqf30","pricing_plan_id":"free"},{"bike_id":"2b5a7634-974b-419b-9faa-d78ede0dad76","system_id":"levelo_inurba_marseille","lat":43.26939,"lon":5.40224,"is_reserved":false,"is_disabled":false,"rental_uris":{"android":"levelo://app?vid=2b5a7634-974b-419b-9faa-d78ede0dad76","ios":"levelo://app?vid=2b5a7634-974b-419b-9faa-d78ede0dad76"},"vehicle_type_id":"4","last_reported":1680005632,"current_range_meters":0,"station_id":"","pricing_plan_id":"free"},{"bike_id":"54d1d814-ded6-4d65-adc0-6ebd1325a2b4","system_id":"levelo_inurba_marseille","lat":43.331864,"lon":5.431794,"is_reserved":false,"is_disabled":false,"rental_uris":{"android":"levelo://app?vid=54d1d814-ded6-4d65-adc0-6ebd1325a2b4","ios":"levelo://app?vid=54d1d814-ded6-4d65-adc0-6ebd1325a2b4"},"vehicle_type_id":"4","last_reported":1680005632,"current_range_meters":2000,"station_id":"","pricing_plan_id":"free"},{"bike_id":"e3f52668-04a8-4346-a164-2c6d0796d23c","system_id":"levelo_inurba_marseille","lat":43.261782,"lon":5.374515,"is_reserved":false,"is_disabled":false,"rental_uris":{"android":"levelo://app?vid=e3f52668-04a8-4346-a164-2c6d0796d23c","ios":"levelo://app?vid=e3f52668-04a8-4346-a164-2c6d0796d23c"},"vehicle_type_id":"4","last_reported":1680005632,"current_range_meters":31600,"station_id":"ce4bhgp2rcd13ifvqfc0","pricing_plan_id":"free"},{"bike_id":"de4e3d5e-4594-4a0c-a9f4-e3930888d044","system_id":"levelo_inurba_marseille","lat":43.26185,"lon":5.37442,"is_reserved":false,"is_disabled":false,"rental_uris":{"android":"levelo://app?vid=de4e3d5e-4594-4a0c-a9f4-e3930888d044","ios":"levelo://app?vid=de4e3d5e-4594-4a0c-a9f4-e3930888d044"},"vehicle_type_id":"4","last_reported":1680005632,"current_range_meters":9600,"station_id":"ce4bhgp2rcd13ifvqfc0","pricing_plan_id":"free"},{"bike_id":"802b3c94-af58-4e5a-bcb5-a46bb9837d47","system_id":"levelo_inurba_marseille","lat":43.31713,"lon":5.437019,"is_reserved":false,"is_disabled":false,"rental_uris":{"android":"levelo://app?vid=802b3c94-af58-4e5a-bcb5-a46bb9837d47","ios":"levelo://app?vid=802b3c94-af58-4e5a-bcb5-a46bb9837d47"},"vehicle_type_id":"4","last_reported":1680005632,"current_range_meters":5200,"station_id":"ce4bhp92rcd13ifvqhcg","pricing_plan_id":"free"},{"bike_id":"0b861124-649b-48d8-b7ef-66cccb9b08f9","system_id":"levelo_inurba_marseille","lat":43.267959,"lon":5.402685,"is_reserved":false,"is_disabled":false,"rental_uris":{"android":"levelo://app?vid=0b861124-649b-48d8-b7ef-66cccb9b08f9","ios":"levelo://app?vid=0b861124-649b-48d8-b7ef-66cccb9b08f9"},"vehicle_type_id":"4","last_reported":1680005632,"current_range_meters":27200,"station_id":"ce501612rcd8frsf0b60","pricing_plan_id":"free"},{"bike_id":"eff78a82-8c37-4081-b04a-3d2f910c7fbc","system_id":"levelo_inurba_marseille","lat":43.267959,"lon":5.402685,"is_reserved":false,"is_disabled":false,"rental_uris":{"android":"levelo://app?vid=eff78a82-8c37-4081-b04a-3d2f910c7fbc","ios":"levelo://app?vid=eff78a82-8c37-4081-b04a-3d2f910c7fbc"},"vehicle_type_id":"4","last_reported":1680005632,"current_range_meters":2400,"station_id":"ce501612rcd8frsf0b60","pricing_plan_id":"free"},{"bike_id":"9d5660de-6a86-4ade-9281-7e1287ae1822","system_id":"levelo_inurba_marseille","lat":43.29896,"lon":5.43661,"is_reserved":false,"is_disabled":false,"rental_uris":{"android":"levelo://app?vid=9d5660de-6a86-4ade-9281-7e1287ae1822","ios":"levelo://app?vid=9d5660de-6a86-4ade-9281-7e1287ae1822"},"vehicle_type_id":"4","last_reported":1680005632,"current_range_meters":29200,"station_id":"","pricing_plan_id":"free"},{"bike_id":"8241dd30-1e0f-402e-a531-b3781826aecb","system_id":"levelo_inurba_marseille","lat":43.260225,"lon":5.375455,"is_reserved":false,"is_disabled":false,"rental_uris":{"android":"levelo://app?vid=8241dd30-1e0f-402e-a531-b3781826aecb","ios":"levelo://app?vid=8241dd30-1e0f-402e-a531-b3781826aecb"},"vehicle_type_id":"4","last_reported":1680005632,"current_range_meters":31200,"station_id":"ce4bhgh2rcd13ifvqfa0","pricing_plan_id":"free"},{"bike_id":"bb30efb9-3e09-4002-b335-775bd18ccf31","system_id":"levelo_inurba_marseille","lat":43.26029,"lon":5.375485,"is_reserved":false,"is_disabled":false,"rental_uris":{"android":"levelo://app?vid=bb30efb9-3e09-4002-b335-775bd18ccf31","ios":"levelo://app?vid=bb30efb9-3e09-4002-b335-775bd18ccf31"},"vehicle_type_id":"4","last_reported":1680005632,"current_range_meters":400,"station_id":"ce4bhgh2rcd13ifvqfa0","pricing_plan_id":"free"},{"bike_id":"e871eec7-5914-4b5c-bdc5-4dc77b322232","system_id":"levelo_inurba_marseille","lat":43.255756,"lon":5.382303,"is_reserved":false,"is_disabled":false,"rental_uris":{"android":"levelo://app?vid=e871eec7-5914-4b5c-bdc5-4dc77b322232","ios":"levelo://app?vid=e871eec7-5914-4b5c-bdc5-4dc77b322232"},"vehicle_type_id":"4","last_reported":1680005632,"current_range_meters":14400,"station_id":"ce4bhih2rcd13ifvqfs0","pricing_plan_id":"free"},{"bike_id":"96937bd6-7cbf-4d98-91af-8e79ca273157","system_id":"levelo_inurba_marseille","lat":43.255756,"lon":5.382303,"is_reserved":false,"is_disabled":false,"rental_uris":{"android":"levelo://app?vid=96937bd6-7cbf-4d98-91af-8e79ca273157","ios":"levelo://app?vid=96937bd6-7cbf-4d98-91af-8e79ca273157"},"vehicle_type_id":"4","last_reported":1680005632,"current_range_meters":31600,"station_id":"ce4bhih2rcd13ifvqfs0","pricing_plan_id":"free"},{"bike_id":"13382c99-bb5e-4099-b865-0760bd5fa2b4","system_id":"levelo_inurba_marseille","lat":43.254947,"lon":5.376454,"is_reserved":false,"is_disabled":false,"rental_uris":{"android":"levelo://app?vid=13382c99-bb5e-4099-b865-0760bd5fa2b4","ios":"levelo://app?vid=13382c99-bb5e-4099-b865-0760bd5fa2b4"},"vehicle_type_id":"4","last_reported":1680005632,"current_range_meters":23200,"station_id":"ce4bhh12rcd13ifvqff0","pricing_plan_id":"free"},{"bike_id":"ee43dc9a-5c15-4717-8e09-5bba020cefe4","system_id":"levelo_inurba_marseille","lat":43.254947,"lon":5.376454,"is_reserved":false,"is_disabled":false,"rental_uris":{"android":"levelo://app?vid=ee43dc9a-5c15-4717-8e09-5bba020cefe4","ios":"levelo://app?vid=ee43dc9a-5c15-4717-8e09-5bba020cefe4"},"vehicle_type_id":"4","last_reported":1680005632,"current_range_meters":9200,"station_id":"ce4bhh12rcd13ifvqff0","pricing_plan_id":"free"},{"bike_id":"2043f004-c08d-4dc9-ab10-145a9e240bb1","system_id":"levelo_inurba_marseille","lat":43.254947,"lon":5.376454,"is_reserved":false,"is_disabled":false,"rental_uris":{"android":"levelo://app?vid=2043f004-c08d-4dc9-ab10-145a9e240bb1","ios":"levelo://app?vid=2043f004-c08d-4dc9-ab10-145a9e240bb1"},"vehicle_type_id":"4","last_reported":1680005632,"current_range_meters":3600,"station_id":"ce4bhh12rcd13ifvqff0","pricing_plan_id":"free"},{"bike_id":"dcd02f08-6eed-4b36-80ec-766444b36c13","system_id":"levelo_inurba_marseille","lat":43.270712,"lon":5.422819,"is_reserved":false,"is_disabled":false,"rental_uris":{"android":"levelo://app?vid=dcd02f08-6eed-4b36-80ec-766444b36c13","ios":"levelo://app?vid=dcd02f08-6eed-4b36-80ec-766444b36c13"},"vehicle_type_id":"4","last_reported":1680005632,"current_range_meters":16400,"station_id":"","pricing_plan_id":"free"},{"bike_id":"6a10a85c-0130-47c0-9669-a7aff150f06d","system_id":"levelo_inurba_marseille","lat":43.2707,"lon":5.42282,"is_reserved":false,"is_disabled":false,"rental_uris":{"android":"levelo://app?vid=6a10a85c-0130-47c0-9669-a7aff150f06d","ios":"levelo://app?vid=6a10a85c-0130-47c0-9669-a7aff150f06d"},"vehicle_type_id":"4","last_reported":1680005632,"current_range_meters":20800,"station_id":"","pricing_plan_id":"free"},{"bike_id":"3e134bd8-ea16-4f09-8e00-480f1bc27df8","system_id":"levelo_inurba_marseille","lat":43.270721,"lon":5.422764,"is_reserved":false,"is_disabled":false,"rental_uris":{"android":"levelo://app?vid=3e134bd8-ea16-4f09-8e00-480f1bc27df8","ios":"levelo://app?vid=3e134bd8-ea16-4f09-8e00-480f1bc27df8"},"vehicle_type_id":"4","last_reported":1680005632,"current_range_meters":2800,"station_id":"ce4bhk92rcd13ifvqgb0","pricing_plan_id":"free"},{"bike_id":"9486e975-7b96-432f-b24d-08ee0939f4b7","system_id":"levelo_inurba_marseille","lat":43.250023,"lon":5.38919,"is_reserved":false,"is_disabled":false,"rental_uris":{"android":"levelo://app?vid=9486e975-7b96-432f-b24d-08ee0939f4b7","ios":"levelo://app?vid=9486e975-7b96-432f-b24d-08ee0939f4b7"},"vehicle_type_id":"4","last_reported":1680005632,"current_range_meters":16800,"station_id":"ce4bhgp2rcd13ifvqfd0","pricing_plan_id":"free"},{"bike_id":"653fbc24-ee44-4240-8e49-63a639c67650","system_id":"levelo_inurba_marseille","lat":43.250023,"lon":5.38919,"is_reserved":false,"is_disabled":false,"rental_uris":{"android":"levelo://app?vid=653fbc24-ee44-4240-8e49-63a639c67650","ios":"levelo://app?vid=653fbc24-ee44-4240-8e49-63a639c67650"},"vehicle_type_id":"4","last_reported":1680005632,"current_range_meters":3600,"station_id":"ce4bhgp2rcd13ifvqfd0","pricing_plan_id":"free"},{"bike_id":"feb61260-2851-4fa6-81b6-694cca1e0d08","system_id":"levelo_inurba_marseille","lat":43.25125,"lon":5.40315,"is_reserved":false,"is_disabled":false,"rental_uris":{"android":"levelo://app?vid=feb61260-2851-4fa6-81b6-694cca1e0d08","ios":"levelo://app?vid=feb61260-2851-4fa6-81b6-694cca1e0d08"},"vehicle_type_id":"4","last_reported":1680005632,"current_range_meters":1200,"station_id":"ce4bhlh2rcd13ifvqgig","pricing_plan_id":"free"},{"bike_id":"f915f2fc-a51a-4f31-bc78-3b5456fc0b3f","system_id":"levelo_inurba_marseille","lat":43.24693,"lon":5.382096,"is_reserved":false,"is_disabled":false,"rental_uris":{"android":"levelo://app?vid=f915f2fc-a51a-4f31-bc78-3b5456fc0b3f","ios":"levelo://app?vid=f915f2fc-a51a-4f31-bc78-3b5456fc0b3f"},"vehicle_type_id":"4","last_reported":1680005632,"current_range_meters":1200,"station_id":"ce4bhih2rcd13ifvqfr0","pricing_plan_id":"free"},{"bike_id":"5c9d1cb8-754e-49c5-bf36-fc33cafcfba7","system_id":"levelo_inurba_marseille","lat":43.25119,"lon":5.40324,"is_reserved":false,"is_disabled":false,"rental_uris":{"android":"levelo://app?vid=5c9d1cb8-754e-49c5-bf36-fc33cafcfba7","ios":"levelo://app?vid=5c9d1cb8-754e-49c5-bf36-fc33cafcfba7"},"vehicle_type_id":"4","last_reported":1680005632,"current_range_meters":24000,"station_id":"ce4bhlh2rcd13ifvqgig","pricing_plan_id":"free"},{"bike_id":"96bc3bc4-d81f-4916-9092-cadecc01bcd0","system_id":"levelo_inurba_marseille","lat":43.25102,"lon":5.403214,"is_reserved":false,"is_disabled":false,"rental_uris":{"android":"levelo://app?vid=96bc3bc4-d81f-4916-9092-cadecc01bcd0","ios":"levelo://app?vid=96bc3bc4-d81f-4916-9092-cadecc01bcd0"},"vehicle_type_id":"4","last_reported":1680005632,"current_range_meters":5200,"station_id":"ce4bhlh2rcd13ifvqgig","pricing_plan_id":"free"},{"bike_id":"b6972895-44ab-4ab8-8b1c-391096d4cd3e","system_id":"levelo_inurba_marseille","lat":43.25102,"lon":5.403214,"is_reserved":false,"is_disabled":false,"rental_uris":{"android":"levelo://app?vid=b6972895-44ab-4ab8-8b1c-391096d4cd3e","ios":"levelo://app?vid=b6972895-44ab-4ab8-8b1c-391096d4cd3e"},"vehicle_type_id":"4","last_reported":1680005632,"current_range_meters":19200,"station_id":"ce4bhlh2rcd13ifvqgig","pricing_plan_id":"free"},{"bike_id":"3f532d57-2aab-4a78-b68a-8f019ee73f79","system_id":"levelo_inurba_marseille","lat":43.245581,"lon":5.395069,"is_reserved":false,"is_disabled":false,"rental_uris":{"android":"levelo://app?vid=3f532d57-2aab-4a78-b68a-8f019ee73f79","ios":"levelo://app?vid=3f532d57-2aab-4a78-b68a-8f019ee73f79"},"vehicle_type_id":"4","last_reported":1680005632,"current_range_meters":31200,"station_id":"ce4bhlp2rcd13ifvqgjg","pricing_plan_id":"free"},{"bike_id":"5c2de01d-171d-4690-95f0-4f4ee2415114","system_id":"levelo_inurba_marseille","lat":43.245581,"lon":5.395069,"is_reserved":false,"is_disabled":false,"rental_uris":{"android":"levelo://app?vid=5c2de01d-171d-4690-95f0-4f4ee2415114","ios":"levelo://app?vid=5c2de01d-171d-4690-95f0-4f4ee2415114"},"vehicle_type_id":"4","last_reported":1680005632,"current_range_meters":23600,"station_id":"ce4bhlp2rcd13ifvqgjg","pricing_plan_id":"free"},{"bike_id":"2d1f3f53-96d9-4fb1-a517-1c2babaa433b","system_id":"levelo_inurba_marseille","lat":43.245581,"lon":5.395069,"is_reserved":false,"is_disabled":false,"rental_uris":{"android":"levelo://app?vid=2d1f3f53-96d9-4fb1-a517-1c2babaa433b","ios":"levelo://app?vid=2d1f3f53-96d9-4fb1-a517-1c2babaa433b"},"vehicle_type_id":"4","last_reported":1680005632,"current_range_meters":13600,"station_id":"ce4bhlp2rcd13ifvqgjg","pricing_plan_id":"free"},{"bike_id":"134280e9-a577-402e-a919-362289f147d0","system_id":"levelo_inurba_marseille","lat":43.240733,"lon":5.377623,"is_reserved":false,"is_disabled":false,"rental_uris":{"android":"levelo://app?vid=134280e9-a577-402e-a919-362289f147d0","ios":"levelo://app?vid=134280e9-a577-402e-a919-362289f147d0"},"vehicle_type_id":"4","last_reported":1680005632,"current_range_meters":17600,"station_id":"ce4bhnp2rcd13ifvqgvg","pricing_plan_id":"free"},{"bike_id":"d28ac7b1-d477-41f2-a192-3f439d0cf7be","system_id":"levelo_inurba_marseille","lat":43.24073,"lon":5.3776,"is_reserved":false,"is_disabled":false,"rental_uris":{"android":"levelo://app?vid=d28ac7b1-d477-41f2-a192-3f439d0cf7be","ios":"levelo://app?vid=d28ac7b1-d477-41f2-a192-3f439d0cf7be"},"vehicle_type_id":"4","last_reported":1680005632,"current_range_meters":9600,"station_id":"ce4bhnp2rcd13ifvqgvg","pricing_plan_id":"free"},{"bike_id":"e371cab7-622f-49e2-a39b-58c4d5c0c1d7","system_id":"levelo_inurba_marseille","lat":43.240623,"lon":5.377642,"is_reserved":false,"is_disabled":false,"rental_uris":{"android":"levelo://app?vid=e371cab7-622f-49e2-a39b-58c4d5c0c1d7","ios":"levelo://app?vid=e371cab7-622f-49e2-a39b-58c4d5c0c1d7"},"vehicle_type_id":"4","last_reported":1680005632,"current_range_meters":12800,"station_id":"ce4bhnp2rcd13ifvqgvg","pricing_plan_id":"free"},{"bike_id":"91ed7d33-e06c-437a-b564-8749cdf99188","system_id":"levelo_inurba_marseille","lat":43.24072,"lon":5.37762,"is_reserved":false,"is_disabled":false,"rental_uris":{"android":"levelo://app?vid=91ed7d33-e06c-437a-b564-8749cdf99188","ios":"levelo://app?vid=91ed7d33-e06c-437a-b564-8749cdf99188"},"vehicle_type_id":"4","last_reported":1680005632,"current_range_meters":23200,"station_id":"","pricing_plan_id":"free"},{"bike_id":"f5c2981b-93d2-4e8e-9d2e-1149cedd2db3","system_id":"levelo_inurba_marseille","lat":43.240623,"lon":5.377642,"is_reserved":false,"is_disabled":false,"rental_uris":{"android":"levelo://app?vid=f5c2981b-93d2-4e8e-9d2e-1149cedd2db3","ios":"levelo://app?vid=f5c2981b-93d2-4e8e-9d2e-1149cedd2db3"},"vehicle_type_id":"4","last_reported":1680005632,"current_range_meters":12400,"station_id":"ce4bhnp2rcd13ifvqgvg","pricing_plan_id":"free"},{"bike_id":"fb7859c9-7569-4de9-9483-b846d992f4bc","system_id":"levelo_inurba_marseille","lat":43.24071,"lon":5.37762,"is_reserved":false,"is_disabled":false,"rental_uris":{"android":"levelo://app?vid=fb7859c9-7569-4de9-9483-b846d992f4bc","ios":"levelo://app?vid=fb7859c9-7569-4de9-9483-b846d992f4bc"},"vehicle_type_id":"4","last_reported":1680005632,"current_range_meters":29200,"station_id":"ce4bhnp2rcd13ifvqgvg","pricing_plan_id":"free"},{"bike_id":"d32a1b5f-12c3-446a-bdfa-dd85b5a82a74","system_id":"levelo_inurba_marseille","lat":43.240623,"lon":5.377642,"is_reserved":false,"is_disabled":false,"rental_uris":{"android":"levelo://app?vid=d32a1b5f-12c3-446a-bdfa-dd85b5a82a74","ios":"levelo://app?vid=d32a1b5f-12c3-446a-bdfa-dd85b5a82a74"},"vehicle_type_id":"4","last_reported":1680005632,"current_range_meters":0,"station_id":"ce4bhnp2rcd13ifvqgvg","pricing_plan_id":"free"},{"bike_id":"79fc607e-e16c-48ab-b61d-56ed847c7cf4","system_id":"levelo_inurba_marseille","lat":43.240623,"lon":5.377642,"is_reserved":false,"is_disabled":false,"rental_uris":{"android":"levelo://app?vid=79fc607e-e16c-48ab-b61d-56ed847c7cf4","ios":"levelo://app?vid=79fc607e-e16c-48ab-b61d-56ed847c7cf4"},"vehicle_type_id":"4","last_reported":1680005632,"current_range_meters":21200,"station_id":"ce4bhnp2rcd13ifvqgvg","pricing_plan_id":"free"},{"bike_id":"fbec3828-cbd0-49fa-935c-81cf478cc93f","system_id":"levelo_inurba_marseille","lat":43.28552,"lon":5.459577,"is_reserved":false,"is_disabled":false,"rental_uris":{"android":"levelo://app?vid=fbec3828-cbd0-49fa-935c-81cf478cc93f","ios":"levelo://app?vid=fbec3828-cbd0-49fa-935c-81cf478cc93f"},"vehicle_type_id":"4","last_reported":1680005632,"current_range_meters":17200,"station_id":"","pricing_plan_id":"free"},{"bike_id":"97cad36f-ad92-499a-8efc-024a2c853b21","system_id":"levelo_inurba_marseille","lat":43.24418,"lon":5.40351,"is_reserved":false,"is_disabled":false,"rental_uris":{"android":"levelo://app?vid=97cad36f-ad92-499a-8efc-024a2c853b21","ios":"levelo://app?vid=97cad36f-ad92-499a-8efc-024a2c853b21"},"vehicle_type_id":"4","last_reported":1680005632,"current_range_meters":11200,"station_id":"","pricing_plan_id":"free"},{"bike_id":"bc126bff-078a-434d-b04b-b1ee3cef5a29","system_id":"levelo_inurba_marseille","lat":43.243802,"lon":5.403021,"is_reserved":false,"is_disabled":false,"rental_uris":{"android":"levelo://app?vid=bc126bff-078a-434d-b04b-b1ee3cef5a29","ios":"levelo://app?vid=bc126bff-078a-434d-b04b-b1ee3cef5a29"},"vehicle_type_id":"4","last_reported":1680005632,"current_range_meters":3200,"station_id":"","pricing_plan_id":"free"},{"bike_id":"b572cbca-da9a-44ee-b9ea-c149a2ca9b6e","system_id":"levelo_inurba_marseille","lat":43.24181,"lon":5.39734,"is_reserved":false,"is_disabled":false,"rental_uris":{"android":"levelo://app?vid=b572cbca-da9a-44ee-b9ea-c149a2ca9b6e","ios":"levelo://app?vid=b572cbca-da9a-44ee-b9ea-c149a2ca9b6e"},"vehicle_type_id":"4","last_reported":1680005632,"current_range_meters":1200,"station_id":"ce4bhn12rcd13ifvqgpg","pricing_plan_id":"free"},{"bike_id":"afa32105-5409-41a9-b0fe-d2fac594821b","system_id":"levelo_inurba_marseille","lat":43.28811,"lon":5.46635,"is_reserved":false,"is_disabled":false,"rental_uris":{"android":"levelo://app?vid=afa32105-5409-41a9-b0fe-d2fac594821b","ios":"levelo://app?vid=afa32105-5409-41a9-b0fe-d2fac594821b"},"vehicle_type_id":"4","last_reported":1680005632,"current_range_meters":800,"station_id":"","pricing_plan_id":"free"},{"bike_id":"aeee6149-0814-4519-baa3-114d00cd9f82","system_id":"levelo_inurba_marseille","lat":43.231919,"lon":5.355532,"is_reserved":false,"is_disabled":false,"rental_uris":{"android":"levelo://app?vid=aeee6149-0814-4519-baa3-114d00cd9f82","ios":"levelo://app?vid=aeee6149-0814-4519-baa3-114d00cd9f82"},"vehicle_type_id":"4","last_reported":1680005632,"current_range_meters":0,"station_id":"ce4bhu92rcd13ifvqi70","pricing_plan_id":"free"},{"bike_id":"d7689e5f-5364-4d2e-95a3-65f9373b50df","system_id":"levelo_inurba_marseille","lat":43.231919,"lon":5.355532,"is_reserved":false,"is_disabled":false,"rental_uris":{"android":"levelo://app?vid=d7689e5f-5364-4d2e-95a3-65f9373b50df","ios":"levelo://app?vid=d7689e5f-5364-4d2e-95a3-65f9373b50df"},"vehicle_type_id":"4","last_reported":1680005632,"current_range_meters":14000,"station_id":"ce4bhu92rcd13ifvqi70","pricing_plan_id":"free"},{"bike_id":"f7efc41f-884d-46c3-b783-351b93cd09e8","system_id":"levelo_inurba_marseille","lat":43.23195,"lon":5.35545,"is_reserved":false,"is_disabled":false,"rental_uris":{"android":"levelo://app?vid=f7efc41f-884d-46c3-b783-351b93cd09e8","ios":"levelo://app?vid=f7efc41f-884d-46c3-b783-351b93cd09e8"},"vehicle_type_id":"4","last_reported":1680005632,"current_range_meters":6000,"station_id":"ce4bhu92rcd13ifvqi70","pricing_plan_id":"free"},{"bike_id":"6d4cbd21-34a5-4259-a8c9-3b700fd8e73a","system_id":"levelo_inurba_marseille","lat":43.23193,"lon":5.35543,"is_reserved":false,"is_disabled":false,"rental_uris":{"android":"levelo://app?vid=6d4cbd21-34a5-4259-a8c9-3b700fd8e73a","ios":"levelo://app?vid=6d4cbd21-34a5-4259-a8c9-3b700fd8e73a"},"vehicle_type_id":"4","last_reported":1680005632,"current_range_meters":4400,"station_id":"ce4bhu92rcd13ifvqi70","pricing_plan_id":"free"},{"bike_id":"eba12d81-c0d7-4ae6-bbb9-fa221825e389","system_id":"levelo_inurba_marseille","lat":43.284624,"lon":5.486919,"is_reserved":false,"is_disabled":false,"rental_uris":{"android":"levelo://app?vid=eba12d81-c0d7-4ae6-bbb9-fa221825e389","ios":"levelo://app?vid=eba12d81-c0d7-4ae6-bbb9-fa221825e389"},"vehicle_type_id":"4","last_reported":1680005632,"current_range_meters":0,"station_id":"","pricing_plan_id":"free"}]}}