{"last_updated":1745777578,"ttl":60,"version":"2.2","data":{"bikes":[{"bike_id":"647eceb0-396c-4b66-9b6a-15942a39bd89","system_id":"levelo_inurba_marseille","lat":43.24165,"lon":5.36394,"is_reserved":false,"is_disabled":false,"rental_uris":{"android":"levelo://app?vid=647eceb0-396c-4b66-9b6a-15942a39bd89","ios":"levelo://app?vid=647eceb0-396c-4b66-9b6a-15942a39bd89"},"vehicle_type_id":"4","last_reported":1745777578,"current_range_meters":2800,"station_id":"cpo36qri1sfpv3e86is0","pricing_plan_id":"cebpf4jnsgd1na2vs0mg"},{"bike_id":"fc4a371a-f0ef-40ed-a87e-c7cde61ff698","system_id":"levelo_inurba_marseille","lat":43.28937,"lon":5.36638,"is_reserved":false,"is_disabled":false,"rental_uris":{"android":"levelo://app?vid=fc4a371a-f0ef-40ed-a87e-c7cde61ff698","ios":"levelo://app?vid=fc4a371a-f0ef-40ed-a87e-c7cde61ff698"},"vehicle_type_id":"4","last_reported":1745777578,"current_range_meters":2800,"station_id":"ce4bhap2rcd13ifvqek0","pricing_plan_id":"cebpf4jnsgd1na2vs0mg"},{"bike_id":"4f237f57-7e6d-4454-a0e6-195d0a8fae7b","system_id":"levelo_inurba_marseille","lat":43.3201,"lon":5.4151,"is_reserved":false,"is_disabled":false,"rental_uris":{"android":"levelo://app?vid=4f237f57-7e6d-4454-a0e6-195d0a8fae7b","ios":"levelo://app?vid=4f237f57-7e6d-4454-a0e6-195d0a8fae7b"},"vehicle_type_id":"4","last_reported":1745777578,"current_range_meters":3200,"station_id":"","pricing_plan_id":"cebpf4jnsgd1na2vs0mg"},{"bike_id":"837b078e-256e-4a12-af17-3aaba6d928b5","system_id":"levelo_inurba_marseille","lat":43.27272,"lon":5.39147,"is_reserved":false,"is_disabled":false,"rental_uris":{"android":"levelo://app?vid=837b078e-256e-4a12-af17-3aaba6d928b5","ios":"levelo://app?vid=837b078e-256e-4a12-af17-3aaba6d928b5"},"vehicle_type_id":"4","last_reported":1745777578,"current_range_meters":3200,"station_id":"","pricing_plan_id":"cebpf4jnsgd1na2vs0mg"},{"bike_id":"cc362c9d-1f82-4d72-bb9a-06095fe97403","system_id":"levelo_inurba_marseille","lat":43.27058,"lon":5.40258,"is_reserved":false,"is_disabled":false,"rental_uris":{"android":"levelo://app?vid=cc362c9d-1f82-4d72-bb9a-06095fe97403","ios":"levelo://app?vid=cc362c9d-1f82-4d72-bb9a-06095fe97403"},"vehicle_type_id":"4","last_reported":1745777578,"current_range_meters":3600,"station_id":"ce4bhk92rcd13ifvqgc0","pricing_plan_id":"cebpf4jnsgd1na2vs0mg"},{"bike_id":"4c1c4c49-b06a-44b6-9fa5-c0175cd8e033","system_id":"levelo_inurba_marseille","lat":43.26936,"lon":5.40257,"is_reserved":false,"is_disabled":false,"rental_uris":{"android":"levelo://app?vid=4c1c4c49-b06a-44b6-9fa5-c0175cd8e033","ios":"levelo://app?vid=4c1c4c49-b06a-44b6-9fa5-c0175cd8e033"},"vehicle_type_id":"4","last_reported":1745777578,"current_range_meters":4000,"station_id":"cjm6bp8fraef2m0cb0m0","pricing_plan_id":"cebpf4jnsgd1na2vs0mg"},{"bike_id":"e3b44cad-444a-4fda-9ace-cfb21c01d84b","system_id":"levelo_inurba_marseille","lat":43.301483,"lon":5.380871,"is_reserved":false,"is_disabled":false,"rental_uris":{"android":"levelo://app?vid=e3b44cad-444a-4fda-9ace-cfb21c01d84b","ios":"levelo://app?vid=e3b44cad-444a-4fda-9ace-cfb21c01d84b"},"vehicle_type_id":"4","last_reported":1745777578,"current_range_meters":4000,"station_id":"ce4bgjp2rcd13ifvqbh0","pricing_plan_id":"cebpf4jnsgd1na2vs0mg"},{"bike_id":"748410fe-3fa5-4b6a-8be3-07263f758bd4","system_id":"levelo_inurba_marseille","lat":43.29379,"lon":5.4018,"is_reserved":false,"is_disabled":false,"rental_uris":{"android":"levelo://app?vid=748410fe-3fa5-4b6a-8be3-07263f758bd4","ios":"levelo://app?vid=748410fe-3fa5-4b6a-8be3-07263f758bd4"},"vehicle_type_id":"4","last_reported":1745777578,"current_range_meters":4400,"station_id":"","pricing_plan_id":"cebpf4jnsgd1na2vs0mg"},{"bike_id":"d48770ea-271d-480f-a83f-8620fe6a1833","system_id":"levelo_inurba_marseille","lat":43.28176,"lon":5.40462,"is_reserved":false,"is_disabled":true,"rental_uris":{"android":"levelo://app?vid=d48770ea-271d-480f-a83f-8620fe6a1833","ios":"levelo://app?vid=d48770ea-271d-480f-a83f-8620fe6a1833"},"vehicle_type_id":"4","last_reported":1745777578,"current_range_meters":4400,"station_id":"","pricing_plan_id":"cebpf4jnsgd1na2vs0mg"},{"bike_id":"616a28f8-07b5-4feb-86ae-eb61326e9977","system_id":"levelo_inurba_marseille","lat":43.27051,"lon":5.40268,"is_reserved":false,"is_disabled":false,"rental_uris":{"android":"levelo://app?vid=616a28f8-07b5-4feb-86ae-eb61326e9977","ios":"levelo://app?vid=616a28f8-07b5-4feb-86ae-eb61326e9977"},"vehicle_type_id":"4","last_reported":1745777578,"current_range_meters":6000,"station_id":"ce4bhk92rcd13ifvqgc0","pricing_plan_id":"cebpf4jnsgd1na2vs0mg"},{"bike_id":"c0372d33-176d-4c45-972b-35b2dbbb458d","system_id":"levelo_inurba_marseille","lat":43.26951,"lon":5.40246,"is_reserved":false,"is_disabled":false,"rental_uris":{"android":"levelo://app?vid=c0372d33-176d-4c45-972b-35b2dbbb458d","ios":"levelo://app?vid=c0372d33-176d-4c45-972b-35b2dbbb458d"},"vehicle_type_id":"4","last_reported":1745777578,"current_range_meters":6000,"station_id":"cjm6bp8fraef2m0cb0m0","pricing_plan_id":"cebpf4jnsgd1na2vs0mg"},{"bike_id":"b4b0266c-631d-4bc0-b722-43b22c86c85f","system_id":"levelo_inurba_marseille","lat":43.31017,"lon":5.41712,"is_reserved":false,"is_disabled":false,"rental_uris":{"android":"levelo://app?vid=b4b0266c-631d-4bc0-b722-43b22c86c85f","ios":"levelo://app?vid=b4b0266c-631d-4bc0-b722-43b22c86c85f"},"vehicle_type_id":"4","last_reported":1745777578,"current_range_meters":6400,"station_id":"","pricing_plan_id":"cebpf4jnsgd1na2vs0mg"},{"bike_id":"284efe7b-2e61-45b1-a1e4-7089a3b3d2dd","system_id":"levelo_inurba_marseille","lat":43.25941,"lon":5.40905,"is_reserved":false,"is_disabled":false,"rental_uris":{"android":"levelo://app?vid=284efe7b-2e61-45b1-a1e4-7089a3b3d2dd","ios":"levelo://app?vid=284efe7b-2e61-45b1-a1e4-7089a3b3d2dd"},"vehicle_type_id":"4","last_reported":1745777578,"current_range_meters":6400,"station_id":"ce4bhm92rcd13ifvqglg","pricing_plan_id":"cebpf4jnsgd1na2vs0mg"},{"bike_id":"b71d2dae-dc9a-46f5-aed2-0e379c18638a","system_id":"levelo_inurba_marseille","lat":43.25575,"lon":5.38235,"is_reserved":false,"is_disabled":false,"rental_uris":{"android":"levelo://app?vid=b71d2dae-dc9a-46f5-aed2-0e379c18638a","ios":"levelo://app?vid=b71d2dae-dc9a-46f5-aed2-0e379c18638a"},"vehicle_type_id":"4","last_reported":1745777578,"current_range_meters":6800,"station_id":"ce4bhih2rcd13ifvqfs0","pricing_plan_id":"cebpf4jnsgd1na2vs0mg"},{"bike_id":"abfb4894-668c-4fb9-8583-97b0550feaf8","system_id":"levelo_inurba_marseille","lat":43.270497,"lon":5.402598,"is_reserved":false,"is_disabled":false,"rental_uris":{"android":"levelo://app?vid=abfb4894-668c-4fb9-8583-97b0550feaf8","ios":"levelo://app?vid=abfb4894-668c-4fb9-8583-97b0550feaf8"},"vehicle_type_id":"4","last_reported":1745777578,"current_range_meters":6800,"station_id":"ce4bhk92rcd13ifvqgc0","pricing_plan_id":"cebpf4jnsgd1na2vs0mg"},{"bike_id":"8d60a86d-bdb3-459a-b176-2853abd28ea1","system_id":"levelo_inurba_marseille","lat":43.27299,"lon":5.39131,"is_reserved":false,"is_disabled":true,"rental_uris":{"android":"levelo://app?vid=8d60a86d-bdb3-459a-b176-2853abd28ea1","ios":"levelo://app?vid=8d60a86d-bdb3-459a-b176-2853abd28ea1"},"vehicle_type_id":"4","last_reported":1745777578,"current_range_meters":6800,"station_id":"ce4bhgp2rcd13ifvqfe0","pricing_plan_id":"cebpf4jnsgd1na2vs0mg"},{"bike_id":"042a36cf-a68c-4f02-8fbe-a3d4f36fa492","system_id":"levelo_inurba_marseille","lat":43.21208,"lon":5.3508,"is_reserved":false,"is_disabled":false,"rental_uris":{"android":"levelo://app?vid=042a36cf-a68c-4f02-8fbe-a3d4f36fa492","ios":"levelo://app?vid=042a36cf-a68c-4f02-8fbe-a3d4f36fa492"},"vehicle_type_id":"4","last_reported":1745777578,"current_range_meters":6800,"station_id":"st_cvj6sg6p6f1abm77japg","pricing_plan_id":"cebpf4jnsgd1na2vs0mg"},{"bike_id":"c344d8da-a010-4bc8-b1c3-0fae22bf139b","system_id":"levelo_inurba_marseille","lat":43.290878,"lon":5.359056,"is_reserved":false,"is_disabled":false,"rental_uris":{"android":"levelo://app?vid=c344d8da-a010-4bc8-b1c3-0fae22bf139b","ios":"levelo://app?vid=c344d8da-a010-4bc8-b1c3-0fae22bf139b"},"vehicle_type_id":"4","last_reported":1745777578,"current_range_meters":6800,"station_id":"ce4bha92rcd13ifvqeg0","pricing_plan_id":"cebpf4jnsgd1na2vs0mg"},{"bike_id":"4be6fba8-2e11-41a4-b110-17ea4da436ab","system_id":"levelo_inurba_marseille","lat":43.27085,"lon":5.40266,"is_reserved":false,"is_disabled":false,"rental_uris":{"android":"levelo://app?vid=4be6fba8-2e11-41a4-b110-17ea4da436ab","ios":"levelo://app?vid=4be6fba8-2e11-41a4-b110-17ea4da436ab"},"vehicle_type_id":"4","last_reported":1745777578,"current_range_meters":6800,"station_id":"ce4bhk92rcd13ifvqgc0","pricing_plan_id":"cebpf4jnsgd1na2vs0mg"},{"bike_id":"1d884504-789c-44c0-983d-19af378fb0f3","system_id":"levelo_inurba_marseille","lat":43.21775,"lon":5.3461,"is_reserved":false,"is_disabled":false,"rental_uris":{"android":"levelo://app?vid=1d884504-789c-44c0-983d-19af378fb0f3","ios":"levelo://app?vid=1d884504-789c-44c0-983d-19af378fb0f3"},"vehicle_type_id":"4","last_reported":1745777578,"current_range_meters":6800,"station_id":"st_cvj6r9ubvosntc0bgbag","pricing_plan_id":"cebpf4jnsgd1na2vs0mg"},{"bike_id":"308ce0d7-54d5-4aec-879f-da2149307f93","system_id":"levelo_inurba_marseille","lat":43.22539,"lon":5.34781,"is_reserved":false,"is_disabled":true,"rental_uris":{"android":"levelo://app?vid=308ce0d7-54d5-4aec-879f-da2149307f93","ios":"levelo://app?vid=308ce0d7-54d5-4aec-879f-da2149307f93"},"vehicle_type_id":"4","last_reported":1745777578,"current_range_meters":7200,"station_id":"st_cvj5dfep6f1abm77gieg","pricing_plan_id":"cebpf4jnsgd1na2vs0mg"},{"bike_id":"82016555-1022-467f-b7e9-084b6d838aac","system_id":"levelo_inurba_marseille","lat":43.25528,"lon":5.37619,"is_reserved":false,"is_disabled":false,"rental_uris":{"android":"levelo://app?vid=82016555-1022-467f-b7e9-084b6d838aac","ios":"levelo://app?vid=82016555-1022-467f-b7e9-084b6d838aac"},"vehicle_type_id":"4","last_reported":1745777578,"current_range_meters":7200,"station_id":"ce4bhh12rcd13ifvqff0","pricing_plan_id":"cebpf4jnsgd1na2vs0mg"},{"bike_id":"996c8b18-3874-41aa-b318-d186305481a5","system_id":"levelo_inurba_marseille","lat":43.27213,"lon":5.3919,"is_reserved":false,"is_disabled":false,"rental_uris":{"android":"levelo://app?vid=996c8b18-3874-41aa-b318-d186305481a5","ios":"levelo://app?vid=996c8b18-3874-41aa-b318-d186305481a5"},"vehicle_type_id":"4","last_reported":1745777578,"current_range_meters":7200,"station_id":"ce4bhhp2rcd13ifvqfm0","pricing_plan_id":"cebpf4jnsgd1na2vs0mg"},{"bike_id":"aa7dd23a-c50c-4359-a4fa-3d29c4576751","system_id":"levelo_inurba_marseille","lat":43.241612,"lon":5.364307,"is_reserved":false,"is_disabled":false,"rental_uris":{"android":"levelo://app?vid=aa7dd23a-c50c-4359-a4fa-3d29c4576751","ios":"levelo://app?vid=aa7dd23a-c50c-4359-a4fa-3d29c4576751"},"vehicle_type_id":"4","last_reported":1745777578,"current_range_meters":7200,"station_id":"cpo36qri1sfpv3e86is0","pricing_plan_id":"cebpf4jnsgd1na2vs0mg"},{"bike_id":"b4ab71dc-7ecc-4fcb-bfaf-2cb4e735be46","system_id":"levelo_inurba_marseille","lat":43.24186,"lon":5.39741,"is_reserved":false,"is_disabled":false,"rental_uris":{"android":"levelo://app?vid=b4ab71dc-7ecc-4fcb-bfaf-2cb4e735be46","ios":"levelo://app?vid=b4ab71dc-7ecc-4fcb-bfaf-2cb4e735be46"},"vehicle_type_id":"4","last_reported":1745777578,"current_range_meters":7200,"station_id":"ce4bhn12rcd13ifvqgpg","pricing_plan_id":"cebpf4jnsgd1na2vs0mg"},{"bike_id":"b203106f-15ad-4224-a9bb-aef6d708468c","system_id":"levelo_inurba_marseille","lat":43.27503,"lon":5.42471,"is_reserved":false,"is_disabled":false,"rental_uris":{"android":"levelo://app?vid=b203106f-15ad-4224-a9bb-aef6d708468c","ios":"levelo://app?vid=b203106f-15ad-4224-a9bb-aef6d708468c"},"vehicle_type_id":"4","last_reported":1745777578,"current_range_meters":7200,"station_id":"ce4bhn92rcd13ifvqgrg","pricing_plan_id":"cebpf4jnsgd1na2vs0mg"},{"bike_id":"c1b1b433-bcb9-4a7d-8963-3218bcdcba1e","system_id":"levelo_inurba_marseille","lat":43.23389,"lon":5.36045,"is_reserved":false,"is_disabled":false,"rental_uris":{"android":"levelo://app?vid=c1b1b433-bcb9-4a7d-8963-3218bcdcba1e","ios":"levelo://app?vid=c1b1b433-bcb9-4a7d-8963-3218bcdcba1e"},"vehicle_type_id":"4","last_reported":1745777578,"current_range_meters":7200,"station_id":"","pricing_plan_id":"cebpf4jnsgd1na2vs0mg"},{"bike_id":"4a5edcf1-6727-4c60-8f88-19c6d2a1f8fa","system_id":"levelo_inurba_marseille","lat":43.22929,"lon":5.35384,"is_reserved":false,"is_disabled":false,"rental_uris":{"android":"levelo://app?vid=4a5edcf1-6727-4c60-8f88-19c6d2a1f8fa","ios":"levelo://app?vid=4a5edcf1-6727-4c60-8f88-19c6d2a1f8fa"},"vehicle_type_id":"4","last_reported":1745777578,"current_range_meters":7200,"station_id":"cpo3532slgdg3j2ikp40","pricing_plan_id":"cebpf4jnsgd1na2vs0mg"},{"bike_id":"2d4820d4-569a-4ec0-b000-e82a960dd30b","system_id":"levelo_inurba_marseille","lat":43.23129,"lon":5.35515,"is_reserved":false,"is_disabled":false,"rental_uris":{"android":"levelo://app?vid=2d4820d4-569a-4ec0-b000-e82a960dd30b","ios":"levelo://app?vid=2d4820d4-569a-4ec0-b000-e82a960dd30b"},"vehicle_type_id":"4","last_reported":1745777578,"current_range_meters":8000,"station_id":"","pricing_plan_id":"cebpf4jnsgd1na2vs0mg"},{"bike_id":"a71a1767-ca84-44aa-86fa-fca0811af48d","system_id":"levelo_inurba_marseille","lat":43.27062,"lon":5.40261,"is_reserved":false,"is_disabled":false,"rental_uris":{"android":"levelo://app?vid=a71a1767-ca84-44aa-86fa-fca0811af48d","ios":"levelo://app?vid=a71a1767-ca84-44aa-86fa-fca0811af48d"},"vehicle_type_id":"4","last_reported":1745777578,"current_range_meters":8000,"station_id":"ce4bhk92rcd13ifvqgc0","pricing_plan_id":"cebpf4jnsgd1na2vs0mg"},{"bike_id":"81159e63-3b35-42d5-8e59-a6400c53568e","system_id":"levelo_inurba_marseille","lat":43.21751,"lon":5.34599,"is_reserved":false,"is_disabled":false,"rental_uris":{"android":"levelo://app?vid=81159e63-3b35-42d5-8e59-a6400c53568e","ios":"levelo://app?vid=81159e63-3b35-42d5-8e59-a6400c53568e"},"vehicle_type_id":"4","last_reported":1745777578,"current_range_meters":8000,"station_id":"st_cvj6r9ubvosntc0bgbag","pricing_plan_id":"cebpf4jnsgd1na2vs0mg"},{"bike_id":"cfedda18-f895-49da-bc3d-8d22c0dd79d7","system_id":"levelo_inurba_marseille","lat":43.25711,"lon":5.41121,"is_reserved":false,"is_disabled":false,"rental_uris":{"android":"levelo://app?vid=cfedda18-f895-49da-bc3d-8d22c0dd79d7","ios":"levelo://app?vid=cfedda18-f895-49da-bc3d-8d22c0dd79d7"},"vehicle_type_id":"4","last_reported":1745777578,"current_range_meters":8000,"station_id":"ce4bhkp2rcd13ifvqgd0","pricing_plan_id":"cebpf4jnsgd1na2vs0mg"},{"bike_id":"53d01398-6662-4f30-afa3-87fe6b07bcf3","system_id":"levelo_inurba_marseille","lat":43.31812,"lon":5.38083,"is_reserved":false,"is_disabled":false,"rental_uris":{"android":"levelo://app?vid=53d01398-6662-4f30-afa3-87fe6b07bcf3","ios":"levelo://app?vid=53d01398-6662-4f30-afa3-87fe6b07bcf3"},"vehicle_type_id":"4","last_reported":1745777578,"current_range_meters":8000,"station_id":"","pricing_plan_id":"cebpf4jnsgd1na2vs0mg"},{"bike_id":"7719b34e-2f7f-4c87-96cd-4597ef910ce1","system_id":"levelo_inurba_marseille","lat":43.269478,"lon":5.402476,"is_reserved":false,"is_disabled":false,"rental_uris":{"android":"levelo://app?vid=7719b34e-2f7f-4c87-96cd-4597ef910ce1","ios":"levelo://app?vid=7719b34e-2f7f-4c87-96cd-4597ef910ce1"},"vehicle_type_id":"4","last_reported":1745777578,"current_range_meters":8000,"station_id":"cjm6bp8fraef2m0cb0m0","pricing_plan_id":"cebpf4jnsgd1na2vs0mg"},{"bike_id":"eb3464c6-ffd6-4969-a080-91b7f3e70e93","system_id":"levelo_inurba_marseille","lat":43.30788,"lon":5.38182,"is_reserved":false,"is_disabled":false,"rental_uris":{"android":"levelo://app?vid=eb3464c6-ffd6-4969-a080-91b7f3e70e93","ios":"levelo://app?vid=eb3464c6-ffd6-4969-a080-91b7f3e70e93"},"vehicle_type_id":"4","last_reported":1745777578,"current_range_meters":8400,"station_id":"ce4bgt12rcd13ifvqce0","pricing_plan_id":"cebpf4jnsgd1na2vs0mg"},{"bike_id":"c596ab54-4f89-4649-a442-12778ac8adc4","system_id":"levelo_inurba_marseille","lat":43.31736,"lon":5.43689,"is_reserved":false,"is_disabled":true,"rental_uris":{"android":"levelo://app?vid=c596ab54-4f89-4649-a442-12778ac8adc4","ios":"levelo://app?vid=c596ab54-4f89-4649-a442-12778ac8adc4"},"vehicle_type_id":"4","last_reported":1745777578,"current_range_meters":8400,"station_id":"ce4bhp92rcd13ifvqhcg","pricing_plan_id":"cebpf4jnsgd1na2vs0mg"},{"bike_id":"64d4c2a4-c8f7-4762-af83-98c376c7623f","system_id":"levelo_inurba_marseille","lat":43.21788,"lon":5.34595,"is_reserved":false,"is_disabled":false,"rental_uris":{"android":"levelo://app?vid=64d4c2a4-c8f7-4762-af83-98c376c7623f","ios":"levelo://app?vid=64d4c2a4-c8f7-4762-af83-98c376c7623f"},"vehicle_type_id":"4","last_reported":1745777578,"current_range_meters":8400,"station_id":"","pricing_plan_id":"cebpf4jnsgd1na2vs0mg"},{"bike_id":"50567301-7660-45e4-9314-78fdd7ddbf96","system_id":"levelo_inurba_marseille","lat":43.30737,"lon":5.40953,"is_reserved":false,"is_disabled":false,"rental_uris":{"android":"levelo://app?vid=50567301-7660-45e4-9314-78fdd7ddbf96","ios":"levelo://app?vid=50567301-7660-45e4-9314-78fdd7ddbf96"},"vehicle_type_id":"4","last_reported":1745777578,"current_range_meters":8400,"station_id":"","pricing_plan_id":"cebpf4jnsgd1na2vs0mg"},{"bike_id":"374695c7-05ae-441b-90bd-19811cb2defe","system_id":"levelo_inurba_marseille","lat":43.30743,"lon":5.4244,"is_reserved":false,"is_disabled":false,"rental_uris":{"android":"levelo://app?vid=374695c7-05ae-441b-90bd-19811cb2defe","ios":"levelo://app?vid=374695c7-05ae-441b-90bd-19811cb2defe"},"vehicle_type_id":"4","last_reported":1745777578,"current_range_meters":8400,"station_id":"st_cvj6ca6bvosntc0bfgr0","pricing_plan_id":"cebpf4jnsgd1na2vs0mg"},{"bike_id":"4e09e2f3-6329-4563-9a1f-79c5001029cb","system_id":"levelo_inurba_marseille","lat":43.3243,"lon":5.39145,"is_reserved":false,"is_disabled":false,"rental_uris":{"android":"levelo://app?vid=4e09e2f3-6329-4563-9a1f-79c5001029cb","ios":"levelo://app?vid=4e09e2f3-6329-4563-9a1f-79c5001029cb"},"vehicle_type_id":"4","last_reported":1745777578,"current_range_meters":8400,"station_id":"","pricing_plan_id":"cebpf4jnsgd1na2vs0mg"},{"bike_id":"5ddba1f1-1747-4179-b91f-b8778028cd60","system_id":"levelo_inurba_marseille","lat":43.25644,"lon":5.41218,"is_reserved":false,"is_disabled":false,"rental_uris":{"android":"levelo://app?vid=5ddba1f1-1747-4179-b91f-b8778028cd60","ios":"levelo://app?vid=5ddba1f1-1747-4179-b91f-b8778028cd60"},"vehicle_type_id":"4","last_reported":1745777578,"current_range_meters":8400,"station_id":"","pricing_plan_id":"cebpf4jnsgd1na2vs0mg"},{"bike_id":"dec62ef3-badd-4ed9-b90a-29557c7bd0d3","system_id":"levelo_inurba_marseille","lat":43.27042,"lon":5.40283,"is_reserved":false,"is_disabled":false,"rental_uris":{"android":"levelo://app?vid=dec62ef3-badd-4ed9-b90a-29557c7bd0d3","ios":"levelo://app?vid=dec62ef3-badd-4ed9-b90a-29557c7bd0d3"},"vehicle_type_id":"4","last_reported":1745777578,"current_range_meters":8400,"station_id":"ce4bhk92rcd13ifvqgc0","pricing_plan_id":"cebpf4jnsgd1na2vs0mg"},{"bike_id":"7d727c0a-6c28-48dc-bed3-bc7b1f3ba7ba","system_id":"levelo_inurba_marseille","lat":43.2924,"lon":5.36482,"is_reserved":false,"is_disabled":true,"rental_uris":{"android":"levelo://app?vid=7d727c0a-6c28-48dc-bed3-bc7b1f3ba7ba","ios":"levelo://app?vid=7d727c0a-6c28-48dc-bed3-bc7b1f3ba7ba"},"vehicle_type_id":"4","last_reported":1745777578,"current_range_meters":8800,"station_id":"","pricing_plan_id":"cebpf4jnsgd1na2vs0mg"},{"bike_id":"721ac694-ddc1-45a4-93fe-2aef08d4b564","system_id":"levelo_inurba_marseille","lat":43.2417,"lon":5.36408,"is_reserved":false,"is_disabled":false,"rental_uris":{"android":"levelo://app?vid=721ac694-ddc1-45a4-93fe-2aef08d4b564","ios":"levelo://app?vid=721ac694-ddc1-45a4-93fe-2aef08d4b564"},"vehicle_type_id":"4","last_reported":1745777578,"current_range_meters":8800,"station_id":"cpo36qri1sfpv3e86is0","pricing_plan_id":"cebpf4jnsgd1na2vs0mg"},{"bike_id":"c457b382-c586-47ba-89f9-680c5d151c25","system_id":"levelo_inurba_marseille","lat":43.26557,"lon":5.37301,"is_reserved":false,"is_disabled":false,"rental_uris":{"android":"levelo://app?vid=c457b382-c586-47ba-89f9-680c5d151c25","ios":"levelo://app?vid=c457b382-c586-47ba-89f9-680c5d151c25"},"vehicle_type_id":"4","last_reported":1745777578,"current_range_meters":8800,"station_id":"ce4bhg12rcd13ifvqf70","pricing_plan_id":"cebpf4jnsgd1na2vs0mg"},{"bike_id":"8bab33fa-f2e5-4e79-91e1-699e5e57ef78","system_id":"levelo_inurba_marseille","lat":43.3064,"lon":5.40099,"is_reserved":false,"is_disabled":false,"rental_uris":{"android":"levelo://app?vid=8bab33fa-f2e5-4e79-91e1-699e5e57ef78","ios":"levelo://app?vid=8bab33fa-f2e5-4e79-91e1-699e5e57ef78"},"vehicle_type_id":"4","last_reported":1745777578,"current_range_meters":9200,"station_id":"ce4bh112rcd13ifvqda0","pricing_plan_id":"cebpf4jnsgd1na2vs0mg"},{"bike_id":"cecf372e-f99d-4092-9fb9-aba0fb187411","system_id":"levelo_inurba_marseille","lat":43.32436,"lon":5.39103,"is_reserved":false,"is_disabled":false,"rental_uris":{"android":"levelo://app?vid=cecf372e-f99d-4092-9fb9-aba0fb187411","ios":"levelo://app?vid=cecf372e-f99d-4092-9fb9-aba0fb187411"},"vehicle_type_id":"4","last_reported":1745777578,"current_range_meters":9200,"station_id":"","pricing_plan_id":"cebpf4jnsgd1na2vs0mg"},{"bike_id":"5aed02c9-b06b-4feb-980d-f5dd9b5febaa","system_id":"levelo_inurba_marseille","lat":43.28032,"lon":5.36948,"is_reserved":false,"is_disabled":false,"rental_uris":{"android":"levelo://app?vid=5aed02c9-b06b-4feb-980d-f5dd9b5febaa","ios":"levelo://app?vid=5aed02c9-b06b-4feb-980d-f5dd9b5febaa"},"vehicle_type_id":"4","last_reported":1745777578,"current_range_meters":9200,"station_id":"ce4bha12rcd13ifvqef0","pricing_plan_id":"cebpf4jnsgd1na2vs0mg"},{"bike_id":"3261fdf2-6bf8-47c9-9774-c998e5861254","system_id":"levelo_inurba_marseille","lat":43.26837,"lon":5.40234,"is_reserved":false,"is_disabled":false,"rental_uris":{"android":"levelo://app?vid=3261fdf2-6bf8-47c9-9774-c998e5861254","ios":"levelo://app?vid=3261fdf2-6bf8-47c9-9774-c998e5861254"},"vehicle_type_id":"4","last_reported":1745777578,"current_range_meters":9600,"station_id":"ce501612rcd8frsf0b60","pricing_plan_id":"cebpf4jnsgd1na2vs0mg"},{"bike_id":"ac7f2d56-d901-4c76-8b38-6cf8b230e3fa","system_id":"levelo_inurba_marseille","lat":43.310455,"lon":5.383346,"is_reserved":false,"is_disabled":false,"rental_uris":{"android":"levelo://app?vid=ac7f2d56-d901-4c76-8b38-6cf8b230e3fa","ios":"levelo://app?vid=ac7f2d56-d901-4c76-8b38-6cf8b230e3fa"},"vehicle_type_id":"4","last_reported":1745777578,"current_range_meters":9600,"station_id":"ce4bh2h2rcd13ifvqdh0","pricing_plan_id":"cebpf4jnsgd1na2vs0mg"},{"bike_id":"574c21c3-5de9-4bfa-a3aa-ac4e3698f0a7","system_id":"levelo_inurba_marseille","lat":43.27233,"lon":5.39183,"is_reserved":false,"is_disabled":true,"rental_uris":{"android":"levelo://app?vid=574c21c3-5de9-4bfa-a3aa-ac4e3698f0a7","ios":"levelo://app?vid=574c21c3-5de9-4bfa-a3aa-ac4e3698f0a7"},"vehicle_type_id":"4","last_reported":1745777578,"current_range_meters":9600,"station_id":"ce4bhhp2rcd13ifvqfm0","pricing_plan_id":"cebpf4jnsgd1na2vs0mg"},{"bike_id":"299f8135-daae-410b-94bb-186d10f9296d","system_id":"levelo_inurba_marseille","lat":43.27949,"lon":5.410388,"is_reserved":false,"is_disabled":false,"rental_uris":{"android":"levelo://app?vid=299f8135-daae-410b-94bb-186d10f9296d","ios":"levelo://app?vid=299f8135-daae-410b-94bb-186d10f9296d"},"vehicle_type_id":"4","last_reported":1745777578,"current_range_meters":9600,"station_id":"ce4bhnp2rcd13ifvqh0g","pricing_plan_id":"cebpf4jnsgd1na2vs0mg"},{"bike_id":"3669f73c-27b7-42be-97ef-80337ee2af8c","system_id":"levelo_inurba_marseille","lat":43.26781,"lon":5.39414,"is_reserved":false,"is_disabled":false,"rental_uris":{"android":"levelo://app?vid=3669f73c-27b7-42be-97ef-80337ee2af8c","ios":"levelo://app?vid=3669f73c-27b7-42be-97ef-80337ee2af8c"},"vehicle_type_id":"4","last_reported":1745777578,"current_range_meters":9600,"station_id":"ce4bhh12rcd13ifvqfg0","pricing_plan_id":"cebpf4jnsgd1na2vs0mg"},{"bike_id":"65f6762e-dbe6-444e-80b1-f559d35bc43e","system_id":"levelo_inurba_marseille","lat":43.26938,"lon":5.40257,"is_reserved":false,"is_disabled":false,"rental_uris":{"android":"levelo://app?vid=65f6762e-dbe6-444e-80b1-f559d35bc43e","ios":"levelo://app?vid=65f6762e-dbe6-444e-80b1-f559d35bc43e"},"vehicle_type_id":"4","last_reported":1745777578,"current_range_meters":9600,"station_id":"cjm6bp8fraef2m0cb0m0","pricing_plan_id":"cebpf4jnsgd1na2vs0mg"},{"bike_id":"ab08e698-0e23-4805-8aaa-b39648eaffad","system_id":"levelo_inurba_marseille","lat":43.28478,"lon":5.38418,"is_reserved":false,"is_disabled":true,"rental_uris":{"android":"levelo://app?vid=ab08e698-0e23-4805-8aaa-b39648eaffad","ios":"levelo://app?vid=ab08e698-0e23-4805-8aaa-b39648eaffad"},"vehicle_type_id":"4","last_reported":1745777578,"current_range_meters":9600,"station_id":"ce4bh512rcd13ifvqe3g","pricing_plan_id":"cebpf4jnsgd1na2vs0mg"},{"bike_id":"8e69b43d-2709-436e-81af-04565d304827","system_id":"levelo_inurba_marseille","lat":43.27917,"lon":5.39579,"is_reserved":false,"is_disabled":false,"rental_uris":{"android":"levelo://app?vid=8e69b43d-2709-436e-81af-04565d304827","ios":"levelo://app?vid=8e69b43d-2709-436e-81af-04565d304827"},"vehicle_type_id":"4","last_reported":1745777578,"current_range_meters":10000,"station_id":"ce4bhf92rcd13ifvqf40","pricing_plan_id":"cebpf4jnsgd1na2vs0mg"},{"bike_id":"0053b840-de47-4900-98aa-cc8575176b05","system_id":"levelo_inurba_marseille","lat":43.2417,"lon":5.3644,"is_reserved":false,"is_disabled":true,"rental_uris":{"android":"levelo://app?vid=0053b840-de47-4900-98aa-cc8575176b05","ios":"levelo://app?vid=0053b840-de47-4900-98aa-cc8575176b05"},"vehicle_type_id":"4","last_reported":1745777578,"current_range_meters":10000,"station_id":"cpo36qri1sfpv3e86is0","pricing_plan_id":"cebpf4jnsgd1na2vs0mg"},{"bike_id":"a2e988ca-4cad-46d4-8096-1d1b1de4b0e4","system_id":"levelo_inurba_marseille","lat":43.3236,"lon":5.36754,"is_reserved":false,"is_disabled":false,"rental_uris":{"android":"levelo://app?vid=a2e988ca-4cad-46d4-8096-1d1b1de4b0e4","ios":"levelo://app?vid=a2e988ca-4cad-46d4-8096-1d1b1de4b0e4"},"vehicle_type_id":"4","last_reported":1745777578,"current_range_meters":10000,"station_id":"ce4bhsh2rcd13ifvqi2g","pricing_plan_id":"cebpf4jnsgd1na2vs0mg"},{"bike_id":"ae1d96a0-b0a2-41e1-be14-e78907f9338a","system_id":"levelo_inurba_marseille","lat":43.29516,"lon":5.39386,"is_reserved":false,"is_disabled":true,"rental_uris":{"android":"levelo://app?vid=ae1d96a0-b0a2-41e1-be14-e78907f9338a","ios":"levelo://app?vid=ae1d96a0-b0a2-41e1-be14-e78907f9338a"},"vehicle_type_id":"4","last_reported":1745777578,"current_range_meters":10000,"station_id":"ce4bh292rcd13ifvqdf0","pricing_plan_id":"cebpf4jnsgd1na2vs0mg"},{"bike_id":"1af6f09a-457c-4b77-bdbb-59f7359fa4f5","system_id":"levelo_inurba_marseille","lat":43.28696,"lon":5.39983,"is_reserved":false,"is_disabled":false,"rental_uris":{"android":"levelo://app?vid=1af6f09a-457c-4b77-bdbb-59f7359fa4f5","ios":"levelo://app?vid=1af6f09a-457c-4b77-bdbb-59f7359fa4f5"},"vehicle_type_id":"4","last_reported":1745777578,"current_range_meters":10000,"station_id":"ce4bho92rcd13ifvqh3g","pricing_plan_id":"cebpf4jnsgd1na2vs0mg"},{"bike_id":"a85a2e7d-7f4b-4d43-84de-1961cb3e64d4","system_id":"levelo_inurba_marseille","lat":43.28474,"lon":5.38561,"is_reserved":false,"is_disabled":false,"rental_uris":{"android":"levelo://app?vid=a85a2e7d-7f4b-4d43-84de-1961cb3e64d4","ios":"levelo://app?vid=a85a2e7d-7f4b-4d43-84de-1961cb3e64d4"},"vehicle_type_id":"4","last_reported":1745777578,"current_range_meters":10000,"station_id":"ce4bh8p2rcd13ifvqeb0","pricing_plan_id":"cebpf4jnsgd1na2vs0mg"},{"bike_id":"9c11351b-6d33-476e-a8cb-9503ab8a6236","system_id":"levelo_inurba_marseille","lat":43.3129,"lon":5.382649,"is_reserved":false,"is_disabled":false,"rental_uris":{"android":"levelo://app?vid=9c11351b-6d33-476e-a8cb-9503ab8a6236","ios":"levelo://app?vid=9c11351b-6d33-476e-a8cb-9503ab8a6236"},"vehicle_type_id":"4","last_reported":1745777578,"current_range_meters":10000,"station_id":"","pricing_plan_id":"cebpf4jnsgd1na2vs0mg"},{"bike_id":"554c7222-d609-4841-a832-33adb157bebb","system_id":"levelo_inurba_marseille","lat":43.211903,"lon":5.350686,"is_reserved":false,"is_disabled":false,"rental_uris":{"android":"levelo://app?vid=554c7222-d609-4841-a832-33adb157bebb","ios":"levelo://app?vid=554c7222-d609-4841-a832-33adb157bebb"},"vehicle_type_id":"4","last_reported":1745777578,"current_range_meters":10000,"station_id":"st_cvj6sg6p6f1abm77japg","pricing_plan_id":"cebpf4jnsgd1na2vs0mg"},{"bike_id":"21a5b78b-6652-49fa-a8ee-70531791ccf1","system_id":"levelo_inurba_marseille","lat":43.2487,"lon":5.42515,"is_reserved":false,"is_disabled":false,"rental_uris":{"android":"levelo://app?vid=21a5b78b-6652-49fa-a8ee-70531791ccf1","ios":"levelo://app?vid=21a5b78b-6652-49fa-a8ee-70531791ccf1"},"vehicle_type_id":"4","last_reported":1745777578,"current_range_meters":10000,"station_id":"","pricing_plan_id":"cebpf4jnsgd1na2vs0mg"},{"bike_id":"66c89bb7-3b13-49ff-b8c5-0823b0bd91cb","system_id":"levelo_inurba_marseille","lat":43.26197,"lon":5.3746,"is_reserved":false,"is_disabled":true,"rental_uris":{"android":"levelo://app?vid=66c89bb7-3b13-49ff-b8c5-0823b0bd91cb","ios":"levelo://app?vid=66c89bb7-3b13-49ff-b8c5-0823b0bd91cb"},"vehicle_type_id":"4","last_reported":1745777578,"current_range_meters":10000,"station_id":"ce4bhgp2rcd13ifvqfc0","pricing_plan_id":"cebpf4jnsgd1na2vs0mg"},{"bike_id":"91474842-32bf-45c2-856a-80fd91d22aa5","system_id":"levelo_inurba_marseille","lat":43.21209,"lon":5.35078,"is_reserved":false,"is_disabled":false,"rental_uris":{"android":"levelo://app?vid=91474842-32bf-45c2-856a-80fd91d22aa5","ios":"levelo://app?vid=91474842-32bf-45c2-856a-80fd91d22aa5"},"vehicle_type_id":"4","last_reported":1745777578,"current_range_meters":10000,"station_id":"st_cvj6sg6p6f1abm77japg","pricing_plan_id":"cebpf4jnsgd1na2vs0mg"},{"bike_id":"30288cb7-e849-4b02-8ab1-96deccfd974f","system_id":"levelo_inurba_marseille","lat":43.239605,"lon":5.366366,"is_reserved":false,"is_disabled":false,"rental_uris":{"android":"levelo://app?vid=30288cb7-e849-4b02-8ab1-96deccfd974f","ios":"levelo://app?vid=30288cb7-e849-4b02-8ab1-96deccfd974f"},"vehicle_type_id":"4","last_reported":1745777578,"current_range_meters":10800,"station_id":"ce4bhi12rcd13ifvqfp0","pricing_plan_id":"cebpf4jnsgd1na2vs0mg"},{"bike_id":"7285c221-847b-46d9-b086-1b7053cfaa3d","system_id":"levelo_inurba_marseille","lat":43.24182,"lon":5.39729,"is_reserved":false,"is_disabled":false,"rental_uris":{"android":"levelo://app?vid=7285c221-847b-46d9-b086-1b7053cfaa3d","ios":"levelo://app?vid=7285c221-847b-46d9-b086-1b7053cfaa3d"},"vehicle_type_id":"4","last_reported":1745777578,"current_range_meters":10800,"station_id":"ce4bhn12rcd13ifvqgpg","pricing_plan_id":"cebpf4jnsgd1na2vs0mg"},{"bike_id":"42714ffe-c42c-407f-8e86-4a0c4f465a7a","system_id":"levelo_inurba_marseille","lat":43.24564,"lon":5.3952,"is_reserved":false,"is_disabled":false,"rental_uris":{"android":"levelo://app?vid=42714ffe-c42c-407f-8e86-4a0c4f465a7a","ios":"levelo://app?vid=42714ffe-c42c-407f-8e86-4a0c4f465a7a"},"vehicle_type_id":"4","last_reported":1745777578,"current_range_meters":10800,"station_id":"ce4bhlp2rcd13ifvqgjg","pricing_plan_id":"cebpf4jnsgd1na2vs0mg"},{"bike_id":"44530a1d-b48a-47f5-a929-63b20a3c24dc","system_id":"levelo_inurba_marseille","lat":43.24153,"lon":5.36409,"is_reserved":false,"is_disabled":false,"rental_uris":{"android":"levelo://app?vid=44530a1d-b48a-47f5-a929-63b20a3c24dc","ios":"levelo://app?vid=44530a1d-b48a-47f5-a929-63b20a3c24dc"},"vehicle_type_id":"4","last_reported":1745777578,"current_range_meters":10800,"station_id":"cpo36qri1sfpv3e86is0","pricing_plan_id":"cebpf4jnsgd1na2vs0mg"},{"bike_id":"af4a97e0-dded-4da0-9eba-7bcd01c44383","system_id":"levelo_inurba_marseille","lat":43.30298,"lon":5.39214,"is_reserved":false,"is_disabled":true,"rental_uris":{"android":"levelo://app?vid=af4a97e0-dded-4da0-9eba-7bcd01c44383","ios":"levelo://app?vid=af4a97e0-dded-4da0-9eba-7bcd01c44383"},"vehicle_type_id":"4","last_reported":1745777578,"current_range_meters":10800,"station_id":"ce4bgkh2rcd13ifvqbk0","pricing_plan_id":"cebpf4jnsgd1na2vs0mg"},{"bike_id":"078ab41a-af70-4d8b-b052-54997ec1750b","system_id":"levelo_inurba_marseille","lat":43.26939,"lon":5.40257,"is_reserved":false,"is_disabled":false,"rental_uris":{"android":"levelo://app?vid=078ab41a-af70-4d8b-b052-54997ec1750b","ios":"levelo://app?vid=078ab41a-af70-4d8b-b052-54997ec1750b"},"vehicle_type_id":"4","last_reported":1745777578,"current_range_meters":10800,"station_id":"cjm6bp8fraef2m0cb0m0","pricing_plan_id":"cebpf4jnsgd1na2vs0mg"},{"bike_id":"8840b7d1-badd-45b4-91db-50feaeb6b7ed","system_id":"levelo_inurba_marseille","lat":43.31043,"lon":5.36695,"is_reserved":false,"is_disabled":false,"rental_uris":{"android":"levelo://app?vid=8840b7d1-badd-45b4-91db-50feaeb6b7ed","ios":"levelo://app?vid=8840b7d1-badd-45b4-91db-50feaeb6b7ed"},"vehicle_type_id":"4","last_reported":1745777578,"current_range_meters":10800,"station_id":"","pricing_plan_id":"cebpf4jnsgd1na2vs0mg"},{"bike_id":"6495ef53-64fc-4501-b962-3889f282e79f","system_id":"levelo_inurba_marseille","lat":43.32369,"lon":5.38891,"is_reserved":false,"is_disabled":false,"rental_uris":{"android":"levelo://app?vid=6495ef53-64fc-4501-b962-3889f282e79f","ios":"levelo://app?vid=6495ef53-64fc-4501-b962-3889f282e79f"},"vehicle_type_id":"4","last_reported":1745777578,"current_range_meters":11200,"station_id":"ce4bhqp2rcd13ifvqhog","pricing_plan_id":"cebpf4jnsgd1na2vs0mg"},{"bike_id":"07445598-68fe-40db-b19b-e14bab0e7c33","system_id":"levelo_inurba_marseille","lat":43.29094,"lon":5.36679,"is_reserved":false,"is_disabled":false,"rental_uris":{"android":"levelo://app?vid=07445598-68fe-40db-b19b-e14bab0e7c33","ios":"levelo://app?vid=07445598-68fe-40db-b19b-e14bab0e7c33"},"vehicle_type_id":"4","last_reported":1745777578,"current_range_meters":11600,"station_id":"","pricing_plan_id":"cebpf4jnsgd1na2vs0mg"},{"bike_id":"a08e6535-7d97-4f82-b424-5e6daf2d2362","system_id":"levelo_inurba_marseille","lat":43.29516,"lon":5.39404,"is_reserved":false,"is_disabled":true,"rental_uris":{"android":"levelo://app?vid=a08e6535-7d97-4f82-b424-5e6daf2d2362","ios":"levelo://app?vid=a08e6535-7d97-4f82-b424-5e6daf2d2362"},"vehicle_type_id":"4","last_reported":1745777578,"current_range_meters":11200,"station_id":"ce4bh292rcd13ifvqdf0","pricing_plan_id":"cebpf4jnsgd1na2vs0mg"},{"bike_id":"e1b84f42-92bc-49b3-afbe-e0f83fe8369e","system_id":"levelo_inurba_marseille","lat":43.23183,"lon":5.39991,"is_reserved":false,"is_disabled":false,"rental_uris":{"android":"levelo://app?vid=e1b84f42-92bc-49b3-afbe-e0f83fe8369e","ios":"levelo://app?vid=e1b84f42-92bc-49b3-afbe-e0f83fe8369e"},"vehicle_type_id":"4","last_reported":1745777578,"current_range_meters":11200,"station_id":"ce4bhn12rcd13ifvqgqg","pricing_plan_id":"cebpf4jnsgd1na2vs0mg"},{"bike_id":"7014e259-aed7-42e6-8369-bd3518db2318","system_id":"levelo_inurba_marseille","lat":43.26925,"lon":5.38671,"is_reserved":false,"is_disabled":false,"rental_uris":{"android":"levelo://app?vid=7014e259-aed7-42e6-8369-bd3518db2318","ios":"levelo://app?vid=7014e259-aed7-42e6-8369-bd3518db2318"},"vehicle_type_id":"4","last_reported":1745777578,"current_range_meters":11200,"station_id":"ce4bhhh2rcd13ifvqfl0","pricing_plan_id":"cebpf4jnsgd1na2vs0mg"},{"bike_id":"27426b30-0a0c-4abc-9e26-a6951da519b5","system_id":"levelo_inurba_marseille","lat":43.23184,"lon":5.35546,"is_reserved":false,"is_disabled":false,"rental_uris":{"android":"levelo://app?vid=27426b30-0a0c-4abc-9e26-a6951da519b5","ios":"levelo://app?vid=27426b30-0a0c-4abc-9e26-a6951da519b5"},"vehicle_type_id":"4","last_reported":1745777578,"current_range_meters":11600,"station_id":"ce4bhu92rcd13ifvqi70","pricing_plan_id":"cebpf4jnsgd1na2vs0mg"},{"bike_id":"a3025b58-95f5-414e-b99d-e173b379e912","system_id":"levelo_inurba_marseille","lat":43.28032,"lon":5.36946,"is_reserved":false,"is_disabled":false,"rental_uris":{"android":"levelo://app?vid=a3025b58-95f5-414e-b99d-e173b379e912","ios":"levelo://app?vid=a3025b58-95f5-414e-b99d-e173b379e912"},"vehicle_type_id":"4","last_reported":1745777578,"current_range_meters":11600,"station_id":"ce4bha12rcd13ifvqef0","pricing_plan_id":"cebpf4jnsgd1na2vs0mg"},{"bike_id":"356b76a1-af1a-4bef-951e-98e5b057a721","system_id":"levelo_inurba_marseille","lat":43.292544,"lon":5.384309,"is_reserved":false,"is_disabled":true,"rental_uris":{"android":"levelo://app?vid=356b76a1-af1a-4bef-951e-98e5b057a721","ios":"levelo://app?vid=356b76a1-af1a-4bef-951e-98e5b057a721"},"vehicle_type_id":"4","last_reported":1745777578,"current_range_meters":11600,"station_id":"ce4bh692rcd13ifvqea0","pricing_plan_id":"cebpf4jnsgd1na2vs0mg"},{"bike_id":"00f4c1eb-4cfd-4327-bf65-5e53c2f5bda0","system_id":"levelo_inurba_marseille","lat":43.27315,"lon":5.39121,"is_reserved":false,"is_disabled":false,"rental_uris":{"android":"levelo://app?vid=00f4c1eb-4cfd-4327-bf65-5e53c2f5bda0","ios":"levelo://app?vid=00f4c1eb-4cfd-4327-bf65-5e53c2f5bda0"},"vehicle_type_id":"4","last_reported":1745777578,"current_range_meters":11600,"station_id":"ce4bhgp2rcd13ifvqfe0","pricing_plan_id":"cebpf4jnsgd1na2vs0mg"},{"bike_id":"17a81328-d62e-4208-98d2-094e17923132","system_id":"levelo_inurba_marseille","lat":43.31274,"lon":5.40169,"is_reserved":false,"is_disabled":false,"rental_uris":{"android":"levelo://app?vid=17a81328-d62e-4208-98d2-094e17923132","ios":"levelo://app?vid=17a81328-d62e-4208-98d2-094e17923132"},"vehicle_type_id":"4","last_reported":1745777578,"current_range_meters":11600,"station_id":"ce4bh092rcd13ifvqd30","pricing_plan_id":"cebpf4jnsgd1na2vs0mg"},{"bike_id":"69efb4bd-40ba-43dc-8cb1-8217342250bf","system_id":"levelo_inurba_marseille","lat":43.274258,"lon":5.394213,"is_reserved":false,"is_disabled":false,"rental_uris":{"android":"levelo://app?vid=69efb4bd-40ba-43dc-8cb1-8217342250bf","ios":"levelo://app?vid=69efb4bd-40ba-43dc-8cb1-8217342250bf"},"vehicle_type_id":"4","last_reported":1745777578,"current_range_meters":11600,"station_id":"ce4bhdp2rcd13ifvqf20","pricing_plan_id":"cebpf4jnsgd1na2vs0mg"},{"bike_id":"560f12bb-1614-4d7c-b78e-ccf5bdec9ea6","system_id":"levelo_inurba_marseille","lat":43.28447,"lon":5.35918,"is_reserved":false,"is_disabled":true,"rental_uris":{"android":"levelo://app?vid=560f12bb-1614-4d7c-b78e-ccf5bdec9ea6","ios":"levelo://app?vid=560f12bb-1614-4d7c-b78e-ccf5bdec9ea6"},"vehicle_type_id":"4","last_reported":1745777578,"current_range_meters":11600,"station_id":"ce4bhah2rcd13ifvqei0","pricing_plan_id":"cebpf4jnsgd1na2vs0mg"},{"bike_id":"104d4248-01a2-4aa9-b192-3c35d5b2aa69","system_id":"levelo_inurba_marseille","lat":43.32464,"lon":5.36615,"is_reserved":false,"is_disabled":false,"rental_uris":{"android":"levelo://app?vid=104d4248-01a2-4aa9-b192-3c35d5b2aa69","ios":"levelo://app?vid=104d4248-01a2-4aa9-b192-3c35d5b2aa69"},"vehicle_type_id":"4","last_reported":1745777578,"current_range_meters":12000,"station_id":"ce4bhs12rcd13ifvqhvg","pricing_plan_id":"cebpf4jnsgd1na2vs0mg"},{"bike_id":"7626ed72-c0f8-4eb9-adb3-f027b3fcb3d9","system_id":"levelo_inurba_marseille","lat":43.24661,"lon":5.38162,"is_reserved":false,"is_disabled":false,"rental_uris":{"android":"levelo://app?vid=7626ed72-c0f8-4eb9-adb3-f027b3fcb3d9","ios":"levelo://app?vid=7626ed72-c0f8-4eb9-adb3-f027b3fcb3d9"},"vehicle_type_id":"4","last_reported":1745777578,"current_range_meters":12000,"station_id":"ce4bhih2rcd13ifvqfr0","pricing_plan_id":"cebpf4jnsgd1na2vs0mg"},{"bike_id":"e3444608-83f8-4750-9cd1-777641086bb8","system_id":"levelo_inurba_marseille","lat":43.28696,"lon":5.37392,"is_reserved":false,"is_disabled":false,"rental_uris":{"android":"levelo://app?vid=e3444608-83f8-4750-9cd1-777641086bb8","ios":"levelo://app?vid=e3444608-83f8-4750-9cd1-777641086bb8"},"vehicle_type_id":"4","last_reported":1745777578,"current_range_meters":12000,"station_id":"ce4bh3p2rcd13ifvqdq0","pricing_plan_id":"cebpf4jnsgd1na2vs0mg"},{"bike_id":"d94908af-af76-46ce-9777-7fd7a6b7db7e","system_id":"levelo_inurba_marseille","lat":43.29848,"lon":5.36285,"is_reserved":false,"is_disabled":false,"rental_uris":{"android":"levelo://app?vid=d94908af-af76-46ce-9777-7fd7a6b7db7e","ios":"levelo://app?vid=d94908af-af76-46ce-9777-7fd7a6b7db7e"},"vehicle_type_id":"4","last_reported":1745777578,"current_range_meters":12000,"station_id":"ce4bgpp2rcd13ifvqc3g","pricing_plan_id":"cebpf4jnsgd1na2vs0mg"},{"bike_id":"717cabec-6d1e-4fbd-94f4-9e9366fab599","system_id":"levelo_inurba_marseille","lat":43.22509,"lon":5.34779,"is_reserved":false,"is_disabled":true,"rental_uris":{"android":"levelo://app?vid=717cabec-6d1e-4fbd-94f4-9e9366fab599","ios":"levelo://app?vid=717cabec-6d1e-4fbd-94f4-9e9366fab599"},"vehicle_type_id":"4","last_reported":1745777578,"current_range_meters":12400,"station_id":"st_cvj5dfep6f1abm77gieg","pricing_plan_id":"cebpf4jnsgd1na2vs0mg"},{"bike_id":"e2ebe0b4-27e2-4f46-bdf4-e1916df46672","system_id":"levelo_inurba_marseille","lat":43.31795,"lon":5.40592,"is_reserved":false,"is_disabled":false,"rental_uris":{"android":"levelo://app?vid=e2ebe0b4-27e2-4f46-bdf4-e1916df46672","ios":"levelo://app?vid=e2ebe0b4-27e2-4f46-bdf4-e1916df46672"},"vehicle_type_id":"4","last_reported":1745777578,"current_range_meters":12400,"station_id":"","pricing_plan_id":"cebpf4jnsgd1na2vs0mg"},{"bike_id":"fbce08c7-7e5a-463e-a131-75f311141db8","system_id":"levelo_inurba_marseille","lat":43.28466,"lon":5.35875,"is_reserved":false,"is_disabled":false,"rental_uris":{"android":"levelo://app?vid=fbce08c7-7e5a-463e-a131-75f311141db8","ios":"levelo://app?vid=fbce08c7-7e5a-463e-a131-75f311141db8"},"vehicle_type_id":"4","last_reported":1745777578,"current_range_meters":12800,"station_id":"ce4bhah2rcd13ifvqei0","pricing_plan_id":"cebpf4jnsgd1na2vs0mg"},{"bike_id":"eaef2cf7-e969-4d63-b721-9009d9725cb0","system_id":"levelo_inurba_marseille","lat":43.28226,"lon":5.34876,"is_reserved":false,"is_disabled":false,"rental_uris":{"android":"levelo://app?vid=eaef2cf7-e969-4d63-b721-9009d9725cb0","ios":"levelo://app?vid=eaef2cf7-e969-4d63-b721-9009d9725cb0"},"vehicle_type_id":"4","last_reported":1745777578,"current_range_meters":12800,"station_id":"","pricing_plan_id":"cebpf4jnsgd1na2vs0mg"},{"bike_id":"bab391eb-e982-4066-b94b-52cc02253741","system_id":"levelo_inurba_marseille","lat":43.3025,"lon":5.40041,"is_reserved":false,"is_disabled":true,"rental_uris":{"android":"levelo://app?vid=bab391eb-e982-4066-b94b-52cc02253741","ios":"levelo://app?vid=bab391eb-e982-4066-b94b-52cc02253741"},"vehicle_type_id":"4","last_reported":1745777578,"current_range_meters":12800,"station_id":"ce4bgvh2rcd13ifvqcs0","pricing_plan_id":"cebpf4jnsgd1na2vs0mg"},{"bike_id":"57ebd52c-bbc8-4a4d-8d80-2da8f6250dbd","system_id":"levelo_inurba_marseille","lat":43.27837,"lon":5.4071,"is_reserved":false,"is_disabled":true,"rental_uris":{"android":"levelo://app?vid=57ebd52c-bbc8-4a4d-8d80-2da8f6250dbd","ios":"levelo://app?vid=57ebd52c-bbc8-4a4d-8d80-2da8f6250dbd"},"vehicle_type_id":"4","last_reported":1745777578,"current_range_meters":12800,"station_id":"ce4bhnh2rcd13ifvqgtg","pricing_plan_id":"cebpf4jnsgd1na2vs0mg"},{"bike_id":"1dbc596c-224b-452b-8138-ae5f3b6e1b4c","system_id":"levelo_inurba_marseille","lat":43.29269,"lon":5.38436,"is_reserved":false,"is_disabled":false,"rental_uris":{"android":"levelo://app?vid=1dbc596c-224b-452b-8138-ae5f3b6e1b4c","ios":"levelo://app?vid=1dbc596c-224b-452b-8138-ae5f3b6e1b4c"},"vehicle_type_id":"4","last_reported":1745777578,"current_range_meters":12800,"station_id":"ce4bh692rcd13ifvqea0","pricing_plan_id":"cebpf4jnsgd1na2vs0mg"},{"bike_id":"6303aeb8-901b-4f8f-8588-7c345791c8ea","system_id":"levelo_inurba_marseille","lat":43.24731,"lon":5.41155,"is_reserved":false,"is_disabled":false,"rental_uris":{"android":"levelo://app?vid=6303aeb8-901b-4f8f-8588-7c345791c8ea","ios":"levelo://app?vid=6303aeb8-901b-4f8f-8588-7c345791c8ea"},"vehicle_type_id":"4","last_reported":1745777578,"current_range_meters":13600,"station_id":"","pricing_plan_id":"cebpf4jnsgd1na2vs0mg"},{"bike_id":"c04863fd-b8e8-489a-9f80-6fae4670cf54","system_id":"levelo_inurba_marseille","lat":43.26939,"lon":5.40251,"is_reserved":false,"is_disabled":false,"rental_uris":{"android":"levelo://app?vid=c04863fd-b8e8-489a-9f80-6fae4670cf54","ios":"levelo://app?vid=c04863fd-b8e8-489a-9f80-6fae4670cf54"},"vehicle_type_id":"4","last_reported":1745777578,"current_range_meters":13600,"station_id":"cjm6bp8fraef2m0cb0m0","pricing_plan_id":"cebpf4jnsgd1na2vs0mg"},{"bike_id":"a5903229-b31f-421f-9c07-ee7e22bcdbb0","system_id":"levelo_inurba_marseille","lat":43.21194,"lon":5.35075,"is_reserved":false,"is_disabled":false,"rental_uris":{"android":"levelo://app?vid=a5903229-b31f-421f-9c07-ee7e22bcdbb0","ios":"levelo://app?vid=a5903229-b31f-421f-9c07-ee7e22bcdbb0"},"vehicle_type_id":"4","last_reported":1745777578,"current_range_meters":13600,"station_id":"","pricing_plan_id":"cebpf4jnsgd1na2vs0mg"},{"bike_id":"86f76a0b-34d6-4392-ad32-8a5bed8c7987","system_id":"levelo_inurba_marseille","lat":43.294098,"lon":5.386262,"is_reserved":false,"is_disabled":false,"rental_uris":{"android":"levelo://app?vid=86f76a0b-34d6-4392-ad32-8a5bed8c7987","ios":"levelo://app?vid=86f76a0b-34d6-4392-ad32-8a5bed8c7987"},"vehicle_type_id":"4","last_reported":1745777578,"current_range_meters":13600,"station_id":"ce4bgip2rcd13ifvqbb0","pricing_plan_id":"cebpf4jnsgd1na2vs0mg"},{"bike_id":"e774a4fb-8aec-46df-adcf-50872e26b31b","system_id":"levelo_inurba_marseille","lat":43.27312,"lon":5.39098,"is_reserved":false,"is_disabled":false,"rental_uris":{"android":"levelo://app?vid=e774a4fb-8aec-46df-adcf-50872e26b31b","ios":"levelo://app?vid=e774a4fb-8aec-46df-adcf-50872e26b31b"},"vehicle_type_id":"4","last_reported":1745777578,"current_range_meters":13600,"station_id":"ce4bhgp2rcd13ifvqfe0","pricing_plan_id":"cebpf4jnsgd1na2vs0mg"},{"bike_id":"6d593226-0a2e-46d4-8de3-9c8bd9d3e674","system_id":"levelo_inurba_marseille","lat":43.29576,"lon":5.37693,"is_reserved":false,"is_disabled":true,"rental_uris":{"android":"levelo://app?vid=6d593226-0a2e-46d4-8de3-9c8bd9d3e674","ios":"levelo://app?vid=6d593226-0a2e-46d4-8de3-9c8bd9d3e674"},"vehicle_type_id":"4","last_reported":1745777578,"current_range_meters":13600,"station_id":"","pricing_plan_id":"cebpf4jnsgd1na2vs0mg"},{"bike_id":"1fe84233-d6e6-400c-ba7e-765c53207954","system_id":"levelo_inurba_marseille","lat":43.26069,"lon":5.39385,"is_reserved":false,"is_disabled":false,"rental_uris":{"android":"levelo://app?vid=1fe84233-d6e6-400c-ba7e-765c53207954","ios":"levelo://app?vid=1fe84233-d6e6-400c-ba7e-765c53207954"},"vehicle_type_id":"4","last_reported":1745777578,"current_range_meters":13600,"station_id":"ce4bhh92rcd13ifvqfj0","pricing_plan_id":"cebpf4jnsgd1na2vs0mg"},{"bike_id":"b330c3b4-8203-49c9-a4bf-5485d09a1d2d","system_id":"levelo_inurba_marseille","lat":43.30217,"lon":5.39465,"is_reserved":false,"is_disabled":true,"rental_uris":{"android":"levelo://app?vid=b330c3b4-8203-49c9-a4bf-5485d09a1d2d","ios":"levelo://app?vid=b330c3b4-8203-49c9-a4bf-5485d09a1d2d"},"vehicle_type_id":"4","last_reported":1745777578,"current_range_meters":13600,"station_id":"ce4bh0p2rcd13ifvqd70","pricing_plan_id":"cebpf4jnsgd1na2vs0mg"},{"bike_id":"03bd42f6-231b-41f0-967c-979162658d23","system_id":"levelo_inurba_marseille","lat":43.24667,"lon":5.38128,"is_reserved":false,"is_disabled":false,"rental_uris":{"android":"levelo://app?vid=03bd42f6-231b-41f0-967c-979162658d23","ios":"levelo://app?vid=03bd42f6-231b-41f0-967c-979162658d23"},"vehicle_type_id":"4","last_reported":1745777578,"current_range_meters":14000,"station_id":"ce4bhih2rcd13ifvqfr0","pricing_plan_id":"cebpf4jnsgd1na2vs0mg"},{"bike_id":"3d934169-6946-46cc-87a4-ce5d03b77075","system_id":"levelo_inurba_marseille","lat":43.21794,"lon":5.34601,"is_reserved":false,"is_disabled":false,"rental_uris":{"android":"levelo://app?vid=3d934169-6946-46cc-87a4-ce5d03b77075","ios":"levelo://app?vid=3d934169-6946-46cc-87a4-ce5d03b77075"},"vehicle_type_id":"4","last_reported":1745777578,"current_range_meters":14000,"station_id":"st_cvj6r9ubvosntc0bgbag","pricing_plan_id":"cebpf4jnsgd1na2vs0mg"},{"bike_id":"99be1414-58ff-4752-826b-d0dcc4401711","system_id":"levelo_inurba_marseille","lat":43.24849,"lon":5.37463,"is_reserved":false,"is_disabled":true,"rental_uris":{"android":"levelo://app?vid=99be1414-58ff-4752-826b-d0dcc4401711","ios":"levelo://app?vid=99be1414-58ff-4752-826b-d0dcc4401711"},"vehicle_type_id":"4","last_reported":1745777578,"current_range_meters":14000,"station_id":"ce4bhgh2rcd13ifvqfb0","pricing_plan_id":"cebpf4jnsgd1na2vs0mg"},{"bike_id":"0d777af5-4166-475a-a6b9-6a0197032592","system_id":"levelo_inurba_marseille","lat":43.23259,"lon":5.35233,"is_reserved":false,"is_disabled":false,"rental_uris":{"android":"levelo://app?vid=0d777af5-4166-475a-a6b9-6a0197032592","ios":"levelo://app?vid=0d777af5-4166-475a-a6b9-6a0197032592"},"vehicle_type_id":"4","last_reported":1745777578,"current_range_meters":14400,"station_id":"","pricing_plan_id":"cebpf4jnsgd1na2vs0mg"},{"bike_id":"cdd667c0-57e3-4ee9-a316-55597b18b3d3","system_id":"levelo_inurba_marseille","lat":43.26781,"lon":5.39419,"is_reserved":false,"is_disabled":false,"rental_uris":{"android":"levelo://app?vid=cdd667c0-57e3-4ee9-a316-55597b18b3d3","ios":"levelo://app?vid=cdd667c0-57e3-4ee9-a316-55597b18b3d3"},"vehicle_type_id":"4","last_reported":1745777578,"current_range_meters":14400,"station_id":"ce4bhh12rcd13ifvqfg0","pricing_plan_id":"cebpf4jnsgd1na2vs0mg"},{"bike_id":"f55f267e-a8c1-4d4f-970f-aad2688c8f0b","system_id":"levelo_inurba_marseille","lat":43.30139,"lon":5.39863,"is_reserved":false,"is_disabled":false,"rental_uris":{"android":"levelo://app?vid=f55f267e-a8c1-4d4f-970f-aad2688c8f0b","ios":"levelo://app?vid=f55f267e-a8c1-4d4f-970f-aad2688c8f0b"},"vehicle_type_id":"4","last_reported":1745777578,"current_range_meters":14400,"station_id":"ce4bh0h2rcd13ifvqd40","pricing_plan_id":"cebpf4jnsgd1na2vs0mg"},{"bike_id":"a6ef5e73-9c2a-4c3a-b853-48e28d6dc161","system_id":"levelo_inurba_marseille","lat":43.31745,"lon":5.43717,"is_reserved":false,"is_disabled":true,"rental_uris":{"android":"levelo://app?vid=a6ef5e73-9c2a-4c3a-b853-48e28d6dc161","ios":"levelo://app?vid=a6ef5e73-9c2a-4c3a-b853-48e28d6dc161"},"vehicle_type_id":"4","last_reported":1745777578,"current_range_meters":14400,"station_id":"ce4bhp92rcd13ifvqhcg","pricing_plan_id":"cebpf4jnsgd1na2vs0mg"},{"bike_id":"f3cb643e-5831-466d-b658-8539e54fbe4b","system_id":"levelo_inurba_marseille","lat":43.27062,"lon":5.40262,"is_reserved":false,"is_disabled":false,"rental_uris":{"android":"levelo://app?vid=f3cb643e-5831-466d-b658-8539e54fbe4b","ios":"levelo://app?vid=f3cb643e-5831-466d-b658-8539e54fbe4b"},"vehicle_type_id":"4","last_reported":1745777578,"current_range_meters":14800,"station_id":"ce4bhk92rcd13ifvqgc0","pricing_plan_id":"cebpf4jnsgd1na2vs0mg"},{"bike_id":"10c6cce1-0d03-49ce-a30e-27932dffffe4","system_id":"levelo_inurba_marseille","lat":43.29279,"lon":5.3843,"is_reserved":false,"is_disabled":false,"rental_uris":{"android":"levelo://app?vid=10c6cce1-0d03-49ce-a30e-27932dffffe4","ios":"levelo://app?vid=10c6cce1-0d03-49ce-a30e-27932dffffe4"},"vehicle_type_id":"4","last_reported":1745777578,"current_range_meters":14800,"station_id":"ce4bh692rcd13ifvqea0","pricing_plan_id":"cebpf4jnsgd1na2vs0mg"},{"bike_id":"89e7ab08-7fc9-416d-a96f-130de8b43266","system_id":"levelo_inurba_marseille","lat":43.33777,"lon":5.39145,"is_reserved":false,"is_disabled":false,"rental_uris":{"android":"levelo://app?vid=89e7ab08-7fc9-416d-a96f-130de8b43266","ios":"levelo://app?vid=89e7ab08-7fc9-416d-a96f-130de8b43266"},"vehicle_type_id":"4","last_reported":1745777578,"current_range_meters":14800,"station_id":"","pricing_plan_id":"cebpf4jnsgd1na2vs0mg"},{"bike_id":"f8b56fd8-5df1-4d27-a596-412390a0fe66","system_id":"levelo_inurba_marseille","lat":43.27056,"lon":5.40267,"is_reserved":false,"is_disabled":false,"rental_uris":{"android":"levelo://app?vid=f8b56fd8-5df1-4d27-a596-412390a0fe66","ios":"levelo://app?vid=f8b56fd8-5df1-4d27-a596-412390a0fe66"},"vehicle_type_id":"4","last_reported":1745777578,"current_range_meters":14800,"station_id":"ce4bhk92rcd13ifvqgc0","pricing_plan_id":"cebpf4jnsgd1na2vs0mg"},{"bike_id":"9da20782-8b7c-4da2-8343-dc84607a6770","system_id":"levelo_inurba_marseille","lat":43.28671,"lon":5.38656,"is_reserved":false,"is_disabled":false,"rental_uris":{"android":"levelo://app?vid=9da20782-8b7c-4da2-8343-dc84607a6770","ios":"levelo://app?vid=9da20782-8b7c-4da2-8343-dc84607a6770"},"vehicle_type_id":"4","last_reported":1745777578,"current_range_meters":14800,"station_id":"ce4bh492rcd13ifvqdug","pricing_plan_id":"cebpf4jnsgd1na2vs0mg"},{"bike_id":"4d2356b2-ed9f-48d1-8aa8-852572f7bac6","system_id":"levelo_inurba_marseille","lat":43.26489,"lon":5.39546,"is_reserved":false,"is_disabled":false,"rental_uris":{"android":"levelo://app?vid=4d2356b2-ed9f-48d1-8aa8-852572f7bac6","ios":"levelo://app?vid=4d2356b2-ed9f-48d1-8aa8-852572f7bac6"},"vehicle_type_id":"4","last_reported":1745777578,"current_range_meters":14800,"station_id":"ce4bhi12rcd13ifvqfq0","pricing_plan_id":"cebpf4jnsgd1na2vs0mg"},{"bike_id":"69886b2a-47f4-454d-ba6b-120e8bddfa36","system_id":"levelo_inurba_marseille","lat":43.30156,"lon":5.37425,"is_reserved":false,"is_disabled":false,"rental_uris":{"android":"levelo://app?vid=69886b2a-47f4-454d-ba6b-120e8bddfa36","ios":"levelo://app?vid=69886b2a-47f4-454d-ba6b-120e8bddfa36"},"vehicle_type_id":"4","last_reported":1745777578,"current_range_meters":14800,"station_id":"ce4bgs92rcd13ifvqcc0","pricing_plan_id":"cebpf4jnsgd1na2vs0mg"},{"bike_id":"dd26ad95-223d-43ef-af10-755bd952b719","system_id":"levelo_inurba_marseille","lat":43.26678,"lon":5.38271,"is_reserved":false,"is_disabled":false,"rental_uris":{"android":"levelo://app?vid=dd26ad95-223d-43ef-af10-755bd952b719","ios":"levelo://app?vid=dd26ad95-223d-43ef-af10-755bd952b719"},"vehicle_type_id":"4","last_reported":1745777578,"current_range_meters":15200,"station_id":"ce4bhg92rcd13ifvqf90","pricing_plan_id":"cebpf4jnsgd1na2vs0mg"},{"bike_id":"647355cc-822f-41e4-b0fe-856d5a69a337","system_id":"levelo_inurba_marseille","lat":43.21191,"lon":5.3508,"is_reserved":false,"is_disabled":false,"rental_uris":{"android":"levelo://app?vid=647355cc-822f-41e4-b0fe-856d5a69a337","ios":"levelo://app?vid=647355cc-822f-41e4-b0fe-856d5a69a337"},"vehicle_type_id":"4","last_reported":1745777578,"current_range_meters":16000,"station_id":"st_cvj6sg6p6f1abm77japg","pricing_plan_id":"cebpf4jnsgd1na2vs0mg"},{"bike_id":"8efd3606-6323-4bad-8f10-3a3a29d2ed8c","system_id":"levelo_inurba_marseille","lat":43.321,"lon":5.36781,"is_reserved":false,"is_disabled":false,"rental_uris":{"android":"levelo://app?vid=8efd3606-6323-4bad-8f10-3a3a29d2ed8c","ios":"levelo://app?vid=8efd3606-6323-4bad-8f10-3a3a29d2ed8c"},"vehicle_type_id":"4","last_reported":1745777578,"current_range_meters":16000,"station_id":"ce4bhrh2rcd13ifvqhug","pricing_plan_id":"cebpf4jnsgd1na2vs0mg"},{"bike_id":"4046a82f-66e8-4b55-bd0a-356edea772d8","system_id":"levelo_inurba_marseille","lat":43.30604,"lon":5.38176,"is_reserved":false,"is_disabled":false,"rental_uris":{"android":"levelo://app?vid=4046a82f-66e8-4b55-bd0a-356edea772d8","ios":"levelo://app?vid=4046a82f-66e8-4b55-bd0a-356edea772d8"},"vehicle_type_id":"4","last_reported":1745777578,"current_range_meters":16000,"station_id":"","pricing_plan_id":"cebpf4jnsgd1na2vs0mg"},{"bike_id":"b300f515-1fbe-49dd-a469-18a854508227","system_id":"levelo_inurba_marseille","lat":43.30936,"lon":5.40147,"is_reserved":false,"is_disabled":false,"rental_uris":{"android":"levelo://app?vid=b300f515-1fbe-49dd-a469-18a854508227","ios":"levelo://app?vid=b300f515-1fbe-49dd-a469-18a854508227"},"vehicle_type_id":"4","last_reported":1745777578,"current_range_meters":16000,"station_id":"ce4bgvp2rcd13ifvqct0","pricing_plan_id":"cebpf4jnsgd1na2vs0mg"},{"bike_id":"7979f7a1-02c2-434b-a3a0-60931f52df8d","system_id":"levelo_inurba_marseille","lat":43.27051,"lon":5.4027,"is_reserved":false,"is_disabled":false,"rental_uris":{"android":"levelo://app?vid=7979f7a1-02c2-434b-a3a0-60931f52df8d","ios":"levelo://app?vid=7979f7a1-02c2-434b-a3a0-60931f52df8d"},"vehicle_type_id":"4","last_reported":1745777578,"current_range_meters":16000,"station_id":"ce4bhk92rcd13ifvqgc0","pricing_plan_id":"cebpf4jnsgd1na2vs0mg"},{"bike_id":"f209d450-d49f-41f3-b8d6-81739bac5fd0","system_id":"levelo_inurba_marseille","lat":43.290161,"lon":5.381517,"is_reserved":false,"is_disabled":false,"rental_uris":{"android":"levelo://app?vid=f209d450-d49f-41f3-b8d6-81739bac5fd0","ios":"levelo://app?vid=f209d450-d49f-41f3-b8d6-81739bac5fd0"},"vehicle_type_id":"4","last_reported":1745777578,"current_range_meters":16000,"station_id":"ce4bh4p2rcd13ifvqe1g","pricing_plan_id":"cebpf4jnsgd1na2vs0mg"},{"bike_id":"f360aaad-e350-49e9-8191-58ce4616eb13","system_id":"levelo_inurba_marseille","lat":43.21219,"lon":5.35086,"is_reserved":false,"is_disabled":true,"rental_uris":{"android":"levelo://app?vid=f360aaad-e350-49e9-8191-58ce4616eb13","ios":"levelo://app?vid=f360aaad-e350-49e9-8191-58ce4616eb13"},"vehicle_type_id":"4","last_reported":1745777578,"current_range_meters":16000,"station_id":"st_cvj6sg6p6f1abm77japg","pricing_plan_id":"cebpf4jnsgd1na2vs0mg"},{"bike_id":"33171360-4589-4e37-981a-faa44a7faca6","system_id":"levelo_inurba_marseille","lat":43.26796,"lon":5.39416,"is_reserved":false,"is_disabled":false,"rental_uris":{"android":"levelo://app?vid=33171360-4589-4e37-981a-faa44a7faca6","ios":"levelo://app?vid=33171360-4589-4e37-981a-faa44a7faca6"},"vehicle_type_id":"4","last_reported":1745777578,"current_range_meters":16000,"station_id":"ce4bhh12rcd13ifvqfg0","pricing_plan_id":"cebpf4jnsgd1na2vs0mg"},{"bike_id":"9979a00e-2e44-430d-a52a-2c59b70df091","system_id":"levelo_inurba_marseille","lat":43.23189,"lon":5.39982,"is_reserved":false,"is_disabled":false,"rental_uris":{"android":"levelo://app?vid=9979a00e-2e44-430d-a52a-2c59b70df091","ios":"levelo://app?vid=9979a00e-2e44-430d-a52a-2c59b70df091"},"vehicle_type_id":"4","last_reported":1745777578,"current_range_meters":16000,"station_id":"ce4bhn12rcd13ifvqgqg","pricing_plan_id":"cebpf4jnsgd1na2vs0mg"},{"bike_id":"24eb360c-178a-413d-9466-594d1f75c693","system_id":"levelo_inurba_marseille","lat":43.27431,"lon":5.39416,"is_reserved":false,"is_disabled":false,"rental_uris":{"android":"levelo://app?vid=24eb360c-178a-413d-9466-594d1f75c693","ios":"levelo://app?vid=24eb360c-178a-413d-9466-594d1f75c693"},"vehicle_type_id":"4","last_reported":1745777578,"current_range_meters":16000,"station_id":"ce4bhdp2rcd13ifvqf20","pricing_plan_id":"cebpf4jnsgd1na2vs0mg"},{"bike_id":"97f36b89-3f79-4d54-80b9-0001fe6da6bb","system_id":"levelo_inurba_marseille","lat":43.32445,"lon":5.39134,"is_reserved":false,"is_disabled":true,"rental_uris":{"android":"levelo://app?vid=97f36b89-3f79-4d54-80b9-0001fe6da6bb","ios":"levelo://app?vid=97f36b89-3f79-4d54-80b9-0001fe6da6bb"},"vehicle_type_id":"4","last_reported":1745777578,"current_range_meters":16000,"station_id":"","pricing_plan_id":"cebpf4jnsgd1na2vs0mg"},{"bike_id":"8fd88a4b-a251-491a-97ca-476ca68e4cc7","system_id":"levelo_inurba_marseille","lat":43.27211,"lon":5.39173,"is_reserved":false,"is_disabled":false,"rental_uris":{"android":"levelo://app?vid=8fd88a4b-a251-491a-97ca-476ca68e4cc7","ios":"levelo://app?vid=8fd88a4b-a251-491a-97ca-476ca68e4cc7"},"vehicle_type_id":"4","last_reported":1745777578,"current_range_meters":16400,"station_id":"ce4bhhp2rcd13ifvqfm0","pricing_plan_id":"cebpf4jnsgd1na2vs0mg"},{"bike_id":"98c58064-8d90-46e4-97f1-dceecda369e8","system_id":"levelo_inurba_marseille","lat":43.27327,"lon":5.390549,"is_reserved":false,"is_disabled":false,"rental_uris":{"android":"levelo://app?vid=98c58064-8d90-46e4-97f1-dceecda369e8","ios":"levelo://app?vid=98c58064-8d90-46e4-97f1-dceecda369e8"},"vehicle_type_id":"4","last_reported":1745777578,"current_range_meters":16400,"station_id":"ce4bhgp2rcd13ifvqfe0","pricing_plan_id":"cebpf4jnsgd1na2vs0mg"},{"bike_id":"796f39cd-d1a8-465d-828e-552ea9295c29","system_id":"levelo_inurba_marseille","lat":43.29039,"lon":5.35919,"is_reserved":false,"is_disabled":false,"rental_uris":{"android":"levelo://app?vid=796f39cd-d1a8-465d-828e-552ea9295c29","ios":"levelo://app?vid=796f39cd-d1a8-465d-828e-552ea9295c29"},"vehicle_type_id":"4","last_reported":1745777578,"current_range_meters":16400,"station_id":"ce4bha92rcd13ifvqeg0","pricing_plan_id":"cebpf4jnsgd1na2vs0mg"},{"bike_id":"d8e186e0-8d9f-4c16-bb12-3c50f63fd666","system_id":"levelo_inurba_marseille","lat":43.27494,"lon":5.42494,"is_reserved":false,"is_disabled":false,"rental_uris":{"android":"levelo://app?vid=d8e186e0-8d9f-4c16-bb12-3c50f63fd666","ios":"levelo://app?vid=d8e186e0-8d9f-4c16-bb12-3c50f63fd666"},"vehicle_type_id":"4","last_reported":1745777578,"current_range_meters":16400,"station_id":"ce4bhn92rcd13ifvqgrg","pricing_plan_id":"cebpf4jnsgd1na2vs0mg"},{"bike_id":"4191ccc3-8631-4845-8055-60f38829d2d7","system_id":"levelo_inurba_marseille","lat":43.26806,"lon":5.4027,"is_reserved":false,"is_disabled":false,"rental_uris":{"android":"levelo://app?vid=4191ccc3-8631-4845-8055-60f38829d2d7","ios":"levelo://app?vid=4191ccc3-8631-4845-8055-60f38829d2d7"},"vehicle_type_id":"4","last_reported":1745777578,"current_range_meters":16400,"station_id":"ce501612rcd8frsf0b60","pricing_plan_id":"cebpf4jnsgd1na2vs0mg"},{"bike_id":"a1300fa1-43f7-47bc-be68-1621591c429e","system_id":"levelo_inurba_marseille","lat":43.25026,"lon":5.38916,"is_reserved":false,"is_disabled":true,"rental_uris":{"android":"levelo://app?vid=a1300fa1-43f7-47bc-be68-1621591c429e","ios":"levelo://app?vid=a1300fa1-43f7-47bc-be68-1621591c429e"},"vehicle_type_id":"4","last_reported":1745777578,"current_range_meters":16400,"station_id":"ce4bhgp2rcd13ifvqfd0","pricing_plan_id":"cebpf4jnsgd1na2vs0mg"},{"bike_id":"191f8275-402a-4a63-af47-cb22346ea087","system_id":"levelo_inurba_marseille","lat":43.29202,"lon":5.35794,"is_reserved":false,"is_disabled":false,"rental_uris":{"android":"levelo://app?vid=191f8275-402a-4a63-af47-cb22346ea087","ios":"levelo://app?vid=191f8275-402a-4a63-af47-cb22346ea087"},"vehicle_type_id":"4","last_reported":1745777578,"current_range_meters":16400,"station_id":"ce4bhb12rcd13ifvqel0","pricing_plan_id":"cebpf4jnsgd1na2vs0mg"},{"bike_id":"c6a7a3c2-f45e-4c5b-932d-bdc3d3f39c97","system_id":"levelo_inurba_marseille","lat":43.2679,"lon":5.39415,"is_reserved":false,"is_disabled":false,"rental_uris":{"android":"levelo://app?vid=c6a7a3c2-f45e-4c5b-932d-bdc3d3f39c97","ios":"levelo://app?vid=c6a7a3c2-f45e-4c5b-932d-bdc3d3f39c97"},"vehicle_type_id":"4","last_reported":1745777578,"current_range_meters":16400,"station_id":"ce4bhh12rcd13ifvqfg0","pricing_plan_id":"cebpf4jnsgd1na2vs0mg"},{"bike_id":"3f5f2c9a-9e49-4b78-9b1b-0708da9fec39","system_id":"levelo_inurba_marseille","lat":43.22496,"lon":5.34781,"is_reserved":false,"is_disabled":false,"rental_uris":{"android":"levelo://app?vid=3f5f2c9a-9e49-4b78-9b1b-0708da9fec39","ios":"levelo://app?vid=3f5f2c9a-9e49-4b78-9b1b-0708da9fec39"},"vehicle_type_id":"4","last_reported":1745777578,"current_range_meters":16800,"station_id":"st_cvj5dfep6f1abm77gieg","pricing_plan_id":"cebpf4jnsgd1na2vs0mg"},{"bike_id":"e492037e-60a9-4864-84d6-2fe9ea031f90","system_id":"levelo_inurba_marseille","lat":43.27992,"lon":5.38742,"is_reserved":false,"is_disabled":false,"rental_uris":{"android":"levelo://app?vid=e492037e-60a9-4864-84d6-2fe9ea031f90","ios":"levelo://app?vid=e492037e-60a9-4864-84d6-2fe9ea031f90"},"vehicle_type_id":"4","last_reported":1745777578,"current_range_meters":16800,"station_id":"ce4bhg12rcd13ifvqf80","pricing_plan_id":"cebpf4jnsgd1na2vs0mg"},{"bike_id":"94c15021-409d-4859-9cbd-f2897516165d","system_id":"levelo_inurba_marseille","lat":43.23961,"lon":5.36642,"is_reserved":false,"is_disabled":false,"rental_uris":{"android":"levelo://app?vid=94c15021-409d-4859-9cbd-f2897516165d","ios":"levelo://app?vid=94c15021-409d-4859-9cbd-f2897516165d"},"vehicle_type_id":"4","last_reported":1745777578,"current_range_meters":16800,"station_id":"ce4bhi12rcd13ifvqfp0","pricing_plan_id":"cebpf4jnsgd1na2vs0mg"},{"bike_id":"9ebdf42d-9cf3-48a8-9376-9fe817453172","system_id":"levelo_inurba_marseille","lat":43.27175,"lon":5.40992,"is_reserved":false,"is_disabled":false,"rental_uris":{"android":"levelo://app?vid=9ebdf42d-9cf3-48a8-9376-9fe817453172","ios":"levelo://app?vid=9ebdf42d-9cf3-48a8-9376-9fe817453172"},"vehicle_type_id":"4","last_reported":1745777578,"current_range_meters":16800,"station_id":"ce4bhl12rcd13ifvqgf0","pricing_plan_id":"cebpf4jnsgd1na2vs0mg"},{"bike_id":"97fd7a4c-36e8-401d-b12d-1b4015a01ebe","system_id":"levelo_inurba_marseille","lat":43.26546,"lon":5.42208,"is_reserved":false,"is_disabled":false,"rental_uris":{"android":"levelo://app?vid=97fd7a4c-36e8-401d-b12d-1b4015a01ebe","ios":"levelo://app?vid=97fd7a4c-36e8-401d-b12d-1b4015a01ebe"},"vehicle_type_id":"4","last_reported":1745777578,"current_range_meters":16800,"station_id":"","pricing_plan_id":"cebpf4jnsgd1na2vs0mg"},{"bike_id":"fa50f69b-1c0f-44d8-a573-1991d2c1a3c3","system_id":"levelo_inurba_marseille","lat":43.27315,"lon":5.39091,"is_reserved":false,"is_disabled":false,"rental_uris":{"android":"levelo://app?vid=fa50f69b-1c0f-44d8-a573-1991d2c1a3c3","ios":"levelo://app?vid=fa50f69b-1c0f-44d8-a573-1991d2c1a3c3"},"vehicle_type_id":"4","last_reported":1745777578,"current_range_meters":16800,"station_id":"ce4bhgp2rcd13ifvqfe0","pricing_plan_id":"cebpf4jnsgd1na2vs0mg"},{"bike_id":"4d4b5f61-e3dc-4b08-8550-5a853ebadb9d","system_id":"levelo_inurba_marseille","lat":43.268105,"lon":5.402621,"is_reserved":false,"is_disabled":false,"rental_uris":{"android":"levelo://app?vid=4d4b5f61-e3dc-4b08-8550-5a853ebadb9d","ios":"levelo://app?vid=4d4b5f61-e3dc-4b08-8550-5a853ebadb9d"},"vehicle_type_id":"4","last_reported":1745777578,"current_range_meters":16800,"station_id":"ce501612rcd8frsf0b60","pricing_plan_id":"cebpf4jnsgd1na2vs0mg"},{"bike_id":"b532cbc6-d603-4b6c-8eb1-6da63ec873ab","system_id":"levelo_inurba_marseille","lat":43.27064,"lon":5.40296,"is_reserved":false,"is_disabled":false,"rental_uris":{"android":"levelo://app?vid=b532cbc6-d603-4b6c-8eb1-6da63ec873ab","ios":"levelo://app?vid=b532cbc6-d603-4b6c-8eb1-6da63ec873ab"},"vehicle_type_id":"4","last_reported":1745777578,"current_range_meters":16800,"station_id":"ce4bhk92rcd13ifvqgc0","pricing_plan_id":"cebpf4jnsgd1na2vs0mg"},{"bike_id":"7cb17432-a062-465f-85a4-b60c350ddacd","system_id":"levelo_inurba_marseille","lat":43.29557,"lon":5.37526,"is_reserved":false,"is_disabled":true,"rental_uris":{"android":"levelo://app?vid=7cb17432-a062-465f-85a4-b60c350ddacd","ios":"levelo://app?vid=7cb17432-a062-465f-85a4-b60c350ddacd"},"vehicle_type_id":"4","last_reported":1745777578,"current_range_meters":16800,"station_id":"ce4bgh92rcd13ifvqb50","pricing_plan_id":"cebpf4jnsgd1na2vs0mg"},{"bike_id":"2e7ac15a-983b-44da-a8d0-533b1e803195","system_id":"levelo_inurba_marseille","lat":43.25584,"lon":5.38259,"is_reserved":false,"is_disabled":false,"rental_uris":{"android":"levelo://app?vid=2e7ac15a-983b-44da-a8d0-533b1e803195","ios":"levelo://app?vid=2e7ac15a-983b-44da-a8d0-533b1e803195"},"vehicle_type_id":"4","last_reported":1745777578,"current_range_meters":17200,"station_id":"ce4bhih2rcd13ifvqfs0","pricing_plan_id":"cebpf4jnsgd1na2vs0mg"},{"bike_id":"db77a95d-3e70-4448-a7ea-e854137b95ca","system_id":"levelo_inurba_marseille","lat":43.27508,"lon":5.389563,"is_reserved":false,"is_disabled":false,"rental_uris":{"android":"levelo://app?vid=db77a95d-3e70-4448-a7ea-e854137b95ca","ios":"levelo://app?vid=db77a95d-3e70-4448-a7ea-e854137b95ca"},"vehicle_type_id":"4","last_reported":1745777578,"current_range_meters":17200,"station_id":"ce4bhgp2rcd13ifvqfe0","pricing_plan_id":"cebpf4jnsgd1na2vs0mg"},{"bike_id":"2a63c6ac-1d41-494a-8c99-02e77d06c31f","system_id":"levelo_inurba_marseille","lat":43.29528,"lon":5.39015,"is_reserved":false,"is_disabled":false,"rental_uris":{"android":"levelo://app?vid=2a63c6ac-1d41-494a-8c99-02e77d06c31f","ios":"levelo://app?vid=2a63c6ac-1d41-494a-8c99-02e77d06c31f"},"vehicle_type_id":"4","last_reported":1745777578,"current_range_meters":17200,"station_id":"ce4bh3p2rcd13ifvqdp0","pricing_plan_id":"cebpf4jnsgd1na2vs0mg"},{"bike_id":"683b45fe-d6d7-4560-ae22-95bdbf4d269a","system_id":"levelo_inurba_marseille","lat":43.21741,"lon":5.34606,"is_reserved":false,"is_disabled":false,"rental_uris":{"android":"levelo://app?vid=683b45fe-d6d7-4560-ae22-95bdbf4d269a","ios":"levelo://app?vid=683b45fe-d6d7-4560-ae22-95bdbf4d269a"},"vehicle_type_id":"4","last_reported":1745777578,"current_range_meters":17200,"station_id":"st_cvj6r9ubvosntc0bgbag","pricing_plan_id":"cebpf4jnsgd1na2vs0mg"},{"bike_id":"84d413cf-7679-49fb-89e3-56963ed03ff8","system_id":"levelo_inurba_marseille","lat":43.33107,"lon":5.38211,"is_reserved":false,"is_disabled":false,"rental_uris":{"android":"levelo://app?vid=84d413cf-7679-49fb-89e3-56963ed03ff8","ios":"levelo://app?vid=84d413cf-7679-49fb-89e3-56963ed03ff8"},"vehicle_type_id":"4","last_reported":1745777578,"current_range_meters":17200,"station_id":"","pricing_plan_id":"cebpf4jnsgd1na2vs0mg"},{"bike_id":"181ed326-b471-49b5-9f00-acd48cb5b299","system_id":"levelo_inurba_marseille","lat":43.28283,"lon":5.35067,"is_reserved":false,"is_disabled":true,"rental_uris":{"android":"levelo://app?vid=181ed326-b471-49b5-9f00-acd48cb5b299","ios":"levelo://app?vid=181ed326-b471-49b5-9f00-acd48cb5b299"},"vehicle_type_id":"4","last_reported":1745777578,"current_range_meters":17200,"station_id":"ce4bhbp2rcd13ifvqerg","pricing_plan_id":"cebpf4jnsgd1na2vs0mg"},{"bike_id":"f8b82dd5-2d85-4846-8b9d-5afc30043cf6","system_id":"levelo_inurba_marseille","lat":43.22522,"lon":5.34787,"is_reserved":false,"is_disabled":false,"rental_uris":{"android":"levelo://app?vid=f8b82dd5-2d85-4846-8b9d-5afc30043cf6","ios":"levelo://app?vid=f8b82dd5-2d85-4846-8b9d-5afc30043cf6"},"vehicle_type_id":"4","last_reported":1745777578,"current_range_meters":17200,"station_id":"st_cvj5dfep6f1abm77gieg","pricing_plan_id":"cebpf4jnsgd1na2vs0mg"},{"bike_id":"6a3ad0ca-897c-414f-a69a-aae8b2ea7b61","system_id":"levelo_inurba_marseille","lat":43.2176,"lon":5.34614,"is_reserved":false,"is_disabled":false,"rental_uris":{"android":"levelo://app?vid=6a3ad0ca-897c-414f-a69a-aae8b2ea7b61","ios":"levelo://app?vid=6a3ad0ca-897c-414f-a69a-aae8b2ea7b61"},"vehicle_type_id":"4","last_reported":1745777578,"current_range_meters":17200,"station_id":"st_cvj6r9ubvosntc0bgbag","pricing_plan_id":"cebpf4jnsgd1na2vs0mg"},{"bike_id":"9275afeb-620b-4a3c-83d1-31bc14709d93","system_id":"levelo_inurba_marseille","lat":43.28863,"lon":5.35857,"is_reserved":false,"is_disabled":true,"rental_uris":{"android":"levelo://app?vid=9275afeb-620b-4a3c-83d1-31bc14709d93","ios":"levelo://app?vid=9275afeb-620b-4a3c-83d1-31bc14709d93"},"vehicle_type_id":"4","last_reported":1745777578,"current_range_meters":17600,"station_id":"ce4bhb12rcd13ifvqem0","pricing_plan_id":"cebpf4jnsgd1na2vs0mg"},{"bike_id":"5e29bb99-7a29-4bbf-a514-99195c8fa20f","system_id":"levelo_inurba_marseille","lat":43.29901,"lon":5.43657,"is_reserved":false,"is_disabled":false,"rental_uris":{"android":"levelo://app?vid=5e29bb99-7a29-4bbf-a514-99195c8fa20f","ios":"levelo://app?vid=5e29bb99-7a29-4bbf-a514-99195c8fa20f"},"vehicle_type_id":"4","last_reported":1745777578,"current_range_meters":17600,"station_id":"ce4bhpp2rcd13ifvqhfg","pricing_plan_id":"cebpf4jnsgd1na2vs0mg"},{"bike_id":"f70c95ef-2e44-4048-91e3-c85dd5444e97","system_id":"levelo_inurba_marseille","lat":43.27423,"lon":5.39421,"is_reserved":false,"is_disabled":false,"rental_uris":{"android":"levelo://app?vid=f70c95ef-2e44-4048-91e3-c85dd5444e97","ios":"levelo://app?vid=f70c95ef-2e44-4048-91e3-c85dd5444e97"},"vehicle_type_id":"4","last_reported":1745777578,"current_range_meters":17600,"station_id":"ce4bhdp2rcd13ifvqf20","pricing_plan_id":"cebpf4jnsgd1na2vs0mg"},{"bike_id":"ff75ad8a-84a8-4e09-b733-5fb0903ef15d","system_id":"levelo_inurba_marseille","lat":43.3229,"lon":5.38285,"is_reserved":false,"is_disabled":false,"rental_uris":{"android":"levelo://app?vid=ff75ad8a-84a8-4e09-b733-5fb0903ef15d","ios":"levelo://app?vid=ff75ad8a-84a8-4e09-b733-5fb0903ef15d"},"vehicle_type_id":"4","last_reported":1745777578,"current_range_meters":18000,"station_id":"ce4bhr12rcd13ifvqhqg","pricing_plan_id":"cebpf4jnsgd1na2vs0mg"},{"bike_id":"db9128d4-fa4b-4b3d-b5d8-0462404fa361","system_id":"levelo_inurba_marseille","lat":43.3211,"lon":5.36772,"is_reserved":false,"is_disabled":false,"rental_uris":{"android":"levelo://app?vid=db9128d4-fa4b-4b3d-b5d8-0462404fa361","ios":"levelo://app?vid=db9128d4-fa4b-4b3d-b5d8-0462404fa361"},"vehicle_type_id":"4","last_reported":1745777578,"current_range_meters":18000,"station_id":"ce4bhrh2rcd13ifvqhug","pricing_plan_id":"cebpf4jnsgd1na2vs0mg"},{"bike_id":"988d3e51-0f81-4d05-9256-41d5bf2a54ae","system_id":"levelo_inurba_marseille","lat":43.29726,"lon":5.36619,"is_reserved":false,"is_disabled":true,"rental_uris":{"android":"levelo://app?vid=988d3e51-0f81-4d05-9256-41d5bf2a54ae","ios":"levelo://app?vid=988d3e51-0f81-4d05-9256-41d5bf2a54ae"},"vehicle_type_id":"4","last_reported":1745777578,"current_range_meters":18000,"station_id":"ce4bgn12rcd13ifvqbt0","pricing_plan_id":"cebpf4jnsgd1na2vs0mg"},{"bike_id":"50dec701-610e-402f-9a05-5721d4f8293c","system_id":"levelo_inurba_marseille","lat":43.2905,"lon":5.35926,"is_reserved":false,"is_disabled":false,"rental_uris":{"android":"levelo://app?vid=50dec701-610e-402f-9a05-5721d4f8293c","ios":"levelo://app?vid=50dec701-610e-402f-9a05-5721d4f8293c"},"vehicle_type_id":"4","last_reported":1745777578,"current_range_meters":18000,"station_id":"ce4bha92rcd13ifvqeg0","pricing_plan_id":"cebpf4jnsgd1na2vs0mg"},{"bike_id":"b9d7418f-1291-4d96-a4b2-7e9f411d2c53","system_id":"levelo_inurba_marseille","lat":43.269152,"lon":5.388901,"is_reserved":false,"is_disabled":false,"rental_uris":{"android":"levelo://app?vid=b9d7418f-1291-4d96-a4b2-7e9f411d2c53","ios":"levelo://app?vid=b9d7418f-1291-4d96-a4b2-7e9f411d2c53"},"vehicle_type_id":"4","last_reported":1745777578,"current_range_meters":18000,"station_id":"ce4bhhh2rcd13ifvqfl0","pricing_plan_id":"cebpf4jnsgd1na2vs0mg"},{"bike_id":"d575b163-abdf-42d0-94a1-e88c5c37b7e2","system_id":"levelo_inurba_marseille","lat":43.30356,"lon":5.41872,"is_reserved":false,"is_disabled":false,"rental_uris":{"android":"levelo://app?vid=d575b163-abdf-42d0-94a1-e88c5c37b7e2","ios":"levelo://app?vid=d575b163-abdf-42d0-94a1-e88c5c37b7e2"},"vehicle_type_id":"4","last_reported":1745777578,"current_range_meters":18800,"station_id":"ce4bhop2rcd13ifvqh7g","pricing_plan_id":"cebpf4jnsgd1na2vs0mg"},{"bike_id":"04b38ee4-b106-4a03-ac0c-0cdfb3f48701","system_id":"levelo_inurba_marseille","lat":43.26782,"lon":5.3942,"is_reserved":false,"is_disabled":false,"rental_uris":{"android":"levelo://app?vid=04b38ee4-b106-4a03-ac0c-0cdfb3f48701","ios":"levelo://app?vid=04b38ee4-b106-4a03-ac0c-0cdfb3f48701"},"vehicle_type_id":"4","last_reported":1745777578,"current_range_meters":18800,"station_id":"ce4bhh12rcd13ifvqfg0","pricing_plan_id":"cebpf4jnsgd1na2vs0mg"},{"bike_id":"5d80cec4-cf0d-4b75-87cc-4649871dd5da","system_id":"levelo_inurba_marseille","lat":43.27528,"lon":5.42453,"is_reserved":false,"is_disabled":false,"rental_uris":{"android":"levelo://app?vid=5d80cec4-cf0d-4b75-87cc-4649871dd5da","ios":"levelo://app?vid=5d80cec4-cf0d-4b75-87cc-4649871dd5da"},"vehicle_type_id":"4","last_reported":1745777578,"current_range_meters":18800,"station_id":"ce4bhn92rcd13ifvqgrg","pricing_plan_id":"cebpf4jnsgd1na2vs0mg"},{"bike_id":"bd99d29a-c82f-48f2-b144-0342ae353397","system_id":"levelo_inurba_marseille","lat":43.26962,"lon":5.40236,"is_reserved":false,"is_disabled":false,"rental_uris":{"android":"levelo://app?vid=bd99d29a-c82f-48f2-b144-0342ae353397","ios":"levelo://app?vid=bd99d29a-c82f-48f2-b144-0342ae353397"},"vehicle_type_id":"4","last_reported":1745777578,"current_range_meters":18800,"station_id":"cjm6bp8fraef2m0cb0m0","pricing_plan_id":"cebpf4jnsgd1na2vs0mg"},{"bike_id":"b45721df-1911-4bd0-96bb-0c84adb69cfd","system_id":"levelo_inurba_marseille","lat":43.2396,"lon":5.3664,"is_reserved":false,"is_disabled":false,"rental_uris":{"android":"levelo://app?vid=b45721df-1911-4bd0-96bb-0c84adb69cfd","ios":"levelo://app?vid=b45721df-1911-4bd0-96bb-0c84adb69cfd"},"vehicle_type_id":"4","last_reported":1745777578,"current_range_meters":18800,"station_id":"ce4bhi12rcd13ifvqfp0","pricing_plan_id":"cebpf4jnsgd1na2vs0mg"},{"bike_id":"76e63d71-8810-488e-953a-865ffc6ba6e6","system_id":"levelo_inurba_marseille","lat":43.24678,"lon":5.38155,"is_reserved":false,"is_disabled":false,"rental_uris":{"android":"levelo://app?vid=76e63d71-8810-488e-953a-865ffc6ba6e6","ios":"levelo://app?vid=76e63d71-8810-488e-953a-865ffc6ba6e6"},"vehicle_type_id":"4","last_reported":1745777578,"current_range_meters":18800,"station_id":"ce4bhih2rcd13ifvqfr0","pricing_plan_id":"cebpf4jnsgd1na2vs0mg"},{"bike_id":"854b6f67-ca9a-45bb-a87f-9accf64bf40e","system_id":"levelo_inurba_marseille","lat":43.275729,"lon":5.384134,"is_reserved":false,"is_disabled":true,"rental_uris":{"android":"levelo://app?vid=854b6f67-ca9a-45bb-a87f-9accf64bf40e","ios":"levelo://app?vid=854b6f67-ca9a-45bb-a87f-9accf64bf40e"},"vehicle_type_id":"4","last_reported":1745777578,"current_range_meters":19200,"station_id":"ce4bhh92rcd13ifvqfi0","pricing_plan_id":"cebpf4jnsgd1na2vs0mg"},{"bike_id":"e111005f-0797-4fd0-a4ad-3229ba5b961b","system_id":"levelo_inurba_marseille","lat":43.2986,"lon":5.36315,"is_reserved":false,"is_disabled":false,"rental_uris":{"android":"levelo://app?vid=e111005f-0797-4fd0-a4ad-3229ba5b961b","ios":"levelo://app?vid=e111005f-0797-4fd0-a4ad-3229ba5b961b"},"vehicle_type_id":"4","last_reported":1745777578,"current_range_meters":19200,"station_id":"ce4bgpp2rcd13ifvqc3g","pricing_plan_id":"cebpf4jnsgd1na2vs0mg"},{"bike_id":"108f59fb-eb2a-4cbe-8505-53cb6dba5b17","system_id":"levelo_inurba_marseille","lat":43.26931,"lon":5.39348,"is_reserved":false,"is_disabled":false,"rental_uris":{"android":"levelo://app?vid=108f59fb-eb2a-4cbe-8505-53cb6dba5b17","ios":"levelo://app?vid=108f59fb-eb2a-4cbe-8505-53cb6dba5b17"},"vehicle_type_id":"4","last_reported":1745777578,"current_range_meters":19200,"station_id":"","pricing_plan_id":"cebpf4jnsgd1na2vs0mg"},{"bike_id":"c6d76888-3fd0-4a1e-8443-240f1f634957","system_id":"levelo_inurba_marseille","lat":43.26782,"lon":5.39416,"is_reserved":false,"is_disabled":false,"rental_uris":{"android":"levelo://app?vid=c6d76888-3fd0-4a1e-8443-240f1f634957","ios":"levelo://app?vid=c6d76888-3fd0-4a1e-8443-240f1f634957"},"vehicle_type_id":"4","last_reported":1745777578,"current_range_meters":19200,"station_id":"ce4bhh12rcd13ifvqfg0","pricing_plan_id":"cebpf4jnsgd1na2vs0mg"},{"bike_id":"efcf9c38-b4f6-421f-ae93-5d0d2e9ec5cf","system_id":"levelo_inurba_marseille","lat":43.27211,"lon":5.39194,"is_reserved":false,"is_disabled":false,"rental_uris":{"android":"levelo://app?vid=efcf9c38-b4f6-421f-ae93-5d0d2e9ec5cf","ios":"levelo://app?vid=efcf9c38-b4f6-421f-ae93-5d0d2e9ec5cf"},"vehicle_type_id":"4","last_reported":1745777578,"current_range_meters":19200,"station_id":"ce4bhhp2rcd13ifvqfm0","pricing_plan_id":"cebpf4jnsgd1na2vs0mg"},{"bike_id":"68d31cc5-d01b-40f8-bd1d-b3ed441a03c6","system_id":"levelo_inurba_marseille","lat":43.28469,"lon":5.3588,"is_reserved":false,"is_disabled":false,"rental_uris":{"android":"levelo://app?vid=68d31cc5-d01b-40f8-bd1d-b3ed441a03c6","ios":"levelo://app?vid=68d31cc5-d01b-40f8-bd1d-b3ed441a03c6"},"vehicle_type_id":"4","last_reported":1745777578,"current_range_meters":19200,"station_id":"ce4bhah2rcd13ifvqei0","pricing_plan_id":"cebpf4jnsgd1na2vs0mg"},{"bike_id":"5f363fb2-65d6-4f54-a7e8-9f0969c18dcf","system_id":"levelo_inurba_marseille","lat":43.30536,"lon":5.36537,"is_reserved":false,"is_disabled":true,"rental_uris":{"android":"levelo://app?vid=5f363fb2-65d6-4f54-a7e8-9f0969c18dcf","ios":"levelo://app?vid=5f363fb2-65d6-4f54-a7e8-9f0969c18dcf"},"vehicle_type_id":"4","last_reported":1745777578,"current_range_meters":19200,"station_id":"ce4bgs12rcd13ifvqcag","pricing_plan_id":"cebpf4jnsgd1na2vs0mg"},{"bike_id":"9605f8fd-5972-41ca-862b-8f68579a9cc2","system_id":"levelo_inurba_marseille","lat":43.30942,"lon":5.40145,"is_reserved":false,"is_disabled":false,"rental_uris":{"android":"levelo://app?vid=9605f8fd-5972-41ca-862b-8f68579a9cc2","ios":"levelo://app?vid=9605f8fd-5972-41ca-862b-8f68579a9cc2"},"vehicle_type_id":"4","last_reported":1745777578,"current_range_meters":19200,"station_id":"ce4bgvp2rcd13ifvqct0","pricing_plan_id":"cebpf4jnsgd1na2vs0mg"},{"bike_id":"d5792b96-81ae-4816-accb-680dcd29aa8e","system_id":"levelo_inurba_marseille","lat":43.24682,"lon":5.38166,"is_reserved":false,"is_disabled":true,"rental_uris":{"android":"levelo://app?vid=d5792b96-81ae-4816-accb-680dcd29aa8e","ios":"levelo://app?vid=d5792b96-81ae-4816-accb-680dcd29aa8e"},"vehicle_type_id":"4","last_reported":1745777578,"current_range_meters":19200,"station_id":"ce4bhih2rcd13ifvqfr0","pricing_plan_id":"cebpf4jnsgd1na2vs0mg"},{"bike_id":"daa5fb12-4e0b-4bce-a6b1-6719a5e359ca","system_id":"levelo_inurba_marseille","lat":43.23156,"lon":5.4372,"is_reserved":false,"is_disabled":false,"rental_uris":{"android":"levelo://app?vid=daa5fb12-4e0b-4bce-a6b1-6719a5e359ca","ios":"levelo://app?vid=daa5fb12-4e0b-4bce-a6b1-6719a5e359ca"},"vehicle_type_id":"4","last_reported":1745777578,"current_range_meters":19200,"station_id":"ce4bhmp2rcd13ifvqgog","pricing_plan_id":"cebpf4jnsgd1na2vs0mg"},{"bike_id":"c6ded18c-e96b-40a8-81bc-04d15f1e50b3","system_id":"levelo_inurba_marseille","lat":43.26939,"lon":5.40253,"is_reserved":false,"is_disabled":false,"rental_uris":{"android":"levelo://app?vid=c6ded18c-e96b-40a8-81bc-04d15f1e50b3","ios":"levelo://app?vid=c6ded18c-e96b-40a8-81bc-04d15f1e50b3"},"vehicle_type_id":"4","last_reported":1745777578,"current_range_meters":19600,"station_id":"cjm6bp8fraef2m0cb0m0","pricing_plan_id":"cebpf4jnsgd1na2vs0mg"},{"bike_id":"83903ee4-a8a7-4738-8bc5-6292a587c18e","system_id":"levelo_inurba_marseille","lat":43.29276,"lon":5.38436,"is_reserved":false,"is_disabled":false,"rental_uris":{"android":"levelo://app?vid=83903ee4-a8a7-4738-8bc5-6292a587c18e","ios":"levelo://app?vid=83903ee4-a8a7-4738-8bc5-6292a587c18e"},"vehicle_type_id":"4","last_reported":1745777578,"current_range_meters":19600,"station_id":"ce4bh692rcd13ifvqea0","pricing_plan_id":"cebpf4jnsgd1na2vs0mg"},{"bike_id":"f01c2b13-c4ae-4a7f-b2c7-df35222df932","system_id":"levelo_inurba_marseille","lat":43.27426,"lon":5.39425,"is_reserved":false,"is_disabled":false,"rental_uris":{"android":"levelo://app?vid=f01c2b13-c4ae-4a7f-b2c7-df35222df932","ios":"levelo://app?vid=f01c2b13-c4ae-4a7f-b2c7-df35222df932"},"vehicle_type_id":"4","last_reported":1745777578,"current_range_meters":19600,"station_id":"ce4bhdp2rcd13ifvqf20","pricing_plan_id":"cebpf4jnsgd1na2vs0mg"},{"bike_id":"4bf08038-f5c2-4f98-a256-2270055407f1","system_id":"levelo_inurba_marseille","lat":43.27494,"lon":5.42451,"is_reserved":false,"is_disabled":false,"rental_uris":{"android":"levelo://app?vid=4bf08038-f5c2-4f98-a256-2270055407f1","ios":"levelo://app?vid=4bf08038-f5c2-4f98-a256-2270055407f1"},"vehicle_type_id":"4","last_reported":1745777578,"current_range_meters":19600,"station_id":"ce4bhn92rcd13ifvqgrg","pricing_plan_id":"cebpf4jnsgd1na2vs0mg"},{"bike_id":"012dfbf6-a62f-46b7-8352-e9e4b4e2d5e2","system_id":"levelo_inurba_marseille","lat":43.29307,"lon":5.37183,"is_reserved":false,"is_disabled":false,"rental_uris":{"android":"levelo://app?vid=012dfbf6-a62f-46b7-8352-e9e4b4e2d5e2","ios":"levelo://app?vid=012dfbf6-a62f-46b7-8352-e9e4b4e2d5e2"},"vehicle_type_id":"4","last_reported":1745777578,"current_range_meters":20000,"station_id":"ce4bgh92rcd13ifvqb40","pricing_plan_id":"cebpf4jnsgd1na2vs0mg"},{"bike_id":"26e2563a-5614-46af-9839-4e09e7d33768","system_id":"levelo_inurba_marseille","lat":43.33638,"lon":5.40985,"is_reserved":false,"is_disabled":false,"rental_uris":{"android":"levelo://app?vid=26e2563a-5614-46af-9839-4e09e7d33768","ios":"levelo://app?vid=26e2563a-5614-46af-9839-4e09e7d33768"},"vehicle_type_id":"4","last_reported":1745777578,"current_range_meters":20000,"station_id":"ce4bhqh2rcd13ifvqhmg","pricing_plan_id":"cebpf4jnsgd1na2vs0mg"},{"bike_id":"c563d0ba-a8d4-4b30-8150-ac6d4691ba73","system_id":"levelo_inurba_marseille","lat":43.2731,"lon":5.39101,"is_reserved":false,"is_disabled":false,"rental_uris":{"android":"levelo://app?vid=c563d0ba-a8d4-4b30-8150-ac6d4691ba73","ios":"levelo://app?vid=c563d0ba-a8d4-4b30-8150-ac6d4691ba73"},"vehicle_type_id":"4","last_reported":1745777578,"current_range_meters":20000,"station_id":"ce4bhgp2rcd13ifvqfe0","pricing_plan_id":"cebpf4jnsgd1na2vs0mg"},{"bike_id":"bc9f189c-711d-4725-b2d5-aeade31754a1","system_id":"levelo_inurba_marseille","lat":43.29842,"lon":5.3625,"is_reserved":false,"is_disabled":false,"rental_uris":{"android":"levelo://app?vid=bc9f189c-711d-4725-b2d5-aeade31754a1","ios":"levelo://app?vid=bc9f189c-711d-4725-b2d5-aeade31754a1"},"vehicle_type_id":"4","last_reported":1745777578,"current_range_meters":20000,"station_id":"ce4bgpp2rcd13ifvqc3g","pricing_plan_id":"cebpf4jnsgd1na2vs0mg"},{"bike_id":"e04013c6-76a4-419e-8bf1-bfc73ced10e7","system_id":"levelo_inurba_marseille","lat":43.292621,"lon":5.408948,"is_reserved":false,"is_disabled":false,"rental_uris":{"android":"levelo://app?vid=e04013c6-76a4-419e-8bf1-bfc73ced10e7","ios":"levelo://app?vid=e04013c6-76a4-419e-8bf1-bfc73ced10e7"},"vehicle_type_id":"4","last_reported":1745777578,"current_range_meters":20000,"station_id":"ce4bh192rcd13ifvqdc0","pricing_plan_id":"cebpf4jnsgd1na2vs0mg"},{"bike_id":"b48ee8b2-b0c5-44fd-a8e2-41a73a79c8d4","system_id":"levelo_inurba_marseille","lat":43.31686,"lon":5.40475,"is_reserved":false,"is_disabled":false,"rental_uris":{"android":"levelo://app?vid=b48ee8b2-b0c5-44fd-a8e2-41a73a79c8d4","ios":"levelo://app?vid=b48ee8b2-b0c5-44fd-a8e2-41a73a79c8d4"},"vehicle_type_id":"4","last_reported":1745777578,"current_range_meters":20000,"station_id":"ce4bh012rcd13ifvqd00","pricing_plan_id":"cebpf4jnsgd1na2vs0mg"},{"bike_id":"2420ad39-a5b7-4ea3-b775-69cf92e1a47f","system_id":"levelo_inurba_marseille","lat":43.259479,"lon":5.408994,"is_reserved":false,"is_disabled":false,"rental_uris":{"android":"levelo://app?vid=2420ad39-a5b7-4ea3-b775-69cf92e1a47f","ios":"levelo://app?vid=2420ad39-a5b7-4ea3-b775-69cf92e1a47f"},"vehicle_type_id":"4","last_reported":1745777578,"current_range_meters":20000,"station_id":"ce4bhm92rcd13ifvqglg","pricing_plan_id":"cebpf4jnsgd1na2vs0mg"},{"bike_id":"e7577689-0ed9-4586-b451-78519a239b38","system_id":"levelo_inurba_marseille","lat":43.31087,"lon":5.42433,"is_reserved":false,"is_disabled":false,"rental_uris":{"android":"levelo://app?vid=e7577689-0ed9-4586-b451-78519a239b38","ios":"levelo://app?vid=e7577689-0ed9-4586-b451-78519a239b38"},"vehicle_type_id":"4","last_reported":1745777578,"current_range_meters":20000,"station_id":"ce4bhp92rcd13ifvqhag","pricing_plan_id":"cebpf4jnsgd1na2vs0mg"},{"bike_id":"e31e07a6-69c4-4f0a-9471-cd8bfe63b012","system_id":"levelo_inurba_marseille","lat":43.23197,"lon":5.355518,"is_reserved":false,"is_disabled":false,"rental_uris":{"android":"levelo://app?vid=e31e07a6-69c4-4f0a-9471-cd8bfe63b012","ios":"levelo://app?vid=e31e07a6-69c4-4f0a-9471-cd8bfe63b012"},"vehicle_type_id":"4","last_reported":1745777578,"current_range_meters":20000,"station_id":"ce4bhu92rcd13ifvqi70","pricing_plan_id":"cebpf4jnsgd1na2vs0mg"},{"bike_id":"ae024c84-7e44-4a33-b963-d7705c42478f","system_id":"levelo_inurba_marseille","lat":43.2396,"lon":5.3669,"is_reserved":false,"is_disabled":false,"rental_uris":{"android":"levelo://app?vid=ae024c84-7e44-4a33-b963-d7705c42478f","ios":"levelo://app?vid=ae024c84-7e44-4a33-b963-d7705c42478f"},"vehicle_type_id":"4","last_reported":1745777578,"current_range_meters":20000,"station_id":"","pricing_plan_id":"cebpf4jnsgd1na2vs0mg"},{"bike_id":"df80f7ed-24de-4451-9a49-a237d7f01172","system_id":"levelo_inurba_marseille","lat":43.27322,"lon":5.39084,"is_reserved":false,"is_disabled":false,"rental_uris":{"android":"levelo://app?vid=df80f7ed-24de-4451-9a49-a237d7f01172","ios":"levelo://app?vid=df80f7ed-24de-4451-9a49-a237d7f01172"},"vehicle_type_id":"4","last_reported":1745777578,"current_range_meters":20400,"station_id":"ce4bhgp2rcd13ifvqfe0","pricing_plan_id":"cebpf4jnsgd1na2vs0mg"},{"bike_id":"9b7a49da-0fd3-4abb-ad73-8fb98cf41d5d","system_id":"levelo_inurba_marseille","lat":43.27297,"lon":5.39145,"is_reserved":false,"is_disabled":false,"rental_uris":{"android":"levelo://app?vid=9b7a49da-0fd3-4abb-ad73-8fb98cf41d5d","ios":"levelo://app?vid=9b7a49da-0fd3-4abb-ad73-8fb98cf41d5d"},"vehicle_type_id":"4","last_reported":1745777578,"current_range_meters":20400,"station_id":"","pricing_plan_id":"cebpf4jnsgd1na2vs0mg"},{"bike_id":"22e89592-3f9c-4d19-b4c9-83705d708417","system_id":"levelo_inurba_marseille","lat":43.23963,"lon":5.36635,"is_reserved":false,"is_disabled":false,"rental_uris":{"android":"levelo://app?vid=22e89592-3f9c-4d19-b4c9-83705d708417","ios":"levelo://app?vid=22e89592-3f9c-4d19-b4c9-83705d708417"},"vehicle_type_id":"4","last_reported":1745777578,"current_range_meters":20400,"station_id":"ce4bhi12rcd13ifvqfp0","pricing_plan_id":"cebpf4jnsgd1na2vs0mg"},{"bike_id":"037a3a82-dccc-4acb-90d7-3177b1d3148f","system_id":"levelo_inurba_marseille","lat":43.301052,"lon":5.414298,"is_reserved":false,"is_disabled":false,"rental_uris":{"android":"levelo://app?vid=037a3a82-dccc-4acb-90d7-3177b1d3148f","ios":"levelo://app?vid=037a3a82-dccc-4acb-90d7-3177b1d3148f"},"vehicle_type_id":"4","last_reported":1745777578,"current_range_meters":20400,"station_id":"ce4bhp12rcd13ifvqh9g","pricing_plan_id":"cebpf4jnsgd1na2vs0mg"},{"bike_id":"7fa976d2-0797-4781-bb3c-289ce8fe3334","system_id":"levelo_inurba_marseille","lat":43.27207,"lon":5.39182,"is_reserved":false,"is_disabled":false,"rental_uris":{"android":"levelo://app?vid=7fa976d2-0797-4781-bb3c-289ce8fe3334","ios":"levelo://app?vid=7fa976d2-0797-4781-bb3c-289ce8fe3334"},"vehicle_type_id":"4","last_reported":1745777578,"current_range_meters":20400,"station_id":"ce4bhhp2rcd13ifvqfm0","pricing_plan_id":"cebpf4jnsgd1na2vs0mg"},{"bike_id":"e2db68dd-f47f-4e15-8fe0-c97738bddb69","system_id":"levelo_inurba_marseille","lat":43.29252,"lon":5.3685,"is_reserved":false,"is_disabled":true,"rental_uris":{"android":"levelo://app?vid=e2db68dd-f47f-4e15-8fe0-c97738bddb69","ios":"levelo://app?vid=e2db68dd-f47f-4e15-8fe0-c97738bddb69"},"vehicle_type_id":"4","last_reported":1745777578,"current_range_meters":20400,"station_id":"ce4bhbp2rcd13ifvqesg","pricing_plan_id":"cebpf4jnsgd1na2vs0mg"},{"bike_id":"6c72de35-de49-45aa-84fb-0f4a50376358","system_id":"levelo_inurba_marseille","lat":43.32988,"lon":5.43873,"is_reserved":false,"is_disabled":false,"rental_uris":{"android":"levelo://app?vid=6c72de35-de49-45aa-84fb-0f4a50376358","ios":"levelo://app?vid=6c72de35-de49-45aa-84fb-0f4a50376358"},"vehicle_type_id":"4","last_reported":1745777578,"current_range_meters":20400,"station_id":"","pricing_plan_id":"cebpf4jnsgd1na2vs0mg"},{"bike_id":"579b9d02-e6b0-4faa-8aa6-d259af964e22","system_id":"levelo_inurba_marseille","lat":43.23959,"lon":5.36637,"is_reserved":false,"is_disabled":false,"rental_uris":{"android":"levelo://app?vid=579b9d02-e6b0-4faa-8aa6-d259af964e22","ios":"levelo://app?vid=579b9d02-e6b0-4faa-8aa6-d259af964e22"},"vehicle_type_id":"4","last_reported":1745777578,"current_range_meters":20800,"station_id":"ce4bhi12rcd13ifvqfp0","pricing_plan_id":"cebpf4jnsgd1na2vs0mg"},{"bike_id":"1589dba7-8029-4d4a-b1cf-7fa9279ef7ad","system_id":"levelo_inurba_marseille","lat":43.32426,"lon":5.39086,"is_reserved":false,"is_disabled":false,"rental_uris":{"android":"levelo://app?vid=1589dba7-8029-4d4a-b1cf-7fa9279ef7ad","ios":"levelo://app?vid=1589dba7-8029-4d4a-b1cf-7fa9279ef7ad"},"vehicle_type_id":"4","last_reported":1745777578,"current_range_meters":20800,"station_id":"ce4bhqp2rcd13ifvqhog","pricing_plan_id":"cebpf4jnsgd1na2vs0mg"},{"bike_id":"96397126-3032-40b3-b359-c9e977c211cd","system_id":"levelo_inurba_marseille","lat":43.30138,"lon":5.38784,"is_reserved":false,"is_disabled":false,"rental_uris":{"android":"levelo://app?vid=96397126-3032-40b3-b359-c9e977c211cd","ios":"levelo://app?vid=96397126-3032-40b3-b359-c9e977c211cd"},"vehicle_type_id":"4","last_reported":1745777578,"current_range_meters":20400,"station_id":"ce4bghh2rcd13ifvqb60","pricing_plan_id":"cebpf4jnsgd1na2vs0mg"},{"bike_id":"2c2922ff-6dec-4138-8be2-f620d1a85a8c","system_id":"levelo_inurba_marseille","lat":43.26784,"lon":5.39424,"is_reserved":false,"is_disabled":false,"rental_uris":{"android":"levelo://app?vid=2c2922ff-6dec-4138-8be2-f620d1a85a8c","ios":"levelo://app?vid=2c2922ff-6dec-4138-8be2-f620d1a85a8c"},"vehicle_type_id":"4","last_reported":1745777578,"current_range_meters":20800,"station_id":"ce4bhh12rcd13ifvqfg0","pricing_plan_id":"cebpf4jnsgd1na2vs0mg"},{"bike_id":"0c76c3fd-32c8-4fac-a6eb-b5d6eb27e66f","system_id":"levelo_inurba_marseille","lat":43.31486,"lon":5.37307,"is_reserved":false,"is_disabled":false,"rental_uris":{"android":"levelo://app?vid=0c76c3fd-32c8-4fac-a6eb-b5d6eb27e66f","ios":"levelo://app?vid=0c76c3fd-32c8-4fac-a6eb-b5d6eb27e66f"},"vehicle_type_id":"4","last_reported":1745777578,"current_range_meters":20800,"station_id":"ce4bgt12rcd13ifvqcd0","pricing_plan_id":"cebpf4jnsgd1na2vs0mg"},{"bike_id":"57b298f3-0fa8-41b8-96be-263fea5a5a34","system_id":"levelo_inurba_marseille","lat":43.27947,"lon":5.41049,"is_reserved":false,"is_disabled":false,"rental_uris":{"android":"levelo://app?vid=57b298f3-0fa8-41b8-96be-263fea5a5a34","ios":"levelo://app?vid=57b298f3-0fa8-41b8-96be-263fea5a5a34"},"vehicle_type_id":"4","last_reported":1745777578,"current_range_meters":20800,"station_id":"ce4bhnp2rcd13ifvqh0g","pricing_plan_id":"cebpf4jnsgd1na2vs0mg"},{"bike_id":"7b00aacd-e0a7-4f5f-ad48-4e2c415ed6b2","system_id":"levelo_inurba_marseille","lat":43.27307,"lon":5.39111,"is_reserved":false,"is_disabled":false,"rental_uris":{"android":"levelo://app?vid=7b00aacd-e0a7-4f5f-ad48-4e2c415ed6b2","ios":"levelo://app?vid=7b00aacd-e0a7-4f5f-ad48-4e2c415ed6b2"},"vehicle_type_id":"4","last_reported":1745777578,"current_range_meters":21600,"station_id":"ce4bhgp2rcd13ifvqfe0","pricing_plan_id":"cebpf4jnsgd1na2vs0mg"},{"bike_id":"4843c427-f1d0-40d1-b84d-0c26235b020a","system_id":"levelo_inurba_marseille","lat":43.23189,"lon":5.39983,"is_reserved":false,"is_disabled":false,"rental_uris":{"android":"levelo://app?vid=4843c427-f1d0-40d1-b84d-0c26235b020a","ios":"levelo://app?vid=4843c427-f1d0-40d1-b84d-0c26235b020a"},"vehicle_type_id":"4","last_reported":1745777578,"current_range_meters":21600,"station_id":"ce4bhn12rcd13ifvqgqg","pricing_plan_id":"cebpf4jnsgd1na2vs0mg"},{"bike_id":"03095dde-d602-45e8-a874-d59b4023c102","system_id":"levelo_inurba_marseille","lat":43.26947,"lon":5.40253,"is_reserved":false,"is_disabled":false,"rental_uris":{"android":"levelo://app?vid=03095dde-d602-45e8-a874-d59b4023c102","ios":"levelo://app?vid=03095dde-d602-45e8-a874-d59b4023c102"},"vehicle_type_id":"4","last_reported":1745777578,"current_range_meters":21600,"station_id":"cjm6bp8fraef2m0cb0m0","pricing_plan_id":"cebpf4jnsgd1na2vs0mg"},{"bike_id":"d0084b40-0977-469b-a971-471d5dd9a078","system_id":"levelo_inurba_marseille","lat":43.25937,"lon":5.40906,"is_reserved":false,"is_disabled":false,"rental_uris":{"android":"levelo://app?vid=d0084b40-0977-469b-a971-471d5dd9a078","ios":"levelo://app?vid=d0084b40-0977-469b-a971-471d5dd9a078"},"vehicle_type_id":"4","last_reported":1745777578,"current_range_meters":21600,"station_id":"ce4bhm92rcd13ifvqglg","pricing_plan_id":"cebpf4jnsgd1na2vs0mg"},{"bike_id":"9d7be560-5444-46ca-bc57-fc04a058c458","system_id":"levelo_inurba_marseille","lat":43.30921,"lon":5.40171,"is_reserved":false,"is_disabled":true,"rental_uris":{"android":"levelo://app?vid=9d7be560-5444-46ca-bc57-fc04a058c458","ios":"levelo://app?vid=9d7be560-5444-46ca-bc57-fc04a058c458"},"vehicle_type_id":"4","last_reported":1745777578,"current_range_meters":21600,"station_id":"ce4bgvp2rcd13ifvqct0","pricing_plan_id":"cebpf4jnsgd1na2vs0mg"},{"bike_id":"0c6b3fe0-ec99-4141-b366-48e34dd734f1","system_id":"levelo_inurba_marseille","lat":43.27214,"lon":5.39188,"is_reserved":false,"is_disabled":false,"rental_uris":{"android":"levelo://app?vid=0c6b3fe0-ec99-4141-b366-48e34dd734f1","ios":"levelo://app?vid=0c6b3fe0-ec99-4141-b366-48e34dd734f1"},"vehicle_type_id":"4","last_reported":1745777578,"current_range_meters":20800,"station_id":"ce4bhhp2rcd13ifvqfm0","pricing_plan_id":"cebpf4jnsgd1na2vs0mg"},{"bike_id":"8ebbe4ef-4c22-46b4-8544-3d39fdba46f3","system_id":"levelo_inurba_marseille","lat":43.28707,"lon":5.39991,"is_reserved":false,"is_disabled":false,"rental_uris":{"android":"levelo://app?vid=8ebbe4ef-4c22-46b4-8544-3d39fdba46f3","ios":"levelo://app?vid=8ebbe4ef-4c22-46b4-8544-3d39fdba46f3"},"vehicle_type_id":"4","last_reported":1745777578,"current_range_meters":21600,"station_id":"ce4bho92rcd13ifvqh3g","pricing_plan_id":"cebpf4jnsgd1na2vs0mg"},{"bike_id":"f977d8fc-a486-45df-8727-671d07539b11","system_id":"levelo_inurba_marseille","lat":43.26193,"lon":5.37908,"is_reserved":false,"is_disabled":true,"rental_uris":{"android":"levelo://app?vid=f977d8fc-a486-45df-8727-671d07539b11","ios":"levelo://app?vid=f977d8fc-a486-45df-8727-671d07539b11"},"vehicle_type_id":"4","last_reported":1745777578,"current_range_meters":22000,"station_id":"ce4bhjp2rcd13ifvqg90","pricing_plan_id":"cebpf4jnsgd1na2vs0mg"},{"bike_id":"1b5dfaf4-fc89-4855-8a43-c4b154b91948","system_id":"levelo_inurba_marseille","lat":43.303,"lon":5.3921,"is_reserved":false,"is_disabled":true,"rental_uris":{"android":"levelo://app?vid=1b5dfaf4-fc89-4855-8a43-c4b154b91948","ios":"levelo://app?vid=1b5dfaf4-fc89-4855-8a43-c4b154b91948"},"vehicle_type_id":"4","last_reported":1745777578,"current_range_meters":22000,"station_id":"ce4bgkh2rcd13ifvqbk0","pricing_plan_id":"cebpf4jnsgd1na2vs0mg"},{"bike_id":"9b4f7702-83cf-44db-8b7f-bb129feeb85c","system_id":"levelo_inurba_marseille","lat":43.299788,"lon":5.384761,"is_reserved":false,"is_disabled":false,"rental_uris":{"android":"levelo://app?vid=9b4f7702-83cf-44db-8b7f-bb129feeb85c","ios":"levelo://app?vid=9b4f7702-83cf-44db-8b7f-bb129feeb85c"},"vehicle_type_id":"4","last_reported":1745777578,"current_range_meters":22000,"station_id":"","pricing_plan_id":"cebpf4jnsgd1na2vs0mg"},{"bike_id":"e6ee59d5-1a98-4094-876a-66d16995725c","system_id":"levelo_inurba_marseille","lat":43.27319,"lon":5.39081,"is_reserved":false,"is_disabled":false,"rental_uris":{"android":"levelo://app?vid=e6ee59d5-1a98-4094-876a-66d16995725c","ios":"levelo://app?vid=e6ee59d5-1a98-4094-876a-66d16995725c"},"vehicle_type_id":"4","last_reported":1745777578,"current_range_meters":22000,"station_id":"ce4bhgp2rcd13ifvqfe0","pricing_plan_id":"cebpf4jnsgd1na2vs0mg"},{"bike_id":"c4e882de-82cc-40fc-8fdc-d03d27c35a19","system_id":"levelo_inurba_marseille","lat":43.30572,"lon":5.3671,"is_reserved":false,"is_disabled":true,"rental_uris":{"android":"levelo://app?vid=c4e882de-82cc-40fc-8fdc-d03d27c35a19","ios":"levelo://app?vid=c4e882de-82cc-40fc-8fdc-d03d27c35a19"},"vehicle_type_id":"4","last_reported":1745777578,"current_range_meters":22000,"station_id":"ce4bgrp2rcd13ifvqc9g","pricing_plan_id":"cebpf4jnsgd1na2vs0mg"},{"bike_id":"742bc2de-64d4-40b3-b0f5-3e3dc0b6ca1b","system_id":"levelo_inurba_marseille","lat":43.296264,"lon":5.377097,"is_reserved":false,"is_disabled":false,"rental_uris":{"android":"levelo://app?vid=742bc2de-64d4-40b3-b0f5-3e3dc0b6ca1b","ios":"levelo://app?vid=742bc2de-64d4-40b3-b0f5-3e3dc0b6ca1b"},"vehicle_type_id":"4","last_reported":1745777578,"current_range_meters":22000,"station_id":"ce4bgi92rcd13ifvqb90","pricing_plan_id":"cebpf4jnsgd1na2vs0mg"},{"bike_id":"d3881236-172c-42f8-a3e0-7e01c42f9e73","system_id":"levelo_inurba_marseille","lat":43.30076,"lon":5.38604,"is_reserved":false,"is_disabled":true,"rental_uris":{"android":"levelo://app?vid=d3881236-172c-42f8-a3e0-7e01c42f9e73","ios":"levelo://app?vid=d3881236-172c-42f8-a3e0-7e01c42f9e73"},"vehicle_type_id":"4","last_reported":1745777578,"current_range_meters":22400,"station_id":"","pricing_plan_id":"cebpf4jnsgd1na2vs0mg"},