{"last_updated":1760890261,"ttl":60,"version":"2.2","data":{"bikes":[{"bike_id":"036299be-df9b-4af3-9ed1-8a39be4a71a4","system_id":"levelo_inurba_marseille","lat":43.28208,"lon":5.39052,"is_reserved":false,"is_disabled":false,"rental_uris":{"android":"levelo://app?vid=036299be-df9b-4af3-9ed1-8a39be4a71a4","ios":"levelo://app?vid=036299be-df9b-4af3-9ed1-8a39be4a71a4"},"vehicle_type_id":"4","last_reported":1760890261,"current_range_meters":2800,"station_id":"ce4bhn92rcd13ifvqgsg","pricing_plan_id":"cebpf4jnsgd1na2vs0mg"},{"bike_id":"23106cad-886f-404f-82e9-c2982189811d","system_id":"levelo_inurba_marseille","lat":43.27187,"lon":5.42715,"is_reserved":false,"is_disabled":false,"rental_uris":{"android":"levelo://app?vid=23106cad-886f-404f-82e9-c2982189811d","ios":"levelo://app?vid=23106cad-886f-404f-82e9-c2982189811d"},"vehicle_type_id":"4","last_reported":1760890261,"current_range_meters":2800,"station_id":"","pricing_plan_id":"cebpf4jnsgd1na2vs0mg"},{"bike_id":"b003842a-49fe-4fdc-8e32-25c90bb71f87","system_id":"levelo_inurba_marseille","lat":43.29778,"lon":5.39335,"is_reserved":false,"is_disabled":false,"rental_uris":{"android":"levelo://app?vid=b003842a-49fe-4fdc-8e32-25c90bb71f87","ios":"levelo://app?vid=b003842a-49fe-4fdc-8e32-25c90bb71f87"},"vehicle_type_id":"4","last_reported":1760890261,"current_range_meters":2800,"station_id":"chh1huq6cuj3fo74tm60","pricing_plan_id":"cebpf4jnsgd1na2vs0mg"},{"bike_id":"72df6540-8a1d-4294-a7f4-2853f3211d91","system_id":"levelo_inurba_marseille","lat":43.29587,"lon":5.39161,"is_reserved":false,"is_disabled":false,"rental_uris":{"android":"levelo://app?vid=72df6540-8a1d-4294-a7f4-2853f3211d91","ios":"levelo://app?vid=72df6540-8a1d-4294-a7f4-2853f3211d91"},"vehicle_type_id":"4","last_reported":1760890261,"current_range_meters":2800,"station_id":"","pricing_plan_id":"cebpf4jnsgd1na2vs0mg"},{"bike_id":"a817b630-bbed-48d3-97f4-9bd571b9ebab","system_id":"levelo_inurba_marseille","lat":43.29996,"lon":5.37351,"is_reserved":false,"is_disabled":false,"rental_uris":{"android":"levelo://app?vid=a817b630-bbed-48d3-97f4-9bd571b9ebab","ios":"levelo://app?vid=a817b630-bbed-48d3-97f4-9bd571b9ebab"},"vehicle_type_id":"4","last_reported":1760890261,"current_range_meters":2800,"station_id":"","pricing_plan_id":"cebpf4jnsgd1na2vs0mg"},{"bike_id":"359c14c4-f56e-4a74-9da9-04af495f9cfd","system_id":"levelo_inurba_marseille","lat":43.30215,"lon":5.39472,"is_reserved":false,"is_disabled":false,"rental_uris":{"android":"levelo://app?vid=359c14c4-f56e-4a74-9da9-04af495f9cfd","ios":"levelo://app?vid=359c14c4-f56e-4a74-9da9-04af495f9cfd"},"vehicle_type_id":"4","last_reported":1760890261,"current_range_meters":2800,"station_id":"ce4bh0p2rcd13ifvqd70","pricing_plan_id":"cebpf4jnsgd1na2vs0mg"},{"bike_id":"fc6f7a61-87b2-45d8-9586-9e2a76532c0d","system_id":"levelo_inurba_marseille","lat":43.29255,"lon":5.40154,"is_reserved":false,"is_disabled":true,"rental_uris":{"android":"levelo://app?vid=fc6f7a61-87b2-45d8-9586-9e2a76532c0d","ios":"levelo://app?vid=fc6f7a61-87b2-45d8-9586-9e2a76532c0d"},"vehicle_type_id":"4","last_reported":1760890261,"current_range_meters":3200,"station_id":"ce4bh312rcd13ifvqdk0","pricing_plan_id":"cebpf4jnsgd1na2vs0mg"},{"bike_id":"2b436428-23be-46fe-abb4-2835089593b8","system_id":"levelo_inurba_marseille","lat":43.211932,"lon":5.35072,"is_reserved":false,"is_disabled":false,"rental_uris":{"android":"levelo://app?vid=2b436428-23be-46fe-abb4-2835089593b8","ios":"levelo://app?vid=2b436428-23be-46fe-abb4-2835089593b8"},"vehicle_type_id":"4","last_reported":1760890261,"current_range_meters":3200,"station_id":"st_cvj6sg6p6f1abm77japg","pricing_plan_id":"cebpf4jnsgd1na2vs0mg"},{"bike_id":"d700639d-ac9c-4842-86b0-a69c8c5264da","system_id":"levelo_inurba_marseille","lat":43.27964,"lon":5.38749,"is_reserved":false,"is_disabled":false,"rental_uris":{"android":"levelo://app?vid=d700639d-ac9c-4842-86b0-a69c8c5264da","ios":"levelo://app?vid=d700639d-ac9c-4842-86b0-a69c8c5264da"},"vehicle_type_id":"4","last_reported":1760890261,"current_range_meters":3200,"station_id":"ce4bhg12rcd13ifvqf80","pricing_plan_id":"cebpf4jnsgd1na2vs0mg"},{"bike_id":"620f19db-e929-4071-8a7a-fb5114fd2597","system_id":"levelo_inurba_marseille","lat":43.27283,"lon":5.39149,"is_reserved":false,"is_disabled":true,"rental_uris":{"android":"levelo://app?vid=620f19db-e929-4071-8a7a-fb5114fd2597","ios":"levelo://app?vid=620f19db-e929-4071-8a7a-fb5114fd2597"},"vehicle_type_id":"4","last_reported":1760890261,"current_range_meters":3200,"station_id":"","pricing_plan_id":"cebpf4jnsgd1na2vs0mg"},{"bike_id":"acc4415a-e100-4d91-8f0a-f4344a6c59f3","system_id":"levelo_inurba_marseille","lat":43.24811,"lon":5.37458,"is_reserved":false,"is_disabled":false,"rental_uris":{"android":"levelo://app?vid=acc4415a-e100-4d91-8f0a-f4344a6c59f3","ios":"levelo://app?vid=acc4415a-e100-4d91-8f0a-f4344a6c59f3"},"vehicle_type_id":"4","last_reported":1760890261,"current_range_meters":3200,"station_id":"ce4bhgh2rcd13ifvqfb0","pricing_plan_id":"cebpf4jnsgd1na2vs0mg"},{"bike_id":"32d01b2a-d46e-4c6e-a49c-b20202d8474a","system_id":"levelo_inurba_marseille","lat":43.21749,"lon":5.34632,"is_reserved":false,"is_disabled":false,"rental_uris":{"android":"levelo://app?vid=32d01b2a-d46e-4c6e-a49c-b20202d8474a","ios":"levelo://app?vid=32d01b2a-d46e-4c6e-a49c-b20202d8474a"},"vehicle_type_id":"4","last_reported":1760890261,"current_range_meters":3600,"station_id":"st_cvj6r9ubvosntc0bgbag","pricing_plan_id":"cebpf4jnsgd1na2vs0mg"},{"bike_id":"862e019a-e253-4e27-a017-2cdd33e14310","system_id":"levelo_inurba_marseille","lat":43.295207,"lon":5.393972,"is_reserved":false,"is_disabled":false,"rental_uris":{"android":"levelo://app?vid=862e019a-e253-4e27-a017-2cdd33e14310","ios":"levelo://app?vid=862e019a-e253-4e27-a017-2cdd33e14310"},"vehicle_type_id":"4","last_reported":1760890261,"current_range_meters":3600,"station_id":"ce4bh292rcd13ifvqdf0","pricing_plan_id":"cebpf4jnsgd1na2vs0mg"},{"bike_id":"da540c0e-39c9-4ef0-a466-f97a8d2a1619","system_id":"levelo_inurba_marseille","lat":43.294128,"lon":5.384777,"is_reserved":false,"is_disabled":false,"rental_uris":{"android":"levelo://app?vid=da540c0e-39c9-4ef0-a466-f97a8d2a1619","ios":"levelo://app?vid=da540c0e-39c9-4ef0-a466-f97a8d2a1619"},"vehicle_type_id":"4","last_reported":1760890261,"current_range_meters":3600,"station_id":"st_d3j3df2ikq2c7380ej80","pricing_plan_id":"cebpf4jnsgd1na2vs0mg"},{"bike_id":"9f6a7551-8af2-429b-a2a4-5951dadd71e5","system_id":"levelo_inurba_marseille","lat":43.27173,"lon":5.40995,"is_reserved":false,"is_disabled":false,"rental_uris":{"android":"levelo://app?vid=9f6a7551-8af2-429b-a2a4-5951dadd71e5","ios":"levelo://app?vid=9f6a7551-8af2-429b-a2a4-5951dadd71e5"},"vehicle_type_id":"4","last_reported":1760890261,"current_range_meters":3600,"station_id":"ce4bhl12rcd13ifvqgf0","pricing_plan_id":"cebpf4jnsgd1na2vs0mg"},{"bike_id":"8cbda6ea-3960-4749-b52c-f4d0d6069a80","system_id":"levelo_inurba_marseille","lat":43.305432,"lon":5.365254,"is_reserved":false,"is_disabled":false,"rental_uris":{"android":"levelo://app?vid=8cbda6ea-3960-4749-b52c-f4d0d6069a80","ios":"levelo://app?vid=8cbda6ea-3960-4749-b52c-f4d0d6069a80"},"vehicle_type_id":"4","last_reported":1760890261,"current_range_meters":3600,"station_id":"ce4bgs12rcd13ifvqcag","pricing_plan_id":"cebpf4jnsgd1na2vs0mg"},{"bike_id":"8f27c964-25d0-4cf6-960a-5d5ea655ebe2","system_id":"levelo_inurba_marseille","lat":43.32352,"lon":5.3675,"is_reserved":false,"is_disabled":false,"rental_uris":{"android":"levelo://app?vid=8f27c964-25d0-4cf6-960a-5d5ea655ebe2","ios":"levelo://app?vid=8f27c964-25d0-4cf6-960a-5d5ea655ebe2"},"vehicle_type_id":"4","last_reported":1760890261,"current_range_meters":4000,"station_id":"ce4bhsh2rcd13ifvqi2g","pricing_plan_id":"cebpf4jnsgd1na2vs0mg"},{"bike_id":"d0057ba9-b233-440f-8490-e26f02f1a1dd","system_id":"levelo_inurba_marseille","lat":43.286529,"lon":5.363623,"is_reserved":false,"is_disabled":true,"rental_uris":{"android":"levelo://app?vid=d0057ba9-b233-440f-8490-e26f02f1a1dd","ios":"levelo://app?vid=d0057ba9-b233-440f-8490-e26f02f1a1dd"},"vehicle_type_id":"4","last_reported":1760890261,"current_range_meters":4000,"station_id":"ce4bhah2rcd13ifvqej0","pricing_plan_id":"cebpf4jnsgd1na2vs0mg"},{"bike_id":"3233b7b0-894a-48f8-a772-d411149376a2","system_id":"levelo_inurba_marseille","lat":43.27464,"lon":5.39342,"is_reserved":false,"is_disabled":false,"rental_uris":{"android":"levelo://app?vid=3233b7b0-894a-48f8-a772-d411149376a2","ios":"levelo://app?vid=3233b7b0-894a-48f8-a772-d411149376a2"},"vehicle_type_id":"4","last_reported":1760890261,"current_range_meters":4000,"station_id":"ce4bhdp2rcd13ifvqf20","pricing_plan_id":"cebpf4jnsgd1na2vs0mg"},{"bike_id":"41942155-c028-41d2-9da5-da9a718711fd","system_id":"levelo_inurba_marseille","lat":43.21185,"lon":5.35081,"is_reserved":false,"is_disabled":true,"rental_uris":{"android":"levelo://app?vid=41942155-c028-41d2-9da5-da9a718711fd","ios":"levelo://app?vid=41942155-c028-41d2-9da5-da9a718711fd"},"vehicle_type_id":"4","last_reported":1760890261,"current_range_meters":4400,"station_id":"st_cvj6sg6p6f1abm77japg","pricing_plan_id":"cebpf4jnsgd1na2vs0mg"},{"bike_id":"91b6b3bb-f752-409f-a59c-fda45187bd78","system_id":"levelo_inurba_marseille","lat":43.30734,"lon":5.42445,"is_reserved":false,"is_disabled":false,"rental_uris":{"android":"levelo://app?vid=91b6b3bb-f752-409f-a59c-fda45187bd78","ios":"levelo://app?vid=91b6b3bb-f752-409f-a59c-fda45187bd78"},"vehicle_type_id":"4","last_reported":1760890261,"current_range_meters":4800,"station_id":"st_cvj6ca6bvosntc0bfgr0","pricing_plan_id":"cebpf4jnsgd1na2vs0mg"},{"bike_id":"341025ca-ef2d-442d-80ac-78ca83dc4a7c","system_id":"levelo_inurba_marseille","lat":43.299281,"lon":5.370692,"is_reserved":false,"is_disabled":false,"rental_uris":{"android":"levelo://app?vid=341025ca-ef2d-442d-80ac-78ca83dc4a7c","ios":"levelo://app?vid=341025ca-ef2d-442d-80ac-78ca83dc4a7c"},"vehicle_type_id":"4","last_reported":1760890261,"current_range_meters":4800,"station_id":"","pricing_plan_id":"cebpf4jnsgd1na2vs0mg"},{"bike_id":"2a459f68-ba9b-4605-8558-57bdc40b3896","system_id":"levelo_inurba_marseille","lat":43.24543,"lon":5.39516,"is_reserved":false,"is_disabled":false,"rental_uris":{"android":"levelo://app?vid=2a459f68-ba9b-4605-8558-57bdc40b3896","ios":"levelo://app?vid=2a459f68-ba9b-4605-8558-57bdc40b3896"},"vehicle_type_id":"4","last_reported":1760890261,"current_range_meters":4800,"station_id":"ce4bhlp2rcd13ifvqgjg","pricing_plan_id":"cebpf4jnsgd1na2vs0mg"},{"bike_id":"442cfa24-59b0-4130-be51-31cae0d526d5","system_id":"levelo_inurba_marseille","lat":43.26953,"lon":5.38627,"is_reserved":false,"is_disabled":false,"rental_uris":{"android":"levelo://app?vid=442cfa24-59b0-4130-be51-31cae0d526d5","ios":"levelo://app?vid=442cfa24-59b0-4130-be51-31cae0d526d5"},"vehicle_type_id":"4","last_reported":1760890261,"current_range_meters":4800,"station_id":"ce4bhh92rcd13ifvqfh0","pricing_plan_id":"cebpf4jnsgd1na2vs0mg"},{"bike_id":"924ac669-be8b-47aa-9a8e-6f22baf815eb","system_id":"levelo_inurba_marseille","lat":43.337692,"lon":5.374734,"is_reserved":false,"is_disabled":false,"rental_uris":{"android":"levelo://app?vid=924ac669-be8b-47aa-9a8e-6f22baf815eb","ios":"levelo://app?vid=924ac669-be8b-47aa-9a8e-6f22baf815eb"},"vehicle_type_id":"4","last_reported":1760890261,"current_range_meters":5600,"station_id":"","pricing_plan_id":"cebpf4jnsgd1na2vs0mg"},{"bike_id":"bfa5d6fa-5303-450c-8deb-bf365f94a097","system_id":"levelo_inurba_marseille","lat":43.21206,"lon":5.35076,"is_reserved":false,"is_disabled":false,"rental_uris":{"android":"levelo://app?vid=bfa5d6fa-5303-450c-8deb-bf365f94a097","ios":"levelo://app?vid=bfa5d6fa-5303-450c-8deb-bf365f94a097"},"vehicle_type_id":"4","last_reported":1760890261,"current_range_meters":5600,"station_id":"st_cvj6sg6p6f1abm77japg","pricing_plan_id":"cebpf4jnsgd1na2vs0mg"},{"bike_id":"e6cfe784-cb39-4f50-bc11-2e3c7639a4b7","system_id":"levelo_inurba_marseille","lat":43.22527,"lon":5.34828,"is_reserved":false,"is_disabled":false,"rental_uris":{"android":"levelo://app?vid=e6cfe784-cb39-4f50-bc11-2e3c7639a4b7","ios":"levelo://app?vid=e6cfe784-cb39-4f50-bc11-2e3c7639a4b7"},"vehicle_type_id":"4","last_reported":1760890261,"current_range_meters":5600,"station_id":"st_cvj5dfep6f1abm77gieg","pricing_plan_id":"cebpf4jnsgd1na2vs0mg"},{"bike_id":"3139aa5f-4f8f-42fd-8c47-cfb081cdcd14","system_id":"levelo_inurba_marseille","lat":43.301453,"lon":5.374605,"is_reserved":false,"is_disabled":false,"rental_uris":{"android":"levelo://app?vid=3139aa5f-4f8f-42fd-8c47-cfb081cdcd14","ios":"levelo://app?vid=3139aa5f-4f8f-42fd-8c47-cfb081cdcd14"},"vehicle_type_id":"4","last_reported":1760890261,"current_range_meters":5600,"station_id":"ce4bha92rcd13ifvqeg0","pricing_plan_id":"cebpf4jnsgd1na2vs0mg"},{"bike_id":"079a1385-086f-4fd5-9b1f-4d76a5c77ab4","system_id":"levelo_inurba_marseille","lat":43.25331,"lon":5.42177,"is_reserved":false,"is_disabled":false,"rental_uris":{"android":"levelo://app?vid=079a1385-086f-4fd5-9b1f-4d76a5c77ab4","ios":"levelo://app?vid=079a1385-086f-4fd5-9b1f-4d76a5c77ab4"},"vehicle_type_id":"4","last_reported":1760890261,"current_range_meters":5600,"station_id":"st_d2m65c5bi1j21697t3ng","pricing_plan_id":"cebpf4jnsgd1na2vs0mg"},{"bike_id":"5481bfe8-dea6-4a4f-a55f-ef47be3aa46c","system_id":"levelo_inurba_marseille","lat":43.265808,"lon":5.391868,"is_reserved":false,"is_disabled":false,"rental_uris":{"android":"levelo://app?vid=5481bfe8-dea6-4a4f-a55f-ef47be3aa46c","ios":"levelo://app?vid=5481bfe8-dea6-4a4f-a55f-ef47be3aa46c"},"vehicle_type_id":"4","last_reported":1760890261,"current_range_meters":5600,"station_id":"ce4bh412rcd13ifvqds0","pricing_plan_id":"cebpf4jnsgd1na2vs0mg"},{"bike_id":"f55709e0-4b78-4850-8db3-b4d73728152f","system_id":"levelo_inurba_marseille","lat":43.35141,"lon":5.36448,"is_reserved":false,"is_disabled":false,"rental_uris":{"android":"levelo://app?vid=f55709e0-4b78-4850-8db3-b4d73728152f","ios":"levelo://app?vid=f55709e0-4b78-4850-8db3-b4d73728152f"},"vehicle_type_id":"4","last_reported":1760890261,"current_range_meters":5600,"station_id":"","pricing_plan_id":"cebpf4jnsgd1na2vs0mg"},{"bike_id":"190704ad-2a5c-462f-b6d8-53dfbb7d9f3b","system_id":"levelo_inurba_marseille","lat":43.298067,"lon":5.380864,"is_reserved":false,"is_disabled":false,"rental_uris":{"android":"levelo://app?vid=190704ad-2a5c-462f-b6d8-53dfbb7d9f3b","ios":"levelo://app?vid=190704ad-2a5c-462f-b6d8-53dfbb7d9f3b"},"vehicle_type_id":"4","last_reported":1760890261,"current_range_meters":5600,"station_id":"ce4bgip2rcd13ifvqbb0","pricing_plan_id":"cebpf4jnsgd1na2vs0mg"},{"bike_id":"da1b05cc-c073-4fee-9ee8-63f671581960","system_id":"levelo_inurba_marseille","lat":43.299296,"lon":5.370828,"is_reserved":false,"is_disabled":false,"rental_uris":{"android":"levelo://app?vid=da1b05cc-c073-4fee-9ee8-63f671581960","ios":"levelo://app?vid=da1b05cc-c073-4fee-9ee8-63f671581960"},"vehicle_type_id":"4","last_reported":1760890261,"current_range_meters":5600,"station_id":"","pricing_plan_id":"cebpf4jnsgd1na2vs0mg"},{"bike_id":"e831b575-fe39-47ac-981f-7944a1907ea8","system_id":"levelo_inurba_marseille","lat":43.26196,"lon":5.379493,"is_reserved":false,"is_disabled":false,"rental_uris":{"android":"levelo://app?vid=e831b575-fe39-47ac-981f-7944a1907ea8","ios":"levelo://app?vid=e831b575-fe39-47ac-981f-7944a1907ea8"},"vehicle_type_id":"4","last_reported":1760890261,"current_range_meters":5600,"station_id":"ce4bhjp2rcd13ifvqg90","pricing_plan_id":"cebpf4jnsgd1na2vs0mg"},{"bike_id":"87153757-d532-4f6a-9ba4-c6835d973901","system_id":"levelo_inurba_marseille","lat":43.28999,"lon":5.35607,"is_reserved":false,"is_disabled":false,"rental_uris":{"android":"levelo://app?vid=87153757-d532-4f6a-9ba4-c6835d973901","ios":"levelo://app?vid=87153757-d532-4f6a-9ba4-c6835d973901"},"vehicle_type_id":"4","last_reported":1760890261,"current_range_meters":6000,"station_id":"ce4bhb92rcd13ifvqen0","pricing_plan_id":"cebpf4jnsgd1na2vs0mg"},{"bike_id":"1382b748-840e-4ecc-afc5-0fb4eeaeb841","system_id":"levelo_inurba_marseille","lat":43.305963,"lon":5.374952,"is_reserved":false,"is_disabled":false,"rental_uris":{"android":"levelo://app?vid=1382b748-840e-4ecc-afc5-0fb4eeaeb841","ios":"levelo://app?vid=1382b748-840e-4ecc-afc5-0fb4eeaeb841"},"vehicle_type_id":"4","last_reported":1760890261,"current_range_meters":6000,"station_id":"","pricing_plan_id":"cebpf4jnsgd1na2vs0mg"},{"bike_id":"c26f17a2-3a43-46c0-bcef-44fcf1c7fab5","system_id":"levelo_inurba_marseille","lat":43.26847,"lon":5.40678,"is_reserved":false,"is_disabled":false,"rental_uris":{"android":"levelo://app?vid=c26f17a2-3a43-46c0-bcef-44fcf1c7fab5","ios":"levelo://app?vid=c26f17a2-3a43-46c0-bcef-44fcf1c7fab5"},"vehicle_type_id":"4","last_reported":1760890261,"current_range_meters":6000,"station_id":"","pricing_plan_id":"cebpf4jnsgd1na2vs0mg"},{"bike_id":"842199ac-9759-47a5-a2af-45d1b50b24df","system_id":"levelo_inurba_marseille","lat":43.30125,"lon":5.38794,"is_reserved":false,"is_disabled":false,"rental_uris":{"android":"levelo://app?vid=842199ac-9759-47a5-a2af-45d1b50b24df","ios":"levelo://app?vid=842199ac-9759-47a5-a2af-45d1b50b24df"},"vehicle_type_id":"4","last_reported":1760890261,"current_range_meters":6400,"station_id":"ce4bghh2rcd13ifvqb60","pricing_plan_id":"cebpf4jnsgd1na2vs0mg"},{"bike_id":"d350c5f9-7303-4529-b168-85003ab0bd7d","system_id":"levelo_inurba_marseille","lat":43.29567,"lon":5.39973,"is_reserved":false,"is_disabled":false,"rental_uris":{"android":"levelo://app?vid=d350c5f9-7303-4529-b168-85003ab0bd7d","ios":"levelo://app?vid=d350c5f9-7303-4529-b168-85003ab0bd7d"},"vehicle_type_id":"4","last_reported":1760890261,"current_range_meters":6400,"station_id":"ce4bh312rcd13ifvqdj0","pricing_plan_id":"cebpf4jnsgd1na2vs0mg"},{"bike_id":"ef1d3efc-4e43-438c-8f55-8e29754b02e8","system_id":"levelo_inurba_marseille","lat":43.2888,"lon":5.46029,"is_reserved":false,"is_disabled":false,"rental_uris":{"android":"levelo://app?vid=ef1d3efc-4e43-438c-8f55-8e29754b02e8","ios":"levelo://app?vid=ef1d3efc-4e43-438c-8f55-8e29754b02e8"},"vehicle_type_id":"4","last_reported":1760890261,"current_range_meters":6400,"station_id":"","pricing_plan_id":"cebpf4jnsgd1na2vs0mg"},{"bike_id":"ab6b106f-a4de-43a2-813b-bfb55bf62288","system_id":"levelo_inurba_marseille","lat":43.2972,"lon":5.37155,"is_reserved":false,"is_disabled":false,"rental_uris":{"android":"levelo://app?vid=ab6b106f-a4de-43a2-813b-bfb55bf62288","ios":"levelo://app?vid=ab6b106f-a4de-43a2-813b-bfb55bf62288"},"vehicle_type_id":"4","last_reported":1760890261,"current_range_meters":6400,"station_id":"","pricing_plan_id":"cebpf4jnsgd1na2vs0mg"},{"bike_id":"75b02a51-1325-435e-9661-29bb451a696a","system_id":"levelo_inurba_marseille","lat":43.31448,"lon":5.38488,"is_reserved":false,"is_disabled":false,"rental_uris":{"android":"levelo://app?vid=75b02a51-1325-435e-9661-29bb451a696a","ios":"levelo://app?vid=75b02a51-1325-435e-9661-29bb451a696a"},"vehicle_type_id":"4","last_reported":1760890261,"current_range_meters":6400,"station_id":"","pricing_plan_id":"cebpf4jnsgd1na2vs0mg"},{"bike_id":"a321c77b-9d04-4d3f-a3ef-6089a4fbc162","system_id":"levelo_inurba_marseille","lat":43.25728,"lon":5.41105,"is_reserved":false,"is_disabled":false,"rental_uris":{"android":"levelo://app?vid=a321c77b-9d04-4d3f-a3ef-6089a4fbc162","ios":"levelo://app?vid=a321c77b-9d04-4d3f-a3ef-6089a4fbc162"},"vehicle_type_id":"4","last_reported":1760890261,"current_range_meters":6400,"station_id":"ce4bhkp2rcd13ifvqgd0","pricing_plan_id":"cebpf4jnsgd1na2vs0mg"},{"bike_id":"c5a779d8-469b-447c-968f-7850e3274dc1","system_id":"levelo_inurba_marseille","lat":43.28474,"lon":5.38442,"is_reserved":false,"is_disabled":false,"rental_uris":{"android":"levelo://app?vid=c5a779d8-469b-447c-968f-7850e3274dc1","ios":"levelo://app?vid=c5a779d8-469b-447c-968f-7850e3274dc1"},"vehicle_type_id":"4","last_reported":1760890261,"current_range_meters":6400,"station_id":"ce4bh512rcd13ifvqe3g","pricing_plan_id":"cebpf4jnsgd1na2vs0mg"},{"bike_id":"22eb82cf-dcdc-4a94-bfa1-f4bc9dd22caa","system_id":"levelo_inurba_marseille","lat":43.295715,"lon":5.375226,"is_reserved":false,"is_disabled":false,"rental_uris":{"android":"levelo://app?vid=22eb82cf-dcdc-4a94-bfa1-f4bc9dd22caa","ios":"levelo://app?vid=22eb82cf-dcdc-4a94-bfa1-f4bc9dd22caa"},"vehicle_type_id":"4","last_reported":1760890261,"current_range_meters":6400,"station_id":"ce4bgh92rcd13ifvqb50","pricing_plan_id":"cebpf4jnsgd1na2vs0mg"},{"bike_id":"f1a55460-a89b-4e67-b2d0-afa8c293770f","system_id":"levelo_inurba_marseille","lat":43.29017,"lon":5.37573,"is_reserved":false,"is_disabled":false,"rental_uris":{"android":"levelo://app?vid=f1a55460-a89b-4e67-b2d0-afa8c293770f","ios":"levelo://app?vid=f1a55460-a89b-4e67-b2d0-afa8c293770f"},"vehicle_type_id":"4","last_reported":1760890261,"current_range_meters":6400,"station_id":"ce4bh692rcd13ifvqe90","pricing_plan_id":"cebpf4jnsgd1na2vs0mg"},{"bike_id":"0b170382-a38a-48fc-b060-b901de311f1a","system_id":"levelo_inurba_marseille","lat":43.33047,"lon":5.39024,"is_reserved":false,"is_disabled":true,"rental_uris":{"android":"levelo://app?vid=0b170382-a38a-48fc-b060-b901de311f1a","ios":"levelo://app?vid=0b170382-a38a-48fc-b060-b901de311f1a"},"vehicle_type_id":"4","last_reported":1760890261,"current_range_meters":6800,"station_id":"ce4bhr92rcd13ifvqhrg","pricing_plan_id":"cebpf4jnsgd1na2vs0mg"},{"bike_id":"445b0e8f-9d78-4f59-a804-06dc508337ef","system_id":"levelo_inurba_marseille","lat":43.304802,"lon":5.368672,"is_reserved":false,"is_disabled":false,"rental_uris":{"android":"levelo://app?vid=445b0e8f-9d78-4f59-a804-06dc508337ef","ios":"levelo://app?vid=445b0e8f-9d78-4f59-a804-06dc508337ef"},"vehicle_type_id":"4","last_reported":1760890261,"current_range_meters":6800,"station_id":"ce4bh2p2rcd13ifvqdi0","pricing_plan_id":"cebpf4jnsgd1na2vs0mg"},{"bike_id":"fc98f019-2b4d-45f5-b664-5928e89fb440","system_id":"levelo_inurba_marseille","lat":43.21738,"lon":5.34586,"is_reserved":false,"is_disabled":false,"rental_uris":{"android":"levelo://app?vid=fc98f019-2b4d-45f5-b664-5928e89fb440","ios":"levelo://app?vid=fc98f019-2b4d-45f5-b664-5928e89fb440"},"vehicle_type_id":"4","last_reported":1760890261,"current_range_meters":6800,"station_id":"st_cvj6r9ubvosntc0bgbag","pricing_plan_id":"cebpf4jnsgd1na2vs0mg"},{"bike_id":"c486b750-6cba-41ce-abb1-2f3ee584f85d","system_id":"levelo_inurba_marseille","lat":43.281,"lon":5.37833,"is_reserved":false,"is_disabled":false,"rental_uris":{"android":"levelo://app?vid=c486b750-6cba-41ce-abb1-2f3ee584f85d","ios":"levelo://app?vid=c486b750-6cba-41ce-abb1-2f3ee584f85d"},"vehicle_type_id":"4","last_reported":1760890261,"current_range_meters":6800,"station_id":"ce4bha12rcd13ifvqee0","pricing_plan_id":"cebpf4jnsgd1na2vs0mg"},{"bike_id":"425b3f60-7d3b-4f62-8ac3-f2f01565510b","system_id":"levelo_inurba_marseille","lat":43.22562,"lon":5.41628,"is_reserved":false,"is_disabled":false,"rental_uris":{"android":"levelo://app?vid=425b3f60-7d3b-4f62-8ac3-f2f01565510b","ios":"levelo://app?vid=425b3f60-7d3b-4f62-8ac3-f2f01565510b"},"vehicle_type_id":"4","last_reported":1760890261,"current_range_meters":7200,"station_id":"st_d2o4gvlbi1j2169b742g","pricing_plan_id":"cebpf4jnsgd1na2vs0mg"},{"bike_id":"676fd588-494b-4028-8203-f37ef89d1fbb","system_id":"levelo_inurba_marseille","lat":43.22562,"lon":5.41636,"is_reserved":false,"is_disabled":false,"rental_uris":{"android":"levelo://app?vid=676fd588-494b-4028-8203-f37ef89d1fbb","ios":"levelo://app?vid=676fd588-494b-4028-8203-f37ef89d1fbb"},"vehicle_type_id":"4","last_reported":1760890261,"current_range_meters":7200,"station_id":"st_d2o4gvlbi1j2169b742g","pricing_plan_id":"cebpf4jnsgd1na2vs0mg"},{"bike_id":"431d63d0-2d79-4db1-b0d9-c66fd2154ee8","system_id":"levelo_inurba_marseille","lat":43.28743,"lon":5.37011,"is_reserved":false,"is_disabled":false,"rental_uris":{"android":"levelo://app?vid=431d63d0-2d79-4db1-b0d9-c66fd2154ee8","ios":"levelo://app?vid=431d63d0-2d79-4db1-b0d9-c66fd2154ee8"},"vehicle_type_id":"4","last_reported":1760890261,"current_range_meters":7200,"station_id":"","pricing_plan_id":"cebpf4jnsgd1na2vs0mg"},{"bike_id":"29deeaa9-e77a-408d-b13e-b6abc21d5df6","system_id":"levelo_inurba_marseille","lat":43.33168,"lon":5.36247,"is_reserved":false,"is_disabled":false,"rental_uris":{"android":"levelo://app?vid=29deeaa9-e77a-408d-b13e-b6abc21d5df6","ios":"levelo://app?vid=29deeaa9-e77a-408d-b13e-b6abc21d5df6"},"vehicle_type_id":"4","last_reported":1760890261,"current_range_meters":7200,"station_id":"","pricing_plan_id":"cebpf4jnsgd1na2vs0mg"},{"bike_id":"03a9d496-6af8-4d8d-9cbf-68904de3f337","system_id":"levelo_inurba_marseille","lat":43.26549,"lon":5.37289,"is_reserved":false,"is_disabled":true,"rental_uris":{"android":"levelo://app?vid=03a9d496-6af8-4d8d-9cbf-68904de3f337","ios":"levelo://app?vid=03a9d496-6af8-4d8d-9cbf-68904de3f337"},"vehicle_type_id":"4","last_reported":1760890261,"current_range_meters":7200,"station_id":"ce4bhg12rcd13ifvqf70","pricing_plan_id":"cebpf4jnsgd1na2vs0mg"},{"bike_id":"9b35f520-b47c-4550-9804-23f27fab5ce9","system_id":"levelo_inurba_marseille","lat":43.25439,"lon":5.38137,"is_reserved":false,"is_disabled":true,"rental_uris":{"android":"levelo://app?vid=9b35f520-b47c-4550-9804-23f27fab5ce9","ios":"levelo://app?vid=9b35f520-b47c-4550-9804-23f27fab5ce9"},"vehicle_type_id":"4","last_reported":1760890261,"current_range_meters":7200,"station_id":"","pricing_plan_id":"cebpf4jnsgd1na2vs0mg"},{"bike_id":"5ec36f29-a595-43fb-81bc-e1f6ecf04525","system_id":"levelo_inurba_marseille","lat":43.21196,"lon":5.35079,"is_reserved":false,"is_disabled":true,"rental_uris":{"android":"levelo://app?vid=5ec36f29-a595-43fb-81bc-e1f6ecf04525","ios":"levelo://app?vid=5ec36f29-a595-43fb-81bc-e1f6ecf04525"},"vehicle_type_id":"4","last_reported":1760890261,"current_range_meters":7200,"station_id":"st_cvj6sg6p6f1abm77japg","pricing_plan_id":"cebpf4jnsgd1na2vs0mg"},{"bike_id":"aeae6da2-95ce-4afc-9c81-62f00a527829","system_id":"levelo_inurba_marseille","lat":43.28097,"lon":5.37837,"is_reserved":false,"is_disabled":false,"rental_uris":{"android":"levelo://app?vid=aeae6da2-95ce-4afc-9c81-62f00a527829","ios":"levelo://app?vid=aeae6da2-95ce-4afc-9c81-62f00a527829"},"vehicle_type_id":"4","last_reported":1760890261,"current_range_meters":7200,"station_id":"ce4bha12rcd13ifvqee0","pricing_plan_id":"cebpf4jnsgd1na2vs0mg"},{"bike_id":"383132c7-6568-4b3f-85e0-394f17b8ed8c","system_id":"levelo_inurba_marseille","lat":43.246427,"lon":5.388901,"is_reserved":false,"is_disabled":true,"rental_uris":{"android":"levelo://app?vid=383132c7-6568-4b3f-85e0-394f17b8ed8c","ios":"levelo://app?vid=383132c7-6568-4b3f-85e0-394f17b8ed8c"},"vehicle_type_id":"4","last_reported":1760890261,"current_range_meters":8000,"station_id":"ce4bhg12rcd13ifvqf60","pricing_plan_id":"cebpf4jnsgd1na2vs0mg"},{"bike_id":"245a030c-0c43-41f8-a4cc-088d55252b06","system_id":"levelo_inurba_marseille","lat":43.24472,"lon":5.369328,"is_reserved":false,"is_disabled":false,"rental_uris":{"android":"levelo://app?vid=245a030c-0c43-41f8-a4cc-088d55252b06","ios":"levelo://app?vid=245a030c-0c43-41f8-a4cc-088d55252b06"},"vehicle_type_id":"4","last_reported":1760890261,"current_range_meters":8000,"station_id":"","pricing_plan_id":"cebpf4jnsgd1na2vs0mg"},{"bike_id":"5e0219d5-b8f8-4001-98c2-913567ce944f","system_id":"levelo_inurba_marseille","lat":43.29584,"lon":5.38098,"is_reserved":false,"is_disabled":false,"rental_uris":{"android":"levelo://app?vid=5e0219d5-b8f8-4001-98c2-913567ce944f","ios":"levelo://app?vid=5e0219d5-b8f8-4001-98c2-913567ce944f"},"vehicle_type_id":"4","last_reported":1760890261,"current_range_meters":8000,"station_id":"ce4bgl12rcd13ifvqbo0","pricing_plan_id":"cebpf4jnsgd1na2vs0mg"},{"bike_id":"f61fa8ec-ddb8-4067-bada-dcca6f65fd97","system_id":"levelo_inurba_marseille","lat":43.295772,"lon":5.375158,"is_reserved":false,"is_disabled":false,"rental_uris":{"android":"levelo://app?vid=f61fa8ec-ddb8-4067-bada-dcca6f65fd97","ios":"levelo://app?vid=f61fa8ec-ddb8-4067-bada-dcca6f65fd97"},"vehicle_type_id":"4","last_reported":1760890261,"current_range_meters":8000,"station_id":"","pricing_plan_id":"cebpf4jnsgd1na2vs0mg"},{"bike_id":"9f71efed-9634-420a-af79-66d731b73c3b","system_id":"levelo_inurba_marseille","lat":43.29571,"lon":5.39988,"is_reserved":false,"is_disabled":false,"rental_uris":{"android":"levelo://app?vid=9f71efed-9634-420a-af79-66d731b73c3b","ios":"levelo://app?vid=9f71efed-9634-420a-af79-66d731b73c3b"},"vehicle_type_id":"4","last_reported":1760890261,"current_range_meters":8000,"station_id":"ce4bh312rcd13ifvqdj0","pricing_plan_id":"cebpf4jnsgd1na2vs0mg"},{"bike_id":"8e6781bb-2e20-454e-8191-54182f17bdfc","system_id":"levelo_inurba_marseille","lat":43.21746,"lon":5.3461,"is_reserved":false,"is_disabled":true,"rental_uris":{"android":"levelo://app?vid=8e6781bb-2e20-454e-8191-54182f17bdfc","ios":"levelo://app?vid=8e6781bb-2e20-454e-8191-54182f17bdfc"},"vehicle_type_id":"4","last_reported":1760890261,"current_range_meters":8000,"station_id":"st_cvj6r9ubvosntc0bgbag","pricing_plan_id":"cebpf4jnsgd1na2vs0mg"},{"bike_id":"f7c8f693-1cb9-4f45-a809-cd76181c6642","system_id":"levelo_inurba_marseille","lat":43.22529,"lon":5.34835,"is_reserved":false,"is_disabled":false,"rental_uris":{"android":"levelo://app?vid=f7c8f693-1cb9-4f45-a809-cd76181c6642","ios":"levelo://app?vid=f7c8f693-1cb9-4f45-a809-cd76181c6642"},"vehicle_type_id":"4","last_reported":1760890261,"current_range_meters":8000,"station_id":"ce4bhoh2rcd13ifvqh5g","pricing_plan_id":"cebpf4jnsgd1na2vs0mg"},{"bike_id":"0a414463-fe1a-4833-8a11-178a3c2c879a","system_id":"levelo_inurba_marseille","lat":43.29852,"lon":5.37897,"is_reserved":false,"is_disabled":false,"rental_uris":{"android":"levelo://app?vid=0a414463-fe1a-4833-8a11-178a3c2c879a","ios":"levelo://app?vid=0a414463-fe1a-4833-8a11-178a3c2c879a"},"vehicle_type_id":"4","last_reported":1760890261,"current_range_meters":8400,"station_id":"","pricing_plan_id":"cebpf4jnsgd1na2vs0mg"},{"bike_id":"e7e8b93c-02d4-466b-82b5-3f4c4f15c2ae","system_id":"levelo_inurba_marseille","lat":43.28813,"lon":5.43846,"is_reserved":false,"is_disabled":false,"rental_uris":{"android":"levelo://app?vid=e7e8b93c-02d4-466b-82b5-3f4c4f15c2ae","ios":"levelo://app?vid=e7e8b93c-02d4-466b-82b5-3f4c4f15c2ae"},"vehicle_type_id":"4","last_reported":1760890261,"current_range_meters":8400,"station_id":"","pricing_plan_id":"cebpf4jnsgd1na2vs0mg"},{"bike_id":"6d302aaa-da1d-447e-9eae-1539860b33de","system_id":"levelo_inurba_marseille","lat":43.26554,"lon":5.39008,"is_reserved":false,"is_disabled":false,"rental_uris":{"android":"levelo://app?vid=6d302aaa-da1d-447e-9eae-1539860b33de","ios":"levelo://app?vid=6d302aaa-da1d-447e-9eae-1539860b33de"},"vehicle_type_id":"4","last_reported":1760890261,"current_range_meters":8400,"station_id":"ce4bhe12rcd13ifvqf30","pricing_plan_id":"cebpf4jnsgd1na2vs0mg"},{"bike_id":"c7cc45f2-4783-422a-851d-f6f8e4005017","system_id":"levelo_inurba_marseille","lat":43.29047,"lon":5.39944,"is_reserved":false,"is_disabled":false,"rental_uris":{"android":"levelo://app?vid=c7cc45f2-4783-422a-851d-f6f8e4005017","ios":"levelo://app?vid=c7cc45f2-4783-422a-851d-f6f8e4005017"},"vehicle_type_id":"4","last_reported":1760890261,"current_range_meters":8400,"station_id":"ce4bh392rcd13ifvqdm0","pricing_plan_id":"cebpf4jnsgd1na2vs0mg"},{"bike_id":"ca67065b-6215-41e0-9764-ff600e43eca5","system_id":"levelo_inurba_marseille","lat":43.30512,"lon":5.3681,"is_reserved":false,"is_disabled":false,"rental_uris":{"android":"levelo://app?vid=ca67065b-6215-41e0-9764-ff600e43eca5","ios":"levelo://app?vid=ca67065b-6215-41e0-9764-ff600e43eca5"},"vehicle_type_id":"4","last_reported":1760890261,"current_range_meters":8400,"station_id":"","pricing_plan_id":"cebpf4jnsgd1na2vs0mg"},{"bike_id":"0707f208-7ecf-47f3-aecf-4896a845018b","system_id":"levelo_inurba_marseille","lat":43.295929,"lon":5.380983,"is_reserved":false,"is_disabled":false,"rental_uris":{"android":"levelo://app?vid=0707f208-7ecf-47f3-aecf-4896a845018b","ios":"levelo://app?vid=0707f208-7ecf-47f3-aecf-4896a845018b"},"vehicle_type_id":"4","last_reported":1760890261,"current_range_meters":8400,"station_id":"ce4bgl12rcd13ifvqbo0","pricing_plan_id":"cebpf4jnsgd1na2vs0mg"},{"bike_id":"b1db1391-3474-48f3-85bd-dfc79b190eda","system_id":"levelo_inurba_marseille","lat":43.29268,"lon":5.36132,"is_reserved":false,"is_disabled":false,"rental_uris":{"android":"levelo://app?vid=b1db1391-3474-48f3-85bd-dfc79b190eda","ios":"levelo://app?vid=b1db1391-3474-48f3-85bd-dfc79b190eda"},"vehicle_type_id":"4","last_reported":1760890261,"current_range_meters":8400,"station_id":"","pricing_plan_id":"cebpf4jnsgd1na2vs0mg"},{"bike_id":"847e9856-ae8a-4c49-a85a-fec204e571f6","system_id":"levelo_inurba_marseille","lat":43.28985,"lon":5.39038,"is_reserved":false,"is_disabled":false,"rental_uris":{"android":"levelo://app?vid=847e9856-ae8a-4c49-a85a-fec204e571f6","ios":"levelo://app?vid=847e9856-ae8a-4c49-a85a-fec204e571f6"},"vehicle_type_id":"4","last_reported":1760890261,"current_range_meters":8800,"station_id":"","pricing_plan_id":"cebpf4jnsgd1na2vs0mg"},{"bike_id":"7294338b-7dce-479b-864e-4720fa193e38","system_id":"levelo_inurba_marseille","lat":43.28365,"lon":5.35527,"is_reserved":false,"is_disabled":false,"rental_uris":{"android":"levelo://app?vid=7294338b-7dce-479b-864e-4720fa193e38","ios":"levelo://app?vid=7294338b-7dce-479b-864e-4720fa193e38"},"vehicle_type_id":"4","last_reported":1760890261,"current_range_meters":8800,"station_id":"","pricing_plan_id":"cebpf4jnsgd1na2vs0mg"},{"bike_id":"83348da8-a4f5-46df-865e-64326525590d","system_id":"levelo_inurba_marseille","lat":43.21762,"lon":5.34589,"is_reserved":false,"is_disabled":false,"rental_uris":{"android":"levelo://app?vid=83348da8-a4f5-46df-865e-64326525590d","ios":"levelo://app?vid=83348da8-a4f5-46df-865e-64326525590d"},"vehicle_type_id":"4","last_reported":1760890261,"current_range_meters":8800,"station_id":"st_cvj6r9ubvosntc0bgbag","pricing_plan_id":"cebpf4jnsgd1na2vs0mg"},{"bike_id":"b885e2ed-53bd-4f15-8a2f-6a6e50a23691","system_id":"levelo_inurba_marseille","lat":43.299729,"lon":5.384834,"is_reserved":false,"is_disabled":false,"rental_uris":{"android":"levelo://app?vid=b885e2ed-53bd-4f15-8a2f-6a6e50a23691","ios":"levelo://app?vid=b885e2ed-53bd-4f15-8a2f-6a6e50a23691"},"vehicle_type_id":"4","last_reported":1760890261,"current_range_meters":8800,"station_id":"ce4bgj92rcd13ifvqbd0","pricing_plan_id":"cebpf4jnsgd1na2vs0mg"},{"bike_id":"3586afa5-19c6-4385-ae3b-80726606c1bb","system_id":"levelo_inurba_marseille","lat":43.264087,"lon":5.398953,"is_reserved":false,"is_disabled":false,"rental_uris":{"android":"levelo://app?vid=3586afa5-19c6-4385-ae3b-80726606c1bb","ios":"levelo://app?vid=3586afa5-19c6-4385-ae3b-80726606c1bb"},"vehicle_type_id":"4","last_reported":1760890261,"current_range_meters":8800,"station_id":"","pricing_plan_id":"cebpf4jnsgd1na2vs0mg"},{"bike_id":"5b5accea-24a2-4b66-96aa-c4f4264ad971","system_id":"levelo_inurba_marseille","lat":43.28612,"lon":5.35105,"is_reserved":false,"is_disabled":false,"rental_uris":{"android":"levelo://app?vid=5b5accea-24a2-4b66-96aa-c4f4264ad971","ios":"levelo://app?vid=5b5accea-24a2-4b66-96aa-c4f4264ad971"},"vehicle_type_id":"4","last_reported":1760890261,"current_range_meters":8800,"station_id":"","pricing_plan_id":"cebpf4jnsgd1na2vs0mg"},{"bike_id":"01631119-7160-4843-9224-8e6830b019a0","system_id":"levelo_inurba_marseille","lat":43.25928,"lon":5.40909,"is_reserved":false,"is_disabled":false,"rental_uris":{"android":"levelo://app?vid=01631119-7160-4843-9224-8e6830b019a0","ios":"levelo://app?vid=01631119-7160-4843-9224-8e6830b019a0"},"vehicle_type_id":"4","last_reported":1760890261,"current_range_meters":8800,"station_id":"ce4bhm92rcd13ifvqglg","pricing_plan_id":"cebpf4jnsgd1na2vs0mg"},{"bike_id":"9dd1d8fe-c2a8-4a70-a175-61f5f9fe7fd2","system_id":"levelo_inurba_marseille","lat":43.31565,"lon":5.39044,"is_reserved":false,"is_disabled":false,"rental_uris":{"android":"levelo://app?vid=9dd1d8fe-c2a8-4a70-a175-61f5f9fe7fd2","ios":"levelo://app?vid=9dd1d8fe-c2a8-4a70-a175-61f5f9fe7fd2"},"vehicle_type_id":"4","last_reported":1760890261,"current_range_meters":9200,"station_id":"","pricing_plan_id":"cebpf4jnsgd1na2vs0mg"},{"bike_id":"9aca6410-dfe2-4f0b-8309-4bbe61aef318","system_id":"levelo_inurba_marseille","lat":43.33009,"lon":5.39046,"is_reserved":false,"is_disabled":false,"rental_uris":{"android":"levelo://app?vid=9aca6410-dfe2-4f0b-8309-4bbe61aef318","ios":"levelo://app?vid=9aca6410-dfe2-4f0b-8309-4bbe61aef318"},"vehicle_type_id":"4","last_reported":1760890261,"current_range_meters":9200,"station_id":"ce4bhr92rcd13ifvqhrg","pricing_plan_id":"cebpf4jnsgd1na2vs0mg"},{"bike_id":"d816f0bd-57fb-4a33-bf69-125e4064ba5b","system_id":"levelo_inurba_marseille","lat":43.28566,"lon":5.39489,"is_reserved":false,"is_disabled":false,"rental_uris":{"android":"levelo://app?vid=d816f0bd-57fb-4a33-bf69-125e4064ba5b","ios":"levelo://app?vid=d816f0bd-57fb-4a33-bf69-125e4064ba5b"},"vehicle_type_id":"4","last_reported":1760890261,"current_range_meters":9200,"station_id":"ce4bh292rcd13ifvqdg0","pricing_plan_id":"cebpf4jnsgd1na2vs0mg"},{"bike_id":"ca26da7e-e1e4-4905-ac43-d37be0d22408","system_id":"levelo_inurba_marseille","lat":43.3372,"lon":5.39188,"is_reserved":false,"is_disabled":false,"rental_uris":{"android":"levelo://app?vid=ca26da7e-e1e4-4905-ac43-d37be0d22408","ios":"levelo://app?vid=ca26da7e-e1e4-4905-ac43-d37be0d22408"},"vehicle_type_id":"4","last_reported":1760890261,"current_range_meters":9200,"station_id":"ce4bhr92rcd13ifvqhsg","pricing_plan_id":"cebpf4jnsgd1na2vs0mg"},{"bike_id":"e978660f-731d-4a95-8df5-e0a54d8fe8be","system_id":"levelo_inurba_marseille","lat":43.21171,"lon":5.35078,"is_reserved":false,"is_disabled":true,"rental_uris":{"android":"levelo://app?vid=e978660f-731d-4a95-8df5-e0a54d8fe8be","ios":"levelo://app?vid=e978660f-731d-4a95-8df5-e0a54d8fe8be"},"vehicle_type_id":"4","last_reported":1760890261,"current_range_meters":9200,"station_id":"st_cvj6sg6p6f1abm77japg","pricing_plan_id":"cebpf4jnsgd1na2vs0mg"},{"bike_id":"6c702e79-25d9-435e-b43a-d60a0c04c663","system_id":"levelo_inurba_marseille","lat":43.280225,"lon":5.393933,"is_reserved":false,"is_disabled":false,"rental_uris":{"android":"levelo://app?vid=6c702e79-25d9-435e-b43a-d60a0c04c663","ios":"levelo://app?vid=6c702e79-25d9-435e-b43a-d60a0c04c663"},"vehicle_type_id":"4","last_reported":1760890261,"current_range_meters":9200,"station_id":"ce4bh312rcd13ifvqdk0","pricing_plan_id":"cebpf4jnsgd1na2vs0mg"},{"bike_id":"e20f4ff0-ba4c-4993-a1c7-166e6f22094d","system_id":"levelo_inurba_marseille","lat":43.279618,"lon":5.410501,"is_reserved":false,"is_disabled":false,"rental_uris":{"android":"levelo://app?vid=e20f4ff0-ba4c-4993-a1c7-166e6f22094d","ios":"levelo://app?vid=e20f4ff0-ba4c-4993-a1c7-166e6f22094d"},"vehicle_type_id":"4","last_reported":1760890261,"current_range_meters":9200,"station_id":"ce4bhnp2rcd13ifvqh0g","pricing_plan_id":"cebpf4jnsgd1na2vs0mg"},{"bike_id":"03d42850-592e-450e-83bb-7381be9ec96c","system_id":"levelo_inurba_marseille","lat":43.298122,"lon":5.440688,"is_reserved":false,"is_disabled":false,"rental_uris":{"android":"levelo://app?vid=03d42850-592e-450e-83bb-7381be9ec96c","ios":"levelo://app?vid=03d42850-592e-450e-83bb-7381be9ec96c"},"vehicle_type_id":"4","last_reported":1760890261,"current_range_meters":9600,"station_id":"st_d3jp68qikq2c7381ktn0","pricing_plan_id":"cebpf4jnsgd1na2vs0mg"},{"bike_id":"2e51d722-c50f-4ea8-8b3f-70ccd13f7d6b","system_id":"levelo_inurba_marseille","lat":43.25726,"lon":5.41109,"is_reserved":false,"is_disabled":false,"rental_uris":{"android":"levelo://app?vid=2e51d722-c50f-4ea8-8b3f-70ccd13f7d6b","ios":"levelo://app?vid=2e51d722-c50f-4ea8-8b3f-70ccd13f7d6b"},"vehicle_type_id":"4","last_reported":1760890261,"current_range_meters":9600,"station_id":"ce4bhkp2rcd13ifvqgd0","pricing_plan_id":"cebpf4jnsgd1na2vs0mg"},{"bike_id":"d9d7391d-eed1-41ad-a910-e724cb96cc2b","system_id":"levelo_inurba_marseille","lat":43.28077,"lon":5.39666,"is_reserved":false,"is_disabled":false,"rental_uris":{"android":"levelo://app?vid=d9d7391d-eed1-41ad-a910-e724cb96cc2b","ios":"levelo://app?vid=d9d7391d-eed1-41ad-a910-e724cb96cc2b"},"vehicle_type_id":"4","last_reported":1760890261,"current_range_meters":9600,"station_id":"ce4bho12rcd13ifvqh2g","pricing_plan_id":"cebpf4jnsgd1na2vs0mg"},{"bike_id":"a6962579-4494-4e08-8325-00d9b8b3f3a3","system_id":"levelo_inurba_marseille","lat":43.29635,"lon":5.40594,"is_reserved":false,"is_disabled":false,"rental_uris":{"android":"levelo://app?vid=a6962579-4494-4e08-8325-00d9b8b3f3a3","ios":"levelo://app?vid=a6962579-4494-4e08-8325-00d9b8b3f3a3"},"vehicle_type_id":"4","last_reported":1760890261,"current_range_meters":9600,"station_id":"ce4bh0h2rcd13ifvqd60","pricing_plan_id":"cebpf4jnsgd1na2vs0mg"},{"bike_id":"933f6c27-030d-46b3-a1be-57420d8d761c","system_id":"levelo_inurba_marseille","lat":43.290343,"lon":5.399778,"is_reserved":false,"is_disabled":false,"rental_uris":{"android":"levelo://app?vid=933f6c27-030d-46b3-a1be-57420d8d761c","ios":"levelo://app?vid=933f6c27-030d-46b3-a1be-57420d8d761c"},"vehicle_type_id":"4","last_reported":1760890261,"current_range_meters":9600,"station_id":"ce4bh392rcd13ifvqdm0","pricing_plan_id":"cebpf4jnsgd1na2vs0mg"},{"bike_id":"6426e4fa-7f79-410d-acfa-0a51b3b2658a","system_id":"levelo_inurba_marseille","lat":43.312401,"lon":5.40398,"is_reserved":false,"is_disabled":false,"rental_uris":{"android":"levelo://app?vid=6426e4fa-7f79-410d-acfa-0a51b3b2658a","ios":"levelo://app?vid=6426e4fa-7f79-410d-acfa-0a51b3b2658a"},"vehicle_type_id":"4","last_reported":1760890261,"current_range_meters":10000,"station_id":"","pricing_plan_id":"cebpf4jnsgd1na2vs0mg"},{"bike_id":"6655967b-abc9-4508-98d8-c9a890eb560f","system_id":"levelo_inurba_marseille","lat":43.29548,"lon":5.37488,"is_reserved":false,"is_disabled":false,"rental_uris":{"android":"levelo://app?vid=6655967b-abc9-4508-98d8-c9a890eb560f","ios":"levelo://app?vid=6655967b-abc9-4508-98d8-c9a890eb560f"},"vehicle_type_id":"4","last_reported":1760890261,"current_range_meters":10000,"station_id":"","pricing_plan_id":"cebpf4jnsgd1na2vs0mg"},{"bike_id":"a3f863ca-1551-43ec-abd9-e0073f7aad15","system_id":"levelo_inurba_marseille","lat":43.29256,"lon":5.3762,"is_reserved":false,"is_disabled":true,"rental_uris":{"android":"levelo://app?vid=a3f863ca-1551-43ec-abd9-e0073f7aad15","ios":"levelo://app?vid=a3f863ca-1551-43ec-abd9-e0073f7aad15"},"vehicle_type_id":"4","last_reported":1760890261,"current_range_meters":10000,"station_id":"ce4bgi12rcd13ifvqb80","pricing_plan_id":"cebpf4jnsgd1na2vs0mg"},{"bike_id":"ac6d2c4d-74a8-443d-a9f9-0d9807feacda","system_id":"levelo_inurba_marseille","lat":43.33772,"lon":5.37469,"is_reserved":false,"is_disabled":false,"rental_uris":{"android":"levelo://app?vid=ac6d2c4d-74a8-443d-a9f9-0d9807feacda","ios":"levelo://app?vid=ac6d2c4d-74a8-443d-a9f9-0d9807feacda"},"vehicle_type_id":"4","last_reported":1760890261,"current_range_meters":10000,"station_id":"","pricing_plan_id":"cebpf4jnsgd1na2vs0mg"},{"bike_id":"b54d93df-422f-447b-95d6-7a459e3ad64a","system_id":"levelo_inurba_marseille","lat":43.30149,"lon":5.3742,"is_reserved":false,"is_disabled":false,"rental_uris":{"android":"levelo://app?vid=b54d93df-422f-447b-95d6-7a459e3ad64a","ios":"levelo://app?vid=b54d93df-422f-447b-95d6-7a459e3ad64a"},"vehicle_type_id":"4","last_reported":1760890261,"current_range_meters":10000,"station_id":"ce4bgs92rcd13ifvqcc0","pricing_plan_id":"cebpf4jnsgd1na2vs0mg"},{"bike_id":"17381ede-2885-434f-b8d5-419cbc10857a","system_id":"levelo_inurba_marseille","lat":43.30119,"lon":5.38931,"is_reserved":false,"is_disabled":false,"rental_uris":{"android":"levelo://app?vid=17381ede-2885-434f-b8d5-419cbc10857a","ios":"levelo://app?vid=17381ede-2885-434f-b8d5-419cbc10857a"},"vehicle_type_id":"4","last_reported":1760890261,"current_range_meters":10000,"station_id":"","pricing_plan_id":"cebpf4jnsgd1na2vs0mg"},{"bike_id":"f9b93727-d7c1-467f-bf50-0a2f894d2d3d","system_id":"levelo_inurba_marseille","lat":43.3014,"lon":5.37415,"is_reserved":false,"is_disabled":false,"rental_uris":{"android":"levelo://app?vid=f9b93727-d7c1-467f-bf50-0a2f894d2d3d","ios":"levelo://app?vid=f9b93727-d7c1-467f-bf50-0a2f894d2d3d"},"vehicle_type_id":"4","last_reported":1760890261,"current_range_meters":10000,"station_id":"ce4bgs92rcd13ifvqcc0","pricing_plan_id":"cebpf4jnsgd1na2vs0mg"},{"bike_id":"365b1110-8604-4b2d-ad9b-3263b8a258f2","system_id":"levelo_inurba_marseille","lat":43.28655,"lon":5.3634,"is_reserved":false,"is_disabled":false,"rental_uris":{"android":"levelo://app?vid=365b1110-8604-4b2d-ad9b-3263b8a258f2","ios":"levelo://app?vid=365b1110-8604-4b2d-ad9b-3263b8a258f2"},"vehicle_type_id":"4","last_reported":1760890261,"current_range_meters":10800,"station_id":"ce4bhah2rcd13ifvqej0","pricing_plan_id":"cebpf4jnsgd1na2vs0mg"},{"bike_id":"d712d0ff-3096-41ad-87d0-b640167ff060","system_id":"levelo_inurba_marseille","lat":43.31541,"lon":5.38512,"is_reserved":false,"is_disabled":false,"rental_uris":{"android":"levelo://app?vid=d712d0ff-3096-41ad-87d0-b640167ff060","ios":"levelo://app?vid=d712d0ff-3096-41ad-87d0-b640167ff060"},"vehicle_type_id":"4","last_reported":1760890261,"current_range_meters":10800,"station_id":"","pricing_plan_id":"cebpf4jnsgd1na2vs0mg"},{"bike_id":"82c468a7-612e-4058-a058-48ce4c218b56","system_id":"levelo_inurba_marseille","lat":43.27065,"lon":5.42306,"is_reserved":false,"is_disabled":false,"rental_uris":{"android":"levelo://app?vid=82c468a7-612e-4058-a058-48ce4c218b56","ios":"levelo://app?vid=82c468a7-612e-4058-a058-48ce4c218b56"},"vehicle_type_id":"4","last_reported":1760890261,"current_range_meters":10800,"station_id":"ce4bhk92rcd13ifvqgb0","pricing_plan_id":"cebpf4jnsgd1na2vs0mg"},{"bike_id":"f49c6fe3-911b-48a1-b132-943c805b2085","system_id":"levelo_inurba_marseille","lat":43.29565,"lon":5.3998,"is_reserved":false,"is_disabled":false,"rental_uris":{"android":"levelo://app?vid=f49c6fe3-911b-48a1-b132-943c805b2085","ios":"levelo://app?vid=f49c6fe3-911b-48a1-b132-943c805b2085"},"vehicle_type_id":"4","last_reported":1760890261,"current_range_meters":10800,"station_id":"ce4bh312rcd13ifvqdj0","pricing_plan_id":"cebpf4jnsgd1na2vs0mg"},{"bike_id":"5bd9155f-156c-49c8-8b0f-833732c1c592","system_id":"levelo_inurba_marseille","lat":43.27933,"lon":5.45623,"is_reserved":false,"is_disabled":false,"rental_uris":{"android":"levelo://app?vid=5bd9155f-156c-49c8-8b0f-833732c1c592","ios":"levelo://app?vid=5bd9155f-156c-49c8-8b0f-833732c1c592"},"vehicle_type_id":"4","last_reported":1760890261,"current_range_meters":11200,"station_id":"st_d3j3df2ikq2c7380ej80","pricing_plan_id":"cebpf4jnsgd1na2vs0mg"},{"bike_id":"b4d730f9-3265-45ba-8d83-198d6ac366cd","system_id":"levelo_inurba_marseille","lat":43.29809,"lon":5.44079,"is_reserved":false,"is_disabled":false,"rental_uris":{"android":"levelo://app?vid=b4d730f9-3265-45ba-8d83-198d6ac366cd","ios":"levelo://app?vid=b4d730f9-3265-45ba-8d83-198d6ac366cd"},"vehicle_type_id":"4","last_reported":1760890261,"current_range_meters":11200,"station_id":"st_d3jp68qikq2c7381ktn0","pricing_plan_id":"cebpf4jnsgd1na2vs0mg"},{"bike_id":"81ca0cf9-7047-428a-9072-3e13596df636","system_id":"levelo_inurba_marseille","lat":43.29016,"lon":5.3864,"is_reserved":false,"is_disabled":true,"rental_uris":{"android":"levelo://app?vid=81ca0cf9-7047-428a-9072-3e13596df636","ios":"levelo://app?vid=81ca0cf9-7047-428a-9072-3e13596df636"},"vehicle_type_id":"4","last_reported":1760890261,"current_range_meters":11200,"station_id":"ce4bh4p2rcd13ifvqe0g","pricing_plan_id":"cebpf4jnsgd1na2vs0mg"},{"bike_id":"cf4c14bf-7635-4f96-a4b6-ee6481db3804","system_id":"levelo_inurba_marseille","lat":43.32293,"lon":5.38287,"is_reserved":false,"is_disabled":false,"rental_uris":{"android":"levelo://app?vid=cf4c14bf-7635-4f96-a4b6-ee6481db3804","ios":"levelo://app?vid=cf4c14bf-7635-4f96-a4b6-ee6481db3804"},"vehicle_type_id":"4","last_reported":1760890261,"current_range_meters":11200,"station_id":"ce4bhr12rcd13ifvqhqg","pricing_plan_id":"cebpf4jnsgd1na2vs0mg"},{"bike_id":"f5eda7fc-872e-4f8e-9d95-c0a57bf82381","system_id":"levelo_inurba_marseille","lat":43.292287,"lon":5.360602,"is_reserved":false,"is_disabled":false,"rental_uris":{"android":"levelo://app?vid=f5eda7fc-872e-4f8e-9d95-c0a57bf82381","ios":"levelo://app?vid=f5eda7fc-872e-4f8e-9d95-c0a57bf82381"},"vehicle_type_id":"4","last_reported":1760890261,"current_range_meters":11200,"station_id":"","pricing_plan_id":"cebpf4jnsgd1na2vs0mg"},{"bike_id":"2c59cc86-a348-4735-8f6f-75bf0e4aac2c","system_id":"levelo_inurba_marseille","lat":43.33022,"lon":5.39034,"is_reserved":false,"is_disabled":false,"rental_uris":{"android":"levelo://app?vid=2c59cc86-a348-4735-8f6f-75bf0e4aac2c","ios":"levelo://app?vid=2c59cc86-a348-4735-8f6f-75bf0e4aac2c"},"vehicle_type_id":"4","last_reported":1760890261,"current_range_meters":11200,"station_id":"ce4bhr92rcd13ifvqhrg","pricing_plan_id":"cebpf4jnsgd1na2vs0mg"},{"bike_id":"b9f4c452-f1a0-4b31-854c-2325a5b73556","system_id":"levelo_inurba_marseille","lat":43.21463,"lon":5.34323,"is_reserved":false,"is_disabled":false,"rental_uris":{"android":"levelo://app?vid=b9f4c452-f1a0-4b31-854c-2325a5b73556","ios":"levelo://app?vid=b9f4c452-f1a0-4b31-854c-2325a5b73556"},"vehicle_type_id":"4","last_reported":1760890261,"current_range_meters":11600,"station_id":"","pricing_plan_id":"cebpf4jnsgd1na2vs0mg"},{"bike_id":"d2241688-ed3b-4708-ace1-776a55fa1394","system_id":"levelo_inurba_marseille","lat":43.28831,"lon":5.39322,"is_reserved":false,"is_disabled":false,"rental_uris":{"android":"levelo://app?vid=d2241688-ed3b-4708-ace1-776a55fa1394","ios":"levelo://app?vid=d2241688-ed3b-4708-ace1-776a55fa1394"},"vehicle_type_id":"4","last_reported":1760890261,"current_range_meters":12000,"station_id":"ce4bh2p2rcd13ifvqdi0","pricing_plan_id":"cebpf4jnsgd1na2vs0mg"},{"bike_id":"8f6c99a9-2111-4ea5-ba4d-4bb0a3b06aa1","system_id":"levelo_inurba_marseille","lat":43.298159,"lon":5.440645,"is_reserved":false,"is_disabled":false,"rental_uris":{"android":"levelo://app?vid=8f6c99a9-2111-4ea5-ba4d-4bb0a3b06aa1","ios":"levelo://app?vid=8f6c99a9-2111-4ea5-ba4d-4bb0a3b06aa1"},"vehicle_type_id":"4","last_reported":1760890261,"current_range_meters":12000,"station_id":"st_d3jp68qikq2c7381ktn0","pricing_plan_id":"cebpf4jnsgd1na2vs0mg"},{"bike_id":"86ce52f8-f590-4694-90e1-216ddc477b29","system_id":"levelo_inurba_marseille","lat":43.30968,"lon":5.3812,"is_reserved":false,"is_disabled":false,"rental_uris":{"android":"levelo://app?vid=86ce52f8-f590-4694-90e1-216ddc477b29","ios":"levelo://app?vid=86ce52f8-f590-4694-90e1-216ddc477b29"},"vehicle_type_id":"4","last_reported":1760890261,"current_range_meters":12000,"station_id":"","pricing_plan_id":"cebpf4jnsgd1na2vs0mg"},{"bike_id":"664a0561-7787-4963-923a-e3cdffcc37ec","system_id":"levelo_inurba_marseille","lat":43.23192,"lon":5.355562,"is_reserved":false,"is_disabled":false,"rental_uris":{"android":"levelo://app?vid=664a0561-7787-4963-923a-e3cdffcc37ec","ios":"levelo://app?vid=664a0561-7787-4963-923a-e3cdffcc37ec"},"vehicle_type_id":"4","last_reported":1760890261,"current_range_meters":12000,"station_id":"ce4bhu92rcd13ifvqi70","pricing_plan_id":"cebpf4jnsgd1na2vs0mg"},{"bike_id":"28be4cc9-89da-4216-a8af-2f68cb933d6b","system_id":"levelo_inurba_marseille","lat":43.29573,"lon":5.37506,"is_reserved":false,"is_disabled":false,"rental_uris":{"android":"levelo://app?vid=28be4cc9-89da-4216-a8af-2f68cb933d6b","ios":"levelo://app?vid=28be4cc9-89da-4216-a8af-2f68cb933d6b"},"vehicle_type_id":"4","last_reported":1760890261,"current_range_meters":12000,"station_id":"ce4bgh92rcd13ifvqb50","pricing_plan_id":"cebpf4jnsgd1na2vs0mg"},{"bike_id":"fbe586dc-ebc7-45f2-b699-4812fb9ca15d","system_id":"levelo_inurba_marseille","lat":43.25489,"lon":5.37655,"is_reserved":false,"is_disabled":true,"rental_uris":{"android":"levelo://app?vid=fbe586dc-ebc7-45f2-b699-4812fb9ca15d","ios":"levelo://app?vid=fbe586dc-ebc7-45f2-b699-4812fb9ca15d"},"vehicle_type_id":"4","last_reported":1760890261,"current_range_meters":12000,"station_id":"ce4bhh12rcd13ifvqff0","pricing_plan_id":"cebpf4jnsgd1na2vs0mg"},{"bike_id":"de4bec27-297c-4e65-9415-36d899af2286","system_id":"levelo_inurba_marseille","lat":43.25932,"lon":5.40918,"is_reserved":false,"is_disabled":false,"rental_uris":{"android":"levelo://app?vid=de4bec27-297c-4e65-9415-36d899af2286","ios":"levelo://app?vid=de4bec27-297c-4e65-9415-36d899af2286"},"vehicle_type_id":"4","last_reported":1760890261,"current_range_meters":12400,"station_id":"ce4bhm92rcd13ifvqglg","pricing_plan_id":"cebpf4jnsgd1na2vs0mg"},{"bike_id":"676d88a8-f06e-4192-886d-e52926318b91","system_id":"levelo_inurba_marseille","lat":43.21194,"lon":5.35076,"is_reserved":false,"is_disabled":false,"rental_uris":{"android":"levelo://app?vid=676d88a8-f06e-4192-886d-e52926318b91","ios":"levelo://app?vid=676d88a8-f06e-4192-886d-e52926318b91"},"vehicle_type_id":"4","last_reported":1760890261,"current_range_meters":12400,"station_id":"st_cvj6sg6p6f1abm77japg","pricing_plan_id":"cebpf4jnsgd1na2vs0mg"},{"bike_id":"8cd818e3-a9e2-4f48-92b2-26306f507696","system_id":"levelo_inurba_marseille","lat":43.31349,"lon":5.37913,"is_reserved":false,"is_disabled":false,"rental_uris":{"android":"levelo://app?vid=8cd818e3-a9e2-4f48-92b2-26306f507696","ios":"levelo://app?vid=8cd818e3-a9e2-4f48-92b2-26306f507696"},"vehicle_type_id":"4","last_reported":1760890261,"current_range_meters":12400,"station_id":"","pricing_plan_id":"cebpf4jnsgd1na2vs0mg"},{"bike_id":"3408078d-d6fa-4069-a085-cf8b8dea2141","system_id":"levelo_inurba_marseille","lat":43.27915,"lon":5.3958,"is_reserved":false,"is_disabled":false,"rental_uris":{"android":"levelo://app?vid=3408078d-d6fa-4069-a085-cf8b8dea2141","ios":"levelo://app?vid=3408078d-d6fa-4069-a085-cf8b8dea2141"},"vehicle_type_id":"4","last_reported":1760890261,"current_range_meters":12400,"station_id":"ce4bhf92rcd13ifvqf40","pricing_plan_id":"cebpf4jnsgd1na2vs0mg"},{"bike_id":"6c2e38f2-31b7-41c6-a15f-43316d9af58f","system_id":"levelo_inurba_marseille","lat":43.29519,"lon":5.3855,"is_reserved":false,"is_disabled":false,"rental_uris":{"android":"levelo://app?vid=6c2e38f2-31b7-41c6-a15f-43316d9af58f","ios":"levelo://app?vid=6c2e38f2-31b7-41c6-a15f-43316d9af58f"},"vehicle_type_id":"4","last_reported":1760890261,"current_range_meters":12400,"station_id":"ce4bgih2rcd13ifvqba0","pricing_plan_id":"cebpf4jnsgd1na2vs0mg"},{"bike_id":"778ccbfb-369b-40e2-98f2-f17901dc7e11","system_id":"levelo_inurba_marseille","lat":43.28442,"lon":5.34974,"is_reserved":false,"is_disabled":true,"rental_uris":{"android":"levelo://app?vid=778ccbfb-369b-40e2-98f2-f17901dc7e11","ios":"levelo://app?vid=778ccbfb-369b-40e2-98f2-f17901dc7e11"},"vehicle_type_id":"4","last_reported":1760890261,"current_range_meters":12400,"station_id":"ce4bhbh2rcd13ifvqepg","pricing_plan_id":"cebpf4jnsgd1na2vs0mg"},{"bike_id":"ff8cdf7f-3496-4863-80d3-cba22fcc8162","system_id":"levelo_inurba_marseille","lat":43.30421,"lon":5.38895,"is_reserved":false,"is_disabled":false,"rental_uris":{"android":"levelo://app?vid=ff8cdf7f-3496-4863-80d3-cba22fcc8162","ios":"levelo://app?vid=ff8cdf7f-3496-4863-80d3-cba22fcc8162"},"vehicle_type_id":"4","last_reported":1760890261,"current_range_meters":12400,"station_id":"ce4bgk12rcd13ifvqbi0","pricing_plan_id":"cebpf4jnsgd1na2vs0mg"},{"bike_id":"3cab6837-9492-4b2f-9f11-6d7fb4de0695","system_id":"levelo_inurba_marseille","lat":43.29575,"lon":5.36751,"is_reserved":false,"is_disabled":true,"rental_uris":{"android":"levelo://app?vid=3cab6837-9492-4b2f-9f11-6d7fb4de0695","ios":"levelo://app?vid=3cab6837-9492-4b2f-9f11-6d7fb4de0695"},"vehicle_type_id":"4","last_reported":1760890261,"current_range_meters":12800,"station_id":"ce4bgph2rcd13ifvqc2g","pricing_plan_id":"cebpf4jnsgd1na2vs0mg"},{"bike_id":"98695690-1d3f-48aa-ba7c-eaf8d72531b1","system_id":"levelo_inurba_marseille","lat":43.28353,"lon":5.38099,"is_reserved":false,"is_disabled":false,"rental_uris":{"android":"levelo://app?vid=98695690-1d3f-48aa-ba7c-eaf8d72531b1","ios":"levelo://app?vid=98695690-1d3f-48aa-ba7c-eaf8d72531b1"},"vehicle_type_id":"4","last_reported":1760890261,"current_range_meters":12800,"station_id":"ce4bh412rcd13ifvqdr0","pricing_plan_id":"cebpf4jnsgd1na2vs0mg"},{"bike_id":"d44068c3-0d00-475c-95f0-c79200d68562","system_id":"levelo_inurba_marseille","lat":43.31268,"lon":5.40167,"is_reserved":false,"is_disabled":false,"rental_uris":{"android":"levelo://app?vid=d44068c3-0d00-475c-95f0-c79200d68562","ios":"levelo://app?vid=d44068c3-0d00-475c-95f0-c79200d68562"},"vehicle_type_id":"4","last_reported":1760890261,"current_range_meters":12800,"station_id":"ce4bh092rcd13ifvqd30","pricing_plan_id":"cebpf4jnsgd1na2vs0mg"},{"bike_id":"c22e92c8-3fe0-4c56-ab21-210e12f7f0b4","system_id":"levelo_inurba_marseille","lat":43.319491,"lon":5.415346,"is_reserved":false,"is_disabled":false,"rental_uris":{"android":"levelo://app?vid=c22e92c8-3fe0-4c56-ab21-210e12f7f0b4","ios":"levelo://app?vid=c22e92c8-3fe0-4c56-ab21-210e12f7f0b4"},"vehicle_type_id":"4","last_reported":1760890261,"current_range_meters":12800,"station_id":"","pricing_plan_id":"cebpf4jnsgd1na2vs0mg"},{"bike_id":"46777721-bb76-4e1a-b977-97ad27cab88a","system_id":"levelo_inurba_marseille","lat":43.29913,"lon":5.37469,"is_reserved":false,"is_disabled":false,"rental_uris":{"android":"levelo://app?vid=46777721-bb76-4e1a-b977-97ad27cab88a","ios":"levelo://app?vid=46777721-bb76-4e1a-b977-97ad27cab88a"},"vehicle_type_id":"4","last_reported":1760890261,"current_range_meters":12800,"station_id":"ce4bgjh2rcd13ifvqbg0","pricing_plan_id":"cebpf4jnsgd1na2vs0mg"},{"bike_id":"804467e7-f6c2-48c2-82a8-91c6e4e2e1b3","system_id":"levelo_inurba_marseille","lat":43.30534,"lon":5.36511,"is_reserved":false,"is_disabled":false,"rental_uris":{"android":"levelo://app?vid=804467e7-f6c2-48c2-82a8-91c6e4e2e1b3","ios":"levelo://app?vid=804467e7-f6c2-48c2-82a8-91c6e4e2e1b3"},"vehicle_type_id":"4","last_reported":1760890261,"current_range_meters":12800,"station_id":"","pricing_plan_id":"cebpf4jnsgd1na2vs0mg"},{"bike_id":"9d7942b1-c20d-4ca2-b3dd-8a1bd5989464","system_id":"levelo_inurba_marseille","lat":43.28846,"lon":5.39313,"is_reserved":false,"is_disabled":false,"rental_uris":{"android":"levelo://app?vid=9d7942b1-c20d-4ca2-b3dd-8a1bd5989464","ios":"levelo://app?vid=9d7942b1-c20d-4ca2-b3dd-8a1bd5989464"},"vehicle_type_id":"4","last_reported":1760890261,"current_range_meters":12800,"station_id":"ce4bh2p2rcd13ifvqdi0","pricing_plan_id":"cebpf4jnsgd1na2vs0mg"},{"bike_id":"0f787efd-37ca-4060-a03d-15d3c3ce389f","system_id":"levelo_inurba_marseille","lat":43.299983,"lon":5.373491,"is_reserved":false,"is_disabled":false,"rental_uris":{"android":"levelo://app?vid=0f787efd-37ca-4060-a03d-15d3c3ce389f","ios":"levelo://app?vid=0f787efd-37ca-4060-a03d-15d3c3ce389f"},"vehicle_type_id":"4","last_reported":1760890261,"current_range_meters":12800,"station_id":"","pricing_plan_id":"cebpf4jnsgd1na2vs0mg"},{"bike_id":"7a8ac50b-c3a4-490a-8f96-9c005f89ed5d","system_id":"levelo_inurba_marseille","lat":43.26521,"lon":5.39049,"is_reserved":false,"is_disabled":false,"rental_uris":{"android":"levelo://app?vid=7a8ac50b-c3a4-490a-8f96-9c005f89ed5d","ios":"levelo://app?vid=7a8ac50b-c3a4-490a-8f96-9c005f89ed5d"},"vehicle_type_id":"4","last_reported":1760890261,"current_range_meters":13600,"station_id":"","pricing_plan_id":"cebpf4jnsgd1na2vs0mg"},{"bike_id":"7fd36eea-805d-4dce-89b5-46f277eaf158","system_id":"levelo_inurba_marseille","lat":43.305097,"lon":5.366695,"is_reserved":false,"is_disabled":false,"rental_uris":{"android":"levelo://app?vid=7fd36eea-805d-4dce-89b5-46f277eaf158","ios":"levelo://app?vid=7fd36eea-805d-4dce-89b5-46f277eaf158"},"vehicle_type_id":"4","last_reported":1760890261,"current_range_meters":13600,"station_id":"","pricing_plan_id":"cebpf4jnsgd1na2vs0mg"},{"bike_id":"835c7378-be37-41b2-a7a9-76de32e820cf","system_id":"levelo_inurba_marseille","lat":43.24164,"lon":5.36392,"is_reserved":false,"is_disabled":false,"rental_uris":{"android":"levelo://app?vid=835c7378-be37-41b2-a7a9-76de32e820cf","ios":"levelo://app?vid=835c7378-be37-41b2-a7a9-76de32e820cf"},"vehicle_type_id":"4","last_reported":1760890261,"current_range_meters":13600,"station_id":"cpo36qri1sfpv3e86is0","pricing_plan_id":"cebpf4jnsgd1na2vs0mg"},{"bike_id":"c204f779-6edd-4f64-ac7a-71f7dc13517f","system_id":"levelo_inurba_marseille","lat":43.3075,"lon":5.37047,"is_reserved":false,"is_disabled":false,"rental_uris":{"android":"levelo://app?vid=c204f779-6edd-4f64-ac7a-71f7dc13517f","ios":"levelo://app?vid=c204f779-6edd-4f64-ac7a-71f7dc13517f"},"vehicle_type_id":"4","last_reported":1760890261,"current_range_meters":13600,"station_id":"ce4bgn92rcd13ifvqbvg","pricing_plan_id":"cebpf4jnsgd1na2vs0mg"},{"bike_id":"4fa620d5-1ed9-4662-b537-0282f1bcb108","system_id":"levelo_inurba_marseille","lat":43.29514,"lon":5.39396,"is_reserved":false,"is_disabled":false,"rental_uris":{"android":"levelo://app?vid=4fa620d5-1ed9-4662-b537-0282f1bcb108","ios":"levelo://app?vid=4fa620d5-1ed9-4662-b537-0282f1bcb108"},"vehicle_type_id":"4","last_reported":1760890261,"current_range_meters":13600,"station_id":"ce4bh292rcd13ifvqdf0","pricing_plan_id":"cebpf4jnsgd1na2vs0mg"},{"bike_id":"44bf323c-252e-4119-820e-507dee8c378c","system_id":"levelo_inurba_marseille","lat":43.25956,"lon":5.41375,"is_reserved":false,"is_disabled":false,"rental_uris":{"android":"levelo://app?vid=44bf323c-252e-4119-820e-507dee8c378c","ios":"levelo://app?vid=44bf323c-252e-4119-820e-507dee8c378c"},"vehicle_type_id":"4","last_reported":1760890261,"current_range_meters":13600,"station_id":"","pricing_plan_id":"cebpf4jnsgd1na2vs0mg"},{"bike_id":"6c065587-f970-4c8d-a529-1ea57f0b7dae","system_id":"levelo_inurba_marseille","lat":43.23185,"lon":5.35565,"is_reserved":false,"is_disabled":false,"rental_uris":{"android":"levelo://app?vid=6c065587-f970-4c8d-a529-1ea57f0b7dae","ios":"levelo://app?vid=6c065587-f970-4c8d-a529-1ea57f0b7dae"},"vehicle_type_id":"4","last_reported":1760890261,"current_range_meters":14000,"station_id":"ce4bhu92rcd13ifvqi70","pricing_plan_id":"cebpf4jnsgd1na2vs0mg"},{"bike_id":"679c3c1f-72e8-4456-b0d9-4c2ad9c70dd9","system_id":"levelo_inurba_marseille","lat":43.21203,"lon":5.35071,"is_reserved":false,"is_disabled":false,"rental_uris":{"android":"levelo://app?vid=679c3c1f-72e8-4456-b0d9-4c2ad9c70dd9","ios":"levelo://app?vid=679c3c1f-72e8-4456-b0d9-4c2ad9c70dd9"},"vehicle_type_id":"4","last_reported":1760890261,"current_range_meters":14000,"station_id":"st_cvj6sg6p6f1abm77japg","pricing_plan_id":"cebpf4jnsgd1na2vs0mg"},{"bike_id":"e015a312-f4e2-4fa5-962c-4dc7593461dd","system_id":"levelo_inurba_marseille","lat":43.27377,"lon":5.36251,"is_reserved":false,"is_disabled":false,"rental_uris":{"android":"levelo://app?vid=e015a312-f4e2-4fa5-962c-4dc7593461dd","ios":"levelo://app?vid=e015a312-f4e2-4fa5-962c-4dc7593461dd"},"vehicle_type_id":"4","last_reported":1760890261,"current_range_meters":14000,"station_id":"","pricing_plan_id":"cebpf4jnsgd1na2vs0mg"},{"bike_id":"0a950a0d-01ce-40b2-be0e-ad7894fd72f2","system_id":"levelo_inurba_marseille","lat":43.321029,"lon":5.367713,"is_reserved":false,"is_disabled":true,"rental_uris":{"android":"levelo://app?vid=0a950a0d-01ce-40b2-be0e-ad7894fd72f2","ios":"levelo://app?vid=0a950a0d-01ce-40b2-be0e-ad7894fd72f2"},"vehicle_type_id":"4","last_reported":1760890261,"current_range_meters":14000,"station_id":"ce4bhrh2rcd13ifvqhug","pricing_plan_id":"cebpf4jnsgd1na2vs0mg"},{"bike_id":"9652283e-21f4-4490-ac9e-ffa9429f0005","system_id":"levelo_inurba_marseille","lat":43.29021,"lon":5.40518,"is_reserved":false,"is_disabled":false,"rental_uris":{"android":"levelo://app?vid=9652283e-21f4-4490-ac9e-ffa9429f0005","ios":"levelo://app?vid=9652283e-21f4-4490-ac9e-ffa9429f0005"},"vehicle_type_id":"4","last_reported":1760890261,"current_range_meters":14000,"station_id":"","pricing_plan_id":"cebpf4jnsgd1na2vs0mg"},{"bike_id":"d1668fd5-d05d-42a9-b5d1-4388db8ac6a3","system_id":"levelo_inurba_marseille","lat":43.31764,"lon":5.39029,"is_reserved":false,"is_disabled":false,"rental_uris":{"android":"levelo://app?vid=d1668fd5-d05d-42a9-b5d1-4388db8ac6a3","ios":"levelo://app?vid=d1668fd5-d05d-42a9-b5d1-4388db8ac6a3"},"vehicle_type_id":"4","last_reported":1760890261,"current_range_meters":14000,"station_id":"ce4bhqp2rcd13ifvqhng","pricing_plan_id":"cebpf4jnsgd1na2vs0mg"},{"bike_id":"4b843967-9a68-4661-85c2-ab4d00c597e9","system_id":"levelo_inurba_marseille","lat":43.28719,"lon":5.37934,"is_reserved":false,"is_disabled":false,"rental_uris":{"android":"levelo://app?vid=4b843967-9a68-4661-85c2-ab4d00c597e9","ios":"levelo://app?vid=4b843967-9a68-4661-85c2-ab4d00c597e9"},"vehicle_type_id":"4","last_reported":1760890261,"current_range_meters":14000,"station_id":"ce4bh9p2rcd13ifvqec0","pricing_plan_id":"cebpf4jnsgd1na2vs0mg"},{"bike_id":"4eb04008-b65c-4286-8cf9-56314c66ed7a","system_id":"levelo_inurba_marseille","lat":43.23191,"lon":5.35555,"is_reserved":false,"is_disabled":false,"rental_uris":{"android":"levelo://app?vid=4eb04008-b65c-4286-8cf9-56314c66ed7a","ios":"levelo://app?vid=4eb04008-b65c-4286-8cf9-56314c66ed7a"},"vehicle_type_id":"4","last_reported":1760890261,"current_range_meters":14000,"station_id":"ce4bhu92rcd13ifvqi70","pricing_plan_id":"cebpf4jnsgd1na2vs0mg"},{"bike_id":"7a191e7b-b3fb-4790-bcd7-cf75752265db","system_id":"levelo_inurba_marseille","lat":43.24798,"lon":5.37451,"is_reserved":false,"is_disabled":false,"rental_uris":{"android":"levelo://app?vid=7a191e7b-b3fb-4790-bcd7-cf75752265db","ios":"levelo://app?vid=7a191e7b-b3fb-4790-bcd7-cf75752265db"},"vehicle_type_id":"4","last_reported":1760890261,"current_range_meters":14400,"station_id":"ce4bhgh2rcd13ifvqfb0","pricing_plan_id":"cebpf4jnsgd1na2vs0mg"},{"bike_id":"e5253998-2bd6-48b8-b390-7a6ecebd162e","system_id":"levelo_inurba_marseille","lat":43.295746,"lon":5.375252,"is_reserved":false,"is_disabled":false,"rental_uris":{"android":"levelo://app?vid=e5253998-2bd6-48b8-b390-7a6ecebd162e","ios":"levelo://app?vid=e5253998-2bd6-48b8-b390-7a6ecebd162e"},"vehicle_type_id":"4","last_reported":1760890261,"current_range_meters":14400,"station_id":"ce4bgh92rcd13ifvqb50","pricing_plan_id":"cebpf4jnsgd1na2vs0mg"},{"bike_id":"6f5458d3-9f2a-47d5-b18c-590daf6a6f7f","system_id":"levelo_inurba_marseille","lat":43.2912,"lon":5.35821,"is_reserved":false,"is_disabled":true,"rental_uris":{"android":"levelo://app?vid=6f5458d3-9f2a-47d5-b18c-590daf6a6f7f","ios":"levelo://app?vid=6f5458d3-9f2a-47d5-b18c-590daf6a6f7f"},"vehicle_type_id":"4","last_reported":1760890261,"current_range_meters":14400,"station_id":"","pricing_plan_id":"cebpf4jnsgd1na2vs0mg"},{"bike_id":"6a55f55b-6367-4370-b9c6-778fb681c802","system_id":"levelo_inurba_marseille","lat":43.24809,"lon":5.37464,"is_reserved":false,"is_disabled":false,"rental_uris":{"android":"levelo://app?vid=6a55f55b-6367-4370-b9c6-778fb681c802","ios":"levelo://app?vid=6a55f55b-6367-4370-b9c6-778fb681c802"},"vehicle_type_id":"4","last_reported":1760890261,"current_range_meters":14400,"station_id":"ce4bhgh2rcd13ifvqfb0","pricing_plan_id":"cebpf4jnsgd1na2vs0mg"},{"bike_id":"b998c0cf-6741-472a-a13a-c3ac7a9f4bdb","system_id":"levelo_inurba_marseille","lat":43.27895,"lon":5.38013,"is_reserved":false,"is_disabled":false,"rental_uris":{"android":"levelo://app?vid=b998c0cf-6741-472a-a13a-c3ac7a9f4bdb","ios":"levelo://app?vid=b998c0cf-6741-472a-a13a-c3ac7a9f4bdb"},"vehicle_type_id":"4","last_reported":1760890261,"current_range_meters":14400,"station_id":"ce4bhf92rcd13ifvqf50","pricing_plan_id":"cebpf4jnsgd1na2vs0mg"},{"bike_id":"4a671f9a-3e19-4659-bfd6-bcbb788dc9c5","system_id":"levelo_inurba_marseille","lat":43.29301,"lon":5.37171,"is_reserved":false,"is_disabled":false,"rental_uris":{"android":"levelo://app?vid=4a671f9a-3e19-4659-bfd6-bcbb788dc9c5","ios":"levelo://app?vid=4a671f9a-3e19-4659-bfd6-bcbb788dc9c5"},"vehicle_type_id":"4","last_reported":1760890261,"current_range_meters":14400,"station_id":"ce4bgh92rcd13ifvqb40","pricing_plan_id":"cebpf4jnsgd1na2vs0mg"},{"bike_id":"edeab634-8002-402b-b629-60fe297a3e79","system_id":"levelo_inurba_marseille","lat":43.217438,"lon":5.346144,"is_reserved":false,"is_disabled":false,"rental_uris":{"android":"levelo://app?vid=edeab634-8002-402b-b629-60fe297a3e79","ios":"levelo://app?vid=edeab634-8002-402b-b629-60fe297a3e79"},"vehicle_type_id":"4","last_reported":1760890261,"current_range_meters":14400,"station_id":"st_cvj6r9ubvosntc0bgbag","pricing_plan_id":"cebpf4jnsgd1na2vs0mg"},{"bike_id":"5a35347d-1dbb-434c-8651-0148cd77cd1e","system_id":"levelo_inurba_marseille","lat":43.31616,"lon":5.38915,"is_reserved":false,"is_disabled":false,"rental_uris":{"android":"levelo://app?vid=5a35347d-1dbb-434c-8651-0148cd77cd1e","ios":"levelo://app?vid=5a35347d-1dbb-434c-8651-0148cd77cd1e"},"vehicle_type_id":"4","last_reported":1760890261,"current_range_meters":14400,"station_id":"","pricing_plan_id":"cebpf4jnsgd1na2vs0mg"},{"bike_id":"f1b8e04f-457e-461e-a0a7-0d512845fe50","system_id":"levelo_inurba_marseille","lat":43.3391,"lon":5.40677,"is_reserved":false,"is_disabled":false,"rental_uris":{"android":"levelo://app?vid=f1b8e04f-457e-461e-a0a7-0d512845fe50","ios":"levelo://app?vid=f1b8e04f-457e-461e-a0a7-0d512845fe50"},"vehicle_type_id":"4","last_reported":1760890261,"current_range_meters":14400,"station_id":"","pricing_plan_id":"cebpf4jnsgd1na2vs0mg"},{"bike_id":"b3d737bf-7b7c-4c18-b56f-57a16bdf0746","system_id":"levelo_inurba_marseille","lat":43.301426,"lon":5.374056,"is_reserved":false,"is_disabled":false,"rental_uris":{"android":"levelo://app?vid=b3d737bf-7b7c-4c18-b56f-57a16bdf0746","ios":"levelo://app?vid=b3d737bf-7b7c-4c18-b56f-57a16bdf0746"},"vehicle_type_id":"4","last_reported":1760890261,"current_range_meters":14400,"station_id":"ce4bgs92rcd13ifvqcc0","pricing_plan_id":"cebpf4jnsgd1na2vs0mg"},{"bike_id":"4bbd6801-e86f-4670-a08c-5a08e1dabb92","system_id":"levelo_inurba_marseille","lat":43.29191,"lon":5.38106,"is_reserved":false,"is_disabled":false,"rental_uris":{"android":"levelo://app?vid=4bbd6801-e86f-4670-a08c-5a08e1dabb92","ios":"levelo://app?vid=4bbd6801-e86f-4670-a08c-5a08e1dabb92"},"vehicle_type_id":"4","last_reported":1760890261,"current_range_meters":14800,"station_id":"","pricing_plan_id":"cebpf4jnsgd1na2vs0mg"},{"bike_id":"a470e1e9-0594-4b5c-9b26-2114268fb06d","system_id":"levelo_inurba_marseille","lat":43.29852,"lon":5.36302,"is_reserved":false,"is_disabled":true,"rental_uris":{"android":"levelo://app?vid=a470e1e9-0594-4b5c-9b26-2114268fb06d","ios":"levelo://app?vid=a470e1e9-0594-4b5c-9b26-2114268fb06d"},"vehicle_type_id":"4","last_reported":1760890261,"current_range_meters":14800,"station_id":"ce4bgpp2rcd13ifvqc3g","pricing_plan_id":"cebpf4jnsgd1na2vs0mg"},{"bike_id":"0e1c1279-e314-4763-88db-546948cd3537","system_id":"levelo_inurba_marseille","lat":43.30143,"lon":5.37418,"is_reserved":false,"is_disabled":false,"rental_uris":{"android":"levelo://app?vid=0e1c1279-e314-4763-88db-546948cd3537","ios":"levelo://app?vid=0e1c1279-e314-4763-88db-546948cd3537"},"vehicle_type_id":"4","last_reported":1760890261,"current_range_meters":14800,"station_id":"ce4bgs92rcd13ifvqcc0","pricing_plan_id":"cebpf4jnsgd1na2vs0mg"},{"bike_id":"6d2b99e5-66fe-4947-8fe5-86ff5fefc280","system_id":"levelo_inurba_marseille","lat":43.28612,"lon":5.351,"is_reserved":false,"is_disabled":false,"rental_uris":{"android":"levelo://app?vid=6d2b99e5-66fe-4947-8fe5-86ff5fefc280","ios":"levelo://app?vid=6d2b99e5-66fe-4947-8fe5-86ff5fefc280"},"vehicle_type_id":"4","last_reported":1760890261,"current_range_meters":14800,"station_id":"ce4bhch2rcd13ifvqeug","pricing_plan_id":"cebpf4jnsgd1na2vs0mg"},{"bike_id":"da22a6bb-ece8-4168-87fa-39fdca8adc0a","system_id":"levelo_inurba_marseille","lat":43.248064,"lon":5.374574,"is_reserved":false,"is_disabled":false,"rental_uris":{"android":"levelo://app?vid=da22a6bb-ece8-4168-87fa-39fdca8adc0a","ios":"levelo://app?vid=da22a6bb-ece8-4168-87fa-39fdca8adc0a"},"vehicle_type_id":"4","last_reported":1760890261,"current_range_meters":14800,"station_id":"ce4bhgh2rcd13ifvqfb0","pricing_plan_id":"cebpf4jnsgd1na2vs0mg"},{"bike_id":"5f03c11d-757f-4202-8624-25f187706fe3","system_id":"levelo_inurba_marseille","lat":43.29026,"lon":5.3865,"is_reserved":false,"is_disabled":false,"rental_uris":{"android":"levelo://app?vid=5f03c11d-757f-4202-8624-25f187706fe3","ios":"levelo://app?vid=5f03c11d-757f-4202-8624-25f187706fe3"},"vehicle_type_id":"4","last_reported":1760890261,"current_range_meters":15200,"station_id":"ce4bh4p2rcd13ifvqe0g","pricing_plan_id":"cebpf4jnsgd1na2vs0mg"},{"bike_id":"c4d7144c-5cd7-4e0f-989a-df34ec26c2c6","system_id":"levelo_inurba_marseille","lat":43.30546,"lon":5.36549,"is_reserved":false,"is_disabled":false,"rental_uris":{"android":"levelo://app?vid=c4d7144c-5cd7-4e0f-989a-df34ec26c2c6","ios":"levelo://app?vid=c4d7144c-5cd7-4e0f-989a-df34ec26c2c6"},"vehicle_type_id":"4","last_reported":1760890261,"current_range_meters":15200,"station_id":"ce4bgs12rcd13ifvqcag","pricing_plan_id":"cebpf4jnsgd1na2vs0mg"},{"bike_id":"6f75fe75-07e6-489b-8916-105d30143c05","system_id":"levelo_inurba_marseille","lat":43.2925,"lon":5.38447,"is_reserved":false,"is_disabled":false,"rental_uris":{"android":"levelo://app?vid=6f75fe75-07e6-489b-8916-105d30143c05","ios":"levelo://app?vid=6f75fe75-07e6-489b-8916-105d30143c05"},"vehicle_type_id":"4","last_reported":1760890261,"current_range_meters":16000,"station_id":"ce4bh692rcd13ifvqea0","pricing_plan_id":"cebpf4jnsgd1na2vs0mg"},{"bike_id":"4ca1a358-8c1c-4f7e-9010-0b012c65e17b","system_id":"levelo_inurba_marseille","lat":43.28765,"lon":5.38508,"is_reserved":false,"is_disabled":false,"rental_uris":{"android":"levelo://app?vid=4ca1a358-8c1c-4f7e-9010-0b012c65e17b","ios":"levelo://app?vid=4ca1a358-8c1c-4f7e-9010-0b012c65e17b"},"vehicle_type_id":"4","last_reported":1760890261,"current_range_meters":16000,"station_id":"","pricing_plan_id":"cebpf4jnsgd1na2vs0mg"},{"bike_id":"d5e1033e-87fd-4555-9d21-02085f0c012c","system_id":"levelo_inurba_marseille","lat":43.28454,"lon":5.35897,"is_reserved":false,"is_disabled":false,"rental_uris":{"android":"levelo://app?vid=d5e1033e-87fd-4555-9d21-02085f0c012c","ios":"levelo://app?vid=d5e1033e-87fd-4555-9d21-02085f0c012c"},"vehicle_type_id":"4","last_reported":1760890261,"current_range_meters":16000,"station_id":"ce4bhah2rcd13ifvqei0","pricing_plan_id":"cebpf4jnsgd1na2vs0mg"},{"bike_id":"17a98da0-0e05-4495-b093-5170b091ae70","system_id":"levelo_inurba_marseille","lat":43.2903,"lon":5.38631,"is_reserved":false,"is_disabled":false,"rental_uris":{"android":"levelo://app?vid=17a98da0-0e05-4495-b093-5170b091ae70","ios":"levelo://app?vid=17a98da0-0e05-4495-b093-5170b091ae70"},"vehicle_type_id":"4","last_reported":1760890261,"current_range_meters":16000,"station_id":"ce4bh4p2rcd13ifvqe0g","pricing_plan_id":"cebpf4jnsgd1na2vs0mg"},{"bike_id":"c342f8c7-5fc1-44ac-a8a7-185a55578898","system_id":"levelo_inurba_marseille","lat":43.23161,"lon":5.35523,"is_reserved":false,"is_disabled":false,"rental_uris":{"android":"levelo://app?vid=c342f8c7-5fc1-44ac-a8a7-185a55578898","ios":"levelo://app?vid=c342f8c7-5fc1-44ac-a8a7-185a55578898"},"vehicle_type_id":"4","last_reported":1760890261,"current_range_meters":16000,"station_id":"ce4bhu92rcd13ifvqi70","pricing_plan_id":"cebpf4jnsgd1na2vs0mg"},{"bike_id":"9aa893ee-1807-4639-a1a7-1714b8f2dc9d","system_id":"levelo_inurba_marseille","lat":43.274936,"lon":5.42438,"is_reserved":false,"is_disabled":false,"rental_uris":{"android":"levelo://app?vid=9aa893ee-1807-4639-a1a7-1714b8f2dc9d","ios":"levelo://app?vid=9aa893ee-1807-4639-a1a7-1714b8f2dc9d"},"vehicle_type_id":"4","last_reported":1760890261,"current_range_meters":16400,"station_id":"ce4bhn92rcd13ifvqgrg","pricing_plan_id":"cebpf4jnsgd1na2vs0mg"},{"bike_id":"6ff72891-c6b2-4017-b388-f9d1b6af198d","system_id":"levelo_inurba_marseille","lat":43.287195,"lon":5.379403,"is_reserved":false,"is_disabled":false,"rental_uris":{"android":"levelo://app?vid=6ff72891-c6b2-4017-b388-f9d1b6af198d","ios":"levelo://app?vid=6ff72891-c6b2-4017-b388-f9d1b6af198d"},"vehicle_type_id":"4","last_reported":1760890261,"current_range_meters":16400,"station_id":"ce4bh9p2rcd13ifvqec0","pricing_plan_id":"cebpf4jnsgd1na2vs0mg"},{"bike_id":"c530e950-50a8-4b2f-81e6-a5f7e6f752e8","system_id":"levelo_inurba_marseille","lat":43.33759,"lon":5.37473,"is_reserved":false,"is_disabled":false,"rental_uris":{"android":"levelo://app?vid=c530e950-50a8-4b2f-81e6-a5f7e6f752e8","ios":"levelo://app?vid=c530e950-50a8-4b2f-81e6-a5f7e6f752e8"},"vehicle_type_id":"4","last_reported":1760890261,"current_range_meters":16400,"station_id":"","pricing_plan_id":"cebpf4jnsgd1na2vs0mg"},{"bike_id":"f9c8e874-f965-4f84-8f8c-9cbdb4518520","system_id":"levelo_inurba_marseille","lat":43.2465,"lon":5.38884,"is_reserved":false,"is_disabled":false,"rental_uris":{"android":"levelo://app?vid=f9c8e874-f965-4f84-8f8c-9cbdb4518520","ios":"levelo://app?vid=f9c8e874-f965-4f84-8f8c-9cbdb4518520"},"vehicle_type_id":"4","last_reported":1760890261,"current_range_meters":16400,"station_id":"ce4bhg12rcd13ifvqf60","pricing_plan_id":"cebpf4jnsgd1na2vs0mg"},{"bike_id":"8a9982f5-492c-4101-9ee2-b921872e8485","system_id":"levelo_inurba_marseille","lat":43.24662,"lon":5.38164,"is_reserved":false,"is_disabled":false,"rental_uris":{"android":"levelo://app?vid=8a9982f5-492c-4101-9ee2-b921872e8485","ios":"levelo://app?vid=8a9982f5-492c-4101-9ee2-b921872e8485"},"vehicle_type_id":"4","last_reported":1760890261,"current_range_meters":16400,"station_id":"ce4bhih2rcd13ifvqfr0","pricing_plan_id":"cebpf4jnsgd1na2vs0mg"},{"bike_id":"551b071f-6296-4762-bf09-1f1114253086","system_id":"levelo_inurba_marseille","lat":43.29973,"lon":5.37192,"is_reserved":false,"is_disabled":true,"rental_uris":{"android":"levelo://app?vid=551b071f-6296-4762-bf09-1f1114253086","ios":"levelo://app?vid=551b071f-6296-4762-bf09-1f1114253086"},"vehicle_type_id":"4","last_reported":1760890261,"current_range_meters":16400,"station_id":"ce4bgr92rcd13ifvqc7g","pricing_plan_id":"cebpf4jnsgd1na2vs0mg"},{"bike_id":"23d35b5e-ea0e-4026-9323-324ea92bb581","system_id":"levelo_inurba_marseille","lat":43.28603,"lon":5.37063,"is_reserved":false,"is_disabled":false,"rental_uris":{"android":"levelo://app?vid=23d35b5e-ea0e-4026-9323-324ea92bb581","ios":"levelo://app?vid=23d35b5e-ea0e-4026-9323-324ea92bb581"},"vehicle_type_id":"4","last_reported":1760890261,"current_range_meters":16400,"station_id":"ce4bht12rcd13ifvqi60","pricing_plan_id":"cebpf4jnsgd1na2vs0mg"},{"bike_id":"6548d380-a1d3-44ac-bc09-e277315ef487","system_id":"levelo_inurba_marseille","lat":43.2925,"lon":5.37633,"is_reserved":false,"is_disabled":false,"rental_uris":{"android":"levelo://app?vid=6548d380-a1d3-44ac-bc09-e277315ef487","ios":"levelo://app?vid=6548d380-a1d3-44ac-bc09-e277315ef487"},"vehicle_type_id":"4","last_reported":1760890261,"current_range_meters":16400,"station_id":"ce4bgi12rcd13ifvqb80","pricing_plan_id":"cebpf4jnsgd1na2vs0mg"},{"bike_id":"cbb969af-e2e1-4bc9-8555-6098944d5f60","system_id":"levelo_inurba_marseille","lat":43.296243,"lon":5.360277,"is_reserved":false,"is_disabled":false,"rental_uris":{"android":"levelo://app?vid=cbb969af-e2e1-4bc9-8555-6098944d5f60","ios":"levelo://app?vid=cbb969af-e2e1-4bc9-8555-6098944d5f60"},"vehicle_type_id":"4","last_reported":1760890261,"current_range_meters":16400,"station_id":"ce4bgrh2rcd13ifvqc8g","pricing_plan_id":"cebpf4jnsgd1na2vs0mg"},{"bike_id":"cbbdb834-fdfe-4f8d-a33f-8c777bb8e3fa","system_id":"levelo_inurba_marseille","lat":43.3121,"lon":5.36863,"is_reserved":false,"is_disabled":false,"rental_uris":{"android":"levelo://app?vid=cbbdb834-fdfe-4f8d-a33f-8c777bb8e3fa","ios":"levelo://app?vid=cbbdb834-fdfe-4f8d-a33f-8c777bb8e3fa"},"vehicle_type_id":"4","last_reported":1760890261,"current_range_meters":16400,"station_id":"ce4bgl92rcd13ifvqbq0","pricing_plan_id":"cebpf4jnsgd1na2vs0mg"},{"bike_id":"0000b6d3-e83a-4149-90d5-c0999f573ff8","system_id":"levelo_inurba_marseille","lat":43.32074,"lon":5.36802,"is_reserved":false,"is_disabled":false,"rental_uris":{"android":"levelo://app?vid=0000b6d3-e83a-4149-90d5-c0999f573ff8","ios":"levelo://app?vid=0000b6d3-e83a-4149-90d5-c0999f573ff8"},"vehicle_type_id":"4","last_reported":1760890261,"current_range_meters":16800,"station_id":"ce4bhrh2rcd13ifvqhug","pricing_plan_id":"cebpf4jnsgd1na2vs0mg"},{"bike_id":"8f5b4e3f-d0c8-438b-955e-3fd6c08bc9d3","system_id":"levelo_inurba_marseille","lat":43.24163,"lon":5.36395,"is_reserved":false,"is_disabled":false,"rental_uris":{"android":"levelo://app?vid=8f5b4e3f-d0c8-438b-955e-3fd6c08bc9d3","ios":"levelo://app?vid=8f5b4e3f-d0c8-438b-955e-3fd6c08bc9d3"},"vehicle_type_id":"4","last_reported":1760890261,"current_range_meters":16800,"station_id":"cpo36qri1sfpv3e86is0","pricing_plan_id":"cebpf4jnsgd1na2vs0mg"},{"bike_id":"e343fae2-abdd-419f-add3-4252cf1a7c5a","system_id":"levelo_inurba_marseille","lat":43.30482,"lon":5.40078,"is_reserved":false,"is_disabled":false,"rental_uris":{"android":"levelo://app?vid=e343fae2-abdd-419f-add3-4252cf1a7c5a","ios":"levelo://app?vid=e343fae2-abdd-419f-add3-4252cf1a7c5a"},"vehicle_type_id":"4","last_reported":1760890261,"current_range_meters":16800,"station_id":"","pricing_plan_id":"cebpf4jnsgd1na2vs0mg"},{"bike_id":"6d9392ed-1417-4737-be7f-20b2cefaa83e","system_id":"levelo_inurba_marseille","lat":43.28604,"lon":5.3707,"is_reserved":false,"is_disabled":true,"rental_uris":{"android":"levelo://app?vid=6d9392ed-1417-4737-be7f-20b2cefaa83e","ios":"levelo://app?vid=6d9392ed-1417-4737-be7f-20b2cefaa83e"},"vehicle_type_id":"4","last_reported":1760890261,"current_range_meters":16800,"station_id":"ce4bht12rcd13ifvqi60","pricing_plan_id":"cebpf4jnsgd1na2vs0mg"},{"bike_id":"c544c2af-4249-464e-b952-679215569d56","system_id":"levelo_inurba_marseille","lat":43.29199,"lon":5.39321,"is_reserved":false,"is_disabled":false,"rental_uris":{"android":"levelo://app?vid=c544c2af-4249-464e-b952-679215569d56","ios":"levelo://app?vid=c544c2af-4249-464e-b952-679215569d56"},"vehicle_type_id":"4","last_reported":1760890261,"current_range_meters":16800,"station_id":"ce4bh192rcd13ifvqdd0","pricing_plan_id":"cebpf4jnsgd1na2vs0mg"},{"bike_id":"59aed43f-13a8-4014-b2c4-38bf40a4080c","system_id":"levelo_inurba_marseille","lat":43.26801,"lon":5.40265,"is_reserved":false,"is_disabled":true,"rental_uris":{"android":"levelo://app?vid=59aed43f-13a8-4014-b2c4-38bf40a4080c","ios":"levelo://app?vid=59aed43f-13a8-4014-b2c4-38bf40a4080c"},"vehicle_type_id":"4","last_reported":1760890261,"current_range_meters":17200,"station_id":"ce501612rcd8frsf0b60","pricing_plan_id":"cebpf4jnsgd1na2vs0mg"},{"bike_id":"992960af-8554-4113-8845-c82be32d4f14","system_id":"levelo_inurba_marseille","lat":43.289445,"lon":5.363897,"is_reserved":false,"is_disabled":false,"rental_uris":{"android":"levelo://app?vid=992960af-8554-4113-8845-c82be32d4f14","ios":"levelo://app?vid=992960af-8554-4113-8845-c82be32d4f14"},"vehicle_type_id":"4","last_reported":1760890261,"current_range_meters":17200,"station_id":"ce4bhc92rcd13ifvqetg","pricing_plan_id":"cebpf4jnsgd1na2vs0mg"},{"bike_id":"b7ddea43-28dc-4fbe-a7ed-b00d6badff2a","system_id":"levelo_inurba_marseille","lat":43.29029,"lon":5.3755,"is_reserved":false,"is_disabled":true,"rental_uris":{"android":"levelo://app?vid=b7ddea43-28dc-4fbe-a7ed-b00d6badff2a","ios":"levelo://app?vid=b7ddea43-28dc-4fbe-a7ed-b00d6badff2a"},"vehicle_type_id":"4","last_reported":1760890261,"current_range_meters":17200,"station_id":"ce4bh692rcd13ifvqe90","pricing_plan_id":"cebpf4jnsgd1na2vs0mg"},{"bike_id":"bb211116-29a7-4e48-93ed-d4ab1a1c4665","system_id":"levelo_inurba_marseille","lat":43.259429,"lon":5.408938,"is_reserved":false,"is_disabled":false,"rental_uris":{"android":"levelo://app?vid=bb211116-29a7-4e48-93ed-d4ab1a1c4665","ios":"levelo://app?vid=bb211116-29a7-4e48-93ed-d4ab1a1c4665"},"vehicle_type_id":"4","last_reported":1760890261,"current_range_meters":17200,"station_id":"ce4bhm92rcd13ifvqglg","pricing_plan_id":"cebpf4jnsgd1na2vs0mg"},{"bike_id":"348ab8cc-81cc-4702-b12d-7027572c1935","system_id":"levelo_inurba_marseille","lat":43.27366,"lon":5.36237,"is_reserved":false,"is_disabled":true,"rental_uris":{"android":"levelo://app?vid=348ab8cc-81cc-4702-b12d-7027572c1935","ios":"levelo://app?vid=348ab8cc-81cc-4702-b12d-7027572c1935"},"vehicle_type_id":"4","last_reported":1760890261,"current_range_meters":17200,"station_id":"ce4bhbh2rcd13ifvqeo0","pricing_plan_id":"cebpf4jnsgd1na2vs0mg"},{"bike_id":"1e17cb86-7789-4fec-a2ba-ee494da3acd1","system_id":"levelo_inurba_marseille","lat":43.2315,"lon":5.43722,"is_reserved":false,"is_disabled":false,"rental_uris":{"android":"levelo://app?vid=1e17cb86-7789-4fec-a2ba-ee494da3acd1","ios":"levelo://app?vid=1e17cb86-7789-4fec-a2ba-ee494da3acd1"},"vehicle_type_id":"4","last_reported":1760890261,"current_range_meters":17200,"station_id":"ce4bhmp2rcd13ifvqgog","pricing_plan_id":"cebpf4jnsgd1na2vs0mg"},{"bike_id":"c38d4779-18e1-43c4-a71d-5d81c3a33a62","system_id":"levelo_inurba_marseille","lat":43.29781,"lon":5.38112,"is_reserved":false,"is_disabled":true,"rental_uris":{"android":"levelo://app?vid=c38d4779-18e1-43c4-a71d-5d81c3a33a62","ios":"levelo://app?vid=c38d4779-18e1-43c4-a71d-5d81c3a33a62"},"vehicle_type_id":"4","last_reported":1760890261,"current_range_meters":17200,"station_id":"ce4bgip2rcd13ifvqbb0","pricing_plan_id":"cebpf4jnsgd1na2vs0mg"},{"bike_id":"777ba8a4-194e-40fb-b6c6-d32c2d6e4952","system_id":"levelo_inurba_marseille","lat":43.31032,"lon":5.38353,"is_reserved":false,"is_disabled":false,"rental_uris":{"android":"levelo://app?vid=777ba8a4-194e-40fb-b6c6-d32c2d6e4952","ios":"levelo://app?vid=777ba8a4-194e-40fb-b6c6-d32c2d6e4952"},"vehicle_type_id":"4","last_reported":1760890261,"current_range_meters":17200,"station_id":"","pricing_plan_id":"cebpf4jnsgd1na2vs0mg"},{"bike_id":"7de53d5e-8b6c-4c72-92b4-91161b68671c","system_id":"levelo_inurba_marseille","lat":43.28932,"lon":5.38397,"is_reserved":false,"is_disabled":false,"rental_uris":{"android":"levelo://app?vid=7de53d5e-8b6c-4c72-92b4-91161b68671c","ios":"levelo://app?vid=7de53d5e-8b6c-4c72-92b4-91161b68671c"},"vehicle_type_id":"4","last_reported":1760890261,"current_range_meters":17200,"station_id":"ce4bh612rcd13ifvqe6g","pricing_plan_id":"cebpf4jnsgd1na2vs0mg"},{"bike_id":"78fe83c7-5376-41e5-afa1-483e220954a6","system_id":"levelo_inurba_marseille","lat":43.29166,"lon":5.3708,"is_reserved":false,"is_disabled":false,"rental_uris":{"android":"levelo://app?vid=78fe83c7-5376-41e5-afa1-483e220954a6","ios":"levelo://app?vid=78fe83c7-5376-41e5-afa1-483e220954a6"},"vehicle_type_id":"4","last_reported":1760890261,"current_range_meters":17600,"station_id":"","pricing_plan_id":"cebpf4jnsgd1na2vs0mg"},{"bike_id":"0cb9e047-6f89-42c3-b80d-dedb4ceb19cd","system_id":"levelo_inurba_marseille","lat":43.290387,"lon":5.381215,"is_reserved":false,"is_disabled":false,"rental_uris":{"android":"levelo://app?vid=0cb9e047-6f89-42c3-b80d-dedb4ceb19cd","ios":"levelo://app?vid=0cb9e047-6f89-42c3-b80d-dedb4ceb19cd"},"vehicle_type_id":"4","last_reported":1760890261,"current_range_meters":17600,"station_id":"ce4bh4p2rcd13ifvqe1g","pricing_plan_id":"cebpf4jnsgd1na2vs0mg"},{"bike_id":"6e8ed827-a6f7-46f1-ad28-2f0468b71691","system_id":"levelo_inurba_marseille","lat":43.32095,"lon":5.36779,"is_reserved":false,"is_disabled":true,"rental_uris":{"android":"levelo://app?vid=6e8ed827-a6f7-46f1-ad28-2f0468b71691","ios":"levelo://app?vid=6e8ed827-a6f7-46f1-ad28-2f0468b71691"},"vehicle_type_id":"4","last_reported":1760890261,"current_range_meters":17600,"station_id":"ce4bhrh2rcd13ifvqhug","pricing_plan_id":"cebpf4jnsgd1na2vs0mg"},{"bike_id":"faa3e668-6719-4125-8206-72a0a37494c0","system_id":"levelo_inurba_marseille","lat":43.26942,"lon":5.40249,"is_reserved":false,"is_disabled":true,"rental_uris":{"android":"levelo://app?vid=faa3e668-6719-4125-8206-72a0a37494c0","ios":"levelo://app?vid=faa3e668-6719-4125-8206-72a0a37494c0"},"vehicle_type_id":"4","last_reported":1760890261,"current_range_meters":17600,"station_id":"cjm6bp8fraef2m0cb0m0","pricing_plan_id":"cebpf4jnsgd1na2vs0mg"},{"bike_id":"6e749a81-5b32-4f83-be54-446f2d8a3e2e","system_id":"levelo_inurba_marseille","lat":43.28422,"lon":5.35003,"is_reserved":false,"is_disabled":true,"rental_uris":{"android":"levelo://app?vid=6e749a81-5b32-4f83-be54-446f2d8a3e2e","ios":"levelo://app?vid=6e749a81-5b32-4f83-be54-446f2d8a3e2e"},"vehicle_type_id":"4","last_reported":1760890261,"current_range_meters":18000,"station_id":"ce4bhbh2rcd13ifvqepg","pricing_plan_id":"cebpf4jnsgd1na2vs0mg"},{"bike_id":"9df81e88-3a0f-4b28-9eb8-f96062778ed0","system_id":"levelo_inurba_marseille","lat":43.30232,"lon":5.40068,"is_reserved":false,"is_disabled":true,"rental_uris":{"android":"levelo://app?vid=9df81e88-3a0f-4b28-9eb8-f96062778ed0","ios":"levelo://app?vid=9df81e88-3a0f-4b28-9eb8-f96062778ed0"},"vehicle_type_id":"4","last_reported":1760890261,"current_range_meters":18000,"station_id":"ce4bgvh2rcd13ifvqcs0","pricing_plan_id":"cebpf4jnsgd1na2vs0mg"},{"bike_id":"5a5a6cd4-edff-4e0b-88e4-661722aece21","system_id":"levelo_inurba_marseille","lat":43.31371,"lon":5.38494,"is_reserved":false,"is_disabled":false,"rental_uris":{"android":"levelo://app?vid=5a5a6cd4-edff-4e0b-88e4-661722aece21","ios":"levelo://app?vid=5a5a6cd4-edff-4e0b-88e4-661722aece21"},"vehicle_type_id":"4","last_reported":1760890261,"current_range_meters":18000,"station_id":"ce4bgt92rcd13ifvqcf0","pricing_plan_id":"cebpf4jnsgd1na2vs0mg"},{"bike_id":"a0a49ffa-0757-4887-91cc-e37ceddabe98","system_id":"levelo_inurba_marseille","lat":43.26792,"lon":5.39411,"is_reserved":false,"is_disabled":false,"rental_uris":{"android":"levelo://app?vid=a0a49ffa-0757-4887-91cc-e37ceddabe98","ios":"levelo://app?vid=a0a49ffa-0757-4887-91cc-e37ceddabe98"},"vehicle_type_id":"4","last_reported":1760890261,"current_range_meters":18000,"station_id":"ce4bhh12rcd13ifvqfg0","pricing_plan_id":"cebpf4jnsgd1na2vs0mg"},{"bike_id":"d6318f9e-0184-4ff6-931a-ee0c5a28c2b7","system_id":"levelo_inurba_marseille","lat":43.232037,"lon":5.355704,"is_reserved":false,"is_disabled":false,"rental_uris":{"android":"levelo://app?vid=d6318f9e-0184-4ff6-931a-ee0c5a28c2b7","ios":"levelo://app?vid=d6318f9e-0184-4ff6-931a-ee0c5a28c2b7"},"vehicle_type_id":"4","last_reported":1760890261,"current_range_meters":18000,"station_id":"ce4bhu92rcd13ifvqi70","pricing_plan_id":"cebpf4jnsgd1na2vs0mg"},{"bike_id":"f6bcfd0e-b247-4a30-9443-2755b83baa73","system_id":"levelo_inurba_marseille","lat":43.28173,"lon":5.42652,"is_reserved":false,"is_disabled":false,"rental_uris":{"android":"levelo://app?vid=f6bcfd0e-b247-4a30-9443-2755b83baa73","ios":"levelo://app?vid=f6bcfd0e-b247-4a30-9443-2755b83baa73"},"vehicle_type_id":"4","last_reported":1760890261,"current_range_meters":18000,"station_id":"ce4bhnh2rcd13ifvqgug","pricing_plan_id":"cebpf4jnsgd1na2vs0mg"},{"bike_id":"b2616a8b-6916-4b87-9f53-cf57b2b43b03","system_id":"levelo_inurba_marseille","lat":43.2797,"lon":5.38724,"is_reserved":false,"is_disabled":false,"rental_uris":{"android":"levelo://app?vid=b2616a8b-6916-4b87-9f53-cf57b2b43b03","ios":"levelo://app?vid=b2616a8b-6916-4b87-9f53-cf57b2b43b03"},"vehicle_type_id":"4","last_reported":1760890261,"current_range_meters":18000,"station_id":"ce4bhg12rcd13ifvqf80","pricing_plan_id":"cebpf4jnsgd1na2vs0mg"},{"bike_id":"44def8bb-fc22-46bb-a308-b8e670ec5dfd","system_id":"levelo_inurba_marseille","lat":43.30131,"lon":5.37428,"is_reserved":false,"is_disabled":true,"rental_uris":{"android":"levelo://app?vid=44def8bb-fc22-46bb-a308-b8e670ec5dfd","ios":"levelo://app?vid=44def8bb-fc22-46bb-a308-b8e670ec5dfd"},"vehicle_type_id":"4","last_reported":1760890261,"current_range_meters":18000,"station_id":"ce4bgs92rcd13ifvqcc0","pricing_plan_id":"cebpf4jnsgd1na2vs0mg"},{"bike_id":"0fe33563-3343-4763-9ff4-8cb4bd0c9359","system_id":"levelo_inurba_marseille","lat":43.3092,"lon":5.40149,"is_reserved":false,"is_disabled":false,"rental_uris":{"android":"levelo://app?vid=0fe33563-3343-4763-9ff4-8cb4bd0c9359","ios":"levelo://app?vid=0fe33563-3343-4763-9ff4-8cb4bd0c9359"},"vehicle_type_id":"4","last_reported":1760890261,"current_range_meters":18000,"station_id":"ce4bgvp2rcd13ifvqct0","pricing_plan_id":"cebpf4jnsgd1na2vs0mg"},{"bike_id":"793bd619-12af-4bc1-a674-b70d86b415bd","system_id":"levelo_inurba_marseille","lat":43.331387,"lon":5.391298,"is_reserved":false,"is_disabled":false,"rental_uris":{"android":"levelo://app?vid=793bd619-12af-4bc1-a674-b70d86b415bd","ios":"levelo://app?vid=793bd619-12af-4bc1-a674-b70d86b415bd"},"vehicle_type_id":"4","last_reported":1760890261,"current_range_meters":18000,"station_id":"","pricing_plan_id":"cebpf4jnsgd1na2vs0mg"},{"bike_id":"72e89441-8e29-444d-9d5d-0e8f916313b4","system_id":"levelo_inurba_marseille","lat":43.28356,"lon":5.38104,"is_reserved":false,"is_disabled":false,"rental_uris":{"android":"levelo://app?vid=72e89441-8e29-444d-9d5d-0e8f916313b4","ios":"levelo://app?vid=72e89441-8e29-444d-9d5d-0e8f916313b4"},"vehicle_type_id":"4","last_reported":1760890261,"current_range_meters":18800,"station_id":"ce4bh412rcd13ifvqdr0","pricing_plan_id":"cebpf4jnsgd1na2vs0mg"},{"bike_id":"81fee18c-da25-4715-ae44-9f4e3a7b4702","system_id":"levelo_inurba_marseille","lat":43.28405,"lon":5.3495,"is_reserved":false,"is_disabled":false,"rental_uris":{"android":"levelo://app?vid=81fee18c-da25-4715-ae44-9f4e3a7b4702","ios":"levelo://app?vid=81fee18c-da25-4715-ae44-9f4e3a7b4702"},"vehicle_type_id":"4","last_reported":1760890261,"current_range_meters":18800,"station_id":"","pricing_plan_id":"cebpf4jnsgd1na2vs0mg"},{"bike_id":"5767cc7b-e609-46b6-a9f9-bb84446076db","system_id":"levelo_inurba_marseille","lat":43.2843,"lon":5.35042,"is_reserved":false,"is_disabled":true,"rental_uris":{"android":"levelo://app?vid=5767cc7b-e609-46b6-a9f9-bb84446076db","ios":"levelo://app?vid=5767cc7b-e609-46b6-a9f9-bb84446076db"},"vehicle_type_id":"4","last_reported":1760890261,"current_range_meters":18800,"station_id":"","pricing_plan_id":"cebpf4jnsgd1na2vs0mg"},{"bike_id":"2e7fa235-6378-4ac8-9620-87ac56f337a8","system_id":"levelo_inurba_marseille","lat":43.24647,"lon":5.38898,"is_reserved":false,"is_disabled":false,"rental_uris":{"android":"levelo://app?vid=2e7fa235-6378-4ac8-9620-87ac56f337a8","ios":"levelo://app?vid=2e7fa235-6378-4ac8-9620-87ac56f337a8"},"vehicle_type_id":"4","last_reported":1760890261,"current_range_meters":18800,"station_id":"ce4bhg12rcd13ifvqf60","pricing_plan_id":"cebpf4jnsgd1na2vs0mg"},{"bike_id":"1ebdec84-ada6-4b3d-a421-2e4faed1dea2","system_id":"levelo_inurba_marseille","lat":43.21754,"lon":5.34596,"is_reserved":false,"is_disabled":false,"rental_uris":{"android":"levelo://app?vid=1ebdec84-ada6-4b3d-a421-2e4faed1dea2","ios":"levelo://app?vid=1ebdec84-ada6-4b3d-a421-2e4faed1dea2"},"vehicle_type_id":"4","last_reported":1760890261,"current_range_meters":18800,"station_id":"st_cvj6r9ubvosntc0bgbag","pricing_plan_id":"cebpf4jnsgd1na2vs0mg"},{"bike_id":"6c206aa2-106d-49fe-9c0d-86bfcc181636","system_id":"levelo_inurba_marseille","lat":43.267893,"lon":5.395323,"is_reserved":false,"is_disabled":false,"rental_uris":{"android":"levelo://app?vid=6c206aa2-106d-49fe-9c0d-86bfcc181636","ios":"levelo://app?vid=6c206aa2-106d-49fe-9c0d-86bfcc181636"},"vehicle_type_id":"4","last_reported":1760890261,"current_range_meters":18800,"station_id":"ce4bhh12rcd13ifvqfg0","pricing_plan_id":"cebpf4jnsgd1na2vs0mg"},{"bike_id":"2eb095a2-339f-4544-92ea-940c11811c17","system_id":"levelo_inurba_marseille","lat":43.24387,"lon":5.37059,"is_reserved":false,"is_disabled":false,"rental_uris":{"android":"levelo://app?vid=2eb095a2-339f-4544-92ea-940c11811c17","ios":"levelo://app?vid=2eb095a2-339f-4544-92ea-940c11811c17"},"vehicle_type_id":"4","last_reported":1760890261,"current_range_meters":19200,"station_id":"ce4bhhh2rcd13ifvqfk0","pricing_plan_id":"cebpf4jnsgd1na2vs0mg"},{"bike_id":"06c84d1b-6e81-4ab2-ab43-e166647822bc","system_id":"levelo_inurba_marseille","lat":43.28919,"lon":5.36861,"is_reserved":false,"is_disabled":false,"rental_uris":{"android":"levelo://app?vid=06c84d1b-6e81-4ab2-ab43-e166647822bc","ios":"levelo://app?vid=06c84d1b-6e81-4ab2-ab43-e166647822bc"},"vehicle_type_id":"4","last_reported":1760890261,"current_range_meters":19200,"station_id":"","pricing_plan_id":"cebpf4jnsgd1na2vs0mg"},{"bike_id":"d80a8315-5108-453f-a407-278f47d1bb18","system_id":"levelo_inurba_marseille","lat":43.23199,"lon":5.35551,"is_reserved":false,"is_disabled":false,"rental_uris":{"android":"levelo://app?vid=d80a8315-5108-453f-a407-278f47d1bb18","ios":"levelo://app?vid=d80a8315-5108-453f-a407-278f47d1bb18"},"vehicle_type_id":"4","last_reported":1760890261,"current_range_meters":19200,"station_id":"ce4bhu92rcd13ifvqi70","pricing_plan_id":"cebpf4jnsgd1na2vs0mg"},{"bike_id":"9953bb32-6d68-488a-9e42-24a31e2ab81f","system_id":"levelo_inurba_marseille","lat":43.31525,"lon":5.38034,"is_reserved":false,"is_disabled":false,"rental_uris":{"android":"levelo://app?vid=9953bb32-6d68-488a-9e42-24a31e2ab81f","ios":"levelo://app?vid=9953bb32-6d68-488a-9e42-24a31e2ab81f"},"vehicle_type_id":"4","last_reported":1760890261,"current_range_meters":19200,"station_id":"ce4bhsp2rcd13ifvqi50","pricing_plan_id":"cebpf4jnsgd1na2vs0mg"},{"bike_id":"490c187a-0098-44bd-9010-902ebf6f6ea9","system_id":"levelo_inurba_marseille","lat":43.2824,"lon":5.35108,"is_reserved":false,"is_disabled":true,"rental_uris":{"android":"levelo://app?vid=490c187a-0098-44bd-9010-902ebf6f6ea9","ios":"levelo://app?vid=490c187a-0098-44bd-9010-902ebf6f6ea9"},"vehicle_type_id":"4","last_reported":1760890261,"current_range_meters":19200,"station_id":"","pricing_plan_id":"cebpf4jnsgd1na2vs0mg"},{"bike_id":"12759272-9ae9-4531-88bf-492c68a538d1","system_id":"levelo_inurba_marseille","lat":43.30533,"lon":5.38443,"is_reserved":false,"is_disabled":true,"rental_uris":{"android":"levelo://app?vid=12759272-9ae9-4531-88bf-492c68a538d1","ios":"levelo://app?vid=12759272-9ae9-4531-88bf-492c68a538d1"},"vehicle_type_id":"4","last_reported":1760890261,"current_range_meters":19200,"station_id":"ce4bgg92rcd13ifvqb30","pricing_plan_id":"cebpf4jnsgd1na2vs0mg"},{"bike_id":"2932107a-5cb1-46fb-916f-70ea70a520ec","system_id":"levelo_inurba_marseille","lat":43.30884,"lon":5.37193,"is_reserved":false,"is_disabled":false,"rental_uris":{"android":"levelo://app?vid=2932107a-5cb1-46fb-916f-70ea70a520ec","ios":"levelo://app?vid=2932107a-5cb1-46fb-916f-70ea70a520ec"},"vehicle_type_id":"4","last_reported":1760890261,"current_range_meters":19200,"station_id":"ce4bguh2rcd13ifvqckg","pricing_plan_id":"cebpf4jnsgd1na2vs0mg"},{"bike_id":"8758806c-a775-4e20-b8bd-1fb9bd76f1c5","system_id":"levelo_inurba_marseille","lat":43.296666,"lon":5.387036,"is_reserved":false,"is_disabled":false,"rental_uris":{"android":"levelo://app?vid=8758806c-a775-4e20-b8bd-1fb9bd76f1c5","ios":"levelo://app?vid=8758806c-a775-4e20-b8bd-1fb9bd76f1c5"},"vehicle_type_id":"4","last_reported":1760890261,"current_range_meters":19200,"station_id":"","pricing_plan_id":"cebpf4jnsgd1na2vs0mg"},{"bike_id":"5b727575-fd4d-4995-91c2-a5a9f0907577","system_id":"levelo_inurba_marseille","lat":43.29042,"lon":5.37172,"is_reserved":false,"is_disabled":true,"rental_uris":{"android":"levelo://app?vid=5b727575-fd4d-4995-91c2-a5a9f0907577","ios":"levelo://app?vid=5b727575-fd4d-4995-91c2-a5a9f0907577"},"vehicle_type_id":"4","last_reported":1760890261,"current_range_meters":19200,"station_id":"ce4bh5p2rcd13ifvqe4g","pricing_plan_id":"cebpf4jnsgd1na2vs0mg"},{"bike_id":"2ab235ce-ce1c-4e5a-b8f7-e903ac97becc","system_id":"levelo_inurba_marseille","lat":43.33491,"lon":5.39987,"is_reserved":false,"is_disabled":false,"rental_uris":{"android":"levelo://app?vid=2ab235ce-ce1c-4e5a-b8f7-e903ac97becc","ios":"levelo://app?vid=2ab235ce-ce1c-4e5a-b8f7-e903ac97becc"},"vehicle_type_id":"4","last_reported":1760890261,"current_range_meters":19200,"station_id":"","pricing_plan_id":"cebpf4jnsgd1na2vs0mg"},{"bike_id":"7c17414e-8e88-4f7f-ac02-97af77d97ec0","system_id":"levelo_inurba_marseille","lat":43.30558,"lon":5.36527,"is_reserved":false,"is_disabled":false,"rental_uris":{"android":"levelo://app?vid=7c17414e-8e88-4f7f-ac02-97af77d97ec0","ios":"levelo://app?vid=7c17414e-8e88-4f7f-ac02-97af77d97ec0"},"vehicle_type_id":"4","last_reported":1760890261,"current_range_meters":19600,"station_id":"ce4bgs12rcd13ifvqcag","pricing_plan_id":"cebpf4jnsgd1na2vs0mg"},