{"last_updated":1730214611,"ttl":60,"version":"2.2","data":{"bikes":[{"bike_id":"fc4cfc25-2244-4da2-a0a9-883dc7359735","system_id":"levelo_inurba_marseille","lat":43.25502,"lon":5.37654,"is_reserved":false,"is_disabled":false,"rental_uris":{"android":"levelo://app?vid=fc4cfc25-2244-4da2-a0a9-883dc7359735","ios":"levelo://app?vid=fc4cfc25-2244-4da2-a0a9-883dc7359735"},"vehicle_type_id":"4","last_reported":1730214611,"current_range_meters":6000,"station_id":"ce4bhh12rcd13ifvqff0","pricing_plan_id":"cebpf4jnsgd1na2vs0mg"},{"bike_id":"4cdd7381-e572-482a-a52b-be4fdd526a9c","system_id":"levelo_inurba_marseille","lat":43.29849,"lon":5.36283,"is_reserved":false,"is_disabled":false,"rental_uris":{"android":"levelo://app?vid=4cdd7381-e572-482a-a52b-be4fdd526a9c","ios":"levelo://app?vid=4cdd7381-e572-482a-a52b-be4fdd526a9c"},"vehicle_type_id":"4","last_reported":1730214611,"current_range_meters":24400,"station_id":"ce4bhah2rcd13ifvqei0","pricing_plan_id":"cebpf4jnsgd1na2vs0mg"},{"bike_id":"6daefb7d-890b-4927-bca4-1e9b57c2727d","system_id":"levelo_inurba_marseille","lat":43.27179,"lon":5.40996,"is_reserved":false,"is_disabled":false,"rental_uris":{"android":"levelo://app?vid=6daefb7d-890b-4927-bca4-1e9b57c2727d","ios":"levelo://app?vid=6daefb7d-890b-4927-bca4-1e9b57c2727d"},"vehicle_type_id":"4","last_reported":1730214611,"current_range_meters":7200,"station_id":"ce4bhl12rcd13ifvqgf0","pricing_plan_id":"cebpf4jnsgd1na2vs0mg"},{"bike_id":"7728c6cd-92bf-48f0-9848-309e67c38641","system_id":"levelo_inurba_marseille","lat":43.322931,"lon":5.382786,"is_reserved":false,"is_disabled":false,"rental_uris":{"android":"levelo://app?vid=7728c6cd-92bf-48f0-9848-309e67c38641","ios":"levelo://app?vid=7728c6cd-92bf-48f0-9848-309e67c38641"},"vehicle_type_id":"4","last_reported":1730214611,"current_range_meters":38800,"station_id":"ce4bhr12rcd13ifvqhqg","pricing_plan_id":"cebpf4jnsgd1na2vs0mg"},{"bike_id":"7019b8ca-f923-42f4-b767-30d6c2983305","system_id":"levelo_inurba_marseille","lat":43.25106,"lon":5.40319,"is_reserved":false,"is_disabled":false,"rental_uris":{"android":"levelo://app?vid=7019b8ca-f923-42f4-b767-30d6c2983305","ios":"levelo://app?vid=7019b8ca-f923-42f4-b767-30d6c2983305"},"vehicle_type_id":"4","last_reported":1730214611,"current_range_meters":38800,"station_id":"ce4bhlh2rcd13ifvqgig","pricing_plan_id":"cebpf4jnsgd1na2vs0mg"},{"bike_id":"9cd28ed1-51d4-469f-80b1-db1aa7224fd9","system_id":"levelo_inurba_marseille","lat":43.31887,"lon":5.40754,"is_reserved":false,"is_disabled":false,"rental_uris":{"android":"levelo://app?vid=9cd28ed1-51d4-469f-80b1-db1aa7224fd9","ios":"levelo://app?vid=9cd28ed1-51d4-469f-80b1-db1aa7224fd9"},"vehicle_type_id":"4","last_reported":1730214611,"current_range_meters":34800,"station_id":"ce4bhq12rcd13ifvqhig","pricing_plan_id":"cebpf4jnsgd1na2vs0mg"},{"bike_id":"6ddbadf9-ebcf-4326-8784-8e17c67abcb9","system_id":"levelo_inurba_marseille","lat":43.28927,"lon":5.36615,"is_reserved":false,"is_disabled":false,"rental_uris":{"android":"levelo://app?vid=6ddbadf9-ebcf-4326-8784-8e17c67abcb9","ios":"levelo://app?vid=6ddbadf9-ebcf-4326-8784-8e17c67abcb9"},"vehicle_type_id":"4","last_reported":1730214611,"current_range_meters":37600,"station_id":"ce4bhap2rcd13ifvqek0","pricing_plan_id":"cebpf4jnsgd1na2vs0mg"},{"bike_id":"4e50de48-fa77-4210-971d-04a9ead02ba3","system_id":"levelo_inurba_marseille","lat":43.29064,"lon":5.37156,"is_reserved":false,"is_disabled":false,"rental_uris":{"android":"levelo://app?vid=4e50de48-fa77-4210-971d-04a9ead02ba3","ios":"levelo://app?vid=4e50de48-fa77-4210-971d-04a9ead02ba3"},"vehicle_type_id":"4","last_reported":1730214611,"current_range_meters":30400,"station_id":"ce4bh5p2rcd13ifvqe4g","pricing_plan_id":"cebpf4jnsgd1na2vs0mg"},{"bike_id":"62c7e5a0-66c0-47ee-b181-1ce7d8b0d22b","system_id":"levelo_inurba_marseille","lat":43.31338,"lon":5.36726,"is_reserved":false,"is_disabled":false,"rental_uris":{"android":"levelo://app?vid=62c7e5a0-66c0-47ee-b181-1ce7d8b0d22b","ios":"levelo://app?vid=62c7e5a0-66c0-47ee-b181-1ce7d8b0d22b"},"vehicle_type_id":"4","last_reported":1730214611,"current_range_meters":38800,"station_id":"ce4bgr92rcd13ifvqc6g","pricing_plan_id":"cebpf4jnsgd1na2vs0mg"},{"bike_id":"2ff4baeb-ce25-4f68-a95d-e890d02f6273","system_id":"levelo_inurba_marseille","lat":43.267456,"lon":5.394166,"is_reserved":false,"is_disabled":false,"rental_uris":{"android":"levelo://app?vid=2ff4baeb-ce25-4f68-a95d-e890d02f6273","ios":"levelo://app?vid=2ff4baeb-ce25-4f68-a95d-e890d02f6273"},"vehicle_type_id":"4","last_reported":1730214611,"current_range_meters":13600,"station_id":"ce4bhh12rcd13ifvqfg0","pricing_plan_id":"cebpf4jnsgd1na2vs0mg"},{"bike_id":"aec98abc-03ce-4c7d-9eb4-606b5fbe9ef4","system_id":"levelo_inurba_marseille","lat":43.31327,"lon":5.39692,"is_reserved":false,"is_disabled":false,"rental_uris":{"android":"levelo://app?vid=aec98abc-03ce-4c7d-9eb4-606b5fbe9ef4","ios":"levelo://app?vid=aec98abc-03ce-4c7d-9eb4-606b5fbe9ef4"},"vehicle_type_id":"4","last_reported":1730214611,"current_range_meters":8000,"station_id":"ce4bgvp2rcd13ifvqcu0","pricing_plan_id":"cebpf4jnsgd1na2vs0mg"},{"bike_id":"4efc610e-02b4-467c-acf9-9ee68f6b7bf5","system_id":"levelo_inurba_marseille","lat":43.23194,"lon":5.35549,"is_reserved":false,"is_disabled":false,"rental_uris":{"android":"levelo://app?vid=4efc610e-02b4-467c-acf9-9ee68f6b7bf5","ios":"levelo://app?vid=4efc610e-02b4-467c-acf9-9ee68f6b7bf5"},"vehicle_type_id":"4","last_reported":1730214611,"current_range_meters":39200,"station_id":"ce4bhu92rcd13ifvqi70","pricing_plan_id":"cebpf4jnsgd1na2vs0mg"},{"bike_id":"960d455d-56ea-41f6-9c69-d1294353e87b","system_id":"levelo_inurba_marseille","lat":43.32479,"lon":5.36558,"is_reserved":false,"is_disabled":false,"rental_uris":{"android":"levelo://app?vid=960d455d-56ea-41f6-9c69-d1294353e87b","ios":"levelo://app?vid=960d455d-56ea-41f6-9c69-d1294353e87b"},"vehicle_type_id":"4","last_reported":1730214611,"current_range_meters":28400,"station_id":"ce4bhs12rcd13ifvqhvg","pricing_plan_id":"cebpf4jnsgd1na2vs0mg"},{"bike_id":"804cc615-a02d-4c64-a1df-0bd9971d6ffe","system_id":"levelo_inurba_marseille","lat":43.2827,"lon":5.35061,"is_reserved":false,"is_disabled":false,"rental_uris":{"android":"levelo://app?vid=804cc615-a02d-4c64-a1df-0bd9971d6ffe","ios":"levelo://app?vid=804cc615-a02d-4c64-a1df-0bd9971d6ffe"},"vehicle_type_id":"4","last_reported":1730214611,"current_range_meters":30800,"station_id":"ce4bhbp2rcd13ifvqerg","pricing_plan_id":"cebpf4jnsgd1na2vs0mg"},{"bike_id":"14f5f195-09a8-4d63-9e89-720e4754fc70","system_id":"levelo_inurba_marseille","lat":43.33021,"lon":5.3904,"is_reserved":false,"is_disabled":false,"rental_uris":{"android":"levelo://app?vid=14f5f195-09a8-4d63-9e89-720e4754fc70","ios":"levelo://app?vid=14f5f195-09a8-4d63-9e89-720e4754fc70"},"vehicle_type_id":"4","last_reported":1730214611,"current_range_meters":38800,"station_id":"ce4bhr92rcd13ifvqhrg","pricing_plan_id":"cebpf4jnsgd1na2vs0mg"},{"bike_id":"32575b86-9b07-4257-b684-9bcb660d5c42","system_id":"levelo_inurba_marseille","lat":43.22926,"lon":5.35381,"is_reserved":false,"is_disabled":false,"rental_uris":{"android":"levelo://app?vid=32575b86-9b07-4257-b684-9bcb660d5c42","ios":"levelo://app?vid=32575b86-9b07-4257-b684-9bcb660d5c42"},"vehicle_type_id":"4","last_reported":1730214611,"current_range_meters":6000,"station_id":"cpo3532slgdg3j2ikp40","pricing_plan_id":"cebpf4jnsgd1na2vs0mg"},{"bike_id":"59f89277-b7b1-4d6c-9727-829e3a8aa8f6","system_id":"levelo_inurba_marseille","lat":43.28269,"lon":5.35061,"is_reserved":false,"is_disabled":false,"rental_uris":{"android":"levelo://app?vid=59f89277-b7b1-4d6c-9727-829e3a8aa8f6","ios":"levelo://app?vid=59f89277-b7b1-4d6c-9727-829e3a8aa8f6"},"vehicle_type_id":"4","last_reported":1730214611,"current_range_meters":12400,"station_id":"ce4bhbp2rcd13ifvqerg","pricing_plan_id":"cebpf4jnsgd1na2vs0mg"},{"bike_id":"5804f936-583b-4b68-b2a4-22636bf47281","system_id":"levelo_inurba_marseille","lat":43.29602,"lon":5.38108,"is_reserved":false,"is_disabled":false,"rental_uris":{"android":"levelo://app?vid=5804f936-583b-4b68-b2a4-22636bf47281","ios":"levelo://app?vid=5804f936-583b-4b68-b2a4-22636bf47281"},"vehicle_type_id":"4","last_reported":1730214611,"current_range_meters":33200,"station_id":"ce4bgl12rcd13ifvqbo0","pricing_plan_id":"cebpf4jnsgd1na2vs0mg"},{"bike_id":"12362f7f-0e04-4673-b7bd-783f7168855b","system_id":"levelo_inurba_marseille","lat":43.28445,"lon":5.3921,"is_reserved":false,"is_disabled":false,"rental_uris":{"android":"levelo://app?vid=12362f7f-0e04-4673-b7bd-783f7168855b","ios":"levelo://app?vid=12362f7f-0e04-4673-b7bd-783f7168855b"},"vehicle_type_id":"4","last_reported":1730214611,"current_range_meters":36000,"station_id":"ce4bhoh2rcd13ifvqh5g","pricing_plan_id":"cebpf4jnsgd1na2vs0mg"},{"bike_id":"d8345d1e-36d0-463c-aadb-d17da6d61802","system_id":"levelo_inurba_marseille","lat":43.26566,"lon":5.39005,"is_reserved":false,"is_disabled":false,"rental_uris":{"android":"levelo://app?vid=d8345d1e-36d0-463c-aadb-d17da6d61802","ios":"levelo://app?vid=d8345d1e-36d0-463c-aadb-d17da6d61802"},"vehicle_type_id":"4","last_reported":1730214611,"current_range_meters":35200,"station_id":"ce4bhe12rcd13ifvqf30","pricing_plan_id":"cebpf4jnsgd1na2vs0mg"},{"bike_id":"302022bf-08af-4193-b5d5-afe2b4d26977","system_id":"levelo_inurba_marseille","lat":43.25114,"lon":5.40329,"is_reserved":false,"is_disabled":false,"rental_uris":{"android":"levelo://app?vid=302022bf-08af-4193-b5d5-afe2b4d26977","ios":"levelo://app?vid=302022bf-08af-4193-b5d5-afe2b4d26977"},"vehicle_type_id":"4","last_reported":1730214611,"current_range_meters":39200,"station_id":"ce4bhlh2rcd13ifvqgig","pricing_plan_id":"cebpf4jnsgd1na2vs0mg"},{"bike_id":"94f08dc5-f9cf-426a-8416-f5114492ac69","system_id":"levelo_inurba_marseille","lat":43.24656,"lon":5.38163,"is_reserved":false,"is_disabled":false,"rental_uris":{"android":"levelo://app?vid=94f08dc5-f9cf-426a-8416-f5114492ac69","ios":"levelo://app?vid=94f08dc5-f9cf-426a-8416-f5114492ac69"},"vehicle_type_id":"4","last_reported":1730214611,"current_range_meters":26000,"station_id":"ce4bhih2rcd13ifvqfr0","pricing_plan_id":"cebpf4jnsgd1na2vs0mg"},{"bike_id":"3da962cf-d5a5-4928-9dd3-6dee9bd916c1","system_id":"levelo_inurba_marseille","lat":43.26562,"lon":5.39015,"is_reserved":false,"is_disabled":false,"rental_uris":{"android":"levelo://app?vid=3da962cf-d5a5-4928-9dd3-6dee9bd916c1","ios":"levelo://app?vid=3da962cf-d5a5-4928-9dd3-6dee9bd916c1"},"vehicle_type_id":"4","last_reported":1730214611,"current_range_meters":17200,"station_id":"ce4bhe12rcd13ifvqf30","pricing_plan_id":"cebpf4jnsgd1na2vs0mg"},{"bike_id":"4f3281e8-1a78-4c1e-b83a-b01b042e91bc","system_id":"levelo_inurba_marseille","lat":43.27052,"lon":5.40271,"is_reserved":false,"is_disabled":false,"rental_uris":{"android":"levelo://app?vid=4f3281e8-1a78-4c1e-b83a-b01b042e91bc","ios":"levelo://app?vid=4f3281e8-1a78-4c1e-b83a-b01b042e91bc"},"vehicle_type_id":"4","last_reported":1730214611,"current_range_meters":36400,"station_id":"ce4bhk92rcd13ifvqgc0","pricing_plan_id":"cebpf4jnsgd1na2vs0mg"},{"bike_id":"00b8058d-d88d-4901-9639-f0b7df42c321","system_id":"levelo_inurba_marseille","lat":43.29785,"lon":5.39359,"is_reserved":false,"is_disabled":false,"rental_uris":{"android":"levelo://app?vid=00b8058d-d88d-4901-9639-f0b7df42c321","ios":"levelo://app?vid=00b8058d-d88d-4901-9639-f0b7df42c321"},"vehicle_type_id":"4","last_reported":1730214611,"current_range_meters":12400,"station_id":"chh1huq6cuj3fo74tm60","pricing_plan_id":"cebpf4jnsgd1na2vs0mg"},{"bike_id":"bdf63b9f-8930-45e7-8177-b607568d23e7","system_id":"levelo_inurba_marseille","lat":43.30536,"lon":5.36703,"is_reserved":false,"is_disabled":false,"rental_uris":{"android":"levelo://app?vid=bdf63b9f-8930-45e7-8177-b607568d23e7","ios":"levelo://app?vid=bdf63b9f-8930-45e7-8177-b607568d23e7"},"vehicle_type_id":"4","last_reported":1730214611,"current_range_meters":38000,"station_id":"ce4bgrp2rcd13ifvqc9g","pricing_plan_id":"cebpf4jnsgd1na2vs0mg"},{"bike_id":"8897d205-66a5-4afc-b22b-cefc8ff949a9","system_id":"levelo_inurba_marseille","lat":43.28408,"lon":5.34989,"is_reserved":false,"is_disabled":false,"rental_uris":{"android":"levelo://app?vid=8897d205-66a5-4afc-b22b-cefc8ff949a9","ios":"levelo://app?vid=8897d205-66a5-4afc-b22b-cefc8ff949a9"},"vehicle_type_id":"4","last_reported":1730214611,"current_range_meters":38400,"station_id":"ce4bhbh2rcd13ifvqepg","pricing_plan_id":"cebpf4jnsgd1na2vs0mg"},{"bike_id":"1bb3e8e7-205b-480e-a0aa-e5b795b9b07f","system_id":"levelo_inurba_marseille","lat":43.30432,"lon":5.38899,"is_reserved":false,"is_disabled":false,"rental_uris":{"android":"levelo://app?vid=1bb3e8e7-205b-480e-a0aa-e5b795b9b07f","ios":"levelo://app?vid=1bb3e8e7-205b-480e-a0aa-e5b795b9b07f"},"vehicle_type_id":"4","last_reported":1730214611,"current_range_meters":33200,"station_id":"ce4bgk12rcd13ifvqbi0","pricing_plan_id":"cebpf4jnsgd1na2vs0mg"},{"bike_id":"07712557-afe2-4fcb-bede-bf1437221761","system_id":"levelo_inurba_marseille","lat":43.27975,"lon":5.38725,"is_reserved":false,"is_disabled":false,"rental_uris":{"android":"levelo://app?vid=07712557-afe2-4fcb-bede-bf1437221761","ios":"levelo://app?vid=07712557-afe2-4fcb-bede-bf1437221761"},"vehicle_type_id":"4","last_reported":1730214611,"current_range_meters":4400,"station_id":"ce4bhg12rcd13ifvqf80","pricing_plan_id":"cebpf4jnsgd1na2vs0mg"},{"bike_id":"43572755-b727-4774-9c65-aa5557cadcb0","system_id":"levelo_inurba_marseille","lat":43.28262,"lon":5.35072,"is_reserved":false,"is_disabled":false,"rental_uris":{"android":"levelo://app?vid=43572755-b727-4774-9c65-aa5557cadcb0","ios":"levelo://app?vid=43572755-b727-4774-9c65-aa5557cadcb0"},"vehicle_type_id":"4","last_reported":1730214611,"current_range_meters":6000,"station_id":"ce4bhbp2rcd13ifvqerg","pricing_plan_id":"cebpf4jnsgd1na2vs0mg"},{"bike_id":"858640ff-e047-44b5-823e-f389284c5f52","system_id":"levelo_inurba_marseille","lat":43.28411,"lon":5.34985,"is_reserved":false,"is_disabled":false,"rental_uris":{"android":"levelo://app?vid=858640ff-e047-44b5-823e-f389284c5f52","ios":"levelo://app?vid=858640ff-e047-44b5-823e-f389284c5f52"},"vehicle_type_id":"4","last_reported":1730214611,"current_range_meters":19600,"station_id":"ce4bhbh2rcd13ifvqepg","pricing_plan_id":"cebpf4jnsgd1na2vs0mg"},{"bike_id":"9e5abfe9-4543-4f3e-bc0d-f91fc87d6fa2","system_id":"levelo_inurba_marseille","lat":43.29303,"lon":5.37184,"is_reserved":false,"is_disabled":false,"rental_uris":{"android":"levelo://app?vid=9e5abfe9-4543-4f3e-bc0d-f91fc87d6fa2","ios":"levelo://app?vid=9e5abfe9-4543-4f3e-bc0d-f91fc87d6fa2"},"vehicle_type_id":"4","last_reported":1730214611,"current_range_meters":36400,"station_id":"ce4bgh92rcd13ifvqb40","pricing_plan_id":"cebpf4jnsgd1na2vs0mg"},{"bike_id":"202fad19-a7ec-44cc-8f11-3ef2dd1cdd83","system_id":"levelo_inurba_marseille","lat":43.29275,"lon":5.36842,"is_reserved":false,"is_disabled":false,"rental_uris":{"android":"levelo://app?vid=202fad19-a7ec-44cc-8f11-3ef2dd1cdd83","ios":"levelo://app?vid=202fad19-a7ec-44cc-8f11-3ef2dd1cdd83"},"vehicle_type_id":"4","last_reported":1730214611,"current_range_meters":36800,"station_id":"ce4bhbp2rcd13ifvqesg","pricing_plan_id":"cebpf4jnsgd1na2vs0mg"},{"bike_id":"1a01e51f-80b9-45b2-8546-6f6668da116a","system_id":"levelo_inurba_marseille","lat":43.25941,"lon":5.40906,"is_reserved":false,"is_disabled":false,"rental_uris":{"android":"levelo://app?vid=1a01e51f-80b9-45b2-8546-6f6668da116a","ios":"levelo://app?vid=1a01e51f-80b9-45b2-8546-6f6668da116a"},"vehicle_type_id":"4","last_reported":1730214611,"current_range_meters":33600,"station_id":"ce4bhm92rcd13ifvqglg","pricing_plan_id":"cebpf4jnsgd1na2vs0mg"},{"bike_id":"70bb78fe-4bef-4d56-a833-affc0bdfc9f3","system_id":"levelo_inurba_marseille","lat":43.23193,"lon":5.35558,"is_reserved":false,"is_disabled":false,"rental_uris":{"android":"levelo://app?vid=70bb78fe-4bef-4d56-a833-affc0bdfc9f3","ios":"levelo://app?vid=70bb78fe-4bef-4d56-a833-affc0bdfc9f3"},"vehicle_type_id":"4","last_reported":1730214611,"current_range_meters":38800,"station_id":"ce4bhu92rcd13ifvqi70","pricing_plan_id":"cebpf4jnsgd1na2vs0mg"},{"bike_id":"71ccd0c3-1db2-495c-82d7-78d91361ecd2","system_id":"levelo_inurba_marseille","lat":43.27953,"lon":5.41056,"is_reserved":false,"is_disabled":false,"rental_uris":{"android":"levelo://app?vid=71ccd0c3-1db2-495c-82d7-78d91361ecd2","ios":"levelo://app?vid=71ccd0c3-1db2-495c-82d7-78d91361ecd2"},"vehicle_type_id":"4","last_reported":1730214611,"current_range_meters":22400,"station_id":"ce4bhnp2rcd13ifvqh0g","pricing_plan_id":"cebpf4jnsgd1na2vs0mg"},{"bike_id":"9b469fe0-1f9d-44fb-a8f0-4760fea86ab4","system_id":"levelo_inurba_marseille","lat":43.26783,"lon":5.39411,"is_reserved":false,"is_disabled":false,"rental_uris":{"android":"levelo://app?vid=9b469fe0-1f9d-44fb-a8f0-4760fea86ab4","ios":"levelo://app?vid=9b469fe0-1f9d-44fb-a8f0-4760fea86ab4"},"vehicle_type_id":"4","last_reported":1730214611,"current_range_meters":8000,"station_id":"ce4bhh12rcd13ifvqfg0","pricing_plan_id":"cebpf4jnsgd1na2vs0mg"},{"bike_id":"90d697bc-068d-413e-800f-b3484db792fd","system_id":"levelo_inurba_marseille","lat":43.24547,"lon":5.39523,"is_reserved":false,"is_disabled":false,"rental_uris":{"android":"levelo://app?vid=90d697bc-068d-413e-800f-b3484db792fd","ios":"levelo://app?vid=90d697bc-068d-413e-800f-b3484db792fd"},"vehicle_type_id":"4","last_reported":1730214611,"current_range_meters":18800,"station_id":"ce4bhlp2rcd13ifvqgjg","pricing_plan_id":"cebpf4jnsgd1na2vs0mg"},{"bike_id":"865606fe-928d-47fe-a2d7-a38d14d1142c","system_id":"levelo_inurba_marseille","lat":43.29038,"lon":5.37567,"is_reserved":false,"is_disabled":false,"rental_uris":{"android":"levelo://app?vid=865606fe-928d-47fe-a2d7-a38d14d1142c","ios":"levelo://app?vid=865606fe-928d-47fe-a2d7-a38d14d1142c"},"vehicle_type_id":"4","last_reported":1730214611,"current_range_meters":29600,"station_id":"ce4bh692rcd13ifvqe90","pricing_plan_id":"cebpf4jnsgd1na2vs0mg"},{"bike_id":"53fad832-735e-461c-ba4d-84da5b13be3a","system_id":"levelo_inurba_marseille","lat":43.30254,"lon":5.40078,"is_reserved":false,"is_disabled":false,"rental_uris":{"android":"levelo://app?vid=53fad832-735e-461c-ba4d-84da5b13be3a","ios":"levelo://app?vid=53fad832-735e-461c-ba4d-84da5b13be3a"},"vehicle_type_id":"4","last_reported":1730214611,"current_range_meters":30400,"station_id":"ce4bgvh2rcd13ifvqcs0","pricing_plan_id":"cebpf4jnsgd1na2vs0mg"},{"bike_id":"3973ceb5-1b1a-46aa-be50-65b822965aae","system_id":"levelo_inurba_marseille","lat":43.25931,"lon":5.40907,"is_reserved":false,"is_disabled":false,"rental_uris":{"android":"levelo://app?vid=3973ceb5-1b1a-46aa-be50-65b822965aae","ios":"levelo://app?vid=3973ceb5-1b1a-46aa-be50-65b822965aae"},"vehicle_type_id":"4","last_reported":1730214611,"current_range_meters":19600,"station_id":"ce4bhm92rcd13ifvqglg","pricing_plan_id":"cebpf4jnsgd1na2vs0mg"},{"bike_id":"72c0855e-0769-4e67-8a16-8d67d3faa440","system_id":"levelo_inurba_marseille","lat":43.30463,"lon":5.37912,"is_reserved":false,"is_disabled":false,"rental_uris":{"android":"levelo://app?vid=72c0855e-0769-4e67-8a16-8d67d3faa440","ios":"levelo://app?vid=72c0855e-0769-4e67-8a16-8d67d3faa440"},"vehicle_type_id":"4","last_reported":1730214611,"current_range_meters":24800,"station_id":"ce4bgup2rcd13ifvqcn0","pricing_plan_id":"cebpf4jnsgd1na2vs0mg"},{"bike_id":"d6e16803-aee4-4948-94bd-e604d894a16c","system_id":"levelo_inurba_marseille","lat":43.2991,"lon":5.37466,"is_reserved":false,"is_disabled":false,"rental_uris":{"android":"levelo://app?vid=d6e16803-aee4-4948-94bd-e604d894a16c","ios":"levelo://app?vid=d6e16803-aee4-4948-94bd-e604d894a16c"},"vehicle_type_id":"4","last_reported":1730214611,"current_range_meters":26000,"station_id":"ce4bgjh2rcd13ifvqbg0","pricing_plan_id":"cebpf4jnsgd1na2vs0mg"},{"bike_id":"a83b7cb7-408c-4b69-8456-5c8de7e8214e","system_id":"levelo_inurba_marseille","lat":43.29191,"lon":5.35803,"is_reserved":false,"is_disabled":false,"rental_uris":{"android":"levelo://app?vid=a83b7cb7-408c-4b69-8456-5c8de7e8214e","ios":"levelo://app?vid=a83b7cb7-408c-4b69-8456-5c8de7e8214e"},"vehicle_type_id":"4","last_reported":1730214611,"current_range_meters":19200,"station_id":"ce4bhb12rcd13ifvqel0","pricing_plan_id":"cebpf4jnsgd1na2vs0mg"},{"bike_id":"1c36e968-b9ec-4e4e-a73e-52f85b4ded24","system_id":"levelo_inurba_marseille","lat":43.27183,"lon":5.40994,"is_reserved":false,"is_disabled":false,"rental_uris":{"android":"levelo://app?vid=1c36e968-b9ec-4e4e-a73e-52f85b4ded24","ios":"levelo://app?vid=1c36e968-b9ec-4e4e-a73e-52f85b4ded24"},"vehicle_type_id":"4","last_reported":1730214611,"current_range_meters":15200,"station_id":"ce4bhl12rcd13ifvqgf0","pricing_plan_id":"cebpf4jnsgd1na2vs0mg"},{"bike_id":"080c662f-8e31-4d70-bca9-cd0b943f9b15","system_id":"levelo_inurba_marseille","lat":43.33766,"lon":5.37455,"is_reserved":false,"is_disabled":false,"rental_uris":{"android":"levelo://app?vid=080c662f-8e31-4d70-bca9-cd0b943f9b15","ios":"levelo://app?vid=080c662f-8e31-4d70-bca9-cd0b943f9b15"},"vehicle_type_id":"4","last_reported":1730214611,"current_range_meters":38000,"station_id":"","pricing_plan_id":"cebpf4jnsgd1na2vs0mg"},{"bike_id":"e625ddd5-61d5-441a-98c0-2154f83f35ae","system_id":"levelo_inurba_marseille","lat":43.23063,"lon":5.35502,"is_reserved":false,"is_disabled":false,"rental_uris":{"android":"levelo://app?vid=e625ddd5-61d5-441a-98c0-2154f83f35ae","ios":"levelo://app?vid=e625ddd5-61d5-441a-98c0-2154f83f35ae"},"vehicle_type_id":"4","last_reported":1730214611,"current_range_meters":19600,"station_id":"cpo3342slgdg3j2ifvpg","pricing_plan_id":"cebpf4jnsgd1na2vs0mg"},{"bike_id":"f4df1b4f-d554-4143-bb93-845c7d8dc1a9","system_id":"levelo_inurba_marseille","lat":43.24998,"lon":5.38946,"is_reserved":false,"is_disabled":false,"rental_uris":{"android":"levelo://app?vid=f4df1b4f-d554-4143-bb93-845c7d8dc1a9","ios":"levelo://app?vid=f4df1b4f-d554-4143-bb93-845c7d8dc1a9"},"vehicle_type_id":"4","last_reported":1730214611,"current_range_meters":7200,"station_id":"ce4bhgp2rcd13ifvqfd0","pricing_plan_id":"cebpf4jnsgd1na2vs0mg"},{"bike_id":"6f544d1a-9b5f-4ccb-9e0e-067277a2a766","system_id":"levelo_inurba_marseille","lat":43.28262,"lon":5.35073,"is_reserved":false,"is_disabled":false,"rental_uris":{"android":"levelo://app?vid=6f544d1a-9b5f-4ccb-9e0e-067277a2a766","ios":"levelo://app?vid=6f544d1a-9b5f-4ccb-9e0e-067277a2a766"},"vehicle_type_id":"4","last_reported":1730214611,"current_range_meters":38000,"station_id":"ce4bhbp2rcd13ifvqerg","pricing_plan_id":"cebpf4jnsgd1na2vs0mg"},{"bike_id":"92adf987-4779-4b78-ad9c-8e29ab9175f3","system_id":"levelo_inurba_marseille","lat":43.23187,"lon":5.35557,"is_reserved":false,"is_disabled":false,"rental_uris":{"android":"levelo://app?vid=92adf987-4779-4b78-ad9c-8e29ab9175f3","ios":"levelo://app?vid=92adf987-4779-4b78-ad9c-8e29ab9175f3"},"vehicle_type_id":"4","last_reported":1730214611,"current_range_meters":18800,"station_id":"ce4bhu92rcd13ifvqi70","pricing_plan_id":"cebpf4jnsgd1na2vs0mg"},{"bike_id":"e83b9aaf-7885-495b-bd06-429bf1fa9c20","system_id":"levelo_inurba_marseille","lat":43.27566,"lon":5.38423,"is_reserved":false,"is_disabled":false,"rental_uris":{"android":"levelo://app?vid=e83b9aaf-7885-495b-bd06-429bf1fa9c20","ios":"levelo://app?vid=e83b9aaf-7885-495b-bd06-429bf1fa9c20"},"vehicle_type_id":"4","last_reported":1730214611,"current_range_meters":36400,"station_id":"ce4bhh92rcd13ifvqfi0","pricing_plan_id":"cebpf4jnsgd1na2vs0mg"},{"bike_id":"d1ef263a-d9a8-4b8b-b3a7-cb8ca46bc41b","system_id":"levelo_inurba_marseille","lat":43.27571,"lon":5.38426,"is_reserved":false,"is_disabled":false,"rental_uris":{"android":"levelo://app?vid=d1ef263a-d9a8-4b8b-b3a7-cb8ca46bc41b","ios":"levelo://app?vid=d1ef263a-d9a8-4b8b-b3a7-cb8ca46bc41b"},"vehicle_type_id":"4","last_reported":1730214611,"current_range_meters":37600,"station_id":"ce4bhh92rcd13ifvqfi0","pricing_plan_id":"cebpf4jnsgd1na2vs0mg"},{"bike_id":"bdd4b560-7456-474a-8d43-7d179515bc00","system_id":"levelo_inurba_marseille","lat":43.33763,"lon":5.37469,"is_reserved":false,"is_disabled":false,"rental_uris":{"android":"levelo://app?vid=bdd4b560-7456-474a-8d43-7d179515bc00","ios":"levelo://app?vid=bdd4b560-7456-474a-8d43-7d179515bc00"},"vehicle_type_id":"4","last_reported":1730214611,"current_range_meters":38400,"station_id":"","pricing_plan_id":"cebpf4jnsgd1na2vs0mg"},{"bike_id":"7784bfa9-11d0-4cfc-bd55-389d3a5d3691","system_id":"levelo_inurba_marseille","lat":43.23151,"lon":5.43713,"is_reserved":false,"is_disabled":false,"rental_uris":{"android":"levelo://app?vid=7784bfa9-11d0-4cfc-bd55-389d3a5d3691","ios":"levelo://app?vid=7784bfa9-11d0-4cfc-bd55-389d3a5d3691"},"vehicle_type_id":"4","last_reported":1730214611,"current_range_meters":6800,"station_id":"ce4bhmp2rcd13ifvqgog","pricing_plan_id":"cebpf4jnsgd1na2vs0mg"},{"bike_id":"57627425-e774-4c4d-85a5-0e26f6694313","system_id":"levelo_inurba_marseille","lat":43.27552,"lon":5.38404,"is_reserved":false,"is_disabled":false,"rental_uris":{"android":"levelo://app?vid=57627425-e774-4c4d-85a5-0e26f6694313","ios":"levelo://app?vid=57627425-e774-4c4d-85a5-0e26f6694313"},"vehicle_type_id":"4","last_reported":1730214611,"current_range_meters":6000,"station_id":"ce4bhh92rcd13ifvqfi0","pricing_plan_id":"cebpf4jnsgd1na2vs0mg"},{"bike_id":"eab9ecc7-9085-459c-a4cf-9ae2ae1a387d","system_id":"levelo_inurba_marseille","lat":43.28264,"lon":5.35075,"is_reserved":false,"is_disabled":false,"rental_uris":{"android":"levelo://app?vid=eab9ecc7-9085-459c-a4cf-9ae2ae1a387d","ios":"levelo://app?vid=eab9ecc7-9085-459c-a4cf-9ae2ae1a387d"},"vehicle_type_id":"4","last_reported":1730214611,"current_range_meters":29600,"station_id":"ce4bhbp2rcd13ifvqerg","pricing_plan_id":"cebpf4jnsgd1na2vs0mg"},{"bike_id":"c7223db8-41a5-4946-9a22-6bc752faf44b","system_id":"levelo_inurba_marseille","lat":43.28852,"lon":5.35861,"is_reserved":false,"is_disabled":false,"rental_uris":{"android":"levelo://app?vid=c7223db8-41a5-4946-9a22-6bc752faf44b","ios":"levelo://app?vid=c7223db8-41a5-4946-9a22-6bc752faf44b"},"vehicle_type_id":"4","last_reported":1730214611,"current_range_meters":9600,"station_id":"ce4bhb12rcd13ifvqem0","pricing_plan_id":"cebpf4jnsgd1na2vs0mg"},{"bike_id":"b337d162-d107-413e-af6b-b302acd3f9d8","system_id":"levelo_inurba_marseille","lat":43.27198,"lon":5.39178,"is_reserved":false,"is_disabled":false,"rental_uris":{"android":"levelo://app?vid=b337d162-d107-413e-af6b-b302acd3f9d8","ios":"levelo://app?vid=b337d162-d107-413e-af6b-b302acd3f9d8"},"vehicle_type_id":"4","last_reported":1730214611,"current_range_meters":7200,"station_id":"ce4bhhp2rcd13ifvqfm0","pricing_plan_id":"cebpf4jnsgd1na2vs0mg"},{"bike_id":"3eacef56-e200-4054-9b0c-156c6ef1c7f9","system_id":"levelo_inurba_marseille","lat":43.32108,"lon":5.36777,"is_reserved":false,"is_disabled":false,"rental_uris":{"android":"levelo://app?vid=3eacef56-e200-4054-9b0c-156c6ef1c7f9","ios":"levelo://app?vid=3eacef56-e200-4054-9b0c-156c6ef1c7f9"},"vehicle_type_id":"4","last_reported":1730214611,"current_range_meters":36800,"station_id":"ce4bhrh2rcd13ifvqhug","pricing_plan_id":"cebpf4jnsgd1na2vs0mg"},{"bike_id":"6512d322-bfe7-4845-9682-9d39ba63d6dd","system_id":"levelo_inurba_marseille","lat":43.28464,"lon":5.35892,"is_reserved":false,"is_disabled":false,"rental_uris":{"android":"levelo://app?vid=6512d322-bfe7-4845-9682-9d39ba63d6dd","ios":"levelo://app?vid=6512d322-bfe7-4845-9682-9d39ba63d6dd"},"vehicle_type_id":"4","last_reported":1730214611,"current_range_meters":25200,"station_id":"ce4bhah2rcd13ifvqei0","pricing_plan_id":"cebpf4jnsgd1na2vs0mg"},{"bike_id":"443b6e67-52dc-4b14-b4ec-c682a5bdd445","system_id":"levelo_inurba_marseille","lat":43.27205,"lon":5.39181,"is_reserved":false,"is_disabled":false,"rental_uris":{"android":"levelo://app?vid=443b6e67-52dc-4b14-b4ec-c682a5bdd445","ios":"levelo://app?vid=443b6e67-52dc-4b14-b4ec-c682a5bdd445"},"vehicle_type_id":"4","last_reported":1730214611,"current_range_meters":16400,"station_id":"ce4bhhp2rcd13ifvqfm0","pricing_plan_id":"cebpf4jnsgd1na2vs0mg"},{"bike_id":"6acfcd22-ff95-45b3-9a80-295fb76bfa71","system_id":"levelo_inurba_marseille","lat":43.28662,"lon":5.38664,"is_reserved":false,"is_disabled":false,"rental_uris":{"android":"levelo://app?vid=6acfcd22-ff95-45b3-9a80-295fb76bfa71","ios":"levelo://app?vid=6acfcd22-ff95-45b3-9a80-295fb76bfa71"},"vehicle_type_id":"4","last_reported":1730214611,"current_range_meters":36400,"station_id":"ce4bh492rcd13ifvqdug","pricing_plan_id":"cebpf4jnsgd1na2vs0mg"},{"bike_id":"86b8222b-fabd-447a-bba1-fa7cb533ac4f","system_id":"levelo_inurba_marseille","lat":43.297,"lon":5.36621,"is_reserved":false,"is_disabled":false,"rental_uris":{"android":"levelo://app?vid=86b8222b-fabd-447a-bba1-fa7cb533ac4f","ios":"levelo://app?vid=86b8222b-fabd-447a-bba1-fa7cb533ac4f"},"vehicle_type_id":"4","last_reported":1730214611,"current_range_meters":37600,"station_id":"ce4bgn12rcd13ifvqbt0","pricing_plan_id":"cebpf4jnsgd1na2vs0mg"},{"bike_id":"49865895-9d7f-41f5-b4ef-cb92d20871eb","system_id":"levelo_inurba_marseille","lat":43.26206,"lon":5.37453,"is_reserved":false,"is_disabled":false,"rental_uris":{"android":"levelo://app?vid=49865895-9d7f-41f5-b4ef-cb92d20871eb","ios":"levelo://app?vid=49865895-9d7f-41f5-b4ef-cb92d20871eb"},"vehicle_type_id":"4","last_reported":1730214611,"current_range_meters":28000,"station_id":"ce4bhgp2rcd13ifvqfc0","pricing_plan_id":"cebpf4jnsgd1na2vs0mg"},{"bike_id":"ae844abd-5f49-4e6c-8086-3880c1d44cf6","system_id":"levelo_inurba_marseille","lat":43.3266,"lon":5.40984,"is_reserved":false,"is_disabled":false,"rental_uris":{"android":"levelo://app?vid=ae844abd-5f49-4e6c-8086-3880c1d44cf6","ios":"levelo://app?vid=ae844abd-5f49-4e6c-8086-3880c1d44cf6"},"vehicle_type_id":"4","last_reported":1730214611,"current_range_meters":24000,"station_id":"ce4bhpp2rcd13ifvqhgg","pricing_plan_id":"cebpf4jnsgd1na2vs0mg"},{"bike_id":"7e700bcc-4f8e-4e3a-920a-5e247fc93a67","system_id":"levelo_inurba_marseille","lat":43.2993,"lon":5.36537,"is_reserved":false,"is_disabled":false,"rental_uris":{"android":"levelo://app?vid=7e700bcc-4f8e-4e3a-920a-5e247fc93a67","ios":"levelo://app?vid=7e700bcc-4f8e-4e3a-920a-5e247fc93a67"},"vehicle_type_id":"4","last_reported":1730214611,"current_range_meters":28000,"station_id":"ce4bgm92rcd13ifvqbr0","pricing_plan_id":"cebpf4jnsgd1na2vs0mg"},{"bike_id":"b671e92b-0879-48c1-9a69-e798e73712c2","system_id":"levelo_inurba_marseille","lat":43.30305,"lon":5.39217,"is_reserved":false,"is_disabled":false,"rental_uris":{"android":"levelo://app?vid=b671e92b-0879-48c1-9a69-e798e73712c2","ios":"levelo://app?vid=b671e92b-0879-48c1-9a69-e798e73712c2"},"vehicle_type_id":"4","last_reported":1730214611,"current_range_meters":2000,"station_id":"ce4bgkh2rcd13ifvqbk0","pricing_plan_id":"cebpf4jnsgd1na2vs0mg"},{"bike_id":"5d45a599-02ba-4aa9-a551-a771dba6b62d","system_id":"levelo_inurba_marseille","lat":43.30538,"lon":5.36716,"is_reserved":false,"is_disabled":false,"rental_uris":{"android":"levelo://app?vid=5d45a599-02ba-4aa9-a551-a771dba6b62d","ios":"levelo://app?vid=5d45a599-02ba-4aa9-a551-a771dba6b62d"},"vehicle_type_id":"4","last_reported":1730214611,"current_range_meters":14000,"station_id":"ce4bgrp2rcd13ifvqc9g","pricing_plan_id":"cebpf4jnsgd1na2vs0mg"},{"bike_id":"0249e3c7-0ee6-43ae-aea1-a5a682acfe38","system_id":"levelo_inurba_marseille","lat":43.26939,"lon":5.40253,"is_reserved":false,"is_disabled":false,"rental_uris":{"android":"levelo://app?vid=0249e3c7-0ee6-43ae-aea1-a5a682acfe38","ios":"levelo://app?vid=0249e3c7-0ee6-43ae-aea1-a5a682acfe38"},"vehicle_type_id":"4","last_reported":1730214611,"current_range_meters":39200,"station_id":"cjm6bp8fraef2m0cb0m0","pricing_plan_id":"cebpf4jnsgd1na2vs0mg"},{"bike_id":"a3d12032-029a-4578-b417-64492e708bfc","system_id":"levelo_inurba_marseille","lat":43.2953,"lon":5.38557,"is_reserved":false,"is_disabled":false,"rental_uris":{"android":"levelo://app?vid=a3d12032-029a-4578-b417-64492e708bfc","ios":"levelo://app?vid=a3d12032-029a-4578-b417-64492e708bfc"},"vehicle_type_id":"4","last_reported":1730214611,"current_range_meters":30800,"station_id":"ce4bgih2rcd13ifvqba0","pricing_plan_id":"cebpf4jnsgd1na2vs0mg"},{"bike_id":"c6c62f3f-93bf-4d84-bb7f-214bae924f1b","system_id":"levelo_inurba_marseille","lat":43.30463,"lon":5.37915,"is_reserved":false,"is_disabled":false,"rental_uris":{"android":"levelo://app?vid=c6c62f3f-93bf-4d84-bb7f-214bae924f1b","ios":"levelo://app?vid=c6c62f3f-93bf-4d84-bb7f-214bae924f1b"},"vehicle_type_id":"4","last_reported":1730214611,"current_range_meters":2000,"station_id":"ce4bgup2rcd13ifvqcn0","pricing_plan_id":"cebpf4jnsgd1na2vs0mg"},{"bike_id":"978d1646-454c-477b-8175-68e128d570a5","system_id":"levelo_inurba_marseille","lat":43.31324,"lon":5.39689,"is_reserved":false,"is_disabled":false,"rental_uris":{"android":"levelo://app?vid=978d1646-454c-477b-8175-68e128d570a5","ios":"levelo://app?vid=978d1646-454c-477b-8175-68e128d570a5"},"vehicle_type_id":"4","last_reported":1730214611,"current_range_meters":38800,"station_id":"ce4bgvp2rcd13ifvqcu0","pricing_plan_id":"cebpf4jnsgd1na2vs0mg"},{"bike_id":"4bd3dc7a-cd73-4bb6-8f68-66aa73a42057","system_id":"levelo_inurba_marseille","lat":43.27058,"lon":5.40258,"is_reserved":false,"is_disabled":false,"rental_uris":{"android":"levelo://app?vid=4bd3dc7a-cd73-4bb6-8f68-66aa73a42057","ios":"levelo://app?vid=4bd3dc7a-cd73-4bb6-8f68-66aa73a42057"},"vehicle_type_id":"4","last_reported":1730214611,"current_range_meters":30800,"station_id":"ce4bhk92rcd13ifvqgc0","pricing_plan_id":"cebpf4jnsgd1na2vs0mg"},{"bike_id":"94187b24-4fab-4050-b132-e6444d020486","system_id":"levelo_inurba_marseille","lat":43.24658,"lon":5.38163,"is_reserved":false,"is_disabled":false,"rental_uris":{"android":"levelo://app?vid=94187b24-4fab-4050-b132-e6444d020486","ios":"levelo://app?vid=94187b24-4fab-4050-b132-e6444d020486"},"vehicle_type_id":"4","last_reported":1730214611,"current_range_meters":9600,"station_id":"ce4bhih2rcd13ifvqfr0","pricing_plan_id":"cebpf4jnsgd1na2vs0mg"},{"bike_id":"4ef6fc28-f6e6-4a55-a408-fc86b94bb796","system_id":"levelo_inurba_marseille","lat":43.29004,"lon":5.3562,"is_reserved":false,"is_disabled":false,"rental_uris":{"android":"levelo://app?vid=4ef6fc28-f6e6-4a55-a408-fc86b94bb796","ios":"levelo://app?vid=4ef6fc28-f6e6-4a55-a408-fc86b94bb796"},"vehicle_type_id":"4","last_reported":1730214611,"current_range_meters":22400,"station_id":"ce4bhb92rcd13ifvqen0","pricing_plan_id":"cebpf4jnsgd1na2vs0mg"},{"bike_id":"538c6c97-8738-4e40-afde-1ced2fc6b778","system_id":"levelo_inurba_marseille","lat":43.33716,"lon":5.39177,"is_reserved":false,"is_disabled":false,"rental_uris":{"android":"levelo://app?vid=538c6c97-8738-4e40-afde-1ced2fc6b778","ios":"levelo://app?vid=538c6c97-8738-4e40-afde-1ced2fc6b778"},"vehicle_type_id":"4","last_reported":1730214611,"current_range_meters":38800,"station_id":"ce4bhr92rcd13ifvqhsg","pricing_plan_id":"cebpf4jnsgd1na2vs0mg"},{"bike_id":"b7a7a2b9-efae-4a36-9c83-46c9e870ea5b","system_id":"levelo_inurba_marseille","lat":43.286072,"lon":5.370696,"is_reserved":false,"is_disabled":false,"rental_uris":{"android":"levelo://app?vid=b7a7a2b9-efae-4a36-9c83-46c9e870ea5b","ios":"levelo://app?vid=b7a7a2b9-efae-4a36-9c83-46c9e870ea5b"},"vehicle_type_id":"4","last_reported":1730214611,"current_range_meters":22000,"station_id":"ce4bht12rcd13ifvqi60","pricing_plan_id":"cebpf4jnsgd1na2vs0mg"},{"bike_id":"53c4c71c-677a-4fbc-852b-c14de6eefec0","system_id":"levelo_inurba_marseille","lat":43.27207,"lon":5.39179,"is_reserved":false,"is_disabled":false,"rental_uris":{"android":"levelo://app?vid=53c4c71c-677a-4fbc-852b-c14de6eefec0","ios":"levelo://app?vid=53c4c71c-677a-4fbc-852b-c14de6eefec0"},"vehicle_type_id":"4","last_reported":1730214611,"current_range_meters":28400,"station_id":"ce4bhhp2rcd13ifvqfm0","pricing_plan_id":"cebpf4jnsgd1na2vs0mg"},{"bike_id":"e40111e4-4deb-41a5-ac02-7465c5223951","system_id":"levelo_inurba_marseille","lat":43.28631,"lon":5.3835,"is_reserved":false,"is_disabled":false,"rental_uris":{"android":"levelo://app?vid=e40111e4-4deb-41a5-ac02-7465c5223951","ios":"levelo://app?vid=e40111e4-4deb-41a5-ac02-7465c5223951"},"vehicle_type_id":"4","last_reported":1730214611,"current_range_meters":16000,"station_id":"ce4bh4p2rcd13ifvqe1g","pricing_plan_id":"cebpf4jnsgd1na2vs0mg"},{"bike_id":"f274d9e8-1689-4183-b0e4-6ebbece185ac","system_id":"levelo_inurba_marseille","lat":43.26802,"lon":5.40262,"is_reserved":false,"is_disabled":false,"rental_uris":{"android":"levelo://app?vid=f274d9e8-1689-4183-b0e4-6ebbece185ac","ios":"levelo://app?vid=f274d9e8-1689-4183-b0e4-6ebbece185ac"},"vehicle_type_id":"4","last_reported":1730214611,"current_range_meters":38800,"station_id":"ce501612rcd8frsf0b60","pricing_plan_id":"cebpf4jnsgd1na2vs0mg"},{"bike_id":"c497513d-9d1d-4320-a1e3-875a8b21d4c5","system_id":"levelo_inurba_marseille","lat":43.27181,"lon":5.40996,"is_reserved":false,"is_disabled":false,"rental_uris":{"android":"levelo://app?vid=c497513d-9d1d-4320-a1e3-875a8b21d4c5","ios":"levelo://app?vid=c497513d-9d1d-4320-a1e3-875a8b21d4c5"},"vehicle_type_id":"4","last_reported":1730214611,"current_range_meters":36800,"station_id":"ce4bhl12rcd13ifvqgf0","pricing_plan_id":"cebpf4jnsgd1na2vs0mg"},{"bike_id":"f09b6f98-8f70-4e17-9b24-58d678c3f39f","system_id":"levelo_inurba_marseille","lat":43.3248,"lon":5.36583,"is_reserved":false,"is_disabled":false,"rental_uris":{"android":"levelo://app?vid=f09b6f98-8f70-4e17-9b24-58d678c3f39f","ios":"levelo://app?vid=f09b6f98-8f70-4e17-9b24-58d678c3f39f"},"vehicle_type_id":"4","last_reported":1730214611,"current_range_meters":10800,"station_id":"ce4bhs12rcd13ifvqhvg","pricing_plan_id":"cebpf4jnsgd1na2vs0mg"},{"bike_id":"4aa9ec8e-8a2f-4bf2-b664-653d737532aa","system_id":"levelo_inurba_marseille","lat":43.29553,"lon":5.42283,"is_reserved":false,"is_disabled":false,"rental_uris":{"android":"levelo://app?vid=4aa9ec8e-8a2f-4bf2-b664-653d737532aa","ios":"levelo://app?vid=4aa9ec8e-8a2f-4bf2-b664-653d737532aa"},"vehicle_type_id":"4","last_reported":1730214611,"current_range_meters":38800,"station_id":"ce4bhph2rcd13ifvqhdg","pricing_plan_id":"cebpf4jnsgd1na2vs0mg"},{"bike_id":"e1b8f9fb-e491-40ed-a82e-b7180152c511","system_id":"levelo_inurba_marseille","lat":43.23968,"lon":5.36632,"is_reserved":false,"is_disabled":false,"rental_uris":{"android":"levelo://app?vid=e1b8f9fb-e491-40ed-a82e-b7180152c511","ios":"levelo://app?vid=e1b8f9fb-e491-40ed-a82e-b7180152c511"},"vehicle_type_id":"4","last_reported":1730214611,"current_range_meters":36800,"station_id":"ce4bhi12rcd13ifvqfp0","pricing_plan_id":"cebpf4jnsgd1na2vs0mg"},{"bike_id":"eff6c5ad-dea6-4ce2-b40f-e81d26d61f17","system_id":"levelo_inurba_marseille","lat":43.28267,"lon":5.35091,"is_reserved":false,"is_disabled":false,"rental_uris":{"android":"levelo://app?vid=eff6c5ad-dea6-4ce2-b40f-e81d26d61f17","ios":"levelo://app?vid=eff6c5ad-dea6-4ce2-b40f-e81d26d61f17"},"vehicle_type_id":"4","last_reported":1730214611,"current_range_meters":38800,"station_id":"ce4bhbp2rcd13ifvqerg","pricing_plan_id":"cebpf4jnsgd1na2vs0mg"},{"bike_id":"44ae2bbb-5388-422a-97db-c3e465fb33fc","system_id":"levelo_inurba_marseille","lat":43.30548,"lon":5.36533,"is_reserved":false,"is_disabled":false,"rental_uris":{"android":"levelo://app?vid=44ae2bbb-5388-422a-97db-c3e465fb33fc","ios":"levelo://app?vid=44ae2bbb-5388-422a-97db-c3e465fb33fc"},"vehicle_type_id":"4","last_reported":1730214611,"current_range_meters":38800,"station_id":"ce4bgs12rcd13ifvqcag","pricing_plan_id":"cebpf4jnsgd1na2vs0mg"},{"bike_id":"5576ff11-2bdb-4d69-b9fc-7e5e5f52d877","system_id":"levelo_inurba_marseille","lat":43.30463,"lon":5.37908,"is_reserved":false,"is_disabled":false,"rental_uris":{"android":"levelo://app?vid=5576ff11-2bdb-4d69-b9fc-7e5e5f52d877","ios":"levelo://app?vid=5576ff11-2bdb-4d69-b9fc-7e5e5f52d877"},"vehicle_type_id":"4","last_reported":1730214611,"current_range_meters":22800,"station_id":"ce4bgup2rcd13ifvqcn0","pricing_plan_id":"cebpf4jnsgd1na2vs0mg"},{"bike_id":"d5c8fa42-2467-4cbe-a884-69b7df559269","system_id":"levelo_inurba_marseille","lat":43.27997,"lon":5.40026,"is_reserved":false,"is_disabled":false,"rental_uris":{"android":"levelo://app?vid=d5c8fa42-2467-4cbe-a884-69b7df559269","ios":"levelo://app?vid=d5c8fa42-2467-4cbe-a884-69b7df559269"},"vehicle_type_id":"4","last_reported":1730214611,"current_range_meters":38800,"station_id":"ce4bho92rcd13ifvqh4g","pricing_plan_id":"cebpf4jnsgd1na2vs0mg"},{"bike_id":"49e62e5b-a744-4960-b578-e2e1ed1f4e39","system_id":"levelo_inurba_marseille","lat":43.29884,"lon":5.43661,"is_reserved":false,"is_disabled":false,"rental_uris":{"android":"levelo://app?vid=49e62e5b-a744-4960-b578-e2e1ed1f4e39","ios":"levelo://app?vid=49e62e5b-a744-4960-b578-e2e1ed1f4e39"},"vehicle_type_id":"4","last_reported":1730214611,"current_range_meters":26000,"station_id":"ce4bhpp2rcd13ifvqhfg","pricing_plan_id":"cebpf4jnsgd1na2vs0mg"},{"bike_id":"1e4476f3-15fc-4fb9-8231-99b512b22599","system_id":"levelo_inurba_marseille","lat":43.31331,"lon":5.3971,"is_reserved":false,"is_disabled":false,"rental_uris":{"android":"levelo://app?vid=1e4476f3-15fc-4fb9-8231-99b512b22599","ios":"levelo://app?vid=1e4476f3-15fc-4fb9-8231-99b512b22599"},"vehicle_type_id":"4","last_reported":1730214611,"current_range_meters":39200,"station_id":"ce4bgvp2rcd13ifvqcu0","pricing_plan_id":"cebpf4jnsgd1na2vs0mg"},{"bike_id":"46a62524-cc9f-47f0-ba74-62e8eaa56ef8","system_id":"levelo_inurba_marseille","lat":43.230591,"lon":5.354897,"is_reserved":false,"is_disabled":false,"rental_uris":{"android":"levelo://app?vid=46a62524-cc9f-47f0-ba74-62e8eaa56ef8","ios":"levelo://app?vid=46a62524-cc9f-47f0-ba74-62e8eaa56ef8"},"vehicle_type_id":"4","last_reported":1730214611,"current_range_meters":28000,"station_id":"ce4bhh12rcd13ifvqff0","pricing_plan_id":"cebpf4jnsgd1na2vs0mg"},{"bike_id":"4c04fba3-6a35-420d-a7d4-f9dc1f9caa65","system_id":"levelo_inurba_marseille","lat":43.25705,"lon":5.39725,"is_reserved":false,"is_disabled":false,"rental_uris":{"android":"levelo://app?vid=4c04fba3-6a35-420d-a7d4-f9dc1f9caa65","ios":"levelo://app?vid=4c04fba3-6a35-420d-a7d4-f9dc1f9caa65"},"vehicle_type_id":"4","last_reported":1730214611,"current_range_meters":25600,"station_id":"ce4bhhp2rcd13ifvqfm0","pricing_plan_id":"cebpf4jnsgd1na2vs0mg"},{"bike_id":"b12425a9-456b-4240-9101-c3b9f8f5a488","system_id":"levelo_inurba_marseille","lat":43.32483,"lon":5.36581,"is_reserved":false,"is_disabled":false,"rental_uris":{"android":"levelo://app?vid=b12425a9-456b-4240-9101-c3b9f8f5a488","ios":"levelo://app?vid=b12425a9-456b-4240-9101-c3b9f8f5a488"},"vehicle_type_id":"4","last_reported":1730214611,"current_range_meters":39200,"station_id":"ce4bhs12rcd13ifvqhvg","pricing_plan_id":"cebpf4jnsgd1na2vs0mg"},{"bike_id":"c6deaebd-860d-4414-964a-969a76b579c5","system_id":"levelo_inurba_marseille","lat":43.29911,"lon":5.37471,"is_reserved":false,"is_disabled":false,"rental_uris":{"android":"levelo://app?vid=c6deaebd-860d-4414-964a-969a76b579c5","ios":"levelo://app?vid=c6deaebd-860d-4414-964a-969a76b579c5"},"vehicle_type_id":"4","last_reported":1730214611,"current_range_meters":37600,"station_id":"ce4bgjh2rcd13ifvqbg0","pricing_plan_id":"cebpf4jnsgd1na2vs0mg"},{"bike_id":"9afc8807-f832-4417-bd03-3c2b914835d8","system_id":"levelo_inurba_marseille","lat":43.30593,"lon":5.37206,"is_reserved":false,"is_disabled":false,"rental_uris":{"android":"levelo://app?vid=9afc8807-f832-4417-bd03-3c2b914835d8","ios":"levelo://app?vid=9afc8807-f832-4417-bd03-3c2b914835d8"},"vehicle_type_id":"4","last_reported":1730214611,"current_range_meters":39200,"station_id":"ce4bgqh2rcd13ifvqc4g","pricing_plan_id":"cebpf4jnsgd1na2vs0mg"},{"bike_id":"147fa85f-f2c2-416a-9426-f8d67348ee49","system_id":"levelo_inurba_marseille","lat":43.30433,"lon":5.389,"is_reserved":false,"is_disabled":false,"rental_uris":{"android":"levelo://app?vid=147fa85f-f2c2-416a-9426-f8d67348ee49","ios":"levelo://app?vid=147fa85f-f2c2-416a-9426-f8d67348ee49"},"vehicle_type_id":"4","last_reported":1730214611,"current_range_meters":38400,"station_id":"ce4bgk12rcd13ifvqbi0","pricing_plan_id":"cebpf4jnsgd1na2vs0mg"},{"bike_id":"69f13f65-e907-45ab-b818-215067975644","system_id":"levelo_inurba_marseille","lat":43.28852,"lon":5.39332,"is_reserved":false,"is_disabled":false,"rental_uris":{"android":"levelo://app?vid=69f13f65-e907-45ab-b818-215067975644","ios":"levelo://app?vid=69f13f65-e907-45ab-b818-215067975644"},"vehicle_type_id":"4","last_reported":1730214611,"current_range_meters":35600,"station_id":"ce4bh2p2rcd13ifvqdi0","pricing_plan_id":"cebpf4jnsgd1na2vs0mg"},{"bike_id":"4a5ae9fe-9c73-444a-85c6-f668dac46453","system_id":"levelo_inurba_marseille","lat":43.28266,"lon":5.35057,"is_reserved":false,"is_disabled":false,"rental_uris":{"android":"levelo://app?vid=4a5ae9fe-9c73-444a-85c6-f668dac46453","ios":"levelo://app?vid=4a5ae9fe-9c73-444a-85c6-f668dac46453"},"vehicle_type_id":"4","last_reported":1730214611,"current_range_meters":23200,"station_id":"ce4bhbp2rcd13ifvqerg","pricing_plan_id":"cebpf4jnsgd1na2vs0mg"},{"bike_id":"9580984a-5d45-499f-9ed0-7d4cb5cd4d6c","system_id":"levelo_inurba_marseille","lat":43.28968,"lon":5.37834,"is_reserved":false,"is_disabled":false,"rental_uris":{"android":"levelo://app?vid=9580984a-5d45-499f-9ed0-7d4cb5cd4d6c","ios":"levelo://app?vid=9580984a-5d45-499f-9ed0-7d4cb5cd4d6c"},"vehicle_type_id":"4","last_reported":1730214611,"current_range_meters":25200,"station_id":"ce4bh9p2rcd13ifvqed0","pricing_plan_id":"cebpf4jnsgd1na2vs0mg"},{"bike_id":"17a685b1-57c3-4cfe-b093-2bd72a7d95f1","system_id":"levelo_inurba_marseille","lat":43.26784,"lon":5.39413,"is_reserved":false,"is_disabled":false,"rental_uris":{"android":"levelo://app?vid=17a685b1-57c3-4cfe-b093-2bd72a7d95f1","ios":"levelo://app?vid=17a685b1-57c3-4cfe-b093-2bd72a7d95f1"},"vehicle_type_id":"4","last_reported":1730214611,"current_range_meters":27600,"station_id":"ce4bhh12rcd13ifvqfg0","pricing_plan_id":"cebpf4jnsgd1na2vs0mg"},{"bike_id":"4cc9b611-227a-4675-8219-8592dde41f3f","system_id":"levelo_inurba_marseille","lat":43.28268,"lon":5.35082,"is_reserved":false,"is_disabled":false,"rental_uris":{"android":"levelo://app?vid=4cc9b611-227a-4675-8219-8592dde41f3f","ios":"levelo://app?vid=4cc9b611-227a-4675-8219-8592dde41f3f"},"vehicle_type_id":"4","last_reported":1730214611,"current_range_meters":15200,"station_id":"ce4bhbp2rcd13ifvqerg","pricing_plan_id":"cebpf4jnsgd1na2vs0mg"},{"bike_id":"9d46e0b2-b7a2-490a-aca2-06a1d5481623","system_id":"levelo_inurba_marseille","lat":43.29787,"lon":5.36583,"is_reserved":false,"is_disabled":false,"rental_uris":{"android":"levelo://app?vid=9d46e0b2-b7a2-490a-aca2-06a1d5481623","ios":"levelo://app?vid=9d46e0b2-b7a2-490a-aca2-06a1d5481623"},"vehicle_type_id":"4","last_reported":1730214611,"current_range_meters":19600,"station_id":"","pricing_plan_id":"cebpf4jnsgd1na2vs0mg"},{"bike_id":"38609f2e-2dd2-4648-b929-d89eff2a5db8","system_id":"levelo_inurba_marseille","lat":43.29833,"lon":5.36262,"is_reserved":false,"is_disabled":false,"rental_uris":{"android":"levelo://app?vid=38609f2e-2dd2-4648-b929-d89eff2a5db8","ios":"levelo://app?vid=38609f2e-2dd2-4648-b929-d89eff2a5db8"},"vehicle_type_id":"4","last_reported":1730214611,"current_range_meters":31200,"station_id":"ce4bgpp2rcd13ifvqc3g","pricing_plan_id":"cebpf4jnsgd1na2vs0mg"},{"bike_id":"af6d4c0e-bea9-495a-801d-3783dffe74d3","system_id":"levelo_inurba_marseille","lat":43.24666,"lon":5.38167,"is_reserved":false,"is_disabled":false,"rental_uris":{"android":"levelo://app?vid=af6d4c0e-bea9-495a-801d-3783dffe74d3","ios":"levelo://app?vid=af6d4c0e-bea9-495a-801d-3783dffe74d3"},"vehicle_type_id":"4","last_reported":1730214611,"current_range_meters":33200,"station_id":"ce4bhih2rcd13ifvqfr0","pricing_plan_id":"cebpf4jnsgd1na2vs0mg"},{"bike_id":"d2748860-f7ec-4120-b5cf-b2dee6885301","system_id":"levelo_inurba_marseille","lat":43.229305,"lon":5.353749,"is_reserved":false,"is_disabled":false,"rental_uris":{"android":"levelo://app?vid=d2748860-f7ec-4120-b5cf-b2dee6885301","ios":"levelo://app?vid=d2748860-f7ec-4120-b5cf-b2dee6885301"},"vehicle_type_id":"4","last_reported":1730214611,"current_range_meters":38800,"station_id":"cpo3532slgdg3j2ikp40","pricing_plan_id":"cebpf4jnsgd1na2vs0mg"},{"bike_id":"1e648efd-68f9-4aaa-bde9-7590513b3428","system_id":"levelo_inurba_marseille","lat":43.304673,"lon":5.375607,"is_reserved":false,"is_disabled":false,"rental_uris":{"android":"levelo://app?vid=1e648efd-68f9-4aaa-bde9-7590513b3428","ios":"levelo://app?vid=1e648efd-68f9-4aaa-bde9-7590513b3428"},"vehicle_type_id":"4","last_reported":1730214611,"current_range_meters":17600,"station_id":"ce4bgup2rcd13ifvqcn0","pricing_plan_id":"cebpf4jnsgd1na2vs0mg"},{"bike_id":"e7a23e2b-184e-4ce9-adaa-1e8e59dc2cba","system_id":"levelo_inurba_marseille","lat":43.24664,"lon":5.38167,"is_reserved":false,"is_disabled":false,"rental_uris":{"android":"levelo://app?vid=e7a23e2b-184e-4ce9-adaa-1e8e59dc2cba","ios":"levelo://app?vid=e7a23e2b-184e-4ce9-adaa-1e8e59dc2cba"},"vehicle_type_id":"4","last_reported":1730214611,"current_range_meters":32000,"station_id":"ce4bhih2rcd13ifvqfr0","pricing_plan_id":"cebpf4jnsgd1na2vs0mg"},{"bike_id":"1d3554d8-2fc4-413c-9736-023b0d8da8d3","system_id":"levelo_inurba_marseille","lat":43.28268,"lon":5.35066,"is_reserved":false,"is_disabled":false,"rental_uris":{"android":"levelo://app?vid=1d3554d8-2fc4-413c-9736-023b0d8da8d3","ios":"levelo://app?vid=1d3554d8-2fc4-413c-9736-023b0d8da8d3"},"vehicle_type_id":"4","last_reported":1730214611,"current_range_meters":36400,"station_id":"ce4bhbp2rcd13ifvqerg","pricing_plan_id":"cebpf4jnsgd1na2vs0mg"},{"bike_id":"3a11bd5a-cb4e-40db-885d-4477b913c9a5","system_id":"levelo_inurba_marseille","lat":43.30534,"lon":5.36712,"is_reserved":false,"is_disabled":false,"rental_uris":{"android":"levelo://app?vid=3a11bd5a-cb4e-40db-885d-4477b913c9a5","ios":"levelo://app?vid=3a11bd5a-cb4e-40db-885d-4477b913c9a5"},"vehicle_type_id":"4","last_reported":1730214611,"current_range_meters":8400,"station_id":"ce4bgrp2rcd13ifvqc9g","pricing_plan_id":"cebpf4jnsgd1na2vs0mg"},{"bike_id":"a2f91a54-aabc-467a-bd1d-2399ad58ea1c","system_id":"levelo_inurba_marseille","lat":43.27209,"lon":5.39179,"is_reserved":false,"is_disabled":false,"rental_uris":{"android":"levelo://app?vid=a2f91a54-aabc-467a-bd1d-2399ad58ea1c","ios":"levelo://app?vid=a2f91a54-aabc-467a-bd1d-2399ad58ea1c"},"vehicle_type_id":"4","last_reported":1730214611,"current_range_meters":38000,"station_id":"ce4bhhp2rcd13ifvqfm0","pricing_plan_id":"cebpf4jnsgd1na2vs0mg"},{"bike_id":"0bffe554-897a-4bed-9e39-ad29bbdf3490","system_id":"levelo_inurba_marseille","lat":43.24538,"lon":5.39543,"is_reserved":false,"is_disabled":false,"rental_uris":{"android":"levelo://app?vid=0bffe554-897a-4bed-9e39-ad29bbdf3490","ios":"levelo://app?vid=0bffe554-897a-4bed-9e39-ad29bbdf3490"},"vehicle_type_id":"4","last_reported":1730214611,"current_range_meters":27600,"station_id":"ce4bhlp2rcd13ifvqgjg","pricing_plan_id":"cebpf4jnsgd1na2vs0mg"},{"bike_id":"410e1737-ba72-4cd3-b304-5ca5e98f4aba","system_id":"levelo_inurba_marseille","lat":43.27369,"lon":5.36255,"is_reserved":false,"is_disabled":false,"rental_uris":{"android":"levelo://app?vid=410e1737-ba72-4cd3-b304-5ca5e98f4aba","ios":"levelo://app?vid=410e1737-ba72-4cd3-b304-5ca5e98f4aba"},"vehicle_type_id":"4","last_reported":1730214611,"current_range_meters":28800,"station_id":"ce4bhbh2rcd13ifvqeo0","pricing_plan_id":"cebpf4jnsgd1na2vs0mg"},{"bike_id":"1488cb5b-ba01-4856-b5ef-dc4c1f7247e9","system_id":"levelo_inurba_marseille","lat":43.23966,"lon":5.36621,"is_reserved":false,"is_disabled":false,"rental_uris":{"android":"levelo://app?vid=1488cb5b-ba01-4856-b5ef-dc4c1f7247e9","ios":"levelo://app?vid=1488cb5b-ba01-4856-b5ef-dc4c1f7247e9"},"vehicle_type_id":"4","last_reported":1730214611,"current_range_meters":17200,"station_id":"ce4bhi12rcd13ifvqfp0","pricing_plan_id":"cebpf4jnsgd1na2vs0mg"},{"bike_id":"6c55372d-3929-4cf2-b4ea-30149f454df3","system_id":"levelo_inurba_marseille","lat":43.27993,"lon":5.40005,"is_reserved":false,"is_disabled":false,"rental_uris":{"android":"levelo://app?vid=6c55372d-3929-4cf2-b4ea-30149f454df3","ios":"levelo://app?vid=6c55372d-3929-4cf2-b4ea-30149f454df3"},"vehicle_type_id":"4","last_reported":1730214611,"current_range_meters":30800,"station_id":"ce4bho92rcd13ifvqh4g","pricing_plan_id":"cebpf4jnsgd1na2vs0mg"},{"bike_id":"2428d0d4-0189-4b00-85c9-81366524f657","system_id":"levelo_inurba_marseille","lat":43.25932,"lon":5.40904,"is_reserved":false,"is_disabled":false,"rental_uris":{"android":"levelo://app?vid=2428d0d4-0189-4b00-85c9-81366524f657","ios":"levelo://app?vid=2428d0d4-0189-4b00-85c9-81366524f657"},"vehicle_type_id":"4","last_reported":1730214611,"current_range_meters":28400,"station_id":"ce4bhm92rcd13ifvqglg","pricing_plan_id":"cebpf4jnsgd1na2vs0mg"},{"bike_id":"93bcda53-7083-45dc-a37d-623aa30731b2","system_id":"levelo_inurba_marseille","lat":43.296507,"lon":5.377801,"is_reserved":false,"is_disabled":false,"rental_uris":{"android":"levelo://app?vid=93bcda53-7083-45dc-a37d-623aa30731b2","ios":"levelo://app?vid=93bcda53-7083-45dc-a37d-623aa30731b2"},"vehicle_type_id":"4","last_reported":1730214611,"current_range_meters":37600,"station_id":"ce4bgkh2rcd13ifvqbl0","pricing_plan_id":"cebpf4jnsgd1na2vs0mg"},{"bike_id":"3810532d-da20-4d5e-a42c-08385985408a","system_id":"levelo_inurba_marseille","lat":43.29023,"lon":5.38644,"is_reserved":false,"is_disabled":false,"rental_uris":{"android":"levelo://app?vid=3810532d-da20-4d5e-a42c-08385985408a","ios":"levelo://app?vid=3810532d-da20-4d5e-a42c-08385985408a"},"vehicle_type_id":"4","last_reported":1730214611,"current_range_meters":36000,"station_id":"ce4bh4p2rcd13ifvqe0g","pricing_plan_id":"cebpf4jnsgd1na2vs0mg"},{"bike_id":"dbda7efb-410d-4a2b-a65e-9bcd0c2c113c","system_id":"levelo_inurba_marseille","lat":43.25105,"lon":5.40327,"is_reserved":false,"is_disabled":false,"rental_uris":{"android":"levelo://app?vid=dbda7efb-410d-4a2b-a65e-9bcd0c2c113c","ios":"levelo://app?vid=dbda7efb-410d-4a2b-a65e-9bcd0c2c113c"},"vehicle_type_id":"4","last_reported":1730214611,"current_range_meters":14400,"station_id":"ce4bhlh2rcd13ifvqgig","pricing_plan_id":"cebpf4jnsgd1na2vs0mg"},{"bike_id":"53f40179-1243-4e83-8f7a-432c3bf8a957","system_id":"levelo_inurba_marseille","lat":43.29927,"lon":5.36535,"is_reserved":false,"is_disabled":false,"rental_uris":{"android":"levelo://app?vid=53f40179-1243-4e83-8f7a-432c3bf8a957","ios":"levelo://app?vid=53f40179-1243-4e83-8f7a-432c3bf8a957"},"vehicle_type_id":"4","last_reported":1730214611,"current_range_meters":36000,"station_id":"ce4bgm92rcd13ifvqbr0","pricing_plan_id":"cebpf4jnsgd1na2vs0mg"},{"bike_id":"a1f83bf3-eed6-45ed-a98a-d29a1a4fe512","system_id":"levelo_inurba_marseille","lat":43.29936,"lon":5.41312,"is_reserved":false,"is_disabled":false,"rental_uris":{"android":"levelo://app?vid=a1f83bf3-eed6-45ed-a98a-d29a1a4fe512","ios":"levelo://app?vid=a1f83bf3-eed6-45ed-a98a-d29a1a4fe512"},"vehicle_type_id":"4","last_reported":1730214611,"current_range_meters":28400,"station_id":"ce4bhp12rcd13ifvqh9g","pricing_plan_id":"cebpf4jnsgd1na2vs0mg"},{"bike_id":"6c5c2d65-9bb4-4292-a94e-19dacaca1c03","system_id":"levelo_inurba_marseille","lat":43.29896,"lon":5.43662,"is_reserved":false,"is_disabled":false,"rental_uris":{"android":"levelo://app?vid=6c5c2d65-9bb4-4292-a94e-19dacaca1c03","ios":"levelo://app?vid=6c5c2d65-9bb4-4292-a94e-19dacaca1c03"},"vehicle_type_id":"4","last_reported":1730214611,"current_range_meters":39200,"station_id":"ce4bhpp2rcd13ifvqhfg","pricing_plan_id":"cebpf4jnsgd1na2vs0mg"},{"bike_id":"8dc45790-f1cd-4e6c-992f-5876bb4584e0","system_id":"levelo_inurba_marseille","lat":43.26778,"lon":5.3942,"is_reserved":false,"is_disabled":false,"rental_uris":{"android":"levelo://app?vid=8dc45790-f1cd-4e6c-992f-5876bb4584e0","ios":"levelo://app?vid=8dc45790-f1cd-4e6c-992f-5876bb4584e0"},"vehicle_type_id":"4","last_reported":1730214611,"current_range_meters":38000,"station_id":"ce4bhh12rcd13ifvqfg0","pricing_plan_id":"cebpf4jnsgd1na2vs0mg"},{"bike_id":"766801a5-7dbd-464a-bc56-398e14b9cf78","system_id":"levelo_inurba_marseille","lat":43.29805,"lon":5.37136,"is_reserved":false,"is_disabled":false,"rental_uris":{"android":"levelo://app?vid=766801a5-7dbd-464a-bc56-398e14b9cf78","ios":"levelo://app?vid=766801a5-7dbd-464a-bc56-398e14b9cf78"},"vehicle_type_id":"4","last_reported":1730214611,"current_range_meters":10000,"station_id":"","pricing_plan_id":"cebpf4jnsgd1na2vs0mg"},{"bike_id":"afc8a59e-718c-432c-b226-d6be0903e5fb","system_id":"levelo_inurba_marseille","lat":43.24388,"lon":5.37071,"is_reserved":false,"is_disabled":false,"rental_uris":{"android":"levelo://app?vid=afc8a59e-718c-432c-b226-d6be0903e5fb","ios":"levelo://app?vid=afc8a59e-718c-432c-b226-d6be0903e5fb"},"vehicle_type_id":"4","last_reported":1730214611,"current_range_meters":37600,"station_id":"ce4bhhh2rcd13ifvqfk0","pricing_plan_id":"cebpf4jnsgd1na2vs0mg"},{"bike_id":"4ff9ff98-c9e0-44c4-ba8c-f2ebb3990daa","system_id":"levelo_inurba_marseille","lat":43.32477,"lon":5.3658,"is_reserved":false,"is_disabled":false,"rental_uris":{"android":"levelo://app?vid=4ff9ff98-c9e0-44c4-ba8c-f2ebb3990daa","ios":"levelo://app?vid=4ff9ff98-c9e0-44c4-ba8c-f2ebb3990daa"},"vehicle_type_id":"4","last_reported":1730214611,"current_range_meters":8000,"station_id":"ce4bhs12rcd13ifvqhvg","pricing_plan_id":"cebpf4jnsgd1na2vs0mg"},{"bike_id":"701652a3-98e8-4b48-b460-8cc91e13658a","system_id":"levelo_inurba_marseille","lat":43.30272,"lon":5.37703,"is_reserved":false,"is_disabled":false,"rental_uris":{"android":"levelo://app?vid=701652a3-98e8-4b48-b460-8cc91e13658a","ios":"levelo://app?vid=701652a3-98e8-4b48-b460-8cc91e13658a"},"vehicle_type_id":"4","last_reported":1730214611,"current_range_meters":38000,"station_id":"ce4bguh2rcd13ifvqcj0","pricing_plan_id":"cebpf4jnsgd1na2vs0mg"},{"bike_id":"84a34f64-d710-4f7b-8f16-f367a9f930e0","system_id":"levelo_inurba_marseille","lat":43.26065,"lon":5.39393,"is_reserved":false,"is_disabled":false,"rental_uris":{"android":"levelo://app?vid=84a34f64-d710-4f7b-8f16-f367a9f930e0","ios":"levelo://app?vid=84a34f64-d710-4f7b-8f16-f367a9f930e0"},"vehicle_type_id":"4","last_reported":1730214611,"current_range_meters":30000,"station_id":"ce4bhh92rcd13ifvqfj0","pricing_plan_id":"cebpf4jnsgd1na2vs0mg"},{"bike_id":"3fc1ba2c-846b-4f4c-b167-b0f019e6b69b","system_id":"levelo_inurba_marseille","lat":43.29174,"lon":5.37152,"is_reserved":false,"is_disabled":false,"rental_uris":{"android":"levelo://app?vid=3fc1ba2c-846b-4f4c-b167-b0f019e6b69b","ios":"levelo://app?vid=3fc1ba2c-846b-4f4c-b167-b0f019e6b69b"},"vehicle_type_id":"4","last_reported":1730214611,"current_range_meters":38400,"station_id":"ce4bha92rcd13ifvqeh0","pricing_plan_id":"cebpf4jnsgd1na2vs0mg"},{"bike_id":"75cb1cc6-d5d2-4dcd-ae25-28283e0b065b","system_id":"levelo_inurba_marseille","lat":43.29607,"lon":5.37739,"is_reserved":false,"is_disabled":false,"rental_uris":{"android":"levelo://app?vid=75cb1cc6-d5d2-4dcd-ae25-28283e0b065b","ios":"levelo://app?vid=75cb1cc6-d5d2-4dcd-ae25-28283e0b065b"},"vehicle_type_id":"4","last_reported":1730214611,"current_range_meters":18800,"station_id":"ce4bgi92rcd13ifvqb90","pricing_plan_id":"cebpf4jnsgd1na2vs0mg"},{"bike_id":"e2443705-3a37-4d82-9adf-1585e6a2e055","system_id":"levelo_inurba_marseille","lat":43.27914,"lon":5.39582,"is_reserved":false,"is_disabled":false,"rental_uris":{"android":"levelo://app?vid=e2443705-3a37-4d82-9adf-1585e6a2e055","ios":"levelo://app?vid=e2443705-3a37-4d82-9adf-1585e6a2e055"},"vehicle_type_id":"4","last_reported":1730214611,"current_range_meters":6400,"station_id":"ce4bhf92rcd13ifvqf40","pricing_plan_id":"cebpf4jnsgd1na2vs0mg"},{"bike_id":"181bef3f-1485-40bb-83af-377fe61dde0b","system_id":"levelo_inurba_marseille","lat":43.32479,"lon":5.3658,"is_reserved":false,"is_disabled":false,"rental_uris":{"android":"levelo://app?vid=181bef3f-1485-40bb-83af-377fe61dde0b","ios":"levelo://app?vid=181bef3f-1485-40bb-83af-377fe61dde0b"},"vehicle_type_id":"4","last_reported":1730214611,"current_range_meters":27600,"station_id":"ce4bhs12rcd13ifvqhvg","pricing_plan_id":"cebpf4jnsgd1na2vs0mg"},{"bike_id":"c7757bea-4296-44dc-b490-1ebf01a3caf0","system_id":"levelo_inurba_marseille","lat":43.32477,"lon":5.3657,"is_reserved":false,"is_disabled":false,"rental_uris":{"android":"levelo://app?vid=c7757bea-4296-44dc-b490-1ebf01a3caf0","ios":"levelo://app?vid=c7757bea-4296-44dc-b490-1ebf01a3caf0"},"vehicle_type_id":"4","last_reported":1730214611,"current_range_meters":34800,"station_id":"ce4bhs12rcd13ifvqhvg","pricing_plan_id":"cebpf4jnsgd1na2vs0mg"},{"bike_id":"82938b73-db78-491a-8e6b-de7ae6d59fe5","system_id":"levelo_inurba_marseille","lat":43.33752,"lon":5.37449,"is_reserved":false,"is_disabled":false,"rental_uris":{"android":"levelo://app?vid=82938b73-db78-491a-8e6b-de7ae6d59fe5","ios":"levelo://app?vid=82938b73-db78-491a-8e6b-de7ae6d59fe5"},"vehicle_type_id":"4","last_reported":1730214611,"current_range_meters":36400,"station_id":"","pricing_plan_id":"cebpf4jnsgd1na2vs0mg"},{"bike_id":"9849ea7b-4c4d-4e7c-9589-e7fd87a12308","system_id":"levelo_inurba_marseille","lat":43.2694,"lon":5.40251,"is_reserved":false,"is_disabled":false,"rental_uris":{"android":"levelo://app?vid=9849ea7b-4c4d-4e7c-9589-e7fd87a12308","ios":"levelo://app?vid=9849ea7b-4c4d-4e7c-9589-e7fd87a12308"},"vehicle_type_id":"4","last_reported":1730214611,"current_range_meters":8400,"station_id":"cjm6bp8fraef2m0cb0m0","pricing_plan_id":"cebpf4jnsgd1na2vs0mg"},{"bike_id":"c539e6c7-5548-43e7-a770-c18b559188d9","system_id":"levelo_inurba_marseille","lat":43.28414,"lon":5.3498,"is_reserved":false,"is_disabled":false,"rental_uris":{"android":"levelo://app?vid=c539e6c7-5548-43e7-a770-c18b559188d9","ios":"levelo://app?vid=c539e6c7-5548-43e7-a770-c18b559188d9"},"vehicle_type_id":"4","last_reported":1730214611,"current_range_meters":1600,"station_id":"ce4bhbh2rcd13ifvqepg","pricing_plan_id":"cebpf4jnsgd1na2vs0mg"},{"bike_id":"6401894d-cc49-4858-a656-3b33ece2aed3","system_id":"levelo_inurba_marseille","lat":43.248,"lon":5.37466,"is_reserved":false,"is_disabled":false,"rental_uris":{"android":"levelo://app?vid=6401894d-cc49-4858-a656-3b33ece2aed3","ios":"levelo://app?vid=6401894d-cc49-4858-a656-3b33ece2aed3"},"vehicle_type_id":"4","last_reported":1730214611,"current_range_meters":7200,"station_id":"ce4bhgh2rcd13ifvqfb0","pricing_plan_id":"cebpf4jnsgd1na2vs0mg"},{"bike_id":"9c7f8464-6d21-47f7-aa35-9427dfc78865","system_id":"levelo_inurba_marseille","lat":43.29965,"lon":5.38496,"is_reserved":false,"is_disabled":false,"rental_uris":{"android":"levelo://app?vid=9c7f8464-6d21-47f7-aa35-9427dfc78865","ios":"levelo://app?vid=9c7f8464-6d21-47f7-aa35-9427dfc78865"},"vehicle_type_id":"4","last_reported":1730214611,"current_range_meters":20400,"station_id":"ce4bgj92rcd13ifvqbd0","pricing_plan_id":"cebpf4jnsgd1na2vs0mg"},{"bike_id":"38abd174-8302-4ff9-a382-0bc805d9d291","system_id":"levelo_inurba_marseille","lat":43.2756,"lon":5.38422,"is_reserved":false,"is_disabled":false,"rental_uris":{"android":"levelo://app?vid=38abd174-8302-4ff9-a382-0bc805d9d291","ios":"levelo://app?vid=38abd174-8302-4ff9-a382-0bc805d9d291"},"vehicle_type_id":"4","last_reported":1730214611,"current_range_meters":15200,"station_id":"ce4bhh92rcd13ifvqfi0","pricing_plan_id":"cebpf4jnsgd1na2vs0mg"},{"bike_id":"a06aaa3a-469c-4c08-9a71-0d7e5c362262","system_id":"levelo_inurba_marseille","lat":43.33715,"lon":5.39181,"is_reserved":false,"is_disabled":false,"rental_uris":{"android":"levelo://app?vid=a06aaa3a-469c-4c08-9a71-0d7e5c362262","ios":"levelo://app?vid=a06aaa3a-469c-4c08-9a71-0d7e5c362262"},"vehicle_type_id":"4","last_reported":1730214611,"current_range_meters":31200,"station_id":"ce4bhr92rcd13ifvqhsg","pricing_plan_id":"cebpf4jnsgd1na2vs0mg"},{"bike_id":"ce540e81-7361-4047-bbd5-3a85b0972108","system_id":"levelo_inurba_marseille","lat":43.27371,"lon":5.36258,"is_reserved":false,"is_disabled":false,"rental_uris":{"android":"levelo://app?vid=ce540e81-7361-4047-bbd5-3a85b0972108","ios":"levelo://app?vid=ce540e81-7361-4047-bbd5-3a85b0972108"},"vehicle_type_id":"4","last_reported":1730214611,"current_range_meters":10000,"station_id":"ce4bhbh2rcd13ifvqeo0","pricing_plan_id":"cebpf4jnsgd1na2vs0mg"},{"bike_id":"2a1108cc-c9a1-43a8-b7c9-9dbd6de6f771","system_id":"levelo_inurba_marseille","lat":43.28416,"lon":5.34989,"is_reserved":false,"is_disabled":false,"rental_uris":{"android":"levelo://app?vid=2a1108cc-c9a1-43a8-b7c9-9dbd6de6f771","ios":"levelo://app?vid=2a1108cc-c9a1-43a8-b7c9-9dbd6de6f771"},"vehicle_type_id":"4","last_reported":1730214611,"current_range_meters":36800,"station_id":"ce4bhbh2rcd13ifvqepg","pricing_plan_id":"cebpf4jnsgd1na2vs0mg"},{"bike_id":"681653f9-a76d-4c26-9d40-ff1de75dc934","system_id":"levelo_inurba_marseille","lat":43.29729,"lon":5.37693,"is_reserved":false,"is_disabled":false,"rental_uris":{"android":"levelo://app?vid=681653f9-a76d-4c26-9d40-ff1de75dc934","ios":"levelo://app?vid=681653f9-a76d-4c26-9d40-ff1de75dc934"},"vehicle_type_id":"4","last_reported":1730214611,"current_range_meters":32400,"station_id":"ce4bgkh2rcd13ifvqbl0","pricing_plan_id":"cebpf4jnsgd1na2vs0mg"},{"bike_id":"65bc1294-c00d-4d6c-b501-18148fe0fe0a","system_id":"levelo_inurba_marseille","lat":43.28613,"lon":5.35109,"is_reserved":false,"is_disabled":false,"rental_uris":{"android":"levelo://app?vid=65bc1294-c00d-4d6c-b501-18148fe0fe0a","ios":"levelo://app?vid=65bc1294-c00d-4d6c-b501-18148fe0fe0a"},"vehicle_type_id":"4","last_reported":1730214611,"current_range_meters":20000,"station_id":"ce4bhch2rcd13ifvqeug","pricing_plan_id":"cebpf4jnsgd1na2vs0mg"},{"bike_id":"a404248e-6987-4d99-b20a-9cc9dfe309cc","system_id":"levelo_inurba_marseille","lat":43.24075,"lon":5.37756,"is_reserved":false,"is_disabled":false,"rental_uris":{"android":"levelo://app?vid=a404248e-6987-4d99-b20a-9cc9dfe309cc","ios":"levelo://app?vid=a404248e-6987-4d99-b20a-9cc9dfe309cc"},"vehicle_type_id":"4","last_reported":1730214611,"current_range_meters":9600,"station_id":"ce4bhnp2rcd13ifvqgvg","pricing_plan_id":"cebpf4jnsgd1na2vs0mg"},{"bike_id":"3130ea0c-5896-45df-afe9-b91924b23e80","system_id":"levelo_inurba_marseille","lat":43.3054,"lon":5.38423,"is_reserved":false,"is_disabled":false,"rental_uris":{"android":"levelo://app?vid=3130ea0c-5896-45df-afe9-b91924b23e80","ios":"levelo://app?vid=3130ea0c-5896-45df-afe9-b91924b23e80"},"vehicle_type_id":"4","last_reported":1730214611,"current_range_meters":28000,"station_id":"ce4bgg92rcd13ifvqb30","pricing_plan_id":"cebpf4jnsgd1na2vs0mg"},{"bike_id":"df6183f9-1193-4065-b594-67efe096c432","system_id":"levelo_inurba_marseille","lat":43.23963,"lon":5.36634,"is_reserved":false,"is_disabled":false,"rental_uris":{"android":"levelo://app?vid=df6183f9-1193-4065-b594-67efe096c432","ios":"levelo://app?vid=df6183f9-1193-4065-b594-67efe096c432"},"vehicle_type_id":"4","last_reported":1730214611,"current_range_meters":38000,"station_id":"ce4bhi12rcd13ifvqfp0","pricing_plan_id":"cebpf4jnsgd1na2vs0mg"},{"bike_id":"c301accf-a537-4c35-9b51-7a53ea1114b4","system_id":"levelo_inurba_marseille","lat":43.32659,"lon":5.40998,"is_reserved":false,"is_disabled":false,"rental_uris":{"android":"levelo://app?vid=c301accf-a537-4c35-9b51-7a53ea1114b4","ios":"levelo://app?vid=c301accf-a537-4c35-9b51-7a53ea1114b4"},"vehicle_type_id":"4","last_reported":1730214611,"current_range_meters":28400,"station_id":"ce4bhpp2rcd13ifvqhgg","pricing_plan_id":"cebpf4jnsgd1na2vs0mg"},{"bike_id":"5b0caea7-b0e5-4da2-a359-403550b56cfa","system_id":"levelo_inurba_marseille","lat":43.24165,"lon":5.36399,"is_reserved":false,"is_disabled":false,"rental_uris":{"android":"levelo://app?vid=5b0caea7-b0e5-4da2-a359-403550b56cfa","ios":"levelo://app?vid=5b0caea7-b0e5-4da2-a359-403550b56cfa"},"vehicle_type_id":"4","last_reported":1730214611,"current_range_meters":27600,"station_id":"cpo36qri1sfpv3e86is0","pricing_plan_id":"cebpf4jnsgd1na2vs0mg"},{"bike_id":"ec3df831-6e1d-470b-aef9-d81f7e39cdc3","system_id":"levelo_inurba_marseille","lat":43.29007,"lon":5.35614,"is_reserved":false,"is_disabled":false,"rental_uris":{"android":"levelo://app?vid=ec3df831-6e1d-470b-aef9-d81f7e39cdc3","ios":"levelo://app?vid=ec3df831-6e1d-470b-aef9-d81f7e39cdc3"},"vehicle_type_id":"4","last_reported":1730214611,"current_range_meters":28000,"station_id":"ce4bhb92rcd13ifvqen0","pricing_plan_id":"cebpf4jnsgd1na2vs0mg"},{"bike_id":"77ef123c-8538-4364-86da-52db013cf76c","system_id":"levelo_inurba_marseille","lat":43.248077,"lon":5.374589,"is_reserved":false,"is_disabled":false,"rental_uris":{"android":"levelo://app?vid=77ef123c-8538-4364-86da-52db013cf76c","ios":"levelo://app?vid=77ef123c-8538-4364-86da-52db013cf76c"},"vehicle_type_id":"4","last_reported":1730214611,"current_range_meters":36800,"station_id":"ce4bhgh2rcd13ifvqfb0","pricing_plan_id":"cebpf4jnsgd1na2vs0mg"},{"bike_id":"50e03f8d-f15b-4b74-be1f-7a714435fb83","system_id":"levelo_inurba_marseille","lat":43.31362,"lon":5.36719,"is_reserved":false,"is_disabled":false,"rental_uris":{"android":"levelo://app?vid=50e03f8d-f15b-4b74-be1f-7a714435fb83","ios":"levelo://app?vid=50e03f8d-f15b-4b74-be1f-7a714435fb83"},"vehicle_type_id":"4","last_reported":1730214611,"current_range_meters":37600,"station_id":"ce4bgr92rcd13ifvqc6g","pricing_plan_id":"cebpf4jnsgd1na2vs0mg"},{"bike_id":"deba48a1-5f2a-40bd-befa-d606822478e6","system_id":"levelo_inurba_marseille","lat":43.27207,"lon":5.39176,"is_reserved":false,"is_disabled":false,"rental_uris":{"android":"levelo://app?vid=deba48a1-5f2a-40bd-befa-d606822478e6","ios":"levelo://app?vid=deba48a1-5f2a-40bd-befa-d606822478e6"},"vehicle_type_id":"4","last_reported":1730214611,"current_range_meters":16400,"station_id":"ce4bhhp2rcd13ifvqfm0","pricing_plan_id":"cebpf4jnsgd1na2vs0mg"},{"bike_id":"8dfaed6f-22eb-469b-ac99-55474cd0fef1","system_id":"levelo_inurba_marseille","lat":43.2885,"lon":5.35853,"is_reserved":false,"is_disabled":false,"rental_uris":{"android":"levelo://app?vid=8dfaed6f-22eb-469b-ac99-55474cd0fef1","ios":"levelo://app?vid=8dfaed6f-22eb-469b-ac99-55474cd0fef1"},"vehicle_type_id":"4","last_reported":1730214611,"current_range_meters":25600,"station_id":"ce4bhb12rcd13ifvqem0","pricing_plan_id":"cebpf4jnsgd1na2vs0mg"},{"bike_id":"1018ea0e-28be-4ac0-a350-174b52ff61e1","system_id":"levelo_inurba_marseille","lat":43.30883,"lon":5.39657,"is_reserved":false,"is_disabled":false,"rental_uris":{"android":"levelo://app?vid=1018ea0e-28be-4ac0-a350-174b52ff61e1","ios":"levelo://app?vid=1018ea0e-28be-4ac0-a350-174b52ff61e1"},"vehicle_type_id":"4","last_reported":1730214611,"current_range_meters":38000,"station_id":"ce4bh012rcd13ifvqcv0","pricing_plan_id":"cebpf4jnsgd1na2vs0mg"},{"bike_id":"7e9a6af2-ab4f-4d6f-b0b8-ad340f65faeb","system_id":"levelo_inurba_marseille","lat":43.2835,"lon":5.38104,"is_reserved":false,"is_disabled":false,"rental_uris":{"android":"levelo://app?vid=7e9a6af2-ab4f-4d6f-b0b8-ad340f65faeb","ios":"levelo://app?vid=7e9a6af2-ab4f-4d6f-b0b8-ad340f65faeb"},"vehicle_type_id":"4","last_reported":1730214611,"current_range_meters":16800,"station_id":"ce4bh412rcd13ifvqdr0","pricing_plan_id":"cebpf4jnsgd1na2vs0mg"},{"bike_id":"8a541179-556d-41db-a778-292c7db7c68f","system_id":"levelo_inurba_marseille","lat":43.27836,"lon":5.39226,"is_reserved":false,"is_disabled":false,"rental_uris":{"android":"levelo://app?vid=8a541179-556d-41db-a778-292c7db7c68f","ios":"levelo://app?vid=8a541179-556d-41db-a778-292c7db7c68f"},"vehicle_type_id":"4","last_reported":1730214611,"current_range_meters":30000,"station_id":"ce4bhjp2rcd13ifvqga0","pricing_plan_id":"cebpf4jnsgd1na2vs0mg"},{"bike_id":"55e6c8de-a6e2-4ec9-af72-9a8ff4395a4d","system_id":"levelo_inurba_marseille","lat":43.29166,"lon":5.37173,"is_reserved":false,"is_disabled":false,"rental_uris":{"android":"levelo://app?vid=55e6c8de-a6e2-4ec9-af72-9a8ff4395a4d","ios":"levelo://app?vid=55e6c8de-a6e2-4ec9-af72-9a8ff4395a4d"},"vehicle_type_id":"4","last_reported":1730214611,"current_range_meters":31200,"station_id":"ce4bha92rcd13ifvqeh0","pricing_plan_id":"cebpf4jnsgd1na2vs0mg"},{"bike_id":"2beeb4b3-adbd-4175-aba1-89d53e580868","system_id":"levelo_inurba_marseille","lat":43.30538,"lon":5.36705,"is_reserved":false,"is_disabled":false,"rental_uris":{"android":"levelo://app?vid=2beeb4b3-adbd-4175-aba1-89d53e580868","ios":"levelo://app?vid=2beeb4b3-adbd-4175-aba1-89d53e580868"},"vehicle_type_id":"4","last_reported":1730214611,"current_range_meters":25200,"station_id":"ce4bgrp2rcd13ifvqc9g","pricing_plan_id":"cebpf4jnsgd1na2vs0mg"},{"bike_id":"f8e2f8b2-b562-43ab-8a33-a463cdf877ce","system_id":"levelo_inurba_marseille","lat":43.27617,"lon":5.36107,"is_reserved":false,"is_disabled":false,"rental_uris":{"android":"levelo://app?vid=f8e2f8b2-b562-43ab-8a33-a463cdf877ce","ios":"levelo://app?vid=f8e2f8b2-b562-43ab-8a33-a463cdf877ce"},"vehicle_type_id":"4","last_reported":1730214611,"current_range_meters":19200,"station_id":"ce4bgj92rcd13ifvqbe0","pricing_plan_id":"cebpf4jnsgd1na2vs0mg"},{"bike_id":"31f8acb0-6282-437f-8d39-fd7801f1cffd","system_id":"levelo_inurba_marseille","lat":43.27212,"lon":5.39186,"is_reserved":false,"is_disabled":false,"rental_uris":{"android":"levelo://app?vid=31f8acb0-6282-437f-8d39-fd7801f1cffd","ios":"levelo://app?vid=31f8acb0-6282-437f-8d39-fd7801f1cffd"},"vehicle_type_id":"4","last_reported":1730214611,"current_range_meters":31200,"station_id":"ce4bhhp2rcd13ifvqfm0","pricing_plan_id":"cebpf4jnsgd1na2vs0mg"},{"bike_id":"1b4141a3-728e-49f1-a610-407fb80a531c","system_id":"levelo_inurba_marseille","lat":43.26499,"lon":5.39548,"is_reserved":false,"is_disabled":false,"rental_uris":{"android":"levelo://app?vid=1b4141a3-728e-49f1-a610-407fb80a531c","ios":"levelo://app?vid=1b4141a3-728e-49f1-a610-407fb80a531c"},"vehicle_type_id":"4","last_reported":1730214611,"current_range_meters":38800,"station_id":"ce4bhi12rcd13ifvqfq0","pricing_plan_id":"cebpf4jnsgd1na2vs0mg"},{"bike_id":"6d535ca1-ff3a-40d6-b7f0-6895af51c976","system_id":"levelo_inurba_marseille","lat":43.32285,"lon":5.38274,"is_reserved":false,"is_disabled":false,"rental_uris":{"android":"levelo://app?vid=6d535ca1-ff3a-40d6-b7f0-6895af51c976","ios":"levelo://app?vid=6d535ca1-ff3a-40d6-b7f0-6895af51c976"},"vehicle_type_id":"4","last_reported":1730214611,"current_range_meters":32400,"station_id":"ce4bhr12rcd13ifvqhqg","pricing_plan_id":"cebpf4jnsgd1na2vs0mg"},{"bike_id":"bd1d0c81-a505-473b-97ed-c2b8dcfa3ede","system_id":"levelo_inurba_marseille","lat":43.28423,"lon":5.34986,"is_reserved":false,"is_disabled":false,"rental_uris":{"android":"levelo://app?vid=bd1d0c81-a505-473b-97ed-c2b8dcfa3ede","ios":"levelo://app?vid=bd1d0c81-a505-473b-97ed-c2b8dcfa3ede"},"vehicle_type_id":"4","last_reported":1730214611,"current_range_meters":39200,"station_id":"ce4bhbh2rcd13ifvqepg","pricing_plan_id":"cebpf4jnsgd1na2vs0mg"},{"bike_id":"98d8ad1f-cce5-41a7-9713-584cc85a31c9","system_id":"levelo_inurba_marseille","lat":43.28151,"lon":5.42638,"is_reserved":false,"is_disabled":false,"rental_uris":{"android":"levelo://app?vid=98d8ad1f-cce5-41a7-9713-584cc85a31c9","ios":"levelo://app?vid=98d8ad1f-cce5-41a7-9713-584cc85a31c9"},"vehicle_type_id":"4","last_reported":1730214611,"current_range_meters":38000,"station_id":"ce4bhnh2rcd13ifvqgug","pricing_plan_id":"cebpf4jnsgd1na2vs0mg"},{"bike_id":"d79569ce-89bf-4b29-b374-2abbf6cc7e66","system_id":"levelo_inurba_marseille","lat":43.24162,"lon":5.36405,"is_reserved":false,"is_disabled":false,"rental_uris":{"android":"levelo://app?vid=d79569ce-89bf-4b29-b374-2abbf6cc7e66","ios":"levelo://app?vid=d79569ce-89bf-4b29-b374-2abbf6cc7e66"},"vehicle_type_id":"4","last_reported":1730214611,"current_range_meters":34000,"station_id":"cpo36qri1sfpv3e86is0","pricing_plan_id":"cebpf4jnsgd1na2vs0mg"},{"bike_id":"1dbd3b98-6ccc-4346-ba9c-068873384079","system_id":"levelo_inurba_marseille","lat":43.27613,"lon":5.36106,"is_reserved":false,"is_disabled":false,"rental_uris":{"android":"levelo://app?vid=1dbd3b98-6ccc-4346-ba9c-068873384079","ios":"levelo://app?vid=1dbd3b98-6ccc-4346-ba9c-068873384079"},"vehicle_type_id":"4","last_reported":1730214611,"current_range_meters":9200,"station_id":"ce4bgj92rcd13ifvqbe0","pricing_plan_id":"cebpf4jnsgd1na2vs0mg"},{"bike_id":"16f111de-a79b-40ec-8fb1-b22363ac8a4e","system_id":"levelo_inurba_marseille","lat":43.30146,"lon":5.3808,"is_reserved":false,"is_disabled":false,"rental_uris":{"android":"levelo://app?vid=16f111de-a79b-40ec-8fb1-b22363ac8a4e","ios":"levelo://app?vid=16f111de-a79b-40ec-8fb1-b22363ac8a4e"},"vehicle_type_id":"4","last_reported":1730214611,"current_range_meters":33600,"station_id":"ce4bgjp2rcd13ifvqbh0","pricing_plan_id":"cebpf4jnsgd1na2vs0mg"},{"bike_id":"5a802b0d-3cc3-4234-92aa-6bf67e1be7b9","system_id":"levelo_inurba_marseille","lat":43.26796,"lon":5.40258,"is_reserved":false,"is_disabled":false,"rental_uris":{"android":"levelo://app?vid=5a802b0d-3cc3-4234-92aa-6bf67e1be7b9","ios":"levelo://app?vid=5a802b0d-3cc3-4234-92aa-6bf67e1be7b9"},"vehicle_type_id":"4","last_reported":1730214611,"current_range_meters":28000,"station_id":"ce501612rcd8frsf0b60","pricing_plan_id":"cebpf4jnsgd1na2vs0mg"},{"bike_id":"f8ea04c7-47c1-4698-b434-6dcafc9b6a29","system_id":"levelo_inurba_marseille","lat":43.2968,"lon":5.37293,"is_reserved":false,"is_disabled":false,"rental_uris":{"android":"levelo://app?vid=f8ea04c7-47c1-4698-b434-6dcafc9b6a29","ios":"levelo://app?vid=f8ea04c7-47c1-4698-b434-6dcafc9b6a29"},"vehicle_type_id":"4","last_reported":1730214611,"current_range_meters":38000,"station_id":"ce4bgk12rcd13ifvqbj0","pricing_plan_id":"cebpf4jnsgd1na2vs0mg"},{"bike_id":"71ca1ef6-5725-460f-9bb5-daec8bfd3521","system_id":"levelo_inurba_marseille","lat":43.33024,"lon":5.39037,"is_reserved":false,"is_disabled":false,"rental_uris":{"android":"levelo://app?vid=71ca1ef6-5725-460f-9bb5-daec8bfd3521","ios":"levelo://app?vid=71ca1ef6-5725-460f-9bb5-daec8bfd3521"},"vehicle_type_id":"4","last_reported":1730214611,"current_range_meters":26000,"station_id":"ce4bhr92rcd13ifvqhrg","pricing_plan_id":"cebpf4jnsgd1na2vs0mg"},{"bike_id":"5e7ddc23-cca1-4564-9972-d9e2de88a646","system_id":"levelo_inurba_marseille","lat":43.26567,"lon":5.39008,"is_reserved":false,"is_disabled":false,"rental_uris":{"android":"levelo://app?vid=5e7ddc23-cca1-4564-9972-d9e2de88a646","ios":"levelo://app?vid=5e7ddc23-cca1-4564-9972-d9e2de88a646"},"vehicle_type_id":"4","last_reported":1730214611,"current_range_meters":6800,"station_id":"ce4bhe12rcd13ifvqf30","pricing_plan_id":"cebpf4jnsgd1na2vs0mg"},{"bike_id":"160c3125-d109-49e3-a687-ede78b99dea2","system_id":"levelo_inurba_marseille","lat":43.232,"lon":5.3555,"is_reserved":false,"is_disabled":false,"rental_uris":{"android":"levelo://app?vid=160c3125-d109-49e3-a687-ede78b99dea2","ios":"levelo://app?vid=160c3125-d109-49e3-a687-ede78b99dea2"},"vehicle_type_id":"4","last_reported":1730214611,"current_range_meters":16800,"station_id":"ce4bhu92rcd13ifvqi70","pricing_plan_id":"cebpf4jnsgd1na2vs0mg"},{"bike_id":"27edc2bb-9c3f-48e5-b1e5-ca1fd7b23862","system_id":"levelo_inurba_marseille","lat":43.27203,"lon":5.39183,"is_reserved":false,"is_disabled":false,"rental_uris":{"android":"levelo://app?vid=27edc2bb-9c3f-48e5-b1e5-ca1fd7b23862","ios":"levelo://app?vid=27edc2bb-9c3f-48e5-b1e5-ca1fd7b23862"},"vehicle_type_id":"4","last_reported":1730214611,"current_range_meters":39200,"station_id":"ce4bhhp2rcd13ifvqfm0","pricing_plan_id":"cebpf4jnsgd1na2vs0mg"},{"bike_id":"7a3f60d6-5589-44b2-bea7-8a929e9b6b4e","system_id":"levelo_inurba_marseille","lat":43.29899,"lon":5.43667,"is_reserved":false,"is_disabled":false,"rental_uris":{"android":"levelo://app?vid=7a3f60d6-5589-44b2-bea7-8a929e9b6b4e","ios":"levelo://app?vid=7a3f60d6-5589-44b2-bea7-8a929e9b6b4e"},"vehicle_type_id":"4","last_reported":1730214611,"current_range_meters":17200,"station_id":"ce4bhpp2rcd13ifvqhfg","pricing_plan_id":"cebpf4jnsgd1na2vs0mg"},{"bike_id":"80114b47-72f5-4a74-8218-73077ee0f861","system_id":"levelo_inurba_marseille","lat":43.23152,"lon":5.43715,"is_reserved":false,"is_disabled":false,"rental_uris":{"android":"levelo://app?vid=80114b47-72f5-4a74-8218-73077ee0f861","ios":"levelo://app?vid=80114b47-72f5-4a74-8218-73077ee0f861"},"vehicle_type_id":"4","last_reported":1730214611,"current_range_meters":3600,"station_id":"ce4bhmp2rcd13ifvqgog","pricing_plan_id":"cebpf4jnsgd1na2vs0mg"},{"bike_id":"3e3940e9-deee-4cfe-820b-3775e217e316","system_id":"levelo_inurba_marseille","lat":43.30275,"lon":5.37707,"is_reserved":false,"is_disabled":false,"rental_uris":{"android":"levelo://app?vid=3e3940e9-deee-4cfe-820b-3775e217e316","ios":"levelo://app?vid=3e3940e9-deee-4cfe-820b-3775e217e316"},"vehicle_type_id":"4","last_reported":1730214611,"current_range_meters":38000,"station_id":"ce4bguh2rcd13ifvqcj0","pricing_plan_id":"cebpf4jnsgd1na2vs0mg"},{"bike_id":"92fcbc51-0f76-4d28-bf76-87d86ca2c96d","system_id":"levelo_inurba_marseille","lat":43.29614,"lon":5.37152,"is_reserved":false,"is_disabled":false,"rental_uris":{"android":"levelo://app?vid=92fcbc51-0f76-4d28-bf76-87d86ca2c96d","ios":"levelo://app?vid=92fcbc51-0f76-4d28-bf76-87d86ca2c96d"},"vehicle_type_id":"4","last_reported":1730214611,"current_range_meters":38800,"station_id":"ce4bgnh2rcd13ifvqc0g","pricing_plan_id":"cebpf4jnsgd1na2vs0mg"},{"bike_id":"8a08e635-ee29-452d-b89b-0ca91b798507","system_id":"levelo_inurba_marseille","lat":43.25819,"lon":5.39429,"is_reserved":false,"is_disabled":false,"rental_uris":{"android":"levelo://app?vid=8a08e635-ee29-452d-b89b-0ca91b798507","ios":"levelo://app?vid=8a08e635-ee29-452d-b89b-0ca91b798507"},"vehicle_type_id":"4","last_reported":1730214611,"current_range_meters":22800,"station_id":"ce4bhip2rcd13ifvqft0","pricing_plan_id":"cebpf4jnsgd1na2vs0mg"},{"bike_id":"65fe9e28-0526-4b4d-8cb6-579b041ed280","system_id":"levelo_inurba_marseille","lat":43.29839,"lon":5.36271,"is_reserved":false,"is_disabled":false,"rental_uris":{"android":"levelo://app?vid=65fe9e28-0526-4b4d-8cb6-579b041ed280","ios":"levelo://app?vid=65fe9e28-0526-4b4d-8cb6-579b041ed280"},"vehicle_type_id":"4","last_reported":1730214611,"current_range_meters":38800,"station_id":"ce4bgpp2rcd13ifvqc3g","pricing_plan_id":"cebpf4jnsgd1na2vs0mg"},{"bike_id":"5aad74e3-42c0-4970-b983-c108ecef2049","system_id":"levelo_inurba_marseille","lat":43.24543,"lon":5.39532,"is_reserved":false,"is_disabled":false,"rental_uris":{"android":"levelo://app?vid=5aad74e3-42c0-4970-b983-c108ecef2049","ios":"levelo://app?vid=5aad74e3-42c0-4970-b983-c108ecef2049"},"vehicle_type_id":"4","last_reported":1730214611,"current_range_meters":20800,"station_id":"ce4bhlp2rcd13ifvqgjg","pricing_plan_id":"cebpf4jnsgd1na2vs0mg"},{"bike_id":"a58fbada-b613-45e9-8c24-bf573645d5ac","system_id":"levelo_inurba_marseille","lat":43.3302,"lon":5.39042,"is_reserved":false,"is_disabled":false,"rental_uris":{"android":"levelo://app?vid=a58fbada-b613-45e9-8c24-bf573645d5ac","ios":"levelo://app?vid=a58fbada-b613-45e9-8c24-bf573645d5ac"},"vehicle_type_id":"4","last_reported":1730214611,"current_range_meters":38800,"station_id":"ce4bhr92rcd13ifvqhrg","pricing_plan_id":"cebpf4jnsgd1na2vs0mg"},{"bike_id":"236b6802-9c55-4b02-ac01-96d90f0ba14e","system_id":"levelo_inurba_marseille","lat":43.26803,"lon":5.4027,"is_reserved":false,"is_disabled":false,"rental_uris":{"android":"levelo://app?vid=236b6802-9c55-4b02-ac01-96d90f0ba14e","ios":"levelo://app?vid=236b6802-9c55-4b02-ac01-96d90f0ba14e"},"vehicle_type_id":"4","last_reported":1730214611,"current_range_meters":38800,"station_id":"ce501612rcd8frsf0b60","pricing_plan_id":"cebpf4jnsgd1na2vs0mg"},{"bike_id":"8837d3e8-32f9-4c6f-ab17-6ab4ecba4419","system_id":"levelo_inurba_marseille","lat":43.28482,"lon":5.38415,"is_reserved":false,"is_disabled":false,"rental_uris":{"android":"levelo://app?vid=8837d3e8-32f9-4c6f-ab17-6ab4ecba4419","ios":"levelo://app?vid=8837d3e8-32f9-4c6f-ab17-6ab4ecba4419"},"vehicle_type_id":"4","last_reported":1730214611,"current_range_meters":22400,"station_id":"ce4bh512rcd13ifvqe3g","pricing_plan_id":"cebpf4jnsgd1na2vs0mg"},{"bike_id":"d3e057b4-c7c0-455e-918e-6a5b577f9496","system_id":"levelo_inurba_marseille","lat":43.24388,"lon":5.3706,"is_reserved":false,"is_disabled":false,"rental_uris":{"android":"levelo://app?vid=d3e057b4-c7c0-455e-918e-6a5b577f9496","ios":"levelo://app?vid=d3e057b4-c7c0-455e-918e-6a5b577f9496"},"vehicle_type_id":"4","last_reported":1730214611,"current_range_meters":17600,"station_id":"ce4bhhh2rcd13ifvqfk0","pricing_plan_id":"cebpf4jnsgd1na2vs0mg"},{"bike_id":"7ec67ba4-b6ab-4481-b4fa-85b5fc345f4a","system_id":"levelo_inurba_marseille","lat":43.29523,"lon":5.3903,"is_reserved":false,"is_disabled":false,"rental_uris":{"android":"levelo://app?vid=7ec67ba4-b6ab-4481-b4fa-85b5fc345f4a","ios":"levelo://app?vid=7ec67ba4-b6ab-4481-b4fa-85b5fc345f4a"},"vehicle_type_id":"4","last_reported":1730214611,"current_range_meters":36400,"station_id":"ce4bh3p2rcd13ifvqdp0","pricing_plan_id":"cebpf4jnsgd1na2vs0mg"},{"bike_id":"f5d5c9c6-b2bf-46a9-8c88-bea1326277b5","system_id":"levelo_inurba_marseille","lat":43.25493,"lon":5.37663,"is_reserved":false,"is_disabled":false,"rental_uris":{"android":"levelo://app?vid=f5d5c9c6-b2bf-46a9-8c88-bea1326277b5","ios":"levelo://app?vid=f5d5c9c6-b2bf-46a9-8c88-bea1326277b5"},"vehicle_type_id":"4","last_reported":1730214611,"current_range_meters":30000,"station_id":"ce4bhh12rcd13ifvqff0","pricing_plan_id":"cebpf4jnsgd1na2vs0mg"},{"bike_id":"d907b8ab-c7a8-4687-ba02-1270372e6df6","system_id":"levelo_inurba_marseille","lat":43.26783,"lon":5.39417,"is_reserved":false,"is_disabled":false,"rental_uris":{"android":"levelo://app?vid=d907b8ab-c7a8-4687-ba02-1270372e6df6","ios":"levelo://app?vid=d907b8ab-c7a8-4687-ba02-1270372e6df6"},"vehicle_type_id":"4","last_reported":1730214611,"current_range_meters":35200,"station_id":"ce4bhh12rcd13ifvqfg0","pricing_plan_id":"cebpf4jnsgd1na2vs0mg"},{"bike_id":"a5ecadc9-cb02-4701-8506-8cbc8f44bd96","system_id":"levelo_inurba_marseille","lat":43.33027,"lon":5.39042,"is_reserved":false,"is_disabled":false,"rental_uris":{"android":"levelo://app?vid=a5ecadc9-cb02-4701-8506-8cbc8f44bd96","ios":"levelo://app?vid=a5ecadc9-cb02-4701-8506-8cbc8f44bd96"},"vehicle_type_id":"4","last_reported":1730214611,"current_range_meters":25600,"station_id":"ce4bhr92rcd13ifvqhrg","pricing_plan_id":"cebpf4jnsgd1na2vs0mg"},{"bike_id":"b7310422-f663-4461-9bb6-f59666ff82c3","system_id":"levelo_inurba_marseille","lat":43.262,"lon":5.37938,"is_reserved":false,"is_disabled":false,"rental_uris":{"android":"levelo://app?vid=b7310422-f663-4461-9bb6-f59666ff82c3","ios":"levelo://app?vid=b7310422-f663-4461-9bb6-f59666ff82c3"},"vehicle_type_id":"4","last_reported":1730214611,"current_range_meters":10800,"station_id":"ce4bhjp2rcd13ifvqg90","pricing_plan_id":"cebpf4jnsgd1na2vs0mg"},{"bike_id":"89aa6764-413e-43b0-af23-45dd269d31d6","system_id":"levelo_inurba_marseille","lat":43.31108,"lon":5.37769,"is_reserved":false,"is_disabled":false,"rental_uris":{"android":"levelo://app?vid=89aa6764-413e-43b0-af23-45dd269d31d6","ios":"levelo://app?vid=89aa6764-413e-43b0-af23-45dd269d31d6"},"vehicle_type_id":"4","last_reported":1730214611,"current_range_meters":15200,"station_id":"ce4bgt92rcd13ifvqcg0","pricing_plan_id":"cebpf4jnsgd1na2vs0mg"},{"bike_id":"e24765a5-e631-4950-85a7-d50d4da7738d","system_id":"levelo_inurba_marseille","lat":43.22933,"lon":5.35375,"is_reserved":false,"is_disabled":false,"rental_uris":{"android":"levelo://app?vid=e24765a5-e631-4950-85a7-d50d4da7738d","ios":"levelo://app?vid=e24765a5-e631-4950-85a7-d50d4da7738d"},"vehicle_type_id":"4","last_reported":1730214611,"current_range_meters":8400,"station_id":"cpo3532slgdg3j2ikp40","pricing_plan_id":"cebpf4jnsgd1na2vs0mg"},{"bike_id":"648fac3e-24a4-4416-944b-a287bd76c738","system_id":"levelo_inurba_marseille","lat":43.26931,"lon":5.38918,"is_reserved":false,"is_disabled":false,"rental_uris":{"android":"levelo://app?vid=648fac3e-24a4-4416-944b-a287bd76c738","ios":"levelo://app?vid=648fac3e-24a4-4416-944b-a287bd76c738"},"vehicle_type_id":"4","last_reported":1730214611,"current_range_meters":30400,"station_id":"ce4bhhh2rcd13ifvqfl0","pricing_plan_id":"cebpf4jnsgd1na2vs0mg"},{"bike_id":"b72cfc4b-6f19-4131-a3c0-dbbfa6ca4961","system_id":"levelo_inurba_marseille","lat":43.26556,"lon":5.37284,"is_reserved":false,"is_disabled":false,"rental_uris":{"android":"levelo://app?vid=b72cfc4b-6f19-4131-a3c0-dbbfa6ca4961","ios":"levelo://app?vid=b72cfc4b-6f19-4131-a3c0-dbbfa6ca4961"},"vehicle_type_id":"4","last_reported":1730214611,"current_range_meters":17200,"station_id":"ce4bhg12rcd13ifvqf70","pricing_plan_id":"cebpf4jnsgd1na2vs0mg"},{"bike_id":"4ea48b03-e1a0-4ceb-9b62-d6b948a876b8","system_id":"levelo_inurba_marseille","lat":43.28424,"lon":5.34994,"is_reserved":false,"is_disabled":false,"rental_uris":{"android":"levelo://app?vid=4ea48b03-e1a0-4ceb-9b62-d6b948a876b8","ios":"levelo://app?vid=4ea48b03-e1a0-4ceb-9b62-d6b948a876b8"},"vehicle_type_id":"4","last_reported":1730214611,"current_range_meters":27200,"station_id":"ce4bhbh2rcd13ifvqepg","pricing_plan_id":"cebpf4jnsgd1na2vs0mg"},{"bike_id":"93be07fa-034d-4687-93bb-ae1605be189b","system_id":"levelo_inurba_marseille","lat":43.29717,"lon":5.37703,"is_reserved":false,"is_disabled":false,"rental_uris":{"android":"levelo://app?vid=93be07fa-034d-4687-93bb-ae1605be189b","ios":"levelo://app?vid=93be07fa-034d-4687-93bb-ae1605be189b"},"vehicle_type_id":"4","last_reported":1730214611,"current_range_meters":6000,"station_id":"ce4bgkh2rcd13ifvqbl0","pricing_plan_id":"cebpf4jnsgd1na2vs0mg"},{"bike_id":"308000a4-cb10-4aaf-bf38-988ad1730720","system_id":"levelo_inurba_marseille","lat":43.297073,"lon":5.366067,"is_reserved":false,"is_disabled":false,"rental_uris":{"android":"levelo://app?vid=308000a4-cb10-4aaf-bf38-988ad1730720","ios":"levelo://app?vid=308000a4-cb10-4aaf-bf38-988ad1730720"},"vehicle_type_id":"4","last_reported":1730214611,"current_range_meters":20800,"station_id":"ce4bgn12rcd13ifvqbt0","pricing_plan_id":"cebpf4jnsgd1na2vs0mg"},{"bike_id":"2fda6181-03f5-40ed-b158-4bcd6908625f","system_id":"levelo_inurba_marseille","lat":43.31675,"lon":5.43558,"is_reserved":false,"is_disabled":false,"rental_uris":{"android":"levelo://app?vid=2fda6181-03f5-40ed-b158-4bcd6908625f","ios":"levelo://app?vid=2fda6181-03f5-40ed-b158-4bcd6908625f"},"vehicle_type_id":"4","last_reported":1730214611,"current_range_meters":24000,"station_id":"","pricing_plan_id":"cebpf4jnsgd1na2vs0mg"},{"bike_id":"42f33d93-d869-423b-8263-d4fe286325ee","system_id":"levelo_inurba_marseille","lat":43.24076,"lon":5.37758,"is_reserved":false,"is_disabled":false,"rental_uris":{"android":"levelo://app?vid=42f33d93-d869-423b-8263-d4fe286325ee","ios":"levelo://app?vid=42f33d93-d869-423b-8263-d4fe286325ee"},"vehicle_type_id":"4","last_reported":1730214611,"current_range_meters":4400,"station_id":"ce4bhnp2rcd13ifvqgvg","pricing_plan_id":"cebpf4jnsgd1na2vs0mg"},{"bike_id":"930f84f5-b9eb-4f1b-acec-f433b05afd74","system_id":"levelo_inurba_marseille","lat":43.28718,"lon":5.38311,"is_reserved":false,"is_disabled":false,"rental_uris":{"android":"levelo://app?vid=930f84f5-b9eb-4f1b-acec-f433b05afd74","ios":"levelo://app?vid=930f84f5-b9eb-4f1b-acec-f433b05afd74"},"vehicle_type_id":"4","last_reported":1730214611,"current_range_meters":36000,"station_id":"ce4bhdp2rcd13ifvqf20","pricing_plan_id":"cebpf4jnsgd1na2vs0mg"},{"bike_id":"9ac6a683-fb57-4491-930b-44c8439827bf","system_id":"levelo_inurba_marseille","lat":43.295502,"lon":5.386361,"is_reserved":false,"is_disabled":false,"rental_uris":{"android":"levelo://app?vid=9ac6a683-fb57-4491-930b-44c8439827bf","ios":"levelo://app?vid=9ac6a683-fb57-4491-930b-44c8439827bf"},"vehicle_type_id":"4","last_reported":1730214611,"current_range_meters":6400,"station_id":"ce4bgih2rcd13ifvqba0","pricing_plan_id":"cebpf4jnsgd1na2vs0mg"},{"bike_id":"2f51a2de-6211-461c-973e-ade122d87f76","system_id":"levelo_inurba_marseille","lat":43.31222,"lon":5.36877,"is_reserved":false,"is_disabled":false,"rental_uris":{"android":"levelo://app?vid=2f51a2de-6211-461c-973e-ade122d87f76","ios":"levelo://app?vid=2f51a2de-6211-461c-973e-ade122d87f76"},"vehicle_type_id":"4","last_reported":1730214611,"current_range_meters":36400,"station_id":"ce4bgl92rcd13ifvqbq0","pricing_plan_id":"cebpf4jnsgd1na2vs0mg"},{"bike_id":"93646b4a-36c0-492d-917b-91b05c9f40e9","system_id":"levelo_inurba_marseille","lat":43.30532,"lon":5.36543,"is_reserved":false,"is_disabled":false,"rental_uris":{"android":"levelo://app?vid=93646b4a-36c0-492d-917b-91b05c9f40e9","ios":"levelo://app?vid=93646b4a-36c0-492d-917b-91b05c9f40e9"},"vehicle_type_id":"4","last_reported":1730214611,"current_range_meters":36800,"station_id":"ce4bgs12rcd13ifvqcag","pricing_plan_id":"cebpf4jnsgd1na2vs0mg"},{"bike_id":"0fc203e1-b484-4a56-b81f-05ba0d1760b6","system_id":"levelo_inurba_marseille","lat":43.31229,"lon":5.36875,"is_reserved":false,"is_disabled":false,"rental_uris":{"android":"levelo://app?vid=0fc203e1-b484-4a56-b81f-05ba0d1760b6","ios":"levelo://app?vid=0fc203e1-b484-4a56-b81f-05ba0d1760b6"},"vehicle_type_id":"4","last_reported":1730214611,"current_range_meters":10000,"station_id":"ce4bgl92rcd13ifvqbq0","pricing_plan_id":"cebpf4jnsgd1na2vs0mg"},{"bike_id":"fb86c54f-40f7-4f51-b1a3-01999550ecc2","system_id":"levelo_inurba_marseille","lat":43.26942,"lon":5.40255,"is_reserved":false,"is_disabled":false,"rental_uris":{"android":"levelo://app?vid=fb86c54f-40f7-4f51-b1a3-01999550ecc2","ios":"levelo://app?vid=fb86c54f-40f7-4f51-b1a3-01999550ecc2"},"vehicle_type_id":"4","last_reported":1730214611,"current_range_meters":35200,"station_id":"cjm6bp8fraef2m0cb0m0","pricing_plan_id":"cebpf4jnsgd1na2vs0mg"},{"bike_id":"42c5b94d-a6e1-4c0e-b3fa-74ef5f2ef0d2","system_id":"levelo_inurba_marseille","lat":43.239685,"lon":5.366233,"is_reserved":false,"is_disabled":false,"rental_uris":{"android":"levelo://app?vid=42c5b94d-a6e1-4c0e-b3fa-74ef5f2ef0d2","ios":"levelo://app?vid=42c5b94d-a6e1-4c0e-b3fa-74ef5f2ef0d2"},"vehicle_type_id":"4","last_reported":1730214611,"current_range_meters":22000,"station_id":"ce4bhi12rcd13ifvqfp0","pricing_plan_id":"cebpf4jnsgd1na2vs0mg"},{"bike_id":"7079600a-a000-49b9-bd9a-66e9815bf9b7","system_id":"levelo_inurba_marseille","lat":43.25726,"lon":5.4111,"is_reserved":false,"is_disabled":false,"rental_uris":{"android":"levelo://app?vid=7079600a-a000-49b9-bd9a-66e9815bf9b7","ios":"levelo://app?vid=7079600a-a000-49b9-bd9a-66e9815bf9b7"},"vehicle_type_id":"4","last_reported":1730214611,"current_range_meters":28800,"station_id":"ce4bhkp2rcd13ifvqgd0","pricing_plan_id":"cebpf4jnsgd1na2vs0mg"},{"bike_id":"148e6949-a48e-42f2-a083-67064e18a308","system_id":"levelo_inurba_marseille","lat":43.22933,"lon":5.35379,"is_reserved":false,"is_disabled":false,"rental_uris":{"android":"levelo://app?vid=148e6949-a48e-42f2-a083-67064e18a308","ios":"levelo://app?vid=148e6949-a48e-42f2-a083-67064e18a308"},"vehicle_type_id":"4","last_reported":1730214611,"current_range_meters":8400,"station_id":"cpo3532slgdg3j2ikp40","pricing_plan_id":"cebpf4jnsgd1na2vs0mg"},{"bike_id":"68cc06ad-1ed9-48dd-a96f-f5896a4b86f6","system_id":"levelo_inurba_marseille","lat":43.29366,"lon":5.3783,"is_reserved":false,"is_disabled":false,"rental_uris":{"android":"levelo://app?vid=68cc06ad-1ed9-48dd-a96f-f5896a4b86f6","ios":"levelo://app?vid=68cc06ad-1ed9-48dd-a96f-f5896a4b86f6"},"vehicle_type_id":"4","last_reported":1730214611,"current_range_meters":38800,"station_id":"ce4bgjh2rcd13ifvqbf0","pricing_plan_id":"cebpf4jnsgd1na2vs0mg"},{"bike_id":"25fdca90-d584-423c-bace-8d2424149471","system_id":"levelo_inurba_marseille","lat":43.284503,"lon":5.35884,"is_reserved":false,"is_disabled":false,"rental_uris":{"android":"levelo://app?vid=25fdca90-d584-423c-bace-8d2424149471","ios":"levelo://app?vid=25fdca90-d584-423c-bace-8d2424149471"},"vehicle_type_id":"4","last_reported":1730214611,"current_range_meters":4000,"station_id":"ce4bhah2rcd13ifvqei0","pricing_plan_id":"cebpf4jnsgd1na2vs0mg"},{"bike_id":"967553c7-6633-4345-8bc3-e60e339af14a","system_id":"levelo_inurba_marseille","lat":43.3088,"lon":5.39639,"is_reserved":false,"is_disabled":false,"rental_uris":{"android":"levelo://app?vid=967553c7-6633-4345-8bc3-e60e339af14a","ios":"levelo://app?vid=967553c7-6633-4345-8bc3-e60e339af14a"},"vehicle_type_id":"4","last_reported":1730214611,"current_range_meters":32400,"station_id":"ce4bh012rcd13ifvqcv0","pricing_plan_id":"cebpf4jnsgd1na2vs0mg"},{"bike_id":"0cebe45a-7302-469a-b861-6fd094a95414","system_id":"levelo_inurba_marseille","lat":43.2319,"lon":5.35554,"is_reserved":false,"is_disabled":false,"rental_uris":{"android":"levelo://app?vid=0cebe45a-7302-469a-b861-6fd094a95414","ios":"levelo://app?vid=0cebe45a-7302-469a-b861-6fd094a95414"},"vehicle_type_id":"4","last_reported":1730214611,"current_range_meters":8000,"station_id":"ce4bhu92rcd13ifvqi70","pricing_plan_id":"cebpf4jnsgd1na2vs0mg"},{"bike_id":"bc0a4522-417b-4c2d-a062-6f7532d23e3e","system_id":"levelo_inurba_marseille","lat":43.29578,"lon":5.37513,"is_reserved":false,"is_disabled":false,"rental_uris":{"android":"levelo://app?vid=bc0a4522-417b-4c2d-a062-6f7532d23e3e","ios":"levelo://app?vid=bc0a4522-417b-4c2d-a062-6f7532d23e3e"},"vehicle_type_id":"4","last_reported":1730214611,"current_range_meters":5600,"station_id":"ce4bgh92rcd13ifvqb50","pricing_plan_id":"cebpf4jnsgd1na2vs0mg"},{"bike_id":"8d998a29-206b-45b8-a127-cba345c415c9","system_id":"levelo_inurba_marseille","lat":43.295715,"lon":5.375277,"is_reserved":false,"is_disabled":false,"rental_uris":{"android":"levelo://app?vid=8d998a29-206b-45b8-a127-cba345c415c9","ios":"levelo://app?vid=8d998a29-206b-45b8-a127-cba345c415c9"},"vehicle_type_id":"4","last_reported":1730214611,"current_range_meters":39200,"station_id":"ce4bgh92rcd13ifvqb50","pricing_plan_id":"cebpf4jnsgd1na2vs0mg"},{"bike_id":"058ffb4d-ac75-483f-a17e-7c4c16ec8a44","system_id":"levelo_inurba_marseille","lat":43.3035,"lon":5.39687,"is_reserved":false,"is_disabled":false,"rental_uris":{"android":"levelo://app?vid=058ffb4d-ac75-483f-a17e-7c4c16ec8a44","ios":"levelo://app?vid=058ffb4d-ac75-483f-a17e-7c4c16ec8a44"},"vehicle_type_id":"4","last_reported":1730214611,"current_range_meters":32800,"station_id":"ce4bh092rcd13ifvqd20","pricing_plan_id":"cebpf4jnsgd1na2vs0mg"},{"bike_id":"507cce0f-c689-46cf-8a4d-e9b62c05b7e9","system_id":"levelo_inurba_marseille","lat":43.26783,"lon":5.39418,"is_reserved":false,"is_disabled":false,"rental_uris":{"android":"levelo://app?vid=507cce0f-c689-46cf-8a4d-e9b62c05b7e9","ios":"levelo://app?vid=507cce0f-c689-46cf-8a4d-e9b62c05b7e9"},"vehicle_type_id":"4","last_reported":1730214611,"current_range_meters":25600,"station_id":"ce4bhh12rcd13ifvqfg0","pricing_plan_id":"cebpf4jnsgd1na2vs0mg"},{"bike_id":"b19e8bf0-f239-49bb-a7d3-c3ba3e9b5222","system_id":"levelo_inurba_marseille","lat":43.24388,"lon":5.37058,"is_reserved":false,"is_disabled":false,"rental_uris":{"android":"levelo://app?vid=b19e8bf0-f239-49bb-a7d3-c3ba3e9b5222","ios":"levelo://app?vid=b19e8bf0-f239-49bb-a7d3-c3ba3e9b5222"},"vehicle_type_id":"4","last_reported":1730214611,"current_range_meters":38800,"station_id":"ce4bhhh2rcd13ifvqfk0","pricing_plan_id":"cebpf4jnsgd1na2vs0mg"},{"bike_id":"c327234d-78e8-41b6-8ece-6e5943779963","system_id":"levelo_inurba_marseille","lat":43.31887,"lon":5.40727,"is_reserved":false,"is_disabled":false,"rental_uris":{"android":"levelo://app?vid=c327234d-78e8-41b6-8ece-6e5943779963","ios":"levelo://app?vid=c327234d-78e8-41b6-8ece-6e5943779963"},"vehicle_type_id":"4","last_reported":1730214611,"current_range_meters":28000,"station_id":"ce4bhq12rcd13ifvqhig","pricing_plan_id":"cebpf4jnsgd1na2vs0mg"},{"bike_id":"9cb93c0f-e209-48e9-8366-c721da652997","system_id":"levelo_inurba_marseille","lat":43.28672,"lon":5.36349,"is_reserved":false,"is_disabled":false,"rental_uris":{"android":"levelo://app?vid=9cb93c0f-e209-48e9-8366-c721da652997","ios":"levelo://app?vid=9cb93c0f-e209-48e9-8366-c721da652997"},"vehicle_type_id":"4","last_reported":1730214611,"current_range_meters":38800,"station_id":"ce4bhah2rcd13ifvqej0","pricing_plan_id":"cebpf4jnsgd1na2vs0mg"},{"bike_id":"c0816ebe-8ebf-41c8-bfbb-56da69041a69","system_id":"levelo_inurba_marseille","lat":43.26789,"lon":5.39417,"is_reserved":false,"is_disabled":false,"rental_uris":{"android":"levelo://app?vid=c0816ebe-8ebf-41c8-bfbb-56da69041a69","ios":"levelo://app?vid=c0816ebe-8ebf-41c8-bfbb-56da69041a69"},"vehicle_type_id":"4","last_reported":1730214611,"current_range_meters":30400,"station_id":"ce4bhh12rcd13ifvqfg0","pricing_plan_id":"cebpf4jnsgd1na2vs0mg"},