{"last_updated":1723302437,"ttl":30,"version":"2.2","data":{"bikes":[{"bike_id":"1d8cd8ae-7f98-4be9-8378-a49954575452","system_id":"levelo_inurba_marseille","lat":43.31321,"lon":5.36904,"is_reserved":false,"is_disabled":false,"rental_uris":{"android":"levelo://app?vid=1d8cd8ae-7f98-4be9-8378-a49954575452","ios":"levelo://app?vid=1d8cd8ae-7f98-4be9-8378-a49954575452"},"vehicle_type_id":"4","last_reported":1723302437,"current_range_meters":26000,"station_id":"","pricing_plan_id":"cebpf4jnsgd1na2vs0mg"},{"bike_id":"577d6a2d-69a5-4561-aa68-63ef6ccdc037","system_id":"levelo_inurba_marseille","lat":43.314811,"lon":5.373104,"is_reserved":false,"is_disabled":false,"rental_uris":{"android":"levelo://app?vid=577d6a2d-69a5-4561-aa68-63ef6ccdc037","ios":"levelo://app?vid=577d6a2d-69a5-4561-aa68-63ef6ccdc037"},"vehicle_type_id":"4","last_reported":1723302437,"current_range_meters":28400,"station_id":"ce4bgt12rcd13ifvqcd0","pricing_plan_id":"cebpf4jnsgd1na2vs0mg"},{"bike_id":"52e75893-cd48-4246-b462-e347a268f020","system_id":"levelo_inurba_marseille","lat":43.309039,"lon":5.371797,"is_reserved":false,"is_disabled":false,"rental_uris":{"android":"levelo://app?vid=52e75893-cd48-4246-b462-e347a268f020","ios":"levelo://app?vid=52e75893-cd48-4246-b462-e347a268f020"},"vehicle_type_id":"4","last_reported":1723302437,"current_range_meters":18000,"station_id":"ce4bguh2rcd13ifvqckg","pricing_plan_id":"cebpf4jnsgd1na2vs0mg"},{"bike_id":"813a9eb6-1f40-439e-9668-de72b8008bcc","system_id":"levelo_inurba_marseille","lat":43.31749,"lon":5.37435,"is_reserved":false,"is_disabled":false,"rental_uris":{"android":"levelo://app?vid=813a9eb6-1f40-439e-9668-de72b8008bcc","ios":"levelo://app?vid=813a9eb6-1f40-439e-9668-de72b8008bcc"},"vehicle_type_id":"4","last_reported":1723302437,"current_range_meters":16800,"station_id":"","pricing_plan_id":"cebpf4jnsgd1na2vs0mg"},{"bike_id":"d56b9848-7388-4132-9583-e03f9b1e4b88","system_id":"levelo_inurba_marseille","lat":43.305714,"lon":5.365633,"is_reserved":false,"is_disabled":false,"rental_uris":{"android":"levelo://app?vid=d56b9848-7388-4132-9583-e03f9b1e4b88","ios":"levelo://app?vid=d56b9848-7388-4132-9583-e03f9b1e4b88"},"vehicle_type_id":"4","last_reported":1723302437,"current_range_meters":11600,"station_id":"ce4bgs12rcd13ifvqcag","pricing_plan_id":"cebpf4jnsgd1na2vs0mg"},{"bike_id":"3260f284-eeb1-4aad-a963-5219897dbb87","system_id":"levelo_inurba_marseille","lat":43.30537,"lon":5.367345,"is_reserved":false,"is_disabled":false,"rental_uris":{"android":"levelo://app?vid=3260f284-eeb1-4aad-a963-5219897dbb87","ios":"levelo://app?vid=3260f284-eeb1-4aad-a963-5219897dbb87"},"vehicle_type_id":"4","last_reported":1723302437,"current_range_meters":0,"station_id":"ce4bgrp2rcd13ifvqc9g","pricing_plan_id":"cebpf4jnsgd1na2vs0mg"},{"bike_id":"86527f69-2a6e-4124-91dd-975664127072","system_id":"levelo_inurba_marseille","lat":43.305714,"lon":5.365633,"is_reserved":false,"is_disabled":false,"rental_uris":{"android":"levelo://app?vid=86527f69-2a6e-4124-91dd-975664127072","ios":"levelo://app?vid=86527f69-2a6e-4124-91dd-975664127072"},"vehicle_type_id":"4","last_reported":1723302437,"current_range_meters":0,"station_id":"ce4bgs12rcd13ifvqcag","pricing_plan_id":"cebpf4jnsgd1na2vs0mg"},{"bike_id":"6b538ac9-44bc-4539-88fe-f2d52de16e4d","system_id":"levelo_inurba_marseille","lat":43.30537,"lon":5.367345,"is_reserved":false,"is_disabled":false,"rental_uris":{"android":"levelo://app?vid=6b538ac9-44bc-4539-88fe-f2d52de16e4d","ios":"levelo://app?vid=6b538ac9-44bc-4539-88fe-f2d52de16e4d"},"vehicle_type_id":"4","last_reported":1723302437,"current_range_meters":16000,"station_id":"ce4bgrp2rcd13ifvqc9g","pricing_plan_id":"cebpf4jnsgd1na2vs0mg"},{"bike_id":"4cb16024-133b-4277-8b19-45b6bca48efa","system_id":"levelo_inurba_marseille","lat":43.305714,"lon":5.365633,"is_reserved":false,"is_disabled":false,"rental_uris":{"android":"levelo://app?vid=4cb16024-133b-4277-8b19-45b6bca48efa","ios":"levelo://app?vid=4cb16024-133b-4277-8b19-45b6bca48efa"},"vehicle_type_id":"4","last_reported":1723302437,"current_range_meters":800,"station_id":"ce4bgs12rcd13ifvqcag","pricing_plan_id":"cebpf4jnsgd1na2vs0mg"},{"bike_id":"aa66df46-4e3c-4458-bdc0-decc82f04b49","system_id":"levelo_inurba_marseille","lat":43.311153,"lon":5.377607,"is_reserved":false,"is_disabled":false,"rental_uris":{"android":"levelo://app?vid=aa66df46-4e3c-4458-bdc0-decc82f04b49","ios":"levelo://app?vid=aa66df46-4e3c-4458-bdc0-decc82f04b49"},"vehicle_type_id":"4","last_reported":1723302437,"current_range_meters":30000,"station_id":"ce4bgt92rcd13ifvqcg0","pricing_plan_id":"cebpf4jnsgd1na2vs0mg"},{"bike_id":"17b584b4-e6ff-42f1-b690-50410cd76908","system_id":"levelo_inurba_marseille","lat":43.31116,"lon":5.37761,"is_reserved":false,"is_disabled":false,"rental_uris":{"android":"levelo://app?vid=17b584b4-e6ff-42f1-b690-50410cd76908","ios":"levelo://app?vid=17b584b4-e6ff-42f1-b690-50410cd76908"},"vehicle_type_id":"4","last_reported":1723302437,"current_range_meters":0,"station_id":"ce4bgt92rcd13ifvqcg0","pricing_plan_id":"cebpf4jnsgd1na2vs0mg"},{"bike_id":"a2ddf0a9-e4fe-416d-af89-700640b895e8","system_id":"levelo_inurba_marseille","lat":43.31468,"lon":5.378266,"is_reserved":false,"is_disabled":false,"rental_uris":{"android":"levelo://app?vid=a2ddf0a9-e4fe-416d-af89-700640b895e8","ios":"levelo://app?vid=a2ddf0a9-e4fe-416d-af89-700640b895e8"},"vehicle_type_id":"4","last_reported":1723302437,"current_range_meters":19200,"station_id":"","pricing_plan_id":"cebpf4jnsgd1na2vs0mg"},{"bike_id":"5fb8581f-9aa6-4e7c-b3b2-8106ff61b81b","system_id":"levelo_inurba_marseille","lat":43.303046,"lon":5.368981,"is_reserved":false,"is_disabled":false,"rental_uris":{"android":"levelo://app?vid=5fb8581f-9aa6-4e7c-b3b2-8106ff61b81b","ios":"levelo://app?vid=5fb8581f-9aa6-4e7c-b3b2-8106ff61b81b"},"vehicle_type_id":"4","last_reported":1723302437,"current_range_meters":27600,"station_id":"ce4bgqh2rcd13ifvqc5g","pricing_plan_id":"cebpf4jnsgd1na2vs0mg"},{"bike_id":"192bc778-be1f-402d-b1df-16d7172e5519","system_id":"levelo_inurba_marseille","lat":43.31359,"lon":5.38283,"is_reserved":false,"is_disabled":false,"rental_uris":{"android":"levelo://app?vid=192bc778-be1f-402d-b1df-16d7172e5519","ios":"levelo://app?vid=192bc778-be1f-402d-b1df-16d7172e5519"},"vehicle_type_id":"4","last_reported":1723302437,"current_range_meters":0,"station_id":"","pricing_plan_id":"cebpf4jnsgd1na2vs0mg"},{"bike_id":"acf5f1e8-de2b-41ca-8aa3-96936cfef668","system_id":"levelo_inurba_marseille","lat":43.31132,"lon":5.38323,"is_reserved":false,"is_disabled":false,"rental_uris":{"android":"levelo://app?vid=acf5f1e8-de2b-41ca-8aa3-96936cfef668","ios":"levelo://app?vid=acf5f1e8-de2b-41ca-8aa3-96936cfef668"},"vehicle_type_id":"4","last_reported":1723302437,"current_range_meters":400,"station_id":"","pricing_plan_id":"cebpf4jnsgd1na2vs0mg"},{"bike_id":"26c41086-39c6-4c6f-b449-9d179df49241","system_id":"levelo_inurba_marseille","lat":43.304606,"lon":5.379026,"is_reserved":false,"is_disabled":false,"rental_uris":{"android":"levelo://app?vid=26c41086-39c6-4c6f-b449-9d179df49241","ios":"levelo://app?vid=26c41086-39c6-4c6f-b449-9d179df49241"},"vehicle_type_id":"4","last_reported":1723302437,"current_range_meters":3200,"station_id":"ce4bgup2rcd13ifvqcn0","pricing_plan_id":"cebpf4jnsgd1na2vs0mg"},{"bike_id":"eee0473b-958b-40b7-bb28-c27772b76968","system_id":"levelo_inurba_marseille","lat":43.324771,"lon":5.36557,"is_reserved":false,"is_disabled":false,"rental_uris":{"android":"levelo://app?vid=eee0473b-958b-40b7-bb28-c27772b76968","ios":"levelo://app?vid=eee0473b-958b-40b7-bb28-c27772b76968"},"vehicle_type_id":"4","last_reported":1723302437,"current_range_meters":28000,"station_id":"ce4bhs12rcd13ifvqhvg","pricing_plan_id":"cebpf4jnsgd1na2vs0mg"},{"bike_id":"c2e3482d-4577-4983-a718-29d6bfe7dc95","system_id":"levelo_inurba_marseille","lat":43.324771,"lon":5.36557,"is_reserved":false,"is_disabled":false,"rental_uris":{"android":"levelo://app?vid=c2e3482d-4577-4983-a718-29d6bfe7dc95","ios":"levelo://app?vid=c2e3482d-4577-4983-a718-29d6bfe7dc95"},"vehicle_type_id":"4","last_reported":1723302437,"current_range_meters":25600,"station_id":"ce4bhs12rcd13ifvqhvg","pricing_plan_id":"cebpf4jnsgd1na2vs0mg"},{"bike_id":"a5ad36c9-6631-415b-8e10-7c7e9517d651","system_id":"levelo_inurba_marseille","lat":43.324771,"lon":5.36557,"is_reserved":false,"is_disabled":false,"rental_uris":{"android":"levelo://app?vid=a5ad36c9-6631-415b-8e10-7c7e9517d651","ios":"levelo://app?vid=a5ad36c9-6631-415b-8e10-7c7e9517d651"},"vehicle_type_id":"4","last_reported":1723302437,"current_range_meters":31200,"station_id":"ce4bhs12rcd13ifvqhvg","pricing_plan_id":"cebpf4jnsgd1na2vs0mg"},{"bike_id":"282e32e0-db08-42d5-a972-b34979e8de75","system_id":"levelo_inurba_marseille","lat":43.324771,"lon":5.36557,"is_reserved":false,"is_disabled":false,"rental_uris":{"android":"levelo://app?vid=282e32e0-db08-42d5-a972-b34979e8de75","ios":"levelo://app?vid=282e32e0-db08-42d5-a972-b34979e8de75"},"vehicle_type_id":"4","last_reported":1723302437,"current_range_meters":31200,"station_id":"ce4bhs12rcd13ifvqhvg","pricing_plan_id":"cebpf4jnsgd1na2vs0mg"},{"bike_id":"ab89edd3-71c8-47c6-ae35-619fb2bdd17d","system_id":"levelo_inurba_marseille","lat":43.324771,"lon":5.36557,"is_reserved":false,"is_disabled":false,"rental_uris":{"android":"levelo://app?vid=ab89edd3-71c8-47c6-ae35-619fb2bdd17d","ios":"levelo://app?vid=ab89edd3-71c8-47c6-ae35-619fb2bdd17d"},"vehicle_type_id":"4","last_reported":1723302437,"current_range_meters":7200,"station_id":"ce4bhs12rcd13ifvqhvg","pricing_plan_id":"cebpf4jnsgd1na2vs0mg"},{"bike_id":"8c271a0d-a394-4d18-891f-48438409eb3a","system_id":"levelo_inurba_marseille","lat":43.324771,"lon":5.36557,"is_reserved":false,"is_disabled":false,"rental_uris":{"android":"levelo://app?vid=8c271a0d-a394-4d18-891f-48438409eb3a","ios":"levelo://app?vid=8c271a0d-a394-4d18-891f-48438409eb3a"},"vehicle_type_id":"4","last_reported":1723302437,"current_range_meters":15600,"station_id":"ce4bhs12rcd13ifvqhvg","pricing_plan_id":"cebpf4jnsgd1na2vs0mg"},{"bike_id":"a524a4ff-59de-4768-ae6b-b6a4809c5130","system_id":"levelo_inurba_marseille","lat":43.31059,"lon":5.383405,"is_reserved":false,"is_disabled":false,"rental_uris":{"android":"levelo://app?vid=a524a4ff-59de-4768-ae6b-b6a4809c5130","ios":"levelo://app?vid=a524a4ff-59de-4768-ae6b-b6a4809c5130"},"vehicle_type_id":"4","last_reported":1723302437,"current_range_meters":5600,"station_id":"ce4bgv92rcd13ifvqcr0","pricing_plan_id":"cebpf4jnsgd1na2vs0mg"},{"bike_id":"fc446a5b-7663-4d87-a1f6-077beca2ed93","system_id":"levelo_inurba_marseille","lat":43.301429,"lon":5.37413,"is_reserved":false,"is_disabled":false,"rental_uris":{"android":"levelo://app?vid=fc446a5b-7663-4d87-a1f6-077beca2ed93","ios":"levelo://app?vid=fc446a5b-7663-4d87-a1f6-077beca2ed93"},"vehicle_type_id":"4","last_reported":1723302437,"current_range_meters":11600,"station_id":"ce4bgs92rcd13ifvqcc0","pricing_plan_id":"cebpf4jnsgd1na2vs0mg"},{"bike_id":"0143d79a-d772-4dcc-b1dd-96ea0918b91c","system_id":"levelo_inurba_marseille","lat":43.299222,"lon":5.365554,"is_reserved":false,"is_disabled":false,"rental_uris":{"android":"levelo://app?vid=0143d79a-d772-4dcc-b1dd-96ea0918b91c","ios":"levelo://app?vid=0143d79a-d772-4dcc-b1dd-96ea0918b91c"},"vehicle_type_id":"4","last_reported":1723302437,"current_range_meters":29600,"station_id":"ce4bgm92rcd13ifvqbr0","pricing_plan_id":"cebpf4jnsgd1na2vs0mg"},{"bike_id":"5e514761-add8-4afa-a6ee-8a4ffb51afe0","system_id":"levelo_inurba_marseille","lat":43.299222,"lon":5.365554,"is_reserved":false,"is_disabled":false,"rental_uris":{"android":"levelo://app?vid=5e514761-add8-4afa-a6ee-8a4ffb51afe0","ios":"levelo://app?vid=5e514761-add8-4afa-a6ee-8a4ffb51afe0"},"vehicle_type_id":"4","last_reported":1723302437,"current_range_meters":26800,"station_id":"ce4bgm92rcd13ifvqbr0","pricing_plan_id":"cebpf4jnsgd1na2vs0mg"},{"bike_id":"11d4ccc8-a034-43cd-b7ca-ad7007070186","system_id":"levelo_inurba_marseille","lat":43.299724,"lon":5.371829,"is_reserved":false,"is_disabled":false,"rental_uris":{"android":"levelo://app?vid=11d4ccc8-a034-43cd-b7ca-ad7007070186","ios":"levelo://app?vid=11d4ccc8-a034-43cd-b7ca-ad7007070186"},"vehicle_type_id":"4","last_reported":1723302437,"current_range_meters":25600,"station_id":"ce4bgr92rcd13ifvqc7g","pricing_plan_id":"cebpf4jnsgd1na2vs0mg"},{"bike_id":"3a1c78ed-e5c5-4b46-969e-0931ce352cca","system_id":"levelo_inurba_marseille","lat":43.2985,"lon":5.36289,"is_reserved":false,"is_disabled":false,"rental_uris":{"android":"levelo://app?vid=3a1c78ed-e5c5-4b46-969e-0931ce352cca","ios":"levelo://app?vid=3a1c78ed-e5c5-4b46-969e-0931ce352cca"},"vehicle_type_id":"4","last_reported":1723302437,"current_range_meters":2000,"station_id":"ce4bgpp2rcd13ifvqc3g","pricing_plan_id":"cebpf4jnsgd1na2vs0mg"},{"bike_id":"c2daa936-7ee8-4b28-8339-ceaeeb411a52","system_id":"levelo_inurba_marseille","lat":43.299243,"lon":5.37481,"is_reserved":false,"is_disabled":false,"rental_uris":{"android":"levelo://app?vid=c2daa936-7ee8-4b28-8339-ceaeeb411a52","ios":"levelo://app?vid=c2daa936-7ee8-4b28-8339-ceaeeb411a52"},"vehicle_type_id":"4","last_reported":1723302437,"current_range_meters":0,"station_id":"ce4bgjh2rcd13ifvqbg0","pricing_plan_id":"cebpf4jnsgd1na2vs0mg"},{"bike_id":"a3e6def2-4376-4e02-a120-1a3b5666f5ab","system_id":"levelo_inurba_marseille","lat":43.299243,"lon":5.37481,"is_reserved":false,"is_disabled":false,"rental_uris":{"android":"levelo://app?vid=a3e6def2-4376-4e02-a120-1a3b5666f5ab","ios":"levelo://app?vid=a3e6def2-4376-4e02-a120-1a3b5666f5ab"},"vehicle_type_id":"4","last_reported":1723302437,"current_range_meters":10400,"station_id":"ce4bgjh2rcd13ifvqbg0","pricing_plan_id":"cebpf4jnsgd1na2vs0mg"},{"bike_id":"90d6ca88-929c-4867-a8de-221ecf944035","system_id":"levelo_inurba_marseille","lat":43.299243,"lon":5.37481,"is_reserved":false,"is_disabled":false,"rental_uris":{"android":"levelo://app?vid=90d6ca88-929c-4867-a8de-221ecf944035","ios":"levelo://app?vid=90d6ca88-929c-4867-a8de-221ecf944035"},"vehicle_type_id":"4","last_reported":1723302437,"current_range_meters":16400,"station_id":"ce4bgjh2rcd13ifvqbg0","pricing_plan_id":"cebpf4jnsgd1na2vs0mg"},{"bike_id":"80f9f110-4ffc-4297-bf57-2bf2a710da39","system_id":"levelo_inurba_marseille","lat":43.322872,"lon":5.382756,"is_reserved":false,"is_disabled":false,"rental_uris":{"android":"levelo://app?vid=80f9f110-4ffc-4297-bf57-2bf2a710da39","ios":"levelo://app?vid=80f9f110-4ffc-4297-bf57-2bf2a710da39"},"vehicle_type_id":"4","last_reported":1723302437,"current_range_meters":1600,"station_id":"ce4bhr12rcd13ifvqhqg","pricing_plan_id":"cebpf4jnsgd1na2vs0mg"},{"bike_id":"09e5d79b-31ea-46c7-be26-3ef693448c5b","system_id":"levelo_inurba_marseille","lat":43.32296,"lon":5.38258,"is_reserved":false,"is_disabled":false,"rental_uris":{"android":"levelo://app?vid=09e5d79b-31ea-46c7-be26-3ef693448c5b","ios":"levelo://app?vid=09e5d79b-31ea-46c7-be26-3ef693448c5b"},"vehicle_type_id":"4","last_reported":1723302437,"current_range_meters":19200,"station_id":"ce4bhr12rcd13ifvqhqg","pricing_plan_id":"cebpf4jnsgd1na2vs0mg"},{"bike_id":"216240ef-238f-48ba-bd26-5d1c9cf540df","system_id":"levelo_inurba_marseille","lat":43.31456,"lon":5.38784,"is_reserved":false,"is_disabled":false,"rental_uris":{"android":"levelo://app?vid=216240ef-238f-48ba-bd26-5d1c9cf540df","ios":"levelo://app?vid=216240ef-238f-48ba-bd26-5d1c9cf540df"},"vehicle_type_id":"4","last_reported":1723302437,"current_range_meters":400,"station_id":"","pricing_plan_id":"cebpf4jnsgd1na2vs0mg"},{"bike_id":"0498b008-f8af-42b7-bd93-78de4a4a5cbc","system_id":"levelo_inurba_marseille","lat":43.29771,"lon":5.37111,"is_reserved":false,"is_disabled":false,"rental_uris":{"android":"levelo://app?vid=0498b008-f8af-42b7-bd93-78de4a4a5cbc","ios":"levelo://app?vid=0498b008-f8af-42b7-bd93-78de4a4a5cbc"},"vehicle_type_id":"4","last_reported":1723302437,"current_range_meters":400,"station_id":"ce4bgop2rcd13ifvqc1g","pricing_plan_id":"cebpf4jnsgd1na2vs0mg"},{"bike_id":"b820e5a4-ca2b-4bfd-b1fd-be17cd35c26d","system_id":"levelo_inurba_marseille","lat":43.297163,"lon":5.365866,"is_reserved":false,"is_disabled":false,"rental_uris":{"android":"levelo://app?vid=b820e5a4-ca2b-4bfd-b1fd-be17cd35c26d","ios":"levelo://app?vid=b820e5a4-ca2b-4bfd-b1fd-be17cd35c26d"},"vehicle_type_id":"4","last_reported":1723302437,"current_range_meters":25600,"station_id":"ce4bgn12rcd13ifvqbt0","pricing_plan_id":"cebpf4jnsgd1na2vs0mg"},{"bike_id":"3600624b-ba31-4d56-a749-486d22fb7666","system_id":"levelo_inurba_marseille","lat":43.297163,"lon":5.365866,"is_reserved":false,"is_disabled":false,"rental_uris":{"android":"levelo://app?vid=3600624b-ba31-4d56-a749-486d22fb7666","ios":"levelo://app?vid=3600624b-ba31-4d56-a749-486d22fb7666"},"vehicle_type_id":"4","last_reported":1723302437,"current_range_meters":2400,"station_id":"ce4bgn12rcd13ifvqbt0","pricing_plan_id":"cebpf4jnsgd1na2vs0mg"},{"bike_id":"0f32e3f4-4a3c-4ea6-be1a-56812a8c4138","system_id":"levelo_inurba_marseille","lat":43.29573,"lon":5.367355,"is_reserved":false,"is_disabled":false,"rental_uris":{"android":"levelo://app?vid=0f32e3f4-4a3c-4ea6-be1a-56812a8c4138","ios":"levelo://app?vid=0f32e3f4-4a3c-4ea6-be1a-56812a8c4138"},"vehicle_type_id":"4","last_reported":1723302437,"current_range_meters":8000,"station_id":"ce4bgph2rcd13ifvqc2g","pricing_plan_id":"cebpf4jnsgd1na2vs0mg"},{"bike_id":"f1e85753-47e5-45ba-a742-3ff06e39fbd5","system_id":"levelo_inurba_marseille","lat":43.32755,"lon":5.379647,"is_reserved":false,"is_disabled":false,"rental_uris":{"android":"levelo://app?vid=f1e85753-47e5-45ba-a742-3ff06e39fbd5","ios":"levelo://app?vid=f1e85753-47e5-45ba-a742-3ff06e39fbd5"},"vehicle_type_id":"4","last_reported":1723302437,"current_range_meters":14800,"station_id":"","pricing_plan_id":"cebpf4jnsgd1na2vs0mg"},{"bike_id":"c30afed9-af68-4726-8063-f30054d89dd8","system_id":"levelo_inurba_marseille","lat":43.327563,"lon":5.379687,"is_reserved":false,"is_disabled":false,"rental_uris":{"android":"levelo://app?vid=c30afed9-af68-4726-8063-f30054d89dd8","ios":"levelo://app?vid=c30afed9-af68-4726-8063-f30054d89dd8"},"vehicle_type_id":"4","last_reported":1723302437,"current_range_meters":18000,"station_id":"","pricing_plan_id":"cebpf4jnsgd1na2vs0mg"},{"bike_id":"9f32de50-97f1-49ee-9631-2dd28e57da5b","system_id":"levelo_inurba_marseille","lat":43.298037,"lon":5.381066,"is_reserved":false,"is_disabled":false,"rental_uris":{"android":"levelo://app?vid=9f32de50-97f1-49ee-9631-2dd28e57da5b","ios":"levelo://app?vid=9f32de50-97f1-49ee-9631-2dd28e57da5b"},"vehicle_type_id":"4","last_reported":1723302437,"current_range_meters":0,"station_id":"ce4bgip2rcd13ifvqbb0","pricing_plan_id":"cebpf4jnsgd1na2vs0mg"},{"bike_id":"3a767a41-918a-4ed6-b6a8-46e60db8e67e","system_id":"levelo_inurba_marseille","lat":43.304274,"lon":5.388873,"is_reserved":false,"is_disabled":false,"rental_uris":{"android":"levelo://app?vid=3a767a41-918a-4ed6-b6a8-46e60db8e67e","ios":"levelo://app?vid=3a767a41-918a-4ed6-b6a8-46e60db8e67e"},"vehicle_type_id":"4","last_reported":1723302437,"current_range_meters":26800,"station_id":"ce4bgk12rcd13ifvqbi0","pricing_plan_id":"cebpf4jnsgd1na2vs0mg"},{"bike_id":"04d46315-cdab-4247-a549-0977c0503308","system_id":"levelo_inurba_marseille","lat":43.296263,"lon":5.377094,"is_reserved":false,"is_disabled":false,"rental_uris":{"android":"levelo://app?vid=04d46315-cdab-4247-a549-0977c0503308","ios":"levelo://app?vid=04d46315-cdab-4247-a549-0977c0503308"},"vehicle_type_id":"4","last_reported":1723302437,"current_range_meters":27600,"station_id":"ce4bgi92rcd13ifvqb90","pricing_plan_id":"cebpf4jnsgd1na2vs0mg"},{"bike_id":"7d16b2d9-8f88-4145-80d2-6819ffd90862","system_id":"levelo_inurba_marseille","lat":43.299724,"lon":5.384848,"is_reserved":false,"is_disabled":false,"rental_uris":{"android":"levelo://app?vid=7d16b2d9-8f88-4145-80d2-6819ffd90862","ios":"levelo://app?vid=7d16b2d9-8f88-4145-80d2-6819ffd90862"},"vehicle_type_id":"4","last_reported":1723302437,"current_range_meters":23200,"station_id":"ce4bgj92rcd13ifvqbd0","pricing_plan_id":"cebpf4jnsgd1na2vs0mg"},{"bike_id":"151ce7a0-0b53-4d2a-9dcc-6f1d450ba390","system_id":"levelo_inurba_marseille","lat":43.301396,"lon":5.387812,"is_reserved":false,"is_disabled":false,"rental_uris":{"android":"levelo://app?vid=151ce7a0-0b53-4d2a-9dcc-6f1d450ba390","ios":"levelo://app?vid=151ce7a0-0b53-4d2a-9dcc-6f1d450ba390"},"vehicle_type_id":"4","last_reported":1723302437,"current_range_meters":20400,"station_id":"ce4bghh2rcd13ifvqb60","pricing_plan_id":"cebpf4jnsgd1na2vs0mg"},{"bike_id":"31d196f6-77fb-4ef6-aa8d-640723f65bfc","system_id":"levelo_inurba_marseille","lat":43.2943,"lon":5.35778,"is_reserved":false,"is_disabled":false,"rental_uris":{"android":"levelo://app?vid=31d196f6-77fb-4ef6-aa8d-640723f65bfc","ios":"levelo://app?vid=31d196f6-77fb-4ef6-aa8d-640723f65bfc"},"vehicle_type_id":"4","last_reported":1723302437,"current_range_meters":14400,"station_id":"ce4bhch2rcd13ifvqeug","pricing_plan_id":"cebpf4jnsgd1na2vs0mg"},{"bike_id":"23949995-c082-4641-b949-9d2000457f7a","system_id":"levelo_inurba_marseille","lat":43.32385,"lon":5.38923,"is_reserved":false,"is_disabled":false,"rental_uris":{"android":"levelo://app?vid=23949995-c082-4641-b949-9d2000457f7a","ios":"levelo://app?vid=23949995-c082-4641-b949-9d2000457f7a"},"vehicle_type_id":"4","last_reported":1723302437,"current_range_meters":0,"station_id":"ce4bhqp2rcd13ifvqhog","pricing_plan_id":"cebpf4jnsgd1na2vs0mg"},{"bike_id":"34ba1e17-740d-4bb1-8a2e-746bc95633d6","system_id":"levelo_inurba_marseille","lat":43.292749,"lon":5.368398,"is_reserved":false,"is_disabled":false,"rental_uris":{"android":"levelo://app?vid=34ba1e17-740d-4bb1-8a2e-746bc95633d6","ios":"levelo://app?vid=34ba1e17-740d-4bb1-8a2e-746bc95633d6"},"vehicle_type_id":"4","last_reported":1723302437,"current_range_meters":31200,"station_id":"ce4bhbp2rcd13ifvqesg","pricing_plan_id":"cebpf4jnsgd1na2vs0mg"},{"bike_id":"8d37495d-9961-45f8-ba67-ee81725ae3ae","system_id":"levelo_inurba_marseille","lat":43.29228,"lon":5.36363,"is_reserved":false,"is_disabled":false,"rental_uris":{"android":"levelo://app?vid=8d37495d-9961-45f8-ba67-ee81725ae3ae","ios":"levelo://app?vid=8d37495d-9961-45f8-ba67-ee81725ae3ae"},"vehicle_type_id":"4","last_reported":1723302437,"current_range_meters":8800,"station_id":"","pricing_plan_id":"cebpf4jnsgd1na2vs0mg"},{"bike_id":"0cef5b1d-7e73-499e-ac3f-18d46cc5716b","system_id":"levelo_inurba_marseille","lat":43.29286,"lon":5.37474,"is_reserved":false,"is_disabled":false,"rental_uris":{"android":"levelo://app?vid=0cef5b1d-7e73-499e-ac3f-18d46cc5716b","ios":"levelo://app?vid=0cef5b1d-7e73-499e-ac3f-18d46cc5716b"},"vehicle_type_id":"4","last_reported":1723302437,"current_range_meters":0,"station_id":"ce4bgi12rcd13ifvqb70","pricing_plan_id":"cebpf4jnsgd1na2vs0mg"},{"bike_id":"accef160-4488-4518-af2b-dabb8e37fb53","system_id":"levelo_inurba_marseille","lat":43.29233,"lon":5.36066,"is_reserved":false,"is_disabled":false,"rental_uris":{"android":"levelo://app?vid=accef160-4488-4518-af2b-dabb8e37fb53","ios":"levelo://app?vid=accef160-4488-4518-af2b-dabb8e37fb53"},"vehicle_type_id":"4","last_reported":1723302437,"current_range_meters":0,"station_id":"ce4bhbh2rcd13ifvqeqg","pricing_plan_id":"cebpf4jnsgd1na2vs0mg"},{"bike_id":"ef4933a6-600f-4b57-9fc2-76ce69bedc0c","system_id":"levelo_inurba_marseille","lat":43.292311,"lon":5.360731,"is_reserved":false,"is_disabled":false,"rental_uris":{"android":"levelo://app?vid=ef4933a6-600f-4b57-9fc2-76ce69bedc0c","ios":"levelo://app?vid=ef4933a6-600f-4b57-9fc2-76ce69bedc0c"},"vehicle_type_id":"4","last_reported":1723302437,"current_range_meters":0,"station_id":"ce4bhbh2rcd13ifvqeqg","pricing_plan_id":"cebpf4jnsgd1na2vs0mg"},{"bike_id":"7ecaf2b4-5d09-449c-aad2-2fcf0c3b4f32","system_id":"levelo_inurba_marseille","lat":43.292311,"lon":5.360731,"is_reserved":false,"is_disabled":false,"rental_uris":{"android":"levelo://app?vid=7ecaf2b4-5d09-449c-aad2-2fcf0c3b4f32","ios":"levelo://app?vid=7ecaf2b4-5d09-449c-aad2-2fcf0c3b4f32"},"vehicle_type_id":"4","last_reported":1723302437,"current_range_meters":25600,"station_id":"ce4bhbh2rcd13ifvqeqg","pricing_plan_id":"cebpf4jnsgd1na2vs0mg"},{"bike_id":"8669c215-f64f-4991-918a-38e605b47e3d","system_id":"levelo_inurba_marseille","lat":43.292887,"lon":5.355623,"is_reserved":false,"is_disabled":false,"rental_uris":{"android":"levelo://app?vid=8669c215-f64f-4991-918a-38e605b47e3d","ios":"levelo://app?vid=8669c215-f64f-4991-918a-38e605b47e3d"},"vehicle_type_id":"4","last_reported":1723302437,"current_range_meters":7600,"station_id":"","pricing_plan_id":"cebpf4jnsgd1na2vs0mg"},{"bike_id":"3ef27e76-2baa-4baf-b290-68c5617df3f3","system_id":"levelo_inurba_marseille","lat":43.292005,"lon":5.357875,"is_reserved":false,"is_disabled":false,"rental_uris":{"android":"levelo://app?vid=3ef27e76-2baa-4baf-b290-68c5617df3f3","ios":"levelo://app?vid=3ef27e76-2baa-4baf-b290-68c5617df3f3"},"vehicle_type_id":"4","last_reported":1723302437,"current_range_meters":0,"station_id":"ce4bhb12rcd13ifvqel0","pricing_plan_id":"cebpf4jnsgd1na2vs0mg"},{"bike_id":"dbc65527-3086-4b5e-a0d8-e41121b9d7c9","system_id":"levelo_inurba_marseille","lat":43.29198,"lon":5.35796,"is_reserved":false,"is_disabled":false,"rental_uris":{"android":"levelo://app?vid=dbc65527-3086-4b5e-a0d8-e41121b9d7c9","ios":"levelo://app?vid=dbc65527-3086-4b5e-a0d8-e41121b9d7c9"},"vehicle_type_id":"4","last_reported":1723302437,"current_range_meters":0,"station_id":"ce4bhb12rcd13ifvqel0","pricing_plan_id":"cebpf4jnsgd1na2vs0mg"},{"bike_id":"9d4b68a5-c93f-4844-a235-5ff4a055b660","system_id":"levelo_inurba_marseille","lat":43.292385,"lon":5.37767,"is_reserved":false,"is_disabled":false,"rental_uris":{"android":"levelo://app?vid=9d4b68a5-c93f-4844-a235-5ff4a055b660","ios":"levelo://app?vid=9d4b68a5-c93f-4844-a235-5ff4a055b660"},"vehicle_type_id":"4","last_reported":1723302437,"current_range_meters":11600,"station_id":"","pricing_plan_id":"cebpf4jnsgd1na2vs0mg"},{"bike_id":"b4d462b5-819c-4d69-9520-aec8e77d3892","system_id":"levelo_inurba_marseille","lat":43.29529,"lon":5.385581,"is_reserved":false,"is_disabled":false,"rental_uris":{"android":"levelo://app?vid=b4d462b5-819c-4d69-9520-aec8e77d3892","ios":"levelo://app?vid=b4d462b5-819c-4d69-9520-aec8e77d3892"},"vehicle_type_id":"4","last_reported":1723302437,"current_range_meters":0,"station_id":"ce4bgih2rcd13ifvqba0","pricing_plan_id":"cebpf4jnsgd1na2vs0mg"},{"bike_id":"f1923bdd-12b2-4b88-8407-da6307212d7d","system_id":"levelo_inurba_marseille","lat":43.290779,"lon":5.371482,"is_reserved":false,"is_disabled":false,"rental_uris":{"android":"levelo://app?vid=f1923bdd-12b2-4b88-8407-da6307212d7d","ios":"levelo://app?vid=f1923bdd-12b2-4b88-8407-da6307212d7d"},"vehicle_type_id":"4","last_reported":1723302437,"current_range_meters":4400,"station_id":"ce4bh5p2rcd13ifvqe4g","pricing_plan_id":"cebpf4jnsgd1na2vs0mg"},{"bike_id":"9319951f-ac54-48ba-a881-38837b9a9855","system_id":"levelo_inurba_marseille","lat":43.33519,"lon":5.3616,"is_reserved":false,"is_disabled":false,"rental_uris":{"android":"levelo://app?vid=9319951f-ac54-48ba-a881-38837b9a9855","ios":"levelo://app?vid=9319951f-ac54-48ba-a881-38837b9a9855"},"vehicle_type_id":"4","last_reported":1723302437,"current_range_meters":18400,"station_id":"","pricing_plan_id":"cebpf4jnsgd1na2vs0mg"},{"bike_id":"af02ee6a-8208-43ce-91f5-a906d09710c2","system_id":"levelo_inurba_marseille","lat":43.290624,"lon":5.359245,"is_reserved":false,"is_disabled":false,"rental_uris":{"android":"levelo://app?vid=af02ee6a-8208-43ce-91f5-a906d09710c2","ios":"levelo://app?vid=af02ee6a-8208-43ce-91f5-a906d09710c2"},"vehicle_type_id":"4","last_reported":1723302437,"current_range_meters":24800,"station_id":"ce4bha92rcd13ifvqeg0","pricing_plan_id":"cebpf4jnsgd1na2vs0mg"},{"bike_id":"3b522d2a-83f3-4bc6-a3a4-9aeea78d5cbd","system_id":"levelo_inurba_marseille","lat":43.290624,"lon":5.359245,"is_reserved":false,"is_disabled":false,"rental_uris":{"android":"levelo://app?vid=3b522d2a-83f3-4bc6-a3a4-9aeea78d5cbd","ios":"levelo://app?vid=3b522d2a-83f3-4bc6-a3a4-9aeea78d5cbd"},"vehicle_type_id":"4","last_reported":1723302437,"current_range_meters":18800,"station_id":"ce4bha92rcd13ifvqeg0","pricing_plan_id":"cebpf4jnsgd1na2vs0mg"},{"bike_id":"713c88a5-8eed-426d-87ac-c3725e0ec6bd","system_id":"levelo_inurba_marseille","lat":43.290624,"lon":5.359245,"is_reserved":false,"is_disabled":false,"rental_uris":{"android":"levelo://app?vid=713c88a5-8eed-426d-87ac-c3725e0ec6bd","ios":"levelo://app?vid=713c88a5-8eed-426d-87ac-c3725e0ec6bd"},"vehicle_type_id":"4","last_reported":1723302437,"current_range_meters":0,"station_id":"ce4bha92rcd13ifvqeg0","pricing_plan_id":"cebpf4jnsgd1na2vs0mg"},{"bike_id":"bd5d82b8-5098-448e-ad07-18756ef1f675","system_id":"levelo_inurba_marseille","lat":43.294162,"lon":5.386292,"is_reserved":false,"is_disabled":false,"rental_uris":{"android":"levelo://app?vid=bd5d82b8-5098-448e-ad07-18756ef1f675","ios":"levelo://app?vid=bd5d82b8-5098-448e-ad07-18756ef1f675"},"vehicle_type_id":"4","last_reported":1723302437,"current_range_meters":0,"station_id":"ce4bh2h2rcd13ifvqdh0","pricing_plan_id":"cebpf4jnsgd1na2vs0mg"},{"bike_id":"71306595-9bb5-4a74-88b2-6606adb43e2d","system_id":"levelo_inurba_marseille","lat":43.28947,"lon":5.36635,"is_reserved":false,"is_disabled":false,"rental_uris":{"android":"levelo://app?vid=71306595-9bb5-4a74-88b2-6606adb43e2d","ios":"levelo://app?vid=71306595-9bb5-4a74-88b2-6606adb43e2d"},"vehicle_type_id":"4","last_reported":1723302437,"current_range_meters":0,"station_id":"ce4bhap2rcd13ifvqek0","pricing_plan_id":"cebpf4jnsgd1na2vs0mg"},{"bike_id":"85d729e7-de1a-4b67-8496-d9fa51e44a7f","system_id":"levelo_inurba_marseille","lat":43.290327,"lon":5.375711,"is_reserved":false,"is_disabled":false,"rental_uris":{"android":"levelo://app?vid=85d729e7-de1a-4b67-8496-d9fa51e44a7f","ios":"levelo://app?vid=85d729e7-de1a-4b67-8496-d9fa51e44a7f"},"vehicle_type_id":"4","last_reported":1723302437,"current_range_meters":0,"station_id":"ce4bh692rcd13ifvqe90","pricing_plan_id":"cebpf4jnsgd1na2vs0mg"},{"bike_id":"c5e2751a-4a8b-4726-8689-b5e1d4f457db","system_id":"levelo_inurba_marseille","lat":43.28944,"lon":5.36405,"is_reserved":false,"is_disabled":false,"rental_uris":{"android":"levelo://app?vid=c5e2751a-4a8b-4726-8689-b5e1d4f457db","ios":"levelo://app?vid=c5e2751a-4a8b-4726-8689-b5e1d4f457db"},"vehicle_type_id":"4","last_reported":1723302437,"current_range_meters":21600,"station_id":"ce4bhbh2rcd13ifvqepg","pricing_plan_id":"cebpf4jnsgd1na2vs0mg"},{"bike_id":"82e7513a-ebd7-4f80-86fa-93785d8d5624","system_id":"levelo_inurba_marseille","lat":43.289396,"lon":5.364094,"is_reserved":false,"is_disabled":false,"rental_uris":{"android":"levelo://app?vid=82e7513a-ebd7-4f80-86fa-93785d8d5624","ios":"levelo://app?vid=82e7513a-ebd7-4f80-86fa-93785d8d5624"},"vehicle_type_id":"4","last_reported":1723302437,"current_range_meters":9600,"station_id":"ce4bhc92rcd13ifvqetg","pricing_plan_id":"cebpf4jnsgd1na2vs0mg"},{"bike_id":"00d777d9-734c-4d47-9b95-19b87c95470a","system_id":"levelo_inurba_marseille","lat":43.289468,"lon":5.363719,"is_reserved":false,"is_disabled":false,"rental_uris":{"android":"levelo://app?vid=00d777d9-734c-4d47-9b95-19b87c95470a","ios":"levelo://app?vid=00d777d9-734c-4d47-9b95-19b87c95470a"},"vehicle_type_id":"4","last_reported":1723302437,"current_range_meters":20800,"station_id":"ce4bhc92rcd13ifvqetg","pricing_plan_id":"cebpf4jnsgd1na2vs0mg"},{"bike_id":"3133a76b-e6e1-4d41-8146-f257f092ee60","system_id":"levelo_inurba_marseille","lat":43.28938,"lon":5.36408,"is_reserved":false,"is_disabled":false,"rental_uris":{"android":"levelo://app?vid=3133a76b-e6e1-4d41-8146-f257f092ee60","ios":"levelo://app?vid=3133a76b-e6e1-4d41-8146-f257f092ee60"},"vehicle_type_id":"4","last_reported":1723302437,"current_range_meters":0,"station_id":"ce4bhc92rcd13ifvqetg","pricing_plan_id":"cebpf4jnsgd1na2vs0mg"},{"bike_id":"99f96903-d169-4279-b8cd-0208b048f932","system_id":"levelo_inurba_marseille","lat":43.28937,"lon":5.36399,"is_reserved":false,"is_disabled":false,"rental_uris":{"android":"levelo://app?vid=99f96903-d169-4279-b8cd-0208b048f932","ios":"levelo://app?vid=99f96903-d169-4279-b8cd-0208b048f932"},"vehicle_type_id":"4","last_reported":1723302437,"current_range_meters":4000,"station_id":"ce4bhc92rcd13ifvqetg","pricing_plan_id":"cebpf4jnsgd1na2vs0mg"},{"bike_id":"95d3b122-3f09-4187-a8de-8af109748549","system_id":"levelo_inurba_marseille","lat":43.289468,"lon":5.363719,"is_reserved":false,"is_disabled":false,"rental_uris":{"android":"levelo://app?vid=95d3b122-3f09-4187-a8de-8af109748549","ios":"levelo://app?vid=95d3b122-3f09-4187-a8de-8af109748549"},"vehicle_type_id":"4","last_reported":1723302437,"current_range_meters":7200,"station_id":"ce4bhc92rcd13ifvqetg","pricing_plan_id":"cebpf4jnsgd1na2vs0mg"},{"bike_id":"09a338e7-baf7-4469-9a95-afd27cf838ac","system_id":"levelo_inurba_marseille","lat":43.289357,"lon":5.363937,"is_reserved":false,"is_disabled":false,"rental_uris":{"android":"levelo://app?vid=09a338e7-baf7-4469-9a95-afd27cf838ac","ios":"levelo://app?vid=09a338e7-baf7-4469-9a95-afd27cf838ac"},"vehicle_type_id":"4","last_reported":1723302437,"current_range_meters":31200,"station_id":"ce4bhc92rcd13ifvqetg","pricing_plan_id":"cebpf4jnsgd1na2vs0mg"},{"bike_id":"cf1a8f23-8945-41a8-88dd-ff85b866715e","system_id":"levelo_inurba_marseille","lat":43.289468,"lon":5.363719,"is_reserved":false,"is_disabled":false,"rental_uris":{"android":"levelo://app?vid=cf1a8f23-8945-41a8-88dd-ff85b866715e","ios":"levelo://app?vid=cf1a8f23-8945-41a8-88dd-ff85b866715e"},"vehicle_type_id":"4","last_reported":1723302437,"current_range_meters":19200,"station_id":"ce4bhc92rcd13ifvqetg","pricing_plan_id":"cebpf4jnsgd1na2vs0mg"},{"bike_id":"cfee3a3a-468d-4d61-b518-f67636dedaca","system_id":"levelo_inurba_marseille","lat":43.297815,"lon":5.393548,"is_reserved":false,"is_disabled":false,"rental_uris":{"android":"levelo://app?vid=cfee3a3a-468d-4d61-b518-f67636dedaca","ios":"levelo://app?vid=cfee3a3a-468d-4d61-b518-f67636dedaca"},"vehicle_type_id":"4","last_reported":1723302437,"current_range_meters":0,"station_id":"chh1huq6cuj3fo74tm60","pricing_plan_id":"cebpf4jnsgd1na2vs0mg"},{"bike_id":"72e547d3-a581-43db-ad52-a42dcb097774","system_id":"levelo_inurba_marseille","lat":43.292644,"lon":5.384257,"is_reserved":false,"is_disabled":false,"rental_uris":{"android":"levelo://app?vid=72e547d3-a581-43db-ad52-a42dcb097774","ios":"levelo://app?vid=72e547d3-a581-43db-ad52-a42dcb097774"},"vehicle_type_id":"4","last_reported":1723302437,"current_range_meters":0,"station_id":"ce4bh692rcd13ifvqea0","pricing_plan_id":"cebpf4jnsgd1na2vs0mg"},{"bike_id":"f66c02aa-bcb2-42f9-8821-df683ac9ca71","system_id":"levelo_inurba_marseille","lat":43.292644,"lon":5.384257,"is_reserved":false,"is_disabled":false,"rental_uris":{"android":"levelo://app?vid=f66c02aa-bcb2-42f9-8821-df683ac9ca71","ios":"levelo://app?vid=f66c02aa-bcb2-42f9-8821-df683ac9ca71"},"vehicle_type_id":"4","last_reported":1723302437,"current_range_meters":1600,"station_id":"ce4bh692rcd13ifvqea0","pricing_plan_id":"cebpf4jnsgd1na2vs0mg"},{"bike_id":"0778a679-ab2d-4a6f-b954-a33d26f6560d","system_id":"levelo_inurba_marseille","lat":43.292644,"lon":5.384257,"is_reserved":false,"is_disabled":false,"rental_uris":{"android":"levelo://app?vid=0778a679-ab2d-4a6f-b954-a33d26f6560d","ios":"levelo://app?vid=0778a679-ab2d-4a6f-b954-a33d26f6560d"},"vehicle_type_id":"4","last_reported":1723302437,"current_range_meters":22800,"station_id":"ce4bh692rcd13ifvqea0","pricing_plan_id":"cebpf4jnsgd1na2vs0mg"},{"bike_id":"8e4f4ee9-d6f0-48fc-aa2b-579bc715c5a6","system_id":"levelo_inurba_marseille","lat":43.289468,"lon":5.363719,"is_reserved":false,"is_disabled":false,"rental_uris":{"android":"levelo://app?vid=8e4f4ee9-d6f0-48fc-aa2b-579bc715c5a6","ios":"levelo://app?vid=8e4f4ee9-d6f0-48fc-aa2b-579bc715c5a6"},"vehicle_type_id":"4","last_reported":1723302437,"current_range_meters":10000,"station_id":"ce4bhc92rcd13ifvqetg","pricing_plan_id":"cebpf4jnsgd1na2vs0mg"},{"bike_id":"aa386444-447c-4401-bed2-828e9706ade1","system_id":"levelo_inurba_marseille","lat":43.292644,"lon":5.384257,"is_reserved":false,"is_disabled":false,"rental_uris":{"android":"levelo://app?vid=aa386444-447c-4401-bed2-828e9706ade1","ios":"levelo://app?vid=aa386444-447c-4401-bed2-828e9706ade1"},"vehicle_type_id":"4","last_reported":1723302437,"current_range_meters":17200,"station_id":"ce4bh692rcd13ifvqea0","pricing_plan_id":"cebpf4jnsgd1na2vs0mg"},{"bike_id":"80bae668-1c74-42e4-8467-48f1df1c5594","system_id":"levelo_inurba_marseille","lat":43.292644,"lon":5.384257,"is_reserved":false,"is_disabled":false,"rental_uris":{"android":"levelo://app?vid=80bae668-1c74-42e4-8467-48f1df1c5594","ios":"levelo://app?vid=80bae668-1c74-42e4-8467-48f1df1c5594"},"vehicle_type_id":"4","last_reported":1723302437,"current_range_meters":6800,"station_id":"ce4bh692rcd13ifvqea0","pricing_plan_id":"cebpf4jnsgd1na2vs0mg"},{"bike_id":"36d7e2b6-0c71-4834-a6be-6ebc07872203","system_id":"levelo_inurba_marseille","lat":43.290103,"lon":5.356114,"is_reserved":false,"is_disabled":false,"rental_uris":{"android":"levelo://app?vid=36d7e2b6-0c71-4834-a6be-6ebc07872203","ios":"levelo://app?vid=36d7e2b6-0c71-4834-a6be-6ebc07872203"},"vehicle_type_id":"4","last_reported":1723302437,"current_range_meters":0,"station_id":"ce4bhb92rcd13ifvqen0","pricing_plan_id":"cebpf4jnsgd1na2vs0mg"},{"bike_id":"aa9884d1-37e2-4eb2-87d2-70d3dd298fdc","system_id":"levelo_inurba_marseille","lat":43.29094,"lon":5.38145,"is_reserved":false,"is_disabled":false,"rental_uris":{"android":"levelo://app?vid=aa9884d1-37e2-4eb2-87d2-70d3dd298fdc","ios":"levelo://app?vid=aa9884d1-37e2-4eb2-87d2-70d3dd298fdc"},"vehicle_type_id":"4","last_reported":1723302437,"current_range_meters":0,"station_id":"ce4bh512rcd13ifvqe2g","pricing_plan_id":"cebpf4jnsgd1na2vs0mg"},{"bike_id":"5d07b028-ea05-4457-bb0d-78c8e31c24f4","system_id":"levelo_inurba_marseille","lat":43.3302,"lon":5.39043,"is_reserved":false,"is_disabled":false,"rental_uris":{"android":"levelo://app?vid=5d07b028-ea05-4457-bb0d-78c8e31c24f4","ios":"levelo://app?vid=5d07b028-ea05-4457-bb0d-78c8e31c24f4"},"vehicle_type_id":"4","last_reported":1723302437,"current_range_meters":14000,"station_id":"ce4bhr92rcd13ifvqhrg","pricing_plan_id":"cebpf4jnsgd1na2vs0mg"},{"bike_id":"d77bb2fa-93fc-4826-b249-a67ee765a486","system_id":"levelo_inurba_marseille","lat":43.330442,"lon":5.389148,"is_reserved":false,"is_disabled":false,"rental_uris":{"android":"levelo://app?vid=d77bb2fa-93fc-4826-b249-a67ee765a486","ios":"levelo://app?vid=d77bb2fa-93fc-4826-b249-a67ee765a486"},"vehicle_type_id":"4","last_reported":1723302437,"current_range_meters":17200,"station_id":"ce4bhr92rcd13ifvqhrg","pricing_plan_id":"cebpf4jnsgd1na2vs0mg"},{"bike_id":"eb950615-e61f-45ab-a601-4960d01e92e7","system_id":"levelo_inurba_marseille","lat":43.33027,"lon":5.39037,"is_reserved":false,"is_disabled":false,"rental_uris":{"android":"levelo://app?vid=eb950615-e61f-45ab-a601-4960d01e92e7","ios":"levelo://app?vid=eb950615-e61f-45ab-a601-4960d01e92e7"},"vehicle_type_id":"4","last_reported":1723302437,"current_range_meters":0,"station_id":"ce4bhr92rcd13ifvqhrg","pricing_plan_id":"cebpf4jnsgd1na2vs0mg"},{"bike_id":"3426e4c0-ccf4-47a9-aa94-cc9d783b72ec","system_id":"levelo_inurba_marseille","lat":43.33024,"lon":5.39042,"is_reserved":false,"is_disabled":false,"rental_uris":{"android":"levelo://app?vid=3426e4c0-ccf4-47a9-aa94-cc9d783b72ec","ios":"levelo://app?vid=3426e4c0-ccf4-47a9-aa94-cc9d783b72ec"},"vehicle_type_id":"4","last_reported":1723302437,"current_range_meters":12400,"station_id":"ce4bhr92rcd13ifvqhrg","pricing_plan_id":"cebpf4jnsgd1na2vs0mg"},{"bike_id":"35002121-fb81-4afd-9964-234fc301c38c","system_id":"levelo_inurba_marseille","lat":43.33026,"lon":5.3904,"is_reserved":false,"is_disabled":false,"rental_uris":{"android":"levelo://app?vid=35002121-fb81-4afd-9964-234fc301c38c","ios":"levelo://app?vid=35002121-fb81-4afd-9964-234fc301c38c"},"vehicle_type_id":"4","last_reported":1723302437,"current_range_meters":10400,"station_id":"ce4bhr92rcd13ifvqhrg","pricing_plan_id":"cebpf4jnsgd1na2vs0mg"},{"bike_id":"266df721-c5a1-4443-a918-83f30a9c6ac3","system_id":"levelo_inurba_marseille","lat":43.330442,"lon":5.389148,"is_reserved":false,"is_disabled":false,"rental_uris":{"android":"levelo://app?vid=266df721-c5a1-4443-a918-83f30a9c6ac3","ios":"levelo://app?vid=266df721-c5a1-4443-a918-83f30a9c6ac3"},"vehicle_type_id":"4","last_reported":1723302437,"current_range_meters":2800,"station_id":"ce4bhr92rcd13ifvqhrg","pricing_plan_id":"cebpf4jnsgd1na2vs0mg"},{"bike_id":"3be00d30-8779-4f77-ae5a-2405ed4d0153","system_id":"levelo_inurba_marseille","lat":43.312609,"lon":5.401662,"is_reserved":false,"is_disabled":false,"rental_uris":{"android":"levelo://app?vid=3be00d30-8779-4f77-ae5a-2405ed4d0153","ios":"levelo://app?vid=3be00d30-8779-4f77-ae5a-2405ed4d0153"},"vehicle_type_id":"4","last_reported":1723302437,"current_range_meters":3200,"station_id":"ce4bh092rcd13ifvqd30","pricing_plan_id":"cebpf4jnsgd1na2vs0mg"},{"bike_id":"99ff80d6-767c-4ca9-81b5-c19f253f3bd3","system_id":"levelo_inurba_marseille","lat":43.33743,"lon":5.37448,"is_reserved":false,"is_disabled":false,"rental_uris":{"android":"levelo://app?vid=99ff80d6-767c-4ca9-81b5-c19f253f3bd3","ios":"levelo://app?vid=99ff80d6-767c-4ca9-81b5-c19f253f3bd3"},"vehicle_type_id":"4","last_reported":1723302437,"current_range_meters":3600,"station_id":"","pricing_plan_id":"cebpf4jnsgd1na2vs0mg"},{"bike_id":"8b5f6228-3582-497c-9919-c849c8ef0c9b","system_id":"levelo_inurba_marseille","lat":43.337411,"lon":5.374609,"is_reserved":false,"is_disabled":false,"rental_uris":{"android":"levelo://app?vid=8b5f6228-3582-497c-9919-c849c8ef0c9b","ios":"levelo://app?vid=8b5f6228-3582-497c-9919-c849c8ef0c9b"},"vehicle_type_id":"4","last_reported":1723302437,"current_range_meters":1600,"station_id":"","pricing_plan_id":"cebpf4jnsgd1na2vs0mg"},{"bike_id":"ac75d8e5-5139-4e43-a64e-51e7994c2517","system_id":"levelo_inurba_marseille","lat":43.337444,"lon":5.374475,"is_reserved":false,"is_disabled":false,"rental_uris":{"android":"levelo://app?vid=ac75d8e5-5139-4e43-a64e-51e7994c2517","ios":"levelo://app?vid=ac75d8e5-5139-4e43-a64e-51e7994c2517"},"vehicle_type_id":"3","last_reported":1723302437,"current_range_meters":24800,"station_id":"","pricing_plan_id":"cebpf4jnsgd1na2vs0mg"},{"bike_id":"b96c3b9b-a3ad-48fb-8f11-b217464ba0e8","system_id":"levelo_inurba_marseille","lat":43.30938,"lon":5.40141,"is_reserved":false,"is_disabled":false,"rental_uris":{"android":"levelo://app?vid=b96c3b9b-a3ad-48fb-8f11-b217464ba0e8","ios":"levelo://app?vid=b96c3b9b-a3ad-48fb-8f11-b217464ba0e8"},"vehicle_type_id":"4","last_reported":1723302437,"current_range_meters":31200,"station_id":"ce4bgvp2rcd13ifvqct0","pricing_plan_id":"cebpf4jnsgd1na2vs0mg"},{"bike_id":"43f21911-683d-4ba4-93d3-8a7e20e1c78c","system_id":"levelo_inurba_marseille","lat":43.33744,"lon":5.374668,"is_reserved":false,"is_disabled":false,"rental_uris":{"android":"levelo://app?vid=43f21911-683d-4ba4-93d3-8a7e20e1c78c","ios":"levelo://app?vid=43f21911-683d-4ba4-93d3-8a7e20e1c78c"},"vehicle_type_id":"4","last_reported":1723302437,"current_range_meters":30800,"station_id":"","pricing_plan_id":"cebpf4jnsgd1na2vs0mg"},{"bike_id":"a99690a8-3e4f-41a1-9b6a-5b43249a269f","system_id":"levelo_inurba_marseille","lat":43.33746,"lon":5.37457,"is_reserved":false,"is_disabled":false,"rental_uris":{"android":"levelo://app?vid=a99690a8-3e4f-41a1-9b6a-5b43249a269f","ios":"levelo://app?vid=a99690a8-3e4f-41a1-9b6a-5b43249a269f"},"vehicle_type_id":"4","last_reported":1723302437,"current_range_meters":4800,"station_id":"","pricing_plan_id":"cebpf4jnsgd1na2vs0mg"},{"bike_id":"c3cf305c-692c-41ed-b07c-7ebbc13f240d","system_id":"levelo_inurba_marseille","lat":43.337455,"lon":5.374616,"is_reserved":false,"is_disabled":false,"rental_uris":{"android":"levelo://app?vid=c3cf305c-692c-41ed-b07c-7ebbc13f240d","ios":"levelo://app?vid=c3cf305c-692c-41ed-b07c-7ebbc13f240d"},"vehicle_type_id":"4","last_reported":1723302437,"current_range_meters":14000,"station_id":"","pricing_plan_id":"cebpf4jnsgd1na2vs0mg"},{"bike_id":"9e4106e9-7d8f-46b7-af19-e3229b7a5bd4","system_id":"levelo_inurba_marseille","lat":43.309371,"lon":5.401449,"is_reserved":false,"is_disabled":false,"rental_uris":{"android":"levelo://app?vid=9e4106e9-7d8f-46b7-af19-e3229b7a5bd4","ios":"levelo://app?vid=9e4106e9-7d8f-46b7-af19-e3229b7a5bd4"},"vehicle_type_id":"4","last_reported":1723302437,"current_range_meters":17200,"station_id":"ce4bgvp2rcd13ifvqct0","pricing_plan_id":"cebpf4jnsgd1na2vs0mg"},{"bike_id":"6137b86e-8de9-4c4f-94ef-bfa372175031","system_id":"levelo_inurba_marseille","lat":43.337513,"lon":5.37454,"is_reserved":false,"is_disabled":false,"rental_uris":{"android":"levelo://app?vid=6137b86e-8de9-4c4f-94ef-bfa372175031","ios":"levelo://app?vid=6137b86e-8de9-4c4f-94ef-bfa372175031"},"vehicle_type_id":"4","last_reported":1723302437,"current_range_meters":15600,"station_id":"","pricing_plan_id":"cebpf4jnsgd1na2vs0mg"},{"bike_id":"7553d7c6-8eef-4b21-9dca-534ec43256a6","system_id":"levelo_inurba_marseille","lat":43.3375,"lon":5.37464,"is_reserved":false,"is_disabled":false,"rental_uris":{"android":"levelo://app?vid=7553d7c6-8eef-4b21-9dca-534ec43256a6","ios":"levelo://app?vid=7553d7c6-8eef-4b21-9dca-534ec43256a6"},"vehicle_type_id":"4","last_reported":1723302437,"current_range_meters":14400,"station_id":"","pricing_plan_id":"cebpf4jnsgd1na2vs0mg"},{"bike_id":"1ece39e8-5ec5-465b-b0d5-bdea3554c74d","system_id":"levelo_inurba_marseille","lat":43.337597,"lon":5.374515,"is_reserved":false,"is_disabled":false,"rental_uris":{"android":"levelo://app?vid=1ece39e8-5ec5-465b-b0d5-bdea3554c74d","ios":"levelo://app?vid=1ece39e8-5ec5-465b-b0d5-bdea3554c74d"},"vehicle_type_id":"4","last_reported":1723302437,"current_range_meters":25200,"station_id":"","pricing_plan_id":"cebpf4jnsgd1na2vs0mg"},{"bike_id":"ea1cc1bc-b3f0-4093-8f5f-6dfff1fa63d9","system_id":"levelo_inurba_marseille","lat":43.33757,"lon":5.374843,"is_reserved":false,"is_disabled":false,"rental_uris":{"android":"levelo://app?vid=ea1cc1bc-b3f0-4093-8f5f-6dfff1fa63d9","ios":"levelo://app?vid=ea1cc1bc-b3f0-4093-8f5f-6dfff1fa63d9"},"vehicle_type_id":"4","last_reported":1723302437,"current_range_meters":29200,"station_id":"","pricing_plan_id":"cebpf4jnsgd1na2vs0mg"},{"bike_id":"e0da458e-1309-458b-956b-aab617b2ea05","system_id":"levelo_inurba_marseille","lat":43.3376,"lon":5.37473,"is_reserved":false,"is_disabled":false,"rental_uris":{"android":"levelo://app?vid=e0da458e-1309-458b-956b-aab617b2ea05","ios":"levelo://app?vid=e0da458e-1309-458b-956b-aab617b2ea05"},"vehicle_type_id":"4","last_reported":1723302437,"current_range_meters":27200,"station_id":"","pricing_plan_id":"cebpf4jnsgd1na2vs0mg"},{"bike_id":"a7e71684-8757-4c0e-98c0-cd5b05cd0ba7","system_id":"levelo_inurba_marseille","lat":43.337578,"lon":5.374922,"is_reserved":false,"is_disabled":false,"rental_uris":{"android":"levelo://app?vid=a7e71684-8757-4c0e-98c0-cd5b05cd0ba7","ios":"levelo://app?vid=a7e71684-8757-4c0e-98c0-cd5b05cd0ba7"},"vehicle_type_id":"4","last_reported":1723302437,"current_range_meters":30400,"station_id":"","pricing_plan_id":"cebpf4jnsgd1na2vs0mg"},{"bike_id":"5cb0d0f3-eacc-40eb-a46e-542fc59e15f6","system_id":"levelo_inurba_marseille","lat":43.33759,"lon":5.37499,"is_reserved":false,"is_disabled":false,"rental_uris":{"android":"levelo://app?vid=5cb0d0f3-eacc-40eb-a46e-542fc59e15f6","ios":"levelo://app?vid=5cb0d0f3-eacc-40eb-a46e-542fc59e15f6"},"vehicle_type_id":"4","last_reported":1723302437,"current_range_meters":30400,"station_id":"","pricing_plan_id":"cebpf4jnsgd1na2vs0mg"},{"bike_id":"75b327ce-e460-4e65-9297-78e06458c259","system_id":"levelo_inurba_marseille","lat":43.306412,"lon":5.401035,"is_reserved":false,"is_disabled":false,"rental_uris":{"android":"levelo://app?vid=75b327ce-e460-4e65-9297-78e06458c259","ios":"levelo://app?vid=75b327ce-e460-4e65-9297-78e06458c259"},"vehicle_type_id":"4","last_reported":1723302437,"current_range_meters":6400,"station_id":"ce4bh112rcd13ifvqda0","pricing_plan_id":"cebpf4jnsgd1na2vs0mg"},{"bike_id":"6f8a75ef-cfde-4da5-99c7-85f9ae9b026b","system_id":"levelo_inurba_marseille","lat":43.33771,"lon":5.37445,"is_reserved":false,"is_disabled":false,"rental_uris":{"android":"levelo://app?vid=6f8a75ef-cfde-4da5-99c7-85f9ae9b026b","ios":"levelo://app?vid=6f8a75ef-cfde-4da5-99c7-85f9ae9b026b"},"vehicle_type_id":"4","last_reported":1723302437,"current_range_meters":31200,"station_id":"","pricing_plan_id":"cebpf4jnsgd1na2vs0mg"},{"bike_id":"475ed14f-5d86-4ce1-9e44-9d4d1bef7035","system_id":"levelo_inurba_marseille","lat":43.33765,"lon":5.37486,"is_reserved":false,"is_disabled":false,"rental_uris":{"android":"levelo://app?vid=475ed14f-5d86-4ce1-9e44-9d4d1bef7035","ios":"levelo://app?vid=475ed14f-5d86-4ce1-9e44-9d4d1bef7035"},"vehicle_type_id":"4","last_reported":1723302437,"current_range_meters":25200,"station_id":"","pricing_plan_id":"cebpf4jnsgd1na2vs0mg"},{"bike_id":"4fb05351-067a-4220-8c55-32604b631e65","system_id":"levelo_inurba_marseille","lat":43.301117,"lon":5.398795,"is_reserved":false,"is_disabled":false,"rental_uris":{"android":"levelo://app?vid=4fb05351-067a-4220-8c55-32604b631e65","ios":"levelo://app?vid=4fb05351-067a-4220-8c55-32604b631e65"},"vehicle_type_id":"4","last_reported":1723302437,"current_range_meters":2800,"station_id":"ce4bh0h2rcd13ifvqd40","pricing_plan_id":"cebpf4jnsgd1na2vs0mg"},{"bike_id":"8acfb59e-9fd9-4b70-94b5-866989f1e417","system_id":"levelo_inurba_marseille","lat":43.301117,"lon":5.398795,"is_reserved":false,"is_disabled":false,"rental_uris":{"android":"levelo://app?vid=8acfb59e-9fd9-4b70-94b5-866989f1e417","ios":"levelo://app?vid=8acfb59e-9fd9-4b70-94b5-866989f1e417"},"vehicle_type_id":"4","last_reported":1723302437,"current_range_meters":0,"station_id":"ce4bh0h2rcd13ifvqd40","pricing_plan_id":"cebpf4jnsgd1na2vs0mg"},{"bike_id":"e8d66834-0bea-4a1d-b5d7-e375d7de11a2","system_id":"levelo_inurba_marseille","lat":43.28727,"lon":5.36078,"is_reserved":false,"is_disabled":false,"rental_uris":{"android":"levelo://app?vid=e8d66834-0bea-4a1d-b5d7-e375d7de11a2","ios":"levelo://app?vid=e8d66834-0bea-4a1d-b5d7-e375d7de11a2"},"vehicle_type_id":"4","last_reported":1723302437,"current_range_meters":11600,"station_id":"cki0cbj6b192h4jlfktg","pricing_plan_id":"cebpf4jnsgd1na2vs0mg"},{"bike_id":"81e7be3f-fbd5-48c8-aafb-30419b7dd1cc","system_id":"levelo_inurba_marseille","lat":43.28727,"lon":5.36078,"is_reserved":false,"is_disabled":false,"rental_uris":{"android":"levelo://app?vid=81e7be3f-fbd5-48c8-aafb-30419b7dd1cc","ios":"levelo://app?vid=81e7be3f-fbd5-48c8-aafb-30419b7dd1cc"},"vehicle_type_id":"4","last_reported":1723302437,"current_range_meters":0,"station_id":"cki0cbj6b192h4jlfktg","pricing_plan_id":"cebpf4jnsgd1na2vs0mg"},{"bike_id":"09f25c80-9c12-4393-81f1-83f85bc9b04c","system_id":"levelo_inurba_marseille","lat":43.288657,"lon":5.353618,"is_reserved":false,"is_disabled":false,"rental_uris":{"android":"levelo://app?vid=09f25c80-9c12-4393-81f1-83f85bc9b04c","ios":"levelo://app?vid=09f25c80-9c12-4393-81f1-83f85bc9b04c"},"vehicle_type_id":"4","last_reported":1723302437,"current_range_meters":26000,"station_id":"","pricing_plan_id":"cebpf4jnsgd1na2vs0mg"},{"bike_id":"9892e132-faa1-4985-a074-afdaf2fbfe9b","system_id":"levelo_inurba_marseille","lat":43.286591,"lon":5.363346,"is_reserved":false,"is_disabled":false,"rental_uris":{"android":"levelo://app?vid=9892e132-faa1-4985-a074-afdaf2fbfe9b","ios":"levelo://app?vid=9892e132-faa1-4985-a074-afdaf2fbfe9b"},"vehicle_type_id":"4","last_reported":1723302437,"current_range_meters":24000,"station_id":"ce4bhah2rcd13ifvqej0","pricing_plan_id":"cebpf4jnsgd1na2vs0mg"},{"bike_id":"4882c0e7-670e-44c9-95b8-3803cea6e046","system_id":"levelo_inurba_marseille","lat":43.286593,"lon":5.363346,"is_reserved":false,"is_disabled":false,"rental_uris":{"android":"levelo://app?vid=4882c0e7-670e-44c9-95b8-3803cea6e046","ios":"levelo://app?vid=4882c0e7-670e-44c9-95b8-3803cea6e046"},"vehicle_type_id":"4","last_reported":1723302437,"current_range_meters":29600,"station_id":"ce4bhah2rcd13ifvqej0","pricing_plan_id":"cebpf4jnsgd1na2vs0mg"},{"bike_id":"0c67007f-5a27-46a1-a7af-e9b0a1647ebf","system_id":"levelo_inurba_marseille","lat":43.286591,"lon":5.363346,"is_reserved":false,"is_disabled":false,"rental_uris":{"android":"levelo://app?vid=0c67007f-5a27-46a1-a7af-e9b0a1647ebf","ios":"levelo://app?vid=0c67007f-5a27-46a1-a7af-e9b0a1647ebf"},"vehicle_type_id":"4","last_reported":1723302437,"current_range_meters":31200,"station_id":"ce4bhah2rcd13ifvqej0","pricing_plan_id":"cebpf4jnsgd1na2vs0mg"},{"bike_id":"8871fc60-2337-4789-874d-5037b52f216d","system_id":"levelo_inurba_marseille","lat":43.286593,"lon":5.363346,"is_reserved":false,"is_disabled":false,"rental_uris":{"android":"levelo://app?vid=8871fc60-2337-4789-874d-5037b52f216d","ios":"levelo://app?vid=8871fc60-2337-4789-874d-5037b52f216d"},"vehicle_type_id":"4","last_reported":1723302437,"current_range_meters":10800,"station_id":"ce4bhah2rcd13ifvqej0","pricing_plan_id":"cebpf4jnsgd1na2vs0mg"},{"bike_id":"b9212eaf-4d0a-43f4-9949-d350874fce3f","system_id":"levelo_inurba_marseille","lat":43.286593,"lon":5.363346,"is_reserved":false,"is_disabled":false,"rental_uris":{"android":"levelo://app?vid=b9212eaf-4d0a-43f4-9949-d350874fce3f","ios":"levelo://app?vid=b9212eaf-4d0a-43f4-9949-d350874fce3f"},"vehicle_type_id":"4","last_reported":1723302437,"current_range_meters":4000,"station_id":"ce4bhah2rcd13ifvqej0","pricing_plan_id":"cebpf4jnsgd1na2vs0mg"},{"bike_id":"557e638e-6c94-44d1-bb90-38290290857e","system_id":"levelo_inurba_marseille","lat":43.286591,"lon":5.363346,"is_reserved":false,"is_disabled":false,"rental_uris":{"android":"levelo://app?vid=557e638e-6c94-44d1-bb90-38290290857e","ios":"levelo://app?vid=557e638e-6c94-44d1-bb90-38290290857e"},"vehicle_type_id":"4","last_reported":1723302437,"current_range_meters":17600,"station_id":"ce4bhah2rcd13ifvqej0","pricing_plan_id":"cebpf4jnsgd1na2vs0mg"},{"bike_id":"f70e56a2-d2b3-42a8-8e9e-c135b45211e7","system_id":"levelo_inurba_marseille","lat":43.290336,"lon":5.386425,"is_reserved":false,"is_disabled":false,"rental_uris":{"android":"levelo://app?vid=f70e56a2-d2b3-42a8-8e9e-c135b45211e7","ios":"levelo://app?vid=f70e56a2-d2b3-42a8-8e9e-c135b45211e7"},"vehicle_type_id":"4","last_reported":1723302437,"current_range_meters":28000,"station_id":"ce4bh4p2rcd13ifvqe0g","pricing_plan_id":"cebpf4jnsgd1na2vs0mg"},{"bike_id":"95d450e3-2af3-4167-b497-4f8a061db102","system_id":"levelo_inurba_marseille","lat":43.289307,"lon":5.38406,"is_reserved":false,"is_disabled":false,"rental_uris":{"android":"levelo://app?vid=95d450e3-2af3-4167-b497-4f8a061db102","ios":"levelo://app?vid=95d450e3-2af3-4167-b497-4f8a061db102"},"vehicle_type_id":"4","last_reported":1723302437,"current_range_meters":800,"station_id":"ce4bh612rcd13ifvqe6g","pricing_plan_id":"cebpf4jnsgd1na2vs0mg"},{"bike_id":"5b8e3569-c579-43da-b05f-55974222aa65","system_id":"levelo_inurba_marseille","lat":43.290336,"lon":5.386425,"is_reserved":false,"is_disabled":false,"rental_uris":{"android":"levelo://app?vid=5b8e3569-c579-43da-b05f-55974222aa65","ios":"levelo://app?vid=5b8e3569-c579-43da-b05f-55974222aa65"},"vehicle_type_id":"4","last_reported":1723302437,"current_range_meters":16800,"station_id":"ce4bh4p2rcd13ifvqe0g","pricing_plan_id":"cebpf4jnsgd1na2vs0mg"},{"bike_id":"dfc20c24-9b19-40e8-831a-808dd5bf0ec6","system_id":"levelo_inurba_marseille","lat":43.302759,"lon":5.400793,"is_reserved":false,"is_disabled":false,"rental_uris":{"android":"levelo://app?vid=dfc20c24-9b19-40e8-831a-808dd5bf0ec6","ios":"levelo://app?vid=dfc20c24-9b19-40e8-831a-808dd5bf0ec6"},"vehicle_type_id":"4","last_reported":1723302437,"current_range_meters":10800,"station_id":"ce4bgvh2rcd13ifvqcs0","pricing_plan_id":"cebpf4jnsgd1na2vs0mg"},{"bike_id":"ed52c1cd-5a6b-4bf6-9418-0b7f29702e0b","system_id":"levelo_inurba_marseille","lat":43.289307,"lon":5.38406,"is_reserved":false,"is_disabled":false,"rental_uris":{"android":"levelo://app?vid=ed52c1cd-5a6b-4bf6-9418-0b7f29702e0b","ios":"levelo://app?vid=ed52c1cd-5a6b-4bf6-9418-0b7f29702e0b"},"vehicle_type_id":"4","last_reported":1723302437,"current_range_meters":18800,"station_id":"ce4bh612rcd13ifvqe6g","pricing_plan_id":"cebpf4jnsgd1na2vs0mg"},{"bike_id":"11029a17-7c2c-4398-aaa0-6ec59b2aa50f","system_id":"levelo_inurba_marseille","lat":43.290336,"lon":5.386425,"is_reserved":false,"is_disabled":false,"rental_uris":{"android":"levelo://app?vid=11029a17-7c2c-4398-aaa0-6ec59b2aa50f","ios":"levelo://app?vid=11029a17-7c2c-4398-aaa0-6ec59b2aa50f"},"vehicle_type_id":"4","last_reported":1723302437,"current_range_meters":8800,"station_id":"ce4bh4p2rcd13ifvqe0g","pricing_plan_id":"cebpf4jnsgd1na2vs0mg"},{"bike_id":"6a8ae657-819b-449f-950a-a8aed4da3176","system_id":"levelo_inurba_marseille","lat":43.286039,"lon":5.370679,"is_reserved":false,"is_disabled":false,"rental_uris":{"android":"levelo://app?vid=6a8ae657-819b-449f-950a-a8aed4da3176","ios":"levelo://app?vid=6a8ae657-819b-449f-950a-a8aed4da3176"},"vehicle_type_id":"4","last_reported":1723302437,"current_range_meters":28000,"station_id":"ce4bht12rcd13ifvqi60","pricing_plan_id":"cebpf4jnsgd1na2vs0mg"},{"bike_id":"57da0337-159a-4148-be4f-fc6e9aca3c31","system_id":"levelo_inurba_marseille","lat":43.33893,"lon":5.35724,"is_reserved":false,"is_disabled":false,"rental_uris":{"android":"levelo://app?vid=57da0337-159a-4148-be4f-fc6e9aca3c31","ios":"levelo://app?vid=57da0337-159a-4148-be4f-fc6e9aca3c31"},"vehicle_type_id":"4","last_reported":1723302437,"current_range_meters":8800,"station_id":"","pricing_plan_id":"cebpf4jnsgd1na2vs0mg"},{"bike_id":"77e21c12-88f5-4b05-b7b0-d6a8f4367d57","system_id":"levelo_inurba_marseille","lat":43.316828,"lon":5.404723,"is_reserved":false,"is_disabled":false,"rental_uris":{"android":"levelo://app?vid=77e21c12-88f5-4b05-b7b0-d6a8f4367d57","ios":"levelo://app?vid=77e21c12-88f5-4b05-b7b0-d6a8f4367d57"},"vehicle_type_id":"4","last_reported":1723302437,"current_range_meters":4000,"station_id":"ce4bh012rcd13ifvqd00","pricing_plan_id":"cebpf4jnsgd1na2vs0mg"},{"bike_id":"1779375e-2ad5-415a-a7d2-a080a6c0a665","system_id":"levelo_inurba_marseille","lat":43.316974,"lon":5.40471,"is_reserved":false,"is_disabled":false,"rental_uris":{"android":"levelo://app?vid=1779375e-2ad5-415a-a7d2-a080a6c0a665","ios":"levelo://app?vid=1779375e-2ad5-415a-a7d2-a080a6c0a665"},"vehicle_type_id":"4","last_reported":1723302437,"current_range_meters":800,"station_id":"ce4bh012rcd13ifvqd00","pricing_plan_id":"cebpf4jnsgd1na2vs0mg"},{"bike_id":"4ee80833-8ab3-46d7-9f75-8948391c644c","system_id":"levelo_inurba_marseille","lat":43.316921,"lon":5.404728,"is_reserved":false,"is_disabled":false,"rental_uris":{"android":"levelo://app?vid=4ee80833-8ab3-46d7-9f75-8948391c644c","ios":"levelo://app?vid=4ee80833-8ab3-46d7-9f75-8948391c644c"},"vehicle_type_id":"4","last_reported":1723302437,"current_range_meters":13200,"station_id":"ce4bh012rcd13ifvqd00","pricing_plan_id":"cebpf4jnsgd1na2vs0mg"},{"bike_id":"ba7efcbb-c99d-4892-8d36-c624bd12221e","system_id":"levelo_inurba_marseille","lat":43.291994,"lon":5.392907,"is_reserved":false,"is_disabled":false,"rental_uris":{"android":"levelo://app?vid=ba7efcbb-c99d-4892-8d36-c624bd12221e","ios":"levelo://app?vid=ba7efcbb-c99d-4892-8d36-c624bd12221e"},"vehicle_type_id":"4","last_reported":1723302437,"current_range_meters":1600,"station_id":"ce4bh192rcd13ifvqdd0","pricing_plan_id":"cebpf4jnsgd1na2vs0mg"},{"bike_id":"573ff1b7-4877-407f-a7d7-6fb5a3c070ef","system_id":"levelo_inurba_marseille","lat":43.291994,"lon":5.392907,"is_reserved":false,"is_disabled":false,"rental_uris":{"android":"levelo://app?vid=573ff1b7-4877-407f-a7d7-6fb5a3c070ef","ios":"levelo://app?vid=573ff1b7-4877-407f-a7d7-6fb5a3c070ef"},"vehicle_type_id":"4","last_reported":1723302437,"current_range_meters":7200,"station_id":"ce4bh192rcd13ifvqdd0","pricing_plan_id":"cebpf4jnsgd1na2vs0mg"},{"bike_id":"456b2542-21d0-4277-98d2-ca9d3c950051","system_id":"levelo_inurba_marseille","lat":43.291994,"lon":5.392907,"is_reserved":false,"is_disabled":false,"rental_uris":{"android":"levelo://app?vid=456b2542-21d0-4277-98d2-ca9d3c950051","ios":"levelo://app?vid=456b2542-21d0-4277-98d2-ca9d3c950051"},"vehicle_type_id":"4","last_reported":1723302437,"current_range_meters":400,"station_id":"ce4bh192rcd13ifvqdd0","pricing_plan_id":"cebpf4jnsgd1na2vs0mg"},{"bike_id":"f6c41289-d059-4853-9bf5-48a5565de5b8","system_id":"levelo_inurba_marseille","lat":43.29747,"lon":5.40033,"is_reserved":false,"is_disabled":false,"rental_uris":{"android":"levelo://app?vid=f6c41289-d059-4853-9bf5-48a5565de5b8","ios":"levelo://app?vid=f6c41289-d059-4853-9bf5-48a5565de5b8"},"vehicle_type_id":"4","last_reported":1723302437,"current_range_meters":2400,"station_id":"","pricing_plan_id":"cebpf4jnsgd1na2vs0mg"},{"bike_id":"8a0cffa5-d351-470b-a50a-39937ffd1cfe","system_id":"levelo_inurba_marseille","lat":43.284534,"lon":5.358662,"is_reserved":false,"is_disabled":false,"rental_uris":{"android":"levelo://app?vid=8a0cffa5-d351-470b-a50a-39937ffd1cfe","ios":"levelo://app?vid=8a0cffa5-d351-470b-a50a-39937ffd1cfe"},"vehicle_type_id":"4","last_reported":1723302437,"current_range_meters":20800,"station_id":"ce4bhah2rcd13ifvqei0","pricing_plan_id":"cebpf4jnsgd1na2vs0mg"},{"bike_id":"252d49a1-9cea-4e05-996e-1844dd70bd95","system_id":"levelo_inurba_marseille","lat":43.284538,"lon":5.358657,"is_reserved":false,"is_disabled":false,"rental_uris":{"android":"levelo://app?vid=252d49a1-9cea-4e05-996e-1844dd70bd95","ios":"levelo://app?vid=252d49a1-9cea-4e05-996e-1844dd70bd95"},"vehicle_type_id":"4","last_reported":1723302437,"current_range_meters":2000,"station_id":"ce4bhah2rcd13ifvqei0","pricing_plan_id":"cebpf4jnsgd1na2vs0mg"},{"bike_id":"9492fd10-ea58-4147-be8b-9ac781a255e7","system_id":"levelo_inurba_marseille","lat":43.284534,"lon":5.358662,"is_reserved":false,"is_disabled":false,"rental_uris":{"android":"levelo://app?vid=9492fd10-ea58-4147-be8b-9ac781a255e7","ios":"levelo://app?vid=9492fd10-ea58-4147-be8b-9ac781a255e7"},"vehicle_type_id":"4","last_reported":1723302437,"current_range_meters":12000,"station_id":"ce4bhah2rcd13ifvqei0","pricing_plan_id":"cebpf4jnsgd1na2vs0mg"},{"bike_id":"33e53741-baa7-4ff8-93b0-b97f1e09a7af","system_id":"levelo_inurba_marseille","lat":43.284534,"lon":5.358662,"is_reserved":false,"is_disabled":false,"rental_uris":{"android":"levelo://app?vid=33e53741-baa7-4ff8-93b0-b97f1e09a7af","ios":"levelo://app?vid=33e53741-baa7-4ff8-93b0-b97f1e09a7af"},"vehicle_type_id":"4","last_reported":1723302437,"current_range_meters":24400,"station_id":"ce4bhah2rcd13ifvqei0","pricing_plan_id":"cebpf4jnsgd1na2vs0mg"},{"bike_id":"4a8e0795-b0a2-4c69-b3be-45ac088249fc","system_id":"levelo_inurba_marseille","lat":43.284534,"lon":5.358662,"is_reserved":false,"is_disabled":false,"rental_uris":{"android":"levelo://app?vid=4a8e0795-b0a2-4c69-b3be-45ac088249fc","ios":"levelo://app?vid=4a8e0795-b0a2-4c69-b3be-45ac088249fc"},"vehicle_type_id":"4","last_reported":1723302437,"current_range_meters":12400,"station_id":"ce4bhah2rcd13ifvqei0","pricing_plan_id":"cebpf4jnsgd1na2vs0mg"},{"bike_id":"a3869b0c-9cdf-4326-b023-be8e50348c08","system_id":"levelo_inurba_marseille","lat":43.294314,"lon":5.397498,"is_reserved":false,"is_disabled":false,"rental_uris":{"android":"levelo://app?vid=a3869b0c-9cdf-4326-b023-be8e50348c08","ios":"levelo://app?vid=a3869b0c-9cdf-4326-b023-be8e50348c08"},"vehicle_type_id":"4","last_reported":1723302437,"current_range_meters":6800,"station_id":"ce4bh3h2rcd13ifvqdo0","pricing_plan_id":"cebpf4jnsgd1na2vs0mg"},{"bike_id":"865aea73-49fc-4211-b02d-260bddb28cb4","system_id":"levelo_inurba_marseille","lat":43.2862,"lon":5.35109,"is_reserved":false,"is_disabled":false,"rental_uris":{"android":"levelo://app?vid=865aea73-49fc-4211-b02d-260bddb28cb4","ios":"levelo://app?vid=865aea73-49fc-4211-b02d-260bddb28cb4"},"vehicle_type_id":"4","last_reported":1723302437,"current_range_meters":800,"station_id":"ce4bhch2rcd13ifvqeug","pricing_plan_id":"cebpf4jnsgd1na2vs0mg"},{"bike_id":"93a1843a-6e7a-4124-8fd8-e41e287cea12","system_id":"levelo_inurba_marseille","lat":43.28619,"lon":5.35102,"is_reserved":false,"is_disabled":false,"rental_uris":{"android":"levelo://app?vid=93a1843a-6e7a-4124-8fd8-e41e287cea12","ios":"levelo://app?vid=93a1843a-6e7a-4124-8fd8-e41e287cea12"},"vehicle_type_id":"4","last_reported":1723302437,"current_range_meters":0,"station_id":"ce4bhch2rcd13ifvqeug","pricing_plan_id":"cebpf4jnsgd1na2vs0mg"},{"bike_id":"34b1107e-5669-432a-913e-913e02d67ce1","system_id":"levelo_inurba_marseille","lat":43.285856,"lon":5.350771,"is_reserved":false,"is_disabled":false,"rental_uris":{"android":"levelo://app?vid=34b1107e-5669-432a-913e-913e02d67ce1","ios":"levelo://app?vid=34b1107e-5669-432a-913e-913e02d67ce1"},"vehicle_type_id":"4","last_reported":1723302437,"current_range_meters":25600,"station_id":"ce4bhch2rcd13ifvqeug","pricing_plan_id":"cebpf4jnsgd1na2vs0mg"},{"bike_id":"d3591069-1114-4a0a-a1c2-ec5c87220d62","system_id":"levelo_inurba_marseille","lat":43.285848,"lon":5.350787,"is_reserved":false,"is_disabled":false,"rental_uris":{"android":"levelo://app?vid=d3591069-1114-4a0a-a1c2-ec5c87220d62","ios":"levelo://app?vid=d3591069-1114-4a0a-a1c2-ec5c87220d62"},"vehicle_type_id":"4","last_reported":1723302437,"current_range_meters":1600,"station_id":"ce4bhch2rcd13ifvqeug","pricing_plan_id":"cebpf4jnsgd1na2vs0mg"},{"bike_id":"c73ed3b5-daf0-485d-ab1e-9def94a2c4dd","system_id":"levelo_inurba_marseille","lat":43.28618,"lon":5.35102,"is_reserved":false,"is_disabled":false,"rental_uris":{"android":"levelo://app?vid=c73ed3b5-daf0-485d-ab1e-9def94a2c4dd","ios":"levelo://app?vid=c73ed3b5-daf0-485d-ab1e-9def94a2c4dd"},"vehicle_type_id":"4","last_reported":1723302437,"current_range_meters":6800,"station_id":"ce4bhch2rcd13ifvqeug","pricing_plan_id":"cebpf4jnsgd1na2vs0mg"},{"bike_id":"ceedab9f-2230-49be-a4f3-c32fa53e18ea","system_id":"levelo_inurba_marseille","lat":43.28616,"lon":5.35107,"is_reserved":false,"is_disabled":false,"rental_uris":{"android":"levelo://app?vid=ceedab9f-2230-49be-a4f3-c32fa53e18ea","ios":"levelo://app?vid=ceedab9f-2230-49be-a4f3-c32fa53e18ea"},"vehicle_type_id":"4","last_reported":1723302437,"current_range_meters":23200,"station_id":"ce4bhch2rcd13ifvqeug","pricing_plan_id":"cebpf4jnsgd1na2vs0mg"},{"bike_id":"6dd80df4-ead0-4265-b07e-370bc4095f28","system_id":"levelo_inurba_marseille","lat":43.28616,"lon":5.35107,"is_reserved":false,"is_disabled":false,"rental_uris":{"android":"levelo://app?vid=6dd80df4-ead0-4265-b07e-370bc4095f28","ios":"levelo://app?vid=6dd80df4-ead0-4265-b07e-370bc4095f28"},"vehicle_type_id":"4","last_reported":1723302437,"current_range_meters":0,"station_id":"ce4bhch2rcd13ifvqeug","pricing_plan_id":"cebpf4jnsgd1na2vs0mg"},{"bike_id":"0523ca66-6003-4a67-b911-0aaa76625f72","system_id":"levelo_inurba_marseille","lat":43.28615,"lon":5.35104,"is_reserved":false,"is_disabled":false,"rental_uris":{"android":"levelo://app?vid=0523ca66-6003-4a67-b911-0aaa76625f72","ios":"levelo://app?vid=0523ca66-6003-4a67-b911-0aaa76625f72"},"vehicle_type_id":"4","last_reported":1723302437,"current_range_meters":3200,"station_id":"ce4bhch2rcd13ifvqeug","pricing_plan_id":"cebpf4jnsgd1na2vs0mg"},{"bike_id":"f2d27c09-4dfb-45e5-bde6-e6e98851255a","system_id":"levelo_inurba_marseille","lat":43.28615,"lon":5.35103,"is_reserved":false,"is_disabled":false,"rental_uris":{"android":"levelo://app?vid=f2d27c09-4dfb-45e5-bde6-e6e98851255a","ios":"levelo://app?vid=f2d27c09-4dfb-45e5-bde6-e6e98851255a"},"vehicle_type_id":"4","last_reported":1723302437,"current_range_meters":31200,"station_id":"ce4bhch2rcd13ifvqeug","pricing_plan_id":"cebpf4jnsgd1na2vs0mg"},{"bike_id":"055735c8-32d9-49ee-90ad-8f817ee7ded7","system_id":"levelo_inurba_marseille","lat":43.28614,"lon":5.35104,"is_reserved":false,"is_disabled":false,"rental_uris":{"android":"levelo://app?vid=055735c8-32d9-49ee-90ad-8f817ee7ded7","ios":"levelo://app?vid=055735c8-32d9-49ee-90ad-8f817ee7ded7"},"vehicle_type_id":"4","last_reported":1723302437,"current_range_meters":2800,"station_id":"ce4bhch2rcd13ifvqeug","pricing_plan_id":"cebpf4jnsgd1na2vs0mg"},{"bike_id":"9fd956e7-b847-40e8-80a2-17324ee9ea34","system_id":"levelo_inurba_marseille","lat":43.285856,"lon":5.350771,"is_reserved":false,"is_disabled":false,"rental_uris":{"android":"levelo://app?vid=9fd956e7-b847-40e8-80a2-17324ee9ea34","ios":"levelo://app?vid=9fd956e7-b847-40e8-80a2-17324ee9ea34"},"vehicle_type_id":"4","last_reported":1723302437,"current_range_meters":0,"station_id":"ce4bhch2rcd13ifvqeug","pricing_plan_id":"cebpf4jnsgd1na2vs0mg"},{"bike_id":"65c596bb-6b93-4853-bcf1-7cd8a4f58725","system_id":"levelo_inurba_marseille","lat":43.28612,"lon":5.35104,"is_reserved":false,"is_disabled":false,"rental_uris":{"android":"levelo://app?vid=65c596bb-6b93-4853-bcf1-7cd8a4f58725","ios":"levelo://app?vid=65c596bb-6b93-4853-bcf1-7cd8a4f58725"},"vehicle_type_id":"4","last_reported":1723302437,"current_range_meters":17200,"station_id":"ce4bhch2rcd13ifvqeug","pricing_plan_id":"cebpf4jnsgd1na2vs0mg"},{"bike_id":"3774dc72-23fa-448d-a189-d3930b2c605c","system_id":"levelo_inurba_marseille","lat":43.285856,"lon":5.350771,"is_reserved":false,"is_disabled":false,"rental_uris":{"android":"levelo://app?vid=3774dc72-23fa-448d-a189-d3930b2c605c","ios":"levelo://app?vid=3774dc72-23fa-448d-a189-d3930b2c605c"},"vehicle_type_id":"4","last_reported":1723302437,"current_range_meters":15200,"station_id":"ce4bhch2rcd13ifvqeug","pricing_plan_id":"cebpf4jnsgd1na2vs0mg"},{"bike_id":"c50a0ba9-be2b-4ed7-960d-c4d68eac4adb","system_id":"levelo_inurba_marseille","lat":43.28613,"lon":5.35096,"is_reserved":false,"is_disabled":false,"rental_uris":{"android":"levelo://app?vid=c50a0ba9-be2b-4ed7-960d-c4d68eac4adb","ios":"levelo://app?vid=c50a0ba9-be2b-4ed7-960d-c4d68eac4adb"},"vehicle_type_id":"4","last_reported":1723302437,"current_range_meters":31200,"station_id":"ce4bhch2rcd13ifvqeug","pricing_plan_id":"cebpf4jnsgd1na2vs0mg"},{"bike_id":"5ee6af75-a464-4e0d-a791-b64be1282e5a","system_id":"levelo_inurba_marseille","lat":43.285848,"lon":5.350787,"is_reserved":false,"is_disabled":false,"rental_uris":{"android":"levelo://app?vid=5ee6af75-a464-4e0d-a791-b64be1282e5a","ios":"levelo://app?vid=5ee6af75-a464-4e0d-a791-b64be1282e5a"},"vehicle_type_id":"4","last_reported":1723302437,"current_range_meters":14800,"station_id":"ce4bhch2rcd13ifvqeug","pricing_plan_id":"cebpf4jnsgd1na2vs0mg"},{"bike_id":"32662716-8ced-4923-a6e2-f9283668211e","system_id":"levelo_inurba_marseille","lat":43.283998,"lon":5.375062,"is_reserved":false,"is_disabled":false,"rental_uris":{"android":"levelo://app?vid=32662716-8ced-4923-a6e2-f9283668211e","ios":"levelo://app?vid=32662716-8ced-4923-a6e2-f9283668211e"},"vehicle_type_id":"4","last_reported":1723302437,"current_range_meters":400,"station_id":"ce4bh412rcd13ifvqds0","pricing_plan_id":"cebpf4jnsgd1na2vs0mg"},{"bike_id":"daf003b4-c580-4497-ac6e-c4fd8b25d1a1","system_id":"levelo_inurba_marseille","lat":43.286591,"lon":5.363346,"is_reserved":false,"is_disabled":false,"rental_uris":{"android":"levelo://app?vid=daf003b4-c580-4497-ac6e-c4fd8b25d1a1","ios":"levelo://app?vid=daf003b4-c580-4497-ac6e-c4fd8b25d1a1"},"vehicle_type_id":"4","last_reported":1723302437,"current_range_meters":9200,"station_id":"ce4bhah2rcd13ifvqej0","pricing_plan_id":"cebpf4jnsgd1na2vs0mg"},{"bike_id":"5679bd13-4cf7-4d28-b518-ec3268d09d9e","system_id":"levelo_inurba_marseille","lat":43.33868,"lon":5.38556,"is_reserved":false,"is_disabled":false,"rental_uris":{"android":"levelo://app?vid=5679bd13-4cf7-4d28-b518-ec3268d09d9e","ios":"levelo://app?vid=5679bd13-4cf7-4d28-b518-ec3268d09d9e"},"vehicle_type_id":"4","last_reported":1723302437,"current_range_meters":0,"station_id":"","pricing_plan_id":"cebpf4jnsgd1na2vs0mg"},{"bike_id":"5fba0999-331e-45da-8e74-9273c62512e2","system_id":"levelo_inurba_marseille","lat":43.283998,"lon":5.375062,"is_reserved":false,"is_disabled":false,"rental_uris":{"android":"levelo://app?vid=5fba0999-331e-45da-8e74-9273c62512e2","ios":"levelo://app?vid=5fba0999-331e-45da-8e74-9273c62512e2"},"vehicle_type_id":"4","last_reported":1723302437,"current_range_meters":4400,"station_id":"ce4bh412rcd13ifvqds0","pricing_plan_id":"cebpf4jnsgd1na2vs0mg"},{"bike_id":"8c32827c-af08-4206-960f-3a5664c57e3b","system_id":"levelo_inurba_marseille","lat":43.286595,"lon":5.386795,"is_reserved":false,"is_disabled":false,"rental_uris":{"android":"levelo://app?vid=8c32827c-af08-4206-960f-3a5664c57e3b","ios":"levelo://app?vid=8c32827c-af08-4206-960f-3a5664c57e3b"},"vehicle_type_id":"4","last_reported":1723302437,"current_range_meters":15600,"station_id":"ce4bh492rcd13ifvqdug","pricing_plan_id":"cebpf4jnsgd1na2vs0mg"},{"bike_id":"90e4c8ae-4004-4f48-ba13-3f36473a4530","system_id":"levelo_inurba_marseille","lat":43.286595,"lon":5.386795,"is_reserved":false,"is_disabled":false,"rental_uris":{"android":"levelo://app?vid=90e4c8ae-4004-4f48-ba13-3f36473a4530","ios":"levelo://app?vid=90e4c8ae-4004-4f48-ba13-3f36473a4530"},"vehicle_type_id":"4","last_reported":1723302437,"current_range_meters":0,"station_id":"ce4bh492rcd13ifvqdug","pricing_plan_id":"cebpf4jnsgd1na2vs0mg"},{"bike_id":"c85d2f60-3f84-4d3b-a872-b92f9d570b5b","system_id":"levelo_inurba_marseille","lat":43.286595,"lon":5.386795,"is_reserved":false,"is_disabled":false,"rental_uris":{"android":"levelo://app?vid=c85d2f60-3f84-4d3b-a872-b92f9d570b5b","ios":"levelo://app?vid=c85d2f60-3f84-4d3b-a872-b92f9d570b5b"},"vehicle_type_id":"4","last_reported":1723302437,"current_range_meters":0,"station_id":"ce4bh492rcd13ifvqdug","pricing_plan_id":"cebpf4jnsgd1na2vs0mg"},{"bike_id":"9bb04876-ad7a-4fd6-b817-df1bf3947ae4","system_id":"levelo_inurba_marseille","lat":43.286595,"lon":5.386795,"is_reserved":false,"is_disabled":false,"rental_uris":{"android":"levelo://app?vid=9bb04876-ad7a-4fd6-b817-df1bf3947ae4","ios":"levelo://app?vid=9bb04876-ad7a-4fd6-b817-df1bf3947ae4"},"vehicle_type_id":"4","last_reported":1723302437,"current_range_meters":19600,"station_id":"ce4bh492rcd13ifvqdug","pricing_plan_id":"cebpf4jnsgd1na2vs0mg"},{"bike_id":"4346590a-6eab-41f4-baa5-9315d6ef53a8","system_id":"levelo_inurba_marseille","lat":43.284793,"lon":5.384113,"is_reserved":false,"is_disabled":false,"rental_uris":{"android":"levelo://app?vid=4346590a-6eab-41f4-baa5-9315d6ef53a8","ios":"levelo://app?vid=4346590a-6eab-41f4-baa5-9315d6ef53a8"},"vehicle_type_id":"4","last_reported":1723302437,"current_range_meters":29600,"station_id":"ce4bh512rcd13ifvqe3g","pricing_plan_id":"cebpf4jnsgd1na2vs0mg"},{"bike_id":"6d4f998c-34f9-4b68-8a43-fb84d7426e33","system_id":"levelo_inurba_marseille","lat":43.283494,"lon":5.380945,"is_reserved":false,"is_disabled":false,"rental_uris":{"android":"levelo://app?vid=6d4f998c-34f9-4b68-8a43-fb84d7426e33","ios":"levelo://app?vid=6d4f998c-34f9-4b68-8a43-fb84d7426e33"},"vehicle_type_id":"4","last_reported":1723302437,"current_range_meters":11200,"station_id":"ce4bh412rcd13ifvqdr0","pricing_plan_id":"cebpf4jnsgd1na2vs0mg"},{"bike_id":"0647766e-56f1-430c-b3f8-a5e5ed8933d1","system_id":"levelo_inurba_marseille","lat":43.283494,"lon":5.380945,"is_reserved":false,"is_disabled":false,"rental_uris":{"android":"levelo://app?vid=0647766e-56f1-430c-b3f8-a5e5ed8933d1","ios":"levelo://app?vid=0647766e-56f1-430c-b3f8-a5e5ed8933d1"},"vehicle_type_id":"4","last_reported":1723302437,"current_range_meters":0,"station_id":"ce4bh412rcd13ifvqdr0","pricing_plan_id":"cebpf4jnsgd1na2vs0mg"},{"bike_id":"ec9fb649-094f-4d14-b190-bfcabc15a062","system_id":"levelo_inurba_marseille","lat":43.283498,"lon":5.380948,"is_reserved":false,"is_disabled":false,"rental_uris":{"android":"levelo://app?vid=ec9fb649-094f-4d14-b190-bfcabc15a062","ios":"levelo://app?vid=ec9fb649-094f-4d14-b190-bfcabc15a062"},"vehicle_type_id":"4","last_reported":1723302437,"current_range_meters":0,"station_id":"ce4bh412rcd13ifvqdr0","pricing_plan_id":"cebpf4jnsgd1na2vs0mg"},{"bike_id":"85fe16ec-c1c6-49ea-abe0-f95970403e97","system_id":"levelo_inurba_marseille","lat":43.284214,"lon":5.349706,"is_reserved":false,"is_disabled":false,"rental_uris":{"android":"levelo://app?vid=85fe16ec-c1c6-49ea-abe0-f95970403e97","ios":"levelo://app?vid=85fe16ec-c1c6-49ea-abe0-f95970403e97"},"vehicle_type_id":"4","last_reported":1723302437,"current_range_meters":20000,"station_id":"ce4bhbh2rcd13ifvqepg","pricing_plan_id":"cebpf4jnsgd1na2vs0mg"},{"bike_id":"05618a5e-2be4-4b47-9281-8c1b242ff632","system_id":"levelo_inurba_marseille","lat":43.284219,"lon":5.3497,"is_reserved":false,"is_disabled":false,"rental_uris":{"android":"levelo://app?vid=05618a5e-2be4-4b47-9281-8c1b242ff632","ios":"levelo://app?vid=05618a5e-2be4-4b47-9281-8c1b242ff632"},"vehicle_type_id":"4","last_reported":1723302437,"current_range_meters":31200,"station_id":"ce4bhbh2rcd13ifvqepg","pricing_plan_id":"cebpf4jnsgd1na2vs0mg"},{"bike_id":"a79e7724-f765-43d9-bdee-fd81e5cec099","system_id":"levelo_inurba_marseille","lat":43.284247,"lon":5.34992,"is_reserved":false,"is_disabled":false,"rental_uris":{"android":"levelo://app?vid=a79e7724-f765-43d9-bdee-fd81e5cec099","ios":"levelo://app?vid=a79e7724-f765-43d9-bdee-fd81e5cec099"},"vehicle_type_id":"4","last_reported":1723302437,"current_range_meters":21200,"station_id":"ce4bhbh2rcd13ifvqepg","pricing_plan_id":"cebpf4jnsgd1na2vs0mg"},{"bike_id":"ca3919b6-8230-4931-a04b-ed3eb6294667","system_id":"levelo_inurba_marseille","lat":43.28422,"lon":5.3499,"is_reserved":false,"is_disabled":false,"rental_uris":{"android":"levelo://app?vid=ca3919b6-8230-4931-a04b-ed3eb6294667","ios":"levelo://app?vid=ca3919b6-8230-4931-a04b-ed3eb6294667"},"vehicle_type_id":"4","last_reported":1723302437,"current_range_meters":4800,"station_id":"ce4bhbh2rcd13ifvqepg","pricing_plan_id":"cebpf4jnsgd1na2vs0mg"},{"bike_id":"bc0063a1-cf75-4963-b205-0ef774ebd312","system_id":"levelo_inurba_marseille","lat":43.28425,"lon":5.3498,"is_reserved":false,"is_disabled":false,"rental_uris":{"android":"levelo://app?vid=bc0063a1-cf75-4963-b205-0ef774ebd312","ios":"levelo://app?vid=bc0063a1-cf75-4963-b205-0ef774ebd312"},"vehicle_type_id":"4","last_reported":1723302437,"current_range_meters":18800,"station_id":"ce4bhbh2rcd13ifvqepg","pricing_plan_id":"cebpf4jnsgd1na2vs0mg"},{"bike_id":"5dbdd658-e633-4a15-91a7-8890a640369b","system_id":"levelo_inurba_marseille","lat":43.284217,"lon":5.349697,"is_reserved":false,"is_disabled":false,"rental_uris":{"android":"levelo://app?vid=5dbdd658-e633-4a15-91a7-8890a640369b","ios":"levelo://app?vid=5dbdd658-e633-4a15-91a7-8890a640369b"},"vehicle_type_id":"4","last_reported":1723302437,"current_range_meters":6400,"station_id":"ce4bhbh2rcd13ifvqepg","pricing_plan_id":"cebpf4jnsgd1na2vs0mg"},{"bike_id":"bd0c53cf-3e6c-408c-8553-9c108894324d","system_id":"levelo_inurba_marseille","lat":43.28419,"lon":5.34979,"is_reserved":false,"is_disabled":false,"rental_uris":{"android":"levelo://app?vid=bd0c53cf-3e6c-408c-8553-9c108894324d","ios":"levelo://app?vid=bd0c53cf-3e6c-408c-8553-9c108894324d"},"vehicle_type_id":"4","last_reported":1723302437,"current_range_meters":6800,"station_id":"ce4bhbh2rcd13ifvqepg","pricing_plan_id":"cebpf4jnsgd1na2vs0mg"},{"bike_id":"4b6c678c-8349-48f9-9cbb-424f68863805","system_id":"levelo_inurba_marseille","lat":43.28419,"lon":5.34978,"is_reserved":false,"is_disabled":false,"rental_uris":{"android":"levelo://app?vid=4b6c678c-8349-48f9-9cbb-424f68863805","ios":"levelo://app?vid=4b6c678c-8349-48f9-9cbb-424f68863805"},"vehicle_type_id":"4","last_reported":1723302437,"current_range_meters":28800,"station_id":"ce4bhbh2rcd13ifvqepg","pricing_plan_id":"cebpf4jnsgd1na2vs0mg"},{"bike_id":"2b59956a-bfa5-439e-9309-d55bac2f95ff","system_id":"levelo_inurba_marseille","lat":43.28416,"lon":5.34979,"is_reserved":false,"is_disabled":false,"rental_uris":{"android":"levelo://app?vid=2b59956a-bfa5-439e-9309-d55bac2f95ff","ios":"levelo://app?vid=2b59956a-bfa5-439e-9309-d55bac2f95ff"},"vehicle_type_id":"4","last_reported":1723302437,"current_range_meters":3200,"station_id":"ce4bhbh2rcd13ifvqepg","pricing_plan_id":"cebpf4jnsgd1na2vs0mg"},{"bike_id":"3d592c2c-e792-4c3b-baad-e940ea6f8b19","system_id":"levelo_inurba_marseille","lat":43.292724,"lon":5.401131,"is_reserved":false,"is_disabled":false,"rental_uris":{"android":"levelo://app?vid=3d592c2c-e792-4c3b-baad-e940ea6f8b19","ios":"levelo://app?vid=3d592c2c-e792-4c3b-baad-e940ea6f8b19"},"vehicle_type_id":"4","last_reported":1723302437,"current_range_meters":28000,"station_id":"ce4bh312rcd13ifvqdk0","pricing_plan_id":"cebpf4jnsgd1na2vs0mg"},{"bike_id":"0ad0c0b0-0c15-4d3c-ae3b-134019fe8599","system_id":"levelo_inurba_marseille","lat":43.288501,"lon":5.393087,"is_reserved":false,"is_disabled":false,"rental_uris":{"android":"levelo://app?vid=0ad0c0b0-0c15-4d3c-ae3b-134019fe8599","ios":"levelo://app?vid=0ad0c0b0-0c15-4d3c-ae3b-134019fe8599"},"vehicle_type_id":"4","last_reported":1723302437,"current_range_meters":4400,"station_id":"ce4bh2p2rcd13ifvqdi0","pricing_plan_id":"cebpf4jnsgd1na2vs0mg"},{"bike_id":"1fc34af5-24d9-461c-9ab6-25601662b984","system_id":"levelo_inurba_marseille","lat":43.282754,"lon":5.350519,"is_reserved":false,"is_disabled":false,"rental_uris":{"android":"levelo://app?vid=1fc34af5-24d9-461c-9ab6-25601662b984","ios":"levelo://app?vid=1fc34af5-24d9-461c-9ab6-25601662b984"},"vehicle_type_id":"4","last_reported":1723302437,"current_range_meters":2400,"station_id":"ce4bhbp2rcd13ifvqerg","pricing_plan_id":"cebpf4jnsgd1na2vs0mg"},{"bike_id":"a6849487-226b-4f92-ac39-a3d5f088f173","system_id":"levelo_inurba_marseille","lat":43.28039,"lon":5.369297,"is_reserved":false,"is_disabled":false,"rental_uris":{"android":"levelo://app?vid=a6849487-226b-4f92-ac39-a3d5f088f173","ios":"levelo://app?vid=a6849487-226b-4f92-ac39-a3d5f088f173"},"vehicle_type_id":"4","last_reported":1723302437,"current_range_meters":18800,"station_id":"ce4bha12rcd13ifvqef0","pricing_plan_id":"cebpf4jnsgd1na2vs0mg"},{"bike_id":"31de201f-c83b-43a5-9c5d-3714f5cdb089","system_id":"levelo_inurba_marseille","lat":43.28279,"lon":5.35077,"is_reserved":false,"is_disabled":false,"rental_uris":{"android":"levelo://app?vid=31de201f-c83b-43a5-9c5d-3714f5cdb089","ios":"levelo://app?vid=31de201f-c83b-43a5-9c5d-3714f5cdb089"},"vehicle_type_id":"4","last_reported":1723302437,"current_range_meters":0,"station_id":"ce4bhbp2rcd13ifvqerg","pricing_plan_id":"cebpf4jnsgd1na2vs0mg"},{"bike_id":"964e4e5b-1da1-4211-83f3-782214c3a53a","system_id":"levelo_inurba_marseille","lat":43.282843,"lon":5.350517,"is_reserved":false,"is_disabled":false,"rental_uris":{"android":"levelo://app?vid=964e4e5b-1da1-4211-83f3-782214c3a53a","ios":"levelo://app?vid=964e4e5b-1da1-4211-83f3-782214c3a53a"},"vehicle_type_id":"4","last_reported":1723302437,"current_range_meters":31200,"station_id":"ce4bhbp2rcd13ifvqerg","pricing_plan_id":"cebpf4jnsgd1na2vs0mg"},{"bike_id":"166bd757-74cf-4cdb-9c93-b42cd8d306eb","system_id":"levelo_inurba_marseille","lat":43.28281,"lon":5.35058,"is_reserved":false,"is_disabled":false,"rental_uris":{"android":"levelo://app?vid=166bd757-74cf-4cdb-9c93-b42cd8d306eb","ios":"levelo://app?vid=166bd757-74cf-4cdb-9c93-b42cd8d306eb"},"vehicle_type_id":"4","last_reported":1723302437,"current_range_meters":6800,"station_id":"ce4bhbp2rcd13ifvqerg","pricing_plan_id":"cebpf4jnsgd1na2vs0mg"},{"bike_id":"daeaef37-b22f-4139-a268-9dbc7e74338c","system_id":"levelo_inurba_marseille","lat":43.28279,"lon":5.3506,"is_reserved":false,"is_disabled":false,"rental_uris":{"android":"levelo://app?vid=daeaef37-b22f-4139-a268-9dbc7e74338c","ios":"levelo://app?vid=daeaef37-b22f-4139-a268-9dbc7e74338c"},"vehicle_type_id":"4","last_reported":1723302437,"current_range_meters":15200,"station_id":"ce4bhbp2rcd13ifvqerg","pricing_plan_id":"cebpf4jnsgd1na2vs0mg"},{"bike_id":"c1e9d193-4e1f-49ce-ac88-69f0cedd45f2","system_id":"levelo_inurba_marseille","lat":43.28273,"lon":5.35061,"is_reserved":false,"is_disabled":false,"rental_uris":{"android":"levelo://app?vid=c1e9d193-4e1f-49ce-ac88-69f0cedd45f2","ios":"levelo://app?vid=c1e9d193-4e1f-49ce-ac88-69f0cedd45f2"},"vehicle_type_id":"4","last_reported":1723302437,"current_range_meters":25600,"station_id":"ce4bhbp2rcd13ifvqerg","pricing_plan_id":"cebpf4jnsgd1na2vs0mg"},{"bike_id":"e8033d27-d47a-4dc9-90fc-8c0ff5e52179","system_id":"levelo_inurba_marseille","lat":43.2827,"lon":5.3507,"is_reserved":false,"is_disabled":false,"rental_uris":{"android":"levelo://app?vid=e8033d27-d47a-4dc9-90fc-8c0ff5e52179","ios":"levelo://app?vid=e8033d27-d47a-4dc9-90fc-8c0ff5e52179"},"vehicle_type_id":"4","last_reported":1723302437,"current_range_meters":0,"station_id":"ce4bhbp2rcd13ifvqerg","pricing_plan_id":"cebpf4jnsgd1na2vs0mg"},{"bike_id":"018d3bcc-2361-48dd-ae51-34794829b97b","system_id":"levelo_inurba_marseille","lat":43.2827,"lon":5.35067,"is_reserved":false,"is_disabled":false,"rental_uris":{"android":"levelo://app?vid=018d3bcc-2361-48dd-ae51-34794829b97b","ios":"levelo://app?vid=018d3bcc-2361-48dd-ae51-34794829b97b"},"vehicle_type_id":"4","last_reported":1723302437,"current_range_meters":0,"station_id":"ce4bhbp2rcd13ifvqerg","pricing_plan_id":"cebpf4jnsgd1na2vs0mg"},{"bike_id":"25a51775-4cf0-419c-ac0c-69df2b096f16","system_id":"levelo_inurba_marseille","lat":43.283502,"lon":5.386471,"is_reserved":false,"is_disabled":false,"rental_uris":{"android":"levelo://app?vid=25a51775-4cf0-419c-ac0c-69df2b096f16","ios":"levelo://app?vid=25a51775-4cf0-419c-ac0c-69df2b096f16"},"vehicle_type_id":"4","last_reported":1723302437,"current_range_meters":6000,"station_id":"ce4bh492rcd13ifvqdvg","pricing_plan_id":"cebpf4jnsgd1na2vs0mg"},{"bike_id":"7bd5ce9b-3dc3-4133-8c39-af04f2ac8f3c","system_id":"levelo_inurba_marseille","lat":43.296263,"lon":5.40601,"is_reserved":false,"is_disabled":false,"rental_uris":{"android":"levelo://app?vid=7bd5ce9b-3dc3-4133-8c39-af04f2ac8f3c","ios":"levelo://app?vid=7bd5ce9b-3dc3-4133-8c39-af04f2ac8f3c"},"vehicle_type_id":"4","last_reported":1723302437,"current_range_meters":800,"station_id":"ce4bh0h2rcd13ifvqd60","pricing_plan_id":"cebpf4jnsgd1na2vs0mg"},{"bike_id":"63e87226-5872-4880-aa8f-77c95eb167b0","system_id":"levelo_inurba_marseille","lat":43.28573,"lon":5.394992,"is_reserved":false,"is_disabled":false,"rental_uris":{"android":"levelo://app?vid=63e87226-5872-4880-aa8f-77c95eb167b0","ios":"levelo://app?vid=63e87226-5872-4880-aa8f-77c95eb167b0"},"vehicle_type_id":"4","last_reported":1723302437,"current_range_meters":4400,"station_id":"ce4bh292rcd13ifvqdg0","pricing_plan_id":"cebpf4jnsgd1na2vs0mg"},{"bike_id":"534fd572-5ed2-4dfb-bebb-526ba7712095","system_id":"levelo_inurba_marseille","lat":43.28573,"lon":5.394992,"is_reserved":false,"is_disabled":false,"rental_uris":{"android":"levelo://app?vid=534fd572-5ed2-4dfb-bebb-526ba7712095","ios":"levelo://app?vid=534fd572-5ed2-4dfb-bebb-526ba7712095"},"vehicle_type_id":"4","last_reported":1723302437,"current_range_meters":4800,"station_id":"ce4bh292rcd13ifvqdg0","pricing_plan_id":"cebpf4jnsgd1na2vs0mg"},{"bike_id":"0a76cd60-3905-4524-9d16-ca0360a790ac","system_id":"levelo_inurba_marseille","lat":43.28071,"lon":5.38475,"is_reserved":false,"is_disabled":false,"rental_uris":{"android":"levelo://app?vid=0a76cd60-3905-4524-9d16-ca0360a790ac","ios":"levelo://app?vid=0a76cd60-3905-4524-9d16-ca0360a790ac"},"vehicle_type_id":"4","last_reported":1723302437,"current_range_meters":0,"station_id":"","pricing_plan_id":"cebpf4jnsgd1na2vs0mg"},{"bike_id":"a57da41f-ae74-482a-9be8-c04a7cd77f33","system_id":"levelo_inurba_marseille","lat":43.2871,"lon":5.39991,"is_reserved":false,"is_disabled":false,"rental_uris":{"android":"levelo://app?vid=a57da41f-ae74-482a-9be8-c04a7cd77f33","ios":"levelo://app?vid=a57da41f-ae74-482a-9be8-c04a7cd77f33"},"vehicle_type_id":"4","last_reported":1723302437,"current_range_meters":0,"station_id":"ce4bho92rcd13ifvqh3g","pricing_plan_id":"cebpf4jnsgd1na2vs0mg"},{"bike_id":"86efbbc5-259b-4477-bdab-a79f7cd2b498","system_id":"levelo_inurba_marseille","lat":43.320045,"lon":5.415046,"is_reserved":false,"is_disabled":false,"rental_uris":{"android":"levelo://app?vid=86efbbc5-259b-4477-bdab-a79f7cd2b498","ios":"levelo://app?vid=86efbbc5-259b-4477-bdab-a79f7cd2b498"},"vehicle_type_id":"4","last_reported":1723302437,"current_range_meters":28400,"station_id":"ce4bhq92rcd13ifvqhkg","pricing_plan_id":"cebpf4jnsgd1na2vs0mg"},{"bike_id":"a41e256a-b87b-4d81-b6a0-33091a0f6605","system_id":"levelo_inurba_marseille","lat":43.320045,"lon":5.415048,"is_reserved":false,"is_disabled":false,"rental_uris":{"android":"levelo://app?vid=a41e256a-b87b-4d81-b6a0-33091a0f6605","ios":"levelo://app?vid=a41e256a-b87b-4d81-b6a0-33091a0f6605"},"vehicle_type_id":"4","last_reported":1723302437,"current_range_meters":31200,"station_id":"ce4bhq92rcd13ifvqhkg","pricing_plan_id":"cebpf4jnsgd1na2vs0mg"},{"bike_id":"dc707598-b26e-4eef-b731-2300ea799b19","system_id":"levelo_inurba_marseille","lat":43.320045,"lon":5.415048,"is_reserved":false,"is_disabled":false,"rental_uris":{"android":"levelo://app?vid=dc707598-b26e-4eef-b731-2300ea799b19","ios":"levelo://app?vid=dc707598-b26e-4eef-b731-2300ea799b19"},"vehicle_type_id":"4","last_reported":1723302437,"current_range_meters":22000,"station_id":"ce4bhq92rcd13ifvqhkg","pricing_plan_id":"cebpf4jnsgd1na2vs0mg"},{"bike_id":"a6a3a942-5dc4-4ed3-b7c1-50337fd35fd0","system_id":"levelo_inurba_marseille","lat":43.320045,"lon":5.415046,"is_reserved":false,"is_disabled":false,"rental_uris":{"android":"levelo://app?vid=a6a3a942-5dc4-4ed3-b7c1-50337fd35fd0","ios":"levelo://app?vid=a6a3a942-5dc4-4ed3-b7c1-50337fd35fd0"},"vehicle_type_id":"4","last_reported":1723302437,"current_range_meters":30000,"station_id":"ce4bhq92rcd13ifvqhkg","pricing_plan_id":"cebpf4jnsgd1na2vs0mg"},{"bike_id":"2dc60b78-80b4-43f3-8a30-eda247bbde42","system_id":"levelo_inurba_marseille","lat":43.320325,"lon":5.415783,"is_reserved":false,"is_disabled":false,"rental_uris":{"android":"levelo://app?vid=2dc60b78-80b4-43f3-8a30-eda247bbde42","ios":"levelo://app?vid=2dc60b78-80b4-43f3-8a30-eda247bbde42"},"vehicle_type_id":"4","last_reported":1723302437,"current_range_meters":2400,"station_id":"ce4bhq92rcd13ifvqhkg","pricing_plan_id":"cebpf4jnsgd1na2vs0mg"},{"bike_id":"f3724011-226a-4812-a294-fd40aa93b24d","system_id":"levelo_inurba_marseille","lat":43.320045,"lon":5.415048,"is_reserved":false,"is_disabled":false,"rental_uris":{"android":"levelo://app?vid=f3724011-226a-4812-a294-fd40aa93b24d","ios":"levelo://app?vid=f3724011-226a-4812-a294-fd40aa93b24d"},"vehicle_type_id":"4","last_reported":1723302437,"current_range_meters":27200,"station_id":"ce4bhq92rcd13ifvqhkg","pricing_plan_id":"cebpf4jnsgd1na2vs0mg"},{"bike_id":"b82d858a-91a0-49bf-a6fc-8ae898ab18fa","system_id":"levelo_inurba_marseille","lat":43.27846,"lon":5.38496,"is_reserved":false,"is_disabled":false,"rental_uris":{"android":"levelo://app?vid=b82d858a-91a0-49bf-a6fc-8ae898ab18fa","ios":"levelo://app?vid=b82d858a-91a0-49bf-a6fc-8ae898ab18fa"},"vehicle_type_id":"4","last_reported":1723302437,"current_range_meters":27600,"station_id":"","pricing_plan_id":"cebpf4jnsgd1na2vs0mg"},{"bike_id":"e1c8e52e-3eb6-476a-9a7d-51fd5a6904b5","system_id":"levelo_inurba_marseille","lat":43.292569,"lon":5.409107,"is_reserved":false,"is_disabled":false,"rental_uris":{"android":"levelo://app?vid=e1c8e52e-3eb6-476a-9a7d-51fd5a6904b5","ios":"levelo://app?vid=e1c8e52e-3eb6-476a-9a7d-51fd5a6904b5"},"vehicle_type_id":"4","last_reported":1723302437,"current_range_meters":14800,"station_id":"ce4bh192rcd13ifvqdc0","pricing_plan_id":"cebpf4jnsgd1na2vs0mg"},{"bike_id":"a058ad22-cb10-4abb-a5bc-f2f60462c63e","system_id":"levelo_inurba_marseille","lat":43.29252,"lon":5.40909,"is_reserved":false,"is_disabled":false,"rental_uris":{"android":"levelo://app?vid=a058ad22-cb10-4abb-a5bc-f2f60462c63e","ios":"levelo://app?vid=a058ad22-cb10-4abb-a5bc-f2f60462c63e"},"vehicle_type_id":"4","last_reported":1723302437,"current_range_meters":0,"station_id":"ce4bh192rcd13ifvqdc0","pricing_plan_id":"cebpf4jnsgd1na2vs0mg"},{"bike_id":"6faaae38-3c96-488a-bdd0-def1c388339a","system_id":"levelo_inurba_marseille","lat":43.29252,"lon":5.40911,"is_reserved":false,"is_disabled":false,"rental_uris":{"android":"levelo://app?vid=6faaae38-3c96-488a-bdd0-def1c388339a","ios":"levelo://app?vid=6faaae38-3c96-488a-bdd0-def1c388339a"},"vehicle_type_id":"4","last_reported":1723302437,"current_range_meters":0,"station_id":"ce4bh192rcd13ifvqdc0","pricing_plan_id":"cebpf4jnsgd1na2vs0mg"},{"bike_id":"689283c8-e78c-4663-b263-eda273de5cab","system_id":"levelo_inurba_marseille","lat":43.325243,"lon":5.414326,"is_reserved":false,"is_disabled":false,"rental_uris":{"android":"levelo://app?vid=689283c8-e78c-4663-b263-eda273de5cab","ios":"levelo://app?vid=689283c8-e78c-4663-b263-eda273de5cab"},"vehicle_type_id":"4","last_reported":1723302437,"current_range_meters":14400,"station_id":"ce4bhq12rcd13ifvqhhg","pricing_plan_id":"cebpf4jnsgd1na2vs0mg"},{"bike_id":"1d9de279-ff0a-4eb6-9c9d-1ba3092a9fb1","system_id":"levelo_inurba_marseille","lat":43.292571,"lon":5.409107,"is_reserved":false,"is_disabled":false,"rental_uris":{"android":"levelo://app?vid=1d9de279-ff0a-4eb6-9c9d-1ba3092a9fb1","ios":"levelo://app?vid=1d9de279-ff0a-4eb6-9c9d-1ba3092a9fb1"},"vehicle_type_id":"4","last_reported":1723302437,"current_range_meters":20000,"station_id":"ce4bh192rcd13ifvqdc0","pricing_plan_id":"cebpf4jnsgd1na2vs0mg"},{"bike_id":"ae05ea62-c415-4a1e-b27a-50ad56398c89","system_id":"levelo_inurba_marseille","lat":43.276179,"lon":5.361009,"is_reserved":false,"is_disabled":false,"rental_uris":{"android":"levelo://app?vid=ae05ea62-c415-4a1e-b27a-50ad56398c89","ios":"levelo://app?vid=ae05ea62-c415-4a1e-b27a-50ad56398c89"},"vehicle_type_id":"4","last_reported":1723302437,"current_range_meters":5200,"station_id":"ce4bgj92rcd13ifvqbe0","pricing_plan_id":"cebpf4jnsgd1na2vs0mg"},{"bike_id":"0c715e72-baa5-47c9-91b4-eb8275e51188","system_id":"levelo_inurba_marseille","lat":43.27615,"lon":5.36115,"is_reserved":false,"is_disabled":false,"rental_uris":{"android":"levelo://app?vid=0c715e72-baa5-47c9-91b4-eb8275e51188","ios":"levelo://app?vid=0c715e72-baa5-47c9-91b4-eb8275e51188"},"vehicle_type_id":"4","last_reported":1723302437,"current_range_meters":2800,"station_id":"","pricing_plan_id":"cebpf4jnsgd1na2vs0mg"},{"bike_id":"b111a5b8-bdb5-462d-992a-1d658dd7a1f7","system_id":"levelo_inurba_marseille","lat":43.27383,"lon":5.36245,"is_reserved":false,"is_disabled":false,"rental_uris":{"android":"levelo://app?vid=b111a5b8-bdb5-462d-992a-1d658dd7a1f7","ios":"levelo://app?vid=b111a5b8-bdb5-462d-992a-1d658dd7a1f7"},"vehicle_type_id":"4","last_reported":1723302437,"current_range_meters":22400,"station_id":"ce4bhbh2rcd13ifvqeo0","pricing_plan_id":"cebpf4jnsgd1na2vs0mg"},{"bike_id":"492b5e9f-cd58-462f-a6fb-fe2380d3c325","system_id":"levelo_inurba_marseille","lat":43.273821,"lon":5.362523,"is_reserved":false,"is_disabled":false,"rental_uris":{"android":"levelo://app?vid=492b5e9f-cd58-462f-a6fb-fe2380d3c325","ios":"levelo://app?vid=492b5e9f-cd58-462f-a6fb-fe2380d3c325"},"vehicle_type_id":"4","last_reported":1723302437,"current_range_meters":21200,"station_id":"ce4bhbh2rcd13ifvqeo0","pricing_plan_id":"cebpf4jnsgd1na2vs0mg"},{"bike_id":"5e113c5c-0798-4a09-b38b-43f4b7783eea","system_id":"levelo_inurba_marseille","lat":43.273613,"lon":5.362705,"is_reserved":false,"is_disabled":false,"rental_uris":{"android":"levelo://app?vid=5e113c5c-0798-4a09-b38b-43f4b7783eea","ios":"levelo://app?vid=5e113c5c-0798-4a09-b38b-43f4b7783eea"},"vehicle_type_id":"4","last_reported":1723302437,"current_range_meters":17200,"station_id":"ce4bhbh2rcd13ifvqeo0","pricing_plan_id":"cebpf4jnsgd1na2vs0mg"},{"bike_id":"ae15b9f4-ef8d-4090-97af-5bba6013a1b8","system_id":"levelo_inurba_marseille","lat":43.273613,"lon":5.362705,"is_reserved":false,"is_disabled":false,"rental_uris":{"android":"levelo://app?vid=ae15b9f4-ef8d-4090-97af-5bba6013a1b8","ios":"levelo://app?vid=ae15b9f4-ef8d-4090-97af-5bba6013a1b8"},"vehicle_type_id":"4","last_reported":1723302437,"current_range_meters":27600,"station_id":"ce4bhbh2rcd13ifvqeo0","pricing_plan_id":"cebpf4jnsgd1na2vs0mg"},{"bike_id":"30aad5e3-4b66-414e-84bd-f031b96402d6","system_id":"levelo_inurba_marseille","lat":43.273613,"lon":5.362705,"is_reserved":false,"is_disabled":false,"rental_uris":{"android":"levelo://app?vid=30aad5e3-4b66-414e-84bd-f031b96402d6","ios":"levelo://app?vid=30aad5e3-4b66-414e-84bd-f031b96402d6"},"vehicle_type_id":"4","last_reported":1723302437,"current_range_meters":27200,"station_id":"ce4bhbh2rcd13ifvqeo0","pricing_plan_id":"cebpf4jnsgd1na2vs0mg"},{"bike_id":"89102276-24fc-4b19-b1fb-e2a376aab31c","system_id":"levelo_inurba_marseille","lat":43.27381,"lon":5.36251,"is_reserved":false,"is_disabled":false,"rental_uris":{"android":"levelo://app?vid=89102276-24fc-4b19-b1fb-e2a376aab31c","ios":"levelo://app?vid=89102276-24fc-4b19-b1fb-e2a376aab31c"},"vehicle_type_id":"4","last_reported":1723302437,"current_range_meters":22000,"station_id":"ce4bhbh2rcd13ifvqeo0","pricing_plan_id":"cebpf4jnsgd1na2vs0mg"},{"bike_id":"0a304056-63dc-4212-ba3a-02831fd1c5a5","system_id":"levelo_inurba_marseille","lat":43.273613,"lon":5.362705,"is_reserved":false,"is_disabled":false,"rental_uris":{"android":"levelo://app?vid=0a304056-63dc-4212-ba3a-02831fd1c5a5","ios":"levelo://app?vid=0a304056-63dc-4212-ba3a-02831fd1c5a5"},"vehicle_type_id":"4","last_reported":1723302437,"current_range_meters":400,"station_id":"ce4bhbh2rcd13ifvqeo0","pricing_plan_id":"cebpf4jnsgd1na2vs0mg"},{"bike_id":"f56945b0-d93b-4abe-8cc1-03720ec0b947","system_id":"levelo_inurba_marseille","lat":43.273613,"lon":5.362705,"is_reserved":false,"is_disabled":false,"rental_uris":{"android":"levelo://app?vid=f56945b0-d93b-4abe-8cc1-03720ec0b947","ios":"levelo://app?vid=f56945b0-d93b-4abe-8cc1-03720ec0b947"},"vehicle_type_id":"4","last_reported":1723302437,"current_range_meters":26000,"station_id":"ce4bhbh2rcd13ifvqeo0","pricing_plan_id":"cebpf4jnsgd1na2vs0mg"},{"bike_id":"fcc6b76b-0dd4-4a54-9c5b-fc0222dd0846","system_id":"levelo_inurba_marseille","lat":43.273613,"lon":5.362705,"is_reserved":false,"is_disabled":false,"rental_uris":{"android":"levelo://app?vid=fcc6b76b-0dd4-4a54-9c5b-fc0222dd0846","ios":"levelo://app?vid=fcc6b76b-0dd4-4a54-9c5b-fc0222dd0846"},"vehicle_type_id":"4","last_reported":1723302437,"current_range_meters":9200,"station_id":"ce4bhbh2rcd13ifvqeo0","pricing_plan_id":"cebpf4jnsgd1na2vs0mg"},{"bike_id":"9f8766e6-5019-42fa-99f9-6f985f6379ca","system_id":"levelo_inurba_marseille","lat":43.273613,"lon":5.362705,"is_reserved":false,"is_disabled":false,"rental_uris":{"android":"levelo://app?vid=9f8766e6-5019-42fa-99f9-6f985f6379ca","ios":"levelo://app?vid=9f8766e6-5019-42fa-99f9-6f985f6379ca"},"vehicle_type_id":"4","last_reported":1723302437,"current_range_meters":11200,"station_id":"ce4bhbh2rcd13ifvqeo0","pricing_plan_id":"cebpf4jnsgd1na2vs0mg"},{"bike_id":"24429208-8773-428d-b6d7-85078580e968","system_id":"levelo_inurba_marseille","lat":43.273613,"lon":5.362705,"is_reserved":false,"is_disabled":false,"rental_uris":{"android":"levelo://app?vid=24429208-8773-428d-b6d7-85078580e968","ios":"levelo://app?vid=24429208-8773-428d-b6d7-85078580e968"},"vehicle_type_id":"4","last_reported":1723302437,"current_range_meters":31600,"station_id":"ce4bhbh2rcd13ifvqeo0","pricing_plan_id":"cebpf4jnsgd1na2vs0mg"},{"bike_id":"1ec455b1-4f46-4b34-a953-bedef4384edc","system_id":"levelo_inurba_marseille","lat":43.273613,"lon":5.362705,"is_reserved":false,"is_disabled":false,"rental_uris":{"android":"levelo://app?vid=1ec455b1-4f46-4b34-a953-bedef4384edc","ios":"levelo://app?vid=1ec455b1-4f46-4b34-a953-bedef4384edc"},"vehicle_type_id":"4","last_reported":1723302437,"current_range_meters":8000,"station_id":"ce4bhbh2rcd13ifvqeo0","pricing_plan_id":"cebpf4jnsgd1na2vs0mg"},{"bike_id":"dd93eae5-1f4d-466a-9f14-7ad78d050946","system_id":"levelo_inurba_marseille","lat":43.273613,"lon":5.362705,"is_reserved":false,"is_disabled":false,"rental_uris":{"android":"levelo://app?vid=dd93eae5-1f4d-466a-9f14-7ad78d050946","ios":"levelo://app?vid=dd93eae5-1f4d-466a-9f14-7ad78d050946"},"vehicle_type_id":"4","last_reported":1723302437,"current_range_meters":8000,"station_id":"ce4bhbh2rcd13ifvqeo0","pricing_plan_id":"cebpf4jnsgd1na2vs0mg"},