{"last_updated":1729890457,"ttl":60,"version":"2.2","data":{"bikes":[{"bike_id":"d8a299f6-9441-4d42-984d-8fe010a840ae","system_id":"levelo_inurba_marseille","lat":43.29261,"lon":5.38439,"is_reserved":false,"is_disabled":false,"rental_uris":{"android":"levelo://app?vid=d8a299f6-9441-4d42-984d-8fe010a840ae","ios":"levelo://app?vid=d8a299f6-9441-4d42-984d-8fe010a840ae"},"vehicle_type_id":"4","last_reported":1729890457,"current_range_meters":33200,"station_id":"ce4bh692rcd13ifvqea0","pricing_plan_id":"cebpf4jnsgd1na2vs0mg"},{"bike_id":"e7acb64b-c61f-47b2-a8af-1a312a4d2a8b","system_id":"levelo_inurba_marseille","lat":43.28084,"lon":5.3965,"is_reserved":false,"is_disabled":false,"rental_uris":{"android":"levelo://app?vid=e7acb64b-c61f-47b2-a8af-1a312a4d2a8b","ios":"levelo://app?vid=e7acb64b-c61f-47b2-a8af-1a312a4d2a8b"},"vehicle_type_id":"4","last_reported":1729890457,"current_range_meters":34000,"station_id":"ce4bho12rcd13ifvqh2g","pricing_plan_id":"cebpf4jnsgd1na2vs0mg"},{"bike_id":"256eb09a-9e75-46fb-a441-f70d0ed502e9","system_id":"levelo_inurba_marseille","lat":43.28659,"lon":5.36356,"is_reserved":false,"is_disabled":false,"rental_uris":{"android":"levelo://app?vid=256eb09a-9e75-46fb-a441-f70d0ed502e9","ios":"levelo://app?vid=256eb09a-9e75-46fb-a441-f70d0ed502e9"},"vehicle_type_id":"4","last_reported":1729890457,"current_range_meters":16400,"station_id":"ce4bhah2rcd13ifvqej0","pricing_plan_id":"cebpf4jnsgd1na2vs0mg"},{"bike_id":"ffe5e8e1-28f9-40b5-b590-4d41438bbef5","system_id":"levelo_inurba_marseille","lat":43.313305,"lon":5.396921,"is_reserved":false,"is_disabled":false,"rental_uris":{"android":"levelo://app?vid=ffe5e8e1-28f9-40b5-b590-4d41438bbef5","ios":"levelo://app?vid=ffe5e8e1-28f9-40b5-b590-4d41438bbef5"},"vehicle_type_id":"4","last_reported":1729890457,"current_range_meters":38800,"station_id":"ce4bgvp2rcd13ifvqcu0","pricing_plan_id":"cebpf4jnsgd1na2vs0mg"},{"bike_id":"84524af5-cab8-45d6-a697-cd4124bee7ac","system_id":"levelo_inurba_marseille","lat":43.25122,"lon":5.40317,"is_reserved":false,"is_disabled":false,"rental_uris":{"android":"levelo://app?vid=84524af5-cab8-45d6-a697-cd4124bee7ac","ios":"levelo://app?vid=84524af5-cab8-45d6-a697-cd4124bee7ac"},"vehicle_type_id":"4","last_reported":1729890457,"current_range_meters":38800,"station_id":"ce4bhlh2rcd13ifvqgig","pricing_plan_id":"cebpf4jnsgd1na2vs0mg"},{"bike_id":"7dea3e7e-d097-49d0-a088-22b8f2f11a9f","system_id":"levelo_inurba_marseille","lat":43.290982,"lon":5.381373,"is_reserved":false,"is_disabled":false,"rental_uris":{"android":"levelo://app?vid=7dea3e7e-d097-49d0-a088-22b8f2f11a9f","ios":"levelo://app?vid=7dea3e7e-d097-49d0-a088-22b8f2f11a9f"},"vehicle_type_id":"4","last_reported":1729890457,"current_range_meters":33600,"station_id":"ce4bh512rcd13ifvqe2g","pricing_plan_id":"cebpf4jnsgd1na2vs0mg"},{"bike_id":"fc1de7af-59dc-47a0-b20e-8d88be4e5efd","system_id":"levelo_inurba_marseille","lat":43.28945,"lon":5.36643,"is_reserved":false,"is_disabled":false,"rental_uris":{"android":"levelo://app?vid=fc1de7af-59dc-47a0-b20e-8d88be4e5efd","ios":"levelo://app?vid=fc1de7af-59dc-47a0-b20e-8d88be4e5efd"},"vehicle_type_id":"4","last_reported":1729890457,"current_range_meters":16800,"station_id":"ce4bhap2rcd13ifvqek0","pricing_plan_id":"cebpf4jnsgd1na2vs0mg"},{"bike_id":"841662d0-f257-4608-a6c6-ca3bef331737","system_id":"levelo_inurba_marseille","lat":43.32658,"lon":5.40997,"is_reserved":false,"is_disabled":false,"rental_uris":{"android":"levelo://app?vid=841662d0-f257-4608-a6c6-ca3bef331737","ios":"levelo://app?vid=841662d0-f257-4608-a6c6-ca3bef331737"},"vehicle_type_id":"4","last_reported":1729890457,"current_range_meters":37600,"station_id":"ce4bhpp2rcd13ifvqhgg","pricing_plan_id":"cebpf4jnsgd1na2vs0mg"},{"bike_id":"43e075c8-4563-409e-afc9-967cff5e0929","system_id":"levelo_inurba_marseille","lat":43.28939,"lon":5.36637,"is_reserved":false,"is_disabled":false,"rental_uris":{"android":"levelo://app?vid=43e075c8-4563-409e-afc9-967cff5e0929","ios":"levelo://app?vid=43e075c8-4563-409e-afc9-967cff5e0929"},"vehicle_type_id":"4","last_reported":1729890457,"current_range_meters":6000,"station_id":"ce4bhap2rcd13ifvqek0","pricing_plan_id":"cebpf4jnsgd1na2vs0mg"},{"bike_id":"658bfff3-7447-4dd6-9000-656b6647cd35","system_id":"levelo_inurba_marseille","lat":43.29873,"lon":5.39737,"is_reserved":false,"is_disabled":false,"rental_uris":{"android":"levelo://app?vid=658bfff3-7447-4dd6-9000-656b6647cd35","ios":"levelo://app?vid=658bfff3-7447-4dd6-9000-656b6647cd35"},"vehicle_type_id":"4","last_reported":1729890457,"current_range_meters":19600,"station_id":"ce4bh0h2rcd13ifvqd50","pricing_plan_id":"cebpf4jnsgd1na2vs0mg"},{"bike_id":"ba23ff9b-4577-427e-a1be-4c831a6f0132","system_id":"levelo_inurba_marseille","lat":43.28033,"lon":5.36951,"is_reserved":false,"is_disabled":false,"rental_uris":{"android":"levelo://app?vid=ba23ff9b-4577-427e-a1be-4c831a6f0132","ios":"levelo://app?vid=ba23ff9b-4577-427e-a1be-4c831a6f0132"},"vehicle_type_id":"4","last_reported":1729890457,"current_range_meters":38000,"station_id":"ce4bha12rcd13ifvqef0","pricing_plan_id":"cebpf4jnsgd1na2vs0mg"},{"bike_id":"9ffb85a6-582c-466a-a86d-2d71ad8b44fe","system_id":"levelo_inurba_marseille","lat":43.26779,"lon":5.39424,"is_reserved":false,"is_disabled":false,"rental_uris":{"android":"levelo://app?vid=9ffb85a6-582c-466a-a86d-2d71ad8b44fe","ios":"levelo://app?vid=9ffb85a6-582c-466a-a86d-2d71ad8b44fe"},"vehicle_type_id":"4","last_reported":1729890457,"current_range_meters":38800,"station_id":"ce4bhh12rcd13ifvqfg0","pricing_plan_id":"cebpf4jnsgd1na2vs0mg"},{"bike_id":"9b32293b-81be-45fa-8866-6b871c88cbf7","system_id":"levelo_inurba_marseille","lat":43.29415,"lon":5.38628,"is_reserved":false,"is_disabled":false,"rental_uris":{"android":"levelo://app?vid=9b32293b-81be-45fa-8866-6b871c88cbf7","ios":"levelo://app?vid=9b32293b-81be-45fa-8866-6b871c88cbf7"},"vehicle_type_id":"4","last_reported":1729890457,"current_range_meters":34800,"station_id":"ce4bh2h2rcd13ifvqdh0","pricing_plan_id":"cebpf4jnsgd1na2vs0mg"},{"bike_id":"72bd30b8-4f4f-4244-94d8-f1ffee7ef062","system_id":"levelo_inurba_marseille","lat":43.28848,"lon":5.39305,"is_reserved":false,"is_disabled":false,"rental_uris":{"android":"levelo://app?vid=72bd30b8-4f4f-4244-94d8-f1ffee7ef062","ios":"levelo://app?vid=72bd30b8-4f4f-4244-94d8-f1ffee7ef062"},"vehicle_type_id":"4","last_reported":1729890457,"current_range_meters":10000,"station_id":"ce4bh2p2rcd13ifvqdi0","pricing_plan_id":"cebpf4jnsgd1na2vs0mg"},{"bike_id":"2818ef3d-c10c-4252-882d-b244205aa826","system_id":"levelo_inurba_marseille","lat":43.29418,"lon":5.38628,"is_reserved":false,"is_disabled":false,"rental_uris":{"android":"levelo://app?vid=2818ef3d-c10c-4252-882d-b244205aa826","ios":"levelo://app?vid=2818ef3d-c10c-4252-882d-b244205aa826"},"vehicle_type_id":"4","last_reported":1729890457,"current_range_meters":38800,"station_id":"ce4bh2h2rcd13ifvqdh0","pricing_plan_id":"cebpf4jnsgd1na2vs0mg"},{"bike_id":"1542f6de-3dd1-481c-99dc-f28588a5d22a","system_id":"levelo_inurba_marseille","lat":43.31335,"lon":5.39699,"is_reserved":false,"is_disabled":false,"rental_uris":{"android":"levelo://app?vid=1542f6de-3dd1-481c-99dc-f28588a5d22a","ios":"levelo://app?vid=1542f6de-3dd1-481c-99dc-f28588a5d22a"},"vehicle_type_id":"4","last_reported":1729890457,"current_range_meters":14400,"station_id":"ce4bgvp2rcd13ifvqcu0","pricing_plan_id":"cebpf4jnsgd1na2vs0mg"},{"bike_id":"865124a8-5cf8-4f1f-ba5e-7dd42a2c84cc","system_id":"levelo_inurba_marseille","lat":43.28273,"lon":5.3506,"is_reserved":false,"is_disabled":false,"rental_uris":{"android":"levelo://app?vid=865124a8-5cf8-4f1f-ba5e-7dd42a2c84cc","ios":"levelo://app?vid=865124a8-5cf8-4f1f-ba5e-7dd42a2c84cc"},"vehicle_type_id":"4","last_reported":1729890457,"current_range_meters":17200,"station_id":"ce4bhbp2rcd13ifvqerg","pricing_plan_id":"cebpf4jnsgd1na2vs0mg"},{"bike_id":"d5ea47c9-768a-468d-bdf2-2b85271b8d40","system_id":"levelo_inurba_marseille","lat":43.29421,"lon":5.38605,"is_reserved":false,"is_disabled":false,"rental_uris":{"android":"levelo://app?vid=d5ea47c9-768a-468d-bdf2-2b85271b8d40","ios":"levelo://app?vid=d5ea47c9-768a-468d-bdf2-2b85271b8d40"},"vehicle_type_id":"4","last_reported":1729890457,"current_range_meters":20000,"station_id":"ce4bh2h2rcd13ifvqdh0","pricing_plan_id":"cebpf4jnsgd1na2vs0mg"},{"bike_id":"4a95f9b7-e0be-419a-9102-9e5d86753f74","system_id":"levelo_inurba_marseille","lat":43.28668,"lon":5.36352,"is_reserved":false,"is_disabled":false,"rental_uris":{"android":"levelo://app?vid=4a95f9b7-e0be-419a-9102-9e5d86753f74","ios":"levelo://app?vid=4a95f9b7-e0be-419a-9102-9e5d86753f74"},"vehicle_type_id":"4","last_reported":1729890457,"current_range_meters":19200,"station_id":"ce4bhah2rcd13ifvqej0","pricing_plan_id":"cebpf4jnsgd1na2vs0mg"},{"bike_id":"f4526530-9fcc-4329-9755-efd0fbf82cd5","system_id":"levelo_inurba_marseille","lat":43.25002,"lon":5.38916,"is_reserved":false,"is_disabled":false,"rental_uris":{"android":"levelo://app?vid=f4526530-9fcc-4329-9755-efd0fbf82cd5","ios":"levelo://app?vid=f4526530-9fcc-4329-9755-efd0fbf82cd5"},"vehicle_type_id":"4","last_reported":1729890457,"current_range_meters":8800,"station_id":"ce4bhgp2rcd13ifvqfd0","pricing_plan_id":"cebpf4jnsgd1na2vs0mg"},{"bike_id":"25ead7b0-4d09-42c4-80d5-889c619fcbc8","system_id":"levelo_inurba_marseille","lat":43.29038,"lon":5.38657,"is_reserved":false,"is_disabled":false,"rental_uris":{"android":"levelo://app?vid=25ead7b0-4d09-42c4-80d5-889c619fcbc8","ios":"levelo://app?vid=25ead7b0-4d09-42c4-80d5-889c619fcbc8"},"vehicle_type_id":"4","last_reported":1729890457,"current_range_meters":38000,"station_id":"ce4bh4p2rcd13ifvqe0g","pricing_plan_id":"cebpf4jnsgd1na2vs0mg"},{"bike_id":"1bebfdbd-c17c-441e-a4f8-3f500ea76e5c","system_id":"levelo_inurba_marseille","lat":43.29203,"lon":5.39328,"is_reserved":false,"is_disabled":false,"rental_uris":{"android":"levelo://app?vid=1bebfdbd-c17c-441e-a4f8-3f500ea76e5c","ios":"levelo://app?vid=1bebfdbd-c17c-441e-a4f8-3f500ea76e5c"},"vehicle_type_id":"4","last_reported":1729890457,"current_range_meters":38800,"station_id":"ce4bh192rcd13ifvqdd0","pricing_plan_id":"cebpf4jnsgd1na2vs0mg"},{"bike_id":"fe7c44a1-56eb-4d12-9924-492e13140e6b","system_id":"levelo_inurba_marseille","lat":43.2942,"lon":5.38627,"is_reserved":false,"is_disabled":false,"rental_uris":{"android":"levelo://app?vid=fe7c44a1-56eb-4d12-9924-492e13140e6b","ios":"levelo://app?vid=fe7c44a1-56eb-4d12-9924-492e13140e6b"},"vehicle_type_id":"4","last_reported":1729890457,"current_range_meters":32400,"station_id":"ce4bh2h2rcd13ifvqdh0","pricing_plan_id":"cebpf4jnsgd1na2vs0mg"},{"bike_id":"9b63ee65-32d7-4702-869c-3c04224851e5","system_id":"levelo_inurba_marseille","lat":43.2942,"lon":5.38624,"is_reserved":false,"is_disabled":false,"rental_uris":{"android":"levelo://app?vid=9b63ee65-32d7-4702-869c-3c04224851e5","ios":"levelo://app?vid=9b63ee65-32d7-4702-869c-3c04224851e5"},"vehicle_type_id":"4","last_reported":1729890457,"current_range_meters":25200,"station_id":"ce4bh2h2rcd13ifvqdh0","pricing_plan_id":"cebpf4jnsgd1na2vs0mg"},{"bike_id":"a1579f1f-1039-467b-99c0-eff8c469a9f1","system_id":"levelo_inurba_marseille","lat":43.27833,"lon":5.39199,"is_reserved":false,"is_disabled":false,"rental_uris":{"android":"levelo://app?vid=a1579f1f-1039-467b-99c0-eff8c469a9f1","ios":"levelo://app?vid=a1579f1f-1039-467b-99c0-eff8c469a9f1"},"vehicle_type_id":"4","last_reported":1729890457,"current_range_meters":17600,"station_id":"ce4bhjp2rcd13ifvqga0","pricing_plan_id":"cebpf4jnsgd1na2vs0mg"},{"bike_id":"f93e201e-91df-455c-8765-7436e8f59327","system_id":"levelo_inurba_marseille","lat":43.30434,"lon":5.39743,"is_reserved":false,"is_disabled":false,"rental_uris":{"android":"levelo://app?vid=f93e201e-91df-455c-8765-7436e8f59327","ios":"levelo://app?vid=f93e201e-91df-455c-8765-7436e8f59327"},"vehicle_type_id":"4","last_reported":1729890457,"current_range_meters":32800,"station_id":"ce4bh092rcd13ifvqd20","pricing_plan_id":"cebpf4jnsgd1na2vs0mg"},{"bike_id":"cbc5287e-dce8-418e-bac7-864a68889123","system_id":"levelo_inurba_marseille","lat":43.28412,"lon":5.34977,"is_reserved":false,"is_disabled":false,"rental_uris":{"android":"levelo://app?vid=cbc5287e-dce8-418e-bac7-864a68889123","ios":"levelo://app?vid=cbc5287e-dce8-418e-bac7-864a68889123"},"vehicle_type_id":"4","last_reported":1729890457,"current_range_meters":8400,"station_id":"ce4bhbh2rcd13ifvqepg","pricing_plan_id":"cebpf4jnsgd1na2vs0mg"},{"bike_id":"11f74dc2-d7f0-4370-95f5-87920a527352","system_id":"levelo_inurba_marseille","lat":43.26491,"lon":5.39539,"is_reserved":false,"is_disabled":false,"rental_uris":{"android":"levelo://app?vid=11f74dc2-d7f0-4370-95f5-87920a527352","ios":"levelo://app?vid=11f74dc2-d7f0-4370-95f5-87920a527352"},"vehicle_type_id":"4","last_reported":1729890457,"current_range_meters":24400,"station_id":"ce4bhi12rcd13ifvqfq0","pricing_plan_id":"cebpf4jnsgd1na2vs0mg"},{"bike_id":"d3ad0654-8b42-424b-9819-4bfe010ac5af","system_id":"levelo_inurba_marseille","lat":43.24545,"lon":5.39523,"is_reserved":false,"is_disabled":false,"rental_uris":{"android":"levelo://app?vid=d3ad0654-8b42-424b-9819-4bfe010ac5af","ios":"levelo://app?vid=d3ad0654-8b42-424b-9819-4bfe010ac5af"},"vehicle_type_id":"4","last_reported":1729890457,"current_range_meters":37600,"station_id":"ce4bhlp2rcd13ifvqgjg","pricing_plan_id":"cebpf4jnsgd1na2vs0mg"},{"bike_id":"16f01b80-c7fb-4fde-83a6-d307c062a13d","system_id":"levelo_inurba_marseille","lat":43.29419,"lon":5.38614,"is_reserved":false,"is_disabled":false,"rental_uris":{"android":"levelo://app?vid=16f01b80-c7fb-4fde-83a6-d307c062a13d","ios":"levelo://app?vid=16f01b80-c7fb-4fde-83a6-d307c062a13d"},"vehicle_type_id":"4","last_reported":1729890457,"current_range_meters":18800,"station_id":"ce4bh2h2rcd13ifvqdh0","pricing_plan_id":"cebpf4jnsgd1na2vs0mg"},{"bike_id":"d0308c9e-a0ab-4c94-8529-194624cd8656","system_id":"levelo_inurba_marseille","lat":43.28704,"lon":5.37407,"is_reserved":false,"is_disabled":false,"rental_uris":{"android":"levelo://app?vid=d0308c9e-a0ab-4c94-8529-194624cd8656","ios":"levelo://app?vid=d0308c9e-a0ab-4c94-8529-194624cd8656"},"vehicle_type_id":"4","last_reported":1729890457,"current_range_meters":36400,"station_id":"ce4bh3p2rcd13ifvqdq0","pricing_plan_id":"cebpf4jnsgd1na2vs0mg"},{"bike_id":"bbbf1317-0cef-47f4-b80a-4dcb1e32720d","system_id":"levelo_inurba_marseille","lat":43.32331,"lon":5.40619,"is_reserved":false,"is_disabled":false,"rental_uris":{"android":"levelo://app?vid=bbbf1317-0cef-47f4-b80a-4dcb1e32720d","ios":"levelo://app?vid=bbbf1317-0cef-47f4-b80a-4dcb1e32720d"},"vehicle_type_id":"4","last_reported":1729890457,"current_range_meters":38800,"station_id":"ce4bhq92rcd13ifvqhjg","pricing_plan_id":"cebpf4jnsgd1na2vs0mg"},{"bike_id":"4e7d13d9-8208-4f09-8b5c-4ee137a89b26","system_id":"levelo_inurba_marseille","lat":43.26941,"lon":5.40246,"is_reserved":false,"is_disabled":false,"rental_uris":{"android":"levelo://app?vid=4e7d13d9-8208-4f09-8b5c-4ee137a89b26","ios":"levelo://app?vid=4e7d13d9-8208-4f09-8b5c-4ee137a89b26"},"vehicle_type_id":"4","last_reported":1729890457,"current_range_meters":33600,"station_id":"cjm6bp8fraef2m0cb0m0","pricing_plan_id":"cebpf4jnsgd1na2vs0mg"},{"bike_id":"b3109803-d47b-436f-b74c-95452c892363","system_id":"levelo_inurba_marseille","lat":43.27818,"lon":5.40712,"is_reserved":false,"is_disabled":false,"rental_uris":{"android":"levelo://app?vid=b3109803-d47b-436f-b74c-95452c892363","ios":"levelo://app?vid=b3109803-d47b-436f-b74c-95452c892363"},"vehicle_type_id":"4","last_reported":1729890457,"current_range_meters":38800,"station_id":"ce4bhnh2rcd13ifvqgtg","pricing_plan_id":"cebpf4jnsgd1na2vs0mg"},{"bike_id":"914671d9-159b-452e-80e3-3092799d2235","system_id":"levelo_inurba_marseille","lat":43.32325,"lon":5.40614,"is_reserved":false,"is_disabled":false,"rental_uris":{"android":"levelo://app?vid=914671d9-159b-452e-80e3-3092799d2235","ios":"levelo://app?vid=914671d9-159b-452e-80e3-3092799d2235"},"vehicle_type_id":"4","last_reported":1729890457,"current_range_meters":27200,"station_id":"ce4bhq92rcd13ifvqhjg","pricing_plan_id":"cebpf4jnsgd1na2vs0mg"},{"bike_id":"635e9814-8097-431c-98b9-3f0b0504caa7","system_id":"levelo_inurba_marseille","lat":43.29778,"lon":5.371103,"is_reserved":false,"is_disabled":false,"rental_uris":{"android":"levelo://app?vid=635e9814-8097-431c-98b9-3f0b0504caa7","ios":"levelo://app?vid=635e9814-8097-431c-98b9-3f0b0504caa7"},"vehicle_type_id":"4","last_reported":1729890457,"current_range_meters":30800,"station_id":"ce4bgop2rcd13ifvqc1g","pricing_plan_id":"cebpf4jnsgd1na2vs0mg"},{"bike_id":"db7f3dcb-7f8d-40dc-8b80-c10b2d2d308b","system_id":"levelo_inurba_marseille","lat":43.27571,"lon":5.38426,"is_reserved":false,"is_disabled":false,"rental_uris":{"android":"levelo://app?vid=db7f3dcb-7f8d-40dc-8b80-c10b2d2d308b","ios":"levelo://app?vid=db7f3dcb-7f8d-40dc-8b80-c10b2d2d308b"},"vehicle_type_id":"4","last_reported":1729890457,"current_range_meters":30800,"station_id":"ce4bhh92rcd13ifvqfi0","pricing_plan_id":"cebpf4jnsgd1na2vs0mg"},{"bike_id":"574321db-1f88-46d0-ae4f-abf349feeaad","system_id":"levelo_inurba_marseille","lat":43.29422,"lon":5.38606,"is_reserved":false,"is_disabled":false,"rental_uris":{"android":"levelo://app?vid=574321db-1f88-46d0-ae4f-abf349feeaad","ios":"levelo://app?vid=574321db-1f88-46d0-ae4f-abf349feeaad"},"vehicle_type_id":"4","last_reported":1729890457,"current_range_meters":6400,"station_id":"ce4bh2h2rcd13ifvqdh0","pricing_plan_id":"cebpf4jnsgd1na2vs0mg"},{"bike_id":"89206673-fdc6-4c61-b767-c66677e18d0b","system_id":"levelo_inurba_marseille","lat":43.22931,"lon":5.35378,"is_reserved":false,"is_disabled":false,"rental_uris":{"android":"levelo://app?vid=89206673-fdc6-4c61-b767-c66677e18d0b","ios":"levelo://app?vid=89206673-fdc6-4c61-b767-c66677e18d0b"},"vehicle_type_id":"4","last_reported":1729890457,"current_range_meters":34800,"station_id":"cpo3532slgdg3j2ikp40","pricing_plan_id":"cebpf4jnsgd1na2vs0mg"},{"bike_id":"ced98659-8758-459e-b747-193d45b4c0dd","system_id":"levelo_inurba_marseille","lat":43.31698,"lon":5.40476,"is_reserved":false,"is_disabled":false,"rental_uris":{"android":"levelo://app?vid=ced98659-8758-459e-b747-193d45b4c0dd","ios":"levelo://app?vid=ced98659-8758-459e-b747-193d45b4c0dd"},"vehicle_type_id":"4","last_reported":1729890457,"current_range_meters":38800,"station_id":"ce4bh012rcd13ifvqd00","pricing_plan_id":"cebpf4jnsgd1na2vs0mg"},{"bike_id":"a8c759c2-8ab0-4ec9-aa09-a4fa585359a0","system_id":"levelo_inurba_marseille","lat":43.2656,"lon":5.37287,"is_reserved":false,"is_disabled":false,"rental_uris":{"android":"levelo://app?vid=a8c759c2-8ab0-4ec9-aa09-a4fa585359a0","ios":"levelo://app?vid=a8c759c2-8ab0-4ec9-aa09-a4fa585359a0"},"vehicle_type_id":"4","last_reported":1729890457,"current_range_meters":30800,"station_id":"ce4bhg12rcd13ifvqf70","pricing_plan_id":"cebpf4jnsgd1na2vs0mg"},{"bike_id":"157da5b6-adf6-47cb-9e35-f1ed9c9ad62a","system_id":"levelo_inurba_marseille","lat":43.26938,"lon":5.38921,"is_reserved":false,"is_disabled":false,"rental_uris":{"android":"levelo://app?vid=157da5b6-adf6-47cb-9e35-f1ed9c9ad62a","ios":"levelo://app?vid=157da5b6-adf6-47cb-9e35-f1ed9c9ad62a"},"vehicle_type_id":"4","last_reported":1729890457,"current_range_meters":28800,"station_id":"ce4bhhh2rcd13ifvqfl0","pricing_plan_id":"cebpf4jnsgd1na2vs0mg"},{"bike_id":"e3692c96-52f3-4ad7-b841-66a6b18dd100","system_id":"levelo_inurba_marseille","lat":43.29046,"lon":5.35908,"is_reserved":false,"is_disabled":false,"rental_uris":{"android":"levelo://app?vid=e3692c96-52f3-4ad7-b841-66a6b18dd100","ios":"levelo://app?vid=e3692c96-52f3-4ad7-b841-66a6b18dd100"},"vehicle_type_id":"4","last_reported":1729890457,"current_range_meters":36800,"station_id":"ce4bha92rcd13ifvqeg0","pricing_plan_id":"cebpf4jnsgd1na2vs0mg"},{"bike_id":"fbda76cf-ad32-44f5-8e46-a16eaabd2829","system_id":"levelo_inurba_marseille","lat":43.22936,"lon":5.35376,"is_reserved":false,"is_disabled":false,"rental_uris":{"android":"levelo://app?vid=fbda76cf-ad32-44f5-8e46-a16eaabd2829","ios":"levelo://app?vid=fbda76cf-ad32-44f5-8e46-a16eaabd2829"},"vehicle_type_id":"4","last_reported":1729890457,"current_range_meters":17600,"station_id":"cpo3532slgdg3j2ikp40","pricing_plan_id":"cebpf4jnsgd1na2vs0mg"},{"bike_id":"d916e714-9a1c-426b-b0df-8f9ca106fed4","system_id":"levelo_inurba_marseille","lat":43.29533,"lon":5.38531,"is_reserved":false,"is_disabled":false,"rental_uris":{"android":"levelo://app?vid=d916e714-9a1c-426b-b0df-8f9ca106fed4","ios":"levelo://app?vid=d916e714-9a1c-426b-b0df-8f9ca106fed4"},"vehicle_type_id":"4","last_reported":1729890457,"current_range_meters":28400,"station_id":"ce4bgih2rcd13ifvqba0","pricing_plan_id":"cebpf4jnsgd1na2vs0mg"},{"bike_id":"db8a2e09-3744-49a4-8c24-12daed1df282","system_id":"levelo_inurba_marseille","lat":43.24651,"lon":5.3889,"is_reserved":false,"is_disabled":false,"rental_uris":{"android":"levelo://app?vid=db8a2e09-3744-49a4-8c24-12daed1df282","ios":"levelo://app?vid=db8a2e09-3744-49a4-8c24-12daed1df282"},"vehicle_type_id":"4","last_reported":1729890457,"current_range_meters":23200,"station_id":"ce4bhg12rcd13ifvqf60","pricing_plan_id":"cebpf4jnsgd1na2vs0mg"},{"bike_id":"422b7f7b-2165-4762-88f3-e0a57173b5c7","system_id":"levelo_inurba_marseille","lat":43.32338,"lon":5.40621,"is_reserved":false,"is_disabled":false,"rental_uris":{"android":"levelo://app?vid=422b7f7b-2165-4762-88f3-e0a57173b5c7","ios":"levelo://app?vid=422b7f7b-2165-4762-88f3-e0a57173b5c7"},"vehicle_type_id":"4","last_reported":1729890457,"current_range_meters":4000,"station_id":"ce4bhq92rcd13ifvqhjg","pricing_plan_id":"cebpf4jnsgd1na2vs0mg"},{"bike_id":"8b69a432-15f2-41e1-85d6-a5cb6ee1f9fb","system_id":"levelo_inurba_marseille","lat":43.29444,"lon":5.3976,"is_reserved":false,"is_disabled":false,"rental_uris":{"android":"levelo://app?vid=8b69a432-15f2-41e1-85d6-a5cb6ee1f9fb","ios":"levelo://app?vid=8b69a432-15f2-41e1-85d6-a5cb6ee1f9fb"},"vehicle_type_id":"4","last_reported":1729890457,"current_range_meters":37600,"station_id":"ce4bh3h2rcd13ifvqdo0","pricing_plan_id":"cebpf4jnsgd1na2vs0mg"},{"bike_id":"6d801313-4ff2-4469-b8f6-c470239153f6","system_id":"levelo_inurba_marseille","lat":43.3089,"lon":5.3719,"is_reserved":false,"is_disabled":false,"rental_uris":{"android":"levelo://app?vid=6d801313-4ff2-4469-b8f6-c470239153f6","ios":"levelo://app?vid=6d801313-4ff2-4469-b8f6-c470239153f6"},"vehicle_type_id":"4","last_reported":1729890457,"current_range_meters":32400,"station_id":"ce4bguh2rcd13ifvqckg","pricing_plan_id":"cebpf4jnsgd1na2vs0mg"},{"bike_id":"a0adfc83-bd30-4c6f-b267-162145dbd841","system_id":"levelo_inurba_marseille","lat":43.287476,"lon":5.361835,"is_reserved":false,"is_disabled":false,"rental_uris":{"android":"levelo://app?vid=a0adfc83-bd30-4c6f-b267-162145dbd841","ios":"levelo://app?vid=a0adfc83-bd30-4c6f-b267-162145dbd841"},"vehicle_type_id":"4","last_reported":1729890457,"current_range_meters":18800,"station_id":"cki0cbj6b192h4jlfktg","pricing_plan_id":"cebpf4jnsgd1na2vs0mg"},{"bike_id":"8fac51d6-c255-4d52-a52c-3a6892999a9d","system_id":"levelo_inurba_marseille","lat":43.29417,"lon":5.38621,"is_reserved":false,"is_disabled":false,"rental_uris":{"android":"levelo://app?vid=8fac51d6-c255-4d52-a52c-3a6892999a9d","ios":"levelo://app?vid=8fac51d6-c255-4d52-a52c-3a6892999a9d"},"vehicle_type_id":"4","last_reported":1729890457,"current_range_meters":14400,"station_id":"ce4bh2h2rcd13ifvqdh0","pricing_plan_id":"cebpf4jnsgd1na2vs0mg"},{"bike_id":"d410a422-d192-420f-99cb-6334954f7d62","system_id":"levelo_inurba_marseille","lat":43.25817,"lon":5.39428,"is_reserved":false,"is_disabled":false,"rental_uris":{"android":"levelo://app?vid=d410a422-d192-420f-99cb-6334954f7d62","ios":"levelo://app?vid=d410a422-d192-420f-99cb-6334954f7d62"},"vehicle_type_id":"4","last_reported":1729890457,"current_range_meters":38800,"station_id":"ce4bhip2rcd13ifvqft0","pricing_plan_id":"cebpf4jnsgd1na2vs0mg"},{"bike_id":"904a5ea3-d5dd-4aa3-853f-ea7a93bbc745","system_id":"levelo_inurba_marseille","lat":43.31758,"lon":5.39015,"is_reserved":false,"is_disabled":false,"rental_uris":{"android":"levelo://app?vid=904a5ea3-d5dd-4aa3-853f-ea7a93bbc745","ios":"levelo://app?vid=904a5ea3-d5dd-4aa3-853f-ea7a93bbc745"},"vehicle_type_id":"4","last_reported":1729890457,"current_range_meters":37600,"station_id":"ce4bhqp2rcd13ifvqhng","pricing_plan_id":"cebpf4jnsgd1na2vs0mg"},{"bike_id":"e4b95570-26b3-4888-9328-864fb43f2ed2","system_id":"levelo_inurba_marseille","lat":43.28443,"lon":5.3919,"is_reserved":false,"is_disabled":false,"rental_uris":{"android":"levelo://app?vid=e4b95570-26b3-4888-9328-864fb43f2ed2","ios":"levelo://app?vid=e4b95570-26b3-4888-9328-864fb43f2ed2"},"vehicle_type_id":"4","last_reported":1729890457,"current_range_meters":3600,"station_id":"ce4bhoh2rcd13ifvqh5g","pricing_plan_id":"cebpf4jnsgd1na2vs0mg"},{"bike_id":"bde40782-2920-4539-8da9-36e90758d17d","system_id":"levelo_inurba_marseille","lat":43.28704,"lon":5.39961,"is_reserved":false,"is_disabled":false,"rental_uris":{"android":"levelo://app?vid=bde40782-2920-4539-8da9-36e90758d17d","ios":"levelo://app?vid=bde40782-2920-4539-8da9-36e90758d17d"},"vehicle_type_id":"4","last_reported":1729890457,"current_range_meters":12400,"station_id":"ce4bho92rcd13ifvqh3g","pricing_plan_id":"cebpf4jnsgd1na2vs0mg"},{"bike_id":"433de629-f82d-43ab-8665-baa9160d552a","system_id":"levelo_inurba_marseille","lat":43.25505,"lon":5.37654,"is_reserved":false,"is_disabled":false,"rental_uris":{"android":"levelo://app?vid=433de629-f82d-43ab-8665-baa9160d552a","ios":"levelo://app?vid=433de629-f82d-43ab-8665-baa9160d552a"},"vehicle_type_id":"4","last_reported":1729890457,"current_range_meters":38000,"station_id":"ce4bhh12rcd13ifvqff0","pricing_plan_id":"cebpf4jnsgd1na2vs0mg"},{"bike_id":"a377c508-e273-402f-9064-dab880143860","system_id":"levelo_inurba_marseille","lat":43.28075,"lon":5.3965,"is_reserved":false,"is_disabled":false,"rental_uris":{"android":"levelo://app?vid=a377c508-e273-402f-9064-dab880143860","ios":"levelo://app?vid=a377c508-e273-402f-9064-dab880143860"},"vehicle_type_id":"4","last_reported":1729890457,"current_range_meters":30400,"station_id":"ce4bho12rcd13ifvqh2g","pricing_plan_id":"cebpf4jnsgd1na2vs0mg"},{"bike_id":"a579f22c-42af-4cbb-b1a9-0cf86de7789f","system_id":"levelo_inurba_marseille","lat":43.28028,"lon":5.36946,"is_reserved":false,"is_disabled":false,"rental_uris":{"android":"levelo://app?vid=a579f22c-42af-4cbb-b1a9-0cf86de7789f","ios":"levelo://app?vid=a579f22c-42af-4cbb-b1a9-0cf86de7789f"},"vehicle_type_id":"4","last_reported":1729890457,"current_range_meters":28400,"station_id":"ce4bha12rcd13ifvqef0","pricing_plan_id":"cebpf4jnsgd1na2vs0mg"},{"bike_id":"df0b0f08-db05-4ec3-8112-8f737b899a2f","system_id":"levelo_inurba_marseille","lat":43.31114,"lon":5.37764,"is_reserved":false,"is_disabled":false,"rental_uris":{"android":"levelo://app?vid=df0b0f08-db05-4ec3-8112-8f737b899a2f","ios":"levelo://app?vid=df0b0f08-db05-4ec3-8112-8f737b899a2f"},"vehicle_type_id":"4","last_reported":1729890457,"current_range_meters":36800,"station_id":"ce4bgt92rcd13ifvqcg0","pricing_plan_id":"cebpf4jnsgd1na2vs0mg"},{"bike_id":"30a58045-5e86-4621-8a97-37f74aea516a","system_id":"levelo_inurba_marseille","lat":43.32982,"lon":5.36682,"is_reserved":false,"is_disabled":false,"rental_uris":{"android":"levelo://app?vid=30a58045-5e86-4621-8a97-37f74aea516a","ios":"levelo://app?vid=30a58045-5e86-4621-8a97-37f74aea516a"},"vehicle_type_id":"4","last_reported":1729890457,"current_range_meters":12400,"station_id":"","pricing_plan_id":"cebpf4jnsgd1na2vs0mg"},{"bike_id":"585bddab-23a5-4e78-9e57-9779c242dddb","system_id":"levelo_inurba_marseille","lat":43.2942,"lon":5.38622,"is_reserved":false,"is_disabled":false,"rental_uris":{"android":"levelo://app?vid=585bddab-23a5-4e78-9e57-9779c242dddb","ios":"levelo://app?vid=585bddab-23a5-4e78-9e57-9779c242dddb"},"vehicle_type_id":"4","last_reported":1729890457,"current_range_meters":38000,"station_id":"ce4bh2h2rcd13ifvqdh0","pricing_plan_id":"cebpf4jnsgd1na2vs0mg"},{"bike_id":"e0b18b6e-ce93-4742-a184-6aa34e85b991","system_id":"levelo_inurba_marseille","lat":43.25933,"lon":5.40901,"is_reserved":false,"is_disabled":false,"rental_uris":{"android":"levelo://app?vid=e0b18b6e-ce93-4742-a184-6aa34e85b991","ios":"levelo://app?vid=e0b18b6e-ce93-4742-a184-6aa34e85b991"},"vehicle_type_id":"4","last_reported":1729890457,"current_range_meters":37600,"station_id":"ce4bhm92rcd13ifvqglg","pricing_plan_id":"cebpf4jnsgd1na2vs0mg"},{"bike_id":"ab2daa8c-0e0d-4562-8a05-b595f8f32529","system_id":"levelo_inurba_marseille","lat":43.31371,"lon":5.38487,"is_reserved":false,"is_disabled":false,"rental_uris":{"android":"levelo://app?vid=ab2daa8c-0e0d-4562-8a05-b595f8f32529","ios":"levelo://app?vid=ab2daa8c-0e0d-4562-8a05-b595f8f32529"},"vehicle_type_id":"4","last_reported":1729890457,"current_range_meters":25200,"station_id":"ce4bgt92rcd13ifvqcf0","pricing_plan_id":"cebpf4jnsgd1na2vs0mg"},{"bike_id":"6ac25fcb-3d66-4087-abc4-1a1333df56c1","system_id":"levelo_inurba_marseille","lat":43.29553,"lon":5.42288,"is_reserved":false,"is_disabled":false,"rental_uris":{"android":"levelo://app?vid=6ac25fcb-3d66-4087-abc4-1a1333df56c1","ios":"levelo://app?vid=6ac25fcb-3d66-4087-abc4-1a1333df56c1"},"vehicle_type_id":"4","last_reported":1729890457,"current_range_meters":3200,"station_id":"ce4bhph2rcd13ifvqhdg","pricing_plan_id":"cebpf4jnsgd1na2vs0mg"},{"bike_id":"1559b705-b410-41a4-bd26-f70a013ede80","system_id":"levelo_inurba_marseille","lat":43.27063,"lon":5.38522,"is_reserved":false,"is_disabled":false,"rental_uris":{"android":"levelo://app?vid=1559b705-b410-41a4-bd26-f70a013ede80","ios":"levelo://app?vid=1559b705-b410-41a4-bd26-f70a013ede80"},"vehicle_type_id":"4","last_reported":1729890457,"current_range_meters":3600,"station_id":"ce4bhh92rcd13ifvqfh0","pricing_plan_id":"cebpf4jnsgd1na2vs0mg"},{"bike_id":"7fd9032d-6b0f-4d6b-b8e0-23495d7481ec","system_id":"levelo_inurba_marseille","lat":43.29534,"lon":5.38547,"is_reserved":false,"is_disabled":false,"rental_uris":{"android":"levelo://app?vid=7fd9032d-6b0f-4d6b-b8e0-23495d7481ec","ios":"levelo://app?vid=7fd9032d-6b0f-4d6b-b8e0-23495d7481ec"},"vehicle_type_id":"4","last_reported":1729890457,"current_range_meters":15200,"station_id":"ce4bgih2rcd13ifvqba0","pricing_plan_id":"cebpf4jnsgd1na2vs0mg"},{"bike_id":"73d744cb-a357-42c8-a7bd-5e6d09de7e73","system_id":"levelo_inurba_marseille","lat":43.29424,"lon":5.38603,"is_reserved":false,"is_disabled":false,"rental_uris":{"android":"levelo://app?vid=73d744cb-a357-42c8-a7bd-5e6d09de7e73","ios":"levelo://app?vid=73d744cb-a357-42c8-a7bd-5e6d09de7e73"},"vehicle_type_id":"4","last_reported":1729890457,"current_range_meters":22400,"station_id":"ce4bh2h2rcd13ifvqdh0","pricing_plan_id":"cebpf4jnsgd1na2vs0mg"},{"bike_id":"4e22b1f2-b744-4471-9588-d46e48170dbb","system_id":"levelo_inurba_marseille","lat":43.2953,"lon":5.38535,"is_reserved":false,"is_disabled":false,"rental_uris":{"android":"levelo://app?vid=4e22b1f2-b744-4471-9588-d46e48170dbb","ios":"levelo://app?vid=4e22b1f2-b744-4471-9588-d46e48170dbb"},"vehicle_type_id":"4","last_reported":1729890457,"current_range_meters":38800,"station_id":"ce4bgih2rcd13ifvqba0","pricing_plan_id":"cebpf4jnsgd1na2vs0mg"},{"bike_id":"ec517bc8-aab9-4441-9a5a-13b6295f2e39","system_id":"levelo_inurba_marseille","lat":43.22933,"lon":5.35376,"is_reserved":false,"is_disabled":false,"rental_uris":{"android":"levelo://app?vid=ec517bc8-aab9-4441-9a5a-13b6295f2e39","ios":"levelo://app?vid=ec517bc8-aab9-4441-9a5a-13b6295f2e39"},"vehicle_type_id":"4","last_reported":1729890457,"current_range_meters":38800,"station_id":"cpo3532slgdg3j2ikp40","pricing_plan_id":"cebpf4jnsgd1na2vs0mg"},{"bike_id":"aa7e778b-c887-460a-a1e9-246263a8857a","system_id":"levelo_inurba_marseille","lat":43.30489,"lon":5.40165,"is_reserved":false,"is_disabled":false,"rental_uris":{"android":"levelo://app?vid=aa7e778b-c887-460a-a1e9-246263a8857a","ios":"levelo://app?vid=aa7e778b-c887-460a-a1e9-246263a8857a"},"vehicle_type_id":"4","last_reported":1729890457,"current_range_meters":6800,"station_id":"ce4bgh92rcd13ifvqb50","pricing_plan_id":"cebpf4jnsgd1na2vs0mg"},{"bike_id":"94b6cc63-b376-42e2-a4f5-f421dd5b9574","system_id":"levelo_inurba_marseille","lat":43.28048,"lon":5.36936,"is_reserved":false,"is_disabled":false,"rental_uris":{"android":"levelo://app?vid=94b6cc63-b376-42e2-a4f5-f421dd5b9574","ios":"levelo://app?vid=94b6cc63-b376-42e2-a4f5-f421dd5b9574"},"vehicle_type_id":"4","last_reported":1729890457,"current_range_meters":16400,"station_id":"ce4bha12rcd13ifvqef0","pricing_plan_id":"cebpf4jnsgd1na2vs0mg"},{"bike_id":"c9d6ed1e-0878-490c-b9c4-e09182af9043","system_id":"levelo_inurba_marseille","lat":43.29259,"lon":5.38454,"is_reserved":false,"is_disabled":false,"rental_uris":{"android":"levelo://app?vid=c9d6ed1e-0878-490c-b9c4-e09182af9043","ios":"levelo://app?vid=c9d6ed1e-0878-490c-b9c4-e09182af9043"},"vehicle_type_id":"4","last_reported":1729890457,"current_range_meters":32400,"station_id":"ce4bh692rcd13ifvqea0","pricing_plan_id":"cebpf4jnsgd1na2vs0mg"},{"bike_id":"f87934f0-09ac-4d61-82d3-9fbe6add34bb","system_id":"levelo_inurba_marseille","lat":43.24548,"lon":5.39522,"is_reserved":false,"is_disabled":false,"rental_uris":{"android":"levelo://app?vid=f87934f0-09ac-4d61-82d3-9fbe6add34bb","ios":"levelo://app?vid=f87934f0-09ac-4d61-82d3-9fbe6add34bb"},"vehicle_type_id":"4","last_reported":1729890457,"current_range_meters":33600,"station_id":"ce4bhlp2rcd13ifvqgjg","pricing_plan_id":"cebpf4jnsgd1na2vs0mg"},{"bike_id":"860e4963-cc0b-4965-a861-e3b7a58e514c","system_id":"levelo_inurba_marseille","lat":43.31993,"lon":5.38167,"is_reserved":false,"is_disabled":false,"rental_uris":{"android":"levelo://app?vid=860e4963-cc0b-4965-a861-e3b7a58e514c","ios":"levelo://app?vid=860e4963-cc0b-4965-a861-e3b7a58e514c"},"vehicle_type_id":"4","last_reported":1729890457,"current_range_meters":17600,"station_id":"ce4bhr12rcd13ifvqhpg","pricing_plan_id":"cebpf4jnsgd1na2vs0mg"},{"bike_id":"6cb0d09c-4434-41fe-bab7-3f2ab7b0ac84","system_id":"levelo_inurba_marseille","lat":43.23055,"lon":5.35495,"is_reserved":false,"is_disabled":false,"rental_uris":{"android":"levelo://app?vid=6cb0d09c-4434-41fe-bab7-3f2ab7b0ac84","ios":"levelo://app?vid=6cb0d09c-4434-41fe-bab7-3f2ab7b0ac84"},"vehicle_type_id":"4","last_reported":1729890457,"current_range_meters":18800,"station_id":"cpo3342slgdg3j2ifvpg","pricing_plan_id":"cebpf4jnsgd1na2vs0mg"},{"bike_id":"93d9c1a5-13fa-4234-9322-cf08e4c097b5","system_id":"levelo_inurba_marseille","lat":43.29864,"lon":5.38907,"is_reserved":false,"is_disabled":false,"rental_uris":{"android":"levelo://app?vid=93d9c1a5-13fa-4234-9322-cf08e4c097b5","ios":"levelo://app?vid=93d9c1a5-13fa-4234-9322-cf08e4c097b5"},"vehicle_type_id":"4","last_reported":1729890457,"current_range_meters":32800,"station_id":"ce4bh392rcd13ifvqdl0","pricing_plan_id":"cebpf4jnsgd1na2vs0mg"},{"bike_id":"28714978-4dce-46c8-9c95-88092c7e6a13","system_id":"levelo_inurba_marseille","lat":43.23191,"lon":5.35555,"is_reserved":false,"is_disabled":false,"rental_uris":{"android":"levelo://app?vid=28714978-4dce-46c8-9c95-88092c7e6a13","ios":"levelo://app?vid=28714978-4dce-46c8-9c95-88092c7e6a13"},"vehicle_type_id":"4","last_reported":1729890457,"current_range_meters":18000,"station_id":"ce4bhu92rcd13ifvqi70","pricing_plan_id":"cebpf4jnsgd1na2vs0mg"},{"bike_id":"cc090ea6-96c4-4646-8d74-bca88b0e9cfd","system_id":"levelo_inurba_marseille","lat":43.301374,"lon":5.387854,"is_reserved":false,"is_disabled":false,"rental_uris":{"android":"levelo://app?vid=cc090ea6-96c4-4646-8d74-bca88b0e9cfd","ios":"levelo://app?vid=cc090ea6-96c4-4646-8d74-bca88b0e9cfd"},"vehicle_type_id":"4","last_reported":1729890457,"current_range_meters":6400,"station_id":"ce4bghh2rcd13ifvqb60","pricing_plan_id":"cebpf4jnsgd1na2vs0mg"},{"bike_id":"88aa1cda-d633-4af8-9471-c4b8fe0d5ea3","system_id":"levelo_inurba_marseille","lat":43.28267,"lon":5.35055,"is_reserved":false,"is_disabled":false,"rental_uris":{"android":"levelo://app?vid=88aa1cda-d633-4af8-9471-c4b8fe0d5ea3","ios":"levelo://app?vid=88aa1cda-d633-4af8-9471-c4b8fe0d5ea3"},"vehicle_type_id":"4","last_reported":1729890457,"current_range_meters":30000,"station_id":"ce4bhbp2rcd13ifvqerg","pricing_plan_id":"cebpf4jnsgd1na2vs0mg"},{"bike_id":"93c0fd4c-23f4-40c8-bd5c-1a8406bebbae","system_id":"levelo_inurba_marseille","lat":43.24801,"lon":5.3746,"is_reserved":false,"is_disabled":false,"rental_uris":{"android":"levelo://app?vid=93c0fd4c-23f4-40c8-bd5c-1a8406bebbae","ios":"levelo://app?vid=93c0fd4c-23f4-40c8-bd5c-1a8406bebbae"},"vehicle_type_id":"4","last_reported":1729890457,"current_range_meters":26000,"station_id":"ce4bhgh2rcd13ifvqfb0","pricing_plan_id":"cebpf4jnsgd1na2vs0mg"},{"bike_id":"26bf9af7-cead-45ec-93ad-b1276f459fbc","system_id":"levelo_inurba_marseille","lat":43.2886,"lon":5.393157,"is_reserved":false,"is_disabled":false,"rental_uris":{"android":"levelo://app?vid=26bf9af7-cead-45ec-93ad-b1276f459fbc","ios":"levelo://app?vid=26bf9af7-cead-45ec-93ad-b1276f459fbc"},"vehicle_type_id":"4","last_reported":1729890457,"current_range_meters":8800,"station_id":"ce4bh2p2rcd13ifvqdi0","pricing_plan_id":"cebpf4jnsgd1na2vs0mg"},{"bike_id":"1eddc096-4e0d-4a67-a58f-388b7ad23292","system_id":"levelo_inurba_marseille","lat":43.29256,"lon":5.38434,"is_reserved":false,"is_disabled":false,"rental_uris":{"android":"levelo://app?vid=1eddc096-4e0d-4a67-a58f-388b7ad23292","ios":"levelo://app?vid=1eddc096-4e0d-4a67-a58f-388b7ad23292"},"vehicle_type_id":"4","last_reported":1729890457,"current_range_meters":10800,"station_id":"ce4bh692rcd13ifvqea0","pricing_plan_id":"cebpf4jnsgd1na2vs0mg"},{"bike_id":"60a8c89c-c16e-4936-99e9-84693da7653a","system_id":"levelo_inurba_marseille","lat":43.26562,"lon":5.39003,"is_reserved":false,"is_disabled":false,"rental_uris":{"android":"levelo://app?vid=60a8c89c-c16e-4936-99e9-84693da7653a","ios":"levelo://app?vid=60a8c89c-c16e-4936-99e9-84693da7653a"},"vehicle_type_id":"4","last_reported":1729890457,"current_range_meters":38800,"station_id":"ce4bhe12rcd13ifvqf30","pricing_plan_id":"cebpf4jnsgd1na2vs0mg"},{"bike_id":"36c54cc1-40df-46d3-afdb-e37f4aec1ac2","system_id":"levelo_inurba_marseille","lat":43.26944,"lon":5.40253,"is_reserved":false,"is_disabled":false,"rental_uris":{"android":"levelo://app?vid=36c54cc1-40df-46d3-afdb-e37f4aec1ac2","ios":"levelo://app?vid=36c54cc1-40df-46d3-afdb-e37f4aec1ac2"},"vehicle_type_id":"4","last_reported":1729890457,"current_range_meters":4400,"station_id":"cjm6bp8fraef2m0cb0m0","pricing_plan_id":"cebpf4jnsgd1na2vs0mg"},{"bike_id":"460bffa1-36db-4939-af4b-776de18d75e7","system_id":"levelo_inurba_marseille","lat":43.28092,"lon":5.39596,"is_reserved":false,"is_disabled":false,"rental_uris":{"android":"levelo://app?vid=460bffa1-36db-4939-af4b-776de18d75e7","ios":"levelo://app?vid=460bffa1-36db-4939-af4b-776de18d75e7"},"vehicle_type_id":"4","last_reported":1729890457,"current_range_meters":21600,"station_id":"ce4bho12rcd13ifvqh2g","pricing_plan_id":"cebpf4jnsgd1na2vs0mg"},{"bike_id":"3ed92a29-5c44-4b6c-b46b-0d6d23a4fe6a","system_id":"levelo_inurba_marseille","lat":43.29555,"lon":5.42281,"is_reserved":false,"is_disabled":false,"rental_uris":{"android":"levelo://app?vid=3ed92a29-5c44-4b6c-b46b-0d6d23a4fe6a","ios":"levelo://app?vid=3ed92a29-5c44-4b6c-b46b-0d6d23a4fe6a"},"vehicle_type_id":"4","last_reported":1729890457,"current_range_meters":34800,"station_id":"ce4bhph2rcd13ifvqhdg","pricing_plan_id":"cebpf4jnsgd1na2vs0mg"},{"bike_id":"07d1e332-63a2-467e-88d9-4eaaeb91b8fb","system_id":"levelo_inurba_marseille","lat":43.31727,"lon":5.42404,"is_reserved":false,"is_disabled":false,"rental_uris":{"android":"levelo://app?vid=07d1e332-63a2-467e-88d9-4eaaeb91b8fb","ios":"levelo://app?vid=07d1e332-63a2-467e-88d9-4eaaeb91b8fb"},"vehicle_type_id":"4","last_reported":1729890457,"current_range_meters":38000,"station_id":"ce4bhp92rcd13ifvqhbg","pricing_plan_id":"cebpf4jnsgd1na2vs0mg"},{"bike_id":"be28d9d7-876a-448b-b472-4bf08ccb4b5d","system_id":"levelo_inurba_marseille","lat":43.30183,"lon":5.36618,"is_reserved":false,"is_disabled":false,"rental_uris":{"android":"levelo://app?vid=be28d9d7-876a-448b-b472-4bf08ccb4b5d","ios":"levelo://app?vid=be28d9d7-876a-448b-b472-4bf08ccb4b5d"},"vehicle_type_id":"4","last_reported":1729890457,"current_range_meters":26000,"station_id":"ce4bgrh2rcd13ifvqc8g","pricing_plan_id":"cebpf4jnsgd1na2vs0mg"},{"bike_id":"49c8c9ac-0d23-4ffb-8845-ed7257616396","system_id":"levelo_inurba_marseille","lat":43.27919,"lon":5.39582,"is_reserved":false,"is_disabled":false,"rental_uris":{"android":"levelo://app?vid=49c8c9ac-0d23-4ffb-8845-ed7257616396","ios":"levelo://app?vid=49c8c9ac-0d23-4ffb-8845-ed7257616396"},"vehicle_type_id":"4","last_reported":1729890457,"current_range_meters":27600,"station_id":"ce4bhf92rcd13ifvqf40","pricing_plan_id":"cebpf4jnsgd1na2vs0mg"},{"bike_id":"c4329532-0090-472b-b592-010648eb41e0","system_id":"levelo_inurba_marseille","lat":43.25003,"lon":5.38916,"is_reserved":false,"is_disabled":false,"rental_uris":{"android":"levelo://app?vid=c4329532-0090-472b-b592-010648eb41e0","ios":"levelo://app?vid=c4329532-0090-472b-b592-010648eb41e0"},"vehicle_type_id":"4","last_reported":1729890457,"current_range_meters":38800,"station_id":"ce4bhgp2rcd13ifvqfd0","pricing_plan_id":"cebpf4jnsgd1na2vs0mg"},{"bike_id":"d27cec62-1d00-43c5-a294-6ec7896d59e3","system_id":"levelo_inurba_marseille","lat":43.2926,"lon":5.38436,"is_reserved":false,"is_disabled":false,"rental_uris":{"android":"levelo://app?vid=d27cec62-1d00-43c5-a294-6ec7896d59e3","ios":"levelo://app?vid=d27cec62-1d00-43c5-a294-6ec7896d59e3"},"vehicle_type_id":"4","last_reported":1729890457,"current_range_meters":38800,"station_id":"ce4bh692rcd13ifvqea0","pricing_plan_id":"cebpf4jnsgd1na2vs0mg"},{"bike_id":"8af9a3cc-7638-4c64-9971-b8b24db5a73d","system_id":"levelo_inurba_marseille","lat":43.2953,"lon":5.38533,"is_reserved":false,"is_disabled":false,"rental_uris":{"android":"levelo://app?vid=8af9a3cc-7638-4c64-9971-b8b24db5a73d","ios":"levelo://app?vid=8af9a3cc-7638-4c64-9971-b8b24db5a73d"},"vehicle_type_id":"4","last_reported":1729890457,"current_range_meters":38800,"station_id":"ce4bgih2rcd13ifvqba0","pricing_plan_id":"cebpf4jnsgd1na2vs0mg"},{"bike_id":"6ff8afb5-4784-4247-ad42-fc6d5c3739a9","system_id":"levelo_inurba_marseille","lat":43.29423,"lon":5.38619,"is_reserved":false,"is_disabled":false,"rental_uris":{"android":"levelo://app?vid=6ff8afb5-4784-4247-ad42-fc6d5c3739a9","ios":"levelo://app?vid=6ff8afb5-4784-4247-ad42-fc6d5c3739a9"},"vehicle_type_id":"4","last_reported":1729890457,"current_range_meters":8400,"station_id":"ce4bh2h2rcd13ifvqdh0","pricing_plan_id":"cebpf4jnsgd1na2vs0mg"},{"bike_id":"ac1edf0e-fc15-48a0-9174-5ed1bde4cd07","system_id":"levelo_inurba_marseille","lat":43.30356,"lon":5.41882,"is_reserved":false,"is_disabled":false,"rental_uris":{"android":"levelo://app?vid=ac1edf0e-fc15-48a0-9174-5ed1bde4cd07","ios":"levelo://app?vid=ac1edf0e-fc15-48a0-9174-5ed1bde4cd07"},"vehicle_type_id":"4","last_reported":1729890457,"current_range_meters":19200,"station_id":"ce4bhop2rcd13ifvqh7g","pricing_plan_id":"cebpf4jnsgd1na2vs0mg"},{"bike_id":"0f63b7b6-e848-443e-8837-2bcdfd518641","system_id":"levelo_inurba_marseille","lat":43.2656,"lon":5.37288,"is_reserved":false,"is_disabled":false,"rental_uris":{"android":"levelo://app?vid=0f63b7b6-e848-443e-8837-2bcdfd518641","ios":"levelo://app?vid=0f63b7b6-e848-443e-8837-2bcdfd518641"},"vehicle_type_id":"4","last_reported":1729890457,"current_range_meters":34800,"station_id":"ce4bhg12rcd13ifvqf70","pricing_plan_id":"cebpf4jnsgd1na2vs0mg"},{"bike_id":"25596ccd-8388-452e-9656-2a293e16965b","system_id":"levelo_inurba_marseille","lat":43.29539,"lon":5.38539,"is_reserved":false,"is_disabled":false,"rental_uris":{"android":"levelo://app?vid=25596ccd-8388-452e-9656-2a293e16965b","ios":"levelo://app?vid=25596ccd-8388-452e-9656-2a293e16965b"},"vehicle_type_id":"4","last_reported":1729890457,"current_range_meters":18000,"station_id":"ce4bgih2rcd13ifvqba0","pricing_plan_id":"cebpf4jnsgd1na2vs0mg"},{"bike_id":"5602e2ca-6524-49d7-acee-1364e8d9af55","system_id":"levelo_inurba_marseille","lat":43.28039,"lon":5.36951,"is_reserved":false,"is_disabled":false,"rental_uris":{"android":"levelo://app?vid=5602e2ca-6524-49d7-acee-1364e8d9af55","ios":"levelo://app?vid=5602e2ca-6524-49d7-acee-1364e8d9af55"},"vehicle_type_id":"4","last_reported":1729890457,"current_range_meters":26000,"station_id":"ce4bha12rcd13ifvqef0","pricing_plan_id":"cebpf4jnsgd1na2vs0mg"},{"bike_id":"78f272a1-2c74-4489-8c36-83bc93a6d452","system_id":"levelo_inurba_marseille","lat":43.23961,"lon":5.36638,"is_reserved":false,"is_disabled":false,"rental_uris":{"android":"levelo://app?vid=78f272a1-2c74-4489-8c36-83bc93a6d452","ios":"levelo://app?vid=78f272a1-2c74-4489-8c36-83bc93a6d452"},"vehicle_type_id":"4","last_reported":1729890457,"current_range_meters":19600,"station_id":"ce4bhi12rcd13ifvqfp0","pricing_plan_id":"cebpf4jnsgd1na2vs0mg"},{"bike_id":"c8c2a705-8b27-4242-bed3-7cbeb4ad6ac7","system_id":"levelo_inurba_marseille","lat":43.28666,"lon":5.3635,"is_reserved":false,"is_disabled":false,"rental_uris":{"android":"levelo://app?vid=c8c2a705-8b27-4242-bed3-7cbeb4ad6ac7","ios":"levelo://app?vid=c8c2a705-8b27-4242-bed3-7cbeb4ad6ac7"},"vehicle_type_id":"4","last_reported":1729890457,"current_range_meters":21600,"station_id":"ce4bhah2rcd13ifvqej0","pricing_plan_id":"cebpf4jnsgd1na2vs0mg"},{"bike_id":"8124fcc2-79bd-45bb-baa8-af058800ef84","system_id":"levelo_inurba_marseille","lat":43.25004,"lon":5.38923,"is_reserved":false,"is_disabled":false,"rental_uris":{"android":"levelo://app?vid=8124fcc2-79bd-45bb-baa8-af058800ef84","ios":"levelo://app?vid=8124fcc2-79bd-45bb-baa8-af058800ef84"},"vehicle_type_id":"4","last_reported":1729890457,"current_range_meters":38800,"station_id":"ce4bhgp2rcd13ifvqfd0","pricing_plan_id":"cebpf4jnsgd1na2vs0mg"},{"bike_id":"ccb07e96-0642-4cd3-9c6b-e6eb51bc1b00","system_id":"levelo_inurba_marseille","lat":43.27621,"lon":5.36109,"is_reserved":false,"is_disabled":false,"rental_uris":{"android":"levelo://app?vid=ccb07e96-0642-4cd3-9c6b-e6eb51bc1b00","ios":"levelo://app?vid=ccb07e96-0642-4cd3-9c6b-e6eb51bc1b00"},"vehicle_type_id":"4","last_reported":1729890457,"current_range_meters":38000,"station_id":"ce4bgj92rcd13ifvqbe0","pricing_plan_id":"cebpf4jnsgd1na2vs0mg"},{"bike_id":"a42b0bdd-1f10-437f-813e-02df169ed0a9","system_id":"levelo_inurba_marseille","lat":43.22933,"lon":5.35386,"is_reserved":false,"is_disabled":false,"rental_uris":{"android":"levelo://app?vid=a42b0bdd-1f10-437f-813e-02df169ed0a9","ios":"levelo://app?vid=a42b0bdd-1f10-437f-813e-02df169ed0a9"},"vehicle_type_id":"4","last_reported":1729890457,"current_range_meters":26000,"station_id":"cpo3532slgdg3j2ikp40","pricing_plan_id":"cebpf4jnsgd1na2vs0mg"},{"bike_id":"bb3cf711-4b9a-4346-a21f-120ee676afb8","system_id":"levelo_inurba_marseille","lat":43.29524,"lon":5.38539,"is_reserved":false,"is_disabled":false,"rental_uris":{"android":"levelo://app?vid=bb3cf711-4b9a-4346-a21f-120ee676afb8","ios":"levelo://app?vid=bb3cf711-4b9a-4346-a21f-120ee676afb8"},"vehicle_type_id":"4","last_reported":1729890457,"current_range_meters":35200,"station_id":"ce4bgih2rcd13ifvqba0","pricing_plan_id":"cebpf4jnsgd1na2vs0mg"},{"bike_id":"48a67f93-254d-4336-93b9-22f908da2752","system_id":"levelo_inurba_marseille","lat":43.30415,"lon":5.41286,"is_reserved":false,"is_disabled":false,"rental_uris":{"android":"levelo://app?vid=48a67f93-254d-4336-93b9-22f908da2752","ios":"levelo://app?vid=48a67f93-254d-4336-93b9-22f908da2752"},"vehicle_type_id":"4","last_reported":1729890457,"current_range_meters":8400,"station_id":"ce4bhop2rcd13ifvqh8g","pricing_plan_id":"cebpf4jnsgd1na2vs0mg"},{"bike_id":"962deaf2-b047-481c-938f-431320a1284f","system_id":"levelo_inurba_marseille","lat":43.27961,"lon":5.38724,"is_reserved":false,"is_disabled":false,"rental_uris":{"android":"levelo://app?vid=962deaf2-b047-481c-938f-431320a1284f","ios":"levelo://app?vid=962deaf2-b047-481c-938f-431320a1284f"},"vehicle_type_id":"4","last_reported":1729890457,"current_range_meters":29600,"station_id":"ce4bhg12rcd13ifvqf80","pricing_plan_id":"cebpf4jnsgd1na2vs0mg"},{"bike_id":"fc2c990b-f933-41ca-ad84-1dd5d62b98ad","system_id":"levelo_inurba_marseille","lat":43.29626,"lon":5.37264,"is_reserved":false,"is_disabled":false,"rental_uris":{"android":"levelo://app?vid=fc2c990b-f933-41ca-ad84-1dd5d62b98ad","ios":"levelo://app?vid=fc2c990b-f933-41ca-ad84-1dd5d62b98ad"},"vehicle_type_id":"4","last_reported":1729890457,"current_range_meters":38800,"station_id":"","pricing_plan_id":"cebpf4jnsgd1na2vs0mg"},{"bike_id":"f2cdfbe2-4cd1-440e-a72f-1774200198f1","system_id":"levelo_inurba_marseille","lat":43.27489,"lon":5.42447,"is_reserved":false,"is_disabled":false,"rental_uris":{"android":"levelo://app?vid=f2cdfbe2-4cd1-440e-a72f-1774200198f1","ios":"levelo://app?vid=f2cdfbe2-4cd1-440e-a72f-1774200198f1"},"vehicle_type_id":"4","last_reported":1729890457,"current_range_meters":17600,"station_id":"ce4bhn92rcd13ifvqgrg","pricing_plan_id":"cebpf4jnsgd1na2vs0mg"},{"bike_id":"c2e65cd3-5d96-431b-8a02-5decdaee4a05","system_id":"levelo_inurba_marseille","lat":43.25582,"lon":5.3823,"is_reserved":false,"is_disabled":false,"rental_uris":{"android":"levelo://app?vid=c2e65cd3-5d96-431b-8a02-5decdaee4a05","ios":"levelo://app?vid=c2e65cd3-5d96-431b-8a02-5decdaee4a05"},"vehicle_type_id":"4","last_reported":1729890457,"current_range_meters":14400,"station_id":"ce4bhih2rcd13ifvqfs0","pricing_plan_id":"cebpf4jnsgd1na2vs0mg"},{"bike_id":"86591a99-8a63-4858-aa60-b73a66e47ece","system_id":"levelo_inurba_marseille","lat":43.29424,"lon":5.38636,"is_reserved":false,"is_disabled":false,"rental_uris":{"android":"levelo://app?vid=86591a99-8a63-4858-aa60-b73a66e47ece","ios":"levelo://app?vid=86591a99-8a63-4858-aa60-b73a66e47ece"},"vehicle_type_id":"4","last_reported":1729890457,"current_range_meters":25200,"station_id":"ce4bh012rcd13ifvqcv0","pricing_plan_id":"cebpf4jnsgd1na2vs0mg"},{"bike_id":"c0e554d9-55fa-422b-a700-8138dfa6e81f","system_id":"levelo_inurba_marseille","lat":43.28108,"lon":5.3784,"is_reserved":false,"is_disabled":false,"rental_uris":{"android":"levelo://app?vid=c0e554d9-55fa-422b-a700-8138dfa6e81f","ios":"levelo://app?vid=c0e554d9-55fa-422b-a700-8138dfa6e81f"},"vehicle_type_id":"4","last_reported":1729890457,"current_range_meters":20000,"station_id":"ce4bha12rcd13ifvqee0","pricing_plan_id":"cebpf4jnsgd1na2vs0mg"},{"bike_id":"3a49133b-c2eb-4904-a05a-e1c486f40d45","system_id":"levelo_inurba_marseille","lat":43.25825,"lon":5.39441,"is_reserved":false,"is_disabled":false,"rental_uris":{"android":"levelo://app?vid=3a49133b-c2eb-4904-a05a-e1c486f40d45","ios":"levelo://app?vid=3a49133b-c2eb-4904-a05a-e1c486f40d45"},"vehicle_type_id":"4","last_reported":1729890457,"current_range_meters":38800,"station_id":"ce4bhip2rcd13ifvqft0","pricing_plan_id":"cebpf4jnsgd1na2vs0mg"},{"bike_id":"14b32013-16c9-4a3a-9b24-38e904708fdb","system_id":"levelo_inurba_marseille","lat":43.28276,"lon":5.35065,"is_reserved":false,"is_disabled":false,"rental_uris":{"android":"levelo://app?vid=14b32013-16c9-4a3a-9b24-38e904708fdb","ios":"levelo://app?vid=14b32013-16c9-4a3a-9b24-38e904708fdb"},"vehicle_type_id":"4","last_reported":1729890457,"current_range_meters":25600,"station_id":"ce4bhbp2rcd13ifvqerg","pricing_plan_id":"cebpf4jnsgd1na2vs0mg"},{"bike_id":"19c3aeb8-d560-4388-9e80-397e00ab5d14","system_id":"levelo_inurba_marseille","lat":43.30415,"lon":5.41288,"is_reserved":false,"is_disabled":false,"rental_uris":{"android":"levelo://app?vid=19c3aeb8-d560-4388-9e80-397e00ab5d14","ios":"levelo://app?vid=19c3aeb8-d560-4388-9e80-397e00ab5d14"},"vehicle_type_id":"4","last_reported":1729890457,"current_range_meters":22400,"station_id":"ce4bhop2rcd13ifvqh8g","pricing_plan_id":"cebpf4jnsgd1na2vs0mg"},{"bike_id":"9250c223-7060-40be-83d3-146dade6eaad","system_id":"levelo_inurba_marseille","lat":43.28081,"lon":5.3965,"is_reserved":false,"is_disabled":false,"rental_uris":{"android":"levelo://app?vid=9250c223-7060-40be-83d3-146dade6eaad","ios":"levelo://app?vid=9250c223-7060-40be-83d3-146dade6eaad"},"vehicle_type_id":"4","last_reported":1729890457,"current_range_meters":38800,"station_id":"ce4bho12rcd13ifvqh2g","pricing_plan_id":"cebpf4jnsgd1na2vs0mg"},{"bike_id":"82b1e3c6-0934-4d80-9944-3dba941c026e","system_id":"levelo_inurba_marseille","lat":43.29441,"lon":5.39741,"is_reserved":false,"is_disabled":false,"rental_uris":{"android":"levelo://app?vid=82b1e3c6-0934-4d80-9944-3dba941c026e","ios":"levelo://app?vid=82b1e3c6-0934-4d80-9944-3dba941c026e"},"vehicle_type_id":"4","last_reported":1729890457,"current_range_meters":17200,"station_id":"ce4bh3h2rcd13ifvqdo0","pricing_plan_id":"cebpf4jnsgd1na2vs0mg"},{"bike_id":"353dd1d1-aedf-4e9f-b96e-2d6c13c12501","system_id":"levelo_inurba_marseille","lat":43.25005,"lon":5.38916,"is_reserved":false,"is_disabled":false,"rental_uris":{"android":"levelo://app?vid=353dd1d1-aedf-4e9f-b96e-2d6c13c12501","ios":"levelo://app?vid=353dd1d1-aedf-4e9f-b96e-2d6c13c12501"},"vehicle_type_id":"4","last_reported":1729890457,"current_range_meters":12800,"station_id":"ce4bhgp2rcd13ifvqfd0","pricing_plan_id":"cebpf4jnsgd1na2vs0mg"},{"bike_id":"c280d134-d9f0-4b63-868a-9b65ba385550","system_id":"levelo_inurba_marseille","lat":43.27918,"lon":5.39582,"is_reserved":false,"is_disabled":false,"rental_uris":{"android":"levelo://app?vid=c280d134-d9f0-4b63-868a-9b65ba385550","ios":"levelo://app?vid=c280d134-d9f0-4b63-868a-9b65ba385550"},"vehicle_type_id":"4","last_reported":1729890457,"current_range_meters":20400,"station_id":"ce4bhf92rcd13ifvqf40","pricing_plan_id":"cebpf4jnsgd1na2vs0mg"},{"bike_id":"9547fe9f-7da9-478b-9033-f446ea71bb69","system_id":"levelo_inurba_marseille","lat":43.31082,"lon":5.42434,"is_reserved":false,"is_disabled":false,"rental_uris":{"android":"levelo://app?vid=9547fe9f-7da9-478b-9033-f446ea71bb69","ios":"levelo://app?vid=9547fe9f-7da9-478b-9033-f446ea71bb69"},"vehicle_type_id":"4","last_reported":1729890457,"current_range_meters":36000,"station_id":"ce4bhp92rcd13ifvqhag","pricing_plan_id":"cebpf4jnsgd1na2vs0mg"},{"bike_id":"df68c236-3429-47dc-8d0d-da0fa7924a52","system_id":"levelo_inurba_marseille","lat":43.29422,"lon":5.38618,"is_reserved":false,"is_disabled":false,"rental_uris":{"android":"levelo://app?vid=df68c236-3429-47dc-8d0d-da0fa7924a52","ios":"levelo://app?vid=df68c236-3429-47dc-8d0d-da0fa7924a52"},"vehicle_type_id":"4","last_reported":1729890457,"current_range_meters":39200,"station_id":"ce4bh2h2rcd13ifvqdh0","pricing_plan_id":"cebpf4jnsgd1na2vs0mg"},{"bike_id":"c4c9b703-9880-48fd-8e2e-81054c2f295d","system_id":"levelo_inurba_marseille","lat":43.29984,"lon":5.37172,"is_reserved":false,"is_disabled":false,"rental_uris":{"android":"levelo://app?vid=c4c9b703-9880-48fd-8e2e-81054c2f295d","ios":"levelo://app?vid=c4c9b703-9880-48fd-8e2e-81054c2f295d"},"vehicle_type_id":"4","last_reported":1729890457,"current_range_meters":14400,"station_id":"ce4bgr92rcd13ifvqc7g","pricing_plan_id":"cebpf4jnsgd1na2vs0mg"},{"bike_id":"914712da-9129-49a4-ad21-34c49f788602","system_id":"levelo_inurba_marseille","lat":43.308888,"lon":5.396352,"is_reserved":false,"is_disabled":false,"rental_uris":{"android":"levelo://app?vid=914712da-9129-49a4-ad21-34c49f788602","ios":"levelo://app?vid=914712da-9129-49a4-ad21-34c49f788602"},"vehicle_type_id":"4","last_reported":1729890457,"current_range_meters":36400,"station_id":"ce4bh012rcd13ifvqcv0","pricing_plan_id":"cebpf4jnsgd1na2vs0mg"},{"bike_id":"eb137f78-f01f-49fa-a254-07b4711bba32","system_id":"levelo_inurba_marseille","lat":43.29421,"lon":5.38626,"is_reserved":false,"is_disabled":false,"rental_uris":{"android":"levelo://app?vid=eb137f78-f01f-49fa-a254-07b4711bba32","ios":"levelo://app?vid=eb137f78-f01f-49fa-a254-07b4711bba32"},"vehicle_type_id":"4","last_reported":1729890457,"current_range_meters":22800,"station_id":"ce4bh2h2rcd13ifvqdh0","pricing_plan_id":"cebpf4jnsgd1na2vs0mg"},{"bike_id":"58afcffd-31ed-44e7-99ff-2fa445db19b3","system_id":"levelo_inurba_marseille","lat":43.29869,"lon":5.39737,"is_reserved":false,"is_disabled":false,"rental_uris":{"android":"levelo://app?vid=58afcffd-31ed-44e7-99ff-2fa445db19b3","ios":"levelo://app?vid=58afcffd-31ed-44e7-99ff-2fa445db19b3"},"vehicle_type_id":"4","last_reported":1729890457,"current_range_meters":22000,"station_id":"ce4bh0h2rcd13ifvqd50","pricing_plan_id":"cebpf4jnsgd1na2vs0mg"},{"bike_id":"866b0d50-2d2d-4bb2-aa91-ede19b59e424","system_id":"levelo_inurba_marseille","lat":43.3236,"lon":5.38888,"is_reserved":false,"is_disabled":false,"rental_uris":{"android":"levelo://app?vid=866b0d50-2d2d-4bb2-aa91-ede19b59e424","ios":"levelo://app?vid=866b0d50-2d2d-4bb2-aa91-ede19b59e424"},"vehicle_type_id":"4","last_reported":1729890457,"current_range_meters":12400,"station_id":"ce4bhqp2rcd13ifvqhog","pricing_plan_id":"cebpf4jnsgd1na2vs0mg"},{"bike_id":"c0f91bbc-eee5-4f55-9eae-b709e326d700","system_id":"levelo_inurba_marseille","lat":43.29878,"lon":5.38907,"is_reserved":false,"is_disabled":false,"rental_uris":{"android":"levelo://app?vid=c0f91bbc-eee5-4f55-9eae-b709e326d700","ios":"levelo://app?vid=c0f91bbc-eee5-4f55-9eae-b709e326d700"},"vehicle_type_id":"4","last_reported":1729890457,"current_range_meters":26800,"station_id":"ce4bh392rcd13ifvqdl0","pricing_plan_id":"cebpf4jnsgd1na2vs0mg"},{"bike_id":"d52b41d5-95a8-4ca2-bb03-027ea7faad52","system_id":"levelo_inurba_marseille","lat":43.29266,"lon":5.3843,"is_reserved":false,"is_disabled":false,"rental_uris":{"android":"levelo://app?vid=d52b41d5-95a8-4ca2-bb03-027ea7faad52","ios":"levelo://app?vid=d52b41d5-95a8-4ca2-bb03-027ea7faad52"},"vehicle_type_id":"4","last_reported":1729890457,"current_range_meters":20000,"station_id":"ce4bh692rcd13ifvqea0","pricing_plan_id":"cebpf4jnsgd1na2vs0mg"},{"bike_id":"b56aca14-96b0-4c5d-bae5-f02011e32eb0","system_id":"levelo_inurba_marseille","lat":43.27431,"lon":5.39422,"is_reserved":false,"is_disabled":false,"rental_uris":{"android":"levelo://app?vid=b56aca14-96b0-4c5d-bae5-f02011e32eb0","ios":"levelo://app?vid=b56aca14-96b0-4c5d-bae5-f02011e32eb0"},"vehicle_type_id":"4","last_reported":1729890457,"current_range_meters":37600,"station_id":"ce4bhdp2rcd13ifvqf20","pricing_plan_id":"cebpf4jnsgd1na2vs0mg"},{"bike_id":"d363dda5-fe4c-44e1-9d47-1ce2ad1625a8","system_id":"levelo_inurba_marseille","lat":43.28936,"lon":5.39628,"is_reserved":false,"is_disabled":false,"rental_uris":{"android":"levelo://app?vid=d363dda5-fe4c-44e1-9d47-1ce2ad1625a8","ios":"levelo://app?vid=d363dda5-fe4c-44e1-9d47-1ce2ad1625a8"},"vehicle_type_id":"4","last_reported":1729890457,"current_range_meters":38800,"station_id":"ce4bh3h2rcd13ifvqdn0","pricing_plan_id":"cebpf4jnsgd1na2vs0mg"},{"bike_id":"31b7db78-d83e-4bcc-a6e2-1a7a1428b1d6","system_id":"levelo_inurba_marseille","lat":43.31583,"lon":5.36628,"is_reserved":false,"is_disabled":false,"rental_uris":{"android":"levelo://app?vid=31b7db78-d83e-4bcc-a6e2-1a7a1428b1d6","ios":"levelo://app?vid=31b7db78-d83e-4bcc-a6e2-1a7a1428b1d6"},"vehicle_type_id":"4","last_reported":1729890457,"current_range_meters":6400,"station_id":"","pricing_plan_id":"cebpf4jnsgd1na2vs0mg"},{"bike_id":"9e1901b7-4583-4403-89cc-e113595758d6","system_id":"levelo_inurba_marseille","lat":43.29422,"lon":5.38606,"is_reserved":false,"is_disabled":false,"rental_uris":{"android":"levelo://app?vid=9e1901b7-4583-4403-89cc-e113595758d6","ios":"levelo://app?vid=9e1901b7-4583-4403-89cc-e113595758d6"},"vehicle_type_id":"4","last_reported":1729890457,"current_range_meters":30000,"station_id":"ce4bh2h2rcd13ifvqdh0","pricing_plan_id":"cebpf4jnsgd1na2vs0mg"},{"bike_id":"a3eeba97-8d75-45c7-8ce4-166d75a9b74d","system_id":"levelo_inurba_marseille","lat":43.29537,"lon":5.38547,"is_reserved":false,"is_disabled":false,"rental_uris":{"android":"levelo://app?vid=a3eeba97-8d75-45c7-8ce4-166d75a9b74d","ios":"levelo://app?vid=a3eeba97-8d75-45c7-8ce4-166d75a9b74d"},"vehicle_type_id":"4","last_reported":1729890457,"current_range_meters":38800,"station_id":"ce4bgih2rcd13ifvqba0","pricing_plan_id":"cebpf4jnsgd1na2vs0mg"},{"bike_id":"7ed179a5-09db-442c-b1b3-3e5dd21573fb","system_id":"levelo_inurba_marseille","lat":43.29897,"lon":5.43666,"is_reserved":false,"is_disabled":false,"rental_uris":{"android":"levelo://app?vid=7ed179a5-09db-442c-b1b3-3e5dd21573fb","ios":"levelo://app?vid=7ed179a5-09db-442c-b1b3-3e5dd21573fb"},"vehicle_type_id":"4","last_reported":1729890457,"current_range_meters":6000,"station_id":"ce4bhpp2rcd13ifvqhfg","pricing_plan_id":"cebpf4jnsgd1na2vs0mg"},{"bike_id":"81bf64e0-fa04-4a2e-907a-c2ef7df0cc84","system_id":"levelo_inurba_marseille","lat":43.24655,"lon":5.38901,"is_reserved":false,"is_disabled":false,"rental_uris":{"android":"levelo://app?vid=81bf64e0-fa04-4a2e-907a-c2ef7df0cc84","ios":"levelo://app?vid=81bf64e0-fa04-4a2e-907a-c2ef7df0cc84"},"vehicle_type_id":"4","last_reported":1729890457,"current_range_meters":23200,"station_id":"ce4bhg12rcd13ifvqf60","pricing_plan_id":"cebpf4jnsgd1na2vs0mg"},{"bike_id":"1461f07b-5d65-443b-9ddb-c47ce788341c","system_id":"levelo_inurba_marseille","lat":43.30439,"lon":5.38889,"is_reserved":false,"is_disabled":false,"rental_uris":{"android":"levelo://app?vid=1461f07b-5d65-443b-9ddb-c47ce788341c","ios":"levelo://app?vid=1461f07b-5d65-443b-9ddb-c47ce788341c"},"vehicle_type_id":"4","last_reported":1729890457,"current_range_meters":24400,"station_id":"ce4bgk12rcd13ifvqbi0","pricing_plan_id":"cebpf4jnsgd1na2vs0mg"},{"bike_id":"7691659f-eea1-4b4d-8db5-2728fcde3a23","system_id":"levelo_inurba_marseille","lat":43.29805,"lon":5.37136,"is_reserved":false,"is_disabled":false,"rental_uris":{"android":"levelo://app?vid=7691659f-eea1-4b4d-8db5-2728fcde3a23","ios":"levelo://app?vid=7691659f-eea1-4b4d-8db5-2728fcde3a23"},"vehicle_type_id":"4","last_reported":1729890457,"current_range_meters":27200,"station_id":"ce4bgop2rcd13ifvqc1g","pricing_plan_id":"cebpf4jnsgd1na2vs0mg"},{"bike_id":"26831573-329d-407e-8aff-1a6a185e3ec6","system_id":"levelo_inurba_marseille","lat":43.29677,"lon":5.37925,"is_reserved":false,"is_disabled":false,"rental_uris":{"android":"levelo://app?vid=26831573-329d-407e-8aff-1a6a185e3ec6","ios":"levelo://app?vid=26831573-329d-407e-8aff-1a6a185e3ec6"},"vehicle_type_id":"4","last_reported":1729890457,"current_range_meters":11600,"station_id":"","pricing_plan_id":"cebpf4jnsgd1na2vs0mg"},{"bike_id":"78b866be-52e6-4e8e-bc4d-82becb72687e","system_id":"levelo_inurba_marseille","lat":43.2944,"lon":5.39749,"is_reserved":false,"is_disabled":false,"rental_uris":{"android":"levelo://app?vid=78b866be-52e6-4e8e-bc4d-82becb72687e","ios":"levelo://app?vid=78b866be-52e6-4e8e-bc4d-82becb72687e"},"vehicle_type_id":"4","last_reported":1729890457,"current_range_meters":20400,"station_id":"ce4bh3h2rcd13ifvqdo0","pricing_plan_id":"cebpf4jnsgd1na2vs0mg"},{"bike_id":"9fc82899-e295-4ad5-964a-0003f9dce9f1","system_id":"levelo_inurba_marseille","lat":43.29072,"lon":5.37185,"is_reserved":false,"is_disabled":false,"rental_uris":{"android":"levelo://app?vid=9fc82899-e295-4ad5-964a-0003f9dce9f1","ios":"levelo://app?vid=9fc82899-e295-4ad5-964a-0003f9dce9f1"},"vehicle_type_id":"4","last_reported":1729890457,"current_range_meters":37600,"station_id":"ce4bh5p2rcd13ifvqe4g","pricing_plan_id":"cebpf4jnsgd1na2vs0mg"},{"bike_id":"7b4cbaf6-40a0-4313-8030-f4e918103d7e","system_id":"levelo_inurba_marseille","lat":43.28418,"lon":5.3498,"is_reserved":false,"is_disabled":false,"rental_uris":{"android":"levelo://app?vid=7b4cbaf6-40a0-4313-8030-f4e918103d7e","ios":"levelo://app?vid=7b4cbaf6-40a0-4313-8030-f4e918103d7e"},"vehicle_type_id":"4","last_reported":1729890457,"current_range_meters":38000,"station_id":"ce4bhbh2rcd13ifvqepg","pricing_plan_id":"cebpf4jnsgd1na2vs0mg"},{"bike_id":"50562db3-e3a5-4c84-a2e2-f49db56936f7","system_id":"levelo_inurba_marseille","lat":43.30316,"lon":5.36898,"is_reserved":false,"is_disabled":false,"rental_uris":{"android":"levelo://app?vid=50562db3-e3a5-4c84-a2e2-f49db56936f7","ios":"levelo://app?vid=50562db3-e3a5-4c84-a2e2-f49db56936f7"},"vehicle_type_id":"4","last_reported":1729890457,"current_range_meters":18800,"station_id":"ce4bgqh2rcd13ifvqc5g","pricing_plan_id":"cebpf4jnsgd1na2vs0mg"},{"bike_id":"a105fe2b-c050-45cc-8d79-e25758638f0b","system_id":"levelo_inurba_marseille","lat":43.25006,"lon":5.38935,"is_reserved":false,"is_disabled":false,"rental_uris":{"android":"levelo://app?vid=a105fe2b-c050-45cc-8d79-e25758638f0b","ios":"levelo://app?vid=a105fe2b-c050-45cc-8d79-e25758638f0b"},"vehicle_type_id":"4","last_reported":1729890457,"current_range_meters":38800,"station_id":"ce4bhgp2rcd13ifvqfd0","pricing_plan_id":"cebpf4jnsgd1na2vs0mg"},{"bike_id":"fccca9a3-13e9-4ff0-9aaf-5a5448e0ee71","system_id":"levelo_inurba_marseille","lat":43.29536,"lon":5.38548,"is_reserved":false,"is_disabled":false,"rental_uris":{"android":"levelo://app?vid=fccca9a3-13e9-4ff0-9aaf-5a5448e0ee71","ios":"levelo://app?vid=fccca9a3-13e9-4ff0-9aaf-5a5448e0ee71"},"vehicle_type_id":"4","last_reported":1729890457,"current_range_meters":6400,"station_id":"ce4bgih2rcd13ifvqba0","pricing_plan_id":"cebpf4jnsgd1na2vs0mg"},{"bike_id":"32366732-5f4b-4b66-8da6-abdbd8569264","system_id":"levelo_inurba_marseille","lat":43.33028,"lon":5.39036,"is_reserved":false,"is_disabled":false,"rental_uris":{"android":"levelo://app?vid=32366732-5f4b-4b66-8da6-abdbd8569264","ios":"levelo://app?vid=32366732-5f4b-4b66-8da6-abdbd8569264"},"vehicle_type_id":"4","last_reported":1729890457,"current_range_meters":38800,"station_id":"ce4bhr92rcd13ifvqhrg","pricing_plan_id":"cebpf4jnsgd1na2vs0mg"},{"bike_id":"e10b9637-b7ba-4d70-8fd2-fb3d3ca43edd","system_id":"levelo_inurba_marseille","lat":43.29872,"lon":5.39716,"is_reserved":false,"is_disabled":false,"rental_uris":{"android":"levelo://app?vid=e10b9637-b7ba-4d70-8fd2-fb3d3ca43edd","ios":"levelo://app?vid=e10b9637-b7ba-4d70-8fd2-fb3d3ca43edd"},"vehicle_type_id":"4","last_reported":1729890457,"current_range_meters":38000,"station_id":"ce4bh0h2rcd13ifvqd50","pricing_plan_id":"cebpf4jnsgd1na2vs0mg"},{"bike_id":"7d05c7dd-aaf6-4b57-a7bd-6f439389043c","system_id":"levelo_inurba_marseille","lat":43.266162,"lon":5.38179,"is_reserved":false,"is_disabled":false,"rental_uris":{"android":"levelo://app?vid=7d05c7dd-aaf6-4b57-a7bd-6f439389043c","ios":"levelo://app?vid=7d05c7dd-aaf6-4b57-a7bd-6f439389043c"},"vehicle_type_id":"4","last_reported":1729890457,"current_range_meters":18000,"station_id":"ce4bhh92rcd13ifvqfi0","pricing_plan_id":"cebpf4jnsgd1na2vs0mg"},{"bike_id":"77cbf63a-efd6-4a85-a677-8605eda6de4e","system_id":"levelo_inurba_marseille","lat":43.295186,"lon":5.394096,"is_reserved":false,"is_disabled":false,"rental_uris":{"android":"levelo://app?vid=77cbf63a-efd6-4a85-a677-8605eda6de4e","ios":"levelo://app?vid=77cbf63a-efd6-4a85-a677-8605eda6de4e"},"vehicle_type_id":"4","last_reported":1729890457,"current_range_meters":38400,"station_id":"ce4bh292rcd13ifvqdf0","pricing_plan_id":"cebpf4jnsgd1na2vs0mg"},{"bike_id":"18cd883a-f1cd-4f34-98dc-7580d7e4256d","system_id":"levelo_inurba_marseille","lat":43.24645,"lon":5.38894,"is_reserved":false,"is_disabled":false,"rental_uris":{"android":"levelo://app?vid=18cd883a-f1cd-4f34-98dc-7580d7e4256d","ios":"levelo://app?vid=18cd883a-f1cd-4f34-98dc-7580d7e4256d"},"vehicle_type_id":"4","last_reported":1729890457,"current_range_meters":38800,"station_id":"ce4bhg12rcd13ifvqf60","pricing_plan_id":"cebpf4jnsgd1na2vs0mg"},{"bike_id":"f0fc82ca-f5ec-4e02-8e94-135a203ff8d2","system_id":"levelo_inurba_marseille","lat":43.24812,"lon":5.37458,"is_reserved":false,"is_disabled":false,"rental_uris":{"android":"levelo://app?vid=f0fc82ca-f5ec-4e02-8e94-135a203ff8d2","ios":"levelo://app?vid=f0fc82ca-f5ec-4e02-8e94-135a203ff8d2"},"vehicle_type_id":"4","last_reported":1729890457,"current_range_meters":38800,"station_id":"ce4bhgh2rcd13ifvqfb0","pricing_plan_id":"cebpf4jnsgd1na2vs0mg"},{"bike_id":"d8498741-0a71-42c9-ad36-7bcf87f9159c","system_id":"levelo_inurba_marseille","lat":43.2512,"lon":5.40323,"is_reserved":false,"is_disabled":false,"rental_uris":{"android":"levelo://app?vid=d8498741-0a71-42c9-ad36-7bcf87f9159c","ios":"levelo://app?vid=d8498741-0a71-42c9-ad36-7bcf87f9159c"},"vehicle_type_id":"4","last_reported":1729890457,"current_range_meters":17200,"station_id":"ce4bhlh2rcd13ifvqgig","pricing_plan_id":"cebpf4jnsgd1na2vs0mg"},{"bike_id":"d33b1e0a-e23f-432c-9cd3-e6260f4995e5","system_id":"levelo_inurba_marseille","lat":43.29423,"lon":5.38605,"is_reserved":false,"is_disabled":false,"rental_uris":{"android":"levelo://app?vid=d33b1e0a-e23f-432c-9cd3-e6260f4995e5","ios":"levelo://app?vid=d33b1e0a-e23f-432c-9cd3-e6260f4995e5"},"vehicle_type_id":"4","last_reported":1729890457,"current_range_meters":37600,"station_id":"ce4bh2h2rcd13ifvqdh0","pricing_plan_id":"cebpf4jnsgd1na2vs0mg"},{"bike_id":"a8c844bd-ed1a-4b3e-80f1-d03b96aeeaea","system_id":"levelo_inurba_marseille","lat":43.29033,"lon":5.38647,"is_reserved":false,"is_disabled":false,"rental_uris":{"android":"levelo://app?vid=a8c844bd-ed1a-4b3e-80f1-d03b96aeeaea","ios":"levelo://app?vid=a8c844bd-ed1a-4b3e-80f1-d03b96aeeaea"},"vehicle_type_id":"4","last_reported":1729890457,"current_range_meters":16800,"station_id":"ce4bh4p2rcd13ifvqe0g","pricing_plan_id":"cebpf4jnsgd1na2vs0mg"},{"bike_id":"20cf6f1c-7236-412b-8689-5f9328ef8039","system_id":"levelo_inurba_marseille","lat":43.29259,"lon":5.38439,"is_reserved":false,"is_disabled":false,"rental_uris":{"android":"levelo://app?vid=20cf6f1c-7236-412b-8689-5f9328ef8039","ios":"levelo://app?vid=20cf6f1c-7236-412b-8689-5f9328ef8039"},"vehicle_type_id":"4","last_reported":1729890457,"current_range_meters":8400,"station_id":"ce4bh692rcd13ifvqea0","pricing_plan_id":"cebpf4jnsgd1na2vs0mg"},{"bike_id":"1aac1f7a-a64c-43c7-9fea-28291f50e750","system_id":"levelo_inurba_marseille","lat":43.29536,"lon":5.38542,"is_reserved":false,"is_disabled":false,"rental_uris":{"android":"levelo://app?vid=1aac1f7a-a64c-43c7-9fea-28291f50e750","ios":"levelo://app?vid=1aac1f7a-a64c-43c7-9fea-28291f50e750"},"vehicle_type_id":"4","last_reported":1729890457,"current_range_meters":38800,"station_id":"ce4bgih2rcd13ifvqba0","pricing_plan_id":"cebpf4jnsgd1na2vs0mg"},{"bike_id":"a4916ca8-8cea-41ca-9bd0-83ea66e6f362","system_id":"levelo_inurba_marseille","lat":43.22937,"lon":5.35377,"is_reserved":false,"is_disabled":false,"rental_uris":{"android":"levelo://app?vid=a4916ca8-8cea-41ca-9bd0-83ea66e6f362","ios":"levelo://app?vid=a4916ca8-8cea-41ca-9bd0-83ea66e6f362"},"vehicle_type_id":"4","last_reported":1729890457,"current_range_meters":38800,"station_id":"cpo3532slgdg3j2ikp40","pricing_plan_id":"cebpf4jnsgd1na2vs0mg"},{"bike_id":"35bc0fba-a740-43af-8968-e677af9ffdfb","system_id":"levelo_inurba_marseille","lat":43.295804,"lon":5.375299,"is_reserved":false,"is_disabled":false,"rental_uris":{"android":"levelo://app?vid=35bc0fba-a740-43af-8968-e677af9ffdfb","ios":"levelo://app?vid=35bc0fba-a740-43af-8968-e677af9ffdfb"},"vehicle_type_id":"4","last_reported":1729890457,"current_range_meters":24400,"station_id":"","pricing_plan_id":"cebpf4jnsgd1na2vs0mg"},{"bike_id":"1a9e71c9-e3d7-4334-8b91-0766c8651789","system_id":"levelo_inurba_marseille","lat":43.29533,"lon":5.38533,"is_reserved":false,"is_disabled":false,"rental_uris":{"android":"levelo://app?vid=1a9e71c9-e3d7-4334-8b91-0766c8651789","ios":"levelo://app?vid=1a9e71c9-e3d7-4334-8b91-0766c8651789"},"vehicle_type_id":"4","last_reported":1729890457,"current_range_meters":9200,"station_id":"ce4bgih2rcd13ifvqba0","pricing_plan_id":"cebpf4jnsgd1na2vs0mg"},{"bike_id":"a2a92060-b838-4051-b6b8-e444b7827b79","system_id":"levelo_inurba_marseille","lat":43.30649,"lon":5.40089,"is_reserved":false,"is_disabled":false,"rental_uris":{"android":"levelo://app?vid=a2a92060-b838-4051-b6b8-e444b7827b79","ios":"levelo://app?vid=a2a92060-b838-4051-b6b8-e444b7827b79"},"vehicle_type_id":"4","last_reported":1729890457,"current_range_meters":38800,"station_id":"ce4bh112rcd13ifvqda0","pricing_plan_id":"cebpf4jnsgd1na2vs0mg"},{"bike_id":"051b3a66-82cf-432b-9c2d-b8c85ca2da2a","system_id":"levelo_inurba_marseille","lat":43.30144,"lon":5.39874,"is_reserved":false,"is_disabled":false,"rental_uris":{"android":"levelo://app?vid=051b3a66-82cf-432b-9c2d-b8c85ca2da2a","ios":"levelo://app?vid=051b3a66-82cf-432b-9c2d-b8c85ca2da2a"},"vehicle_type_id":"4","last_reported":1729890457,"current_range_meters":10000,"station_id":"ce4bh0h2rcd13ifvqd40","pricing_plan_id":"cebpf4jnsgd1na2vs0mg"},{"bike_id":"19bd8ade-2c53-47ee-9430-afe5409ecd59","system_id":"levelo_inurba_marseille","lat":43.2987,"lon":5.39727,"is_reserved":false,"is_disabled":false,"rental_uris":{"android":"levelo://app?vid=19bd8ade-2c53-47ee-9430-afe5409ecd59","ios":"levelo://app?vid=19bd8ade-2c53-47ee-9430-afe5409ecd59"},"vehicle_type_id":"4","last_reported":1729890457,"current_range_meters":38800,"station_id":"ce4bh0h2rcd13ifvqd50","pricing_plan_id":"cebpf4jnsgd1na2vs0mg"},{"bike_id":"a3bda255-9938-4c59-b96b-910ba5463f40","system_id":"levelo_inurba_marseille","lat":43.29254,"lon":5.38435,"is_reserved":false,"is_disabled":false,"rental_uris":{"android":"levelo://app?vid=a3bda255-9938-4c59-b96b-910ba5463f40","ios":"levelo://app?vid=a3bda255-9938-4c59-b96b-910ba5463f40"},"vehicle_type_id":"4","last_reported":1729890457,"current_range_meters":17600,"station_id":"ce4bh692rcd13ifvqea0","pricing_plan_id":"cebpf4jnsgd1na2vs0mg"},{"bike_id":"719f3a72-678f-4d07-945c-cac36cff36b3","system_id":"levelo_inurba_marseille","lat":43.28936,"lon":5.36635,"is_reserved":false,"is_disabled":false,"rental_uris":{"android":"levelo://app?vid=719f3a72-678f-4d07-945c-cac36cff36b3","ios":"levelo://app?vid=719f3a72-678f-4d07-945c-cac36cff36b3"},"vehicle_type_id":"4","last_reported":1729890457,"current_range_meters":26800,"station_id":"ce4bhap2rcd13ifvqek0","pricing_plan_id":"cebpf4jnsgd1na2vs0mg"},{"bike_id":"60f5f46d-f0b6-4cc5-a117-12fc09315ce9","system_id":"levelo_inurba_marseille","lat":43.29044,"lon":5.39964,"is_reserved":false,"is_disabled":false,"rental_uris":{"android":"levelo://app?vid=60f5f46d-f0b6-4cc5-a117-12fc09315ce9","ios":"levelo://app?vid=60f5f46d-f0b6-4cc5-a117-12fc09315ce9"},"vehicle_type_id":"4","last_reported":1729890457,"current_range_meters":37600,"station_id":"ce4bh392rcd13ifvqdm0","pricing_plan_id":"cebpf4jnsgd1na2vs0mg"},{"bike_id":"a177cf92-fe46-44a6-8fe0-6df07ad8a3cd","system_id":"levelo_inurba_marseille","lat":43.27072,"lon":5.42279,"is_reserved":false,"is_disabled":false,"rental_uris":{"android":"levelo://app?vid=a177cf92-fe46-44a6-8fe0-6df07ad8a3cd","ios":"levelo://app?vid=a177cf92-fe46-44a6-8fe0-6df07ad8a3cd"},"vehicle_type_id":"4","last_reported":1729890457,"current_range_meters":34800,"station_id":"ce4bhk92rcd13ifvqgb0","pricing_plan_id":"cebpf4jnsgd1na2vs0mg"},{"bike_id":"0e3f35aa-dbea-4e8d-ae62-562a614ef22b","system_id":"levelo_inurba_marseille","lat":43.25721,"lon":5.41117,"is_reserved":false,"is_disabled":false,"rental_uris":{"android":"levelo://app?vid=0e3f35aa-dbea-4e8d-ae62-562a614ef22b","ios":"levelo://app?vid=0e3f35aa-dbea-4e8d-ae62-562a614ef22b"},"vehicle_type_id":"4","last_reported":1729890457,"current_range_meters":4400,"station_id":"ce4bhkp2rcd13ifvqgd0","pricing_plan_id":"cebpf4jnsgd1na2vs0mg"},{"bike_id":"029f3e33-f37e-44be-b78e-e1e55446b8a2","system_id":"levelo_inurba_marseille","lat":43.30142,"lon":5.38771,"is_reserved":false,"is_disabled":false,"rental_uris":{"android":"levelo://app?vid=029f3e33-f37e-44be-b78e-e1e55446b8a2","ios":"levelo://app?vid=029f3e33-f37e-44be-b78e-e1e55446b8a2"},"vehicle_type_id":"4","last_reported":1729890457,"current_range_meters":6000,"station_id":"ce4bghh2rcd13ifvqb60","pricing_plan_id":"cebpf4jnsgd1na2vs0mg"},{"bike_id":"a1c35a9c-1ce4-45b2-9a6d-c63a2a0bb477","system_id":"levelo_inurba_marseille","lat":43.23157,"lon":5.43704,"is_reserved":false,"is_disabled":false,"rental_uris":{"android":"levelo://app?vid=a1c35a9c-1ce4-45b2-9a6d-c63a2a0bb477","ios":"levelo://app?vid=a1c35a9c-1ce4-45b2-9a6d-c63a2a0bb477"},"vehicle_type_id":"4","last_reported":1729890457,"current_range_meters":25200,"station_id":"ce4bhmp2rcd13ifvqgog","pricing_plan_id":"cebpf4jnsgd1na2vs0mg"},{"bike_id":"a8be9e79-195a-451a-86ec-5c494e9f3ff8","system_id":"levelo_inurba_marseille","lat":43.30892,"lon":5.37188,"is_reserved":false,"is_disabled":false,"rental_uris":{"android":"levelo://app?vid=a8be9e79-195a-451a-86ec-5c494e9f3ff8","ios":"levelo://app?vid=a8be9e79-195a-451a-86ec-5c494e9f3ff8"},"vehicle_type_id":"4","last_reported":1729890457,"current_range_meters":25200,"station_id":"ce4bguh2rcd13ifvqckg","pricing_plan_id":"cebpf4jnsgd1na2vs0mg"},{"bike_id":"0fbbfd84-97e7-45e9-a0b7-414b2df49fec","system_id":"levelo_inurba_marseille","lat":43.32365,"lon":5.38886,"is_reserved":false,"is_disabled":false,"rental_uris":{"android":"levelo://app?vid=0fbbfd84-97e7-45e9-a0b7-414b2df49fec","ios":"levelo://app?vid=0fbbfd84-97e7-45e9-a0b7-414b2df49fec"},"vehicle_type_id":"4","last_reported":1729890457,"current_range_meters":3600,"station_id":"ce4bhqp2rcd13ifvqhog","pricing_plan_id":"cebpf4jnsgd1na2vs0mg"},{"bike_id":"84d4df44-d567-4b06-8611-b3811f688902","system_id":"levelo_inurba_marseille","lat":43.24806,"lon":5.37456,"is_reserved":false,"is_disabled":false,"rental_uris":{"android":"levelo://app?vid=84d4df44-d567-4b06-8611-b3811f688902","ios":"levelo://app?vid=84d4df44-d567-4b06-8611-b3811f688902"},"vehicle_type_id":"4","last_reported":1729890457,"current_range_meters":38400,"station_id":"ce4bhgh2rcd13ifvqfb0","pricing_plan_id":"cebpf4jnsgd1na2vs0mg"},{"bike_id":"8b34db6e-7ac5-421b-8140-e12375d73aa9","system_id":"levelo_inurba_marseille","lat":43.29532,"lon":5.3854,"is_reserved":false,"is_disabled":false,"rental_uris":{"android":"levelo://app?vid=8b34db6e-7ac5-421b-8140-e12375d73aa9","ios":"levelo://app?vid=8b34db6e-7ac5-421b-8140-e12375d73aa9"},"vehicle_type_id":"4","last_reported":1729890457,"current_range_meters":25600,"station_id":"ce4bgih2rcd13ifvqba0","pricing_plan_id":"cebpf4jnsgd1na2vs0mg"},{"bike_id":"191b21fb-5041-45e0-826e-0d2912d8de42","system_id":"levelo_inurba_marseille","lat":43.2783,"lon":5.39203,"is_reserved":false,"is_disabled":false,"rental_uris":{"android":"levelo://app?vid=191b21fb-5041-45e0-826e-0d2912d8de42","ios":"levelo://app?vid=191b21fb-5041-45e0-826e-0d2912d8de42"},"vehicle_type_id":"4","last_reported":1729890457,"current_range_meters":27600,"station_id":"ce4bhjp2rcd13ifvqga0","pricing_plan_id":"cebpf4jnsgd1na2vs0mg"},{"bike_id":"a2c88912-f2d5-4af6-8b93-b4c6a4138c6c","system_id":"levelo_inurba_marseille","lat":43.29256,"lon":5.38443,"is_reserved":false,"is_disabled":false,"rental_uris":{"android":"levelo://app?vid=a2c88912-f2d5-4af6-8b93-b4c6a4138c6c","ios":"levelo://app?vid=a2c88912-f2d5-4af6-8b93-b4c6a4138c6c"},"vehicle_type_id":"4","last_reported":1729890457,"current_range_meters":8800,"station_id":"ce4bh692rcd13ifvqea0","pricing_plan_id":"cebpf4jnsgd1na2vs0mg"},{"bike_id":"a64b3754-53de-42eb-978d-641562e11181","system_id":"levelo_inurba_marseille","lat":43.25734,"lon":5.41107,"is_reserved":false,"is_disabled":false,"rental_uris":{"android":"levelo://app?vid=a64b3754-53de-42eb-978d-641562e11181","ios":"levelo://app?vid=a64b3754-53de-42eb-978d-641562e11181"},"vehicle_type_id":"4","last_reported":1729890457,"current_range_meters":38000,"station_id":"ce4bhkp2rcd13ifvqgd0","pricing_plan_id":"cebpf4jnsgd1na2vs0mg"},{"bike_id":"596be825-098f-44c6-8b18-f1ed8c1bf80b","system_id":"levelo_inurba_marseille","lat":43.28445,"lon":5.39186,"is_reserved":false,"is_disabled":false,"rental_uris":{"android":"levelo://app?vid=596be825-098f-44c6-8b18-f1ed8c1bf80b","ios":"levelo://app?vid=596be825-098f-44c6-8b18-f1ed8c1bf80b"},"vehicle_type_id":"4","last_reported":1729890457,"current_range_meters":35600,"station_id":"ce4bhoh2rcd13ifvqh5g","pricing_plan_id":"cebpf4jnsgd1na2vs0mg"},{"bike_id":"70288195-9660-4e89-b2a5-7605fbb408d9","system_id":"levelo_inurba_marseille","lat":43.29533,"lon":5.3853,"is_reserved":false,"is_disabled":false,"rental_uris":{"android":"levelo://app?vid=70288195-9660-4e89-b2a5-7605fbb408d9","ios":"levelo://app?vid=70288195-9660-4e89-b2a5-7605fbb408d9"},"vehicle_type_id":"4","last_reported":1729890457,"current_range_meters":32400,"station_id":"ce4bgih2rcd13ifvqba0","pricing_plan_id":"cebpf4jnsgd1na2vs0mg"},{"bike_id":"8a6b6470-2f7d-4034-96b4-355988bc2ba0","system_id":"levelo_inurba_marseille","lat":43.29046,"lon":5.35915,"is_reserved":false,"is_disabled":false,"rental_uris":{"android":"levelo://app?vid=8a6b6470-2f7d-4034-96b4-355988bc2ba0","ios":"levelo://app?vid=8a6b6470-2f7d-4034-96b4-355988bc2ba0"},"vehicle_type_id":"4","last_reported":1729890457,"current_range_meters":4000,"station_id":"ce4bha92rcd13ifvqeg0","pricing_plan_id":"cebpf4jnsgd1na2vs0mg"},{"bike_id":"11f0ba88-01b5-46af-893d-1b1f2b5b2c88","system_id":"levelo_inurba_marseille","lat":43.29023,"lon":5.38641,"is_reserved":false,"is_disabled":false,"rental_uris":{"android":"levelo://app?vid=11f0ba88-01b5-46af-893d-1b1f2b5b2c88","ios":"levelo://app?vid=11f0ba88-01b5-46af-893d-1b1f2b5b2c88"},"vehicle_type_id":"4","last_reported":1729890457,"current_range_meters":38800,"station_id":"ce4bh4p2rcd13ifvqe0g","pricing_plan_id":"cebpf4jnsgd1na2vs0mg"},{"bike_id":"1bc1ec86-1dfc-454c-ac14-34e1a5af2151","system_id":"levelo_inurba_marseille","lat":43.29538,"lon":5.38546,"is_reserved":false,"is_disabled":false,"rental_uris":{"android":"levelo://app?vid=1bc1ec86-1dfc-454c-ac14-34e1a5af2151","ios":"levelo://app?vid=1bc1ec86-1dfc-454c-ac14-34e1a5af2151"},"vehicle_type_id":"4","last_reported":1729890457,"current_range_meters":26800,"station_id":"ce4bgih2rcd13ifvqba0","pricing_plan_id":"cebpf4jnsgd1na2vs0mg"},{"bike_id":"00ff4f5c-e56d-4a78-95ee-1f41a37699d0","system_id":"levelo_inurba_marseille","lat":43.24075,"lon":5.3776,"is_reserved":false,"is_disabled":false,"rental_uris":{"android":"levelo://app?vid=00ff4f5c-e56d-4a78-95ee-1f41a37699d0","ios":"levelo://app?vid=00ff4f5c-e56d-4a78-95ee-1f41a37699d0"},"vehicle_type_id":"4","last_reported":1729890457,"current_range_meters":32400,"station_id":"ce4bhnp2rcd13ifvqgvg","pricing_plan_id":"cebpf4jnsgd1na2vs0mg"},{"bike_id":"9fe84b21-3012-438e-ba6a-242920460ee5","system_id":"levelo_inurba_marseille","lat":43.30143,"lon":5.38772,"is_reserved":false,"is_disabled":false,"rental_uris":{"android":"levelo://app?vid=9fe84b21-3012-438e-ba6a-242920460ee5","ios":"levelo://app?vid=9fe84b21-3012-438e-ba6a-242920460ee5"},"vehicle_type_id":"4","last_reported":1729890457,"current_range_meters":38800,"station_id":"ce4bghh2rcd13ifvqb60","pricing_plan_id":"cebpf4jnsgd1na2vs0mg"},{"bike_id":"63d3988a-2314-4f50-8325-6ebd16b079d8","system_id":"levelo_inurba_marseille","lat":43.23966,"lon":5.36629,"is_reserved":false,"is_disabled":false,"rental_uris":{"android":"levelo://app?vid=63d3988a-2314-4f50-8325-6ebd16b079d8","ios":"levelo://app?vid=63d3988a-2314-4f50-8325-6ebd16b079d8"},"vehicle_type_id":"4","last_reported":1729890457,"current_range_meters":18800,"station_id":"ce4bhi12rcd13ifvqfp0","pricing_plan_id":"cebpf4jnsgd1na2vs0mg"},{"bike_id":"528d4c0e-03aa-4c98-9909-7515be7be69e","system_id":"levelo_inurba_marseille","lat":43.29531,"lon":5.38532,"is_reserved":false,"is_disabled":false,"rental_uris":{"android":"levelo://app?vid=528d4c0e-03aa-4c98-9909-7515be7be69e","ios":"levelo://app?vid=528d4c0e-03aa-4c98-9909-7515be7be69e"},"vehicle_type_id":"4","last_reported":1729890457,"current_range_meters":26000,"station_id":"ce4bgih2rcd13ifvqba0","pricing_plan_id":"cebpf4jnsgd1na2vs0mg"},{"bike_id":"993213e6-6063-466a-bdfd-588dc3c51d3c","system_id":"levelo_inurba_marseille","lat":43.28431,"lon":5.34994,"is_reserved":false,"is_disabled":false,"rental_uris":{"android":"levelo://app?vid=993213e6-6063-466a-bdfd-588dc3c51d3c","ios":"levelo://app?vid=993213e6-6063-466a-bdfd-588dc3c51d3c"},"vehicle_type_id":"4","last_reported":1729890457,"current_range_meters":38800,"station_id":"ce4bhbh2rcd13ifvqepg","pricing_plan_id":"cebpf4jnsgd1na2vs0mg"},{"bike_id":"44460db4-113d-4331-9546-a5ed508f442d","system_id":"levelo_inurba_marseille","lat":43.29261,"lon":5.38443,"is_reserved":false,"is_disabled":false,"rental_uris":{"android":"levelo://app?vid=44460db4-113d-4331-9546-a5ed508f442d","ios":"levelo://app?vid=44460db4-113d-4331-9546-a5ed508f442d"},"vehicle_type_id":"4","last_reported":1729890457,"current_range_meters":28800,"station_id":"ce4bh692rcd13ifvqea0","pricing_plan_id":"cebpf4jnsgd1na2vs0mg"},{"bike_id":"43e0342e-7c69-4ef3-9959-2e5c770bab9f","system_id":"levelo_inurba_marseille","lat":43.22937,"lon":5.35381,"is_reserved":false,"is_disabled":false,"rental_uris":{"android":"levelo://app?vid=43e0342e-7c69-4ef3-9959-2e5c770bab9f","ios":"levelo://app?vid=43e0342e-7c69-4ef3-9959-2e5c770bab9f"},"vehicle_type_id":"4","last_reported":1729890457,"current_range_meters":16800,"station_id":"cpo3532slgdg3j2ikp40","pricing_plan_id":"cebpf4jnsgd1na2vs0mg"},{"bike_id":"5e4200bd-124d-49d0-9f68-9334d51d6b13","system_id":"levelo_inurba_marseille","lat":43.296822,"lon":5.373054,"is_reserved":false,"is_disabled":false,"rental_uris":{"android":"levelo://app?vid=5e4200bd-124d-49d0-9f68-9334d51d6b13","ios":"levelo://app?vid=5e4200bd-124d-49d0-9f68-9334d51d6b13"},"vehicle_type_id":"4","last_reported":1729890457,"current_range_meters":6000,"station_id":"ce4bgk12rcd13ifvqbj0","pricing_plan_id":"cebpf4jnsgd1na2vs0mg"},{"bike_id":"12eab7e7-f4fe-4359-8aa7-32541bf69683","system_id":"levelo_inurba_marseille","lat":43.28939,"lon":5.36633,"is_reserved":false,"is_disabled":false,"rental_uris":{"android":"levelo://app?vid=12eab7e7-f4fe-4359-8aa7-32541bf69683","ios":"levelo://app?vid=12eab7e7-f4fe-4359-8aa7-32541bf69683"},"vehicle_type_id":"4","last_reported":1729890457,"current_range_meters":16000,"station_id":"ce4bhap2rcd13ifvqek0","pricing_plan_id":"cebpf4jnsgd1na2vs0mg"},{"bike_id":"9e9ce6d5-3884-43ab-8d3b-315287324e2c","system_id":"levelo_inurba_marseille","lat":43.2953,"lon":5.38531,"is_reserved":false,"is_disabled":false,"rental_uris":{"android":"levelo://app?vid=9e9ce6d5-3884-43ab-8d3b-315287324e2c","ios":"levelo://app?vid=9e9ce6d5-3884-43ab-8d3b-315287324e2c"},"vehicle_type_id":"4","last_reported":1729890457,"current_range_meters":17200,"station_id":"ce4bgih2rcd13ifvqba0","pricing_plan_id":"cebpf4jnsgd1na2vs0mg"},{"bike_id":"1400a03e-321b-4fa1-ac65-2d62dbeb7c7b","system_id":"levelo_inurba_marseille","lat":43.313425,"lon":5.36723,"is_reserved":false,"is_disabled":false,"rental_uris":{"android":"levelo://app?vid=1400a03e-321b-4fa1-ac65-2d62dbeb7c7b","ios":"levelo://app?vid=1400a03e-321b-4fa1-ac65-2d62dbeb7c7b"},"vehicle_type_id":"4","last_reported":1729890457,"current_range_meters":37600,"station_id":"ce4bgr92rcd13ifvqc6g","pricing_plan_id":"cebpf4jnsgd1na2vs0mg"},{"bike_id":"e0ff9feb-638f-4997-bb17-c8e055e04ced","system_id":"levelo_inurba_marseille","lat":43.29258,"lon":5.38436,"is_reserved":false,"is_disabled":false,"rental_uris":{"android":"levelo://app?vid=e0ff9feb-638f-4997-bb17-c8e055e04ced","ios":"levelo://app?vid=e0ff9feb-638f-4997-bb17-c8e055e04ced"},"vehicle_type_id":"4","last_reported":1729890457,"current_range_meters":38800,"station_id":"ce4bh692rcd13ifvqea0","pricing_plan_id":"cebpf4jnsgd1na2vs0mg"},{"bike_id":"dea78f9f-e295-4787-b775-4599d795dab3","system_id":"levelo_inurba_marseille","lat":43.27428,"lon":5.39423,"is_reserved":false,"is_disabled":false,"rental_uris":{"android":"levelo://app?vid=dea78f9f-e295-4787-b775-4599d795dab3","ios":"levelo://app?vid=dea78f9f-e295-4787-b775-4599d795dab3"},"vehicle_type_id":"4","last_reported":1729890457,"current_range_meters":16400,"station_id":"ce4bhdp2rcd13ifvqf20","pricing_plan_id":"cebpf4jnsgd1na2vs0mg"},{"bike_id":"90ced139-6bd8-448a-a9bc-8eca846b1d3f","system_id":"levelo_inurba_marseille","lat":43.24807,"lon":5.37461,"is_reserved":false,"is_disabled":false,"rental_uris":{"android":"levelo://app?vid=90ced139-6bd8-448a-a9bc-8eca846b1d3f","ios":"levelo://app?vid=90ced139-6bd8-448a-a9bc-8eca846b1d3f"},"vehicle_type_id":"4","last_reported":1729890457,"current_range_meters":38800,"station_id":"ce4bhgh2rcd13ifvqfb0","pricing_plan_id":"cebpf4jnsgd1na2vs0mg"},{"bike_id":"365a5e76-e012-4983-b8a9-1a07480bde83","system_id":"levelo_inurba_marseille","lat":43.23198,"lon":5.3555,"is_reserved":false,"is_disabled":false,"rental_uris":{"android":"levelo://app?vid=365a5e76-e012-4983-b8a9-1a07480bde83","ios":"levelo://app?vid=365a5e76-e012-4983-b8a9-1a07480bde83"},"vehicle_type_id":"4","last_reported":1729890457,"current_range_meters":39200,"station_id":"ce4bhu92rcd13ifvqi70","pricing_plan_id":"cebpf4jnsgd1na2vs0mg"},{"bike_id":"51415f0c-2178-478b-9fba-4bd40eccdf40","system_id":"levelo_inurba_marseille","lat":43.30934,"lon":5.40142,"is_reserved":false,"is_disabled":false,"rental_uris":{"android":"levelo://app?vid=51415f0c-2178-478b-9fba-4bd40eccdf40","ios":"levelo://app?vid=51415f0c-2178-478b-9fba-4bd40eccdf40"},"vehicle_type_id":"4","last_reported":1729890457,"current_range_meters":20000,"station_id":"ce4bgvp2rcd13ifvqct0","pricing_plan_id":"cebpf4jnsgd1na2vs0mg"},{"bike_id":"96cdd95e-3482-4a43-addc-7928483a6278","system_id":"levelo_inurba_marseille","lat":43.23193,"lon":5.35561,"is_reserved":false,"is_disabled":false,"rental_uris":{"android":"levelo://app?vid=96cdd95e-3482-4a43-addc-7928483a6278","ios":"levelo://app?vid=96cdd95e-3482-4a43-addc-7928483a6278"},"vehicle_type_id":"4","last_reported":1729890457,"current_range_meters":24000,"station_id":"ce4bhu92rcd13ifvqi70","pricing_plan_id":"cebpf4jnsgd1na2vs0mg"},{"bike_id":"12c608b5-8d08-402f-9740-14c729cb411d","system_id":"levelo_inurba_marseille","lat":43.32644,"lon":5.38881,"is_reserved":false,"is_disabled":false,"rental_uris":{"android":"levelo://app?vid=12c608b5-8d08-402f-9740-14c729cb411d","ios":"levelo://app?vid=12c608b5-8d08-402f-9740-14c729cb411d"},"vehicle_type_id":"4","last_reported":1729890457,"current_range_meters":27200,"station_id":"","pricing_plan_id":"cebpf4jnsgd1na2vs0mg"},{"bike_id":"25b56222-17a5-40f4-b2d7-0f34167f9053","system_id":"levelo_inurba_marseille","lat":43.29534,"lon":5.38545,"is_reserved":false,"is_disabled":false,"rental_uris":{"android":"levelo://app?vid=25b56222-17a5-40f4-b2d7-0f34167f9053","ios":"levelo://app?vid=25b56222-17a5-40f4-b2d7-0f34167f9053"},"vehicle_type_id":"4","last_reported":1729890457,"current_range_meters":18800,"station_id":"ce4bgih2rcd13ifvqba0","pricing_plan_id":"cebpf4jnsgd1na2vs0mg"},{"bike_id":"6f47c84f-52d3-451a-b0a5-2faed3673dc5","system_id":"levelo_inurba_marseille","lat":43.29039,"lon":5.39967,"is_reserved":false,"is_disabled":false,"rental_uris":{"android":"levelo://app?vid=6f47c84f-52d3-451a-b0a5-2faed3673dc5","ios":"levelo://app?vid=6f47c84f-52d3-451a-b0a5-2faed3673dc5"},"vehicle_type_id":"4","last_reported":1729890457,"current_range_meters":3200,"station_id":"ce4bh392rcd13ifvqdm0","pricing_plan_id":"cebpf4jnsgd1na2vs0mg"},{"bike_id":"74d75183-1557-4e7e-98a5-3d92cdb98e67","system_id":"levelo_inurba_marseille","lat":43.25112,"lon":5.40325,"is_reserved":false,"is_disabled":false,"rental_uris":{"android":"levelo://app?vid=74d75183-1557-4e7e-98a5-3d92cdb98e67","ios":"levelo://app?vid=74d75183-1557-4e7e-98a5-3d92cdb98e67"},"vehicle_type_id":"4","last_reported":1729890457,"current_range_meters":38800,"station_id":"ce4bhlh2rcd13ifvqgig","pricing_plan_id":"cebpf4jnsgd1na2vs0mg"},{"bike_id":"7544bc20-fc94-4abd-8b0d-d9d6c0532abf","system_id":"levelo_inurba_marseille","lat":43.27497,"lon":5.42448,"is_reserved":false,"is_disabled":false,"rental_uris":{"android":"levelo://app?vid=7544bc20-fc94-4abd-8b0d-d9d6c0532abf","ios":"levelo://app?vid=7544bc20-fc94-4abd-8b0d-d9d6c0532abf"},"vehicle_type_id":"4","last_reported":1729890457,"current_range_meters":10800,"station_id":"ce4bhn92rcd13ifvqgrg","pricing_plan_id":"cebpf4jnsgd1na2vs0mg"},{"bike_id":"36fb0594-ea6d-4e03-8107-03cf576f3096","system_id":"levelo_inurba_marseille","lat":43.29417,"lon":5.38619,"is_reserved":false,"is_disabled":false,"rental_uris":{"android":"levelo://app?vid=36fb0594-ea6d-4e03-8107-03cf576f3096","ios":"levelo://app?vid=36fb0594-ea6d-4e03-8107-03cf576f3096"},"vehicle_type_id":"4","last_reported":1729890457,"current_range_meters":38800,"station_id":"ce4bh2h2rcd13ifvqdh0","pricing_plan_id":"cebpf4jnsgd1na2vs0mg"},{"bike_id":"8fbb5018-d780-4512-8f51-d9ee6b357ec0","system_id":"levelo_inurba_marseille","lat":43.2942,"lon":5.38628,"is_reserved":false,"is_disabled":false,"rental_uris":{"android":"levelo://app?vid=8fbb5018-d780-4512-8f51-d9ee6b357ec0","ios":"levelo://app?vid=8fbb5018-d780-4512-8f51-d9ee6b357ec0"},"vehicle_type_id":"4","last_reported":1729890457,"current_range_meters":6800,"station_id":"ce4bh2h2rcd13ifvqdh0","pricing_plan_id":"cebpf4jnsgd1na2vs0mg"},{"bike_id":"0b1f8152-fa24-402f-b2cf-4a0283d5698f","system_id":"levelo_inurba_marseille","lat":43.29422,"lon":5.38623,"is_reserved":false,"is_disabled":false,"rental_uris":{"android":"levelo://app?vid=0b1f8152-fa24-402f-b2cf-4a0283d5698f","ios":"levelo://app?vid=0b1f8152-fa24-402f-b2cf-4a0283d5698f"},"vehicle_type_id":"4","last_reported":1729890457,"current_range_meters":38000,"station_id":"ce4bh2h2rcd13ifvqdh0","pricing_plan_id":"cebpf4jnsgd1na2vs0mg"},{"bike_id":"fd3565e6-8228-423c-aa35-7eb256beac6f","system_id":"levelo_inurba_marseille","lat":43.29267,"lon":5.3844,"is_reserved":false,"is_disabled":false,"rental_uris":{"android":"levelo://app?vid=fd3565e6-8228-423c-aa35-7eb256beac6f","ios":"levelo://app?vid=fd3565e6-8228-423c-aa35-7eb256beac6f"},"vehicle_type_id":"4","last_reported":1729890457,"current_range_meters":10000,"station_id":"ce4bh692rcd13ifvqea0","pricing_plan_id":"cebpf4jnsgd1na2vs0mg"},{"bike_id":"71cda5a0-571c-4b08-8476-48efcbdc28b3","system_id":"levelo_inurba_marseille","lat":43.24656,"lon":5.38173,"is_reserved":false,"is_disabled":false,"rental_uris":{"android":"levelo://app?vid=71cda5a0-571c-4b08-8476-48efcbdc28b3","ios":"levelo://app?vid=71cda5a0-571c-4b08-8476-48efcbdc28b3"},"vehicle_type_id":"4","last_reported":1729890457,"current_range_meters":6400,"station_id":"ce4bhih2rcd13ifvqfr0","pricing_plan_id":"cebpf4jnsgd1na2vs0mg"},{"bike_id":"08a2ab05-3f95-4a71-8a30-9173f725e207","system_id":"levelo_inurba_marseille","lat":43.22931,"lon":5.35375,"is_reserved":false,"is_disabled":false,"rental_uris":{"android":"levelo://app?vid=08a2ab05-3f95-4a71-8a30-9173f725e207","ios":"levelo://app?vid=08a2ab05-3f95-4a71-8a30-9173f725e207"},"vehicle_type_id":"4","last_reported":1729890457,"current_range_meters":16400,"station_id":"cpo3532slgdg3j2ikp40","pricing_plan_id":"cebpf4jnsgd1na2vs0mg"},{"bike_id":"0148dda3-0afd-45ed-bd68-237073a6c03e","system_id":"levelo_inurba_marseille","lat":43.29444,"lon":5.39746,"is_reserved":false,"is_disabled":false,"rental_uris":{"android":"levelo://app?vid=0148dda3-0afd-45ed-bd68-237073a6c03e","ios":"levelo://app?vid=0148dda3-0afd-45ed-bd68-237073a6c03e"},"vehicle_type_id":"4","last_reported":1729890457,"current_range_meters":12800,"station_id":"ce4bh3h2rcd13ifvqdo0","pricing_plan_id":"cebpf4jnsgd1na2vs0mg"},{"bike_id":"8282dbc9-ef98-4f76-bfe9-7b2d373ee239","system_id":"levelo_inurba_marseille","lat":43.24814,"lon":5.3746,"is_reserved":false,"is_disabled":false,"rental_uris":{"android":"levelo://app?vid=8282dbc9-ef98-4f76-bfe9-7b2d373ee239","ios":"levelo://app?vid=8282dbc9-ef98-4f76-bfe9-7b2d373ee239"},"vehicle_type_id":"4","last_reported":1729890457,"current_range_meters":38800,"station_id":"ce4bhgh2rcd13ifvqfb0","pricing_plan_id":"cebpf4jnsgd1na2vs0mg"},{"bike_id":"3b28d9ab-20f6-453f-b5f1-e1629d5fd9f8","system_id":"levelo_inurba_marseille","lat":43.30273,"lon":5.37704,"is_reserved":false,"is_disabled":false,"rental_uris":{"android":"levelo://app?vid=3b28d9ab-20f6-453f-b5f1-e1629d5fd9f8","ios":"levelo://app?vid=3b28d9ab-20f6-453f-b5f1-e1629d5fd9f8"},"vehicle_type_id":"4","last_reported":1729890457,"current_range_meters":10000,"station_id":"ce4bguh2rcd13ifvqcj0","pricing_plan_id":"cebpf4jnsgd1na2vs0mg"},{"bike_id":"82396d12-f8f0-47cf-8a72-3cdcc3a9bdc9","system_id":"levelo_inurba_marseille","lat":43.23961,"lon":5.36638,"is_reserved":false,"is_disabled":false,"rental_uris":{"android":"levelo://app?vid=82396d12-f8f0-47cf-8a72-3cdcc3a9bdc9","ios":"levelo://app?vid=82396d12-f8f0-47cf-8a72-3cdcc3a9bdc9"},"vehicle_type_id":"4","last_reported":1729890457,"current_range_meters":30400,"station_id":"ce4bhi12rcd13ifvqfp0","pricing_plan_id":"cebpf4jnsgd1na2vs0mg"},{"bike_id":"fc795806-f2f2-4fda-bca2-d9ee365e75bd","system_id":"levelo_inurba_marseille","lat":43.30842,"lon":5.37678,"is_reserved":false,"is_disabled":false,"rental_uris":{"android":"levelo://app?vid=fc795806-f2f2-4fda-bca2-d9ee365e75bd","ios":"levelo://app?vid=fc795806-f2f2-4fda-bca2-d9ee365e75bd"},"vehicle_type_id":"4","last_reported":1729890457,"current_range_meters":27600,"station_id":"ce4bgt92rcd13ifvqcf0","pricing_plan_id":"cebpf4jnsgd1na2vs0mg"},{"bike_id":"5907d0eb-1705-4f8f-a42f-e46dc5e5041f","system_id":"levelo_inurba_marseille","lat":43.2925,"lon":5.40898,"is_reserved":false,"is_disabled":false,"rental_uris":{"android":"levelo://app?vid=5907d0eb-1705-4f8f-a42f-e46dc5e5041f","ios":"levelo://app?vid=5907d0eb-1705-4f8f-a42f-e46dc5e5041f"},"vehicle_type_id":"4","last_reported":1729890457,"current_range_meters":28800,"station_id":"ce4bh192rcd13ifvqdc0","pricing_plan_id":"cebpf4jnsgd1na2vs0mg"},{"bike_id":"8aa2c645-1c7e-496a-b079-b99ce51cbb27","system_id":"levelo_inurba_marseille","lat":43.292537,"lon":5.409143,"is_reserved":false,"is_disabled":false,"rental_uris":{"android":"levelo://app?vid=8aa2c645-1c7e-496a-b079-b99ce51cbb27","ios":"levelo://app?vid=8aa2c645-1c7e-496a-b079-b99ce51cbb27"},"vehicle_type_id":"4","last_reported":1729890457,"current_range_meters":38800,"station_id":"ce4bh192rcd13ifvqdc0","pricing_plan_id":"cebpf4jnsgd1na2vs0mg"},{"bike_id":"292c4b55-b337-4606-8812-4ebc5ed208c0","system_id":"levelo_inurba_marseille","lat":43.28111,"lon":5.37819,"is_reserved":false,"is_disabled":false,"rental_uris":{"android":"levelo://app?vid=292c4b55-b337-4606-8812-4ebc5ed208c0","ios":"levelo://app?vid=292c4b55-b337-4606-8812-4ebc5ed208c0"},"vehicle_type_id":"4","last_reported":1729890457,"current_range_meters":10000,"station_id":"ce4bha12rcd13ifvqee0","pricing_plan_id":"cebpf4jnsgd1na2vs0mg"},{"bike_id":"c101c88a-9aa2-42fc-9230-0cbb655efb72","system_id":"levelo_inurba_marseille","lat":43.31324,"lon":5.39695,"is_reserved":false,"is_disabled":false,"rental_uris":{"android":"levelo://app?vid=c101c88a-9aa2-42fc-9230-0cbb655efb72","ios":"levelo://app?vid=c101c88a-9aa2-42fc-9230-0cbb655efb72"},"vehicle_type_id":"4","last_reported":1729890457,"current_range_meters":38400,"station_id":"ce4bgvp2rcd13ifvqcu0","pricing_plan_id":"cebpf4jnsgd1na2vs0mg"},{"bike_id":"099019b3-477c-412e-9dca-05df2a11f68a","system_id":"levelo_inurba_marseille","lat":43.34142,"lon":5.40895,"is_reserved":false,"is_disabled":false,"rental_uris":{"android":"levelo://app?vid=099019b3-477c-412e-9dca-05df2a11f68a","ios":"levelo://app?vid=099019b3-477c-412e-9dca-05df2a11f68a"},"vehicle_type_id":"4","last_reported":1729890457,"current_range_meters":24400,"station_id":"ce4bhqh2rcd13ifvqhlg","pricing_plan_id":"cebpf4jnsgd1na2vs0mg"},{"bike_id":"748175fc-06ab-4a0c-9926-5c6537d5d944","system_id":"levelo_inurba_marseille","lat":43.32365,"lon":5.38883,"is_reserved":false,"is_disabled":false,"rental_uris":{"android":"levelo://app?vid=748175fc-06ab-4a0c-9926-5c6537d5d944","ios":"levelo://app?vid=748175fc-06ab-4a0c-9926-5c6537d5d944"},"vehicle_type_id":"4","last_reported":1729890457,"current_range_meters":38800,"station_id":"ce4bhqp2rcd13ifvqhog","pricing_plan_id":"cebpf4jnsgd1na2vs0mg"},{"bike_id":"6980f02b-4404-4a9e-b957-8959d72800f4","system_id":"levelo_inurba_marseille","lat":43.29535,"lon":5.38537,"is_reserved":false,"is_disabled":false,"rental_uris":{"android":"levelo://app?vid=6980f02b-4404-4a9e-b957-8959d72800f4","ios":"levelo://app?vid=6980f02b-4404-4a9e-b957-8959d72800f4"},"vehicle_type_id":"4","last_reported":1729890457,"current_range_meters":8000,"station_id":"ce4bgih2rcd13ifvqba0","pricing_plan_id":"cebpf4jnsgd1na2vs0mg"},{"bike_id":"aeb0c5ad-b9dc-491d-a740-7b7fca587297","system_id":"levelo_inurba_marseille","lat":43.29423,"lon":5.3862,"is_reserved":false,"is_disabled":false,"rental_uris":{"android":"levelo://app?vid=aeb0c5ad-b9dc-491d-a740-7b7fca587297","ios":"levelo://app?vid=aeb0c5ad-b9dc-491d-a740-7b7fca587297"},"vehicle_type_id":"4","last_reported":1729890457,"current_range_meters":25600,"station_id":"ce4bh2h2rcd13ifvqdh0","pricing_plan_id":"cebpf4jnsgd1na2vs0mg"},