{"last_updated":1728896999,"ttl":60,"version":"2.2","data":{"bikes":[{"bike_id":"79d6d2a6-01c8-46e7-8618-793d521dfaaf","system_id":"levelo_inurba_marseille","lat":43.23144,"lon":5.43713,"is_reserved":false,"is_disabled":false,"rental_uris":{"android":"levelo://app?vid=79d6d2a6-01c8-46e7-8618-793d521dfaaf","ios":"levelo://app?vid=79d6d2a6-01c8-46e7-8618-793d521dfaaf"},"vehicle_type_id":"4","last_reported":1728896999,"current_range_meters":10800,"station_id":"ce4bhmp2rcd13ifvqgog","pricing_plan_id":"cebpf4jnsgd1na2vs0mg"},{"bike_id":"d9a92d49-75fa-47ec-be2d-525eb43beb0f","system_id":"levelo_inurba_marseille","lat":43.3122,"lon":5.36858,"is_reserved":false,"is_disabled":false,"rental_uris":{"android":"levelo://app?vid=d9a92d49-75fa-47ec-be2d-525eb43beb0f","ios":"levelo://app?vid=d9a92d49-75fa-47ec-be2d-525eb43beb0f"},"vehicle_type_id":"4","last_reported":1728896999,"current_range_meters":5600,"station_id":"ce4bgl92rcd13ifvqbq0","pricing_plan_id":"cebpf4jnsgd1na2vs0mg"},{"bike_id":"0b046677-604c-4274-acba-e1029fc3f54f","system_id":"levelo_inurba_marseille","lat":43.30544,"lon":5.367,"is_reserved":false,"is_disabled":false,"rental_uris":{"android":"levelo://app?vid=0b046677-604c-4274-acba-e1029fc3f54f","ios":"levelo://app?vid=0b046677-604c-4274-acba-e1029fc3f54f"},"vehicle_type_id":"4","last_reported":1728896999,"current_range_meters":8800,"station_id":"ce4bgrp2rcd13ifvqc9g","pricing_plan_id":"cebpf4jnsgd1na2vs0mg"},{"bike_id":"5000f225-e468-4f5f-aaf3-6a4b5f001ae8","system_id":"levelo_inurba_marseille","lat":43.30469,"lon":5.37899,"is_reserved":false,"is_disabled":false,"rental_uris":{"android":"levelo://app?vid=5000f225-e468-4f5f-aaf3-6a4b5f001ae8","ios":"levelo://app?vid=5000f225-e468-4f5f-aaf3-6a4b5f001ae8"},"vehicle_type_id":"4","last_reported":1728896999,"current_range_meters":38800,"station_id":"ce4bgup2rcd13ifvqcn0","pricing_plan_id":"cebpf4jnsgd1na2vs0mg"},{"bike_id":"08ccb5af-b902-4e80-a336-12e3a0fd6271","system_id":"levelo_inurba_marseille","lat":43.23179,"lon":5.3999,"is_reserved":false,"is_disabled":false,"rental_uris":{"android":"levelo://app?vid=08ccb5af-b902-4e80-a336-12e3a0fd6271","ios":"levelo://app?vid=08ccb5af-b902-4e80-a336-12e3a0fd6271"},"vehicle_type_id":"4","last_reported":1728896999,"current_range_meters":31200,"station_id":"ce4bhn12rcd13ifvqgqg","pricing_plan_id":"cebpf4jnsgd1na2vs0mg"},{"bike_id":"e887d79f-8eb5-41d2-bb93-c521669fcb89","system_id":"levelo_inurba_marseille","lat":43.2925,"lon":5.40903,"is_reserved":false,"is_disabled":false,"rental_uris":{"android":"levelo://app?vid=e887d79f-8eb5-41d2-bb93-c521669fcb89","ios":"levelo://app?vid=e887d79f-8eb5-41d2-bb93-c521669fcb89"},"vehicle_type_id":"4","last_reported":1728896999,"current_range_meters":36800,"station_id":"ce4bh192rcd13ifvqdc0","pricing_plan_id":"cebpf4jnsgd1na2vs0mg"},{"bike_id":"599c09fe-085f-4c4d-bcb2-98da69515aba","system_id":"levelo_inurba_marseille","lat":43.23055,"lon":5.3549,"is_reserved":false,"is_disabled":false,"rental_uris":{"android":"levelo://app?vid=599c09fe-085f-4c4d-bcb2-98da69515aba","ios":"levelo://app?vid=599c09fe-085f-4c4d-bcb2-98da69515aba"},"vehicle_type_id":"4","last_reported":1728896999,"current_range_meters":38400,"station_id":"cpo3342slgdg3j2ifvpg","pricing_plan_id":"cebpf4jnsgd1na2vs0mg"},{"bike_id":"79f3154b-5ac3-4e17-a665-2bf41fa04e95","system_id":"levelo_inurba_marseille","lat":43.26199,"lon":5.37929,"is_reserved":false,"is_disabled":false,"rental_uris":{"android":"levelo://app?vid=79f3154b-5ac3-4e17-a665-2bf41fa04e95","ios":"levelo://app?vid=79f3154b-5ac3-4e17-a665-2bf41fa04e95"},"vehicle_type_id":"4","last_reported":1728896999,"current_range_meters":24400,"station_id":"ce4bhjp2rcd13ifvqg90","pricing_plan_id":"cebpf4jnsgd1na2vs0mg"},{"bike_id":"b3cb1ebe-adff-4053-9fe9-5e84838ab48c","system_id":"levelo_inurba_marseille","lat":43.29305,"lon":5.37166,"is_reserved":false,"is_disabled":false,"rental_uris":{"android":"levelo://app?vid=b3cb1ebe-adff-4053-9fe9-5e84838ab48c","ios":"levelo://app?vid=b3cb1ebe-adff-4053-9fe9-5e84838ab48c"},"vehicle_type_id":"4","last_reported":1728896999,"current_range_meters":29600,"station_id":"ce4bgh92rcd13ifvqb40","pricing_plan_id":"cebpf4jnsgd1na2vs0mg"},{"bike_id":"3867fe27-d7ec-468c-8c9c-524bfdc795b7","system_id":"levelo_inurba_marseille","lat":43.262,"lon":5.3793,"is_reserved":false,"is_disabled":false,"rental_uris":{"android":"levelo://app?vid=3867fe27-d7ec-468c-8c9c-524bfdc795b7","ios":"levelo://app?vid=3867fe27-d7ec-468c-8c9c-524bfdc795b7"},"vehicle_type_id":"4","last_reported":1728896999,"current_range_meters":23200,"station_id":"ce4bhjp2rcd13ifvqg90","pricing_plan_id":"cebpf4jnsgd1na2vs0mg"},{"bike_id":"1d6e7aba-8711-44ea-ac19-c6c1c874f9a6","system_id":"levelo_inurba_marseille","lat":43.30457,"lon":5.37896,"is_reserved":false,"is_disabled":false,"rental_uris":{"android":"levelo://app?vid=1d6e7aba-8711-44ea-ac19-c6c1c874f9a6","ios":"levelo://app?vid=1d6e7aba-8711-44ea-ac19-c6c1c874f9a6"},"vehicle_type_id":"4","last_reported":1728896999,"current_range_meters":38000,"station_id":"ce4bgup2rcd13ifvqcn0","pricing_plan_id":"cebpf4jnsgd1na2vs0mg"},{"bike_id":"3b4396ad-5646-4bc6-bcb2-54cac225a4be","system_id":"levelo_inurba_marseille","lat":43.26968,"lon":5.38622,"is_reserved":false,"is_disabled":false,"rental_uris":{"android":"levelo://app?vid=3b4396ad-5646-4bc6-bcb2-54cac225a4be","ios":"levelo://app?vid=3b4396ad-5646-4bc6-bcb2-54cac225a4be"},"vehicle_type_id":"4","last_reported":1728896999,"current_range_meters":36400,"station_id":"ce4bhh92rcd13ifvqfh0","pricing_plan_id":"cebpf4jnsgd1na2vs0mg"},{"bike_id":"6b0f4a35-c6ae-4bae-b986-bcdae458746d","system_id":"levelo_inurba_marseille","lat":43.30283,"lon":5.37706,"is_reserved":false,"is_disabled":false,"rental_uris":{"android":"levelo://app?vid=6b0f4a35-c6ae-4bae-b986-bcdae458746d","ios":"levelo://app?vid=6b0f4a35-c6ae-4bae-b986-bcdae458746d"},"vehicle_type_id":"4","last_reported":1728896999,"current_range_meters":36400,"station_id":"ce4bguh2rcd13ifvqcj0","pricing_plan_id":"cebpf4jnsgd1na2vs0mg"},{"bike_id":"7522c83a-4088-49aa-a021-ecbce70654c2","system_id":"levelo_inurba_marseille","lat":43.286103,"lon":5.351059,"is_reserved":false,"is_disabled":false,"rental_uris":{"android":"levelo://app?vid=7522c83a-4088-49aa-a021-ecbce70654c2","ios":"levelo://app?vid=7522c83a-4088-49aa-a021-ecbce70654c2"},"vehicle_type_id":"4","last_reported":1728896999,"current_range_meters":36800,"station_id":"","pricing_plan_id":"cebpf4jnsgd1na2vs0mg"},{"bike_id":"3157b5d6-44fa-497a-85fb-fc0c62c4d8ba","system_id":"levelo_inurba_marseille","lat":43.27172,"lon":5.40994,"is_reserved":false,"is_disabled":false,"rental_uris":{"android":"levelo://app?vid=3157b5d6-44fa-497a-85fb-fc0c62c4d8ba","ios":"levelo://app?vid=3157b5d6-44fa-497a-85fb-fc0c62c4d8ba"},"vehicle_type_id":"4","last_reported":1728896999,"current_range_meters":28000,"station_id":"ce4bhl12rcd13ifvqgf0","pricing_plan_id":"cebpf4jnsgd1na2vs0mg"},{"bike_id":"c5dd5386-b143-4aec-8207-456a7148c38d","system_id":"levelo_inurba_marseille","lat":43.292175,"lon":5.390297,"is_reserved":false,"is_disabled":false,"rental_uris":{"android":"levelo://app?vid=c5dd5386-b143-4aec-8207-456a7148c38d","ios":"levelo://app?vid=c5dd5386-b143-4aec-8207-456a7148c38d"},"vehicle_type_id":"4","last_reported":1728896999,"current_range_meters":11200,"station_id":"ce4bh192rcd13ifvqdd0","pricing_plan_id":"cebpf4jnsgd1na2vs0mg"},{"bike_id":"ed0bb268-d2f8-4216-b366-216482759bb8","system_id":"levelo_inurba_marseille","lat":43.30946,"lon":5.39016,"is_reserved":false,"is_disabled":false,"rental_uris":{"android":"levelo://app?vid=ed0bb268-d2f8-4216-b366-216482759bb8","ios":"levelo://app?vid=ed0bb268-d2f8-4216-b366-216482759bb8"},"vehicle_type_id":"4","last_reported":1728896999,"current_range_meters":7200,"station_id":"ce4bgup2rcd13ifvqco0","pricing_plan_id":"cebpf4jnsgd1na2vs0mg"},{"bike_id":"1577fecb-cfb2-4506-83a8-2cd8ebbde5be","system_id":"levelo_inurba_marseille","lat":43.29654,"lon":5.37522,"is_reserved":false,"is_disabled":false,"rental_uris":{"android":"levelo://app?vid=1577fecb-cfb2-4506-83a8-2cd8ebbde5be","ios":"levelo://app?vid=1577fecb-cfb2-4506-83a8-2cd8ebbde5be"},"vehicle_type_id":"4","last_reported":1728896999,"current_range_meters":2800,"station_id":"","pricing_plan_id":"cebpf4jnsgd1na2vs0mg"},{"bike_id":"5499c06b-2e6b-4c78-ad4b-19556a2db8f7","system_id":"levelo_inurba_marseille","lat":43.30186,"lon":5.36621,"is_reserved":false,"is_disabled":false,"rental_uris":{"android":"levelo://app?vid=5499c06b-2e6b-4c78-ad4b-19556a2db8f7","ios":"levelo://app?vid=5499c06b-2e6b-4c78-ad4b-19556a2db8f7"},"vehicle_type_id":"4","last_reported":1728896999,"current_range_meters":13600,"station_id":"ce4bgrh2rcd13ifvqc8g","pricing_plan_id":"cebpf4jnsgd1na2vs0mg"},{"bike_id":"3f2b451e-f2b4-44ee-9535-6d5af6e7cc59","system_id":"levelo_inurba_marseille","lat":43.2866,"lon":5.36356,"is_reserved":false,"is_disabled":false,"rental_uris":{"android":"levelo://app?vid=3f2b451e-f2b4-44ee-9535-6d5af6e7cc59","ios":"levelo://app?vid=3f2b451e-f2b4-44ee-9535-6d5af6e7cc59"},"vehicle_type_id":"4","last_reported":1728896999,"current_range_meters":38800,"station_id":"ce4bhah2rcd13ifvqej0","pricing_plan_id":"cebpf4jnsgd1na2vs0mg"},{"bike_id":"ebcb7d14-ae1e-4ddc-982a-4aadf7782bfe","system_id":"levelo_inurba_marseille","lat":43.30285,"lon":5.3771,"is_reserved":false,"is_disabled":false,"rental_uris":{"android":"levelo://app?vid=ebcb7d14-ae1e-4ddc-982a-4aadf7782bfe","ios":"levelo://app?vid=ebcb7d14-ae1e-4ddc-982a-4aadf7782bfe"},"vehicle_type_id":"4","last_reported":1728896999,"current_range_meters":14000,"station_id":"ce4bguh2rcd13ifvqcj0","pricing_plan_id":"cebpf4jnsgd1na2vs0mg"},{"bike_id":"86ea7b9e-584d-451a-b685-ef2a3d8c12ac","system_id":"levelo_inurba_marseille","lat":43.2957,"lon":5.39984,"is_reserved":false,"is_disabled":false,"rental_uris":{"android":"levelo://app?vid=86ea7b9e-584d-451a-b685-ef2a3d8c12ac","ios":"levelo://app?vid=86ea7b9e-584d-451a-b685-ef2a3d8c12ac"},"vehicle_type_id":"4","last_reported":1728896999,"current_range_meters":28400,"station_id":"ce4bh312rcd13ifvqdj0","pricing_plan_id":"cebpf4jnsgd1na2vs0mg"},{"bike_id":"f99c518c-0540-46bf-a94b-5743aeff6ede","system_id":"levelo_inurba_marseille","lat":43.33741,"lon":5.37452,"is_reserved":false,"is_disabled":false,"rental_uris":{"android":"levelo://app?vid=f99c518c-0540-46bf-a94b-5743aeff6ede","ios":"levelo://app?vid=f99c518c-0540-46bf-a94b-5743aeff6ede"},"vehicle_type_id":"4","last_reported":1728896999,"current_range_meters":38400,"station_id":"","pricing_plan_id":"cebpf4jnsgd1na2vs0mg"},{"bike_id":"6990280d-6551-46e4-ae2e-3e3a1101fdeb","system_id":"levelo_inurba_marseille","lat":43.27493,"lon":5.42449,"is_reserved":false,"is_disabled":false,"rental_uris":{"android":"levelo://app?vid=6990280d-6551-46e4-ae2e-3e3a1101fdeb","ios":"levelo://app?vid=6990280d-6551-46e4-ae2e-3e3a1101fdeb"},"vehicle_type_id":"4","last_reported":1728896999,"current_range_meters":9600,"station_id":"ce4bhn92rcd13ifvqgrg","pricing_plan_id":"cebpf4jnsgd1na2vs0mg"},{"bike_id":"9e66ae3b-10f8-4cda-8ea9-bc01fbcfb211","system_id":"levelo_inurba_marseille","lat":43.27202,"lon":5.39175,"is_reserved":false,"is_disabled":false,"rental_uris":{"android":"levelo://app?vid=9e66ae3b-10f8-4cda-8ea9-bc01fbcfb211","ios":"levelo://app?vid=9e66ae3b-10f8-4cda-8ea9-bc01fbcfb211"},"vehicle_type_id":"4","last_reported":1728896999,"current_range_meters":38800,"station_id":"ce4bhhp2rcd13ifvqfm0","pricing_plan_id":"cebpf4jnsgd1na2vs0mg"},{"bike_id":"6241cb41-1661-4596-8c6d-d1ceb7df3af9","system_id":"levelo_inurba_marseille","lat":43.34146,"lon":5.40909,"is_reserved":false,"is_disabled":false,"rental_uris":{"android":"levelo://app?vid=6241cb41-1661-4596-8c6d-d1ceb7df3af9","ios":"levelo://app?vid=6241cb41-1661-4596-8c6d-d1ceb7df3af9"},"vehicle_type_id":"4","last_reported":1728896999,"current_range_meters":38400,"station_id":"ce4bhqh2rcd13ifvqhlg","pricing_plan_id":"cebpf4jnsgd1na2vs0mg"},{"bike_id":"946828d4-9413-458e-b463-104de2aa7933","system_id":"levelo_inurba_marseille","lat":43.29021,"lon":5.37551,"is_reserved":false,"is_disabled":false,"rental_uris":{"android":"levelo://app?vid=946828d4-9413-458e-b463-104de2aa7933","ios":"levelo://app?vid=946828d4-9413-458e-b463-104de2aa7933"},"vehicle_type_id":"4","last_reported":1728896999,"current_range_meters":20000,"station_id":"ce4bh692rcd13ifvqe90","pricing_plan_id":"cebpf4jnsgd1na2vs0mg"},{"bike_id":"3347c884-d0a9-4662-a70e-c7dad31e71b7","system_id":"levelo_inurba_marseille","lat":43.24542,"lon":5.39524,"is_reserved":false,"is_disabled":false,"rental_uris":{"android":"levelo://app?vid=3347c884-d0a9-4662-a70e-c7dad31e71b7","ios":"levelo://app?vid=3347c884-d0a9-4662-a70e-c7dad31e71b7"},"vehicle_type_id":"4","last_reported":1728896999,"current_range_meters":24400,"station_id":"ce4bhhp2rcd13ifvqfm0","pricing_plan_id":"cebpf4jnsgd1na2vs0mg"},{"bike_id":"6b2daff3-9851-4dff-9081-e0ec010599e4","system_id":"levelo_inurba_marseille","lat":43.314515,"lon":5.37384,"is_reserved":false,"is_disabled":false,"rental_uris":{"android":"levelo://app?vid=6b2daff3-9851-4dff-9081-e0ec010599e4","ios":"levelo://app?vid=6b2daff3-9851-4dff-9081-e0ec010599e4"},"vehicle_type_id":"4","last_reported":1728896999,"current_range_meters":28400,"station_id":"","pricing_plan_id":"cebpf4jnsgd1na2vs0mg"},{"bike_id":"be7c296e-e7ab-4af0-aa0a-35a8af9e8552","system_id":"levelo_inurba_marseille","lat":43.27946,"lon":5.41041,"is_reserved":false,"is_disabled":false,"rental_uris":{"android":"levelo://app?vid=be7c296e-e7ab-4af0-aa0a-35a8af9e8552","ios":"levelo://app?vid=be7c296e-e7ab-4af0-aa0a-35a8af9e8552"},"vehicle_type_id":"4","last_reported":1728896999,"current_range_meters":32400,"station_id":"ce4bhnp2rcd13ifvqh0g","pricing_plan_id":"cebpf4jnsgd1na2vs0mg"},{"bike_id":"610f1ba5-1af1-4052-8331-ade5cfc94332","system_id":"levelo_inurba_marseille","lat":43.2799,"lon":5.41652,"is_reserved":false,"is_disabled":false,"rental_uris":{"android":"levelo://app?vid=610f1ba5-1af1-4052-8331-ade5cfc94332","ios":"levelo://app?vid=610f1ba5-1af1-4052-8331-ade5cfc94332"},"vehicle_type_id":"4","last_reported":1728896999,"current_range_meters":4000,"station_id":"ce4bho12rcd13ifvqh1g","pricing_plan_id":"cebpf4jnsgd1na2vs0mg"},{"bike_id":"da1c24e4-8fe1-405e-8468-caf43124e917","system_id":"levelo_inurba_marseille","lat":43.316934,"lon":5.404713,"is_reserved":false,"is_disabled":false,"rental_uris":{"android":"levelo://app?vid=da1c24e4-8fe1-405e-8468-caf43124e917","ios":"levelo://app?vid=da1c24e4-8fe1-405e-8468-caf43124e917"},"vehicle_type_id":"4","last_reported":1728896999,"current_range_meters":35600,"station_id":"ce4bh012rcd13ifvqd00","pricing_plan_id":"cebpf4jnsgd1na2vs0mg"},{"bike_id":"8613c145-39a0-41b0-adad-9ccfa1be764e","system_id":"levelo_inurba_marseille","lat":43.30943,"lon":5.39035,"is_reserved":false,"is_disabled":false,"rental_uris":{"android":"levelo://app?vid=8613c145-39a0-41b0-adad-9ccfa1be764e","ios":"levelo://app?vid=8613c145-39a0-41b0-adad-9ccfa1be764e"},"vehicle_type_id":"4","last_reported":1728896999,"current_range_meters":22000,"station_id":"ce4bgup2rcd13ifvqco0","pricing_plan_id":"cebpf4jnsgd1na2vs0mg"},{"bike_id":"a1aeeebe-11af-4a18-8e40-3d48bba0a98f","system_id":"levelo_inurba_marseille","lat":43.31343,"lon":5.36699,"is_reserved":false,"is_disabled":false,"rental_uris":{"android":"levelo://app?vid=a1aeeebe-11af-4a18-8e40-3d48bba0a98f","ios":"levelo://app?vid=a1aeeebe-11af-4a18-8e40-3d48bba0a98f"},"vehicle_type_id":"4","last_reported":1728896999,"current_range_meters":36000,"station_id":"ce4bgr92rcd13ifvqc6g","pricing_plan_id":"cebpf4jnsgd1na2vs0mg"},{"bike_id":"538746d6-a519-416b-a5ec-975f238a19ea","system_id":"levelo_inurba_marseille","lat":43.30539,"lon":5.36549,"is_reserved":false,"is_disabled":false,"rental_uris":{"android":"levelo://app?vid=538746d6-a519-416b-a5ec-975f238a19ea","ios":"levelo://app?vid=538746d6-a519-416b-a5ec-975f238a19ea"},"vehicle_type_id":"4","last_reported":1728896999,"current_range_meters":25200,"station_id":"ce4bgs12rcd13ifvqcag","pricing_plan_id":"cebpf4jnsgd1na2vs0mg"},{"bike_id":"2651f8e5-e279-4329-be5c-b2437cbbb1f0","system_id":"levelo_inurba_marseille","lat":43.28612,"lon":5.37063,"is_reserved":false,"is_disabled":false,"rental_uris":{"android":"levelo://app?vid=2651f8e5-e279-4329-be5c-b2437cbbb1f0","ios":"levelo://app?vid=2651f8e5-e279-4329-be5c-b2437cbbb1f0"},"vehicle_type_id":"4","last_reported":1728896999,"current_range_meters":39200,"station_id":"ce4bht12rcd13ifvqi60","pricing_plan_id":"cebpf4jnsgd1na2vs0mg"},{"bike_id":"da5caed8-1ca4-425c-9e68-cae528f9bab3","system_id":"levelo_inurba_marseille","lat":43.28667,"lon":5.36356,"is_reserved":false,"is_disabled":false,"rental_uris":{"android":"levelo://app?vid=da5caed8-1ca4-425c-9e68-cae528f9bab3","ios":"levelo://app?vid=da5caed8-1ca4-425c-9e68-cae528f9bab3"},"vehicle_type_id":"4","last_reported":1728896999,"current_range_meters":23200,"station_id":"ce4bhah2rcd13ifvqej0","pricing_plan_id":"cebpf4jnsgd1na2vs0mg"},{"bike_id":"fcf4ea03-f696-4c1e-a354-330ec590df38","system_id":"levelo_inurba_marseille","lat":43.2756,"lon":5.38406,"is_reserved":false,"is_disabled":false,"rental_uris":{"android":"levelo://app?vid=fcf4ea03-f696-4c1e-a354-330ec590df38","ios":"levelo://app?vid=fcf4ea03-f696-4c1e-a354-330ec590df38"},"vehicle_type_id":"4","last_reported":1728896999,"current_range_meters":36800,"station_id":"ce4bhh92rcd13ifvqfi0","pricing_plan_id":"cebpf4jnsgd1na2vs0mg"},{"bike_id":"8c2e9daf-86a0-4b0f-b7ff-24887f1d8dc8","system_id":"levelo_inurba_marseille","lat":43.23185,"lon":5.35555,"is_reserved":false,"is_disabled":false,"rental_uris":{"android":"levelo://app?vid=8c2e9daf-86a0-4b0f-b7ff-24887f1d8dc8","ios":"levelo://app?vid=8c2e9daf-86a0-4b0f-b7ff-24887f1d8dc8"},"vehicle_type_id":"4","last_reported":1728896999,"current_range_meters":38800,"station_id":"ce4bhu92rcd13ifvqi70","pricing_plan_id":"cebpf4jnsgd1na2vs0mg"},{"bike_id":"fa5c9e19-4a5e-4e7c-b106-f3cc96b989af","system_id":"levelo_inurba_marseille","lat":43.303864,"lon":5.368837,"is_reserved":false,"is_disabled":false,"rental_uris":{"android":"levelo://app?vid=fa5c9e19-4a5e-4e7c-b106-f3cc96b989af","ios":"levelo://app?vid=fa5c9e19-4a5e-4e7c-b106-f3cc96b989af"},"vehicle_type_id":"4","last_reported":1728896999,"current_range_meters":16400,"station_id":"ce4bgqh2rcd13ifvqc5g","pricing_plan_id":"cebpf4jnsgd1na2vs0mg"},{"bike_id":"71e65e8c-2132-4eb8-af49-1f6e24c32d53","system_id":"levelo_inurba_marseille","lat":43.31689,"lon":5.40473,"is_reserved":false,"is_disabled":false,"rental_uris":{"android":"levelo://app?vid=71e65e8c-2132-4eb8-af49-1f6e24c32d53","ios":"levelo://app?vid=71e65e8c-2132-4eb8-af49-1f6e24c32d53"},"vehicle_type_id":"4","last_reported":1728896999,"current_range_meters":18800,"station_id":"ce4bh012rcd13ifvqd00","pricing_plan_id":"cebpf4jnsgd1na2vs0mg"},{"bike_id":"c8784b34-b33f-4dd1-b0cf-204c2a506eb7","system_id":"levelo_inurba_marseille","lat":43.27807,"lon":5.4071,"is_reserved":false,"is_disabled":false,"rental_uris":{"android":"levelo://app?vid=c8784b34-b33f-4dd1-b0cf-204c2a506eb7","ios":"levelo://app?vid=c8784b34-b33f-4dd1-b0cf-204c2a506eb7"},"vehicle_type_id":"4","last_reported":1728896999,"current_range_meters":24800,"station_id":"ce4bhnh2rcd13ifvqgtg","pricing_plan_id":"cebpf4jnsgd1na2vs0mg"},{"bike_id":"f501b8a4-3cf6-44c2-882e-960d67b61d66","system_id":"levelo_inurba_marseille","lat":43.26681,"lon":5.3826,"is_reserved":false,"is_disabled":false,"rental_uris":{"android":"levelo://app?vid=f501b8a4-3cf6-44c2-882e-960d67b61d66","ios":"levelo://app?vid=f501b8a4-3cf6-44c2-882e-960d67b61d66"},"vehicle_type_id":"4","last_reported":1728896999,"current_range_meters":7200,"station_id":"ce4bhg92rcd13ifvqf90","pricing_plan_id":"cebpf4jnsgd1na2vs0mg"},{"bike_id":"f475ae68-9159-46af-a59b-b833b4655776","system_id":"levelo_inurba_marseille","lat":43.3053,"lon":5.367,"is_reserved":false,"is_disabled":false,"rental_uris":{"android":"levelo://app?vid=f475ae68-9159-46af-a59b-b833b4655776","ios":"levelo://app?vid=f475ae68-9159-46af-a59b-b833b4655776"},"vehicle_type_id":"4","last_reported":1728896999,"current_range_meters":17200,"station_id":"ce4bgrp2rcd13ifvqc9g","pricing_plan_id":"cebpf4jnsgd1na2vs0mg"},{"bike_id":"4e5c2617-bf80-400c-8622-84d05330bb8d","system_id":"levelo_inurba_marseille","lat":43.2962,"lon":5.37731,"is_reserved":false,"is_disabled":false,"rental_uris":{"android":"levelo://app?vid=4e5c2617-bf80-400c-8622-84d05330bb8d","ios":"levelo://app?vid=4e5c2617-bf80-400c-8622-84d05330bb8d"},"vehicle_type_id":"4","last_reported":1728896999,"current_range_meters":21600,"station_id":"ce4bgi92rcd13ifvqb90","pricing_plan_id":"cebpf4jnsgd1na2vs0mg"},{"bike_id":"844bf2ea-d3f6-47e6-bdf5-1e1909814a7d","system_id":"levelo_inurba_marseille","lat":43.30562,"lon":5.36532,"is_reserved":false,"is_disabled":false,"rental_uris":{"android":"levelo://app?vid=844bf2ea-d3f6-47e6-bdf5-1e1909814a7d","ios":"levelo://app?vid=844bf2ea-d3f6-47e6-bdf5-1e1909814a7d"},"vehicle_type_id":"4","last_reported":1728896999,"current_range_meters":38800,"station_id":"ce4bgs12rcd13ifvqcag","pricing_plan_id":"cebpf4jnsgd1na2vs0mg"},{"bike_id":"124bcadb-0047-4081-821e-eec9c7c733b7","system_id":"levelo_inurba_marseille","lat":43.33607,"lon":5.41027,"is_reserved":false,"is_disabled":false,"rental_uris":{"android":"levelo://app?vid=124bcadb-0047-4081-821e-eec9c7c733b7","ios":"levelo://app?vid=124bcadb-0047-4081-821e-eec9c7c733b7"},"vehicle_type_id":"4","last_reported":1728896999,"current_range_meters":10000,"station_id":"ce4bhqh2rcd13ifvqhmg","pricing_plan_id":"cebpf4jnsgd1na2vs0mg"},{"bike_id":"00df6dff-e62c-4178-894c-798338a7c07a","system_id":"levelo_inurba_marseille","lat":43.24387,"lon":5.37051,"is_reserved":false,"is_disabled":false,"rental_uris":{"android":"levelo://app?vid=00df6dff-e62c-4178-894c-798338a7c07a","ios":"levelo://app?vid=00df6dff-e62c-4178-894c-798338a7c07a"},"vehicle_type_id":"4","last_reported":1728896999,"current_range_meters":30000,"station_id":"ce4bhhh2rcd13ifvqfk0","pricing_plan_id":"cebpf4jnsgd1na2vs0mg"},{"bike_id":"7ed33edc-8177-4d49-82dd-c869757aa9e0","system_id":"levelo_inurba_marseille","lat":43.24618,"lon":5.37406,"is_reserved":false,"is_disabled":false,"rental_uris":{"android":"levelo://app?vid=7ed33edc-8177-4d49-82dd-c869757aa9e0","ios":"levelo://app?vid=7ed33edc-8177-4d49-82dd-c869757aa9e0"},"vehicle_type_id":"4","last_reported":1728896999,"current_range_meters":10800,"station_id":"","pricing_plan_id":"cebpf4jnsgd1na2vs0mg"},{"bike_id":"e91a309e-c8b6-417e-b8c2-38f330b63722","system_id":"levelo_inurba_marseille","lat":43.29899,"lon":5.374683,"is_reserved":false,"is_disabled":false,"rental_uris":{"android":"levelo://app?vid=e91a309e-c8b6-417e-b8c2-38f330b63722","ios":"levelo://app?vid=e91a309e-c8b6-417e-b8c2-38f330b63722"},"vehicle_type_id":"4","last_reported":1728896999,"current_range_meters":38000,"station_id":"ce4bgjh2rcd13ifvqbg0","pricing_plan_id":"cebpf4jnsgd1na2vs0mg"},{"bike_id":"9d6deb24-a969-4165-a330-7ad1ff61d9b6","system_id":"levelo_inurba_marseille","lat":43.31351,"lon":5.36705,"is_reserved":false,"is_disabled":false,"rental_uris":{"android":"levelo://app?vid=9d6deb24-a969-4165-a330-7ad1ff61d9b6","ios":"levelo://app?vid=9d6deb24-a969-4165-a330-7ad1ff61d9b6"},"vehicle_type_id":"4","last_reported":1728896999,"current_range_meters":27600,"station_id":"ce4bgr92rcd13ifvqc6g","pricing_plan_id":"cebpf4jnsgd1na2vs0mg"},{"bike_id":"decd1d94-f77a-4388-abc4-b0197b25c7ee","system_id":"levelo_inurba_marseille","lat":43.27489,"lon":5.42452,"is_reserved":false,"is_disabled":false,"rental_uris":{"android":"levelo://app?vid=decd1d94-f77a-4388-abc4-b0197b25c7ee","ios":"levelo://app?vid=decd1d94-f77a-4388-abc4-b0197b25c7ee"},"vehicle_type_id":"4","last_reported":1728896999,"current_range_meters":39200,"station_id":"ce4bhn92rcd13ifvqgrg","pricing_plan_id":"cebpf4jnsgd1na2vs0mg"},{"bike_id":"4355f064-bf24-4192-98d3-02d0a1a75f4f","system_id":"levelo_inurba_marseille","lat":43.29584,"lon":5.36735,"is_reserved":false,"is_disabled":false,"rental_uris":{"android":"levelo://app?vid=4355f064-bf24-4192-98d3-02d0a1a75f4f","ios":"levelo://app?vid=4355f064-bf24-4192-98d3-02d0a1a75f4f"},"vehicle_type_id":"4","last_reported":1728896999,"current_range_meters":38800,"station_id":"ce4bgph2rcd13ifvqc2g","pricing_plan_id":"cebpf4jnsgd1na2vs0mg"},{"bike_id":"5eace0e8-6db3-4c99-a21b-2b35e298d5ed","system_id":"levelo_inurba_marseille","lat":43.29103,"lon":5.38134,"is_reserved":false,"is_disabled":false,"rental_uris":{"android":"levelo://app?vid=5eace0e8-6db3-4c99-a21b-2b35e298d5ed","ios":"levelo://app?vid=5eace0e8-6db3-4c99-a21b-2b35e298d5ed"},"vehicle_type_id":"4","last_reported":1728896999,"current_range_meters":26800,"station_id":"ce4bh512rcd13ifvqe2g","pricing_plan_id":"cebpf4jnsgd1na2vs0mg"},{"bike_id":"6ce73df6-8fdf-448a-8d89-a897b7d19ace","system_id":"levelo_inurba_marseille","lat":43.33776,"lon":5.37424,"is_reserved":false,"is_disabled":false,"rental_uris":{"android":"levelo://app?vid=6ce73df6-8fdf-448a-8d89-a897b7d19ace","ios":"levelo://app?vid=6ce73df6-8fdf-448a-8d89-a897b7d19ace"},"vehicle_type_id":"4","last_reported":1728896999,"current_range_meters":36400,"station_id":"","pricing_plan_id":"cebpf4jnsgd1na2vs0mg"},{"bike_id":"20b89c9f-f785-4c3c-9ba9-e68c2b2392a3","system_id":"levelo_inurba_marseille","lat":43.29068,"lon":5.37178,"is_reserved":false,"is_disabled":false,"rental_uris":{"android":"levelo://app?vid=20b89c9f-f785-4c3c-9ba9-e68c2b2392a3","ios":"levelo://app?vid=20b89c9f-f785-4c3c-9ba9-e68c2b2392a3"},"vehicle_type_id":"4","last_reported":1728896999,"current_range_meters":22000,"station_id":"ce4bh5p2rcd13ifvqe4g","pricing_plan_id":"cebpf4jnsgd1na2vs0mg"},{"bike_id":"69186003-927c-4d48-94f5-4866deb01e50","system_id":"levelo_inurba_marseille","lat":43.30643,"lon":5.40104,"is_reserved":false,"is_disabled":false,"rental_uris":{"android":"levelo://app?vid=69186003-927c-4d48-94f5-4866deb01e50","ios":"levelo://app?vid=69186003-927c-4d48-94f5-4866deb01e50"},"vehicle_type_id":"4","last_reported":1728896999,"current_range_meters":18000,"station_id":"ce4bh112rcd13ifvqda0","pricing_plan_id":"cebpf4jnsgd1na2vs0mg"},{"bike_id":"c4880812-5e51-4e88-83bd-125f9444a6e9","system_id":"levelo_inurba_marseille","lat":43.27357,"lon":5.39285,"is_reserved":false,"is_disabled":false,"rental_uris":{"android":"levelo://app?vid=c4880812-5e51-4e88-83bd-125f9444a6e9","ios":"levelo://app?vid=c4880812-5e51-4e88-83bd-125f9444a6e9"},"vehicle_type_id":"4","last_reported":1728896999,"current_range_meters":28400,"station_id":"ce4bhdp2rcd13ifvqf20","pricing_plan_id":"cebpf4jnsgd1na2vs0mg"},{"bike_id":"79b56f75-98c1-485b-b9f1-0c03f3ebac42","system_id":"levelo_inurba_marseille","lat":43.30313,"lon":5.36908,"is_reserved":false,"is_disabled":false,"rental_uris":{"android":"levelo://app?vid=79b56f75-98c1-485b-b9f1-0c03f3ebac42","ios":"levelo://app?vid=79b56f75-98c1-485b-b9f1-0c03f3ebac42"},"vehicle_type_id":"4","last_reported":1728896999,"current_range_meters":33200,"station_id":"ce4bgqh2rcd13ifvqc5g","pricing_plan_id":"cebpf4jnsgd1na2vs0mg"},{"bike_id":"1d7794a0-e8c7-4184-9894-33fa45d88c88","system_id":"levelo_inurba_marseille","lat":43.29568,"lon":5.39962,"is_reserved":false,"is_disabled":false,"rental_uris":{"android":"levelo://app?vid=1d7794a0-e8c7-4184-9894-33fa45d88c88","ios":"levelo://app?vid=1d7794a0-e8c7-4184-9894-33fa45d88c88"},"vehicle_type_id":"4","last_reported":1728896999,"current_range_meters":38800,"station_id":"ce4bh312rcd13ifvqdj0","pricing_plan_id":"cebpf4jnsgd1na2vs0mg"},{"bike_id":"bf06ca0a-714b-4273-b538-1cc80176d935","system_id":"levelo_inurba_marseille","lat":43.2997,"lon":5.37181,"is_reserved":false,"is_disabled":false,"rental_uris":{"android":"levelo://app?vid=bf06ca0a-714b-4273-b538-1cc80176d935","ios":"levelo://app?vid=bf06ca0a-714b-4273-b538-1cc80176d935"},"vehicle_type_id":"4","last_reported":1728896999,"current_range_meters":38800,"station_id":"ce4bgr92rcd13ifvqc7g","pricing_plan_id":"cebpf4jnsgd1na2vs0mg"},{"bike_id":"ef0e5abb-1b3c-41d6-9c8e-9033ea01ddbc","system_id":"levelo_inurba_marseille","lat":43.23194,"lon":5.35543,"is_reserved":false,"is_disabled":false,"rental_uris":{"android":"levelo://app?vid=ef0e5abb-1b3c-41d6-9c8e-9033ea01ddbc","ios":"levelo://app?vid=ef0e5abb-1b3c-41d6-9c8e-9033ea01ddbc"},"vehicle_type_id":"4","last_reported":1728896999,"current_range_meters":10000,"station_id":"ce4bhu92rcd13ifvqi70","pricing_plan_id":"cebpf4jnsgd1na2vs0mg"},{"bike_id":"233576a3-4715-4cd3-97ec-ea1dacf20ca7","system_id":"levelo_inurba_marseille","lat":43.29974,"lon":5.37178,"is_reserved":false,"is_disabled":false,"rental_uris":{"android":"levelo://app?vid=233576a3-4715-4cd3-97ec-ea1dacf20ca7","ios":"levelo://app?vid=233576a3-4715-4cd3-97ec-ea1dacf20ca7"},"vehicle_type_id":"4","last_reported":1728896999,"current_range_meters":38800,"station_id":"ce4bgr92rcd13ifvqc7g","pricing_plan_id":"cebpf4jnsgd1na2vs0mg"},{"bike_id":"ff198842-7b48-420f-8708-6b3f6239678a","system_id":"levelo_inurba_marseille","lat":43.32524,"lon":5.41434,"is_reserved":false,"is_disabled":false,"rental_uris":{"android":"levelo://app?vid=ff198842-7b48-420f-8708-6b3f6239678a","ios":"levelo://app?vid=ff198842-7b48-420f-8708-6b3f6239678a"},"vehicle_type_id":"4","last_reported":1728896999,"current_range_meters":22000,"station_id":"ce4bhq12rcd13ifvqhhg","pricing_plan_id":"cebpf4jnsgd1na2vs0mg"},{"bike_id":"d1040a93-4047-4290-833e-067b826f7c83","system_id":"levelo_inurba_marseille","lat":43.30306,"lon":5.36897,"is_reserved":false,"is_disabled":false,"rental_uris":{"android":"levelo://app?vid=d1040a93-4047-4290-833e-067b826f7c83","ios":"levelo://app?vid=d1040a93-4047-4290-833e-067b826f7c83"},"vehicle_type_id":"4","last_reported":1728896999,"current_range_meters":17200,"station_id":"ce4bgqh2rcd13ifvqc5g","pricing_plan_id":"cebpf4jnsgd1na2vs0mg"},{"bike_id":"f628470c-65a5-4616-a6ae-d18af5dd64ce","system_id":"levelo_inurba_marseille","lat":43.30132,"lon":5.37409,"is_reserved":false,"is_disabled":false,"rental_uris":{"android":"levelo://app?vid=f628470c-65a5-4616-a6ae-d18af5dd64ce","ios":"levelo://app?vid=f628470c-65a5-4616-a6ae-d18af5dd64ce"},"vehicle_type_id":"4","last_reported":1728896999,"current_range_meters":36800,"station_id":"ce4bgs92rcd13ifvqcc0","pricing_plan_id":"cebpf4jnsgd1na2vs0mg"},{"bike_id":"afb9c6c6-fe06-4f36-80d1-cb9563b6058e","system_id":"levelo_inurba_marseille","lat":43.23958,"lon":5.36642,"is_reserved":false,"is_disabled":false,"rental_uris":{"android":"levelo://app?vid=afb9c6c6-fe06-4f36-80d1-cb9563b6058e","ios":"levelo://app?vid=afb9c6c6-fe06-4f36-80d1-cb9563b6058e"},"vehicle_type_id":"4","last_reported":1728896999,"current_range_meters":38800,"station_id":"ce4bhi12rcd13ifvqfp0","pricing_plan_id":"cebpf4jnsgd1na2vs0mg"},{"bike_id":"26ef0f82-778d-44d7-ad89-5daefc08a1a4","system_id":"levelo_inurba_marseille","lat":43.31457,"lon":5.37377,"is_reserved":false,"is_disabled":false,"rental_uris":{"android":"levelo://app?vid=26ef0f82-778d-44d7-ad89-5daefc08a1a4","ios":"levelo://app?vid=26ef0f82-778d-44d7-ad89-5daefc08a1a4"},"vehicle_type_id":"4","last_reported":1728896999,"current_range_meters":16800,"station_id":"","pricing_plan_id":"cebpf4jnsgd1na2vs0mg"},{"bike_id":"f2f878ad-8c13-4dba-a9d1-4d433b0c1069","system_id":"levelo_inurba_marseille","lat":43.29792,"lon":5.38092,"is_reserved":false,"is_disabled":false,"rental_uris":{"android":"levelo://app?vid=f2f878ad-8c13-4dba-a9d1-4d433b0c1069","ios":"levelo://app?vid=f2f878ad-8c13-4dba-a9d1-4d433b0c1069"},"vehicle_type_id":"4","last_reported":1728896999,"current_range_meters":33200,"station_id":"ce4bgip2rcd13ifvqbb0","pricing_plan_id":"cebpf4jnsgd1na2vs0mg"},{"bike_id":"dc3ebe21-18e4-4cad-8a3c-30ff0af10a67","system_id":"levelo_inurba_marseille","lat":43.29572,"lon":5.39965,"is_reserved":false,"is_disabled":false,"rental_uris":{"android":"levelo://app?vid=dc3ebe21-18e4-4cad-8a3c-30ff0af10a67","ios":"levelo://app?vid=dc3ebe21-18e4-4cad-8a3c-30ff0af10a67"},"vehicle_type_id":"4","last_reported":1728896999,"current_range_meters":38800,"station_id":"ce4bh312rcd13ifvqdj0","pricing_plan_id":"cebpf4jnsgd1na2vs0mg"},{"bike_id":"dd56f152-3d24-4964-8294-96aaf213e366","system_id":"levelo_inurba_marseille","lat":43.292851,"lon":5.368404,"is_reserved":false,"is_disabled":false,"rental_uris":{"android":"levelo://app?vid=dd56f152-3d24-4964-8294-96aaf213e366","ios":"levelo://app?vid=dd56f152-3d24-4964-8294-96aaf213e366"},"vehicle_type_id":"4","last_reported":1728896999,"current_range_meters":15200,"station_id":"","pricing_plan_id":"cebpf4jnsgd1na2vs0mg"},{"bike_id":"6775debe-3572-4de6-be18-c3de80cd7673","system_id":"levelo_inurba_marseille","lat":43.2408,"lon":5.37766,"is_reserved":false,"is_disabled":false,"rental_uris":{"android":"levelo://app?vid=6775debe-3572-4de6-be18-c3de80cd7673","ios":"levelo://app?vid=6775debe-3572-4de6-be18-c3de80cd7673"},"vehicle_type_id":"4","last_reported":1728896999,"current_range_meters":36000,"station_id":"ce4bhnp2rcd13ifvqgvg","pricing_plan_id":"cebpf4jnsgd1na2vs0mg"},{"bike_id":"63c78ce9-6e20-47a1-9afa-a7a0dc67bac2","system_id":"levelo_inurba_marseille","lat":43.24669,"lon":5.3816,"is_reserved":false,"is_disabled":false,"rental_uris":{"android":"levelo://app?vid=63c78ce9-6e20-47a1-9afa-a7a0dc67bac2","ios":"levelo://app?vid=63c78ce9-6e20-47a1-9afa-a7a0dc67bac2"},"vehicle_type_id":"4","last_reported":1728896999,"current_range_meters":28000,"station_id":"ce4bhih2rcd13ifvqfr0","pricing_plan_id":"cebpf4jnsgd1na2vs0mg"},{"bike_id":"0976b54c-7c62-4236-8103-d0b3e0fcc8e1","system_id":"levelo_inurba_marseille","lat":43.27995,"lon":5.40012,"is_reserved":false,"is_disabled":false,"rental_uris":{"android":"levelo://app?vid=0976b54c-7c62-4236-8103-d0b3e0fcc8e1","ios":"levelo://app?vid=0976b54c-7c62-4236-8103-d0b3e0fcc8e1"},"vehicle_type_id":"4","last_reported":1728896999,"current_range_meters":37600,"station_id":"ce4bho92rcd13ifvqh4g","pricing_plan_id":"cebpf4jnsgd1na2vs0mg"},{"bike_id":"25ed2710-8c35-44e6-81fd-8fc7cf6b54a8","system_id":"levelo_inurba_marseille","lat":43.274948,"lon":5.424466,"is_reserved":false,"is_disabled":false,"rental_uris":{"android":"levelo://app?vid=25ed2710-8c35-44e6-81fd-8fc7cf6b54a8","ios":"levelo://app?vid=25ed2710-8c35-44e6-81fd-8fc7cf6b54a8"},"vehicle_type_id":"4","last_reported":1728896999,"current_range_meters":17200,"station_id":"ce4bhn92rcd13ifvqgrg","pricing_plan_id":"cebpf4jnsgd1na2vs0mg"},{"bike_id":"71d3f488-c925-46a2-93e5-07e6faaba818","system_id":"levelo_inurba_marseille","lat":43.30538,"lon":5.36547,"is_reserved":false,"is_disabled":false,"rental_uris":{"android":"levelo://app?vid=71d3f488-c925-46a2-93e5-07e6faaba818","ios":"levelo://app?vid=71d3f488-c925-46a2-93e5-07e6faaba818"},"vehicle_type_id":"4","last_reported":1728896999,"current_range_meters":38800,"station_id":"ce4bgs12rcd13ifvqcag","pricing_plan_id":"cebpf4jnsgd1na2vs0mg"},{"bike_id":"b9b18d1e-08b0-4d2d-ae4b-c6ff6e5bb0fe","system_id":"levelo_inurba_marseille","lat":43.29647,"lon":5.37258,"is_reserved":false,"is_disabled":false,"rental_uris":{"android":"levelo://app?vid=b9b18d1e-08b0-4d2d-ae4b-c6ff6e5bb0fe","ios":"levelo://app?vid=b9b18d1e-08b0-4d2d-ae4b-c6ff6e5bb0fe"},"vehicle_type_id":"4","last_reported":1728896999,"current_range_meters":11600,"station_id":"ce4bgk12rcd13ifvqbj0","pricing_plan_id":"cebpf4jnsgd1na2vs0mg"},{"bike_id":"aea1d7d9-ad77-4f63-b2e5-d880d881127f","system_id":"levelo_inurba_marseille","lat":43.3425,"lon":5.44571,"is_reserved":false,"is_disabled":false,"rental_uris":{"android":"levelo://app?vid=aea1d7d9-ad77-4f63-b2e5-d880d881127f","ios":"levelo://app?vid=aea1d7d9-ad77-4f63-b2e5-d880d881127f"},"vehicle_type_id":"4","last_reported":1728896999,"current_range_meters":28400,"station_id":"","pricing_plan_id":"cebpf4jnsgd1na2vs0mg"},{"bike_id":"969f2d8d-3cdd-4b0c-81e3-d68bb6a68b3c","system_id":"levelo_inurba_marseille","lat":43.31495,"lon":5.37303,"is_reserved":false,"is_disabled":false,"rental_uris":{"android":"levelo://app?vid=969f2d8d-3cdd-4b0c-81e3-d68bb6a68b3c","ios":"levelo://app?vid=969f2d8d-3cdd-4b0c-81e3-d68bb6a68b3c"},"vehicle_type_id":"4","last_reported":1728896999,"current_range_meters":16400,"station_id":"ce4bgt12rcd13ifvqcd0","pricing_plan_id":"cebpf4jnsgd1na2vs0mg"},{"bike_id":"2e3584bd-e026-49e2-ad1b-15dd53441bf4","system_id":"levelo_inurba_marseille","lat":43.29637,"lon":5.37701,"is_reserved":false,"is_disabled":false,"rental_uris":{"android":"levelo://app?vid=2e3584bd-e026-49e2-ad1b-15dd53441bf4","ios":"levelo://app?vid=2e3584bd-e026-49e2-ad1b-15dd53441bf4"},"vehicle_type_id":"4","last_reported":1728896999,"current_range_meters":18800,"station_id":"ce4bgi92rcd13ifvqb90","pricing_plan_id":"cebpf4jnsgd1na2vs0mg"},{"bike_id":"c3b02345-8b86-4cb1-934d-641acf65d5ea","system_id":"levelo_inurba_marseille","lat":43.23151,"lon":5.43705,"is_reserved":false,"is_disabled":false,"rental_uris":{"android":"levelo://app?vid=c3b02345-8b86-4cb1-934d-641acf65d5ea","ios":"levelo://app?vid=c3b02345-8b86-4cb1-934d-641acf65d5ea"},"vehicle_type_id":"4","last_reported":1728896999,"current_range_meters":4800,"station_id":"ce4bhmp2rcd13ifvqgog","pricing_plan_id":"cebpf4jnsgd1na2vs0mg"},{"bike_id":"64d319f2-164b-4ef6-a30c-055db2ee446a","system_id":"levelo_inurba_marseille","lat":43.2407,"lon":5.37759,"is_reserved":false,"is_disabled":false,"rental_uris":{"android":"levelo://app?vid=64d319f2-164b-4ef6-a30c-055db2ee446a","ios":"levelo://app?vid=64d319f2-164b-4ef6-a30c-055db2ee446a"},"vehicle_type_id":"4","last_reported":1728896999,"current_range_meters":12400,"station_id":"ce4bhnp2rcd13ifvqgvg","pricing_plan_id":"cebpf4jnsgd1na2vs0mg"},{"bike_id":"5305c128-26e8-4602-8fb9-9cf7f4c25370","system_id":"levelo_inurba_marseille","lat":43.32527,"lon":5.41449,"is_reserved":false,"is_disabled":false,"rental_uris":{"android":"levelo://app?vid=5305c128-26e8-4602-8fb9-9cf7f4c25370","ios":"levelo://app?vid=5305c128-26e8-4602-8fb9-9cf7f4c25370"},"vehicle_type_id":"4","last_reported":1728896999,"current_range_meters":18800,"station_id":"ce4bhq12rcd13ifvqhhg","pricing_plan_id":"cebpf4jnsgd1na2vs0mg"},{"bike_id":"b42b57a2-8088-4fdd-a817-cdc570948cca","system_id":"levelo_inurba_marseille","lat":43.31339,"lon":5.36694,"is_reserved":false,"is_disabled":false,"rental_uris":{"android":"levelo://app?vid=b42b57a2-8088-4fdd-a817-cdc570948cca","ios":"levelo://app?vid=b42b57a2-8088-4fdd-a817-cdc570948cca"},"vehicle_type_id":"4","last_reported":1728896999,"current_range_meters":36800,"station_id":"ce4bgr92rcd13ifvqc6g","pricing_plan_id":"cebpf4jnsgd1na2vs0mg"},{"bike_id":"b1edb0c0-c72d-422f-981c-4a88bde5fc13","system_id":"levelo_inurba_marseille","lat":43.23152,"lon":5.43719,"is_reserved":false,"is_disabled":false,"rental_uris":{"android":"levelo://app?vid=b1edb0c0-c72d-422f-981c-4a88bde5fc13","ios":"levelo://app?vid=b1edb0c0-c72d-422f-981c-4a88bde5fc13"},"vehicle_type_id":"4","last_reported":1728896999,"current_range_meters":11600,"station_id":"ce4bhmp2rcd13ifvqgog","pricing_plan_id":"cebpf4jnsgd1na2vs0mg"},{"bike_id":"6d508978-ad86-47f0-bdcf-2db27cb28220","system_id":"levelo_inurba_marseille","lat":43.284119,"lon":5.349884,"is_reserved":false,"is_disabled":false,"rental_uris":{"android":"levelo://app?vid=6d508978-ad86-47f0-bdcf-2db27cb28220","ios":"levelo://app?vid=6d508978-ad86-47f0-bdcf-2db27cb28220"},"vehicle_type_id":"4","last_reported":1728896999,"current_range_meters":7200,"station_id":"ce4bhi12rcd13ifvqfp0","pricing_plan_id":"cebpf4jnsgd1na2vs0mg"},{"bike_id":"744d7d46-a030-452d-827a-600610e2a098","system_id":"levelo_inurba_marseille","lat":43.23185,"lon":5.3999,"is_reserved":false,"is_disabled":false,"rental_uris":{"android":"levelo://app?vid=744d7d46-a030-452d-827a-600610e2a098","ios":"levelo://app?vid=744d7d46-a030-452d-827a-600610e2a098"},"vehicle_type_id":"4","last_reported":1728896999,"current_range_meters":29600,"station_id":"ce4bhn12rcd13ifvqgqg","pricing_plan_id":"cebpf4jnsgd1na2vs0mg"},{"bike_id":"e5f91dc3-0e40-408f-8509-b0735e863443","system_id":"levelo_inurba_marseille","lat":43.29849,"lon":5.36273,"is_reserved":false,"is_disabled":false,"rental_uris":{"android":"levelo://app?vid=e5f91dc3-0e40-408f-8509-b0735e863443","ios":"levelo://app?vid=e5f91dc3-0e40-408f-8509-b0735e863443"},"vehicle_type_id":"4","last_reported":1728896999,"current_range_meters":26000,"station_id":"ce4bgpp2rcd13ifvqc3g","pricing_plan_id":"cebpf4jnsgd1na2vs0mg"},{"bike_id":"51b6344b-4119-4dd1-b9b0-9fc2d37ee30a","system_id":"levelo_inurba_marseille","lat":43.23152,"lon":5.43705,"is_reserved":false,"is_disabled":false,"rental_uris":{"android":"levelo://app?vid=51b6344b-4119-4dd1-b9b0-9fc2d37ee30a","ios":"levelo://app?vid=51b6344b-4119-4dd1-b9b0-9fc2d37ee30a"},"vehicle_type_id":"4","last_reported":1728896999,"current_range_meters":38800,"station_id":"ce4bhmp2rcd13ifvqgog","pricing_plan_id":"cebpf4jnsgd1na2vs0mg"},{"bike_id":"38734178-8e9c-4131-8f5e-63e81371c04d","system_id":"levelo_inurba_marseille","lat":43.28702,"lon":5.39972,"is_reserved":false,"is_disabled":false,"rental_uris":{"android":"levelo://app?vid=38734178-8e9c-4131-8f5e-63e81371c04d","ios":"levelo://app?vid=38734178-8e9c-4131-8f5e-63e81371c04d"},"vehicle_type_id":"4","last_reported":1728896999,"current_range_meters":32000,"station_id":"ce4bho92rcd13ifvqh3g","pricing_plan_id":"cebpf4jnsgd1na2vs0mg"},{"bike_id":"4ad9c84c-685e-4f1a-b238-9f190cafcbe4","system_id":"levelo_inurba_marseille","lat":43.30132,"lon":5.37421,"is_reserved":false,"is_disabled":false,"rental_uris":{"android":"levelo://app?vid=4ad9c84c-685e-4f1a-b238-9f190cafcbe4","ios":"levelo://app?vid=4ad9c84c-685e-4f1a-b238-9f190cafcbe4"},"vehicle_type_id":"4","last_reported":1728896999,"current_range_meters":20400,"station_id":"ce4bgs92rcd13ifvqcc0","pricing_plan_id":"cebpf4jnsgd1na2vs0mg"},{"bike_id":"b0e0e5c8-9525-466f-a475-84c2d8425be8","system_id":"levelo_inurba_marseille","lat":43.23146,"lon":5.43712,"is_reserved":false,"is_disabled":false,"rental_uris":{"android":"levelo://app?vid=b0e0e5c8-9525-466f-a475-84c2d8425be8","ios":"levelo://app?vid=b0e0e5c8-9525-466f-a475-84c2d8425be8"},"vehicle_type_id":"4","last_reported":1728896999,"current_range_meters":38800,"station_id":"ce4bhmp2rcd13ifvqgog","pricing_plan_id":"cebpf4jnsgd1na2vs0mg"},{"bike_id":"621b7c4e-8aa0-41dd-814b-66770078b276","system_id":"levelo_inurba_marseille","lat":43.33723,"lon":5.39172,"is_reserved":false,"is_disabled":false,"rental_uris":{"android":"levelo://app?vid=621b7c4e-8aa0-41dd-814b-66770078b276","ios":"levelo://app?vid=621b7c4e-8aa0-41dd-814b-66770078b276"},"vehicle_type_id":"4","last_reported":1728896999,"current_range_meters":37600,"station_id":"ce4bhr92rcd13ifvqhsg","pricing_plan_id":"cebpf4jnsgd1na2vs0mg"},{"bike_id":"2134320a-afe2-4859-bf45-5f050b5d237e","system_id":"levelo_inurba_marseille","lat":43.295414,"lon":5.390455,"is_reserved":false,"is_disabled":false,"rental_uris":{"android":"levelo://app?vid=2134320a-afe2-4859-bf45-5f050b5d237e","ios":"levelo://app?vid=2134320a-afe2-4859-bf45-5f050b5d237e"},"vehicle_type_id":"4","last_reported":1728896999,"current_range_meters":2800,"station_id":"ce4bgs12rcd13ifvqcag","pricing_plan_id":"cebpf4jnsgd1na2vs0mg"},{"bike_id":"9179b9a3-77b3-4222-b362-00f55b08d675","system_id":"levelo_inurba_marseille","lat":43.28935,"lon":5.36638,"is_reserved":false,"is_disabled":false,"rental_uris":{"android":"levelo://app?vid=9179b9a3-77b3-4222-b362-00f55b08d675","ios":"levelo://app?vid=9179b9a3-77b3-4222-b362-00f55b08d675"},"vehicle_type_id":"4","last_reported":1728896999,"current_range_meters":27600,"station_id":"ce4bhap2rcd13ifvqek0","pricing_plan_id":"cebpf4jnsgd1na2vs0mg"},{"bike_id":"845804fa-aebf-466f-ae57-df292c2b342f","system_id":"levelo_inurba_marseille","lat":43.31353,"lon":5.36706,"is_reserved":false,"is_disabled":false,"rental_uris":{"android":"levelo://app?vid=845804fa-aebf-466f-ae57-df292c2b342f","ios":"levelo://app?vid=845804fa-aebf-466f-ae57-df292c2b342f"},"vehicle_type_id":"4","last_reported":1728896999,"current_range_meters":24400,"station_id":"ce4bgr92rcd13ifvqc6g","pricing_plan_id":"cebpf4jnsgd1na2vs0mg"},{"bike_id":"b5b12362-82ed-4ca4-b7a8-d1f8df5fb78a","system_id":"levelo_inurba_marseille","lat":43.29785,"lon":5.37103,"is_reserved":false,"is_disabled":false,"rental_uris":{"android":"levelo://app?vid=b5b12362-82ed-4ca4-b7a8-d1f8df5fb78a","ios":"levelo://app?vid=b5b12362-82ed-4ca4-b7a8-d1f8df5fb78a"},"vehicle_type_id":"4","last_reported":1728896999,"current_range_meters":17600,"station_id":"ce4bgop2rcd13ifvqc1g","pricing_plan_id":"cebpf4jnsgd1na2vs0mg"},{"bike_id":"d64c76a9-b37d-4857-b09f-918a8d971621","system_id":"levelo_inurba_marseille","lat":43.25929,"lon":5.40901,"is_reserved":false,"is_disabled":false,"rental_uris":{"android":"levelo://app?vid=d64c76a9-b37d-4857-b09f-918a8d971621","ios":"levelo://app?vid=d64c76a9-b37d-4857-b09f-918a8d971621"},"vehicle_type_id":"4","last_reported":1728896999,"current_range_meters":30000,"station_id":"ce4bhm92rcd13ifvqglg","pricing_plan_id":"cebpf4jnsgd1na2vs0mg"},{"bike_id":"ef426c6b-ec60-486f-ab53-17beaa54bb57","system_id":"levelo_inurba_marseille","lat":43.30295,"lon":5.36896,"is_reserved":false,"is_disabled":false,"rental_uris":{"android":"levelo://app?vid=ef426c6b-ec60-486f-ab53-17beaa54bb57","ios":"levelo://app?vid=ef426c6b-ec60-486f-ab53-17beaa54bb57"},"vehicle_type_id":"4","last_reported":1728896999,"current_range_meters":39200,"station_id":"ce4bgqh2rcd13ifvqc5g","pricing_plan_id":"cebpf4jnsgd1na2vs0mg"},{"bike_id":"06304739-6c70-454a-bd9f-9067160cb69e","system_id":"levelo_inurba_marseille","lat":43.30143,"lon":5.3742,"is_reserved":false,"is_disabled":false,"rental_uris":{"android":"levelo://app?vid=06304739-6c70-454a-bd9f-9067160cb69e","ios":"levelo://app?vid=06304739-6c70-454a-bd9f-9067160cb69e"},"vehicle_type_id":"4","last_reported":1728896999,"current_range_meters":24800,"station_id":"ce4bgs92rcd13ifvqcc0","pricing_plan_id":"cebpf4jnsgd1na2vs0mg"},{"bike_id":"e084f833-022f-4cea-bf4e-fc335d17dd46","system_id":"levelo_inurba_marseille","lat":43.30539,"lon":5.36547,"is_reserved":false,"is_disabled":false,"rental_uris":{"android":"levelo://app?vid=e084f833-022f-4cea-bf4e-fc335d17dd46","ios":"levelo://app?vid=e084f833-022f-4cea-bf4e-fc335d17dd46"},"vehicle_type_id":"4","last_reported":1728896999,"current_range_meters":35600,"station_id":"ce4bgs12rcd13ifvqcag","pricing_plan_id":"cebpf4jnsgd1na2vs0mg"},{"bike_id":"a07b6a56-5896-40dc-8808-e8d13409c4c1","system_id":"levelo_inurba_marseille","lat":43.30553,"lon":5.36528,"is_reserved":false,"is_disabled":false,"rental_uris":{"android":"levelo://app?vid=a07b6a56-5896-40dc-8808-e8d13409c4c1","ios":"levelo://app?vid=a07b6a56-5896-40dc-8808-e8d13409c4c1"},"vehicle_type_id":"4","last_reported":1728896999,"current_range_meters":8800,"station_id":"ce4bgs12rcd13ifvqcag","pricing_plan_id":"cebpf4jnsgd1na2vs0mg"},{"bike_id":"12f7ce8b-504e-42b9-86bd-1eb3048f0e4f","system_id":"levelo_inurba_marseille","lat":43.30158,"lon":5.38079,"is_reserved":false,"is_disabled":false,"rental_uris":{"android":"levelo://app?vid=12f7ce8b-504e-42b9-86bd-1eb3048f0e4f","ios":"levelo://app?vid=12f7ce8b-504e-42b9-86bd-1eb3048f0e4f"},"vehicle_type_id":"4","last_reported":1728896999,"current_range_meters":30800,"station_id":"ce4bgjp2rcd13ifvqbh0","pricing_plan_id":"cebpf4jnsgd1na2vs0mg"},{"bike_id":"f12908d0-ba3c-4c85-8ac2-b2356c599b6e","system_id":"levelo_inurba_marseille","lat":43.24648,"lon":5.38893,"is_reserved":false,"is_disabled":false,"rental_uris":{"android":"levelo://app?vid=f12908d0-ba3c-4c85-8ac2-b2356c599b6e","ios":"levelo://app?vid=f12908d0-ba3c-4c85-8ac2-b2356c599b6e"},"vehicle_type_id":"4","last_reported":1728896999,"current_range_meters":39200,"station_id":"ce4bhg12rcd13ifvqf60","pricing_plan_id":"cebpf4jnsgd1na2vs0mg"},{"bike_id":"b607a881-1656-4ea2-9f9a-59482023e9a5","system_id":"levelo_inurba_marseille","lat":43.3133,"lon":5.36702,"is_reserved":false,"is_disabled":false,"rental_uris":{"android":"levelo://app?vid=b607a881-1656-4ea2-9f9a-59482023e9a5","ios":"levelo://app?vid=b607a881-1656-4ea2-9f9a-59482023e9a5"},"vehicle_type_id":"4","last_reported":1728896999,"current_range_meters":38800,"station_id":"ce4bgr92rcd13ifvqc6g","pricing_plan_id":"cebpf4jnsgd1na2vs0mg"},{"bike_id":"c547f67a-fe38-4576-abfb-4f757228e69d","system_id":"levelo_inurba_marseille","lat":43.28652,"lon":5.36361,"is_reserved":false,"is_disabled":false,"rental_uris":{"android":"levelo://app?vid=c547f67a-fe38-4576-abfb-4f757228e69d","ios":"levelo://app?vid=c547f67a-fe38-4576-abfb-4f757228e69d"},"vehicle_type_id":"4","last_reported":1728896999,"current_range_meters":25200,"station_id":"ce4bhah2rcd13ifvqej0","pricing_plan_id":"cebpf4jnsgd1na2vs0mg"},{"bike_id":"dfaf032e-4a53-4b47-a8b7-aef4208e9aa5","system_id":"levelo_inurba_marseille","lat":43.30188,"lon":5.36616,"is_reserved":false,"is_disabled":false,"rental_uris":{"android":"levelo://app?vid=dfaf032e-4a53-4b47-a8b7-aef4208e9aa5","ios":"levelo://app?vid=dfaf032e-4a53-4b47-a8b7-aef4208e9aa5"},"vehicle_type_id":"4","last_reported":1728896999,"current_range_meters":30800,"station_id":"ce4bgrh2rcd13ifvqc8g","pricing_plan_id":"cebpf4jnsgd1na2vs0mg"},{"bike_id":"6d45e2e1-f520-4d39-b919-7453d5eb68a9","system_id":"levelo_inurba_marseille","lat":43.3014,"lon":5.37406,"is_reserved":false,"is_disabled":false,"rental_uris":{"android":"levelo://app?vid=6d45e2e1-f520-4d39-b919-7453d5eb68a9","ios":"levelo://app?vid=6d45e2e1-f520-4d39-b919-7453d5eb68a9"},"vehicle_type_id":"4","last_reported":1728896999,"current_range_meters":23200,"station_id":"ce4bgs92rcd13ifvqcc0","pricing_plan_id":"cebpf4jnsgd1na2vs0mg"},{"bike_id":"dd0a9386-9a6f-4d7b-9b00-db6fca373c59","system_id":"levelo_inurba_marseille","lat":43.29568,"lon":5.39969,"is_reserved":false,"is_disabled":false,"rental_uris":{"android":"levelo://app?vid=dd0a9386-9a6f-4d7b-9b00-db6fca373c59","ios":"levelo://app?vid=dd0a9386-9a6f-4d7b-9b00-db6fca373c59"},"vehicle_type_id":"4","last_reported":1728896999,"current_range_meters":35600,"station_id":"ce4bh312rcd13ifvqdj0","pricing_plan_id":"cebpf4jnsgd1na2vs0mg"},{"bike_id":"ce15096a-034f-4a1e-8e59-441745631fbe","system_id":"levelo_inurba_marseille","lat":43.25857,"lon":5.39905,"is_reserved":false,"is_disabled":false,"rental_uris":{"android":"levelo://app?vid=ce15096a-034f-4a1e-8e59-441745631fbe","ios":"levelo://app?vid=ce15096a-034f-4a1e-8e59-441745631fbe"},"vehicle_type_id":"4","last_reported":1728896999,"current_range_meters":36000,"station_id":"ce4bhl92rcd13ifvqghg","pricing_plan_id":"cebpf4jnsgd1na2vs0mg"},{"bike_id":"ad9c5125-2869-46bb-aaef-342aebc9bc00","system_id":"levelo_inurba_marseille","lat":43.31109,"lon":5.38064,"is_reserved":false,"is_disabled":false,"rental_uris":{"android":"levelo://app?vid=ad9c5125-2869-46bb-aaef-342aebc9bc00","ios":"levelo://app?vid=ad9c5125-2869-46bb-aaef-342aebc9bc00"},"vehicle_type_id":"4","last_reported":1728896999,"current_range_meters":20400,"station_id":"ce4bgt92rcd13ifvqcf0","pricing_plan_id":"cebpf4jnsgd1na2vs0mg"},{"bike_id":"3f26715f-c82a-46e8-8b0e-15523624ffc7","system_id":"levelo_inurba_marseille","lat":43.23194,"lon":5.3555,"is_reserved":false,"is_disabled":false,"rental_uris":{"android":"levelo://app?vid=3f26715f-c82a-46e8-8b0e-15523624ffc7","ios":"levelo://app?vid=3f26715f-c82a-46e8-8b0e-15523624ffc7"},"vehicle_type_id":"4","last_reported":1728896999,"current_range_meters":8400,"station_id":"ce4bhu92rcd13ifvqi70","pricing_plan_id":"cebpf4jnsgd1na2vs0mg"},{"bike_id":"38a41a3f-6e56-4eb4-a7fd-256765f769ee","system_id":"levelo_inurba_marseille","lat":43.24647,"lon":5.38896,"is_reserved":false,"is_disabled":false,"rental_uris":{"android":"levelo://app?vid=38a41a3f-6e56-4eb4-a7fd-256765f769ee","ios":"levelo://app?vid=38a41a3f-6e56-4eb4-a7fd-256765f769ee"},"vehicle_type_id":"4","last_reported":1728896999,"current_range_meters":36000,"station_id":"ce4bhg12rcd13ifvqf60","pricing_plan_id":"cebpf4jnsgd1na2vs0mg"},{"bike_id":"69563718-4bc2-40ef-855e-a5d3318b6758","system_id":"levelo_inurba_marseille","lat":43.28148,"lon":5.42638,"is_reserved":false,"is_disabled":false,"rental_uris":{"android":"levelo://app?vid=69563718-4bc2-40ef-855e-a5d3318b6758","ios":"levelo://app?vid=69563718-4bc2-40ef-855e-a5d3318b6758"},"vehicle_type_id":"4","last_reported":1728896999,"current_range_meters":38800,"station_id":"ce4bhnh2rcd13ifvqgug","pricing_plan_id":"cebpf4jnsgd1na2vs0mg"},{"bike_id":"91bf7418-d30b-4703-8999-0f5cc334e406","system_id":"levelo_inurba_marseille","lat":43.261973,"lon":5.404469,"is_reserved":false,"is_disabled":false,"rental_uris":{"android":"levelo://app?vid=91bf7418-d30b-4703-8999-0f5cc334e406","ios":"levelo://app?vid=91bf7418-d30b-4703-8999-0f5cc334e406"},"vehicle_type_id":"4","last_reported":1728896999,"current_range_meters":6400,"station_id":"","pricing_plan_id":"cebpf4jnsgd1na2vs0mg"},{"bike_id":"73fcf341-edad-4809-8cdd-99d3d0c24a86","system_id":"levelo_inurba_marseille","lat":43.2668,"lon":5.38271,"is_reserved":false,"is_disabled":false,"rental_uris":{"android":"levelo://app?vid=73fcf341-edad-4809-8cdd-99d3d0c24a86","ios":"levelo://app?vid=73fcf341-edad-4809-8cdd-99d3d0c24a86"},"vehicle_type_id":"4","last_reported":1728896999,"current_range_meters":2000,"station_id":"ce4bhg92rcd13ifvqf90","pricing_plan_id":"cebpf4jnsgd1na2vs0mg"},{"bike_id":"bc4fad8c-9618-4470-8df4-98cd5ecfa994","system_id":"levelo_inurba_marseille","lat":43.31345,"lon":5.36707,"is_reserved":false,"is_disabled":false,"rental_uris":{"android":"levelo://app?vid=bc4fad8c-9618-4470-8df4-98cd5ecfa994","ios":"levelo://app?vid=bc4fad8c-9618-4470-8df4-98cd5ecfa994"},"vehicle_type_id":"4","last_reported":1728896999,"current_range_meters":16800,"station_id":"ce4bgr92rcd13ifvqc6g","pricing_plan_id":"cebpf4jnsgd1na2vs0mg"},{"bike_id":"7d77f729-90ca-4a5e-9ca6-88301f21e21e","system_id":"levelo_inurba_marseille","lat":43.30534,"lon":5.36544,"is_reserved":false,"is_disabled":false,"rental_uris":{"android":"levelo://app?vid=7d77f729-90ca-4a5e-9ca6-88301f21e21e","ios":"levelo://app?vid=7d77f729-90ca-4a5e-9ca6-88301f21e21e"},"vehicle_type_id":"4","last_reported":1728896999,"current_range_meters":36000,"station_id":"ce4bgs12rcd13ifvqcag","pricing_plan_id":"cebpf4jnsgd1na2vs0mg"},{"bike_id":"1bd954b5-82cc-4ed8-81c9-6fee4b9e034c","system_id":"levelo_inurba_marseille","lat":43.30138,"lon":5.38105,"is_reserved":false,"is_disabled":false,"rental_uris":{"android":"levelo://app?vid=1bd954b5-82cc-4ed8-81c9-6fee4b9e034c","ios":"levelo://app?vid=1bd954b5-82cc-4ed8-81c9-6fee4b9e034c"},"vehicle_type_id":"4","last_reported":1728896999,"current_range_meters":37600,"station_id":"ce4bgjp2rcd13ifvqbh0","pricing_plan_id":"cebpf4jnsgd1na2vs0mg"},{"bike_id":"ef444115-2587-4340-a973-6142f7ab8dd0","system_id":"levelo_inurba_marseille","lat":43.25119,"lon":5.40314,"is_reserved":false,"is_disabled":false,"rental_uris":{"android":"levelo://app?vid=ef444115-2587-4340-a973-6142f7ab8dd0","ios":"levelo://app?vid=ef444115-2587-4340-a973-6142f7ab8dd0"},"vehicle_type_id":"4","last_reported":1728896999,"current_range_meters":38000,"station_id":"ce4bhlh2rcd13ifvqgig","pricing_plan_id":"cebpf4jnsgd1na2vs0mg"},{"bike_id":"30fea2ba-99ec-4986-8377-a409a9dfcd9f","system_id":"levelo_inurba_marseille","lat":43.23147,"lon":5.43714,"is_reserved":false,"is_disabled":false,"rental_uris":{"android":"levelo://app?vid=30fea2ba-99ec-4986-8377-a409a9dfcd9f","ios":"levelo://app?vid=30fea2ba-99ec-4986-8377-a409a9dfcd9f"},"vehicle_type_id":"4","last_reported":1728896999,"current_range_meters":9600,"station_id":"ce4bhmp2rcd13ifvqgog","pricing_plan_id":"cebpf4jnsgd1na2vs0mg"},{"bike_id":"cf3da4d6-824a-46a6-b865-ab6e77b247b9","system_id":"levelo_inurba_marseille","lat":43.30143,"lon":5.37414,"is_reserved":false,"is_disabled":false,"rental_uris":{"android":"levelo://app?vid=cf3da4d6-824a-46a6-b865-ab6e77b247b9","ios":"levelo://app?vid=cf3da4d6-824a-46a6-b865-ab6e77b247b9"},"vehicle_type_id":"4","last_reported":1728896999,"current_range_meters":38800,"station_id":"ce4bgs92rcd13ifvqcc0","pricing_plan_id":"cebpf4jnsgd1na2vs0mg"},{"bike_id":"11702197-bd9c-4164-8c2e-badf381d0ff3","system_id":"levelo_inurba_marseille","lat":43.337613,"lon":5.374527,"is_reserved":false,"is_disabled":false,"rental_uris":{"android":"levelo://app?vid=11702197-bd9c-4164-8c2e-badf381d0ff3","ios":"levelo://app?vid=11702197-bd9c-4164-8c2e-badf381d0ff3"},"vehicle_type_id":"4","last_reported":1728896999,"current_range_meters":38800,"station_id":"","pricing_plan_id":"cebpf4jnsgd1na2vs0mg"},{"bike_id":"5ae6444a-8fd0-4022-8378-f9e3a29a7aad","system_id":"levelo_inurba_marseille","lat":43.23155,"lon":5.43725,"is_reserved":false,"is_disabled":false,"rental_uris":{"android":"levelo://app?vid=5ae6444a-8fd0-4022-8378-f9e3a29a7aad","ios":"levelo://app?vid=5ae6444a-8fd0-4022-8378-f9e3a29a7aad"},"vehicle_type_id":"4","last_reported":1728896999,"current_range_meters":30400,"station_id":"ce4bhmp2rcd13ifvqgog","pricing_plan_id":"cebpf4jnsgd1na2vs0mg"},{"bike_id":"4d66aab8-1943-43aa-aa5d-e9d772bdf2bd","system_id":"levelo_inurba_marseille","lat":43.24385,"lon":5.37049,"is_reserved":false,"is_disabled":false,"rental_uris":{"android":"levelo://app?vid=4d66aab8-1943-43aa-aa5d-e9d772bdf2bd","ios":"levelo://app?vid=4d66aab8-1943-43aa-aa5d-e9d772bdf2bd"},"vehicle_type_id":"4","last_reported":1728896999,"current_range_meters":33200,"station_id":"ce4bhhh2rcd13ifvqfk0","pricing_plan_id":"cebpf4jnsgd1na2vs0mg"},{"bike_id":"01f304e1-50a7-4aaa-b3a4-945379252092","system_id":"levelo_inurba_marseille","lat":43.23959,"lon":5.36642,"is_reserved":false,"is_disabled":false,"rental_uris":{"android":"levelo://app?vid=01f304e1-50a7-4aaa-b3a4-945379252092","ios":"levelo://app?vid=01f304e1-50a7-4aaa-b3a4-945379252092"},"vehicle_type_id":"4","last_reported":1728896999,"current_range_meters":26000,"station_id":"ce4bhi12rcd13ifvqfp0","pricing_plan_id":"cebpf4jnsgd1na2vs0mg"},{"bike_id":"dee3f50f-c93b-45b4-8e4a-dbdb45f55e9d","system_id":"levelo_inurba_marseille","lat":43.29552,"lon":5.42279,"is_reserved":false,"is_disabled":false,"rental_uris":{"android":"levelo://app?vid=dee3f50f-c93b-45b4-8e4a-dbdb45f55e9d","ios":"levelo://app?vid=dee3f50f-c93b-45b4-8e4a-dbdb45f55e9d"},"vehicle_type_id":"4","last_reported":1728896999,"current_range_meters":9600,"station_id":"ce4bhph2rcd13ifvqhdg","pricing_plan_id":"cebpf4jnsgd1na2vs0mg"},{"bike_id":"4028ca6a-8032-412a-b69c-cb37e429838c","system_id":"levelo_inurba_marseille","lat":43.30142,"lon":5.37409,"is_reserved":false,"is_disabled":false,"rental_uris":{"android":"levelo://app?vid=4028ca6a-8032-412a-b69c-cb37e429838c","ios":"levelo://app?vid=4028ca6a-8032-412a-b69c-cb37e429838c"},"vehicle_type_id":"4","last_reported":1728896999,"current_range_meters":14400,"station_id":"ce4bgs92rcd13ifvqcc0","pricing_plan_id":"cebpf4jnsgd1na2vs0mg"},{"bike_id":"ad9d520b-2f12-4b07-b7a8-4789bcdc9bd8","system_id":"levelo_inurba_marseille","lat":43.3014,"lon":5.38086,"is_reserved":false,"is_disabled":false,"rental_uris":{"android":"levelo://app?vid=ad9d520b-2f12-4b07-b7a8-4789bcdc9bd8","ios":"levelo://app?vid=ad9d520b-2f12-4b07-b7a8-4789bcdc9bd8"},"vehicle_type_id":"4","last_reported":1728896999,"current_range_meters":24800,"station_id":"ce4bgjp2rcd13ifvqbh0","pricing_plan_id":"cebpf4jnsgd1na2vs0mg"},{"bike_id":"1cf9c25a-76c8-45d9-b14c-8c61958763f5","system_id":"levelo_inurba_marseille","lat":43.24661,"lon":5.38163,"is_reserved":false,"is_disabled":false,"rental_uris":{"android":"levelo://app?vid=1cf9c25a-76c8-45d9-b14c-8c61958763f5","ios":"levelo://app?vid=1cf9c25a-76c8-45d9-b14c-8c61958763f5"},"vehicle_type_id":"4","last_reported":1728896999,"current_range_meters":24000,"station_id":"ce4bhih2rcd13ifvqfr0","pricing_plan_id":"cebpf4jnsgd1na2vs0mg"},{"bike_id":"402e2b18-2493-4b09-a5dd-0f549fefaf7a","system_id":"levelo_inurba_marseille","lat":43.24162,"lon":5.364,"is_reserved":false,"is_disabled":false,"rental_uris":{"android":"levelo://app?vid=402e2b18-2493-4b09-a5dd-0f549fefaf7a","ios":"levelo://app?vid=402e2b18-2493-4b09-a5dd-0f549fefaf7a"},"vehicle_type_id":"4","last_reported":1728896999,"current_range_meters":38000,"station_id":"cpo36qri1sfpv3e86is0","pricing_plan_id":"cebpf4jnsgd1na2vs0mg"},{"bike_id":"54ebf3b7-7fb8-4989-b704-201ba53748d0","system_id":"levelo_inurba_marseille","lat":43.28713,"lon":5.37938,"is_reserved":false,"is_disabled":false,"rental_uris":{"android":"levelo://app?vid=54ebf3b7-7fb8-4989-b704-201ba53748d0","ios":"levelo://app?vid=54ebf3b7-7fb8-4989-b704-201ba53748d0"},"vehicle_type_id":"4","last_reported":1728896999,"current_range_meters":32400,"station_id":"ce4bh9p2rcd13ifvqec0","pricing_plan_id":"cebpf4jnsgd1na2vs0mg"},{"bike_id":"aac457a4-9103-424d-9bf7-79cdc9fa81f4","system_id":"levelo_inurba_marseille","lat":43.29854,"lon":5.39735,"is_reserved":false,"is_disabled":false,"rental_uris":{"android":"levelo://app?vid=aac457a4-9103-424d-9bf7-79cdc9fa81f4","ios":"levelo://app?vid=aac457a4-9103-424d-9bf7-79cdc9fa81f4"},"vehicle_type_id":"4","last_reported":1728896999,"current_range_meters":15200,"station_id":"ce4bh0h2rcd13ifvqd50","pricing_plan_id":"cebpf4jnsgd1na2vs0mg"},{"bike_id":"19b1d78e-a9a1-406a-824a-ba0dc0242570","system_id":"levelo_inurba_marseille","lat":43.27938,"lon":5.41048,"is_reserved":false,"is_disabled":false,"rental_uris":{"android":"levelo://app?vid=19b1d78e-a9a1-406a-824a-ba0dc0242570","ios":"levelo://app?vid=19b1d78e-a9a1-406a-824a-ba0dc0242570"},"vehicle_type_id":"4","last_reported":1728896999,"current_range_meters":27600,"station_id":"ce4bhnp2rcd13ifvqh0g","pricing_plan_id":"cebpf4jnsgd1na2vs0mg"},{"bike_id":"d8a5ada8-5849-431a-a869-d042f252d905","system_id":"levelo_inurba_marseille","lat":43.23192,"lon":5.35554,"is_reserved":false,"is_disabled":false,"rental_uris":{"android":"levelo://app?vid=d8a5ada8-5849-431a-a869-d042f252d905","ios":"levelo://app?vid=d8a5ada8-5849-431a-a869-d042f252d905"},"vehicle_type_id":"4","last_reported":1728896999,"current_range_meters":26800,"station_id":"ce4bhu92rcd13ifvqi70","pricing_plan_id":"cebpf4jnsgd1na2vs0mg"},{"bike_id":"e668d093-cc04-4c4d-bc87-fcc032bff640","system_id":"levelo_inurba_marseille","lat":43.29909,"lon":5.38148,"is_reserved":false,"is_disabled":false,"rental_uris":{"android":"levelo://app?vid=e668d093-cc04-4c4d-bc87-fcc032bff640","ios":"levelo://app?vid=e668d093-cc04-4c4d-bc87-fcc032bff640"},"vehicle_type_id":"4","last_reported":1728896999,"current_range_meters":28800,"station_id":"ce4bgj12rcd13ifvqbc0","pricing_plan_id":"cebpf4jnsgd1na2vs0mg"},{"bike_id":"5bc9b78b-9615-45c0-a888-79c429dfa74a","system_id":"levelo_inurba_marseille","lat":43.33728,"lon":5.39188,"is_reserved":false,"is_disabled":false,"rental_uris":{"android":"levelo://app?vid=5bc9b78b-9615-45c0-a888-79c429dfa74a","ios":"levelo://app?vid=5bc9b78b-9615-45c0-a888-79c429dfa74a"},"vehicle_type_id":"4","last_reported":1728896999,"current_range_meters":11600,"station_id":"ce4bhr92rcd13ifvqhsg","pricing_plan_id":"cebpf4jnsgd1na2vs0mg"},{"bike_id":"d78c27bf-97c1-420b-82fb-48ca2bea5d28","system_id":"levelo_inurba_marseille","lat":43.26195,"lon":5.37931,"is_reserved":false,"is_disabled":false,"rental_uris":{"android":"levelo://app?vid=d78c27bf-97c1-420b-82fb-48ca2bea5d28","ios":"levelo://app?vid=d78c27bf-97c1-420b-82fb-48ca2bea5d28"},"vehicle_type_id":"4","last_reported":1728896999,"current_range_meters":39200,"station_id":"ce4bhjp2rcd13ifvqg90","pricing_plan_id":"cebpf4jnsgd1na2vs0mg"},{"bike_id":"16d5cbbd-ad3e-48f2-a799-0fc0e816c531","system_id":"levelo_inurba_marseille","lat":43.28704,"lon":5.39995,"is_reserved":false,"is_disabled":false,"rental_uris":{"android":"levelo://app?vid=16d5cbbd-ad3e-48f2-a799-0fc0e816c531","ios":"levelo://app?vid=16d5cbbd-ad3e-48f2-a799-0fc0e816c531"},"vehicle_type_id":"4","last_reported":1728896999,"current_range_meters":19200,"station_id":"ce4bho92rcd13ifvqh3g","pricing_plan_id":"cebpf4jnsgd1na2vs0mg"},{"bike_id":"e9cd6079-1c3a-43ef-9587-d665dd997e8d","system_id":"levelo_inurba_marseille","lat":43.27175,"lon":5.40987,"is_reserved":false,"is_disabled":false,"rental_uris":{"android":"levelo://app?vid=e9cd6079-1c3a-43ef-9587-d665dd997e8d","ios":"levelo://app?vid=e9cd6079-1c3a-43ef-9587-d665dd997e8d"},"vehicle_type_id":"4","last_reported":1728896999,"current_range_meters":25200,"station_id":"ce4bhl12rcd13ifvqgf0","pricing_plan_id":"cebpf4jnsgd1na2vs0mg"},{"bike_id":"ab7f5af8-cb0c-45d6-b50a-c0534953c58a","system_id":"levelo_inurba_marseille","lat":43.26481,"lon":5.39549,"is_reserved":false,"is_disabled":false,"rental_uris":{"android":"levelo://app?vid=ab7f5af8-cb0c-45d6-b50a-c0534953c58a","ios":"levelo://app?vid=ab7f5af8-cb0c-45d6-b50a-c0534953c58a"},"vehicle_type_id":"4","last_reported":1728896999,"current_range_meters":38800,"station_id":"ce4bhi12rcd13ifvqfq0","pricing_plan_id":"cebpf4jnsgd1na2vs0mg"},{"bike_id":"25072dda-d1e9-4bf9-be16-aba821cf4d45","system_id":"levelo_inurba_marseille","lat":43.29793,"lon":5.38102,"is_reserved":false,"is_disabled":false,"rental_uris":{"android":"levelo://app?vid=25072dda-d1e9-4bf9-be16-aba821cf4d45","ios":"levelo://app?vid=25072dda-d1e9-4bf9-be16-aba821cf4d45"},"vehicle_type_id":"4","last_reported":1728896999,"current_range_meters":20400,"station_id":"ce4bgip2rcd13ifvqbb0","pricing_plan_id":"cebpf4jnsgd1na2vs0mg"},{"bike_id":"199fe7c1-8636-4300-8bcd-0d660239ac5f","system_id":"levelo_inurba_marseille","lat":43.24655,"lon":5.38887,"is_reserved":false,"is_disabled":false,"rental_uris":{"android":"levelo://app?vid=199fe7c1-8636-4300-8bcd-0d660239ac5f","ios":"levelo://app?vid=199fe7c1-8636-4300-8bcd-0d660239ac5f"},"vehicle_type_id":"4","last_reported":1728896999,"current_range_meters":24000,"station_id":"ce4bhg12rcd13ifvqf60","pricing_plan_id":"cebpf4jnsgd1na2vs0mg"},{"bike_id":"33c8cb8f-4d93-4ca1-b394-19ac08e7af57","system_id":"levelo_inurba_marseille","lat":43.26208,"lon":5.37445,"is_reserved":false,"is_disabled":false,"rental_uris":{"android":"levelo://app?vid=33c8cb8f-4d93-4ca1-b394-19ac08e7af57","ios":"levelo://app?vid=33c8cb8f-4d93-4ca1-b394-19ac08e7af57"},"vehicle_type_id":"4","last_reported":1728896999,"current_range_meters":35200,"station_id":"ce4bhgp2rcd13ifvqfc0","pricing_plan_id":"cebpf4jnsgd1na2vs0mg"},{"bike_id":"8c7b4b41-8167-4268-a5d8-80e0057c055d","system_id":"levelo_inurba_marseille","lat":43.29516,"lon":5.39409,"is_reserved":false,"is_disabled":false,"rental_uris":{"android":"levelo://app?vid=8c7b4b41-8167-4268-a5d8-80e0057c055d","ios":"levelo://app?vid=8c7b4b41-8167-4268-a5d8-80e0057c055d"},"vehicle_type_id":"4","last_reported":1728896999,"current_range_meters":39200,"station_id":"ce4bh292rcd13ifvqdf0","pricing_plan_id":"cebpf4jnsgd1na2vs0mg"},{"bike_id":"8e79ae3e-178d-4e39-bcf5-6669ebf576d6","system_id":"levelo_inurba_marseille","lat":43.29575,"lon":5.37509,"is_reserved":false,"is_disabled":false,"rental_uris":{"android":"levelo://app?vid=8e79ae3e-178d-4e39-bcf5-6669ebf576d6","ios":"levelo://app?vid=8e79ae3e-178d-4e39-bcf5-6669ebf576d6"},"vehicle_type_id":"4","last_reported":1728896999,"current_range_meters":11200,"station_id":"ce4bgh92rcd13ifvqb50","pricing_plan_id":"cebpf4jnsgd1na2vs0mg"},{"bike_id":"b886bb1b-f358-4f22-a28d-ebbc4ebb43f8","system_id":"levelo_inurba_marseille","lat":43.26485,"lon":5.3955,"is_reserved":false,"is_disabled":false,"rental_uris":{"android":"levelo://app?vid=b886bb1b-f358-4f22-a28d-ebbc4ebb43f8","ios":"levelo://app?vid=b886bb1b-f358-4f22-a28d-ebbc4ebb43f8"},"vehicle_type_id":"4","last_reported":1728896999,"current_range_meters":7200,"station_id":"ce4bhi12rcd13ifvqfq0","pricing_plan_id":"cebpf4jnsgd1na2vs0mg"},{"bike_id":"07472fa7-3474-4053-8c53-c6348132e5cd","system_id":"levelo_inurba_marseille","lat":43.30305,"lon":5.39208,"is_reserved":false,"is_disabled":false,"rental_uris":{"android":"levelo://app?vid=07472fa7-3474-4053-8c53-c6348132e5cd","ios":"levelo://app?vid=07472fa7-3474-4053-8c53-c6348132e5cd"},"vehicle_type_id":"4","last_reported":1728896999,"current_range_meters":32000,"station_id":"ce4bgkh2rcd13ifvqbk0","pricing_plan_id":"cebpf4jnsgd1na2vs0mg"},{"bike_id":"dc5f317f-b2d0-4a32-9392-ed507e0764b4","system_id":"levelo_inurba_marseille","lat":43.28603,"lon":5.37063,"is_reserved":false,"is_disabled":false,"rental_uris":{"android":"levelo://app?vid=dc5f317f-b2d0-4a32-9392-ed507e0764b4","ios":"levelo://app?vid=dc5f317f-b2d0-4a32-9392-ed507e0764b4"},"vehicle_type_id":"4","last_reported":1728896999,"current_range_meters":32000,"station_id":"ce4bht12rcd13ifvqi60","pricing_plan_id":"cebpf4jnsgd1na2vs0mg"},{"bike_id":"d79b8e32-1629-4e68-b9e1-a2658a2be07f","system_id":"levelo_inurba_marseille","lat":43.26059,"lon":5.39396,"is_reserved":false,"is_disabled":false,"rental_uris":{"android":"levelo://app?vid=d79b8e32-1629-4e68-b9e1-a2658a2be07f","ios":"levelo://app?vid=d79b8e32-1629-4e68-b9e1-a2658a2be07f"},"vehicle_type_id":"4","last_reported":1728896999,"current_range_meters":36800,"station_id":"ce4bhh92rcd13ifvqfj0","pricing_plan_id":"cebpf4jnsgd1na2vs0mg"},{"bike_id":"e006dcd6-47bc-440b-8565-6b66837a5f2f","system_id":"levelo_inurba_marseille","lat":43.3046,"lon":5.37911,"is_reserved":false,"is_disabled":false,"rental_uris":{"android":"levelo://app?vid=e006dcd6-47bc-440b-8565-6b66837a5f2f","ios":"levelo://app?vid=e006dcd6-47bc-440b-8565-6b66837a5f2f"},"vehicle_type_id":"4","last_reported":1728896999,"current_range_meters":28800,"station_id":"ce4bgup2rcd13ifvqcn0","pricing_plan_id":"cebpf4jnsgd1na2vs0mg"},{"bike_id":"4a45a353-79a4-41a8-bac9-e9223aef720d","system_id":"levelo_inurba_marseille","lat":43.30189,"lon":5.36616,"is_reserved":false,"is_disabled":false,"rental_uris":{"android":"levelo://app?vid=4a45a353-79a4-41a8-bac9-e9223aef720d","ios":"levelo://app?vid=4a45a353-79a4-41a8-bac9-e9223aef720d"},"vehicle_type_id":"4","last_reported":1728896999,"current_range_meters":27600,"station_id":"ce4bgrh2rcd13ifvqc8g","pricing_plan_id":"cebpf4jnsgd1na2vs0mg"},{"bike_id":"c1ca72c9-8ae9-42dd-9545-5654ec5a5994","system_id":"levelo_inurba_marseille","lat":43.29292,"lon":5.40109,"is_reserved":false,"is_disabled":false,"rental_uris":{"android":"levelo://app?vid=c1ca72c9-8ae9-42dd-9545-5654ec5a5994","ios":"levelo://app?vid=c1ca72c9-8ae9-42dd-9545-5654ec5a5994"},"vehicle_type_id":"4","last_reported":1728896999,"current_range_meters":13600,"station_id":"ce4bh312rcd13ifvqdk0","pricing_plan_id":"cebpf4jnsgd1na2vs0mg"},{"bike_id":"71f1a7a7-6772-4303-87a3-a8fed48ceb7f","system_id":"levelo_inurba_marseille","lat":43.30413,"lon":5.38871,"is_reserved":false,"is_disabled":false,"rental_uris":{"android":"levelo://app?vid=71f1a7a7-6772-4303-87a3-a8fed48ceb7f","ios":"levelo://app?vid=71f1a7a7-6772-4303-87a3-a8fed48ceb7f"},"vehicle_type_id":"4","last_reported":1728896999,"current_range_meters":28400,"station_id":"ce4bgk12rcd13ifvqbi0","pricing_plan_id":"cebpf4jnsgd1na2vs0mg"},{"bike_id":"729b5747-2745-44f4-8e45-767e543cac8a","system_id":"levelo_inurba_marseille","lat":43.33034,"lon":5.38936,"is_reserved":false,"is_disabled":false,"rental_uris":{"android":"levelo://app?vid=729b5747-2745-44f4-8e45-767e543cac8a","ios":"levelo://app?vid=729b5747-2745-44f4-8e45-767e543cac8a"},"vehicle_type_id":"4","last_reported":1728896999,"current_range_meters":34000,"station_id":"","pricing_plan_id":"cebpf4jnsgd1na2vs0mg"},{"bike_id":"09348952-ebbd-496d-877f-54bd3e43b367","system_id":"levelo_inurba_marseille","lat":43.30551,"lon":5.36539,"is_reserved":false,"is_disabled":false,"rental_uris":{"android":"levelo://app?vid=09348952-ebbd-496d-877f-54bd3e43b367","ios":"levelo://app?vid=09348952-ebbd-496d-877f-54bd3e43b367"},"vehicle_type_id":"4","last_reported":1728896999,"current_range_meters":37600,"station_id":"ce4bgs12rcd13ifvqcag","pricing_plan_id":"cebpf4jnsgd1na2vs0mg"},{"bike_id":"7d2ed4c9-1b2a-4e33-b71d-124bf455a204","system_id":"levelo_inurba_marseille","lat":43.33722,"lon":5.3744,"is_reserved":false,"is_disabled":false,"rental_uris":{"android":"levelo://app?vid=7d2ed4c9-1b2a-4e33-b71d-124bf455a204","ios":"levelo://app?vid=7d2ed4c9-1b2a-4e33-b71d-124bf455a204"},"vehicle_type_id":"4","last_reported":1728896999,"current_range_meters":38800,"station_id":"","pricing_plan_id":"cebpf4jnsgd1na2vs0mg"},{"bike_id":"c9dd9d66-5eb5-4711-8607-dc63c23673e6","system_id":"levelo_inurba_marseille","lat":43.30543,"lon":5.36702,"is_reserved":false,"is_disabled":false,"rental_uris":{"android":"levelo://app?vid=c9dd9d66-5eb5-4711-8607-dc63c23673e6","ios":"levelo://app?vid=c9dd9d66-5eb5-4711-8607-dc63c23673e6"},"vehicle_type_id":"4","last_reported":1728896999,"current_range_meters":26000,"station_id":"ce4bgrp2rcd13ifvqc9g","pricing_plan_id":"cebpf4jnsgd1na2vs0mg"},{"bike_id":"9ee0f26e-35ed-4be2-b0a1-30c879a77e41","system_id":"levelo_inurba_marseille","lat":43.2704,"lon":5.40266,"is_reserved":false,"is_disabled":false,"rental_uris":{"android":"levelo://app?vid=9ee0f26e-35ed-4be2-b0a1-30c879a77e41","ios":"levelo://app?vid=9ee0f26e-35ed-4be2-b0a1-30c879a77e41"},"vehicle_type_id":"4","last_reported":1728896999,"current_range_meters":25600,"station_id":"ce4bhk92rcd13ifvqgc0","pricing_plan_id":"cebpf4jnsgd1na2vs0mg"},{"bike_id":"682fc628-d4ad-418d-8761-42dd65fb469f","system_id":"levelo_inurba_marseille","lat":43.29524,"lon":5.39406,"is_reserved":false,"is_disabled":false,"rental_uris":{"android":"levelo://app?vid=682fc628-d4ad-418d-8761-42dd65fb469f","ios":"levelo://app?vid=682fc628-d4ad-418d-8761-42dd65fb469f"},"vehicle_type_id":"4","last_reported":1728896999,"current_range_meters":27600,"station_id":"ce4bh292rcd13ifvqdf0","pricing_plan_id":"cebpf4jnsgd1na2vs0mg"},{"bike_id":"09c68a5f-0d71-4297-b983-b41453a9b1ae","system_id":"levelo_inurba_marseille","lat":43.34136,"lon":5.40911,"is_reserved":false,"is_disabled":false,"rental_uris":{"android":"levelo://app?vid=09c68a5f-0d71-4297-b983-b41453a9b1ae","ios":"levelo://app?vid=09c68a5f-0d71-4297-b983-b41453a9b1ae"},"vehicle_type_id":"4","last_reported":1728896999,"current_range_meters":38800,"station_id":"ce4bhqh2rcd13ifvqhlg","pricing_plan_id":"cebpf4jnsgd1na2vs0mg"},{"bike_id":"14995dfe-209b-4590-9be0-850c18c5a8af","system_id":"levelo_inurba_marseille","lat":43.24073,"lon":5.37753,"is_reserved":false,"is_disabled":false,"rental_uris":{"android":"levelo://app?vid=14995dfe-209b-4590-9be0-850c18c5a8af","ios":"levelo://app?vid=14995dfe-209b-4590-9be0-850c18c5a8af"},"vehicle_type_id":"4","last_reported":1728896999,"current_range_meters":30400,"station_id":"ce4bhnp2rcd13ifvqgvg","pricing_plan_id":"cebpf4jnsgd1na2vs0mg"},{"bike_id":"55bd731b-b3aa-4c83-a9ea-60c964e5d56a","system_id":"levelo_inurba_marseille","lat":43.27487,"lon":5.42462,"is_reserved":false,"is_disabled":false,"rental_uris":{"android":"levelo://app?vid=55bd731b-b3aa-4c83-a9ea-60c964e5d56a","ios":"levelo://app?vid=55bd731b-b3aa-4c83-a9ea-60c964e5d56a"},"vehicle_type_id":"4","last_reported":1728896999,"current_range_meters":6400,"station_id":"ce4bhn92rcd13ifvqgrg","pricing_plan_id":"cebpf4jnsgd1na2vs0mg"},{"bike_id":"e2b39862-ca82-4d11-85a4-4006bed200fb","system_id":"levelo_inurba_marseille","lat":43.24078,"lon":5.37744,"is_reserved":false,"is_disabled":false,"rental_uris":{"android":"levelo://app?vid=e2b39862-ca82-4d11-85a4-4006bed200fb","ios":"levelo://app?vid=e2b39862-ca82-4d11-85a4-4006bed200fb"},"vehicle_type_id":"4","last_reported":1728896999,"current_range_meters":37600,"station_id":"ce4bhnp2rcd13ifvqgvg","pricing_plan_id":"cebpf4jnsgd1na2vs0mg"},{"bike_id":"9c51286d-9bc1-4462-bb96-fd77d911114d","system_id":"levelo_inurba_marseille","lat":43.23148,"lon":5.43718,"is_reserved":false,"is_disabled":false,"rental_uris":{"android":"levelo://app?vid=9c51286d-9bc1-4462-bb96-fd77d911114d","ios":"levelo://app?vid=9c51286d-9bc1-4462-bb96-fd77d911114d"},"vehicle_type_id":"4","last_reported":1728896999,"current_range_meters":30400,"station_id":"ce4bhmp2rcd13ifvqgog","pricing_plan_id":"cebpf4jnsgd1na2vs0mg"},{"bike_id":"8895ab77-ae04-437c-87bc-fe85c008f50c","system_id":"levelo_inurba_marseille","lat":43.29572,"lon":5.37533,"is_reserved":false,"is_disabled":false,"rental_uris":{"android":"levelo://app?vid=8895ab77-ae04-437c-87bc-fe85c008f50c","ios":"levelo://app?vid=8895ab77-ae04-437c-87bc-fe85c008f50c"},"vehicle_type_id":"4","last_reported":1728896999,"current_range_meters":29600,"station_id":"ce4bgh92rcd13ifvqb50","pricing_plan_id":"cebpf4jnsgd1na2vs0mg"},{"bike_id":"95abc3db-257e-43e0-b89c-14c03075b7a0","system_id":"levelo_inurba_marseille","lat":43.28154,"lon":5.4265,"is_reserved":false,"is_disabled":false,"rental_uris":{"android":"levelo://app?vid=95abc3db-257e-43e0-b89c-14c03075b7a0","ios":"levelo://app?vid=95abc3db-257e-43e0-b89c-14c03075b7a0"},"vehicle_type_id":"4","last_reported":1728896999,"current_range_meters":37600,"station_id":"ce4bhnh2rcd13ifvqgug","pricing_plan_id":"cebpf4jnsgd1na2vs0mg"},{"bike_id":"94f9c04e-5eaa-4209-a67b-cbf2b852a302","system_id":"levelo_inurba_marseille","lat":43.28262,"lon":5.35063,"is_reserved":false,"is_disabled":false,"rental_uris":{"android":"levelo://app?vid=94f9c04e-5eaa-4209-a67b-cbf2b852a302","ios":"levelo://app?vid=94f9c04e-5eaa-4209-a67b-cbf2b852a302"},"vehicle_type_id":"4","last_reported":1728896999,"current_range_meters":17200,"station_id":"ce4bhbp2rcd13ifvqerg","pricing_plan_id":"cebpf4jnsgd1na2vs0mg"},{"bike_id":"c9b8e085-97a6-486d-94d9-f245cd1b0e02","system_id":"levelo_inurba_marseille","lat":43.28332,"lon":5.38105,"is_reserved":false,"is_disabled":false,"rental_uris":{"android":"levelo://app?vid=c9b8e085-97a6-486d-94d9-f245cd1b0e02","ios":"levelo://app?vid=c9b8e085-97a6-486d-94d9-f245cd1b0e02"},"vehicle_type_id":"4","last_reported":1728896999,"current_range_meters":33200,"station_id":"ce4bh412rcd13ifvqdr0","pricing_plan_id":"cebpf4jnsgd1na2vs0mg"},{"bike_id":"9a0cd88e-ebc7-4f14-bc18-4825583107a9","system_id":"levelo_inurba_marseille","lat":43.23963,"lon":5.36632,"is_reserved":false,"is_disabled":false,"rental_uris":{"android":"levelo://app?vid=9a0cd88e-ebc7-4f14-bc18-4825583107a9","ios":"levelo://app?vid=9a0cd88e-ebc7-4f14-bc18-4825583107a9"},"vehicle_type_id":"4","last_reported":1728896999,"current_range_meters":27600,"station_id":"ce4bhi12rcd13ifvqfp0","pricing_plan_id":"cebpf4jnsgd1na2vs0mg"},{"bike_id":"1127dc6f-f0d9-4a28-a3e7-8d29ee7335c1","system_id":"levelo_inurba_marseille","lat":43.27051,"lon":5.40257,"is_reserved":false,"is_disabled":false,"rental_uris":{"android":"levelo://app?vid=1127dc6f-f0d9-4a28-a3e7-8d29ee7335c1","ios":"levelo://app?vid=1127dc6f-f0d9-4a28-a3e7-8d29ee7335c1"},"vehicle_type_id":"4","last_reported":1728896999,"current_range_meters":39200,"station_id":"ce4bhk92rcd13ifvqgc0","pricing_plan_id":"cebpf4jnsgd1na2vs0mg"},{"bike_id":"58821253-536d-48f0-9016-f878c99d9361","system_id":"levelo_inurba_marseille","lat":43.23064,"lon":5.35496,"is_reserved":false,"is_disabled":false,"rental_uris":{"android":"levelo://app?vid=58821253-536d-48f0-9016-f878c99d9361","ios":"levelo://app?vid=58821253-536d-48f0-9016-f878c99d9361"},"vehicle_type_id":"4","last_reported":1728896999,"current_range_meters":38400,"station_id":"cpo3342slgdg3j2ifvpg","pricing_plan_id":"cebpf4jnsgd1na2vs0mg"},{"bike_id":"a6e767d2-849c-406c-a6bc-50a70a906e59","system_id":"levelo_inurba_marseille","lat":43.25938,"lon":5.40905,"is_reserved":false,"is_disabled":false,"rental_uris":{"android":"levelo://app?vid=a6e767d2-849c-406c-a6bc-50a70a906e59","ios":"levelo://app?vid=a6e767d2-849c-406c-a6bc-50a70a906e59"},"vehicle_type_id":"4","last_reported":1728896999,"current_range_meters":24400,"station_id":"ce4bhm92rcd13ifvqglg","pricing_plan_id":"cebpf4jnsgd1na2vs0mg"},{"bike_id":"800ef956-6cd2-43b0-b3de-ca573714f625","system_id":"levelo_inurba_marseille","lat":43.30283,"lon":5.37702,"is_reserved":false,"is_disabled":false,"rental_uris":{"android":"levelo://app?vid=800ef956-6cd2-43b0-b3de-ca573714f625","ios":"levelo://app?vid=800ef956-6cd2-43b0-b3de-ca573714f625"},"vehicle_type_id":"4","last_reported":1728896999,"current_range_meters":20800,"station_id":"ce4bguh2rcd13ifvqcj0","pricing_plan_id":"cebpf4jnsgd1na2vs0mg"},{"bike_id":"8f5403c5-88e9-40e0-88cf-82765aa57ba2","system_id":"levelo_inurba_marseille","lat":43.30543,"lon":5.38421,"is_reserved":false,"is_disabled":false,"rental_uris":{"android":"levelo://app?vid=8f5403c5-88e9-40e0-88cf-82765aa57ba2","ios":"levelo://app?vid=8f5403c5-88e9-40e0-88cf-82765aa57ba2"},"vehicle_type_id":"4","last_reported":1728896999,"current_range_meters":30400,"station_id":"ce4bgg92rcd13ifvqb30","pricing_plan_id":"cebpf4jnsgd1na2vs0mg"},{"bike_id":"3e50785b-f2c6-46fc-a083-53a367036c56","system_id":"levelo_inurba_marseille","lat":43.2594,"lon":5.40905,"is_reserved":false,"is_disabled":false,"rental_uris":{"android":"levelo://app?vid=3e50785b-f2c6-46fc-a083-53a367036c56","ios":"levelo://app?vid=3e50785b-f2c6-46fc-a083-53a367036c56"},"vehicle_type_id":"4","last_reported":1728896999,"current_range_meters":11600,"station_id":"ce4bhm92rcd13ifvqglg","pricing_plan_id":"cebpf4jnsgd1na2vs0mg"},{"bike_id":"898f5baf-cc4b-4f96-a7ce-ba0018ba1e0b","system_id":"levelo_inurba_marseille","lat":43.30462,"lon":5.37896,"is_reserved":false,"is_disabled":false,"rental_uris":{"android":"levelo://app?vid=898f5baf-cc4b-4f96-a7ce-ba0018ba1e0b","ios":"levelo://app?vid=898f5baf-cc4b-4f96-a7ce-ba0018ba1e0b"},"vehicle_type_id":"4","last_reported":1728896999,"current_range_meters":35200,"station_id":"ce4bgup2rcd13ifvqcn0","pricing_plan_id":"cebpf4jnsgd1na2vs0mg"},{"bike_id":"7c095d3c-604a-4602-b927-64e3a8b70e01","system_id":"levelo_inurba_marseille","lat":43.29032,"lon":5.37567,"is_reserved":false,"is_disabled":false,"rental_uris":{"android":"levelo://app?vid=7c095d3c-604a-4602-b927-64e3a8b70e01","ios":"levelo://app?vid=7c095d3c-604a-4602-b927-64e3a8b70e01"},"vehicle_type_id":"4","last_reported":1728896999,"current_range_meters":31200,"station_id":"ce4bh692rcd13ifvqe90","pricing_plan_id":"cebpf4jnsgd1na2vs0mg"},{"bike_id":"cdde71fa-933f-47ef-8a23-39142a076aea","system_id":"levelo_inurba_marseille","lat":43.29551,"lon":5.42283,"is_reserved":false,"is_disabled":false,"rental_uris":{"android":"levelo://app?vid=cdde71fa-933f-47ef-8a23-39142a076aea","ios":"levelo://app?vid=cdde71fa-933f-47ef-8a23-39142a076aea"},"vehicle_type_id":"4","last_reported":1728896999,"current_range_meters":37600,"station_id":"ce4bhph2rcd13ifvqhdg","pricing_plan_id":"cebpf4jnsgd1na2vs0mg"},{"bike_id":"aae33064-4853-4bd5-9ae9-1d2a4ee45368","system_id":"levelo_inurba_marseille","lat":43.24166,"lon":5.36402,"is_reserved":false,"is_disabled":false,"rental_uris":{"android":"levelo://app?vid=aae33064-4853-4bd5-9ae9-1d2a4ee45368","ios":"levelo://app?vid=aae33064-4853-4bd5-9ae9-1d2a4ee45368"},"vehicle_type_id":"4","last_reported":1728896999,"current_range_meters":30800,"station_id":"cpo36qri1sfpv3e86is0","pricing_plan_id":"cebpf4jnsgd1na2vs0mg"},{"bike_id":"d99eeaa0-d546-45b5-8fad-00c9b30b62e5","system_id":"levelo_inurba_marseille","lat":43.26952,"lon":5.38621,"is_reserved":false,"is_disabled":false,"rental_uris":{"android":"levelo://app?vid=d99eeaa0-d546-45b5-8fad-00c9b30b62e5","ios":"levelo://app?vid=d99eeaa0-d546-45b5-8fad-00c9b30b62e5"},"vehicle_type_id":"4","last_reported":1728896999,"current_range_meters":15200,"station_id":"ce4bhh92rcd13ifvqfh0","pricing_plan_id":"cebpf4jnsgd1na2vs0mg"},{"bike_id":"9d478290-d007-4292-bc2e-170e50b123b0","system_id":"levelo_inurba_marseille","lat":43.28703,"lon":5.37949,"is_reserved":false,"is_disabled":false,"rental_uris":{"android":"levelo://app?vid=9d478290-d007-4292-bc2e-170e50b123b0","ios":"levelo://app?vid=9d478290-d007-4292-bc2e-170e50b123b0"},"vehicle_type_id":"4","last_reported":1728896999,"current_range_meters":36800,"station_id":"ce4bh9p2rcd13ifvqec0","pricing_plan_id":"cebpf4jnsgd1na2vs0mg"},{"bike_id":"137e4db8-aaaa-4e2a-ac83-45e5799281e4","system_id":"levelo_inurba_marseille","lat":43.28111,"lon":5.38649,"is_reserved":false,"is_disabled":false,"rental_uris":{"android":"levelo://app?vid=137e4db8-aaaa-4e2a-ac83-45e5799281e4","ios":"levelo://app?vid=137e4db8-aaaa-4e2a-ac83-45e5799281e4"},"vehicle_type_id":"4","last_reported":1728896999,"current_range_meters":34000,"station_id":"ce4bhlp2rcd13ifvqgjg","pricing_plan_id":"cebpf4jnsgd1na2vs0mg"},{"bike_id":"c6582413-ec7a-4789-a8e5-67fa19251834","system_id":"levelo_inurba_marseille","lat":43.24173,"lon":5.39731,"is_reserved":false,"is_disabled":false,"rental_uris":{"android":"levelo://app?vid=c6582413-ec7a-4789-a8e5-67fa19251834","ios":"levelo://app?vid=c6582413-ec7a-4789-a8e5-67fa19251834"},"vehicle_type_id":"4","last_reported":1728896999,"current_range_meters":27600,"station_id":"ce4bhn12rcd13ifvqgpg","pricing_plan_id":"cebpf4jnsgd1na2vs0mg"},{"bike_id":"faf12306-006d-4660-af71-f28f4f0c5ec1","system_id":"levelo_inurba_marseille","lat":43.29902,"lon":5.38179,"is_reserved":false,"is_disabled":false,"rental_uris":{"android":"levelo://app?vid=faf12306-006d-4660-af71-f28f4f0c5ec1","ios":"levelo://app?vid=faf12306-006d-4660-af71-f28f4f0c5ec1"},"vehicle_type_id":"4","last_reported":1728896999,"current_range_meters":38800,"station_id":"ce4bgj12rcd13ifvqbc0","pricing_plan_id":"cebpf4jnsgd1na2vs0mg"},{"bike_id":"3ebc8614-7122-4477-a27c-b50ee26fcca2","system_id":"levelo_inurba_marseille","lat":43.23193,"lon":5.35545,"is_reserved":false,"is_disabled":false,"rental_uris":{"android":"levelo://app?vid=3ebc8614-7122-4477-a27c-b50ee26fcca2","ios":"levelo://app?vid=3ebc8614-7122-4477-a27c-b50ee26fcca2"},"vehicle_type_id":"4","last_reported":1728896999,"current_range_meters":3600,"station_id":"ce4bhu92rcd13ifvqi70","pricing_plan_id":"cebpf4jnsgd1na2vs0mg"},{"bike_id":"9ce54f0f-36ec-41d6-ae7b-340cf8637579","system_id":"levelo_inurba_marseille","lat":43.24074,"lon":5.37757,"is_reserved":false,"is_disabled":false,"rental_uris":{"android":"levelo://app?vid=9ce54f0f-36ec-41d6-ae7b-340cf8637579","ios":"levelo://app?vid=9ce54f0f-36ec-41d6-ae7b-340cf8637579"},"vehicle_type_id":"4","last_reported":1728896999,"current_range_meters":37600,"station_id":"ce4bhnp2rcd13ifvqgvg","pricing_plan_id":"cebpf4jnsgd1na2vs0mg"},{"bike_id":"aad69708-28ac-43e6-945e-619f5a7c6bfd","system_id":"levelo_inurba_marseille","lat":43.33781,"lon":5.37443,"is_reserved":false,"is_disabled":false,"rental_uris":{"android":"levelo://app?vid=aad69708-28ac-43e6-945e-619f5a7c6bfd","ios":"levelo://app?vid=aad69708-28ac-43e6-945e-619f5a7c6bfd"},"vehicle_type_id":"4","last_reported":1728896999,"current_range_meters":29600,"station_id":"","pricing_plan_id":"cebpf4jnsgd1na2vs0mg"},{"bike_id":"fdd134d9-cb0c-4b9e-9621-faa0284f21aa","system_id":"levelo_inurba_marseille","lat":43.29893,"lon":5.43669,"is_reserved":false,"is_disabled":false,"rental_uris":{"android":"levelo://app?vid=fdd134d9-cb0c-4b9e-9621-faa0284f21aa","ios":"levelo://app?vid=fdd134d9-cb0c-4b9e-9621-faa0284f21aa"},"vehicle_type_id":"4","last_reported":1728896999,"current_range_meters":26800,"station_id":"ce4bhpp2rcd13ifvqhfg","pricing_plan_id":"cebpf4jnsgd1na2vs0mg"},{"bike_id":"b4c624da-7f1c-4f40-b8ed-a8325faca621","system_id":"levelo_inurba_marseille","lat":43.29513,"lon":5.39406,"is_reserved":false,"is_disabled":false,"rental_uris":{"android":"levelo://app?vid=b4c624da-7f1c-4f40-b8ed-a8325faca621","ios":"levelo://app?vid=b4c624da-7f1c-4f40-b8ed-a8325faca621"},"vehicle_type_id":"4","last_reported":1728896999,"current_range_meters":19200,"station_id":"ce4bh292rcd13ifvqdf0","pricing_plan_id":"cebpf4jnsgd1na2vs0mg"},{"bike_id":"67b30335-56ba-4658-9a0b-7ab78dc3c5aa","system_id":"levelo_inurba_marseille","lat":43.28349,"lon":5.38102,"is_reserved":false,"is_disabled":false,"rental_uris":{"android":"levelo://app?vid=67b30335-56ba-4658-9a0b-7ab78dc3c5aa","ios":"levelo://app?vid=67b30335-56ba-4658-9a0b-7ab78dc3c5aa"},"vehicle_type_id":"4","last_reported":1728896999,"current_range_meters":28800,"station_id":"ce4bh412rcd13ifvqdr0","pricing_plan_id":"cebpf4jnsgd1na2vs0mg"},{"bike_id":"4a3a48a1-2504-4052-9f2f-cd518035a423","system_id":"levelo_inurba_marseille","lat":43.28485,"lon":5.38555,"is_reserved":false,"is_disabled":false,"rental_uris":{"android":"levelo://app?vid=4a3a48a1-2504-4052-9f2f-cd518035a423","ios":"levelo://app?vid=4a3a48a1-2504-4052-9f2f-cd518035a423"},"vehicle_type_id":"4","last_reported":1728896999,"current_range_meters":4800,"station_id":"ce4bh8p2rcd13ifvqeb0","pricing_plan_id":"cebpf4jnsgd1na2vs0mg"},{"bike_id":"db0d0fce-dbaa-4f90-bcdb-161e28b76351","system_id":"levelo_inurba_marseille","lat":43.33748,"lon":5.37447,"is_reserved":false,"is_disabled":false,"rental_uris":{"android":"levelo://app?vid=db0d0fce-dbaa-4f90-bcdb-161e28b76351","ios":"levelo://app?vid=db0d0fce-dbaa-4f90-bcdb-161e28b76351"},"vehicle_type_id":"4","last_reported":1728896999,"current_range_meters":38800,"station_id":"","pricing_plan_id":"cebpf4jnsgd1na2vs0mg"},{"bike_id":"fe567e6b-c9f8-4a9b-8aeb-d58094cf2d9d","system_id":"levelo_inurba_marseille","lat":43.30155,"lon":5.37401,"is_reserved":false,"is_disabled":false,"rental_uris":{"android":"levelo://app?vid=fe567e6b-c9f8-4a9b-8aeb-d58094cf2d9d","ios":"levelo://app?vid=fe567e6b-c9f8-4a9b-8aeb-d58094cf2d9d"},"vehicle_type_id":"4","last_reported":1728896999,"current_range_meters":32000,"station_id":"ce4bgs92rcd13ifvqcc0","pricing_plan_id":"cebpf4jnsgd1na2vs0mg"},{"bike_id":"97d9b1ee-016f-45a3-b10f-34f67712cf20","system_id":"levelo_inurba_marseille","lat":43.28473,"lon":5.38418,"is_reserved":false,"is_disabled":false,"rental_uris":{"android":"levelo://app?vid=97d9b1ee-016f-45a3-b10f-34f67712cf20","ios":"levelo://app?vid=97d9b1ee-016f-45a3-b10f-34f67712cf20"},"vehicle_type_id":"4","last_reported":1728896999,"current_range_meters":3200,"station_id":"ce4bh512rcd13ifvqe3g","pricing_plan_id":"cebpf4jnsgd1na2vs0mg"},{"bike_id":"7f2b290f-b4bb-4623-a761-8f9c18cfc707","system_id":"levelo_inurba_marseille","lat":43.337444,"lon":5.374475,"is_reserved":false,"is_disabled":false,"rental_uris":{"android":"levelo://app?vid=7f2b290f-b4bb-4623-a761-8f9c18cfc707","ios":"levelo://app?vid=7f2b290f-b4bb-4623-a761-8f9c18cfc707"},"vehicle_type_id":"4","last_reported":1728896999,"current_range_meters":18800,"station_id":"","pricing_plan_id":"cebpf4jnsgd1na2vs0mg"},{"bike_id":"35983d65-e7a5-415a-b102-7f0aac4b39f7","system_id":"levelo_inurba_marseille","lat":43.23191,"lon":5.35554,"is_reserved":false,"is_disabled":false,"rental_uris":{"android":"levelo://app?vid=35983d65-e7a5-415a-b102-7f0aac4b39f7","ios":"levelo://app?vid=35983d65-e7a5-415a-b102-7f0aac4b39f7"},"vehicle_type_id":"4","last_reported":1728896999,"current_range_meters":38000,"station_id":"ce4bhu92rcd13ifvqi70","pricing_plan_id":"cebpf4jnsgd1na2vs0mg"},{"bike_id":"85811681-5063-4b00-ac7e-34bf992e363d","system_id":"levelo_inurba_marseille","lat":43.31225,"lon":5.36856,"is_reserved":false,"is_disabled":false,"rental_uris":{"android":"levelo://app?vid=85811681-5063-4b00-ac7e-34bf992e363d","ios":"levelo://app?vid=85811681-5063-4b00-ac7e-34bf992e363d"},"vehicle_type_id":"4","last_reported":1728896999,"current_range_meters":28800,"station_id":"ce4bgl92rcd13ifvqbq0","pricing_plan_id":"cebpf4jnsgd1na2vs0mg"},{"bike_id":"f6d92f87-4f4a-4b60-9286-0e1a98763458","system_id":"levelo_inurba_marseille","lat":43.26939,"lon":5.38912,"is_reserved":false,"is_disabled":false,"rental_uris":{"android":"levelo://app?vid=f6d92f87-4f4a-4b60-9286-0e1a98763458","ios":"levelo://app?vid=f6d92f87-4f4a-4b60-9286-0e1a98763458"},"vehicle_type_id":"4","last_reported":1728896999,"current_range_meters":38800,"station_id":"ce4bhhh2rcd13ifvqfl0","pricing_plan_id":"cebpf4jnsgd1na2vs0mg"},{"bike_id":"81b3b8c9-fa1b-49bf-8d7b-5c4711bbdedb","system_id":"levelo_inurba_marseille","lat":43.30189,"lon":5.36627,"is_reserved":false,"is_disabled":false,"rental_uris":{"android":"levelo://app?vid=81b3b8c9-fa1b-49bf-8d7b-5c4711bbdedb","ios":"levelo://app?vid=81b3b8c9-fa1b-49bf-8d7b-5c4711bbdedb"},"vehicle_type_id":"4","last_reported":1728896999,"current_range_meters":39200,"station_id":"ce4bgrh2rcd13ifvqc8g","pricing_plan_id":"cebpf4jnsgd1na2vs0mg"},{"bike_id":"1ea618d6-2b90-4a0c-b462-6fc22d02503d","system_id":"levelo_inurba_marseille","lat":43.28147,"lon":5.42634,"is_reserved":false,"is_disabled":false,"rental_uris":{"android":"levelo://app?vid=1ea618d6-2b90-4a0c-b462-6fc22d02503d","ios":"levelo://app?vid=1ea618d6-2b90-4a0c-b462-6fc22d02503d"},"vehicle_type_id":"4","last_reported":1728896999,"current_range_meters":16000,"station_id":"ce4bhnh2rcd13ifvqgug","pricing_plan_id":"cebpf4jnsgd1na2vs0mg"},{"bike_id":"96ca8c9d-9fd7-4c44-a7b9-2b71a35fc9ee","system_id":"levelo_inurba_marseille","lat":43.24082,"lon":5.37749,"is_reserved":false,"is_disabled":false,"rental_uris":{"android":"levelo://app?vid=96ca8c9d-9fd7-4c44-a7b9-2b71a35fc9ee","ios":"levelo://app?vid=96ca8c9d-9fd7-4c44-a7b9-2b71a35fc9ee"},"vehicle_type_id":"4","last_reported":1728896999,"current_range_meters":24800,"station_id":"ce4bhnp2rcd13ifvqgvg","pricing_plan_id":"cebpf4jnsgd1na2vs0mg"},{"bike_id":"1f2b4fc4-9a61-4dc0-bf67-865901a2f6eb","system_id":"levelo_inurba_marseille","lat":43.305337,"lon":5.384213,"is_reserved":false,"is_disabled":false,"rental_uris":{"android":"levelo://app?vid=1f2b4fc4-9a61-4dc0-bf67-865901a2f6eb","ios":"levelo://app?vid=1f2b4fc4-9a61-4dc0-bf67-865901a2f6eb"},"vehicle_type_id":"4","last_reported":1728896999,"current_range_meters":32400,"station_id":"ce4bgg92rcd13ifvqb30","pricing_plan_id":"cebpf4jnsgd1na2vs0mg"},{"bike_id":"27311a75-ebb6-43d6-9fb5-f3ba72a10e0e","system_id":"levelo_inurba_marseille","lat":43.29907,"lon":5.43666,"is_reserved":false,"is_disabled":false,"rental_uris":{"android":"levelo://app?vid=27311a75-ebb6-43d6-9fb5-f3ba72a10e0e","ios":"levelo://app?vid=27311a75-ebb6-43d6-9fb5-f3ba72a10e0e"},"vehicle_type_id":"4","last_reported":1728896999,"current_range_meters":16400,"station_id":"ce4bhpp2rcd13ifvqhfg","pricing_plan_id":"cebpf4jnsgd1na2vs0mg"},{"bike_id":"c8dc9891-a17a-4805-bf15-8101f069be0b","system_id":"levelo_inurba_marseille","lat":43.294251,"lon":5.378037,"is_reserved":false,"is_disabled":false,"rental_uris":{"android":"levelo://app?vid=c8dc9891-a17a-4805-bf15-8101f069be0b","ios":"levelo://app?vid=c8dc9891-a17a-4805-bf15-8101f069be0b"},"vehicle_type_id":"4","last_reported":1728896999,"current_range_meters":16000,"station_id":"ce4bh512rcd13ifvqe3g","pricing_plan_id":"cebpf4jnsgd1na2vs0mg"},{"bike_id":"af9bfe3d-4e6f-4aa2-b0e8-1662d2b85532","system_id":"levelo_inurba_marseille","lat":43.28615,"lon":5.351,"is_reserved":false,"is_disabled":false,"rental_uris":{"android":"levelo://app?vid=af9bfe3d-4e6f-4aa2-b0e8-1662d2b85532","ios":"levelo://app?vid=af9bfe3d-4e6f-4aa2-b0e8-1662d2b85532"},"vehicle_type_id":"4","last_reported":1728896999,"current_range_meters":30000,"station_id":"ce4bhch2rcd13ifvqeug","pricing_plan_id":"cebpf4jnsgd1na2vs0mg"},{"bike_id":"6f55c53c-3800-44ae-a1cf-bc5df1af9b39","system_id":"levelo_inurba_marseille","lat":43.30534,"lon":5.36707,"is_reserved":false,"is_disabled":false,"rental_uris":{"android":"levelo://app?vid=6f55c53c-3800-44ae-a1cf-bc5df1af9b39","ios":"levelo://app?vid=6f55c53c-3800-44ae-a1cf-bc5df1af9b39"},"vehicle_type_id":"4","last_reported":1728896999,"current_range_meters":30000,"station_id":"ce4bgrp2rcd13ifvqc9g","pricing_plan_id":"cebpf4jnsgd1na2vs0mg"},{"bike_id":"674a2a28-cf85-4d95-a619-930b81cfd421","system_id":"levelo_inurba_marseille","lat":43.23154,"lon":5.43703,"is_reserved":false,"is_disabled":false,"rental_uris":{"android":"levelo://app?vid=674a2a28-cf85-4d95-a619-930b81cfd421","ios":"levelo://app?vid=674a2a28-cf85-4d95-a619-930b81cfd421"},"vehicle_type_id":"4","last_reported":1728896999,"current_range_meters":25600,"station_id":"ce4bhmp2rcd13ifvqgog","pricing_plan_id":"cebpf4jnsgd1na2vs0mg"},{"bike_id":"10ee5302-5829-4c30-bc56-d6d7c823b3f5","system_id":"levelo_inurba_marseille","lat":43.29852,"lon":5.36278,"is_reserved":false,"is_disabled":false,"rental_uris":{"android":"levelo://app?vid=10ee5302-5829-4c30-bc56-d6d7c823b3f5","ios":"levelo://app?vid=10ee5302-5829-4c30-bc56-d6d7c823b3f5"},"vehicle_type_id":"4","last_reported":1728896999,"current_range_meters":33200,"station_id":"ce4bgpp2rcd13ifvqc3g","pricing_plan_id":"cebpf4jnsgd1na2vs0mg"},{"bike_id":"ff87e7d1-4644-494b-b06a-b0d48b4857c4","system_id":"levelo_inurba_marseille","lat":43.26187,"lon":5.37445,"is_reserved":false,"is_disabled":false,"rental_uris":{"android":"levelo://app?vid=ff87e7d1-4644-494b-b06a-b0d48b4857c4","ios":"levelo://app?vid=ff87e7d1-4644-494b-b06a-b0d48b4857c4"},"vehicle_type_id":"4","last_reported":1728896999,"current_range_meters":20400,"station_id":"ce4bhgp2rcd13ifvqfc0","pricing_plan_id":"cebpf4jnsgd1na2vs0mg"},{"bike_id":"551a20ed-cb9d-4a60-adf6-4348d5c063e9","system_id":"levelo_inurba_marseille","lat":43.23152,"lon":5.43703,"is_reserved":false,"is_disabled":false,"rental_uris":{"android":"levelo://app?vid=551a20ed-cb9d-4a60-adf6-4348d5c063e9","ios":"levelo://app?vid=551a20ed-cb9d-4a60-adf6-4348d5c063e9"},"vehicle_type_id":"4","last_reported":1728896999,"current_range_meters":16400,"station_id":"ce4bhmp2rcd13ifvqgog","pricing_plan_id":"cebpf4jnsgd1na2vs0mg"},{"bike_id":"87e5b82b-1978-49bf-92bf-413ec779c074","system_id":"levelo_inurba_marseille","lat":43.30183,"lon":5.36613,"is_reserved":false,"is_disabled":false,"rental_uris":{"android":"levelo://app?vid=87e5b82b-1978-49bf-92bf-413ec779c074","ios":"levelo://app?vid=87e5b82b-1978-49bf-92bf-413ec779c074"},"vehicle_type_id":"4","last_reported":1728896999,"current_range_meters":27200,"station_id":"ce4bgrh2rcd13ifvqc8g","pricing_plan_id":"cebpf4jnsgd1na2vs0mg"},{"bike_id":"f73ab343-f51f-46df-a597-833fbff9f106","system_id":"levelo_inurba_marseille","lat":43.29719,"lon":5.37683,"is_reserved":false,"is_disabled":false,"rental_uris":{"android":"levelo://app?vid=f73ab343-f51f-46df-a597-833fbff9f106","ios":"levelo://app?vid=f73ab343-f51f-46df-a597-833fbff9f106"},"vehicle_type_id":"4","last_reported":1728896999,"current_range_meters":28400,"station_id":"ce4bgkh2rcd13ifvqbl0","pricing_plan_id":"cebpf4jnsgd1na2vs0mg"},{"bike_id":"adb8b798-366e-4229-a12c-f4dea4d23dc5","system_id":"levelo_inurba_marseille","lat":43.24615,"lon":5.37396,"is_reserved":false,"is_disabled":false,"rental_uris":{"android":"levelo://app?vid=adb8b798-366e-4229-a12c-f4dea4d23dc5","ios":"levelo://app?vid=adb8b798-366e-4229-a12c-f4dea4d23dc5"},"vehicle_type_id":"4","last_reported":1728896999,"current_range_meters":30000,"station_id":"","pricing_plan_id":"cebpf4jnsgd1na2vs0mg"},{"bike_id":"03412e9f-e5af-44a8-940e-a098b1ec2875","system_id":"levelo_inurba_marseille","lat":43.22936,"lon":5.35378,"is_reserved":false,"is_disabled":false,"rental_uris":{"android":"levelo://app?vid=03412e9f-e5af-44a8-940e-a098b1ec2875","ios":"levelo://app?vid=03412e9f-e5af-44a8-940e-a098b1ec2875"},"vehicle_type_id":"4","last_reported":1728896999,"current_range_meters":36800,"station_id":"cpo3532slgdg3j2ikp40","pricing_plan_id":"cebpf4jnsgd1na2vs0mg"},{"bike_id":"2514c3e8-0adf-47af-b777-02db04bae87e","system_id":"levelo_inurba_marseille","lat":43.28608,"lon":5.37063,"is_reserved":false,"is_disabled":false,"rental_uris":{"android":"levelo://app?vid=2514c3e8-0adf-47af-b777-02db04bae87e","ios":"levelo://app?vid=2514c3e8-0adf-47af-b777-02db04bae87e"},"vehicle_type_id":"4","last_reported":1728896999,"current_range_meters":38800,"station_id":"ce4bht12rcd13ifvqi60","pricing_plan_id":"cebpf4jnsgd1na2vs0mg"},{"bike_id":"50318d90-2168-4373-9d50-f39e5ad7003a","system_id":"levelo_inurba_marseille","lat":43.33759,"lon":5.37431,"is_reserved":false,"is_disabled":false,"rental_uris":{"android":"levelo://app?vid=50318d90-2168-4373-9d50-f39e5ad7003a","ios":"levelo://app?vid=50318d90-2168-4373-9d50-f39e5ad7003a"},"vehicle_type_id":"4","last_reported":1728896999,"current_range_meters":36800,"station_id":"","pricing_plan_id":"cebpf4jnsgd1na2vs0mg"},{"bike_id":"c41c8497-36db-4779-a2b0-2199784e604c","system_id":"levelo_inurba_marseille","lat":43.27822,"lon":5.4071,"is_reserved":false,"is_disabled":false,"rental_uris":{"android":"levelo://app?vid=c41c8497-36db-4779-a2b0-2199784e604c","ios":"levelo://app?vid=c41c8497-36db-4779-a2b0-2199784e604c"},"vehicle_type_id":"4","last_reported":1728896999,"current_range_meters":38800,"station_id":"ce4bhnh2rcd13ifvqgtg","pricing_plan_id":"cebpf4jnsgd1na2vs0mg"},{"bike_id":"5d76c7d2-8dda-4754-ad37-53cce9e36808","system_id":"levelo_inurba_marseille","lat":43.23193,"lon":5.35554,"is_reserved":false,"is_disabled":false,"rental_uris":{"android":"levelo://app?vid=5d76c7d2-8dda-4754-ad37-53cce9e36808","ios":"levelo://app?vid=5d76c7d2-8dda-4754-ad37-53cce9e36808"},"vehicle_type_id":"4","last_reported":1728896999,"current_range_meters":30400,"station_id":"ce4bhu92rcd13ifvqi70","pricing_plan_id":"cebpf4jnsgd1na2vs0mg"},