{"last_updated":1769768526,"ttl":60,"version":"2.2","data":{"bikes":[{"bike_id":"b3afb300-3fdf-4c16-a3be-4013bcd643ba","system_id":"levelo_inurba_marseille","lat":43.24549,"lon":5.395341,"is_reserved":false,"is_disabled":false,"rental_uris":{"android":"levelo://app?vid=b3afb300-3fdf-4c16-a3be-4013bcd643ba","ios":"levelo://app?vid=b3afb300-3fdf-4c16-a3be-4013bcd643ba"},"vehicle_type_id":"4","last_reported":1769768527,"current_range_meters":2800,"station_id":"ce4bhlp2rcd13ifvqgjg","pricing_plan_id":"cebpf4jnsgd1na2vs0mg"},{"bike_id":"25cf4423-68df-47c3-bf55-506e9ac78850","system_id":"levelo_inurba_marseille","lat":43.29089,"lon":5.38172,"is_reserved":false,"is_disabled":false,"rental_uris":{"android":"levelo://app?vid=25cf4423-68df-47c3-bf55-506e9ac78850","ios":"levelo://app?vid=25cf4423-68df-47c3-bf55-506e9ac78850"},"vehicle_type_id":"4","last_reported":1769768527,"current_range_meters":2800,"station_id":"ce4bh512rcd13ifvqe2g","pricing_plan_id":"cebpf4jnsgd1na2vs0mg"},{"bike_id":"bf5fbaf3-1a93-458d-8688-7db9403c42bd","system_id":"levelo_inurba_marseille","lat":43.245766,"lon":5.384161,"is_reserved":false,"is_disabled":false,"rental_uris":{"android":"levelo://app?vid=bf5fbaf3-1a93-458d-8688-7db9403c42bd","ios":"levelo://app?vid=bf5fbaf3-1a93-458d-8688-7db9403c42bd"},"vehicle_type_id":"4","last_reported":1769768527,"current_range_meters":2800,"station_id":"ce4bhg12rcd13ifvqf60","pricing_plan_id":"cebpf4jnsgd1na2vs0mg"},{"bike_id":"9fa7aecd-d377-46af-9acb-cfa29a5219c1","system_id":"levelo_inurba_marseille","lat":43.28041,"lon":5.369546,"is_reserved":false,"is_disabled":false,"rental_uris":{"android":"levelo://app?vid=9fa7aecd-d377-46af-9acb-cfa29a5219c1","ios":"levelo://app?vid=9fa7aecd-d377-46af-9acb-cfa29a5219c1"},"vehicle_type_id":"4","last_reported":1769768527,"current_range_meters":2800,"station_id":"ce4bha12rcd13ifvqef0","pricing_plan_id":"cebpf4jnsgd1na2vs0mg"},{"bike_id":"51e33b43-0b63-43c6-8dbf-365699605da8","system_id":"levelo_inurba_marseille","lat":43.27046,"lon":5.39839,"is_reserved":false,"is_disabled":false,"rental_uris":{"android":"levelo://app?vid=51e33b43-0b63-43c6-8dbf-365699605da8","ios":"levelo://app?vid=51e33b43-0b63-43c6-8dbf-365699605da8"},"vehicle_type_id":"4","last_reported":1769768527,"current_range_meters":2800,"station_id":"","pricing_plan_id":"cebpf4jnsgd1na2vs0mg"},{"bike_id":"626f2e49-da66-4aca-b419-36ccc5e515c3","system_id":"levelo_inurba_marseille","lat":43.24622,"lon":5.43145,"is_reserved":false,"is_disabled":false,"rental_uris":{"android":"levelo://app?vid=626f2e49-da66-4aca-b419-36ccc5e515c3","ios":"levelo://app?vid=626f2e49-da66-4aca-b419-36ccc5e515c3"},"vehicle_type_id":"4","last_reported":1769768527,"current_range_meters":2800,"station_id":"st_d2m6c4gdas8pm72e190g","pricing_plan_id":"cebpf4jnsgd1na2vs0mg"},{"bike_id":"84afd68b-137d-4ebe-92f1-bf09e9f522df","system_id":"levelo_inurba_marseille","lat":43.25852,"lon":5.39906,"is_reserved":false,"is_disabled":false,"rental_uris":{"android":"levelo://app?vid=84afd68b-137d-4ebe-92f1-bf09e9f522df","ios":"levelo://app?vid=84afd68b-137d-4ebe-92f1-bf09e9f522df"},"vehicle_type_id":"4","last_reported":1769768527,"current_range_meters":2800,"station_id":"ce4bhl92rcd13ifvqghg","pricing_plan_id":"cebpf4jnsgd1na2vs0mg"},{"bike_id":"61050c33-cd05-49a3-8816-4402f222e818","system_id":"levelo_inurba_marseille","lat":43.25516,"lon":5.37699,"is_reserved":false,"is_disabled":false,"rental_uris":{"android":"levelo://app?vid=61050c33-cd05-49a3-8816-4402f222e818","ios":"levelo://app?vid=61050c33-cd05-49a3-8816-4402f222e818"},"vehicle_type_id":"4","last_reported":1769768527,"current_range_meters":3200,"station_id":"ce4bhh12rcd13ifvqff0","pricing_plan_id":"cebpf4jnsgd1na2vs0mg"},{"bike_id":"d85ff71a-0abc-43d6-8bf5-0a3c0b43e06c","system_id":"levelo_inurba_marseille","lat":43.26944,"lon":5.40259,"is_reserved":false,"is_disabled":false,"rental_uris":{"android":"levelo://app?vid=d85ff71a-0abc-43d6-8bf5-0a3c0b43e06c","ios":"levelo://app?vid=d85ff71a-0abc-43d6-8bf5-0a3c0b43e06c"},"vehicle_type_id":"4","last_reported":1769768527,"current_range_meters":3200,"station_id":"cjm6bp8fraef2m0cb0m0","pricing_plan_id":"cebpf4jnsgd1na2vs0mg"},{"bike_id":"e44d6c0d-4cdc-487c-87b1-e5cf7cd1bdd8","system_id":"levelo_inurba_marseille","lat":43.27693,"lon":5.38868,"is_reserved":false,"is_disabled":false,"rental_uris":{"android":"levelo://app?vid=e44d6c0d-4cdc-487c-87b1-e5cf7cd1bdd8","ios":"levelo://app?vid=e44d6c0d-4cdc-487c-87b1-e5cf7cd1bdd8"},"vehicle_type_id":"4","last_reported":1769768527,"current_range_meters":3200,"station_id":"ce4bhi12rcd13ifvqfo0","pricing_plan_id":"cebpf4jnsgd1na2vs0mg"},{"bike_id":"1734350a-7db7-478e-8058-74793f2aa5c0","system_id":"levelo_inurba_marseille","lat":43.3237,"lon":5.3855,"is_reserved":false,"is_disabled":false,"rental_uris":{"android":"levelo://app?vid=1734350a-7db7-478e-8058-74793f2aa5c0","ios":"levelo://app?vid=1734350a-7db7-478e-8058-74793f2aa5c0"},"vehicle_type_id":"4","last_reported":1769768527,"current_range_meters":3200,"station_id":"st_d45171o9ee8s73djdqug","pricing_plan_id":"cebpf4jnsgd1na2vs0mg"},{"bike_id":"d6e18815-8e72-4766-b990-aae4491aa500","system_id":"levelo_inurba_marseille","lat":43.30945,"lon":5.39029,"is_reserved":false,"is_disabled":false,"rental_uris":{"android":"levelo://app?vid=d6e18815-8e72-4766-b990-aae4491aa500","ios":"levelo://app?vid=d6e18815-8e72-4766-b990-aae4491aa500"},"vehicle_type_id":"4","last_reported":1769768527,"current_range_meters":3200,"station_id":"ce4bgup2rcd13ifvqco0","pricing_plan_id":"cebpf4jnsgd1na2vs0mg"},{"bike_id":"fed1302d-e6b3-4fff-83f6-59b9da166670","system_id":"levelo_inurba_marseille","lat":43.2668,"lon":5.38266,"is_reserved":false,"is_disabled":false,"rental_uris":{"android":"levelo://app?vid=fed1302d-e6b3-4fff-83f6-59b9da166670","ios":"levelo://app?vid=fed1302d-e6b3-4fff-83f6-59b9da166670"},"vehicle_type_id":"4","last_reported":1769768527,"current_range_meters":3200,"station_id":"ce4bhg92rcd13ifvqf90","pricing_plan_id":"cebpf4jnsgd1na2vs0mg"},{"bike_id":"4bb9781d-9951-4353-8a84-40ca20f0390d","system_id":"levelo_inurba_marseille","lat":43.23147,"lon":5.43727,"is_reserved":false,"is_disabled":false,"rental_uris":{"android":"levelo://app?vid=4bb9781d-9951-4353-8a84-40ca20f0390d","ios":"levelo://app?vid=4bb9781d-9951-4353-8a84-40ca20f0390d"},"vehicle_type_id":"4","last_reported":1769768527,"current_range_meters":3200,"station_id":"ce4bhmp2rcd13ifvqgog","pricing_plan_id":"cebpf4jnsgd1na2vs0mg"},{"bike_id":"dc9ee814-7f33-4fbb-a1ce-2d30e8c57914","system_id":"levelo_inurba_marseille","lat":43.22578,"lon":5.41632,"is_reserved":false,"is_disabled":false,"rental_uris":{"android":"levelo://app?vid=dc9ee814-7f33-4fbb-a1ce-2d30e8c57914","ios":"levelo://app?vid=dc9ee814-7f33-4fbb-a1ce-2d30e8c57914"},"vehicle_type_id":"4","last_reported":1769768527,"current_range_meters":3200,"station_id":"st_d2o4gvlbi1j2169b742g","pricing_plan_id":"cebpf4jnsgd1na2vs0mg"},{"bike_id":"a95b4716-e046-4b24-9f47-f006071598b6","system_id":"levelo_inurba_marseille","lat":43.26214,"lon":5.37444,"is_reserved":false,"is_disabled":false,"rental_uris":{"android":"levelo://app?vid=a95b4716-e046-4b24-9f47-f006071598b6","ios":"levelo://app?vid=a95b4716-e046-4b24-9f47-f006071598b6"},"vehicle_type_id":"4","last_reported":1769768527,"current_range_meters":3600,"station_id":"ce4bhgp2rcd13ifvqfc0","pricing_plan_id":"cebpf4jnsgd1na2vs0mg"},{"bike_id":"6257b160-73ec-4099-97ed-0763f119fb70","system_id":"levelo_inurba_marseille","lat":43.28938,"lon":5.36645,"is_reserved":false,"is_disabled":false,"rental_uris":{"android":"levelo://app?vid=6257b160-73ec-4099-97ed-0763f119fb70","ios":"levelo://app?vid=6257b160-73ec-4099-97ed-0763f119fb70"},"vehicle_type_id":"4","last_reported":1769768527,"current_range_meters":3600,"station_id":"ce4bhap2rcd13ifvqek0","pricing_plan_id":"cebpf4jnsgd1na2vs0mg"},{"bike_id":"e236f0a6-2e87-48ed-94ce-e49f696f4842","system_id":"levelo_inurba_marseille","lat":43.26578,"lon":5.37509,"is_reserved":false,"is_disabled":false,"rental_uris":{"android":"levelo://app?vid=e236f0a6-2e87-48ed-94ce-e49f696f4842","ios":"levelo://app?vid=e236f0a6-2e87-48ed-94ce-e49f696f4842"},"vehicle_type_id":"4","last_reported":1769768527,"current_range_meters":3600,"station_id":"","pricing_plan_id":"cebpf4jnsgd1na2vs0mg"},{"bike_id":"6726c42e-e8c2-46d4-b05e-dde6d5bf4340","system_id":"levelo_inurba_marseille","lat":43.25936,"lon":5.40903,"is_reserved":false,"is_disabled":false,"rental_uris":{"android":"levelo://app?vid=6726c42e-e8c2-46d4-b05e-dde6d5bf4340","ios":"levelo://app?vid=6726c42e-e8c2-46d4-b05e-dde6d5bf4340"},"vehicle_type_id":"4","last_reported":1769768527,"current_range_meters":3600,"station_id":"ce4bhm92rcd13ifvqglg","pricing_plan_id":"cebpf4jnsgd1na2vs0mg"},{"bike_id":"8c50cc1b-6957-4db2-9b96-76d9d37bac03","system_id":"levelo_inurba_marseille","lat":43.22566,"lon":5.41628,"is_reserved":false,"is_disabled":false,"rental_uris":{"android":"levelo://app?vid=8c50cc1b-6957-4db2-9b96-76d9d37bac03","ios":"levelo://app?vid=8c50cc1b-6957-4db2-9b96-76d9d37bac03"},"vehicle_type_id":"4","last_reported":1769768527,"current_range_meters":3600,"station_id":"st_d2o4gvlbi1j2169b742g","pricing_plan_id":"cebpf4jnsgd1na2vs0mg"},{"bike_id":"706fe81a-bdb2-42d8-b800-5c8160b7054c","system_id":"levelo_inurba_marseille","lat":43.25366,"lon":5.42154,"is_reserved":false,"is_disabled":false,"rental_uris":{"android":"levelo://app?vid=706fe81a-bdb2-42d8-b800-5c8160b7054c","ios":"levelo://app?vid=706fe81a-bdb2-42d8-b800-5c8160b7054c"},"vehicle_type_id":"4","last_reported":1769768527,"current_range_meters":3600,"station_id":"st_d2m65c5bi1j21697t3ng","pricing_plan_id":"cebpf4jnsgd1na2vs0mg"},{"bike_id":"2dbd219e-d121-42ae-9a81-54d58e6bfb20","system_id":"levelo_inurba_marseille","lat":43.24817,"lon":5.37461,"is_reserved":false,"is_disabled":false,"rental_uris":{"android":"levelo://app?vid=2dbd219e-d121-42ae-9a81-54d58e6bfb20","ios":"levelo://app?vid=2dbd219e-d121-42ae-9a81-54d58e6bfb20"},"vehicle_type_id":"4","last_reported":1769768527,"current_range_meters":3600,"station_id":"ce4bhgh2rcd13ifvqfb0","pricing_plan_id":"cebpf4jnsgd1na2vs0mg"},{"bike_id":"39753960-3c7e-4e4a-acb2-25c74c17dd07","system_id":"levelo_inurba_marseille","lat":43.22929,"lon":5.3538,"is_reserved":false,"is_disabled":false,"rental_uris":{"android":"levelo://app?vid=39753960-3c7e-4e4a-acb2-25c74c17dd07","ios":"levelo://app?vid=39753960-3c7e-4e4a-acb2-25c74c17dd07"},"vehicle_type_id":"4","last_reported":1769768527,"current_range_meters":3600,"station_id":"cpo3532slgdg3j2ikp40","pricing_plan_id":"cebpf4jnsgd1na2vs0mg"},{"bike_id":"932bb106-3c96-4dbf-947d-0b48571ad9e2","system_id":"levelo_inurba_marseille","lat":43.27378,"lon":5.36269,"is_reserved":false,"is_disabled":false,"rental_uris":{"android":"levelo://app?vid=932bb106-3c96-4dbf-947d-0b48571ad9e2","ios":"levelo://app?vid=932bb106-3c96-4dbf-947d-0b48571ad9e2"},"vehicle_type_id":"4","last_reported":1769768527,"current_range_meters":4000,"station_id":"ce4bhbh2rcd13ifvqeo0","pricing_plan_id":"cebpf4jnsgd1na2vs0mg"},{"bike_id":"3c0a4f5b-f91e-4c02-ae6d-858f0316e6f4","system_id":"levelo_inurba_marseille","lat":43.276731,"lon":5.389174,"is_reserved":false,"is_disabled":false,"rental_uris":{"android":"levelo://app?vid=3c0a4f5b-f91e-4c02-ae6d-858f0316e6f4","ios":"levelo://app?vid=3c0a4f5b-f91e-4c02-ae6d-858f0316e6f4"},"vehicle_type_id":"4","last_reported":1769768527,"current_range_meters":4000,"station_id":"ce4bhi12rcd13ifvqfo0","pricing_plan_id":"cebpf4jnsgd1na2vs0mg"},{"bike_id":"de5bf666-ef31-4ec0-a798-f348abfc8861","system_id":"levelo_inurba_marseille","lat":43.28483,"lon":5.38413,"is_reserved":false,"is_disabled":false,"rental_uris":{"android":"levelo://app?vid=de5bf666-ef31-4ec0-a798-f348abfc8861","ios":"levelo://app?vid=de5bf666-ef31-4ec0-a798-f348abfc8861"},"vehicle_type_id":"4","last_reported":1769768527,"current_range_meters":4000,"station_id":"ce4bh512rcd13ifvqe3g","pricing_plan_id":"cebpf4jnsgd1na2vs0mg"},{"bike_id":"14350e53-7374-4a82-9145-d963e90c79c0","system_id":"levelo_inurba_marseille","lat":43.24089,"lon":5.37744,"is_reserved":false,"is_disabled":false,"rental_uris":{"android":"levelo://app?vid=14350e53-7374-4a82-9145-d963e90c79c0","ios":"levelo://app?vid=14350e53-7374-4a82-9145-d963e90c79c0"},"vehicle_type_id":"4","last_reported":1769768527,"current_range_meters":4000,"station_id":"ce4bhnp2rcd13ifvqgvg","pricing_plan_id":"cebpf4jnsgd1na2vs0mg"},{"bike_id":"947b3f41-400e-4a7b-9150-c4b106fc2b3b","system_id":"levelo_inurba_marseille","lat":43.255815,"lon":5.382261,"is_reserved":false,"is_disabled":false,"rental_uris":{"android":"levelo://app?vid=947b3f41-400e-4a7b-9150-c4b106fc2b3b","ios":"levelo://app?vid=947b3f41-400e-4a7b-9150-c4b106fc2b3b"},"vehicle_type_id":"4","last_reported":1769768527,"current_range_meters":4000,"station_id":"ce4bhih2rcd13ifvqfs0","pricing_plan_id":"cebpf4jnsgd1na2vs0mg"},{"bike_id":"0d772e6a-293b-4a20-94aa-385c5bc54e9e","system_id":"levelo_inurba_marseille","lat":43.30415,"lon":5.39759,"is_reserved":false,"is_disabled":false,"rental_uris":{"android":"levelo://app?vid=0d772e6a-293b-4a20-94aa-385c5bc54e9e","ios":"levelo://app?vid=0d772e6a-293b-4a20-94aa-385c5bc54e9e"},"vehicle_type_id":"4","last_reported":1769768527,"current_range_meters":4000,"station_id":"ce4bh092rcd13ifvqd20","pricing_plan_id":"cebpf4jnsgd1na2vs0mg"},{"bike_id":"abe7cc03-c298-497f-8503-33c7408838b9","system_id":"levelo_inurba_marseille","lat":43.27938,"lon":5.41034,"is_reserved":false,"is_disabled":false,"rental_uris":{"android":"levelo://app?vid=abe7cc03-c298-497f-8503-33c7408838b9","ios":"levelo://app?vid=abe7cc03-c298-497f-8503-33c7408838b9"},"vehicle_type_id":"4","last_reported":1769768527,"current_range_meters":4000,"station_id":"ce4bhnp2rcd13ifvqh0g","pricing_plan_id":"cebpf4jnsgd1na2vs0mg"},{"bike_id":"e5a4f9f7-c5dd-494b-b477-cc26f7674e99","system_id":"levelo_inurba_marseille","lat":43.291248,"lon":5.382865,"is_reserved":false,"is_disabled":false,"rental_uris":{"android":"levelo://app?vid=e5a4f9f7-c5dd-494b-b477-cc26f7674e99","ios":"levelo://app?vid=e5a4f9f7-c5dd-494b-b477-cc26f7674e99"},"vehicle_type_id":"4","last_reported":1769768527,"current_range_meters":4000,"station_id":"ce4bh192rcd13ifvqdb0","pricing_plan_id":"cebpf4jnsgd1na2vs0mg"},{"bike_id":"a4cb0200-77f3-4ea1-807e-413152a79eca","system_id":"levelo_inurba_marseille","lat":43.28222,"lon":5.38617,"is_reserved":false,"is_disabled":false,"rental_uris":{"android":"levelo://app?vid=a4cb0200-77f3-4ea1-807e-413152a79eca","ios":"levelo://app?vid=a4cb0200-77f3-4ea1-807e-413152a79eca"},"vehicle_type_id":"4","last_reported":1769768527,"current_range_meters":4000,"station_id":"","pricing_plan_id":"cebpf4jnsgd1na2vs0mg"},{"bike_id":"a2c8c247-5aa4-446f-8d29-89d97f86ae7f","system_id":"levelo_inurba_marseille","lat":43.30554,"lon":5.36711,"is_reserved":false,"is_disabled":false,"rental_uris":{"android":"levelo://app?vid=a2c8c247-5aa4-446f-8d29-89d97f86ae7f","ios":"levelo://app?vid=a2c8c247-5aa4-446f-8d29-89d97f86ae7f"},"vehicle_type_id":"4","last_reported":1769768527,"current_range_meters":4000,"station_id":"ce4bgrp2rcd13ifvqc9g","pricing_plan_id":"cebpf4jnsgd1na2vs0mg"},{"bike_id":"ae2bd00b-86f2-42b9-8e4e-3fa74e019d82","system_id":"levelo_inurba_marseille","lat":43.23189,"lon":5.39994,"is_reserved":false,"is_disabled":false,"rental_uris":{"android":"levelo://app?vid=ae2bd00b-86f2-42b9-8e4e-3fa74e019d82","ios":"levelo://app?vid=ae2bd00b-86f2-42b9-8e4e-3fa74e019d82"},"vehicle_type_id":"4","last_reported":1769768527,"current_range_meters":4000,"station_id":"ce4bhn12rcd13ifvqgqg","pricing_plan_id":"cebpf4jnsgd1na2vs0mg"},{"bike_id":"1f9629b9-b1e9-492f-9836-3e9637986099","system_id":"levelo_inurba_marseille","lat":43.29508,"lon":5.38915,"is_reserved":false,"is_disabled":false,"rental_uris":{"android":"levelo://app?vid=1f9629b9-b1e9-492f-9836-3e9637986099","ios":"levelo://app?vid=1f9629b9-b1e9-492f-9836-3e9637986099"},"vehicle_type_id":"4","last_reported":1769768527,"current_range_meters":4400,"station_id":"","pricing_plan_id":"cebpf4jnsgd1na2vs0mg"},{"bike_id":"5db094de-6a86-436e-8c6e-f8afae445efb","system_id":"levelo_inurba_marseille","lat":43.28538,"lon":5.44081,"is_reserved":false,"is_disabled":false,"rental_uris":{"android":"levelo://app?vid=5db094de-6a86-436e-8c6e-f8afae445efb","ios":"levelo://app?vid=5db094de-6a86-436e-8c6e-f8afae445efb"},"vehicle_type_id":"4","last_reported":1769768527,"current_range_meters":4400,"station_id":"st_d3j3df2ikq2c7380ej80","pricing_plan_id":"cebpf4jnsgd1na2vs0mg"},{"bike_id":"d43c5a38-7847-4606-841d-59cea72271f9","system_id":"levelo_inurba_marseille","lat":43.27019,"lon":5.38629,"is_reserved":false,"is_disabled":false,"rental_uris":{"android":"levelo://app?vid=d43c5a38-7847-4606-841d-59cea72271f9","ios":"levelo://app?vid=d43c5a38-7847-4606-841d-59cea72271f9"},"vehicle_type_id":"4","last_reported":1769768527,"current_range_meters":4400,"station_id":"","pricing_plan_id":"cebpf4jnsgd1na2vs0mg"},{"bike_id":"b41b4f1e-5e82-474d-88e0-8a753992949d","system_id":"levelo_inurba_marseille","lat":43.25927,"lon":5.40916,"is_reserved":false,"is_disabled":false,"rental_uris":{"android":"levelo://app?vid=b41b4f1e-5e82-474d-88e0-8a753992949d","ios":"levelo://app?vid=b41b4f1e-5e82-474d-88e0-8a753992949d"},"vehicle_type_id":"4","last_reported":1769768527,"current_range_meters":4400,"station_id":"ce4bhm92rcd13ifvqglg","pricing_plan_id":"cebpf4jnsgd1na2vs0mg"},{"bike_id":"4bd6cb39-f26e-431f-9c48-bc9838a79167","system_id":"levelo_inurba_marseille","lat":43.29826,"lon":5.44065,"is_reserved":false,"is_disabled":false,"rental_uris":{"android":"levelo://app?vid=4bd6cb39-f26e-431f-9c48-bc9838a79167","ios":"levelo://app?vid=4bd6cb39-f26e-431f-9c48-bc9838a79167"},"vehicle_type_id":"4","last_reported":1769768527,"current_range_meters":4400,"station_id":"st_d3jp68qikq2c7381ktn0","pricing_plan_id":"cebpf4jnsgd1na2vs0mg"},{"bike_id":"da8a44d3-34e0-49d2-adb5-c15c90094160","system_id":"levelo_inurba_marseille","lat":43.28349,"lon":5.38104,"is_reserved":false,"is_disabled":false,"rental_uris":{"android":"levelo://app?vid=da8a44d3-34e0-49d2-adb5-c15c90094160","ios":"levelo://app?vid=da8a44d3-34e0-49d2-adb5-c15c90094160"},"vehicle_type_id":"4","last_reported":1769768527,"current_range_meters":4800,"station_id":"ce4bh412rcd13ifvqdr0","pricing_plan_id":"cebpf4jnsgd1na2vs0mg"},{"bike_id":"aa753bb7-bd6b-47c5-ab34-4be181563e55","system_id":"levelo_inurba_marseille","lat":43.31044,"lon":5.37186,"is_reserved":false,"is_disabled":false,"rental_uris":{"android":"levelo://app?vid=aa753bb7-bd6b-47c5-ab34-4be181563e55","ios":"levelo://app?vid=aa753bb7-bd6b-47c5-ab34-4be181563e55"},"vehicle_type_id":"4","last_reported":1769768527,"current_range_meters":4800,"station_id":"st_d4kl2rp97mjs73e7tdfg","pricing_plan_id":"cebpf4jnsgd1na2vs0mg"},{"bike_id":"0113fde2-16ba-483c-9656-720494edd7bf","system_id":"levelo_inurba_marseille","lat":43.23148,"lon":5.43727,"is_reserved":false,"is_disabled":false,"rental_uris":{"android":"levelo://app?vid=0113fde2-16ba-483c-9656-720494edd7bf","ios":"levelo://app?vid=0113fde2-16ba-483c-9656-720494edd7bf"},"vehicle_type_id":"4","last_reported":1769768527,"current_range_meters":4800,"station_id":"ce4bhmp2rcd13ifvqgog","pricing_plan_id":"cebpf4jnsgd1na2vs0mg"},{"bike_id":"0edb73c2-0d71-41ef-92a0-39c6197600e4","system_id":"levelo_inurba_marseille","lat":43.27069,"lon":5.38335,"is_reserved":false,"is_disabled":false,"rental_uris":{"android":"levelo://app?vid=0edb73c2-0d71-41ef-92a0-39c6197600e4","ios":"levelo://app?vid=0edb73c2-0d71-41ef-92a0-39c6197600e4"},"vehicle_type_id":"4","last_reported":1769768527,"current_range_meters":4800,"station_id":"st_d3n2fo6cfp8s73cte1j0","pricing_plan_id":"cebpf4jnsgd1na2vs0mg"},{"bike_id":"189b5eb9-954b-4512-8c31-5e0e8af132bc","system_id":"levelo_inurba_marseille","lat":43.28161,"lon":5.42638,"is_reserved":false,"is_disabled":false,"rental_uris":{"android":"levelo://app?vid=189b5eb9-954b-4512-8c31-5e0e8af132bc","ios":"levelo://app?vid=189b5eb9-954b-4512-8c31-5e0e8af132bc"},"vehicle_type_id":"4","last_reported":1769768527,"current_range_meters":4800,"station_id":"ce4bhnh2rcd13ifvqgug","pricing_plan_id":"cebpf4jnsgd1na2vs0mg"},{"bike_id":"1e1b2d31-1295-4191-9d05-650830a76117","system_id":"levelo_inurba_marseille","lat":43.30141,"lon":5.41505,"is_reserved":false,"is_disabled":false,"rental_uris":{"android":"levelo://app?vid=1e1b2d31-1295-4191-9d05-650830a76117","ios":"levelo://app?vid=1e1b2d31-1295-4191-9d05-650830a76117"},"vehicle_type_id":"4","last_reported":1769768527,"current_range_meters":4800,"station_id":"","pricing_plan_id":"cebpf4jnsgd1na2vs0mg"},{"bike_id":"ee0ccf3c-ca54-4417-ab13-6c458bb1ef21","system_id":"levelo_inurba_marseille","lat":43.31148,"lon":5.40472,"is_reserved":false,"is_disabled":false,"rental_uris":{"android":"levelo://app?vid=ee0ccf3c-ca54-4417-ab13-6c458bb1ef21","ios":"levelo://app?vid=ee0ccf3c-ca54-4417-ab13-6c458bb1ef21"},"vehicle_type_id":"4","last_reported":1769768527,"current_range_meters":4800,"station_id":"","pricing_plan_id":"cebpf4jnsgd1na2vs0mg"},{"bike_id":"71ea06b7-46c1-4fc9-a594-153d92364656","system_id":"levelo_inurba_marseille","lat":43.30713,"lon":5.40979,"is_reserved":false,"is_disabled":false,"rental_uris":{"android":"levelo://app?vid=71ea06b7-46c1-4fc9-a594-153d92364656","ios":"levelo://app?vid=71ea06b7-46c1-4fc9-a594-153d92364656"},"vehicle_type_id":"4","last_reported":1769768527,"current_range_meters":4800,"station_id":"","pricing_plan_id":"cebpf4jnsgd1na2vs0mg"},{"bike_id":"25a9226a-9193-4bb4-8ad1-0a617754bee3","system_id":"levelo_inurba_marseille","lat":43.28532,"lon":5.44095,"is_reserved":false,"is_disabled":false,"rental_uris":{"android":"levelo://app?vid=25a9226a-9193-4bb4-8ad1-0a617754bee3","ios":"levelo://app?vid=25a9226a-9193-4bb4-8ad1-0a617754bee3"},"vehicle_type_id":"4","last_reported":1769768527,"current_range_meters":4800,"station_id":"","pricing_plan_id":"cebpf4jnsgd1na2vs0mg"},{"bike_id":"8124257b-86e4-4773-9928-40b9e517b1e7","system_id":"levelo_inurba_marseille","lat":43.24455,"lon":5.42545,"is_reserved":false,"is_disabled":false,"rental_uris":{"android":"levelo://app?vid=8124257b-86e4-4773-9928-40b9e517b1e7","ios":"levelo://app?vid=8124257b-86e4-4773-9928-40b9e517b1e7"},"vehicle_type_id":"4","last_reported":1769768527,"current_range_meters":5600,"station_id":"st_d4a3vfp97mjs738cd8kg","pricing_plan_id":"cebpf4jnsgd1na2vs0mg"},{"bike_id":"14ad4359-d217-40c8-bc15-7989600afabe","system_id":"levelo_inurba_marseille","lat":43.283881,"lon":5.40718,"is_reserved":false,"is_disabled":false,"rental_uris":{"android":"levelo://app?vid=14ad4359-d217-40c8-bc15-7989600afabe","ios":"levelo://app?vid=14ad4359-d217-40c8-bc15-7989600afabe"},"vehicle_type_id":"4","last_reported":1769768527,"current_range_meters":5600,"station_id":"","pricing_plan_id":"cebpf4jnsgd1na2vs0mg"},{"bike_id":"82693396-ff61-48ee-9772-fee51d6503d4","system_id":"levelo_inurba_marseille","lat":43.29552,"lon":5.42278,"is_reserved":false,"is_disabled":false,"rental_uris":{"android":"levelo://app?vid=82693396-ff61-48ee-9772-fee51d6503d4","ios":"levelo://app?vid=82693396-ff61-48ee-9772-fee51d6503d4"},"vehicle_type_id":"4","last_reported":1769768527,"current_range_meters":5600,"station_id":"ce4bhph2rcd13ifvqhdg","pricing_plan_id":"cebpf4jnsgd1na2vs0mg"},{"bike_id":"6a0e40e4-3258-4516-885d-71d0968e64ad","system_id":"levelo_inurba_marseille","lat":43.23069,"lon":5.35492,"is_reserved":false,"is_disabled":false,"rental_uris":{"android":"levelo://app?vid=6a0e40e4-3258-4516-885d-71d0968e64ad","ios":"levelo://app?vid=6a0e40e4-3258-4516-885d-71d0968e64ad"},"vehicle_type_id":"4","last_reported":1769768527,"current_range_meters":5600,"station_id":"cpo3342slgdg3j2ifvpg","pricing_plan_id":"cebpf4jnsgd1na2vs0mg"},{"bike_id":"d8e89248-0793-4c7f-b1dc-a1227df1f40e","system_id":"levelo_inurba_marseille","lat":43.30946,"lon":5.3904,"is_reserved":false,"is_disabled":false,"rental_uris":{"android":"levelo://app?vid=d8e89248-0793-4c7f-b1dc-a1227df1f40e","ios":"levelo://app?vid=d8e89248-0793-4c7f-b1dc-a1227df1f40e"},"vehicle_type_id":"4","last_reported":1769768527,"current_range_meters":5600,"station_id":"ce4bgup2rcd13ifvqco0","pricing_plan_id":"cebpf4jnsgd1na2vs0mg"},{"bike_id":"bdefd3d8-62d9-4d7d-9283-b8177301c8b1","system_id":"levelo_inurba_marseille","lat":43.2467,"lon":5.38163,"is_reserved":false,"is_disabled":false,"rental_uris":{"android":"levelo://app?vid=bdefd3d8-62d9-4d7d-9283-b8177301c8b1","ios":"levelo://app?vid=bdefd3d8-62d9-4d7d-9283-b8177301c8b1"},"vehicle_type_id":"4","last_reported":1769768527,"current_range_meters":5600,"station_id":"ce4bhih2rcd13ifvqfr0","pricing_plan_id":"cebpf4jnsgd1na2vs0mg"},{"bike_id":"523f5811-3f87-4c39-9c64-15095eb70bcc","system_id":"levelo_inurba_marseille","lat":43.29036,"lon":5.3997,"is_reserved":false,"is_disabled":false,"rental_uris":{"android":"levelo://app?vid=523f5811-3f87-4c39-9c64-15095eb70bcc","ios":"levelo://app?vid=523f5811-3f87-4c39-9c64-15095eb70bcc"},"vehicle_type_id":"4","last_reported":1769768527,"current_range_meters":5600,"station_id":"ce4bh392rcd13ifvqdm0","pricing_plan_id":"cebpf4jnsgd1na2vs0mg"},{"bike_id":"ea6cf598-e40c-423d-8423-cc421a3ebf1e","system_id":"levelo_inurba_marseille","lat":43.286089,"lon":5.370662,"is_reserved":false,"is_disabled":false,"rental_uris":{"android":"levelo://app?vid=ea6cf598-e40c-423d-8423-cc421a3ebf1e","ios":"levelo://app?vid=ea6cf598-e40c-423d-8423-cc421a3ebf1e"},"vehicle_type_id":"4","last_reported":1769768527,"current_range_meters":5600,"station_id":"","pricing_plan_id":"cebpf4jnsgd1na2vs0mg"},{"bike_id":"26b99e40-c950-4efd-bc4d-73f8117bb709","system_id":"levelo_inurba_marseille","lat":43.325006,"lon":5.383058,"is_reserved":false,"is_disabled":false,"rental_uris":{"android":"levelo://app?vid=26b99e40-c950-4efd-bc4d-73f8117bb709","ios":"levelo://app?vid=26b99e40-c950-4efd-bc4d-73f8117bb709"},"vehicle_type_id":"4","last_reported":1769768527,"current_range_meters":5600,"station_id":"st_d4asgbiv49dc73anf9m0","pricing_plan_id":"cebpf4jnsgd1na2vs0mg"},{"bike_id":"8bd2dedc-53b6-4a9b-b341-e8ab2dec2237","system_id":"levelo_inurba_marseille","lat":43.24639,"lon":5.43151,"is_reserved":false,"is_disabled":false,"rental_uris":{"android":"levelo://app?vid=8bd2dedc-53b6-4a9b-b341-e8ab2dec2237","ios":"levelo://app?vid=8bd2dedc-53b6-4a9b-b341-e8ab2dec2237"},"vehicle_type_id":"4","last_reported":1769768527,"current_range_meters":5600,"station_id":"st_d2m6c4gdas8pm72e190g","pricing_plan_id":"cebpf4jnsgd1na2vs0mg"},{"bike_id":"b7ca9f2b-9640-4e31-adcc-000e32fe2eca","system_id":"levelo_inurba_marseille","lat":43.246572,"lon":5.381576,"is_reserved":false,"is_disabled":false,"rental_uris":{"android":"levelo://app?vid=b7ca9f2b-9640-4e31-adcc-000e32fe2eca","ios":"levelo://app?vid=b7ca9f2b-9640-4e31-adcc-000e32fe2eca"},"vehicle_type_id":"4","last_reported":1769768527,"current_range_meters":6000,"station_id":"ce4bhih2rcd13ifvqfr0","pricing_plan_id":"cebpf4jnsgd1na2vs0mg"},{"bike_id":"6f2111dd-6b6a-402c-9729-62f7313dcc5e","system_id":"levelo_inurba_marseille","lat":43.323524,"lon":5.367517,"is_reserved":false,"is_disabled":false,"rental_uris":{"android":"levelo://app?vid=6f2111dd-6b6a-402c-9729-62f7313dcc5e","ios":"levelo://app?vid=6f2111dd-6b6a-402c-9729-62f7313dcc5e"},"vehicle_type_id":"4","last_reported":1769768527,"current_range_meters":6000,"station_id":"ce4bhsh2rcd13ifvqi2g","pricing_plan_id":"cebpf4jnsgd1na2vs0mg"},{"bike_id":"d9b6343b-4e87-445f-8063-2fce9657168c","system_id":"levelo_inurba_marseille","lat":43.30381,"lon":5.37592,"is_reserved":false,"is_disabled":false,"rental_uris":{"android":"levelo://app?vid=d9b6343b-4e87-445f-8063-2fce9657168c","ios":"levelo://app?vid=d9b6343b-4e87-445f-8063-2fce9657168c"},"vehicle_type_id":"4","last_reported":1769768527,"current_range_meters":6000,"station_id":"","pricing_plan_id":"cebpf4jnsgd1na2vs0mg"},{"bike_id":"a0d1246f-02ec-43f4-a576-be2ae57edad2","system_id":"levelo_inurba_marseille","lat":43.24391,"lon":5.37044,"is_reserved":false,"is_disabled":false,"rental_uris":{"android":"levelo://app?vid=a0d1246f-02ec-43f4-a576-be2ae57edad2","ios":"levelo://app?vid=a0d1246f-02ec-43f4-a576-be2ae57edad2"},"vehicle_type_id":"4","last_reported":1769768527,"current_range_meters":6000,"station_id":"ce4bhhh2rcd13ifvqfk0","pricing_plan_id":"cebpf4jnsgd1na2vs0mg"},{"bike_id":"83bbeac1-b4c2-4835-91cb-013728be84c8","system_id":"levelo_inurba_marseille","lat":43.29923,"lon":5.39104,"is_reserved":false,"is_disabled":true,"rental_uris":{"android":"levelo://app?vid=83bbeac1-b4c2-4835-91cb-013728be84c8","ios":"levelo://app?vid=83bbeac1-b4c2-4835-91cb-013728be84c8"},"vehicle_type_id":"4","last_reported":1769768527,"current_range_meters":6000,"station_id":"","pricing_plan_id":"cebpf4jnsgd1na2vs0mg"},{"bike_id":"5c1bebe8-43bf-476b-a01e-98bad8762f0c","system_id":"levelo_inurba_marseille","lat":43.24626,"lon":5.43145,"is_reserved":false,"is_disabled":false,"rental_uris":{"android":"levelo://app?vid=5c1bebe8-43bf-476b-a01e-98bad8762f0c","ios":"levelo://app?vid=5c1bebe8-43bf-476b-a01e-98bad8762f0c"},"vehicle_type_id":"4","last_reported":1769768527,"current_range_meters":6000,"station_id":"st_d2m6c4gdas8pm72e190g","pricing_plan_id":"cebpf4jnsgd1na2vs0mg"},{"bike_id":"d16b3d70-745b-4fce-8c3d-35686a5ffcda","system_id":"levelo_inurba_marseille","lat":43.33607,"lon":5.41024,"is_reserved":false,"is_disabled":false,"rental_uris":{"android":"levelo://app?vid=d16b3d70-745b-4fce-8c3d-35686a5ffcda","ios":"levelo://app?vid=d16b3d70-745b-4fce-8c3d-35686a5ffcda"},"vehicle_type_id":"4","last_reported":1769768527,"current_range_meters":6000,"station_id":"ce4bhqh2rcd13ifvqhmg","pricing_plan_id":"cebpf4jnsgd1na2vs0mg"},{"bike_id":"f479a039-8033-47b9-816f-8d6e23143401","system_id":"levelo_inurba_marseille","lat":43.24798,"lon":5.37446,"is_reserved":false,"is_disabled":false,"rental_uris":{"android":"levelo://app?vid=f479a039-8033-47b9-816f-8d6e23143401","ios":"levelo://app?vid=f479a039-8033-47b9-816f-8d6e23143401"},"vehicle_type_id":"4","last_reported":1769768527,"current_range_meters":6000,"station_id":"ce4bhgh2rcd13ifvqfb0","pricing_plan_id":"cebpf4jnsgd1na2vs0mg"},{"bike_id":"4ae697cd-fb11-40c2-ab8f-53d4334f67ae","system_id":"levelo_inurba_marseille","lat":43.29865,"lon":5.38657,"is_reserved":false,"is_disabled":false,"rental_uris":{"android":"levelo://app?vid=4ae697cd-fb11-40c2-ab8f-53d4334f67ae","ios":"levelo://app?vid=4ae697cd-fb11-40c2-ab8f-53d4334f67ae"},"vehicle_type_id":"4","last_reported":1769768527,"current_range_meters":6000,"station_id":"","pricing_plan_id":"cebpf4jnsgd1na2vs0mg"},{"bike_id":"e04521ca-ce5b-4911-93eb-efa07b2cc503","system_id":"levelo_inurba_marseille","lat":43.29488,"lon":5.43308,"is_reserved":false,"is_disabled":false,"rental_uris":{"android":"levelo://app?vid=e04521ca-ce5b-4911-93eb-efa07b2cc503","ios":"levelo://app?vid=e04521ca-ce5b-4911-93eb-efa07b2cc503"},"vehicle_type_id":"4","last_reported":1769768527,"current_range_meters":6000,"station_id":"st_d3j5ugp08ojc73fj9d10","pricing_plan_id":"cebpf4jnsgd1na2vs0mg"},{"bike_id":"3dc504de-340a-4960-9295-e93227b46b5e","system_id":"levelo_inurba_marseille","lat":43.32117,"lon":5.36755,"is_reserved":false,"is_disabled":false,"rental_uris":{"android":"levelo://app?vid=3dc504de-340a-4960-9295-e93227b46b5e","ios":"levelo://app?vid=3dc504de-340a-4960-9295-e93227b46b5e"},"vehicle_type_id":"4","last_reported":1769768527,"current_range_meters":6000,"station_id":"ce4bhrh2rcd13ifvqhug","pricing_plan_id":"cebpf4jnsgd1na2vs0mg"},{"bike_id":"eebab09b-2331-4761-b4ad-ca153797fa8d","system_id":"levelo_inurba_marseille","lat":43.28269,"lon":5.35056,"is_reserved":false,"is_disabled":false,"rental_uris":{"android":"levelo://app?vid=eebab09b-2331-4761-b4ad-ca153797fa8d","ios":"levelo://app?vid=eebab09b-2331-4761-b4ad-ca153797fa8d"},"vehicle_type_id":"4","last_reported":1769768527,"current_range_meters":6000,"station_id":"ce4bhbp2rcd13ifvqerg","pricing_plan_id":"cebpf4jnsgd1na2vs0mg"},{"bike_id":"3205988f-0233-437d-854f-d66b3762658c","system_id":"levelo_inurba_marseille","lat":43.28632,"lon":5.35096,"is_reserved":false,"is_disabled":false,"rental_uris":{"android":"levelo://app?vid=3205988f-0233-437d-854f-d66b3762658c","ios":"levelo://app?vid=3205988f-0233-437d-854f-d66b3762658c"},"vehicle_type_id":"4","last_reported":1769768527,"current_range_meters":6000,"station_id":"ce4bhch2rcd13ifvqeug","pricing_plan_id":"cebpf4jnsgd1na2vs0mg"},{"bike_id":"0ee3a750-17da-48e0-bb96-7ed7330b4c62","system_id":"levelo_inurba_marseille","lat":43.24378,"lon":5.37071,"is_reserved":false,"is_disabled":false,"rental_uris":{"android":"levelo://app?vid=0ee3a750-17da-48e0-bb96-7ed7330b4c62","ios":"levelo://app?vid=0ee3a750-17da-48e0-bb96-7ed7330b4c62"},"vehicle_type_id":"4","last_reported":1769768527,"current_range_meters":6400,"station_id":"ce4bhhh2rcd13ifvqfk0","pricing_plan_id":"cebpf4jnsgd1na2vs0mg"},{"bike_id":"7496a825-dfc1-46b8-b1dd-d6a0cd1a78c8","system_id":"levelo_inurba_marseille","lat":43.24406,"lon":5.37102,"is_reserved":false,"is_disabled":false,"rental_uris":{"android":"levelo://app?vid=7496a825-dfc1-46b8-b1dd-d6a0cd1a78c8","ios":"levelo://app?vid=7496a825-dfc1-46b8-b1dd-d6a0cd1a78c8"},"vehicle_type_id":"4","last_reported":1769768527,"current_range_meters":6400,"station_id":"ce4bhhh2rcd13ifvqfk0","pricing_plan_id":"cebpf4jnsgd1na2vs0mg"},{"bike_id":"7529c937-77dc-4715-8a89-50b7457f4baa","system_id":"levelo_inurba_marseille","lat":43.25923,"lon":5.40909,"is_reserved":false,"is_disabled":true,"rental_uris":{"android":"levelo://app?vid=7529c937-77dc-4715-8a89-50b7457f4baa","ios":"levelo://app?vid=7529c937-77dc-4715-8a89-50b7457f4baa"},"vehicle_type_id":"4","last_reported":1769768527,"current_range_meters":6400,"station_id":"ce4bhm92rcd13ifvqglg","pricing_plan_id":"cebpf4jnsgd1na2vs0mg"},{"bike_id":"83fc5387-9bd8-4dec-804d-abfa877a86a6","system_id":"levelo_inurba_marseille","lat":43.29834,"lon":5.44071,"is_reserved":false,"is_disabled":false,"rental_uris":{"android":"levelo://app?vid=83fc5387-9bd8-4dec-804d-abfa877a86a6","ios":"levelo://app?vid=83fc5387-9bd8-4dec-804d-abfa877a86a6"},"vehicle_type_id":"4","last_reported":1769768527,"current_range_meters":6400,"station_id":"","pricing_plan_id":"cebpf4jnsgd1na2vs0mg"},{"bike_id":"bd889336-68ff-4f09-8c88-588306cf9fc6","system_id":"levelo_inurba_marseille","lat":43.27077,"lon":5.40381,"is_reserved":false,"is_disabled":false,"rental_uris":{"android":"levelo://app?vid=bd889336-68ff-4f09-8c88-588306cf9fc6","ios":"levelo://app?vid=bd889336-68ff-4f09-8c88-588306cf9fc6"},"vehicle_type_id":"4","last_reported":1769768527,"current_range_meters":6400,"station_id":"","pricing_plan_id":"cebpf4jnsgd1na2vs0mg"},{"bike_id":"7a4412cf-c498-4121-be46-049419c026d4","system_id":"levelo_inurba_marseille","lat":43.27941,"lon":5.41045,"is_reserved":false,"is_disabled":false,"rental_uris":{"android":"levelo://app?vid=7a4412cf-c498-4121-be46-049419c026d4","ios":"levelo://app?vid=7a4412cf-c498-4121-be46-049419c026d4"},"vehicle_type_id":"4","last_reported":1769768527,"current_range_meters":6400,"station_id":"ce4bhnp2rcd13ifvqh0g","pricing_plan_id":"cebpf4jnsgd1na2vs0mg"},{"bike_id":"71a75bdc-ce4a-4bd7-8c42-37e79540e666","system_id":"levelo_inurba_marseille","lat":43.30523,"lon":5.37916,"is_reserved":false,"is_disabled":false,"rental_uris":{"android":"levelo://app?vid=71a75bdc-ce4a-4bd7-8c42-37e79540e666","ios":"levelo://app?vid=71a75bdc-ce4a-4bd7-8c42-37e79540e666"},"vehicle_type_id":"4","last_reported":1769768527,"current_range_meters":6400,"station_id":"","pricing_plan_id":"cebpf4jnsgd1na2vs0mg"},{"bike_id":"b93f36af-6012-4250-a69f-3de373ca3510","system_id":"levelo_inurba_marseille","lat":43.282739,"lon":5.350797,"is_reserved":false,"is_disabled":false,"rental_uris":{"android":"levelo://app?vid=b93f36af-6012-4250-a69f-3de373ca3510","ios":"levelo://app?vid=b93f36af-6012-4250-a69f-3de373ca3510"},"vehicle_type_id":"4","last_reported":1769768527,"current_range_meters":6400,"station_id":"ce4bhbp2rcd13ifvqerg","pricing_plan_id":"cebpf4jnsgd1na2vs0mg"},{"bike_id":"7714d863-1c60-4efa-a925-44984599d482","system_id":"levelo_inurba_marseille","lat":43.29752,"lon":5.42781,"is_reserved":false,"is_disabled":false,"rental_uris":{"android":"levelo://app?vid=7714d863-1c60-4efa-a925-44984599d482","ios":"levelo://app?vid=7714d863-1c60-4efa-a925-44984599d482"},"vehicle_type_id":"4","last_reported":1769768527,"current_range_meters":6400,"station_id":"st_d3md5207bmas73dh9klg","pricing_plan_id":"cebpf4jnsgd1na2vs0mg"},{"bike_id":"0760064b-5722-42a9-9948-586ac57aa647","system_id":"levelo_inurba_marseille","lat":43.24652,"lon":5.3891,"is_reserved":false,"is_disabled":false,"rental_uris":{"android":"levelo://app?vid=0760064b-5722-42a9-9948-586ac57aa647","ios":"levelo://app?vid=0760064b-5722-42a9-9948-586ac57aa647"},"vehicle_type_id":"4","last_reported":1769768527,"current_range_meters":6400,"station_id":"ce4bhg12rcd13ifvqf60","pricing_plan_id":"cebpf4jnsgd1na2vs0mg"},{"bike_id":"4ef5fc9c-c8d6-48d7-94a0-e86b57d76fb4","system_id":"levelo_inurba_marseille","lat":43.23141,"lon":5.43717,"is_reserved":false,"is_disabled":false,"rental_uris":{"android":"levelo://app?vid=4ef5fc9c-c8d6-48d7-94a0-e86b57d76fb4","ios":"levelo://app?vid=4ef5fc9c-c8d6-48d7-94a0-e86b57d76fb4"},"vehicle_type_id":"4","last_reported":1769768527,"current_range_meters":6400,"station_id":"ce4bhmp2rcd13ifvqgog","pricing_plan_id":"cebpf4jnsgd1na2vs0mg"},{"bike_id":"d08ad747-e8dd-4a39-990c-56de807eb318","system_id":"levelo_inurba_marseille","lat":43.26537,"lon":5.40318,"is_reserved":false,"is_disabled":false,"rental_uris":{"android":"levelo://app?vid=d08ad747-e8dd-4a39-990c-56de807eb318","ios":"levelo://app?vid=d08ad747-e8dd-4a39-990c-56de807eb318"},"vehicle_type_id":"4","last_reported":1769768527,"current_range_meters":6400,"station_id":"ce4bhmp2rcd13ifvqgng","pricing_plan_id":"cebpf4jnsgd1na2vs0mg"},{"bike_id":"59ae0900-c855-4741-b5cf-c53827ed9733","system_id":"levelo_inurba_marseille","lat":43.24163,"lon":5.36395,"is_reserved":false,"is_disabled":false,"rental_uris":{"android":"levelo://app?vid=59ae0900-c855-4741-b5cf-c53827ed9733","ios":"levelo://app?vid=59ae0900-c855-4741-b5cf-c53827ed9733"},"vehicle_type_id":"4","last_reported":1769768527,"current_range_meters":6400,"station_id":"cpo36qri1sfpv3e86is0","pricing_plan_id":"cebpf4jnsgd1na2vs0mg"},{"bike_id":"022d369a-95f4-48b4-b97e-fa7bf8af08d6","system_id":"levelo_inurba_marseille","lat":43.23975,"lon":5.36662,"is_reserved":false,"is_disabled":false,"rental_uris":{"android":"levelo://app?vid=022d369a-95f4-48b4-b97e-fa7bf8af08d6","ios":"levelo://app?vid=022d369a-95f4-48b4-b97e-fa7bf8af08d6"},"vehicle_type_id":"4","last_reported":1769768527,"current_range_meters":6400,"station_id":"ce4bhi12rcd13ifvqfp0","pricing_plan_id":"cebpf4jnsgd1na2vs0mg"},{"bike_id":"842ae640-421f-4790-99f0-94bd0d50de25","system_id":"levelo_inurba_marseille","lat":43.30534,"lon":5.3654,"is_reserved":false,"is_disabled":false,"rental_uris":{"android":"levelo://app?vid=842ae640-421f-4790-99f0-94bd0d50de25","ios":"levelo://app?vid=842ae640-421f-4790-99f0-94bd0d50de25"},"vehicle_type_id":"4","last_reported":1769768527,"current_range_meters":6400,"station_id":"ce4bgs12rcd13ifvqcag","pricing_plan_id":"cebpf4jnsgd1na2vs0mg"},{"bike_id":"1df32dff-5611-415d-8fae-817c467a81ff","system_id":"levelo_inurba_marseille","lat":43.23062,"lon":5.35503,"is_reserved":false,"is_disabled":false,"rental_uris":{"android":"levelo://app?vid=1df32dff-5611-415d-8fae-817c467a81ff","ios":"levelo://app?vid=1df32dff-5611-415d-8fae-817c467a81ff"},"vehicle_type_id":"4","last_reported":1769768527,"current_range_meters":6400,"station_id":"cpo3342slgdg3j2ifvpg","pricing_plan_id":"cebpf4jnsgd1na2vs0mg"},{"bike_id":"d202504a-b502-48a2-bfc7-18b0cd2b6404","system_id":"levelo_inurba_marseille","lat":43.32367,"lon":5.36768,"is_reserved":false,"is_disabled":false,"rental_uris":{"android":"levelo://app?vid=d202504a-b502-48a2-bfc7-18b0cd2b6404","ios":"levelo://app?vid=d202504a-b502-48a2-bfc7-18b0cd2b6404"},"vehicle_type_id":"4","last_reported":1769768527,"current_range_meters":6400,"station_id":"ce4bhsh2rcd13ifvqi2g","pricing_plan_id":"cebpf4jnsgd1na2vs0mg"},{"bike_id":"456727bd-baa8-41bf-ae9f-158a99ff9411","system_id":"levelo_inurba_marseille","lat":43.22563,"lon":5.41635,"is_reserved":false,"is_disabled":false,"rental_uris":{"android":"levelo://app?vid=456727bd-baa8-41bf-ae9f-158a99ff9411","ios":"levelo://app?vid=456727bd-baa8-41bf-ae9f-158a99ff9411"},"vehicle_type_id":"4","last_reported":1769768527,"current_range_meters":6800,"station_id":"st_d2o4gvlbi1j2169b742g","pricing_plan_id":"cebpf4jnsgd1na2vs0mg"},{"bike_id":"ef68bdf9-fa71-483b-bc99-7f9581830aca","system_id":"levelo_inurba_marseille","lat":43.305,"lon":5.36715,"is_reserved":false,"is_disabled":false,"rental_uris":{"android":"levelo://app?vid=ef68bdf9-fa71-483b-bc99-7f9581830aca","ios":"levelo://app?vid=ef68bdf9-fa71-483b-bc99-7f9581830aca"},"vehicle_type_id":"4","last_reported":1769768527,"current_range_meters":6800,"station_id":"ce4bgrp2rcd13ifvqc9g","pricing_plan_id":"cebpf4jnsgd1na2vs0mg"},{"bike_id":"c4acb716-1171-46c8-b951-5c159a21272b","system_id":"levelo_inurba_marseille","lat":43.29302,"lon":5.37455,"is_reserved":false,"is_disabled":false,"rental_uris":{"android":"levelo://app?vid=c4acb716-1171-46c8-b951-5c159a21272b","ios":"levelo://app?vid=c4acb716-1171-46c8-b951-5c159a21272b"},"vehicle_type_id":"4","last_reported":1769768527,"current_range_meters":6800,"station_id":"ce4bgi12rcd13ifvqb70","pricing_plan_id":"cebpf4jnsgd1na2vs0mg"},{"bike_id":"82a6b099-0577-4798-9a60-21fb38c2bbb7","system_id":"levelo_inurba_marseille","lat":43.29818,"lon":5.44064,"is_reserved":false,"is_disabled":false,"rental_uris":{"android":"levelo://app?vid=82a6b099-0577-4798-9a60-21fb38c2bbb7","ios":"levelo://app?vid=82a6b099-0577-4798-9a60-21fb38c2bbb7"},"vehicle_type_id":"4","last_reported":1769768527,"current_range_meters":6800,"station_id":"st_d3jp68qikq2c7381ktn0","pricing_plan_id":"cebpf4jnsgd1na2vs0mg"},{"bike_id":"1440a1fd-c02e-49b3-95e7-8bbcddadff1d","system_id":"levelo_inurba_marseille","lat":43.24411,"lon":5.37081,"is_reserved":false,"is_disabled":false,"rental_uris":{"android":"levelo://app?vid=1440a1fd-c02e-49b3-95e7-8bbcddadff1d","ios":"levelo://app?vid=1440a1fd-c02e-49b3-95e7-8bbcddadff1d"},"vehicle_type_id":"4","last_reported":1769768527,"current_range_meters":6800,"station_id":"ce4bhhh2rcd13ifvqfk0","pricing_plan_id":"cebpf4jnsgd1na2vs0mg"},{"bike_id":"2626a307-09e6-4806-8747-64c64cf9b162","system_id":"levelo_inurba_marseille","lat":43.24467,"lon":5.42554,"is_reserved":false,"is_disabled":false,"rental_uris":{"android":"levelo://app?vid=2626a307-09e6-4806-8747-64c64cf9b162","ios":"levelo://app?vid=2626a307-09e6-4806-8747-64c64cf9b162"},"vehicle_type_id":"4","last_reported":1769768527,"current_range_meters":6800,"station_id":"st_d4a3vfp97mjs738cd8kg","pricing_plan_id":"cebpf4jnsgd1na2vs0mg"},{"bike_id":"5727f08a-cb26-46f3-b63d-41a44b40fd7d","system_id":"levelo_inurba_marseille","lat":43.26236,"lon":5.37504,"is_reserved":false,"is_disabled":false,"rental_uris":{"android":"levelo://app?vid=5727f08a-cb26-46f3-b63d-41a44b40fd7d","ios":"levelo://app?vid=5727f08a-cb26-46f3-b63d-41a44b40fd7d"},"vehicle_type_id":"4","last_reported":1769768527,"current_range_meters":6800,"station_id":"ce4bhgp2rcd13ifvqfc0","pricing_plan_id":"cebpf4jnsgd1na2vs0mg"},{"bike_id":"7008570a-4030-4a5c-bce0-6e90ab09f5fd","system_id":"levelo_inurba_marseille","lat":43.24637,"lon":5.3819,"is_reserved":false,"is_disabled":false,"rental_uris":{"android":"levelo://app?vid=7008570a-4030-4a5c-bce0-6e90ab09f5fd","ios":"levelo://app?vid=7008570a-4030-4a5c-bce0-6e90ab09f5fd"},"vehicle_type_id":"4","last_reported":1769768527,"current_range_meters":6800,"station_id":"ce4bhih2rcd13ifvqfr0","pricing_plan_id":"cebpf4jnsgd1na2vs0mg"},{"bike_id":"cfc6715f-89b6-41b5-8345-c44216a0ecae","system_id":"levelo_inurba_marseille","lat":43.30188,"lon":5.37391,"is_reserved":false,"is_disabled":false,"rental_uris":{"android":"levelo://app?vid=cfc6715f-89b6-41b5-8345-c44216a0ecae","ios":"levelo://app?vid=cfc6715f-89b6-41b5-8345-c44216a0ecae"},"vehicle_type_id":"4","last_reported":1769768527,"current_range_meters":6800,"station_id":"ce4bgs92rcd13ifvqcc0","pricing_plan_id":"cebpf4jnsgd1na2vs0mg"},{"bike_id":"fe3c6e86-3ed8-4512-a98e-e023bb38d239","system_id":"levelo_inurba_marseille","lat":43.33541,"lon":5.37479,"is_reserved":false,"is_disabled":false,"rental_uris":{"android":"levelo://app?vid=fe3c6e86-3ed8-4512-a98e-e023bb38d239","ios":"levelo://app?vid=fe3c6e86-3ed8-4512-a98e-e023bb38d239"},"vehicle_type_id":"4","last_reported":1769768527,"current_range_meters":6800,"station_id":"","pricing_plan_id":"cebpf4jnsgd1na2vs0mg"},{"bike_id":"73a6585c-b10e-4f79-a29b-c3e206c1ffc8","system_id":"levelo_inurba_marseille","lat":43.26945,"lon":5.40229,"is_reserved":false,"is_disabled":false,"rental_uris":{"android":"levelo://app?vid=73a6585c-b10e-4f79-a29b-c3e206c1ffc8","ios":"levelo://app?vid=73a6585c-b10e-4f79-a29b-c3e206c1ffc8"},"vehicle_type_id":"4","last_reported":1769768527,"current_range_meters":6800,"station_id":"cjm6bp8fraef2m0cb0m0","pricing_plan_id":"cebpf4jnsgd1na2vs0mg"},{"bike_id":"8f23e6a5-b8b2-4a92-a121-a502037dd066","system_id":"levelo_inurba_marseille","lat":43.30435,"lon":5.38903,"is_reserved":false,"is_disabled":false,"rental_uris":{"android":"levelo://app?vid=8f23e6a5-b8b2-4a92-a121-a502037dd066","ios":"levelo://app?vid=8f23e6a5-b8b2-4a92-a121-a502037dd066"},"vehicle_type_id":"4","last_reported":1769768527,"current_range_meters":6800,"station_id":"ce4bgk12rcd13ifvqbi0","pricing_plan_id":"cebpf4jnsgd1na2vs0mg"},{"bike_id":"64ac8057-186c-4e3b-a897-f512c74d2fc0","system_id":"levelo_inurba_marseille","lat":43.30468,"lon":5.37892,"is_reserved":false,"is_disabled":false,"rental_uris":{"android":"levelo://app?vid=64ac8057-186c-4e3b-a897-f512c74d2fc0","ios":"levelo://app?vid=64ac8057-186c-4e3b-a897-f512c74d2fc0"},"vehicle_type_id":"4","last_reported":1769768527,"current_range_meters":6800,"station_id":"ce4bgup2rcd13ifvqcn0","pricing_plan_id":"cebpf4jnsgd1na2vs0mg"},{"bike_id":"af654c71-a67d-46af-bf40-a020e2f3bf53","system_id":"levelo_inurba_marseille","lat":43.25,"lon":5.38908,"is_reserved":false,"is_disabled":false,"rental_uris":{"android":"levelo://app?vid=af654c71-a67d-46af-bf40-a020e2f3bf53","ios":"levelo://app?vid=af654c71-a67d-46af-bf40-a020e2f3bf53"},"vehicle_type_id":"4","last_reported":1769768527,"current_range_meters":6800,"station_id":"ce4bhgp2rcd13ifvqfd0","pricing_plan_id":"cebpf4jnsgd1na2vs0mg"},{"bike_id":"a7d1bfd9-0de8-47ec-ba20-34ed34aa81d2","system_id":"levelo_inurba_marseille","lat":43.24469,"lon":5.42541,"is_reserved":false,"is_disabled":false,"rental_uris":{"android":"levelo://app?vid=a7d1bfd9-0de8-47ec-ba20-34ed34aa81d2","ios":"levelo://app?vid=a7d1bfd9-0de8-47ec-ba20-34ed34aa81d2"},"vehicle_type_id":"4","last_reported":1769768527,"current_range_meters":6800,"station_id":"st_d4a3vfp97mjs738cd8kg","pricing_plan_id":"cebpf4jnsgd1na2vs0mg"},{"bike_id":"b45d3460-5528-4723-9535-35fe04d221fd","system_id":"levelo_inurba_marseille","lat":43.29567,"lon":5.39981,"is_reserved":false,"is_disabled":false,"rental_uris":{"android":"levelo://app?vid=b45d3460-5528-4723-9535-35fe04d221fd","ios":"levelo://app?vid=b45d3460-5528-4723-9535-35fe04d221fd"},"vehicle_type_id":"4","last_reported":1769768527,"current_range_meters":6800,"station_id":"ce4bh312rcd13ifvqdj0","pricing_plan_id":"cebpf4jnsgd1na2vs0mg"},{"bike_id":"f77f11ea-c57f-4a1e-b998-1859acb2e91b","system_id":"levelo_inurba_marseille","lat":43.28619,"lon":5.351,"is_reserved":false,"is_disabled":true,"rental_uris":{"android":"levelo://app?vid=f77f11ea-c57f-4a1e-b998-1859acb2e91b","ios":"levelo://app?vid=f77f11ea-c57f-4a1e-b998-1859acb2e91b"},"vehicle_type_id":"4","last_reported":1769768527,"current_range_meters":7200,"station_id":"ce4bhch2rcd13ifvqeug","pricing_plan_id":"cebpf4jnsgd1na2vs0mg"},{"bike_id":"799e7749-a024-42f4-b666-d9fb4f9f4088","system_id":"levelo_inurba_marseille","lat":43.29551,"lon":5.37514,"is_reserved":false,"is_disabled":false,"rental_uris":{"android":"levelo://app?vid=799e7749-a024-42f4-b666-d9fb4f9f4088","ios":"levelo://app?vid=799e7749-a024-42f4-b666-d9fb4f9f4088"},"vehicle_type_id":"4","last_reported":1769768527,"current_range_meters":7200,"station_id":"ce4bgkp2rcd13ifvqbmg","pricing_plan_id":"cebpf4jnsgd1na2vs0mg"},{"bike_id":"7243427c-7e1e-4875-b4d3-b3a9df2c737a","system_id":"levelo_inurba_marseille","lat":43.302,"lon":5.38814,"is_reserved":false,"is_disabled":true,"rental_uris":{"android":"levelo://app?vid=7243427c-7e1e-4875-b4d3-b3a9df2c737a","ios":"levelo://app?vid=7243427c-7e1e-4875-b4d3-b3a9df2c737a"},"vehicle_type_id":"4","last_reported":1769768527,"current_range_meters":7200,"station_id":"","pricing_plan_id":"cebpf4jnsgd1na2vs0mg"},{"bike_id":"a224862a-232e-4eae-9e87-90ad084f94a7","system_id":"levelo_inurba_marseille","lat":43.24184,"lon":5.36424,"is_reserved":false,"is_disabled":false,"rental_uris":{"android":"levelo://app?vid=a224862a-232e-4eae-9e87-90ad084f94a7","ios":"levelo://app?vid=a224862a-232e-4eae-9e87-90ad084f94a7"},"vehicle_type_id":"4","last_reported":1769768527,"current_range_meters":7200,"station_id":"cpo36qri1sfpv3e86is0","pricing_plan_id":"cebpf4jnsgd1na2vs0mg"},{"bike_id":"66394bb8-9852-472b-bef1-11246e36b0e3","system_id":"levelo_inurba_marseille","lat":43.29016,"lon":5.38136,"is_reserved":false,"is_disabled":false,"rental_uris":{"android":"levelo://app?vid=66394bb8-9852-472b-bef1-11246e36b0e3","ios":"levelo://app?vid=66394bb8-9852-472b-bef1-11246e36b0e3"},"vehicle_type_id":"4","last_reported":1769768527,"current_range_meters":7200,"station_id":"ce4bh4p2rcd13ifvqe1g","pricing_plan_id":"cebpf4jnsgd1na2vs0mg"},{"bike_id":"ceed1653-0aff-4dc0-b159-f8529a6c28c1","system_id":"levelo_inurba_marseille","lat":43.23201,"lon":5.3556,"is_reserved":false,"is_disabled":false,"rental_uris":{"android":"levelo://app?vid=ceed1653-0aff-4dc0-b159-f8529a6c28c1","ios":"levelo://app?vid=ceed1653-0aff-4dc0-b159-f8529a6c28c1"},"vehicle_type_id":"4","last_reported":1769768527,"current_range_meters":7200,"station_id":"ce4bhu92rcd13ifvqi70","pricing_plan_id":"cebpf4jnsgd1na2vs0mg"},{"bike_id":"8c03be5c-fb9f-43ff-aa8e-09227c1ddb6e","system_id":"levelo_inurba_marseille","lat":43.32489,"lon":5.36553,"is_reserved":false,"is_disabled":false,"rental_uris":{"android":"levelo://app?vid=8c03be5c-fb9f-43ff-aa8e-09227c1ddb6e","ios":"levelo://app?vid=8c03be5c-fb9f-43ff-aa8e-09227c1ddb6e"},"vehicle_type_id":"4","last_reported":1769768527,"current_range_meters":7200,"station_id":"ce4bhs12rcd13ifvqhvg","pricing_plan_id":"cebpf4jnsgd1na2vs0mg"},{"bike_id":"16f5ab70-8211-4c7e-aa05-52c27c1c0d64","system_id":"levelo_inurba_marseille","lat":43.27651,"lon":5.38902,"is_reserved":false,"is_disabled":true,"rental_uris":{"android":"levelo://app?vid=16f5ab70-8211-4c7e-aa05-52c27c1c0d64","ios":"levelo://app?vid=16f5ab70-8211-4c7e-aa05-52c27c1c0d64"},"vehicle_type_id":"4","last_reported":1769768527,"current_range_meters":7200,"station_id":"ce4bhi12rcd13ifvqfo0","pricing_plan_id":"cebpf4jnsgd1na2vs0mg"},{"bike_id":"f03eef2f-5ee2-4cbf-9f90-82446823efa7","system_id":"levelo_inurba_marseille","lat":43.29088,"lon":5.38145,"is_reserved":false,"is_disabled":false,"rental_uris":{"android":"levelo://app?vid=f03eef2f-5ee2-4cbf-9f90-82446823efa7","ios":"levelo://app?vid=f03eef2f-5ee2-4cbf-9f90-82446823efa7"},"vehicle_type_id":"4","last_reported":1769768527,"current_range_meters":7200,"station_id":"ce4bh512rcd13ifvqe2g","pricing_plan_id":"cebpf4jnsgd1na2vs0mg"},{"bike_id":"7272b7e5-dc3f-4a67-bdd0-317168495648","system_id":"levelo_inurba_marseille","lat":43.26813,"lon":5.40254,"is_reserved":false,"is_disabled":false,"rental_uris":{"android":"levelo://app?vid=7272b7e5-dc3f-4a67-bdd0-317168495648","ios":"levelo://app?vid=7272b7e5-dc3f-4a67-bdd0-317168495648"},"vehicle_type_id":"4","last_reported":1769768527,"current_range_meters":7200,"station_id":"ce501612rcd8frsf0b60","pricing_plan_id":"cebpf4jnsgd1na2vs0mg"},{"bike_id":"cfb505cf-f825-4036-896e-1c8fdbe372fb","system_id":"levelo_inurba_marseille","lat":43.26209,"lon":5.37929,"is_reserved":false,"is_disabled":false,"rental_uris":{"android":"levelo://app?vid=cfb505cf-f825-4036-896e-1c8fdbe372fb","ios":"levelo://app?vid=cfb505cf-f825-4036-896e-1c8fdbe372fb"},"vehicle_type_id":"4","last_reported":1769768527,"current_range_meters":7200,"station_id":"ce4bhjp2rcd13ifvqg90","pricing_plan_id":"cebpf4jnsgd1na2vs0mg"},{"bike_id":"38c9eb14-4ba4-43e4-b3b9-02a51e0fb709","system_id":"levelo_inurba_marseille","lat":43.31292,"lon":5.40173,"is_reserved":false,"is_disabled":false,"rental_uris":{"android":"levelo://app?vid=38c9eb14-4ba4-43e4-b3b9-02a51e0fb709","ios":"levelo://app?vid=38c9eb14-4ba4-43e4-b3b9-02a51e0fb709"},"vehicle_type_id":"4","last_reported":1769768527,"current_range_meters":7200,"station_id":"ce4bh092rcd13ifvqd30","pricing_plan_id":"cebpf4jnsgd1na2vs0mg"},{"bike_id":"d9e74e48-23e6-471a-b00e-c0252f599ae5","system_id":"levelo_inurba_marseille","lat":43.27055,"lon":5.38311,"is_reserved":false,"is_disabled":false,"rental_uris":{"android":"levelo://app?vid=d9e74e48-23e6-471a-b00e-c0252f599ae5","ios":"levelo://app?vid=d9e74e48-23e6-471a-b00e-c0252f599ae5"},"vehicle_type_id":"4","last_reported":1769768527,"current_range_meters":7200,"station_id":"st_d3n2fo6cfp8s73cte1j0","pricing_plan_id":"cebpf4jnsgd1na2vs0mg"},{"bike_id":"0f05e83f-77ca-4504-b9cf-cc69291ac8d4","system_id":"levelo_inurba_marseille","lat":43.27068,"lon":5.38318,"is_reserved":false,"is_disabled":false,"rental_uris":{"android":"levelo://app?vid=0f05e83f-77ca-4504-b9cf-cc69291ac8d4","ios":"levelo://app?vid=0f05e83f-77ca-4504-b9cf-cc69291ac8d4"},"vehicle_type_id":"4","last_reported":1769768527,"current_range_meters":8000,"station_id":"st_d3n2fo6cfp8s73cte1j0","pricing_plan_id":"cebpf4jnsgd1na2vs0mg"},{"bike_id":"d7b04403-7dfa-4d8a-bd81-cfc844f4e0b5","system_id":"levelo_inurba_marseille","lat":43.29815,"lon":5.44066,"is_reserved":false,"is_disabled":false,"rental_uris":{"android":"levelo://app?vid=d7b04403-7dfa-4d8a-bd81-cfc844f4e0b5","ios":"levelo://app?vid=d7b04403-7dfa-4d8a-bd81-cfc844f4e0b5"},"vehicle_type_id":"4","last_reported":1769768527,"current_range_meters":8000,"station_id":"st_d3jp68qikq2c7381ktn0","pricing_plan_id":"cebpf4jnsgd1na2vs0mg"},{"bike_id":"fe96793b-7f48-4d0c-8e7e-ada6a02e2210","system_id":"levelo_inurba_marseille","lat":43.27804,"lon":5.40721,"is_reserved":false,"is_disabled":false,"rental_uris":{"android":"levelo://app?vid=fe96793b-7f48-4d0c-8e7e-ada6a02e2210","ios":"levelo://app?vid=fe96793b-7f48-4d0c-8e7e-ada6a02e2210"},"vehicle_type_id":"4","last_reported":1769768527,"current_range_meters":8000,"station_id":"ce4bhnh2rcd13ifvqgtg","pricing_plan_id":"cebpf4jnsgd1na2vs0mg"},{"bike_id":"e858244c-580e-4a5e-a86b-9fc7e954317c","system_id":"levelo_inurba_marseille","lat":43.312993,"lon":5.378685,"is_reserved":false,"is_disabled":true,"rental_uris":{"android":"levelo://app?vid=e858244c-580e-4a5e-a86b-9fc7e954317c","ios":"levelo://app?vid=e858244c-580e-4a5e-a86b-9fc7e954317c"},"vehicle_type_id":"4","last_reported":1769768527,"current_range_meters":8000,"station_id":"","pricing_plan_id":"cebpf4jnsgd1na2vs0mg"},{"bike_id":"b110d4cf-9f13-4396-a45b-5391bfafbd9d","system_id":"levelo_inurba_marseille","lat":43.24393,"lon":5.37057,"is_reserved":false,"is_disabled":false,"rental_uris":{"android":"levelo://app?vid=b110d4cf-9f13-4396-a45b-5391bfafbd9d","ios":"levelo://app?vid=b110d4cf-9f13-4396-a45b-5391bfafbd9d"},"vehicle_type_id":"4","last_reported":1769768527,"current_range_meters":8000,"station_id":"ce4bhhh2rcd13ifvqfk0","pricing_plan_id":"cebpf4jnsgd1na2vs0mg"},{"bike_id":"6d463587-3df4-4665-b124-967bacab8bbe","system_id":"levelo_inurba_marseille","lat":43.28557,"lon":5.35113,"is_reserved":false,"is_disabled":true,"rental_uris":{"android":"levelo://app?vid=6d463587-3df4-4665-b124-967bacab8bbe","ios":"levelo://app?vid=6d463587-3df4-4665-b124-967bacab8bbe"},"vehicle_type_id":"4","last_reported":1769768527,"current_range_meters":8000,"station_id":"","pricing_plan_id":"cebpf4jnsgd1na2vs0mg"},{"bike_id":"5f8af22f-9203-4ec9-816f-1618d1060df6","system_id":"levelo_inurba_marseille","lat":43.32496,"lon":5.38299,"is_reserved":false,"is_disabled":false,"rental_uris":{"android":"levelo://app?vid=5f8af22f-9203-4ec9-816f-1618d1060df6","ios":"levelo://app?vid=5f8af22f-9203-4ec9-816f-1618d1060df6"},"vehicle_type_id":"4","last_reported":1769768527,"current_range_meters":8000,"station_id":"st_d4asgbiv49dc73anf9m0","pricing_plan_id":"cebpf4jnsgd1na2vs0mg"},{"bike_id":"0419251d-2d72-470e-a9cc-d8c3139ec327","system_id":"levelo_inurba_marseille","lat":43.30175,"lon":5.38087,"is_reserved":false,"is_disabled":false,"rental_uris":{"android":"levelo://app?vid=0419251d-2d72-470e-a9cc-d8c3139ec327","ios":"levelo://app?vid=0419251d-2d72-470e-a9cc-d8c3139ec327"},"vehicle_type_id":"4","last_reported":1769768527,"current_range_meters":8000,"station_id":"ce4bgjp2rcd13ifvqbh0","pricing_plan_id":"cebpf4jnsgd1na2vs0mg"},{"bike_id":"9c59ba21-0bbc-41c2-a99b-53e9947bdf47","system_id":"levelo_inurba_marseille","lat":43.30382,"lon":5.42493,"is_reserved":false,"is_disabled":false,"rental_uris":{"android":"levelo://app?vid=9c59ba21-0bbc-41c2-a99b-53e9947bdf47","ios":"levelo://app?vid=9c59ba21-0bbc-41c2-a99b-53e9947bdf47"},"vehicle_type_id":"4","last_reported":1769768527,"current_range_meters":8000,"station_id":"ce4bhoh2rcd13ifvqh6g","pricing_plan_id":"cebpf4jnsgd1na2vs0mg"},{"bike_id":"4639f866-db89-47de-ad18-0002a418917b","system_id":"levelo_inurba_marseille","lat":43.33547,"lon":5.37492,"is_reserved":false,"is_disabled":false,"rental_uris":{"android":"levelo://app?vid=4639f866-db89-47de-ad18-0002a418917b","ios":"levelo://app?vid=4639f866-db89-47de-ad18-0002a418917b"},"vehicle_type_id":"4","last_reported":1769768527,"current_range_meters":8000,"station_id":"","pricing_plan_id":"cebpf4jnsgd1na2vs0mg"},{"bike_id":"ad150f2a-29f5-456b-94c0-795879e342bd","system_id":"levelo_inurba_marseille","lat":43.32103,"lon":5.36769,"is_reserved":false,"is_disabled":false,"rental_uris":{"android":"levelo://app?vid=ad150f2a-29f5-456b-94c0-795879e342bd","ios":"levelo://app?vid=ad150f2a-29f5-456b-94c0-795879e342bd"},"vehicle_type_id":"4","last_reported":1769768527,"current_range_meters":8000,"station_id":"ce4bhrh2rcd13ifvqhug","pricing_plan_id":"cebpf4jnsgd1na2vs0mg"},{"bike_id":"54ce1b00-7ed3-483d-a1c2-5c1d200dc53e","system_id":"levelo_inurba_marseille","lat":43.30187,"lon":5.38096,"is_reserved":false,"is_disabled":false,"rental_uris":{"android":"levelo://app?vid=54ce1b00-7ed3-483d-a1c2-5c1d200dc53e","ios":"levelo://app?vid=54ce1b00-7ed3-483d-a1c2-5c1d200dc53e"},"vehicle_type_id":"4","last_reported":1769768527,"current_range_meters":8000,"station_id":"","pricing_plan_id":"cebpf4jnsgd1na2vs0mg"},{"bike_id":"8ce496fc-3ba7-4acc-8e4a-ec95bc519265","system_id":"levelo_inurba_marseille","lat":43.30466,"lon":5.37907,"is_reserved":false,"is_disabled":false,"rental_uris":{"android":"levelo://app?vid=8ce496fc-3ba7-4acc-8e4a-ec95bc519265","ios":"levelo://app?vid=8ce496fc-3ba7-4acc-8e4a-ec95bc519265"},"vehicle_type_id":"4","last_reported":1769768527,"current_range_meters":8000,"station_id":"ce4bgup2rcd13ifvqcn0","pricing_plan_id":"cebpf4jnsgd1na2vs0mg"},{"bike_id":"88b2bec4-31e9-464a-8da5-f0fa2825f582","system_id":"levelo_inurba_marseille","lat":43.26946,"lon":5.38609,"is_reserved":false,"is_disabled":false,"rental_uris":{"android":"levelo://app?vid=88b2bec4-31e9-464a-8da5-f0fa2825f582","ios":"levelo://app?vid=88b2bec4-31e9-464a-8da5-f0fa2825f582"},"vehicle_type_id":"4","last_reported":1769768527,"current_range_meters":8000,"station_id":"ce4bhh92rcd13ifvqfh0","pricing_plan_id":"cebpf4jnsgd1na2vs0mg"},{"bike_id":"4ed8b7c4-4959-4a76-8810-ca1bf04888b4","system_id":"levelo_inurba_marseille","lat":43.24469,"lon":5.42537,"is_reserved":false,"is_disabled":false,"rental_uris":{"android":"levelo://app?vid=4ed8b7c4-4959-4a76-8810-ca1bf04888b4","ios":"levelo://app?vid=4ed8b7c4-4959-4a76-8810-ca1bf04888b4"},"vehicle_type_id":"4","last_reported":1769768527,"current_range_meters":8000,"station_id":"st_d4a3vfp97mjs738cd8kg","pricing_plan_id":"cebpf4jnsgd1na2vs0mg"},{"bike_id":"87d7d748-9099-400b-aa62-adb8dd788c5e","system_id":"levelo_inurba_marseille","lat":43.30174,"lon":5.38074,"is_reserved":false,"is_disabled":false,"rental_uris":{"android":"levelo://app?vid=87d7d748-9099-400b-aa62-adb8dd788c5e","ios":"levelo://app?vid=87d7d748-9099-400b-aa62-adb8dd788c5e"},"vehicle_type_id":"4","last_reported":1769768527,"current_range_meters":8000,"station_id":"ce4bgjp2rcd13ifvqbh0","pricing_plan_id":"cebpf4jnsgd1na2vs0mg"},{"bike_id":"f56ee39d-a6b7-4a7e-89de-b9d7f0478322","system_id":"levelo_inurba_marseille","lat":43.32353,"lon":5.36726,"is_reserved":false,"is_disabled":false,"rental_uris":{"android":"levelo://app?vid=f56ee39d-a6b7-4a7e-89de-b9d7f0478322","ios":"levelo://app?vid=f56ee39d-a6b7-4a7e-89de-b9d7f0478322"},"vehicle_type_id":"4","last_reported":1769768527,"current_range_meters":8000,"station_id":"ce4bhsh2rcd13ifvqi2g","pricing_plan_id":"cebpf4jnsgd1na2vs0mg"},{"bike_id":"4d346216-fb55-46b8-8cf4-3dcac0b05710","system_id":"levelo_inurba_marseille","lat":43.2655,"lon":5.37288,"is_reserved":false,"is_disabled":true,"rental_uris":{"android":"levelo://app?vid=4d346216-fb55-46b8-8cf4-3dcac0b05710","ios":"levelo://app?vid=4d346216-fb55-46b8-8cf4-3dcac0b05710"},"vehicle_type_id":"4","last_reported":1769768527,"current_range_meters":8000,"station_id":"ce4bhg12rcd13ifvqf70","pricing_plan_id":"cebpf4jnsgd1na2vs0mg"},{"bike_id":"76baf766-279c-4d54-8cc8-d388bd84f801","system_id":"levelo_inurba_marseille","lat":43.28612,"lon":5.35147,"is_reserved":false,"is_disabled":false,"rental_uris":{"android":"levelo://app?vid=76baf766-279c-4d54-8cc8-d388bd84f801","ios":"levelo://app?vid=76baf766-279c-4d54-8cc8-d388bd84f801"},"vehicle_type_id":"4","last_reported":1769768527,"current_range_meters":8000,"station_id":"ce4bhch2rcd13ifvqeug","pricing_plan_id":"cebpf4jnsgd1na2vs0mg"},{"bike_id":"c15bf6ee-369d-4dc7-89fc-91442ce5cab3","system_id":"levelo_inurba_marseille","lat":43.29905,"lon":5.43687,"is_reserved":false,"is_disabled":false,"rental_uris":{"android":"levelo://app?vid=c15bf6ee-369d-4dc7-89fc-91442ce5cab3","ios":"levelo://app?vid=c15bf6ee-369d-4dc7-89fc-91442ce5cab3"},"vehicle_type_id":"4","last_reported":1769768527,"current_range_meters":8000,"station_id":"ce4bhpp2rcd13ifvqhfg","pricing_plan_id":"cebpf4jnsgd1na2vs0mg"},{"bike_id":"b3808154-86af-47d0-966c-f1cc0984587d","system_id":"levelo_inurba_marseille","lat":43.33789,"lon":5.37518,"is_reserved":false,"is_disabled":false,"rental_uris":{"android":"levelo://app?vid=b3808154-86af-47d0-966c-f1cc0984587d","ios":"levelo://app?vid=b3808154-86af-47d0-966c-f1cc0984587d"},"vehicle_type_id":"4","last_reported":1769768527,"current_range_meters":8000,"station_id":"","pricing_plan_id":"cebpf4jnsgd1na2vs0mg"},{"bike_id":"97519bfc-e1da-4afb-9c68-d09639f95f5e","system_id":"levelo_inurba_marseille","lat":43.24949,"lon":5.40513,"is_reserved":false,"is_disabled":false,"rental_uris":{"android":"levelo://app?vid=97519bfc-e1da-4afb-9c68-d09639f95f5e","ios":"levelo://app?vid=97519bfc-e1da-4afb-9c68-d09639f95f5e"},"vehicle_type_id":"4","last_reported":1769768527,"current_range_meters":8400,"station_id":"st_d2ngiaodas8pm72gd1h0","pricing_plan_id":"cebpf4jnsgd1na2vs0mg"},{"bike_id":"1ce270cc-3ea0-4ecf-9f08-f00f3198de52","system_id":"levelo_inurba_marseille","lat":43.2417,"lon":5.36407,"is_reserved":false,"is_disabled":false,"rental_uris":{"android":"levelo://app?vid=1ce270cc-3ea0-4ecf-9f08-f00f3198de52","ios":"levelo://app?vid=1ce270cc-3ea0-4ecf-9f08-f00f3198de52"},"vehicle_type_id":"4","last_reported":1769768527,"current_range_meters":8400,"station_id":"cpo36qri1sfpv3e86is0","pricing_plan_id":"cebpf4jnsgd1na2vs0mg"},{"bike_id":"1db24507-d658-43fd-a9f7-b7e937916d2d","system_id":"levelo_inurba_marseille","lat":43.24401,"lon":5.37055,"is_reserved":false,"is_disabled":false,"rental_uris":{"android":"levelo://app?vid=1db24507-d658-43fd-a9f7-b7e937916d2d","ios":"levelo://app?vid=1db24507-d658-43fd-a9f7-b7e937916d2d"},"vehicle_type_id":"4","last_reported":1769768527,"current_range_meters":8400,"station_id":"ce4bhhh2rcd13ifvqfk0","pricing_plan_id":"cebpf4jnsgd1na2vs0mg"},{"bike_id":"019d9ca3-0c3a-4013-b057-5349dfa40020","system_id":"levelo_inurba_marseille","lat":43.30192,"lon":5.38089,"is_reserved":false,"is_disabled":false,"rental_uris":{"android":"levelo://app?vid=019d9ca3-0c3a-4013-b057-5349dfa40020","ios":"levelo://app?vid=019d9ca3-0c3a-4013-b057-5349dfa40020"},"vehicle_type_id":"4","last_reported":1769768527,"current_range_meters":8400,"station_id":"","pricing_plan_id":"cebpf4jnsgd1na2vs0mg"},{"bike_id":"25b615ee-391f-43cb-bc5a-e5a40e25edc8","system_id":"levelo_inurba_marseille","lat":43.29168,"lon":5.37148,"is_reserved":false,"is_disabled":false,"rental_uris":{"android":"levelo://app?vid=25b615ee-391f-43cb-bc5a-e5a40e25edc8","ios":"levelo://app?vid=25b615ee-391f-43cb-bc5a-e5a40e25edc8"},"vehicle_type_id":"4","last_reported":1769768527,"current_range_meters":8400,"station_id":"ce4bha92rcd13ifvqeh0","pricing_plan_id":"cebpf4jnsgd1na2vs0mg"},{"bike_id":"bebea735-aab4-4344-851d-600660db9e8e","system_id":"levelo_inurba_marseille","lat":43.30166,"lon":5.38052,"is_reserved":false,"is_disabled":false,"rental_uris":{"android":"levelo://app?vid=bebea735-aab4-4344-851d-600660db9e8e","ios":"levelo://app?vid=bebea735-aab4-4344-851d-600660db9e8e"},"vehicle_type_id":"4","last_reported":1769768527,"current_range_meters":8400,"station_id":"ce4bgjp2rcd13ifvqbh0","pricing_plan_id":"cebpf4jnsgd1na2vs0mg"},{"bike_id":"cfe73c76-3bff-481c-a5ea-9a7beba7d096","system_id":"levelo_inurba_marseille","lat":43.29767,"lon":5.42783,"is_reserved":false,"is_disabled":false,"rental_uris":{"android":"levelo://app?vid=cfe73c76-3bff-481c-a5ea-9a7beba7d096","ios":"levelo://app?vid=cfe73c76-3bff-481c-a5ea-9a7beba7d096"},"vehicle_type_id":"4","last_reported":1769768527,"current_range_meters":8400,"station_id":"st_d3md5207bmas73dh9klg","pricing_plan_id":"cebpf4jnsgd1na2vs0mg"},{"bike_id":"60601e53-e690-41e3-9640-0b5d8353d610","system_id":"levelo_inurba_marseille","lat":43.22962,"lon":5.35426,"is_reserved":false,"is_disabled":false,"rental_uris":{"android":"levelo://app?vid=60601e53-e690-41e3-9640-0b5d8353d610","ios":"levelo://app?vid=60601e53-e690-41e3-9640-0b5d8353d610"},"vehicle_type_id":"4","last_reported":1769768527,"current_range_meters":8400,"station_id":"cpo3532slgdg3j2ikp40","pricing_plan_id":"cebpf4jnsgd1na2vs0mg"},{"bike_id":"7157d9bb-c57f-447d-a2de-efe7a218287f","system_id":"levelo_inurba_marseille","lat":43.29031,"lon":5.39966,"is_reserved":false,"is_disabled":false,"rental_uris":{"android":"levelo://app?vid=7157d9bb-c57f-447d-a2de-efe7a218287f","ios":"levelo://app?vid=7157d9bb-c57f-447d-a2de-efe7a218287f"},"vehicle_type_id":"4","last_reported":1769768527,"current_range_meters":8400,"station_id":"ce4bh392rcd13ifvqdm0","pricing_plan_id":"cebpf4jnsgd1na2vs0mg"},{"bike_id":"a95e6f9d-2979-453c-b568-479ba99370b9","system_id":"levelo_inurba_marseille","lat":43.29904,"lon":5.37475,"is_reserved":false,"is_disabled":false,"rental_uris":{"android":"levelo://app?vid=a95e6f9d-2979-453c-b568-479ba99370b9","ios":"levelo://app?vid=a95e6f9d-2979-453c-b568-479ba99370b9"},"vehicle_type_id":"4","last_reported":1769768527,"current_range_meters":8400,"station_id":"ce4bgjh2rcd13ifvqbg0","pricing_plan_id":"cebpf4jnsgd1na2vs0mg"},{"bike_id":"b68606c5-7c5e-44ce-8826-e6775696c337","system_id":"levelo_inurba_marseille","lat":43.30362,"lon":5.4249,"is_reserved":false,"is_disabled":false,"rental_uris":{"android":"levelo://app?vid=b68606c5-7c5e-44ce-8826-e6775696c337","ios":"levelo://app?vid=b68606c5-7c5e-44ce-8826-e6775696c337"},"vehicle_type_id":"4","last_reported":1769768527,"current_range_meters":8400,"station_id":"ce4bhoh2rcd13ifvqh6g","pricing_plan_id":"cebpf4jnsgd1na2vs0mg"},{"bike_id":"e902ef9f-7cd4-4fe6-a82c-948b6d2fcf15","system_id":"levelo_inurba_marseille","lat":43.29925,"lon":5.43661,"is_reserved":false,"is_disabled":false,"rental_uris":{"android":"levelo://app?vid=e902ef9f-7cd4-4fe6-a82c-948b6d2fcf15","ios":"levelo://app?vid=e902ef9f-7cd4-4fe6-a82c-948b6d2fcf15"},"vehicle_type_id":"4","last_reported":1769768527,"current_range_meters":8400,"station_id":"","pricing_plan_id":"cebpf4jnsgd1na2vs0mg"},{"bike_id":"29e4ce79-df32-4a16-836e-cd957aa9a131","system_id":"levelo_inurba_marseille","lat":43.24639,"lon":5.43144,"is_reserved":false,"is_disabled":false,"rental_uris":{"android":"levelo://app?vid=29e4ce79-df32-4a16-836e-cd957aa9a131","ios":"levelo://app?vid=29e4ce79-df32-4a16-836e-cd957aa9a131"},"vehicle_type_id":"4","last_reported":1769768527,"current_range_meters":8400,"station_id":"st_d2m6c4gdas8pm72e190g","pricing_plan_id":"cebpf4jnsgd1na2vs0mg"},{"bike_id":"6ea8ec3c-d45b-4169-99d9-393bf90653b4","system_id":"levelo_inurba_marseille","lat":43.22933,"lon":5.35383,"is_reserved":false,"is_disabled":false,"rental_uris":{"android":"levelo://app?vid=6ea8ec3c-d45b-4169-99d9-393bf90653b4","ios":"levelo://app?vid=6ea8ec3c-d45b-4169-99d9-393bf90653b4"},"vehicle_type_id":"4","last_reported":1769768527,"current_range_meters":8400,"station_id":"cpo3532slgdg3j2ikp40","pricing_plan_id":"cebpf4jnsgd1na2vs0mg"},{"bike_id":"0e79c48d-cdc7-44eb-ad7d-d24757dd50e7","system_id":"levelo_inurba_marseille","lat":43.32341,"lon":5.36817,"is_reserved":false,"is_disabled":false,"rental_uris":{"android":"levelo://app?vid=0e79c48d-cdc7-44eb-ad7d-d24757dd50e7","ios":"levelo://app?vid=0e79c48d-cdc7-44eb-ad7d-d24757dd50e7"},"vehicle_type_id":"4","last_reported":1769768527,"current_range_meters":8400,"station_id":"ce4bhsh2rcd13ifvqi2g","pricing_plan_id":"cebpf4jnsgd1na2vs0mg"},{"bike_id":"1ff33197-b687-4707-a292-0c6e9c3f8ec5","system_id":"levelo_inurba_marseille","lat":43.30148,"lon":5.39891,"is_reserved":false,"is_disabled":true,"rental_uris":{"android":"levelo://app?vid=1ff33197-b687-4707-a292-0c6e9c3f8ec5","ios":"levelo://app?vid=1ff33197-b687-4707-a292-0c6e9c3f8ec5"},"vehicle_type_id":"4","last_reported":1769768527,"current_range_meters":8400,"station_id":"ce4bh0h2rcd13ifvqd40","pricing_plan_id":"cebpf4jnsgd1na2vs0mg"},{"bike_id":"07a4d244-7977-4ce3-a909-2fb5b9b72628","system_id":"levelo_inurba_marseille","lat":43.25718,"lon":5.41115,"is_reserved":false,"is_disabled":false,"rental_uris":{"android":"levelo://app?vid=07a4d244-7977-4ce3-a909-2fb5b9b72628","ios":"levelo://app?vid=07a4d244-7977-4ce3-a909-2fb5b9b72628"},"vehicle_type_id":"4","last_reported":1769768527,"current_range_meters":8400,"station_id":"ce4bhkp2rcd13ifvqgd0","pricing_plan_id":"cebpf4jnsgd1na2vs0mg"},{"bike_id":"385acf65-4d9f-49ae-a95b-4ad7d4ba2100","system_id":"levelo_inurba_marseille","lat":43.21191,"lon":5.35076,"is_reserved":false,"is_disabled":false,"rental_uris":{"android":"levelo://app?vid=385acf65-4d9f-49ae-a95b-4ad7d4ba2100","ios":"levelo://app?vid=385acf65-4d9f-49ae-a95b-4ad7d4ba2100"},"vehicle_type_id":"4","last_reported":1769768527,"current_range_meters":8400,"station_id":"","pricing_plan_id":"cebpf4jnsgd1na2vs0mg"},{"bike_id":"94842764-1da0-47c3-981d-a8a494b1c082","system_id":"levelo_inurba_marseille","lat":43.24651,"lon":5.38934,"is_reserved":false,"is_disabled":false,"rental_uris":{"android":"levelo://app?vid=94842764-1da0-47c3-981d-a8a494b1c082","ios":"levelo://app?vid=94842764-1da0-47c3-981d-a8a494b1c082"},"vehicle_type_id":"4","last_reported":1769768527,"current_range_meters":8400,"station_id":"ce4bhg12rcd13ifvqf60","pricing_plan_id":"cebpf4jnsgd1na2vs0mg"},{"bike_id":"412abae9-d62d-4987-af01-9a17904a32fe","system_id":"levelo_inurba_marseille","lat":43.24582,"lon":5.43107,"is_reserved":false,"is_disabled":false,"rental_uris":{"android":"levelo://app?vid=412abae9-d62d-4987-af01-9a17904a32fe","ios":"levelo://app?vid=412abae9-d62d-4987-af01-9a17904a32fe"},"vehicle_type_id":"4","last_reported":1769768527,"current_range_meters":8400,"station_id":"","pricing_plan_id":"cebpf4jnsgd1na2vs0mg"},{"bike_id":"68b00efd-b068-42e2-8ff4-8be2b0fdef5a","system_id":"levelo_inurba_marseille","lat":43.25578,"lon":5.38248,"is_reserved":false,"is_disabled":false,"rental_uris":{"android":"levelo://app?vid=68b00efd-b068-42e2-8ff4-8be2b0fdef5a","ios":"levelo://app?vid=68b00efd-b068-42e2-8ff4-8be2b0fdef5a"},"vehicle_type_id":"4","last_reported":1769768527,"current_range_meters":8400,"station_id":"ce4bhih2rcd13ifvqfs0","pricing_plan_id":"cebpf4jnsgd1na2vs0mg"},{"bike_id":"9ddd5feb-5110-4d3f-b1c1-2df18bb34ed1","system_id":"levelo_inurba_marseille","lat":43.23157,"lon":5.43707,"is_reserved":false,"is_disabled":false,"rental_uris":{"android":"levelo://app?vid=9ddd5feb-5110-4d3f-b1c1-2df18bb34ed1","ios":"levelo://app?vid=9ddd5feb-5110-4d3f-b1c1-2df18bb34ed1"},"vehicle_type_id":"4","last_reported":1769768527,"current_range_meters":8400,"station_id":"ce4bhmp2rcd13ifvqgog","pricing_plan_id":"cebpf4jnsgd1na2vs0mg"},{"bike_id":"65b759d9-e66a-4cc0-915d-2e8ad0441e0c","system_id":"levelo_inurba_marseille","lat":43.31174,"lon":5.38662,"is_reserved":false,"is_disabled":false,"rental_uris":{"android":"levelo://app?vid=65b759d9-e66a-4cc0-915d-2e8ad0441e0c","ios":"levelo://app?vid=65b759d9-e66a-4cc0-915d-2e8ad0441e0c"},"vehicle_type_id":"4","last_reported":1769768527,"current_range_meters":8400,"station_id":"","pricing_plan_id":"cebpf4jnsgd1na2vs0mg"},{"bike_id":"7ff380fd-9d80-467b-8f62-cba1266f9fb0","system_id":"levelo_inurba_marseille","lat":43.29189,"lon":5.35815,"is_reserved":false,"is_disabled":false,"rental_uris":{"android":"levelo://app?vid=7ff380fd-9d80-467b-8f62-cba1266f9fb0","ios":"levelo://app?vid=7ff380fd-9d80-467b-8f62-cba1266f9fb0"},"vehicle_type_id":"4","last_reported":1769768527,"current_range_meters":8800,"station_id":"ce4bhb12rcd13ifvqel0","pricing_plan_id":"cebpf4jnsgd1na2vs0mg"},{"bike_id":"1f27ec75-229a-41dc-b219-3991b3e2c393","system_id":"levelo_inurba_marseille","lat":43.28285,"lon":5.3512,"is_reserved":false,"is_disabled":true,"rental_uris":{"android":"levelo://app?vid=1f27ec75-229a-41dc-b219-3991b3e2c393","ios":"levelo://app?vid=1f27ec75-229a-41dc-b219-3991b3e2c393"},"vehicle_type_id":"4","last_reported":1769768527,"current_range_meters":8800,"station_id":"","pricing_plan_id":"cebpf4jnsgd1na2vs0mg"},{"bike_id":"cb3b3735-0e9a-456e-8077-5836688a5d7f","system_id":"levelo_inurba_marseille","lat":43.29075,"lon":5.37169,"is_reserved":false,"is_disabled":false,"rental_uris":{"android":"levelo://app?vid=cb3b3735-0e9a-456e-8077-5836688a5d7f","ios":"levelo://app?vid=cb3b3735-0e9a-456e-8077-5836688a5d7f"},"vehicle_type_id":"4","last_reported":1769768527,"current_range_meters":8800,"station_id":"ce4bh5p2rcd13ifvqe4g","pricing_plan_id":"cebpf4jnsgd1na2vs0mg"},{"bike_id":"f89bc97b-f6bd-43c7-a8f8-22395a086b83","system_id":"levelo_inurba_marseille","lat":43.29916,"lon":5.3749,"is_reserved":false,"is_disabled":false,"rental_uris":{"android":"levelo://app?vid=f89bc97b-f6bd-43c7-a8f8-22395a086b83","ios":"levelo://app?vid=f89bc97b-f6bd-43c7-a8f8-22395a086b83"},"vehicle_type_id":"4","last_reported":1769768527,"current_range_meters":8800,"station_id":"ce4bgjh2rcd13ifvqbg0","pricing_plan_id":"cebpf4jnsgd1na2vs0mg"},{"bike_id":"c2029e8e-62e9-40bd-90c8-2d85b607b409","system_id":"levelo_inurba_marseille","lat":43.29753,"lon":5.42758,"is_reserved":false,"is_disabled":false,"rental_uris":{"android":"levelo://app?vid=c2029e8e-62e9-40bd-90c8-2d85b607b409","ios":"levelo://app?vid=c2029e8e-62e9-40bd-90c8-2d85b607b409"},"vehicle_type_id":"4","last_reported":1769768527,"current_range_meters":8800,"station_id":"st_d3md5207bmas73dh9klg","pricing_plan_id":"cebpf4jnsgd1na2vs0mg"},{"bike_id":"674d0755-bda6-44bd-8dd4-47ceec1f93de","system_id":"levelo_inurba_marseille","lat":43.24459,"lon":5.42526,"is_reserved":false,"is_disabled":false,"rental_uris":{"android":"levelo://app?vid=674d0755-bda6-44bd-8dd4-47ceec1f93de","ios":"levelo://app?vid=674d0755-bda6-44bd-8dd4-47ceec1f93de"},"vehicle_type_id":"4","last_reported":1769768527,"current_range_meters":8800,"station_id":"st_d4a3vfp97mjs738cd8kg","pricing_plan_id":"cebpf4jnsgd1na2vs0mg"},{"bike_id":"18196421-13fa-4a99-b938-f3165b1bc59f","system_id":"levelo_inurba_marseille","lat":43.26934,"lon":5.38666,"is_reserved":false,"is_disabled":false,"rental_uris":{"android":"levelo://app?vid=18196421-13fa-4a99-b938-f3165b1bc59f","ios":"levelo://app?vid=18196421-13fa-4a99-b938-f3165b1bc59f"},"vehicle_type_id":"4","last_reported":1769768527,"current_range_meters":8800,"station_id":"ce4bhh92rcd13ifvqfh0","pricing_plan_id":"cebpf4jnsgd1na2vs0mg"},{"bike_id":"da07e919-e03e-4d46-8762-e8b586d3e643","system_id":"levelo_inurba_marseille","lat":43.24404,"lon":5.37063,"is_reserved":false,"is_disabled":false,"rental_uris":{"android":"levelo://app?vid=da07e919-e03e-4d46-8762-e8b586d3e643","ios":"levelo://app?vid=da07e919-e03e-4d46-8762-e8b586d3e643"},"vehicle_type_id":"4","last_reported":1769768527,"current_range_meters":8800,"station_id":"ce4bhhh2rcd13ifvqfk0","pricing_plan_id":"cebpf4jnsgd1na2vs0mg"},{"bike_id":"8d8e65a1-3cb6-416e-919a-8b962b63738e","system_id":"levelo_inurba_marseille","lat":43.25923,"lon":5.40902,"is_reserved":false,"is_disabled":false,"rental_uris":{"android":"levelo://app?vid=8d8e65a1-3cb6-416e-919a-8b962b63738e","ios":"levelo://app?vid=8d8e65a1-3cb6-416e-919a-8b962b63738e"},"vehicle_type_id":"4","last_reported":1769768527,"current_range_meters":8800,"station_id":"ce4bhm92rcd13ifvqglg","pricing_plan_id":"cebpf4jnsgd1na2vs0mg"},{"bike_id":"eedf6c4a-604c-448d-9cdd-2409a3e5332f","system_id":"levelo_inurba_marseille","lat":43.25577,"lon":5.38253,"is_reserved":false,"is_disabled":false,"rental_uris":{"android":"levelo://app?vid=eedf6c4a-604c-448d-9cdd-2409a3e5332f","ios":"levelo://app?vid=eedf6c4a-604c-448d-9cdd-2409a3e5332f"},"vehicle_type_id":"4","last_reported":1769768527,"current_range_meters":8800,"station_id":"ce4bhih2rcd13ifvqfs0","pricing_plan_id":"cebpf4jnsgd1na2vs0mg"},{"bike_id":"3c1fad7f-1eaf-4dc1-9249-99112300ad5a","system_id":"levelo_inurba_marseille","lat":43.24078,"lon":5.377553,"is_reserved":false,"is_disabled":false,"rental_uris":{"android":"levelo://app?vid=3c1fad7f-1eaf-4dc1-9249-99112300ad5a","ios":"levelo://app?vid=3c1fad7f-1eaf-4dc1-9249-99112300ad5a"},"vehicle_type_id":"4","last_reported":1769768527,"current_range_meters":8800,"station_id":"ce4bhnp2rcd13ifvqgvg","pricing_plan_id":"cebpf4jnsgd1na2vs0mg"},{"bike_id":"6f006526-2e34-462f-a4a0-8e0a4c4ceba5","system_id":"levelo_inurba_marseille","lat":43.24647,"lon":5.38924,"is_reserved":false,"is_disabled":false,"rental_uris":{"android":"levelo://app?vid=6f006526-2e34-462f-a4a0-8e0a4c4ceba5","ios":"levelo://app?vid=6f006526-2e34-462f-a4a0-8e0a4c4ceba5"},"vehicle_type_id":"4","last_reported":1769768527,"current_range_meters":8800,"station_id":"ce4bhg12rcd13ifvqf60","pricing_plan_id":"cebpf4jnsgd1na2vs0mg"},{"bike_id":"09b158eb-8388-4f9a-a984-abb7f1e3c534","system_id":"levelo_inurba_marseille","lat":43.31338,"lon":5.39704,"is_reserved":false,"is_disabled":false,"rental_uris":{"android":"levelo://app?vid=09b158eb-8388-4f9a-a984-abb7f1e3c534","ios":"levelo://app?vid=09b158eb-8388-4f9a-a984-abb7f1e3c534"},"vehicle_type_id":"4","last_reported":1769768527,"current_range_meters":8800,"station_id":"ce4bgvp2rcd13ifvqcu0","pricing_plan_id":"cebpf4jnsgd1na2vs0mg"},{"bike_id":"c185cf38-df1b-4bb4-86d7-b251a2422e4d","system_id":"levelo_inurba_marseille","lat":43.32116,"lon":5.36776,"is_reserved":false,"is_disabled":false,"rental_uris":{"android":"levelo://app?vid=c185cf38-df1b-4bb4-86d7-b251a2422e4d","ios":"levelo://app?vid=c185cf38-df1b-4bb4-86d7-b251a2422e4d"},"vehicle_type_id":"4","last_reported":1769768527,"current_range_meters":8800,"station_id":"ce4bhrh2rcd13ifvqhug","pricing_plan_id":"cebpf4jnsgd1na2vs0mg"},{"bike_id":"535c9fa8-c851-4012-b02d-ffd2bd1ddb58","system_id":"levelo_inurba_marseille","lat":43.301651,"lon":5.380878,"is_reserved":false,"is_disabled":false,"rental_uris":{"android":"levelo://app?vid=535c9fa8-c851-4012-b02d-ffd2bd1ddb58","ios":"levelo://app?vid=535c9fa8-c851-4012-b02d-ffd2bd1ddb58"},"vehicle_type_id":"4","last_reported":1769768527,"current_range_meters":8800,"station_id":"ce4bgjp2rcd13ifvqbh0","pricing_plan_id":"cebpf4jnsgd1na2vs0mg"},{"bike_id":"da306985-5615-44bf-bba4-a23f01f476f5","system_id":"levelo_inurba_marseille","lat":43.2863,"lon":5.37048,"is_reserved":false,"is_disabled":false,"rental_uris":{"android":"levelo://app?vid=da306985-5615-44bf-bba4-a23f01f476f5","ios":"levelo://app?vid=da306985-5615-44bf-bba4-a23f01f476f5"},"vehicle_type_id":"4","last_reported":1769768527,"current_range_meters":8800,"station_id":"ce4bht12rcd13ifvqi60","pricing_plan_id":"cebpf4jnsgd1na2vs0mg"},{"bike_id":"1542b27a-454f-4c1c-9c03-8ac49b698877","system_id":"levelo_inurba_marseille","lat":43.29528,"lon":5.38539,"is_reserved":false,"is_disabled":false,"rental_uris":{"android":"levelo://app?vid=1542b27a-454f-4c1c-9c03-8ac49b698877","ios":"levelo://app?vid=1542b27a-454f-4c1c-9c03-8ac49b698877"},"vehicle_type_id":"4","last_reported":1769768527,"current_range_meters":9200,"station_id":"ce4bgih2rcd13ifvqba0","pricing_plan_id":"cebpf4jnsgd1na2vs0mg"},{"bike_id":"7212c134-0bb1-4307-8053-dc66b6b70a1e","system_id":"levelo_inurba_marseille","lat":43.29764,"lon":5.4279,"is_reserved":false,"is_disabled":false,"rental_uris":{"android":"levelo://app?vid=7212c134-0bb1-4307-8053-dc66b6b70a1e","ios":"levelo://app?vid=7212c134-0bb1-4307-8053-dc66b6b70a1e"},"vehicle_type_id":"4","last_reported":1769768527,"current_range_meters":9200,"station_id":"st_d3md5207bmas73dh9klg","pricing_plan_id":"cebpf4jnsgd1na2vs0mg"},{"bike_id":"32c2a5af-b5f9-416e-8e4c-96e2f8d06aad","system_id":"levelo_inurba_marseille","lat":43.28265,"lon":5.3508,"is_reserved":false,"is_disabled":false,"rental_uris":{"android":"levelo://app?vid=32c2a5af-b5f9-416e-8e4c-96e2f8d06aad","ios":"levelo://app?vid=32c2a5af-b5f9-416e-8e4c-96e2f8d06aad"},"vehicle_type_id":"4","last_reported":1769768527,"current_range_meters":9200,"station_id":"ce4bhbp2rcd13ifvqerg","pricing_plan_id":"cebpf4jnsgd1na2vs0mg"},{"bike_id":"c386e859-c47c-4176-b8dc-5d121dc2bc50","system_id":"levelo_inurba_marseille","lat":43.25719,"lon":5.41101,"is_reserved":false,"is_disabled":false,"rental_uris":{"android":"levelo://app?vid=c386e859-c47c-4176-b8dc-5d121dc2bc50","ios":"levelo://app?vid=c386e859-c47c-4176-b8dc-5d121dc2bc50"},"vehicle_type_id":"4","last_reported":1769768527,"current_range_meters":9200,"station_id":"ce4bhkp2rcd13ifvqgd0","pricing_plan_id":"cebpf4jnsgd1na2vs0mg"},{"bike_id":"a633dcb8-69cc-416a-ac75-271c195c29ed","system_id":"levelo_inurba_marseille","lat":43.25531,"lon":5.37764,"is_reserved":false,"is_disabled":false,"rental_uris":{"android":"levelo://app?vid=a633dcb8-69cc-416a-ac75-271c195c29ed","ios":"levelo://app?vid=a633dcb8-69cc-416a-ac75-271c195c29ed"},"vehicle_type_id":"4","last_reported":1769768527,"current_range_meters":9200,"station_id":"ce4bhh12rcd13ifvqff0","pricing_plan_id":"cebpf4jnsgd1na2vs0mg"},{"bike_id":"3e47412e-7cff-4711-97d5-463652c22702","system_id":"levelo_inurba_marseille","lat":43.24168,"lon":5.36439,"is_reserved":false,"is_disabled":false,"rental_uris":{"android":"levelo://app?vid=3e47412e-7cff-4711-97d5-463652c22702","ios":"levelo://app?vid=3e47412e-7cff-4711-97d5-463652c22702"},"vehicle_type_id":"4","last_reported":1769768527,"current_range_meters":9200,"station_id":"cpo36qri1sfpv3e86is0","pricing_plan_id":"cebpf4jnsgd1na2vs0mg"},{"bike_id":"a0dcc763-a405-4606-9860-cacf293cf2a6","system_id":"levelo_inurba_marseille","lat":43.30948,"lon":5.39037,"is_reserved":false,"is_disabled":false,"rental_uris":{"android":"levelo://app?vid=a0dcc763-a405-4606-9860-cacf293cf2a6","ios":"levelo://app?vid=a0dcc763-a405-4606-9860-cacf293cf2a6"},"vehicle_type_id":"4","last_reported":1769768527,"current_range_meters":9200,"station_id":"ce4bgup2rcd13ifvqco0","pricing_plan_id":"cebpf4jnsgd1na2vs0mg"},{"bike_id":"6f80a0c7-e6da-4e3f-a33d-84508ae903bc","system_id":"levelo_inurba_marseille","lat":43.2462,"lon":5.43153,"is_reserved":false,"is_disabled":false,"rental_uris":{"android":"levelo://app?vid=6f80a0c7-e6da-4e3f-a33d-84508ae903bc","ios":"levelo://app?vid=6f80a0c7-e6da-4e3f-a33d-84508ae903bc"},"vehicle_type_id":"4","last_reported":1769768527,"current_range_meters":9200,"station_id":"st_d2m6c4gdas8pm72e190g","pricing_plan_id":"cebpf4jnsgd1na2vs0mg"},{"bike_id":"550fbd4f-949e-4d68-805b-0d9cfbfc9a00","system_id":"levelo_inurba_marseille","lat":43.28273,"lon":5.35079,"is_reserved":false,"is_disabled":false,"rental_uris":{"android":"levelo://app?vid=550fbd4f-949e-4d68-805b-0d9cfbfc9a00","ios":"levelo://app?vid=550fbd4f-949e-4d68-805b-0d9cfbfc9a00"},"vehicle_type_id":"4","last_reported":1769768527,"current_range_meters":9200,"station_id":"ce4bhbp2rcd13ifvqerg","pricing_plan_id":"cebpf4jnsgd1na2vs0mg"},{"bike_id":"be1f6356-9b44-4dd3-9f21-a3c61341d563","system_id":"levelo_inurba_marseille","lat":43.26682,"lon":5.38277,"is_reserved":false,"is_disabled":false,"rental_uris":{"android":"levelo://app?vid=be1f6356-9b44-4dd3-9f21-a3c61341d563","ios":"levelo://app?vid=be1f6356-9b44-4dd3-9f21-a3c61341d563"},"vehicle_type_id":"4","last_reported":1769768527,"current_range_meters":9200,"station_id":"ce4bhg92rcd13ifvqf90","pricing_plan_id":"cebpf4jnsgd1na2vs0mg"},{"bike_id":"9e8ea578-2c3b-4d29-be3f-57c6aed2a6cc","system_id":"levelo_inurba_marseille","lat":43.3061,"lon":5.37219,"is_reserved":false,"is_disabled":false,"rental_uris":{"android":"levelo://app?vid=9e8ea578-2c3b-4d29-be3f-57c6aed2a6cc","ios":"levelo://app?vid=9e8ea578-2c3b-4d29-be3f-57c6aed2a6cc"},"vehicle_type_id":"4","last_reported":1769768527,"current_range_meters":9200,"station_id":"ce4bgqh2rcd13ifvqc4g","pricing_plan_id":"cebpf4jnsgd1na2vs0mg"},{"bike_id":"9dcc7619-80be-421f-8e76-2d6b61e959ef","system_id":"levelo_inurba_marseille","lat":43.28646,"lon":5.36375,"is_reserved":false,"is_disabled":false,"rental_uris":{"android":"levelo://app?vid=9dcc7619-80be-421f-8e76-2d6b61e959ef","ios":"levelo://app?vid=9dcc7619-80be-421f-8e76-2d6b61e959ef"},"vehicle_type_id":"4","last_reported":1769768527,"current_range_meters":9200,"station_id":"ce4bhah2rcd13ifvqej0","pricing_plan_id":"cebpf4jnsgd1na2vs0mg"},{"bike_id":"2bf43725-056d-498e-8ff9-c40ea153b9fc","system_id":"levelo_inurba_marseille","lat":43.30149,"lon":5.3808,"is_reserved":false,"is_disabled":false,"rental_uris":{"android":"levelo://app?vid=2bf43725-056d-498e-8ff9-c40ea153b9fc","ios":"levelo://app?vid=2bf43725-056d-498e-8ff9-c40ea153b9fc"},"vehicle_type_id":"4","last_reported":1769768527,"current_range_meters":9200,"station_id":"ce4bgjp2rcd13ifvqbh0","pricing_plan_id":"cebpf4jnsgd1na2vs0mg"},{"bike_id":"05d7b93d-f7c8-4d96-ae68-729c5b25c9c8","system_id":"levelo_inurba_marseille","lat":43.27497,"lon":5.42459,"is_reserved":false,"is_disabled":true,"rental_uris":{"android":"levelo://app?vid=05d7b93d-f7c8-4d96-ae68-729c5b25c9c8","ios":"levelo://app?vid=05d7b93d-f7c8-4d96-ae68-729c5b25c9c8"},"vehicle_type_id":"4","last_reported":1769768527,"current_range_meters":9600,"station_id":"ce4bhn92rcd13ifvqgrg","pricing_plan_id":"cebpf4jnsgd1na2vs0mg"},{"bike_id":"7e52877b-150a-4c93-9bf6-9bb2f9f9335d","system_id":"levelo_inurba_marseille","lat":43.23963,"lon":5.36626,"is_reserved":false,"is_disabled":false,"rental_uris":{"android":"levelo://app?vid=7e52877b-150a-4c93-9bf6-9bb2f9f9335d","ios":"levelo://app?vid=7e52877b-150a-4c93-9bf6-9bb2f9f9335d"},"vehicle_type_id":"4","last_reported":1769768527,"current_range_meters":9600,"station_id":"ce4bhi12rcd13ifvqfp0","pricing_plan_id":"cebpf4jnsgd1na2vs0mg"},{"bike_id":"40000f2f-f679-4308-95c9-88d4b58fc265","system_id":"levelo_inurba_marseille","lat":43.28728,"lon":5.36107,"is_reserved":false,"is_disabled":true,"rental_uris":{"android":"levelo://app?vid=40000f2f-f679-4308-95c9-88d4b58fc265","ios":"levelo://app?vid=40000f2f-f679-4308-95c9-88d4b58fc265"},"vehicle_type_id":"4","last_reported":1769768527,"current_range_meters":9600,"station_id":"cki0cbj6b192h4jlfktg","pricing_plan_id":"cebpf4jnsgd1na2vs0mg"},{"bike_id":"9ac35684-78f8-4312-9009-9c0b024fe004","system_id":"levelo_inurba_marseille","lat":43.23784,"lon":5.36631,"is_reserved":false,"is_disabled":false,"rental_uris":{"android":"levelo://app?vid=9ac35684-78f8-4312-9009-9c0b024fe004","ios":"levelo://app?vid=9ac35684-78f8-4312-9009-9c0b024fe004"},"vehicle_type_id":"4","last_reported":1769768527,"current_range_meters":9600,"station_id":"st_d3nk18o9ro0c73en2l3g","pricing_plan_id":"cebpf4jnsgd1na2vs0mg"},{"bike_id":"9ac3f51e-1b5d-4649-b3da-dd73d7c1726c","system_id":"levelo_inurba_marseille","lat":43.26212,"lon":5.37462,"is_reserved":false,"is_disabled":false,"rental_uris":{"android":"levelo://app?vid=9ac3f51e-1b5d-4649-b3da-dd73d7c1726c","ios":"levelo://app?vid=9ac3f51e-1b5d-4649-b3da-dd73d7c1726c"},"vehicle_type_id":"4","last_reported":1769768527,"current_range_meters":9600,"station_id":"ce4bhgp2rcd13ifvqfc0","pricing_plan_id":"cebpf4jnsgd1na2vs0mg"},{"bike_id":"70e0ae5b-261c-46da-acb0-36ce4a87c088","system_id":"levelo_inurba_marseille","lat":43.2606,"lon":5.39401,"is_reserved":false,"is_disabled":false,"rental_uris":{"android":"levelo://app?vid=70e0ae5b-261c-46da-acb0-36ce4a87c088","ios":"levelo://app?vid=70e0ae5b-261c-46da-acb0-36ce4a87c088"},"vehicle_type_id":"4","last_reported":1769768527,"current_range_meters":9600,"station_id":"ce4bhh92rcd13ifvqfj0","pricing_plan_id":"cebpf4jnsgd1na2vs0mg"},{"bike_id":"8eeb4da1-5ffe-42ca-ae24-0fc13dd0c38e","system_id":"levelo_inurba_marseille","lat":43.29141,"lon":5.37456,"is_reserved":false,"is_disabled":false,"rental_uris":{"android":"levelo://app?vid=8eeb4da1-5ffe-42ca-ae24-0fc13dd0c38e","ios":"levelo://app?vid=8eeb4da1-5ffe-42ca-ae24-0fc13dd0c38e"},"vehicle_type_id":"4","last_reported":1769768527,"current_range_meters":9600,"station_id":"","pricing_plan_id":"cebpf4jnsgd1na2vs0mg"},{"bike_id":"da430813-1e4c-4d0a-b07d-976b86d0c6c6","system_id":"levelo_inurba_marseille","lat":43.253,"lon":5.42174,"is_reserved":false,"is_disabled":false,"rental_uris":{"android":"levelo://app?vid=da430813-1e4c-4d0a-b07d-976b86d0c6c6","ios":"levelo://app?vid=da430813-1e4c-4d0a-b07d-976b86d0c6c6"},"vehicle_type_id":"4","last_reported":1769768527,"current_range_meters":9600,"station_id":"st_d2m65c5bi1j21697t3ng","pricing_plan_id":"cebpf4jnsgd1na2vs0mg"},{"bike_id":"b5d91fc7-30d8-4004-8e14-1ac91b3bffa6","system_id":"levelo_inurba_marseille","lat":43.2447,"lon":5.42554,"is_reserved":false,"is_disabled":false,"rental_uris":{"android":"levelo://app?vid=b5d91fc7-30d8-4004-8e14-1ac91b3bffa6","ios":"levelo://app?vid=b5d91fc7-30d8-4004-8e14-1ac91b3bffa6"},"vehicle_type_id":"4","last_reported":1769768527,"current_range_meters":9600,"station_id":"st_d4a3vfp97mjs738cd8kg","pricing_plan_id":"cebpf4jnsgd1na2vs0mg"},{"bike_id":"89d9bbd7-56c1-47dc-a33c-3c870e84c211","system_id":"levelo_inurba_marseille","lat":43.26042,"lon":5.3754,"is_reserved":false,"is_disabled":false,"rental_uris":{"android":"levelo://app?vid=89d9bbd7-56c1-47dc-a33c-3c870e84c211","ios":"levelo://app?vid=89d9bbd7-56c1-47dc-a33c-3c870e84c211"},"vehicle_type_id":"4","last_reported":1769768527,"current_range_meters":9600,"station_id":"ce4bhgh2rcd13ifvqfa0","pricing_plan_id":"cebpf4jnsgd1na2vs0mg"},{"bike_id":"f7ba70bd-983c-4ad6-a72c-36380a2ff19c","system_id":"levelo_inurba_marseille","lat":43.23199,"lon":5.35562,"is_reserved":false,"is_disabled":false,"rental_uris":{"android":"levelo://app?vid=f7ba70bd-983c-4ad6-a72c-36380a2ff19c","ios":"levelo://app?vid=f7ba70bd-983c-4ad6-a72c-36380a2ff19c"},"vehicle_type_id":"4","last_reported":1769768527,"current_range_meters":9600,"station_id":"ce4bhu92rcd13ifvqi70","pricing_plan_id":"cebpf4jnsgd1na2vs0mg"},{"bike_id":"b32a36ac-6d8c-4f94-8007-49ab8ab4f812","system_id":"levelo_inurba_marseille","lat":43.298958,"lon":5.436741,"is_reserved":false,"is_disabled":false,"rental_uris":{"android":"levelo://app?vid=b32a36ac-6d8c-4f94-8007-49ab8ab4f812","ios":"levelo://app?vid=b32a36ac-6d8c-4f94-8007-49ab8ab4f812"},"vehicle_type_id":"4","last_reported":1769768527,"current_range_meters":9600,"station_id":"ce4bhpp2rcd13ifvqhfg","pricing_plan_id":"cebpf4jnsgd1na2vs0mg"},{"bike_id":"0af3225c-a20a-40dd-b250-0a766516c04e","system_id":"levelo_inurba_marseille","lat":43.3235,"lon":5.36751,"is_reserved":false,"is_disabled":false,"rental_uris":{"android":"levelo://app?vid=0af3225c-a20a-40dd-b250-0a766516c04e","ios":"levelo://app?vid=0af3225c-a20a-40dd-b250-0a766516c04e"},"vehicle_type_id":"4","last_reported":1769768527,"current_range_meters":9600,"station_id":"ce4bhsh2rcd13ifvqi2g","pricing_plan_id":"cebpf4jnsgd1na2vs0mg"},{"bike_id":"0c64f01b-e867-4b27-be2c-1c9d836477bc","system_id":"levelo_inurba_marseille","lat":43.29025,"lon":5.37743,"is_reserved":false,"is_disabled":false,"rental_uris":{"android":"levelo://app?vid=0c64f01b-e867-4b27-be2c-1c9d836477bc","ios":"levelo://app?vid=0c64f01b-e867-4b27-be2c-1c9d836477bc"},"vehicle_type_id":"4","last_reported":1769768527,"current_range_meters":9600,"station_id":"","pricing_plan_id":"cebpf4jnsgd1na2vs0mg"},{"bike_id":"4488b7bd-2de4-4a30-8400-e60c2d945a3c","system_id":"levelo_inurba_marseille","lat":43.29812,"lon":5.44077,"is_reserved":false,"is_disabled":false,"rental_uris":{"android":"levelo://app?vid=4488b7bd-2de4-4a30-8400-e60c2d945a3c","ios":"levelo://app?vid=4488b7bd-2de4-4a30-8400-e60c2d945a3c"},"vehicle_type_id":"4","last_reported":1769768527,"current_range_meters":9600,"station_id":"st_d3jp68qikq2c7381ktn0","pricing_plan_id":"cebpf4jnsgd1na2vs0mg"},{"bike_id":"3442a305-268c-46d3-aa1f-2161382baae7","system_id":"levelo_inurba_marseille","lat":43.312765,"lon":5.401667,"is_reserved":false,"is_disabled":false,"rental_uris":{"android":"levelo://app?vid=3442a305-268c-46d3-aa1f-2161382baae7","ios":"levelo://app?vid=3442a305-268c-46d3-aa1f-2161382baae7"},"vehicle_type_id":"4","last_reported":1769768527,"current_range_meters":9600,"station_id":"ce4bh092rcd13ifvqd30","pricing_plan_id":"cebpf4jnsgd1na2vs0mg"},{"bike_id":"5e8fbe87-534e-4f2f-a443-916ce062db49","system_id":"levelo_inurba_marseille","lat":43.27593,"lon":5.36104,"is_reserved":false,"is_disabled":false,"rental_uris":{"android":"levelo://app?vid=5e8fbe87-534e-4f2f-a443-916ce062db49","ios":"levelo://app?vid=5e8fbe87-534e-4f2f-a443-916ce062db49"},"vehicle_type_id":"4","last_reported":1769768527,"current_range_meters":10000,"station_id":"ce4bgj92rcd13ifvqbe0","pricing_plan_id":"cebpf4jnsgd1na2vs0mg"},{"bike_id":"169e268b-5fcc-439a-85a8-5d0f835d65db","system_id":"levelo_inurba_marseille","lat":43.25506,"lon":5.37666,"is_reserved":false,"is_disabled":false,"rental_uris":{"android":"levelo://app?vid=169e268b-5fcc-439a-85a8-5d0f835d65db","ios":"levelo://app?vid=169e268b-5fcc-439a-85a8-5d0f835d65db"},"vehicle_type_id":"4","last_reported":1769768527,"current_range_meters":10000,"station_id":"ce4bhh12rcd13ifvqff0","pricing_plan_id":"cebpf4jnsgd1na2vs0mg"},{"bike_id":"16ead72f-013b-4a57-b9c9-7874279575c5","system_id":"levelo_inurba_marseille","lat":43.29917,"lon":5.36514,"is_reserved":false,"is_disabled":false,"rental_uris":{"android":"levelo://app?vid=16ead72f-013b-4a57-b9c9-7874279575c5","ios":"levelo://app?vid=16ead72f-013b-4a57-b9c9-7874279575c5"},"vehicle_type_id":"4","last_reported":1769768527,"current_range_meters":10000,"station_id":"ce4bgm92rcd13ifvqbr0","pricing_plan_id":"cebpf4jnsgd1na2vs0mg"},{"bike_id":"1f7bf812-3010-4d6a-bbe0-de222f9f0cf1","system_id":"levelo_inurba_marseille","lat":43.24082,"lon":5.37768,"is_reserved":false,"is_disabled":false,"rental_uris":{"android":"levelo://app?vid=1f7bf812-3010-4d6a-bbe0-de222f9f0cf1","ios":"levelo://app?vid=1f7bf812-3010-4d6a-bbe0-de222f9f0cf1"},"vehicle_type_id":"4","last_reported":1769768527,"current_range_meters":10000,"station_id":"ce4bhnp2rcd13ifvqgvg","pricing_plan_id":"cebpf4jnsgd1na2vs0mg"},{"bike_id":"67dde3a5-6719-400f-9754-ba07b063d126","system_id":"levelo_inurba_marseille","lat":43.22566,"lon":5.41632,"is_reserved":false,"is_disabled":false,"rental_uris":{"android":"levelo://app?vid=67dde3a5-6719-400f-9754-ba07b063d126","ios":"levelo://app?vid=67dde3a5-6719-400f-9754-ba07b063d126"},"vehicle_type_id":"4","last_reported":1769768527,"current_range_meters":10000,"station_id":"st_d2o4gvlbi1j2169b742g","pricing_plan_id":"cebpf4jnsgd1na2vs0mg"},{"bike_id":"14dbbc7f-d9f5-4d2e-abab-d738507cef2a","system_id":"levelo_inurba_marseille","lat":43.23793,"lon":5.36647,"is_reserved":false,"is_disabled":false,"rental_uris":{"android":"levelo://app?vid=14dbbc7f-d9f5-4d2e-abab-d738507cef2a","ios":"levelo://app?vid=14dbbc7f-d9f5-4d2e-abab-d738507cef2a"},"vehicle_type_id":"4","last_reported":1769768527,"current_range_meters":10000,"station_id":"st_d3nk18o9ro0c73en2l3g","pricing_plan_id":"cebpf4jnsgd1na2vs0mg"},{"bike_id":"3204c5b6-1dfb-4cc3-a887-23e54972fa05","system_id":"levelo_inurba_marseille","lat":43.29175,"lon":5.37224,"is_reserved":false,"is_disabled":false,"rental_uris":{"android":"levelo://app?vid=3204c5b6-1dfb-4cc3-a887-23e54972fa05","ios":"levelo://app?vid=3204c5b6-1dfb-4cc3-a887-23e54972fa05"},"vehicle_type_id":"4","last_reported":1769768527,"current_range_meters":10000,"station_id":"","pricing_plan_id":"cebpf4jnsgd1na2vs0mg"},{"bike_id":"3d54a795-831b-4f5a-8c8c-79b745d58ccf","system_id":"levelo_inurba_marseille","lat":43.26565,"lon":5.40323,"is_reserved":false,"is_disabled":false,"rental_uris":{"android":"levelo://app?vid=3d54a795-831b-4f5a-8c8c-79b745d58ccf","ios":"levelo://app?vid=3d54a795-831b-4f5a-8c8c-79b745d58ccf"},"vehicle_type_id":"4","last_reported":1769768527,"current_range_meters":10000,"station_id":"ce4bhmp2rcd13ifvqgng","pricing_plan_id":"cebpf4jnsgd1na2vs0mg"},{"bike_id":"a348b41d-ce0f-4115-b2b3-f88fa8dc97dd","system_id":"levelo_inurba_marseille","lat":43.22573,"lon":5.41634,"is_reserved":false,"is_disabled":false,"rental_uris":{"android":"levelo://app?vid=a348b41d-ce0f-4115-b2b3-f88fa8dc97dd","ios":"levelo://app?vid=a348b41d-ce0f-4115-b2b3-f88fa8dc97dd"},"vehicle_type_id":"4","last_reported":1769768527,"current_range_meters":10000,"station_id":"st_d2o4gvlbi1j2169b742g","pricing_plan_id":"cebpf4jnsgd1na2vs0mg"},{"bike_id":"69bd550d-bae4-47b4-8ea1-fdf2613d9cd6","system_id":"levelo_inurba_marseille","lat":43.23956,"lon":5.36648,"is_reserved":false,"is_disabled":false,"rental_uris":{"android":"levelo://app?vid=69bd550d-bae4-47b4-8ea1-fdf2613d9cd6","ios":"levelo://app?vid=69bd550d-bae4-47b4-8ea1-fdf2613d9cd6"},"vehicle_type_id":"4","last_reported":1769768527,"current_range_meters":10000,"station_id":"ce4bhi12rcd13ifvqfp0","pricing_plan_id":"cebpf4jnsgd1na2vs0mg"},{"bike_id":"0f88f02c-6524-4fbe-a66f-23d4a0f87a32","system_id":"levelo_inurba_marseille","lat":43.27499,"lon":5.42461,"is_reserved":false,"is_disabled":false,"rental_uris":{"android":"levelo://app?vid=0f88f02c-6524-4fbe-a66f-23d4a0f87a32","ios":"levelo://app?vid=0f88f02c-6524-4fbe-a66f-23d4a0f87a32"},"vehicle_type_id":"4","last_reported":1769768527,"current_range_meters":10000,"station_id":"ce4bhn92rcd13ifvqgrg","pricing_plan_id":"cebpf4jnsgd1na2vs0mg"},{"bike_id":"acb481fc-82df-49e7-8f71-bb7e93332088","system_id":"levelo_inurba_marseille","lat":43.29849,"lon":5.36273,"is_reserved":false,"is_disabled":false,"rental_uris":{"android":"levelo://app?vid=acb481fc-82df-49e7-8f71-bb7e93332088","ios":"levelo://app?vid=acb481fc-82df-49e7-8f71-bb7e93332088"},"vehicle_type_id":"4","last_reported":1769768527,"current_range_meters":10000,"station_id":"ce4bgpp2rcd13ifvqc3g","pricing_plan_id":"cebpf4jnsgd1na2vs0mg"},{"bike_id":"5f7a854c-5e1c-4977-8ead-a43e6574b667","system_id":"levelo_inurba_marseille","lat":43.25935,"lon":5.40916,"is_reserved":false,"is_disabled":false,"rental_uris":{"android":"levelo://app?vid=5f7a854c-5e1c-4977-8ead-a43e6574b667","ios":"levelo://app?vid=5f7a854c-5e1c-4977-8ead-a43e6574b667"},"vehicle_type_id":"4","last_reported":1769768527,"current_range_meters":10000,"station_id":"ce4bhm92rcd13ifvqglg","pricing_plan_id":"cebpf4jnsgd1na2vs0mg"},{"bike_id":"d6cf163d-52c4-426a-aaf1-5e501ca5e9ab","system_id":"levelo_inurba_marseille","lat":43.2534,"lon":5.42174,"is_reserved":false,"is_disabled":false,"rental_uris":{"android":"levelo://app?vid=d6cf163d-52c4-426a-aaf1-5e501ca5e9ab","ios":"levelo://app?vid=d6cf163d-52c4-426a-aaf1-5e501ca5e9ab"},"vehicle_type_id":"4","last_reported":1769768527,"current_range_meters":10000,"station_id":"st_d2m65c5bi1j21697t3ng","pricing_plan_id":"cebpf4jnsgd1na2vs0mg"},