{"last_updated":1683554794,"ttl":30,"version":"2.2","data":{"bikes":[{"bike_id":"8e270a6a-bfff-45cc-b38a-9b727ece5f68","system_id":"levelo_inurba_marseille","lat":43.312239,"lon":5.368562,"is_reserved":false,"is_disabled":false,"rental_uris":{"android":"levelo://app?vid=8e270a6a-bfff-45cc-b38a-9b727ece5f68","ios":"levelo://app?vid=8e270a6a-bfff-45cc-b38a-9b727ece5f68"},"vehicle_type_id":"4","last_reported":1683554795,"current_range_meters":14000,"station_id":"ce4bgl92rcd13ifvqbq0","pricing_plan_id":"free"},{"bike_id":"1afedf9c-9eb4-4791-8ffc-47432fc17e40","system_id":"levelo_inurba_marseille","lat":43.30526,"lon":5.36721,"is_reserved":false,"is_disabled":false,"rental_uris":{"android":"levelo://app?vid=1afedf9c-9eb4-4791-8ffc-47432fc17e40","ios":"levelo://app?vid=1afedf9c-9eb4-4791-8ffc-47432fc17e40"},"vehicle_type_id":"4","last_reported":1683554795,"current_range_meters":11600,"station_id":"ce4bgrp2rcd13ifvqc9g","pricing_plan_id":"free"},{"bike_id":"9281fe4b-58f9-413f-b220-6876e32e3247","system_id":"levelo_inurba_marseille","lat":43.305989,"lon":5.37225,"is_reserved":false,"is_disabled":false,"rental_uris":{"android":"levelo://app?vid=9281fe4b-58f9-413f-b220-6876e32e3247","ios":"levelo://app?vid=9281fe4b-58f9-413f-b220-6876e32e3247"},"vehicle_type_id":"4","last_reported":1683554795,"current_range_meters":30000,"station_id":"ce4bgqh2rcd13ifvqc4g","pricing_plan_id":"free"},{"bike_id":"656f19d7-16ec-4726-8f99-88197f5d4a05","system_id":"levelo_inurba_marseille","lat":43.303046,"lon":5.368981,"is_reserved":false,"is_disabled":false,"rental_uris":{"android":"levelo://app?vid=656f19d7-16ec-4726-8f99-88197f5d4a05","ios":"levelo://app?vid=656f19d7-16ec-4726-8f99-88197f5d4a05"},"vehicle_type_id":"4","last_reported":1683554795,"current_range_meters":17600,"station_id":"ce4bgqh2rcd13ifvqc5g","pricing_plan_id":"free"},{"bike_id":"243d58c6-677a-4ef5-ac10-1ca5621449fc","system_id":"levelo_inurba_marseille","lat":43.30306,"lon":5.36444,"is_reserved":false,"is_disabled":false,"rental_uris":{"android":"levelo://app?vid=243d58c6-677a-4ef5-ac10-1ca5621449fc","ios":"levelo://app?vid=243d58c6-677a-4ef5-ac10-1ca5621449fc"},"vehicle_type_id":"4","last_reported":1683554795,"current_range_meters":9200,"station_id":"","pricing_plan_id":"free"},{"bike_id":"d261c220-2cf1-4f3c-99cd-92024a9dc4bb","system_id":"levelo_inurba_marseille","lat":43.30296,"lon":5.36862,"is_reserved":false,"is_disabled":false,"rental_uris":{"android":"levelo://app?vid=d261c220-2cf1-4f3c-99cd-92024a9dc4bb","ios":"levelo://app?vid=d261c220-2cf1-4f3c-99cd-92024a9dc4bb"},"vehicle_type_id":"4","last_reported":1683554795,"current_range_meters":0,"station_id":"","pricing_plan_id":"free"},{"bike_id":"e0b54aec-7765-4a94-95c5-c541c5bc0d47","system_id":"levelo_inurba_marseille","lat":43.315289,"lon":5.380349,"is_reserved":false,"is_disabled":false,"rental_uris":{"android":"levelo://app?vid=e0b54aec-7765-4a94-95c5-c541c5bc0d47","ios":"levelo://app?vid=e0b54aec-7765-4a94-95c5-c541c5bc0d47"},"vehicle_type_id":"4","last_reported":1683554795,"current_range_meters":28400,"station_id":"ce4bhsp2rcd13ifvqi50","pricing_plan_id":"free"},{"bike_id":"32809a51-ab7a-407e-896e-fca70a0f522a","system_id":"levelo_inurba_marseille","lat":43.315289,"lon":5.380349,"is_reserved":false,"is_disabled":false,"rental_uris":{"android":"levelo://app?vid=32809a51-ab7a-407e-896e-fca70a0f522a","ios":"levelo://app?vid=32809a51-ab7a-407e-896e-fca70a0f522a"},"vehicle_type_id":"4","last_reported":1683554795,"current_range_meters":24400,"station_id":"ce4bhsp2rcd13ifvqi50","pricing_plan_id":"free"},{"bike_id":"5f8f116d-0e2d-4599-bec6-d82e5db5fac7","system_id":"levelo_inurba_marseille","lat":43.3081,"lon":5.38141,"is_reserved":false,"is_disabled":false,"rental_uris":{"android":"levelo://app?vid=5f8f116d-0e2d-4599-bec6-d82e5db5fac7","ios":"levelo://app?vid=5f8f116d-0e2d-4599-bec6-d82e5db5fac7"},"vehicle_type_id":"4","last_reported":1683554795,"current_range_meters":10400,"station_id":"ce4bgt12rcd13ifvqce0","pricing_plan_id":"free"},{"bike_id":"98abcd66-7d59-4527-b3aa-c16aadba18b7","system_id":"levelo_inurba_marseille","lat":43.308012,"lon":5.381511,"is_reserved":false,"is_disabled":false,"rental_uris":{"android":"levelo://app?vid=98abcd66-7d59-4527-b3aa-c16aadba18b7","ios":"levelo://app?vid=98abcd66-7d59-4527-b3aa-c16aadba18b7"},"vehicle_type_id":"4","last_reported":1683554795,"current_range_meters":8400,"station_id":"ce4bgt12rcd13ifvqce0","pricing_plan_id":"free"},{"bike_id":"b92a9aa6-b5a5-41db-97b1-8938ccd7ac45","system_id":"levelo_inurba_marseille","lat":43.313571,"lon":5.384829,"is_reserved":false,"is_disabled":false,"rental_uris":{"android":"levelo://app?vid=b92a9aa6-b5a5-41db-97b1-8938ccd7ac45","ios":"levelo://app?vid=b92a9aa6-b5a5-41db-97b1-8938ccd7ac45"},"vehicle_type_id":"4","last_reported":1683554795,"current_range_meters":13600,"station_id":"ce4bgt92rcd13ifvqcf0","pricing_plan_id":"free"},{"bike_id":"3ab134d0-e91b-4f7d-b379-c66112bd5339","system_id":"levelo_inurba_marseille","lat":43.313571,"lon":5.384829,"is_reserved":false,"is_disabled":false,"rental_uris":{"android":"levelo://app?vid=3ab134d0-e91b-4f7d-b379-c66112bd5339","ios":"levelo://app?vid=3ab134d0-e91b-4f7d-b379-c66112bd5339"},"vehicle_type_id":"4","last_reported":1683554795,"current_range_meters":16800,"station_id":"ce4bgt92rcd13ifvqcf0","pricing_plan_id":"free"},{"bike_id":"11355a26-ce04-4637-b186-e63c722271b4","system_id":"levelo_inurba_marseille","lat":43.31359,"lon":5.38521,"is_reserved":false,"is_disabled":false,"rental_uris":{"android":"levelo://app?vid=11355a26-ce04-4637-b186-e63c722271b4","ios":"levelo://app?vid=11355a26-ce04-4637-b186-e63c722271b4"},"vehicle_type_id":"4","last_reported":1683554795,"current_range_meters":27200,"station_id":"","pricing_plan_id":"free"},{"bike_id":"36eaa943-7895-4caa-b4e4-aec955efb6af","system_id":"levelo_inurba_marseille","lat":43.299222,"lon":5.365554,"is_reserved":false,"is_disabled":false,"rental_uris":{"android":"levelo://app?vid=36eaa943-7895-4caa-b4e4-aec955efb6af","ios":"levelo://app?vid=36eaa943-7895-4caa-b4e4-aec955efb6af"},"vehicle_type_id":"4","last_reported":1683554795,"current_range_meters":31200,"station_id":"ce4bgm92rcd13ifvqbr0","pricing_plan_id":"free"},{"bike_id":"eec3f55c-f429-467b-97e1-6f71cf70f7b8","system_id":"levelo_inurba_marseille","lat":43.29936,"lon":5.36552,"is_reserved":false,"is_disabled":false,"rental_uris":{"android":"levelo://app?vid=eec3f55c-f429-467b-97e1-6f71cf70f7b8","ios":"levelo://app?vid=eec3f55c-f429-467b-97e1-6f71cf70f7b8"},"vehicle_type_id":"4","last_reported":1683554795,"current_range_meters":10400,"station_id":"ce4bgm92rcd13ifvqbr0","pricing_plan_id":"free"},{"bike_id":"e67e733c-6b53-4c7c-8dea-0693ac61a34c","system_id":"levelo_inurba_marseille","lat":43.32639,"lon":5.3612,"is_reserved":false,"is_disabled":false,"rental_uris":{"android":"levelo://app?vid=e67e733c-6b53-4c7c-8dea-0693ac61a34c","ios":"levelo://app?vid=e67e733c-6b53-4c7c-8dea-0693ac61a34c"},"vehicle_type_id":"4","last_reported":1683554795,"current_range_meters":9600,"station_id":"","pricing_plan_id":"free"},{"bike_id":"cf29a9e2-222b-4b30-845a-bb7254edfe83","system_id":"levelo_inurba_marseille","lat":43.311722,"lon":5.387247,"is_reserved":false,"is_disabled":false,"rental_uris":{"android":"levelo://app?vid=cf29a9e2-222b-4b30-845a-bb7254edfe83","ios":"levelo://app?vid=cf29a9e2-222b-4b30-845a-bb7254edfe83"},"vehicle_type_id":"4","last_reported":1683554795,"current_range_meters":16000,"station_id":"ce4bgv12rcd13ifvqcp0","pricing_plan_id":"free"},{"bike_id":"0398ae76-5441-4fa9-989c-c31fd54e4abd","system_id":"levelo_inurba_marseille","lat":43.297794,"lon":5.370888,"is_reserved":false,"is_disabled":false,"rental_uris":{"android":"levelo://app?vid=0398ae76-5441-4fa9-989c-c31fd54e4abd","ios":"levelo://app?vid=0398ae76-5441-4fa9-989c-c31fd54e4abd"},"vehicle_type_id":"4","last_reported":1683554795,"current_range_meters":11600,"station_id":"ce4bgop2rcd13ifvqc1g","pricing_plan_id":"free"},{"bike_id":"0d8e923f-956f-4411-9c2a-6b68fedc6e7e","system_id":"levelo_inurba_marseille","lat":43.328371,"lon":5.366909,"is_reserved":false,"is_disabled":false,"rental_uris":{"android":"levelo://app?vid=0d8e923f-956f-4411-9c2a-6b68fedc6e7e","ios":"levelo://app?vid=0d8e923f-956f-4411-9c2a-6b68fedc6e7e"},"vehicle_type_id":"4","last_reported":1683554795,"current_range_meters":12400,"station_id":"ce4bhs92rcd13ifvqi0g","pricing_plan_id":"free"},{"bike_id":"3110ca4e-35a4-40cf-b257-a851b9586fe6","system_id":"levelo_inurba_marseille","lat":43.32753,"lon":5.37624,"is_reserved":false,"is_disabled":false,"rental_uris":{"android":"levelo://app?vid=3110ca4e-35a4-40cf-b257-a851b9586fe6","ios":"levelo://app?vid=3110ca4e-35a4-40cf-b257-a851b9586fe6"},"vehicle_type_id":"4","last_reported":1683554795,"current_range_meters":0,"station_id":"","pricing_plan_id":"free"},{"bike_id":"e0c4fd42-5a1a-4abf-ad06-4ddd758e248f","system_id":"levelo_inurba_marseille","lat":43.309589,"lon":5.390258,"is_reserved":false,"is_disabled":false,"rental_uris":{"android":"levelo://app?vid=e0c4fd42-5a1a-4abf-ad06-4ddd758e248f","ios":"levelo://app?vid=e0c4fd42-5a1a-4abf-ad06-4ddd758e248f"},"vehicle_type_id":"4","last_reported":1683554795,"current_range_meters":12400,"station_id":"ce4bgup2rcd13ifvqco0","pricing_plan_id":"free"},{"bike_id":"1e8f931a-ad30-48b3-b976-bea13148586d","system_id":"levelo_inurba_marseille","lat":43.29891,"lon":5.38145,"is_reserved":false,"is_disabled":false,"rental_uris":{"android":"levelo://app?vid=1e8f931a-ad30-48b3-b976-bea13148586d","ios":"levelo://app?vid=1e8f931a-ad30-48b3-b976-bea13148586d"},"vehicle_type_id":"4","last_reported":1683554795,"current_range_meters":0,"station_id":"ce4bgj12rcd13ifvqbc0","pricing_plan_id":"free"},{"bike_id":"a2276775-395a-46ea-b346-e8817abee51a","system_id":"levelo_inurba_marseille","lat":43.317557,"lon":5.390173,"is_reserved":false,"is_disabled":false,"rental_uris":{"android":"levelo://app?vid=a2276775-395a-46ea-b346-e8817abee51a","ios":"levelo://app?vid=a2276775-395a-46ea-b346-e8817abee51a"},"vehicle_type_id":"4","last_reported":1683554795,"current_range_meters":16000,"station_id":"ce4bhqp2rcd13ifvqhng","pricing_plan_id":"free"},{"bike_id":"41a05e90-0192-4f04-8e9a-d26507210652","system_id":"levelo_inurba_marseille","lat":43.2933,"lon":5.3711,"is_reserved":false,"is_disabled":false,"rental_uris":{"android":"levelo://app?vid=41a05e90-0192-4f04-8e9a-d26507210652","ios":"levelo://app?vid=41a05e90-0192-4f04-8e9a-d26507210652"},"vehicle_type_id":"4","last_reported":1683554795,"current_range_meters":0,"station_id":"","pricing_plan_id":"free"},{"bike_id":"21b7a215-d5ac-45f2-8e55-4d01d6aef521","system_id":"levelo_inurba_marseille","lat":43.292749,"lon":5.368402,"is_reserved":false,"is_disabled":false,"rental_uris":{"android":"levelo://app?vid=21b7a215-d5ac-45f2-8e55-4d01d6aef521","ios":"levelo://app?vid=21b7a215-d5ac-45f2-8e55-4d01d6aef521"},"vehicle_type_id":"4","last_reported":1683554795,"current_range_meters":9600,"station_id":"ce4bhbp2rcd13ifvqesg","pricing_plan_id":"free"},{"bike_id":"d0346c49-eaf9-485a-9c18-dd7d3ff214dd","system_id":"levelo_inurba_marseille","lat":43.293009,"lon":5.374584,"is_reserved":false,"is_disabled":false,"rental_uris":{"android":"levelo://app?vid=d0346c49-eaf9-485a-9c18-dd7d3ff214dd","ios":"levelo://app?vid=d0346c49-eaf9-485a-9c18-dd7d3ff214dd"},"vehicle_type_id":"4","last_reported":1683554795,"current_range_meters":0,"station_id":"ce4bgi12rcd13ifvqb70","pricing_plan_id":"free"},{"bike_id":"574be080-fd9e-44f8-832a-0ad5f721cbb1","system_id":"levelo_inurba_marseille","lat":43.29228,"lon":5.361,"is_reserved":false,"is_disabled":false,"rental_uris":{"android":"levelo://app?vid=574be080-fd9e-44f8-832a-0ad5f721cbb1","ios":"levelo://app?vid=574be080-fd9e-44f8-832a-0ad5f721cbb1"},"vehicle_type_id":"4","last_reported":1683554795,"current_range_meters":10000,"station_id":"","pricing_plan_id":"free"},{"bike_id":"cd30395c-7392-478c-9c60-0c6dc917835a","system_id":"levelo_inurba_marseille","lat":43.29221,"lon":5.36051,"is_reserved":false,"is_disabled":false,"rental_uris":{"android":"levelo://app?vid=cd30395c-7392-478c-9c60-0c6dc917835a","ios":"levelo://app?vid=cd30395c-7392-478c-9c60-0c6dc917835a"},"vehicle_type_id":"4","last_reported":1683554795,"current_range_meters":7600,"station_id":"","pricing_plan_id":"free"},{"bike_id":"04f8b19a-343d-4995-81f4-08af07410cc9","system_id":"levelo_inurba_marseille","lat":43.31334,"lon":5.39695,"is_reserved":false,"is_disabled":false,"rental_uris":{"android":"levelo://app?vid=04f8b19a-343d-4995-81f4-08af07410cc9","ios":"levelo://app?vid=04f8b19a-343d-4995-81f4-08af07410cc9"},"vehicle_type_id":"4","last_reported":1683554795,"current_range_meters":24400,"station_id":"ce4bgvp2rcd13ifvqcu0","pricing_plan_id":"free"},{"bike_id":"3c15d7e0-4201-4008-a122-3c9708da6052","system_id":"levelo_inurba_marseille","lat":43.30886,"lon":5.39651,"is_reserved":false,"is_disabled":false,"rental_uris":{"android":"levelo://app?vid=3c15d7e0-4201-4008-a122-3c9708da6052","ios":"levelo://app?vid=3c15d7e0-4201-4008-a122-3c9708da6052"},"vehicle_type_id":"4","last_reported":1683554795,"current_range_meters":2000,"station_id":"ce4bh012rcd13ifvqcv0","pricing_plan_id":"free"},{"bike_id":"b8415e8e-4ced-4bc5-a0bf-8cb086cc1631","system_id":"levelo_inurba_marseille","lat":43.289184,"lon":5.366408,"is_reserved":false,"is_disabled":false,"rental_uris":{"android":"levelo://app?vid=b8415e8e-4ced-4bc5-a0bf-8cb086cc1631","ios":"levelo://app?vid=b8415e8e-4ced-4bc5-a0bf-8cb086cc1631"},"vehicle_type_id":"4","last_reported":1683554795,"current_range_meters":2000,"station_id":"ce4bhap2rcd13ifvqek0","pricing_plan_id":"free"},{"bike_id":"eb648362-b3ce-44da-a2c8-e24c2c2c08c5","system_id":"levelo_inurba_marseille","lat":43.29005,"lon":5.35609,"is_reserved":false,"is_disabled":false,"rental_uris":{"android":"levelo://app?vid=eb648362-b3ce-44da-a2c8-e24c2c2c08c5","ios":"levelo://app?vid=eb648362-b3ce-44da-a2c8-e24c2c2c08c5"},"vehicle_type_id":"4","last_reported":1683554795,"current_range_meters":19200,"station_id":"","pricing_plan_id":"free"},{"bike_id":"58fd309f-26ab-484f-873f-415f90da4f89","system_id":"levelo_inurba_marseille","lat":43.290103,"lon":5.356114,"is_reserved":false,"is_disabled":false,"rental_uris":{"android":"levelo://app?vid=58fd309f-26ab-484f-873f-415f90da4f89","ios":"levelo://app?vid=58fd309f-26ab-484f-873f-415f90da4f89"},"vehicle_type_id":"4","last_reported":1683554795,"current_range_meters":17600,"station_id":"ce4bhb92rcd13ifvqen0","pricing_plan_id":"free"},{"bike_id":"0f12960f-858e-486d-bbbb-416cbe41c60c","system_id":"levelo_inurba_marseille","lat":43.295169,"lon":5.390426,"is_reserved":false,"is_disabled":false,"rental_uris":{"android":"levelo://app?vid=0f12960f-858e-486d-bbbb-416cbe41c60c","ios":"levelo://app?vid=0f12960f-858e-486d-bbbb-416cbe41c60c"},"vehicle_type_id":"4","last_reported":1683554795,"current_range_meters":14800,"station_id":"ce4bh3p2rcd13ifvqdp0","pricing_plan_id":"free"},{"bike_id":"d1d621a9-4211-4608-896b-166d9a0853b8","system_id":"levelo_inurba_marseille","lat":43.28856,"lon":5.358371,"is_reserved":false,"is_disabled":false,"rental_uris":{"android":"levelo://app?vid=d1d621a9-4211-4608-896b-166d9a0853b8","ios":"levelo://app?vid=d1d621a9-4211-4608-896b-166d9a0853b8"},"vehicle_type_id":"4","last_reported":1683554795,"current_range_meters":9200,"station_id":"ce4bhb12rcd13ifvqem0","pricing_plan_id":"free"},{"bike_id":"444a7329-dd1c-4381-81bf-87cda9a61de7","system_id":"levelo_inurba_marseille","lat":43.28856,"lon":5.358371,"is_reserved":false,"is_disabled":false,"rental_uris":{"android":"levelo://app?vid=444a7329-dd1c-4381-81bf-87cda9a61de7","ios":"levelo://app?vid=444a7329-dd1c-4381-81bf-87cda9a61de7"},"vehicle_type_id":"4","last_reported":1683554795,"current_range_meters":23200,"station_id":"ce4bhb12rcd13ifvqem0","pricing_plan_id":"free"},{"bike_id":"78725f08-8d42-4f1a-9002-0d0b35dc7efd","system_id":"levelo_inurba_marseille","lat":43.33744,"lon":5.37452,"is_reserved":false,"is_disabled":false,"rental_uris":{"android":"levelo://app?vid=78725f08-8d42-4f1a-9002-0d0b35dc7efd","ios":"levelo://app?vid=78725f08-8d42-4f1a-9002-0d0b35dc7efd"},"vehicle_type_id":"4","last_reported":1683554795,"current_range_meters":14800,"station_id":"","pricing_plan_id":"free"},{"bike_id":"b4d2bbff-b2dd-43d4-b642-cbde7c159902","system_id":"levelo_inurba_marseille","lat":43.3377,"lon":5.3747,"is_reserved":false,"is_disabled":false,"rental_uris":{"android":"levelo://app?vid=b4d2bbff-b2dd-43d4-b642-cbde7c159902","ios":"levelo://app?vid=b4d2bbff-b2dd-43d4-b642-cbde7c159902"},"vehicle_type_id":"4","last_reported":1683554795,"current_range_meters":27200,"station_id":"","pricing_plan_id":"free"},{"bike_id":"83fa7f32-a421-4209-b86c-ba6c4d454fc1","system_id":"levelo_inurba_marseille","lat":43.306412,"lon":5.401035,"is_reserved":false,"is_disabled":false,"rental_uris":{"android":"levelo://app?vid=83fa7f32-a421-4209-b86c-ba6c4d454fc1","ios":"levelo://app?vid=83fa7f32-a421-4209-b86c-ba6c4d454fc1"},"vehicle_type_id":"4","last_reported":1683554795,"current_range_meters":6000,"station_id":"ce4bh112rcd13ifvqda0","pricing_plan_id":"free"},{"bike_id":"7c7fe969-ca3b-4e6a-9b0a-6e22bc5df003","system_id":"levelo_inurba_marseille","lat":43.33786,"lon":5.37413,"is_reserved":false,"is_disabled":false,"rental_uris":{"android":"levelo://app?vid=7c7fe969-ca3b-4e6a-9b0a-6e22bc5df003","ios":"levelo://app?vid=7c7fe969-ca3b-4e6a-9b0a-6e22bc5df003"},"vehicle_type_id":"4","last_reported":1683554795,"current_range_meters":31600,"station_id":"ce4rr2p2rcd13i802rgg","pricing_plan_id":"free"},{"bike_id":"831d8eea-edf1-452e-a937-62bbb5654a52","system_id":"levelo_inurba_marseille","lat":43.298681,"lon":5.397225,"is_reserved":false,"is_disabled":false,"rental_uris":{"android":"levelo://app?vid=831d8eea-edf1-452e-a937-62bbb5654a52","ios":"levelo://app?vid=831d8eea-edf1-452e-a937-62bbb5654a52"},"vehicle_type_id":"4","last_reported":1683554795,"current_range_meters":11200,"station_id":"ce4bh0h2rcd13ifvqd50","pricing_plan_id":"free"},{"bike_id":"4eef1361-dc0e-4101-afc9-5d99c6d16710","system_id":"levelo_inurba_marseille","lat":43.284626,"lon":5.358941,"is_reserved":false,"is_disabled":false,"rental_uris":{"android":"levelo://app?vid=4eef1361-dc0e-4101-afc9-5d99c6d16710","ios":"levelo://app?vid=4eef1361-dc0e-4101-afc9-5d99c6d16710"},"vehicle_type_id":"4","last_reported":1683554795,"current_range_meters":18000,"station_id":"ce4bhah2rcd13ifvqei0","pricing_plan_id":"free"},{"bike_id":"6c70e94a-a57e-45e3-ace9-7c5b596e93f5","system_id":"levelo_inurba_marseille","lat":43.284614,"lon":5.358833,"is_reserved":false,"is_disabled":false,"rental_uris":{"android":"levelo://app?vid=6c70e94a-a57e-45e3-ace9-7c5b596e93f5","ios":"levelo://app?vid=6c70e94a-a57e-45e3-ace9-7c5b596e93f5"},"vehicle_type_id":"4","last_reported":1683554795,"current_range_meters":18800,"station_id":"ce4bhah2rcd13ifvqei0","pricing_plan_id":"free"},{"bike_id":"a4a6a0a2-07c5-401a-b7fb-161654f1b26f","system_id":"levelo_inurba_marseille","lat":43.286,"lon":5.3517,"is_reserved":false,"is_disabled":false,"rental_uris":{"android":"levelo://app?vid=a4a6a0a2-07c5-401a-b7fb-161654f1b26f","ios":"levelo://app?vid=a4a6a0a2-07c5-401a-b7fb-161654f1b26f"},"vehicle_type_id":"4","last_reported":1683554795,"current_range_meters":20800,"station_id":"","pricing_plan_id":"free"},{"bike_id":"19a118ef-feb5-4953-89e2-2c6d1e4e2032","system_id":"levelo_inurba_marseille","lat":43.285848,"lon":5.350787,"is_reserved":false,"is_disabled":false,"rental_uris":{"android":"levelo://app?vid=19a118ef-feb5-4953-89e2-2c6d1e4e2032","ios":"levelo://app?vid=19a118ef-feb5-4953-89e2-2c6d1e4e2032"},"vehicle_type_id":"4","last_reported":1683554795,"current_range_meters":18000,"station_id":"ce4bhch2rcd13ifvqeug","pricing_plan_id":"free"},{"bike_id":"48290ec3-9d30-4688-af49-7b1871fc23bd","system_id":"levelo_inurba_marseille","lat":43.29529,"lon":5.385581,"is_reserved":false,"is_disabled":false,"rental_uris":{"android":"levelo://app?vid=48290ec3-9d30-4688-af49-7b1871fc23bd","ios":"levelo://app?vid=48290ec3-9d30-4688-af49-7b1871fc23bd"},"vehicle_type_id":"4","last_reported":1683554795,"current_range_meters":0,"station_id":"ce4bgih2rcd13ifvqba0","pricing_plan_id":"free"},{"bike_id":"41a8d694-ba39-4e81-9129-4c5e719f0037","system_id":"levelo_inurba_marseille","lat":43.286595,"lon":5.386795,"is_reserved":false,"is_disabled":false,"rental_uris":{"android":"levelo://app?vid=41a8d694-ba39-4e81-9129-4c5e719f0037","ios":"levelo://app?vid=41a8d694-ba39-4e81-9129-4c5e719f0037"},"vehicle_type_id":"4","last_reported":1683554795,"current_range_meters":27200,"station_id":"ce4bh492rcd13ifvqdug","pricing_plan_id":"free"},{"bike_id":"7cdb1143-1df3-41fc-a179-c2f32ca67ebe","system_id":"levelo_inurba_marseille","lat":43.28513,"lon":5.35125,"is_reserved":false,"is_disabled":false,"rental_uris":{"android":"levelo://app?vid=7cdb1143-1df3-41fc-a179-c2f32ca67ebe","ios":"levelo://app?vid=7cdb1143-1df3-41fc-a179-c2f32ca67ebe"},"vehicle_type_id":"4","last_reported":1683554795,"current_range_meters":0,"station_id":"","pricing_plan_id":"free"},{"bike_id":"f4ff0315-959c-4ef0-ba74-c5016cf91ea0","system_id":"levelo_inurba_marseille","lat":43.323464,"lon":5.406297,"is_reserved":false,"is_disabled":false,"rental_uris":{"android":"levelo://app?vid=f4ff0315-959c-4ef0-ba74-c5016cf91ea0","ios":"levelo://app?vid=f4ff0315-959c-4ef0-ba74-c5016cf91ea0"},"vehicle_type_id":"4","last_reported":1683554795,"current_range_meters":26400,"station_id":"ce4bhq92rcd13ifvqhjg","pricing_plan_id":"free"},{"bike_id":"eeed33b8-4405-4fee-8d96-fecd07572891","system_id":"levelo_inurba_marseille","lat":43.323464,"lon":5.406297,"is_reserved":false,"is_disabled":false,"rental_uris":{"android":"levelo://app?vid=eeed33b8-4405-4fee-8d96-fecd07572891","ios":"levelo://app?vid=eeed33b8-4405-4fee-8d96-fecd07572891"},"vehicle_type_id":"4","last_reported":1683554795,"current_range_meters":31600,"station_id":"ce4bhq92rcd13ifvqhjg","pricing_plan_id":"free"},{"bike_id":"f0e64e2e-7b84-48d5-841a-99c6134ce8e4","system_id":"levelo_inurba_marseille","lat":43.323464,"lon":5.406297,"is_reserved":false,"is_disabled":false,"rental_uris":{"android":"levelo://app?vid=f0e64e2e-7b84-48d5-841a-99c6134ce8e4","ios":"levelo://app?vid=f0e64e2e-7b84-48d5-841a-99c6134ce8e4"},"vehicle_type_id":"4","last_reported":1683554795,"current_range_meters":31600,"station_id":"ce4bhq92rcd13ifvqhjg","pricing_plan_id":"free"},{"bike_id":"ad3cdfdb-0864-4cce-8a5d-05a05de94244","system_id":"levelo_inurba_marseille","lat":43.30098,"lon":5.40576,"is_reserved":false,"is_disabled":false,"rental_uris":{"android":"levelo://app?vid=ad3cdfdb-0864-4cce-8a5d-05a05de94244","ios":"levelo://app?vid=ad3cdfdb-0864-4cce-8a5d-05a05de94244"},"vehicle_type_id":"4","last_reported":1683554795,"current_range_meters":11200,"station_id":"","pricing_plan_id":"free"},{"bike_id":"a1ba4c36-ee76-4a1e-81bc-17ff4e744dca","system_id":"levelo_inurba_marseille","lat":43.28476,"lon":5.38415,"is_reserved":false,"is_disabled":false,"rental_uris":{"android":"levelo://app?vid=a1ba4c36-ee76-4a1e-81bc-17ff4e744dca","ios":"levelo://app?vid=a1ba4c36-ee76-4a1e-81bc-17ff4e744dca"},"vehicle_type_id":"4","last_reported":1683554795,"current_range_meters":1200,"station_id":"ce4bh512rcd13ifvqe3g","pricing_plan_id":"free"},{"bike_id":"9cdf2a4d-0d83-4877-b7ed-42980ea5500c","system_id":"levelo_inurba_marseille","lat":43.288501,"lon":5.393087,"is_reserved":false,"is_disabled":false,"rental_uris":{"android":"levelo://app?vid=9cdf2a4d-0d83-4877-b7ed-42980ea5500c","ios":"levelo://app?vid=9cdf2a4d-0d83-4877-b7ed-42980ea5500c"},"vehicle_type_id":"4","last_reported":1683554795,"current_range_meters":2400,"station_id":"ce4bh2p2rcd13ifvqdi0","pricing_plan_id":"free"},{"bike_id":"c3398ced-852e-4ef0-a53f-0692f28ea76d","system_id":"levelo_inurba_marseille","lat":43.28431,"lon":5.35003,"is_reserved":false,"is_disabled":false,"rental_uris":{"android":"levelo://app?vid=c3398ced-852e-4ef0-a53f-0692f28ea76d","ios":"levelo://app?vid=c3398ced-852e-4ef0-a53f-0692f28ea76d"},"vehicle_type_id":"4","last_reported":1683554795,"current_range_meters":29200,"station_id":"ce4bhbh2rcd13ifvqepg","pricing_plan_id":"free"},{"bike_id":"2365a176-9a48-4ed9-a529-3e2a62fc3737","system_id":"levelo_inurba_marseille","lat":43.288501,"lon":5.393087,"is_reserved":false,"is_disabled":false,"rental_uris":{"android":"levelo://app?vid=2365a176-9a48-4ed9-a529-3e2a62fc3737","ios":"levelo://app?vid=2365a176-9a48-4ed9-a529-3e2a62fc3737"},"vehicle_type_id":"4","last_reported":1683554795,"current_range_meters":10000,"station_id":"ce4bh2p2rcd13ifvqdi0","pricing_plan_id":"free"},{"bike_id":"6778731f-75cb-43a3-bffa-e5b1d48652e2","system_id":"levelo_inurba_marseille","lat":43.28425,"lon":5.34997,"is_reserved":false,"is_disabled":false,"rental_uris":{"android":"levelo://app?vid=6778731f-75cb-43a3-bffa-e5b1d48652e2","ios":"levelo://app?vid=6778731f-75cb-43a3-bffa-e5b1d48652e2"},"vehicle_type_id":"4","last_reported":1683554795,"current_range_meters":31200,"station_id":"ce4bhbh2rcd13ifvqepg","pricing_plan_id":"free"},{"bike_id":"703700e0-1890-4dc1-ac1e-1e81a439aa31","system_id":"levelo_inurba_marseille","lat":43.28426,"lon":5.34992,"is_reserved":false,"is_disabled":false,"rental_uris":{"android":"levelo://app?vid=703700e0-1890-4dc1-ac1e-1e81a439aa31","ios":"levelo://app?vid=703700e0-1890-4dc1-ac1e-1e81a439aa31"},"vehicle_type_id":"4","last_reported":1683554795,"current_range_meters":0,"station_id":"ce4bhbh2rcd13ifvqepg","pricing_plan_id":"free"},{"bike_id":"8c50d67a-090e-4da3-a177-8c66882d34c4","system_id":"levelo_inurba_marseille","lat":43.28425,"lon":5.34993,"is_reserved":false,"is_disabled":false,"rental_uris":{"android":"levelo://app?vid=8c50d67a-090e-4da3-a177-8c66882d34c4","ios":"levelo://app?vid=8c50d67a-090e-4da3-a177-8c66882d34c4"},"vehicle_type_id":"4","last_reported":1683554795,"current_range_meters":29600,"station_id":"ce4bhbh2rcd13ifvqepg","pricing_plan_id":"free"},{"bike_id":"fc15d2c3-7d02-469a-9704-226c1011f666","system_id":"levelo_inurba_marseille","lat":43.284217,"lon":5.349697,"is_reserved":false,"is_disabled":false,"rental_uris":{"android":"levelo://app?vid=fc15d2c3-7d02-469a-9704-226c1011f666","ios":"levelo://app?vid=fc15d2c3-7d02-469a-9704-226c1011f666"},"vehicle_type_id":"4","last_reported":1683554795,"current_range_meters":15600,"station_id":"ce4bhbh2rcd13ifvqepg","pricing_plan_id":"free"},{"bike_id":"8706d912-114e-48a7-9e62-ad446a898009","system_id":"levelo_inurba_marseille","lat":43.28423,"lon":5.34993,"is_reserved":false,"is_disabled":false,"rental_uris":{"android":"levelo://app?vid=8706d912-114e-48a7-9e62-ad446a898009","ios":"levelo://app?vid=8706d912-114e-48a7-9e62-ad446a898009"},"vehicle_type_id":"4","last_reported":1683554795,"current_range_meters":26400,"station_id":"ce4bhbh2rcd13ifvqepg","pricing_plan_id":"free"},{"bike_id":"5285da43-c6de-45ce-ba4d-dd01a74b4cb6","system_id":"levelo_inurba_marseille","lat":43.28425,"lon":5.34986,"is_reserved":false,"is_disabled":false,"rental_uris":{"android":"levelo://app?vid=5285da43-c6de-45ce-ba4d-dd01a74b4cb6","ios":"levelo://app?vid=5285da43-c6de-45ce-ba4d-dd01a74b4cb6"},"vehicle_type_id":"4","last_reported":1683554795,"current_range_meters":12400,"station_id":"ce4bhbh2rcd13ifvqepg","pricing_plan_id":"free"},{"bike_id":"9385093c-34fc-4d5a-b6e4-23f05c459ca9","system_id":"levelo_inurba_marseille","lat":43.28423,"lon":5.34991,"is_reserved":false,"is_disabled":false,"rental_uris":{"android":"levelo://app?vid=9385093c-34fc-4d5a-b6e4-23f05c459ca9","ios":"levelo://app?vid=9385093c-34fc-4d5a-b6e4-23f05c459ca9"},"vehicle_type_id":"4","last_reported":1683554795,"current_range_meters":19200,"station_id":"ce4bhbh2rcd13ifvqepg","pricing_plan_id":"free"},{"bike_id":"473b40c8-24db-42cd-9eaa-0b475c227c61","system_id":"levelo_inurba_marseille","lat":43.28419,"lon":5.35003,"is_reserved":false,"is_disabled":false,"rental_uris":{"android":"levelo://app?vid=473b40c8-24db-42cd-9eaa-0b475c227c61","ios":"levelo://app?vid=473b40c8-24db-42cd-9eaa-0b475c227c61"},"vehicle_type_id":"4","last_reported":1683554795,"current_range_meters":21600,"station_id":"ce4bhbh2rcd13ifvqepg","pricing_plan_id":"free"},{"bike_id":"2a511c83-0fc1-4453-93dd-9540628e33ac","system_id":"levelo_inurba_marseille","lat":43.284217,"lon":5.349697,"is_reserved":false,"is_disabled":false,"rental_uris":{"android":"levelo://app?vid=2a511c83-0fc1-4453-93dd-9540628e33ac","ios":"levelo://app?vid=2a511c83-0fc1-4453-93dd-9540628e33ac"},"vehicle_type_id":"4","last_reported":1683554795,"current_range_meters":31200,"station_id":"ce4bhbh2rcd13ifvqepg","pricing_plan_id":"free"},{"bike_id":"35ae92de-1309-4fae-8e20-912af2dcddf5","system_id":"levelo_inurba_marseille","lat":43.2842,"lon":5.34993,"is_reserved":false,"is_disabled":false,"rental_uris":{"android":"levelo://app?vid=35ae92de-1309-4fae-8e20-912af2dcddf5","ios":"levelo://app?vid=35ae92de-1309-4fae-8e20-912af2dcddf5"},"vehicle_type_id":"4","last_reported":1683554795,"current_range_meters":28800,"station_id":"ce4bhbh2rcd13ifvqepg","pricing_plan_id":"free"},{"bike_id":"0fcd05e9-f01a-4b73-9481-1c94870e837e","system_id":"levelo_inurba_marseille","lat":43.28422,"lon":5.34986,"is_reserved":false,"is_disabled":false,"rental_uris":{"android":"levelo://app?vid=0fcd05e9-f01a-4b73-9481-1c94870e837e","ios":"levelo://app?vid=0fcd05e9-f01a-4b73-9481-1c94870e837e"},"vehicle_type_id":"4","last_reported":1683554795,"current_range_meters":29200,"station_id":"ce4bhbh2rcd13ifvqepg","pricing_plan_id":"free"},{"bike_id":"0596a4ef-a8b3-4e7e-9b64-0010bcbdb405","system_id":"levelo_inurba_marseille","lat":43.28419,"lon":5.34993,"is_reserved":false,"is_disabled":false,"rental_uris":{"android":"levelo://app?vid=0596a4ef-a8b3-4e7e-9b64-0010bcbdb405","ios":"levelo://app?vid=0596a4ef-a8b3-4e7e-9b64-0010bcbdb405"},"vehicle_type_id":"4","last_reported":1683554795,"current_range_meters":5200,"station_id":"ce4bhbh2rcd13ifvqepg","pricing_plan_id":"free"},{"bike_id":"68c4ff42-2fb9-4574-8f39-3991b06235c9","system_id":"levelo_inurba_marseille","lat":43.28415,"lon":5.35005,"is_reserved":false,"is_disabled":false,"rental_uris":{"android":"levelo://app?vid=68c4ff42-2fb9-4574-8f39-3991b06235c9","ios":"levelo://app?vid=68c4ff42-2fb9-4574-8f39-3991b06235c9"},"vehicle_type_id":"4","last_reported":1683554795,"current_range_meters":21200,"station_id":"","pricing_plan_id":"free"},{"bike_id":"e191e413-38ce-4ea1-bbf8-4c2b159ace2a","system_id":"levelo_inurba_marseille","lat":43.28419,"lon":5.34986,"is_reserved":false,"is_disabled":false,"rental_uris":{"android":"levelo://app?vid=e191e413-38ce-4ea1-bbf8-4c2b159ace2a","ios":"levelo://app?vid=e191e413-38ce-4ea1-bbf8-4c2b159ace2a"},"vehicle_type_id":"4","last_reported":1683554795,"current_range_meters":13600,"station_id":"ce4bhbh2rcd13ifvqepg","pricing_plan_id":"free"},{"bike_id":"00155e3e-aff3-4652-bb42-216489405fd6","system_id":"levelo_inurba_marseille","lat":43.28418,"lon":5.34989,"is_reserved":false,"is_disabled":false,"rental_uris":{"android":"levelo://app?vid=00155e3e-aff3-4652-bb42-216489405fd6","ios":"levelo://app?vid=00155e3e-aff3-4652-bb42-216489405fd6"},"vehicle_type_id":"4","last_reported":1683554795,"current_range_meters":31200,"station_id":"ce4bhbh2rcd13ifvqepg","pricing_plan_id":"free"},{"bike_id":"2e0cae07-0e30-4e4e-92c9-73929729869c","system_id":"levelo_inurba_marseille","lat":43.28417,"lon":5.34991,"is_reserved":false,"is_disabled":false,"rental_uris":{"android":"levelo://app?vid=2e0cae07-0e30-4e4e-92c9-73929729869c","ios":"levelo://app?vid=2e0cae07-0e30-4e4e-92c9-73929729869c"},"vehicle_type_id":"4","last_reported":1683554795,"current_range_meters":24400,"station_id":"ce4bhbh2rcd13ifvqepg","pricing_plan_id":"free"},{"bike_id":"7a2d1e93-0cba-4799-89f5-c4b28fba66c6","system_id":"levelo_inurba_marseille","lat":43.28416,"lon":5.34992,"is_reserved":false,"is_disabled":false,"rental_uris":{"android":"levelo://app?vid=7a2d1e93-0cba-4799-89f5-c4b28fba66c6","ios":"levelo://app?vid=7a2d1e93-0cba-4799-89f5-c4b28fba66c6"},"vehicle_type_id":"4","last_reported":1683554795,"current_range_meters":23200,"station_id":"ce4bhbh2rcd13ifvqepg","pricing_plan_id":"free"},{"bike_id":"b72bf647-b2d5-4711-ae08-87b759846106","system_id":"levelo_inurba_marseille","lat":43.28415,"lon":5.34993,"is_reserved":false,"is_disabled":false,"rental_uris":{"android":"levelo://app?vid=b72bf647-b2d5-4711-ae08-87b759846106","ios":"levelo://app?vid=b72bf647-b2d5-4711-ae08-87b759846106"},"vehicle_type_id":"4","last_reported":1683554795,"current_range_meters":31600,"station_id":"ce4bhbh2rcd13ifvqepg","pricing_plan_id":"free"},{"bike_id":"653a4382-265a-4c65-aa99-fbf08f56a5a2","system_id":"levelo_inurba_marseille","lat":43.28414,"lon":5.34995,"is_reserved":false,"is_disabled":false,"rental_uris":{"android":"levelo://app?vid=653a4382-265a-4c65-aa99-fbf08f56a5a2","ios":"levelo://app?vid=653a4382-265a-4c65-aa99-fbf08f56a5a2"},"vehicle_type_id":"4","last_reported":1683554795,"current_range_meters":31200,"station_id":"ce4bhbh2rcd13ifvqepg","pricing_plan_id":"free"},{"bike_id":"9484af35-8e98-4dc1-bbf9-4955decdf8d2","system_id":"levelo_inurba_marseille","lat":43.2842,"lon":5.34976,"is_reserved":false,"is_disabled":false,"rental_uris":{"android":"levelo://app?vid=9484af35-8e98-4dc1-bbf9-4955decdf8d2","ios":"levelo://app?vid=9484af35-8e98-4dc1-bbf9-4955decdf8d2"},"vehicle_type_id":"4","last_reported":1683554795,"current_range_meters":14000,"station_id":"ce4bhbh2rcd13ifvqepg","pricing_plan_id":"free"},{"bike_id":"3097e127-d6e8-4cfe-b523-ba780550b753","system_id":"levelo_inurba_marseille","lat":43.28413,"lon":5.34997,"is_reserved":false,"is_disabled":false,"rental_uris":{"android":"levelo://app?vid=3097e127-d6e8-4cfe-b523-ba780550b753","ios":"levelo://app?vid=3097e127-d6e8-4cfe-b523-ba780550b753"},"vehicle_type_id":"4","last_reported":1683554795,"current_range_meters":27200,"station_id":"ce4bhbh2rcd13ifvqepg","pricing_plan_id":"free"},{"bike_id":"75d89b27-5584-4d4f-bcfc-dcce10444d1d","system_id":"levelo_inurba_marseille","lat":43.284217,"lon":5.349697,"is_reserved":false,"is_disabled":false,"rental_uris":{"android":"levelo://app?vid=75d89b27-5584-4d4f-bcfc-dcce10444d1d","ios":"levelo://app?vid=75d89b27-5584-4d4f-bcfc-dcce10444d1d"},"vehicle_type_id":"4","last_reported":1683554795,"current_range_meters":5200,"station_id":"ce4bhbh2rcd13ifvqepg","pricing_plan_id":"free"},{"bike_id":"9f706d78-fb26-4ddd-a441-45c0ccbdc95b","system_id":"levelo_inurba_marseille","lat":43.284217,"lon":5.349697,"is_reserved":false,"is_disabled":false,"rental_uris":{"android":"levelo://app?vid=9f706d78-fb26-4ddd-a441-45c0ccbdc95b","ios":"levelo://app?vid=9f706d78-fb26-4ddd-a441-45c0ccbdc95b"},"vehicle_type_id":"4","last_reported":1683554795,"current_range_meters":19200,"station_id":"ce4bhbh2rcd13ifvqepg","pricing_plan_id":"free"},{"bike_id":"6e460171-7ba9-4e35-810d-2b4a31d7827f","system_id":"levelo_inurba_marseille","lat":43.28414,"lon":5.34986,"is_reserved":false,"is_disabled":false,"rental_uris":{"android":"levelo://app?vid=6e460171-7ba9-4e35-810d-2b4a31d7827f","ios":"levelo://app?vid=6e460171-7ba9-4e35-810d-2b4a31d7827f"},"vehicle_type_id":"4","last_reported":1683554795,"current_range_meters":26000,"station_id":"ce4bhbh2rcd13ifvqepg","pricing_plan_id":"free"},{"bike_id":"1cdaf3c3-98d9-4899-aa62-51ee543ad070","system_id":"levelo_inurba_marseille","lat":43.284217,"lon":5.349697,"is_reserved":false,"is_disabled":false,"rental_uris":{"android":"levelo://app?vid=1cdaf3c3-98d9-4899-aa62-51ee543ad070","ios":"levelo://app?vid=1cdaf3c3-98d9-4899-aa62-51ee543ad070"},"vehicle_type_id":"4","last_reported":1683554795,"current_range_meters":19600,"station_id":"ce4bhbh2rcd13ifvqepg","pricing_plan_id":"free"},{"bike_id":"955fb7d3-677d-424f-8361-d7b7ba0f61bc","system_id":"levelo_inurba_marseille","lat":43.2841,"lon":5.34994,"is_reserved":false,"is_disabled":false,"rental_uris":{"android":"levelo://app?vid=955fb7d3-677d-424f-8361-d7b7ba0f61bc","ios":"levelo://app?vid=955fb7d3-677d-424f-8361-d7b7ba0f61bc"},"vehicle_type_id":"4","last_reported":1683554795,"current_range_meters":30000,"station_id":"ce4bhbh2rcd13ifvqepg","pricing_plan_id":"free"},{"bike_id":"c5bc730c-0a5c-4008-8b1a-2cda37abb98c","system_id":"levelo_inurba_marseille","lat":43.284169,"lon":5.349709,"is_reserved":false,"is_disabled":false,"rental_uris":{"android":"levelo://app?vid=c5bc730c-0a5c-4008-8b1a-2cda37abb98c","ios":"levelo://app?vid=c5bc730c-0a5c-4008-8b1a-2cda37abb98c"},"vehicle_type_id":"4","last_reported":1683554795,"current_range_meters":26800,"station_id":"ce4bhbh2rcd13ifvqepg","pricing_plan_id":"free"},{"bike_id":"d8659fbd-42f2-4cfa-ac0b-1279388d472c","system_id":"levelo_inurba_marseille","lat":43.284137,"lon":5.349778,"is_reserved":false,"is_disabled":false,"rental_uris":{"android":"levelo://app?vid=d8659fbd-42f2-4cfa-ac0b-1279388d472c","ios":"levelo://app?vid=d8659fbd-42f2-4cfa-ac0b-1279388d472c"},"vehicle_type_id":"4","last_reported":1683554795,"current_range_meters":24000,"station_id":"ce4bhbh2rcd13ifvqepg","pricing_plan_id":"free"},{"bike_id":"6a402169-9112-4ad2-bcef-a64dc6928d0c","system_id":"levelo_inurba_marseille","lat":43.28413,"lon":5.34976,"is_reserved":false,"is_disabled":false,"rental_uris":{"android":"levelo://app?vid=6a402169-9112-4ad2-bcef-a64dc6928d0c","ios":"levelo://app?vid=6a402169-9112-4ad2-bcef-a64dc6928d0c"},"vehicle_type_id":"4","last_reported":1683554795,"current_range_meters":21600,"station_id":"ce4bhbh2rcd13ifvqepg","pricing_plan_id":"free"},{"bike_id":"de043c26-5066-4499-8c22-ffe69220aa14","system_id":"levelo_inurba_marseille","lat":43.28413,"lon":5.34976,"is_reserved":false,"is_disabled":false,"rental_uris":{"android":"levelo://app?vid=de043c26-5066-4499-8c22-ffe69220aa14","ios":"levelo://app?vid=de043c26-5066-4499-8c22-ffe69220aa14"},"vehicle_type_id":"4","last_reported":1683554795,"current_range_meters":0,"station_id":"ce4bhbh2rcd13ifvqepg","pricing_plan_id":"free"},{"bike_id":"d23ba795-b4e6-4138-8475-ea477b43f324","system_id":"levelo_inurba_marseille","lat":43.284217,"lon":5.349697,"is_reserved":false,"is_disabled":false,"rental_uris":{"android":"levelo://app?vid=d23ba795-b4e6-4138-8475-ea477b43f324","ios":"levelo://app?vid=d23ba795-b4e6-4138-8475-ea477b43f324"},"vehicle_type_id":"4","last_reported":1683554795,"current_range_meters":20800,"station_id":"ce4bhbh2rcd13ifvqepg","pricing_plan_id":"free"},{"bike_id":"4f9bac14-3495-4349-a16c-4514ef8f1202","system_id":"levelo_inurba_marseille","lat":43.284078,"lon":5.34978,"is_reserved":false,"is_disabled":false,"rental_uris":{"android":"levelo://app?vid=4f9bac14-3495-4349-a16c-4514ef8f1202","ios":"levelo://app?vid=4f9bac14-3495-4349-a16c-4514ef8f1202"},"vehicle_type_id":"4","last_reported":1683554795,"current_range_meters":17200,"station_id":"ce4bhbh2rcd13ifvqepg","pricing_plan_id":"free"},{"bike_id":"b91012d7-c56c-48a0-a6c4-d62a0c546830","system_id":"levelo_inurba_marseille","lat":43.284217,"lon":5.349697,"is_reserved":false,"is_disabled":false,"rental_uris":{"android":"levelo://app?vid=b91012d7-c56c-48a0-a6c4-d62a0c546830","ios":"levelo://app?vid=b91012d7-c56c-48a0-a6c4-d62a0c546830"},"vehicle_type_id":"4","last_reported":1683554795,"current_range_meters":31200,"station_id":"ce4bhbh2rcd13ifvqepg","pricing_plan_id":"free"},{"bike_id":"7ed83cea-587c-41c4-b65b-bace62121ef3","system_id":"levelo_inurba_marseille","lat":43.284061,"lon":5.349826,"is_reserved":false,"is_disabled":false,"rental_uris":{"android":"levelo://app?vid=7ed83cea-587c-41c4-b65b-bace62121ef3","ios":"levelo://app?vid=7ed83cea-587c-41c4-b65b-bace62121ef3"},"vehicle_type_id":"4","last_reported":1683554795,"current_range_meters":16800,"station_id":"ce4bhbh2rcd13ifvqepg","pricing_plan_id":"free"},{"bike_id":"aaa538ff-e314-4b5f-81fb-34d132333bf6","system_id":"levelo_inurba_marseille","lat":43.284077,"lon":5.34976,"is_reserved":false,"is_disabled":false,"rental_uris":{"android":"levelo://app?vid=aaa538ff-e314-4b5f-81fb-34d132333bf6","ios":"levelo://app?vid=aaa538ff-e314-4b5f-81fb-34d132333bf6"},"vehicle_type_id":"4","last_reported":1683554795,"current_range_meters":0,"station_id":"","pricing_plan_id":"free"},{"bike_id":"c4239ee2-4f45-4132-b465-4586df667529","system_id":"levelo_inurba_marseille","lat":43.284008,"lon":5.349906,"is_reserved":false,"is_disabled":false,"rental_uris":{"android":"levelo://app?vid=c4239ee2-4f45-4132-b465-4586df667529","ios":"levelo://app?vid=c4239ee2-4f45-4132-b465-4586df667529"},"vehicle_type_id":"4","last_reported":1683554795,"current_range_meters":30000,"station_id":"","pricing_plan_id":"free"},{"bike_id":"30cfbec4-bc47-47bf-91e4-b660b289a398","system_id":"levelo_inurba_marseille","lat":43.28039,"lon":5.369297,"is_reserved":false,"is_disabled":false,"rental_uris":{"android":"levelo://app?vid=30cfbec4-bc47-47bf-91e4-b660b289a398","ios":"levelo://app?vid=30cfbec4-bc47-47bf-91e4-b660b289a398"},"vehicle_type_id":"4","last_reported":1683554795,"current_range_meters":19200,"station_id":"ce4bha12rcd13ifvqef0","pricing_plan_id":"free"},{"bike_id":"0ba81db7-b26f-4919-b4f7-3cd067ba9bc0","system_id":"levelo_inurba_marseille","lat":43.282744,"lon":5.350533,"is_reserved":false,"is_disabled":false,"rental_uris":{"android":"levelo://app?vid=0ba81db7-b26f-4919-b4f7-3cd067ba9bc0","ios":"levelo://app?vid=0ba81db7-b26f-4919-b4f7-3cd067ba9bc0"},"vehicle_type_id":"4","last_reported":1683554795,"current_range_meters":31200,"station_id":"ce4bhbp2rcd13ifvqerg","pricing_plan_id":"free"},{"bike_id":"4ac14ff6-d9a2-47ab-8b00-fca20447d35c","system_id":"levelo_inurba_marseille","lat":43.282744,"lon":5.350533,"is_reserved":false,"is_disabled":false,"rental_uris":{"android":"levelo://app?vid=4ac14ff6-d9a2-47ab-8b00-fca20447d35c","ios":"levelo://app?vid=4ac14ff6-d9a2-47ab-8b00-fca20447d35c"},"vehicle_type_id":"4","last_reported":1683554795,"current_range_meters":18800,"station_id":"ce4bhbp2rcd13ifvqerg","pricing_plan_id":"free"},{"bike_id":"0b18a94b-8838-466b-87ca-eaa536f1bed3","system_id":"levelo_inurba_marseille","lat":43.282744,"lon":5.350533,"is_reserved":false,"is_disabled":false,"rental_uris":{"android":"levelo://app?vid=0b18a94b-8838-466b-87ca-eaa536f1bed3","ios":"levelo://app?vid=0b18a94b-8838-466b-87ca-eaa536f1bed3"},"vehicle_type_id":"4","last_reported":1683554795,"current_range_meters":31200,"station_id":"ce4bhbp2rcd13ifvqerg","pricing_plan_id":"free"},{"bike_id":"e949b8c0-07ee-40b3-8bbe-64292b6d2149","system_id":"levelo_inurba_marseille","lat":43.282744,"lon":5.350533,"is_reserved":false,"is_disabled":false,"rental_uris":{"android":"levelo://app?vid=e949b8c0-07ee-40b3-8bbe-64292b6d2149","ios":"levelo://app?vid=e949b8c0-07ee-40b3-8bbe-64292b6d2149"},"vehicle_type_id":"4","last_reported":1683554795,"current_range_meters":20400,"station_id":"ce4bhbp2rcd13ifvqerg","pricing_plan_id":"free"},{"bike_id":"76242f32-c407-44d4-84d7-fa1d50b0f9dc","system_id":"levelo_inurba_marseille","lat":43.32444,"lon":5.40831,"is_reserved":false,"is_disabled":false,"rental_uris":{"android":"levelo://app?vid=76242f32-c407-44d4-84d7-fa1d50b0f9dc","ios":"levelo://app?vid=76242f32-c407-44d4-84d7-fa1d50b0f9dc"},"vehicle_type_id":"4","last_reported":1683554795,"current_range_meters":0,"station_id":"","pricing_plan_id":"free"},{"bike_id":"0b445dbf-47e2-4584-9530-8607ce7d2828","system_id":"levelo_inurba_marseille","lat":43.282744,"lon":5.350533,"is_reserved":false,"is_disabled":false,"rental_uris":{"android":"levelo://app?vid=0b445dbf-47e2-4584-9530-8607ce7d2828","ios":"levelo://app?vid=0b445dbf-47e2-4584-9530-8607ce7d2828"},"vehicle_type_id":"4","last_reported":1683554795,"current_range_meters":19200,"station_id":"ce4bhbp2rcd13ifvqerg","pricing_plan_id":"free"},{"bike_id":"6d47779f-8aa3-4812-bd7c-17227f605c6a","system_id":"levelo_inurba_marseille","lat":43.282744,"lon":5.350533,"is_reserved":false,"is_disabled":false,"rental_uris":{"android":"levelo://app?vid=6d47779f-8aa3-4812-bd7c-17227f605c6a","ios":"levelo://app?vid=6d47779f-8aa3-4812-bd7c-17227f605c6a"},"vehicle_type_id":"4","last_reported":1683554795,"current_range_meters":31200,"station_id":"ce4bhbp2rcd13ifvqerg","pricing_plan_id":"free"},{"bike_id":"f4993f49-7624-4b70-8ba2-5cb550bdda83","system_id":"levelo_inurba_marseille","lat":43.282704,"lon":5.350558,"is_reserved":false,"is_disabled":false,"rental_uris":{"android":"levelo://app?vid=f4993f49-7624-4b70-8ba2-5cb550bdda83","ios":"levelo://app?vid=f4993f49-7624-4b70-8ba2-5cb550bdda83"},"vehicle_type_id":"4","last_reported":1683554795,"current_range_meters":18400,"station_id":"ce4bhbp2rcd13ifvqerg","pricing_plan_id":"free"},{"bike_id":"59a7a792-e723-430b-b0ed-a8e5768a8401","system_id":"levelo_inurba_marseille","lat":43.282744,"lon":5.350533,"is_reserved":false,"is_disabled":false,"rental_uris":{"android":"levelo://app?vid=59a7a792-e723-430b-b0ed-a8e5768a8401","ios":"levelo://app?vid=59a7a792-e723-430b-b0ed-a8e5768a8401"},"vehicle_type_id":"4","last_reported":1683554795,"current_range_meters":31200,"station_id":"ce4bhbp2rcd13ifvqerg","pricing_plan_id":"free"},{"bike_id":"8f570d76-84f8-4338-a85c-c2ba86499149","system_id":"levelo_inurba_marseille","lat":43.282702,"lon":5.350557,"is_reserved":false,"is_disabled":false,"rental_uris":{"android":"levelo://app?vid=8f570d76-84f8-4338-a85c-c2ba86499149","ios":"levelo://app?vid=8f570d76-84f8-4338-a85c-c2ba86499149"},"vehicle_type_id":"4","last_reported":1683554795,"current_range_meters":14400,"station_id":"ce4bhbp2rcd13ifvqerg","pricing_plan_id":"free"},{"bike_id":"00140802-6473-4316-8f82-3d43c3e89f95","system_id":"levelo_inurba_marseille","lat":43.282744,"lon":5.350533,"is_reserved":false,"is_disabled":false,"rental_uris":{"android":"levelo://app?vid=00140802-6473-4316-8f82-3d43c3e89f95","ios":"levelo://app?vid=00140802-6473-4316-8f82-3d43c3e89f95"},"vehicle_type_id":"4","last_reported":1683554795,"current_range_meters":31200,"station_id":"ce4bhbp2rcd13ifvqerg","pricing_plan_id":"free"},{"bike_id":"833f1918-ae79-452c-aaef-ec22e9d198dd","system_id":"levelo_inurba_marseille","lat":43.282744,"lon":5.350533,"is_reserved":false,"is_disabled":false,"rental_uris":{"android":"levelo://app?vid=833f1918-ae79-452c-aaef-ec22e9d198dd","ios":"levelo://app?vid=833f1918-ae79-452c-aaef-ec22e9d198dd"},"vehicle_type_id":"4","last_reported":1683554795,"current_range_meters":0,"station_id":"ce4bhbp2rcd13ifvqerg","pricing_plan_id":"free"},{"bike_id":"2060cfe0-e61b-4bcf-9b7f-6320f48ac01a","system_id":"levelo_inurba_marseille","lat":43.282671,"lon":5.350642,"is_reserved":false,"is_disabled":false,"rental_uris":{"android":"levelo://app?vid=2060cfe0-e61b-4bcf-9b7f-6320f48ac01a","ios":"levelo://app?vid=2060cfe0-e61b-4bcf-9b7f-6320f48ac01a"},"vehicle_type_id":"4","last_reported":1683554795,"current_range_meters":25200,"station_id":"ce4bhbp2rcd13ifvqerg","pricing_plan_id":"free"},{"bike_id":"bb21b04e-27e9-4a2e-a040-651e777c2a0a","system_id":"levelo_inurba_marseille","lat":43.282688,"lon":5.350583,"is_reserved":false,"is_disabled":false,"rental_uris":{"android":"levelo://app?vid=bb21b04e-27e9-4a2e-a040-651e777c2a0a","ios":"levelo://app?vid=bb21b04e-27e9-4a2e-a040-651e777c2a0a"},"vehicle_type_id":"4","last_reported":1683554795,"current_range_meters":23200,"station_id":"ce4bhbp2rcd13ifvqerg","pricing_plan_id":"free"},{"bike_id":"445c3466-77da-4c65-8c8f-6bfb1c0dc08b","system_id":"levelo_inurba_marseille","lat":43.282744,"lon":5.350533,"is_reserved":false,"is_disabled":false,"rental_uris":{"android":"levelo://app?vid=445c3466-77da-4c65-8c8f-6bfb1c0dc08b","ios":"levelo://app?vid=445c3466-77da-4c65-8c8f-6bfb1c0dc08b"},"vehicle_type_id":"4","last_reported":1683554795,"current_range_meters":18000,"station_id":"ce4bhbp2rcd13ifvqerg","pricing_plan_id":"free"},{"bike_id":"69798ae7-8371-45e7-b99d-18888a06f08f","system_id":"levelo_inurba_marseille","lat":43.282744,"lon":5.350533,"is_reserved":false,"is_disabled":false,"rental_uris":{"android":"levelo://app?vid=69798ae7-8371-45e7-b99d-18888a06f08f","ios":"levelo://app?vid=69798ae7-8371-45e7-b99d-18888a06f08f"},"vehicle_type_id":"4","last_reported":1683554795,"current_range_meters":12400,"station_id":"ce4bhbp2rcd13ifvqerg","pricing_plan_id":"free"},{"bike_id":"b12e2e33-d168-4ede-9d98-12950a037bb9","system_id":"levelo_inurba_marseille","lat":43.282744,"lon":5.350533,"is_reserved":false,"is_disabled":false,"rental_uris":{"android":"levelo://app?vid=b12e2e33-d168-4ede-9d98-12950a037bb9","ios":"levelo://app?vid=b12e2e33-d168-4ede-9d98-12950a037bb9"},"vehicle_type_id":"4","last_reported":1683554795,"current_range_meters":12800,"station_id":"ce4bhbp2rcd13ifvqerg","pricing_plan_id":"free"},{"bike_id":"afde229d-94a3-4d00-a706-0ec4c646bb83","system_id":"levelo_inurba_marseille","lat":43.282663,"lon":5.350638,"is_reserved":false,"is_disabled":false,"rental_uris":{"android":"levelo://app?vid=afde229d-94a3-4d00-a706-0ec4c646bb83","ios":"levelo://app?vid=afde229d-94a3-4d00-a706-0ec4c646bb83"},"vehicle_type_id":"4","last_reported":1683554795,"current_range_meters":17200,"station_id":"ce4bhbp2rcd13ifvqerg","pricing_plan_id":"free"},{"bike_id":"abddaf05-4f79-4adf-8d94-f375c12d9222","system_id":"levelo_inurba_marseille","lat":43.282744,"lon":5.350533,"is_reserved":false,"is_disabled":false,"rental_uris":{"android":"levelo://app?vid=abddaf05-4f79-4adf-8d94-f375c12d9222","ios":"levelo://app?vid=abddaf05-4f79-4adf-8d94-f375c12d9222"},"vehicle_type_id":"4","last_reported":1683554795,"current_range_meters":25600,"station_id":"ce4bhbp2rcd13ifvqerg","pricing_plan_id":"free"},{"bike_id":"8a6dc406-0c8c-4313-b738-62ace5475ac2","system_id":"levelo_inurba_marseille","lat":43.282653,"lon":5.350632,"is_reserved":false,"is_disabled":false,"rental_uris":{"android":"levelo://app?vid=8a6dc406-0c8c-4313-b738-62ace5475ac2","ios":"levelo://app?vid=8a6dc406-0c8c-4313-b738-62ace5475ac2"},"vehicle_type_id":"4","last_reported":1683554795,"current_range_meters":12400,"station_id":"ce4bhbp2rcd13ifvqerg","pricing_plan_id":"free"},{"bike_id":"241e92ac-da33-4766-b159-de517bc11855","system_id":"levelo_inurba_marseille","lat":43.282744,"lon":5.350533,"is_reserved":false,"is_disabled":false,"rental_uris":{"android":"levelo://app?vid=241e92ac-da33-4766-b159-de517bc11855","ios":"levelo://app?vid=241e92ac-da33-4766-b159-de517bc11855"},"vehicle_type_id":"4","last_reported":1683554795,"current_range_meters":31200,"station_id":"ce4bhbp2rcd13ifvqerg","pricing_plan_id":"free"},{"bike_id":"c3038cc6-532c-4a24-a08e-9b5f864aa49e","system_id":"levelo_inurba_marseille","lat":43.282653,"lon":5.350612,"is_reserved":false,"is_disabled":false,"rental_uris":{"android":"levelo://app?vid=c3038cc6-532c-4a24-a08e-9b5f864aa49e","ios":"levelo://app?vid=c3038cc6-532c-4a24-a08e-9b5f864aa49e"},"vehicle_type_id":"4","last_reported":1683554795,"current_range_meters":15600,"station_id":"ce4bhbp2rcd13ifvqerg","pricing_plan_id":"free"},{"bike_id":"dbd71d04-e371-40ce-9141-6f32dea3b088","system_id":"levelo_inurba_marseille","lat":43.282651,"lon":5.35061,"is_reserved":false,"is_disabled":false,"rental_uris":{"android":"levelo://app?vid=dbd71d04-e371-40ce-9141-6f32dea3b088","ios":"levelo://app?vid=dbd71d04-e371-40ce-9141-6f32dea3b088"},"vehicle_type_id":"4","last_reported":1683554795,"current_range_meters":31200,"station_id":"ce4bhbp2rcd13ifvqerg","pricing_plan_id":"free"},{"bike_id":"65925f9b-ef3a-4b5c-adf2-627a213cd002","system_id":"levelo_inurba_marseille","lat":43.28265,"lon":5.350609,"is_reserved":false,"is_disabled":false,"rental_uris":{"android":"levelo://app?vid=65925f9b-ef3a-4b5c-adf2-627a213cd002","ios":"levelo://app?vid=65925f9b-ef3a-4b5c-adf2-627a213cd002"},"vehicle_type_id":"4","last_reported":1683554795,"current_range_meters":31200,"station_id":"ce4bhbp2rcd13ifvqerg","pricing_plan_id":"free"},{"bike_id":"623ca7bf-8b02-43df-8455-60436dac4889","system_id":"levelo_inurba_marseille","lat":43.282649,"lon":5.350609,"is_reserved":false,"is_disabled":false,"rental_uris":{"android":"levelo://app?vid=623ca7bf-8b02-43df-8455-60436dac4889","ios":"levelo://app?vid=623ca7bf-8b02-43df-8455-60436dac4889"},"vehicle_type_id":"4","last_reported":1683554795,"current_range_meters":2000,"station_id":"","pricing_plan_id":"free"},{"bike_id":"0f8bd757-28da-494f-958b-2f075a5bc9b5","system_id":"levelo_inurba_marseille","lat":43.282651,"lon":5.350604,"is_reserved":false,"is_disabled":false,"rental_uris":{"android":"levelo://app?vid=0f8bd757-28da-494f-958b-2f075a5bc9b5","ios":"levelo://app?vid=0f8bd757-28da-494f-958b-2f075a5bc9b5"},"vehicle_type_id":"4","last_reported":1683554795,"current_range_meters":24000,"station_id":"ce4bhbp2rcd13ifvqerg","pricing_plan_id":"free"},{"bike_id":"834e0b10-7178-471f-93b2-60219e9c87e8","system_id":"levelo_inurba_marseille","lat":43.282649,"lon":5.350609,"is_reserved":false,"is_disabled":false,"rental_uris":{"android":"levelo://app?vid=834e0b10-7178-471f-93b2-60219e9c87e8","ios":"levelo://app?vid=834e0b10-7178-471f-93b2-60219e9c87e8"},"vehicle_type_id":"4","last_reported":1683554795,"current_range_meters":31200,"station_id":"ce4bhbp2rcd13ifvqerg","pricing_plan_id":"free"},{"bike_id":"0010e7fb-d7d1-48fc-b999-6263620ec172","system_id":"levelo_inurba_marseille","lat":43.282744,"lon":5.350533,"is_reserved":false,"is_disabled":false,"rental_uris":{"android":"levelo://app?vid=0010e7fb-d7d1-48fc-b999-6263620ec172","ios":"levelo://app?vid=0010e7fb-d7d1-48fc-b999-6263620ec172"},"vehicle_type_id":"4","last_reported":1683554795,"current_range_meters":31200,"station_id":"ce4bhbp2rcd13ifvqerg","pricing_plan_id":"free"},{"bike_id":"1291d072-bbf8-4e5b-9e5b-0056917f71c6","system_id":"levelo_inurba_marseille","lat":43.282744,"lon":5.350533,"is_reserved":false,"is_disabled":false,"rental_uris":{"android":"levelo://app?vid=1291d072-bbf8-4e5b-9e5b-0056917f71c6","ios":"levelo://app?vid=1291d072-bbf8-4e5b-9e5b-0056917f71c6"},"vehicle_type_id":"4","last_reported":1683554795,"current_range_meters":13600,"station_id":"ce4bhbp2rcd13ifvqerg","pricing_plan_id":"free"},{"bike_id":"4edd8863-c144-4685-9bb2-a45f03c268b9","system_id":"levelo_inurba_marseille","lat":43.28039,"lon":5.369297,"is_reserved":false,"is_disabled":false,"rental_uris":{"android":"levelo://app?vid=4edd8863-c144-4685-9bb2-a45f03c268b9","ios":"levelo://app?vid=4edd8863-c144-4685-9bb2-a45f03c268b9"},"vehicle_type_id":"4","last_reported":1683554795,"current_range_meters":29600,"station_id":"ce4bha12rcd13ifvqef0","pricing_plan_id":"free"},{"bike_id":"7e818ace-4328-4aa6-93ed-e3953571babf","system_id":"levelo_inurba_marseille","lat":43.29039,"lon":5.39958,"is_reserved":false,"is_disabled":false,"rental_uris":{"android":"levelo://app?vid=7e818ace-4328-4aa6-93ed-e3953571babf","ios":"levelo://app?vid=7e818ace-4328-4aa6-93ed-e3953571babf"},"vehicle_type_id":"4","last_reported":1683554795,"current_range_meters":22400,"station_id":"","pricing_plan_id":"free"},{"bike_id":"9ff589c5-d980-466e-ba75-4a3affe82ba1","system_id":"levelo_inurba_marseille","lat":43.281044,"lon":5.378308,"is_reserved":false,"is_disabled":false,"rental_uris":{"android":"levelo://app?vid=9ff589c5-d980-466e-ba75-4a3affe82ba1","ios":"levelo://app?vid=9ff589c5-d980-466e-ba75-4a3affe82ba1"},"vehicle_type_id":"4","last_reported":1683554795,"current_range_meters":800,"station_id":"ce4bha12rcd13ifvqee0","pricing_plan_id":"free"},{"bike_id":"de7ea1e6-fa43-469e-b37b-7f7dd52fa4a5","system_id":"levelo_inurba_marseille","lat":43.32609,"lon":5.41049,"is_reserved":false,"is_disabled":false,"rental_uris":{"android":"levelo://app?vid=de7ea1e6-fa43-469e-b37b-7f7dd52fa4a5","ios":"levelo://app?vid=de7ea1e6-fa43-469e-b37b-7f7dd52fa4a5"},"vehicle_type_id":"4","last_reported":1683554795,"current_range_meters":2000,"station_id":"ce4bhpp2rcd13ifvqhgg","pricing_plan_id":"free"},{"bike_id":"5085f70d-af80-435c-aaff-3d14cb76bf44","system_id":"levelo_inurba_marseille","lat":43.320045,"lon":5.415048,"is_reserved":false,"is_disabled":false,"rental_uris":{"android":"levelo://app?vid=5085f70d-af80-435c-aaff-3d14cb76bf44","ios":"levelo://app?vid=5085f70d-af80-435c-aaff-3d14cb76bf44"},"vehicle_type_id":"4","last_reported":1683554795,"current_range_meters":22800,"station_id":"ce4bhq92rcd13ifvqhkg","pricing_plan_id":"free"},{"bike_id":"70fac6a4-4d8a-4c72-b06e-3cb333acb210","system_id":"levelo_inurba_marseille","lat":43.320045,"lon":5.415048,"is_reserved":false,"is_disabled":false,"rental_uris":{"android":"levelo://app?vid=70fac6a4-4d8a-4c72-b06e-3cb333acb210","ios":"levelo://app?vid=70fac6a4-4d8a-4c72-b06e-3cb333acb210"},"vehicle_type_id":"4","last_reported":1683554795,"current_range_meters":15600,"station_id":"ce4bhq92rcd13ifvqhkg","pricing_plan_id":"free"},{"bike_id":"3b7c729a-8e87-454e-bd3c-e6c5d2e1ace1","system_id":"levelo_inurba_marseille","lat":43.320045,"lon":5.415048,"is_reserved":false,"is_disabled":false,"rental_uris":{"android":"levelo://app?vid=3b7c729a-8e87-454e-bd3c-e6c5d2e1ace1","ios":"levelo://app?vid=3b7c729a-8e87-454e-bd3c-e6c5d2e1ace1"},"vehicle_type_id":"4","last_reported":1683554795,"current_range_meters":7200,"station_id":"ce4bhq92rcd13ifvqhkg","pricing_plan_id":"free"},{"bike_id":"d43101b5-746e-41b0-a429-3467052e0791","system_id":"levelo_inurba_marseille","lat":43.320045,"lon":5.415048,"is_reserved":false,"is_disabled":false,"rental_uris":{"android":"levelo://app?vid=d43101b5-746e-41b0-a429-3467052e0791","ios":"levelo://app?vid=d43101b5-746e-41b0-a429-3467052e0791"},"vehicle_type_id":"4","last_reported":1683554795,"current_range_meters":12000,"station_id":"ce4bhq92rcd13ifvqhkg","pricing_plan_id":"free"},{"bike_id":"61de6e0d-fb85-4a11-be1e-d6b66c70e872","system_id":"levelo_inurba_marseille","lat":43.299577,"lon":5.413277,"is_reserved":false,"is_disabled":false,"rental_uris":{"android":"levelo://app?vid=61de6e0d-fb85-4a11-be1e-d6b66c70e872","ios":"levelo://app?vid=61de6e0d-fb85-4a11-be1e-d6b66c70e872"},"vehicle_type_id":"4","last_reported":1683554795,"current_range_meters":31600,"station_id":"ce4bhp12rcd13ifvqh9g","pricing_plan_id":"free"},{"bike_id":"17b255af-3133-41cc-9b13-3bf3797c30d0","system_id":"levelo_inurba_marseille","lat":43.320045,"lon":5.415048,"is_reserved":false,"is_disabled":false,"rental_uris":{"android":"levelo://app?vid=17b255af-3133-41cc-9b13-3bf3797c30d0","ios":"levelo://app?vid=17b255af-3133-41cc-9b13-3bf3797c30d0"},"vehicle_type_id":"4","last_reported":1683554795,"current_range_meters":1600,"station_id":"ce4bhq92rcd13ifvqhkg","pricing_plan_id":"free"},{"bike_id":"17a69c30-0378-4a37-8986-17e86608086e","system_id":"levelo_inurba_marseille","lat":43.279742,"lon":5.38744,"is_reserved":false,"is_disabled":false,"rental_uris":{"android":"levelo://app?vid=17a69c30-0378-4a37-8986-17e86608086e","ios":"levelo://app?vid=17a69c30-0378-4a37-8986-17e86608086e"},"vehicle_type_id":"4","last_reported":1683554795,"current_range_meters":12400,"station_id":"ce4bhg12rcd13ifvqf80","pricing_plan_id":"free"},{"bike_id":"2f7e5d7c-56b8-4085-9693-fae39fa688b3","system_id":"levelo_inurba_marseille","lat":43.32547,"lon":5.41433,"is_reserved":false,"is_disabled":false,"rental_uris":{"android":"levelo://app?vid=2f7e5d7c-56b8-4085-9693-fae39fa688b3","ios":"levelo://app?vid=2f7e5d7c-56b8-4085-9693-fae39fa688b3"},"vehicle_type_id":"4","last_reported":1683554795,"current_range_meters":26400,"station_id":"ce4bhq12rcd13ifvqhhg","pricing_plan_id":"free"},{"bike_id":"1e12c9cc-e46f-4db5-96a1-e9619a12fafe","system_id":"levelo_inurba_marseille","lat":43.32541,"lon":5.41438,"is_reserved":false,"is_disabled":false,"rental_uris":{"android":"levelo://app?vid=1e12c9cc-e46f-4db5-96a1-e9619a12fafe","ios":"levelo://app?vid=1e12c9cc-e46f-4db5-96a1-e9619a12fafe"},"vehicle_type_id":"4","last_reported":1683554795,"current_range_meters":30800,"station_id":"ce4bhq12rcd13ifvqhhg","pricing_plan_id":"free"},{"bike_id":"1cbe7a30-8218-45d3-a325-6a9ce7afcee6","system_id":"levelo_inurba_marseille","lat":43.27618,"lon":5.361009,"is_reserved":false,"is_disabled":false,"rental_uris":{"android":"levelo://app?vid=1cbe7a30-8218-45d3-a325-6a9ce7afcee6","ios":"levelo://app?vid=1cbe7a30-8218-45d3-a325-6a9ce7afcee6"},"vehicle_type_id":"4","last_reported":1683554795,"current_range_meters":29600,"station_id":"ce4bgj92rcd13ifvqbe0","pricing_plan_id":"free"},{"bike_id":"f99d7321-e2b2-465d-91a6-4b665a3c5439","system_id":"levelo_inurba_marseille","lat":43.2762,"lon":5.36107,"is_reserved":false,"is_disabled":false,"rental_uris":{"android":"levelo://app?vid=f99d7321-e2b2-465d-91a6-4b665a3c5439","ios":"levelo://app?vid=f99d7321-e2b2-465d-91a6-4b665a3c5439"},"vehicle_type_id":"4","last_reported":1683554795,"current_range_meters":6800,"station_id":"ce4bgj92rcd13ifvqbe0","pricing_plan_id":"free"},{"bike_id":"adace850-826d-4831-8306-18384f10974f","system_id":"levelo_inurba_marseille","lat":43.2762,"lon":5.36105,"is_reserved":false,"is_disabled":false,"rental_uris":{"android":"levelo://app?vid=adace850-826d-4831-8306-18384f10974f","ios":"levelo://app?vid=adace850-826d-4831-8306-18384f10974f"},"vehicle_type_id":"4","last_reported":1683554795,"current_range_meters":17600,"station_id":"ce4bgj92rcd13ifvqbe0","pricing_plan_id":"free"},{"bike_id":"da20c52d-0f93-44e3-ba05-c76904e8247c","system_id":"levelo_inurba_marseille","lat":43.276179,"lon":5.361009,"is_reserved":false,"is_disabled":false,"rental_uris":{"android":"levelo://app?vid=da20c52d-0f93-44e3-ba05-c76904e8247c","ios":"levelo://app?vid=da20c52d-0f93-44e3-ba05-c76904e8247c"},"vehicle_type_id":"4","last_reported":1683554795,"current_range_meters":400,"station_id":"ce4bgj92rcd13ifvqbe0","pricing_plan_id":"free"},{"bike_id":"61f420b0-f1b3-468f-9dcd-bff90ce0f0e9","system_id":"levelo_inurba_marseille","lat":43.27618,"lon":5.361009,"is_reserved":false,"is_disabled":false,"rental_uris":{"android":"levelo://app?vid=61f420b0-f1b3-468f-9dcd-bff90ce0f0e9","ios":"levelo://app?vid=61f420b0-f1b3-468f-9dcd-bff90ce0f0e9"},"vehicle_type_id":"4","last_reported":1683554795,"current_range_meters":30000,"station_id":"ce4bgj92rcd13ifvqbe0","pricing_plan_id":"free"},{"bike_id":"ac19d7fd-ec2f-4f19-a106-96d79320ee4d","system_id":"levelo_inurba_marseille","lat":43.27618,"lon":5.361009,"is_reserved":false,"is_disabled":false,"rental_uris":{"android":"levelo://app?vid=ac19d7fd-ec2f-4f19-a106-96d79320ee4d","ios":"levelo://app?vid=ac19d7fd-ec2f-4f19-a106-96d79320ee4d"},"vehicle_type_id":"4","last_reported":1683554795,"current_range_meters":5600,"station_id":"ce4bgj92rcd13ifvqbe0","pricing_plan_id":"free"},{"bike_id":"1c2a22c5-6330-4a39-9235-617c098450bf","system_id":"levelo_inurba_marseille","lat":43.27618,"lon":5.361009,"is_reserved":false,"is_disabled":false,"rental_uris":{"android":"levelo://app?vid=1c2a22c5-6330-4a39-9235-617c098450bf","ios":"levelo://app?vid=1c2a22c5-6330-4a39-9235-617c098450bf"},"vehicle_type_id":"4","last_reported":1683554795,"current_range_meters":10800,"station_id":"ce4bgj92rcd13ifvqbe0","pricing_plan_id":"free"},{"bike_id":"c765fd78-6ec0-4a3c-8168-2799f615f4f9","system_id":"levelo_inurba_marseille","lat":43.27617,"lon":5.36108,"is_reserved":false,"is_disabled":false,"rental_uris":{"android":"levelo://app?vid=c765fd78-6ec0-4a3c-8168-2799f615f4f9","ios":"levelo://app?vid=c765fd78-6ec0-4a3c-8168-2799f615f4f9"},"vehicle_type_id":"4","last_reported":1683554795,"current_range_meters":28800,"station_id":"ce4bgj92rcd13ifvqbe0","pricing_plan_id":"free"},{"bike_id":"9055ed5f-83a5-4d4b-afbb-c008421beaf1","system_id":"levelo_inurba_marseille","lat":43.32544,"lon":5.41443,"is_reserved":false,"is_disabled":false,"rental_uris":{"android":"levelo://app?vid=9055ed5f-83a5-4d4b-afbb-c008421beaf1","ios":"levelo://app?vid=9055ed5f-83a5-4d4b-afbb-c008421beaf1"},"vehicle_type_id":"4","last_reported":1683554795,"current_range_meters":29200,"station_id":"ce4bhq12rcd13ifvqhhg","pricing_plan_id":"free"},{"bike_id":"f3703bea-d94b-4060-affb-a5bc463d96f0","system_id":"levelo_inurba_marseille","lat":43.276179,"lon":5.361009,"is_reserved":false,"is_disabled":false,"rental_uris":{"android":"levelo://app?vid=f3703bea-d94b-4060-affb-a5bc463d96f0","ios":"levelo://app?vid=f3703bea-d94b-4060-affb-a5bc463d96f0"},"vehicle_type_id":"4","last_reported":1683554795,"current_range_meters":25600,"station_id":"ce4bgj92rcd13ifvqbe0","pricing_plan_id":"free"},{"bike_id":"3355f52e-b5c9-4567-ac50-bbff6b274d0f","system_id":"levelo_inurba_marseille","lat":43.276179,"lon":5.361009,"is_reserved":false,"is_disabled":false,"rental_uris":{"android":"levelo://app?vid=3355f52e-b5c9-4567-ac50-bbff6b274d0f","ios":"levelo://app?vid=3355f52e-b5c9-4567-ac50-bbff6b274d0f"},"vehicle_type_id":"4","last_reported":1683554795,"current_range_meters":22800,"station_id":"ce4bgj92rcd13ifvqbe0","pricing_plan_id":"free"},{"bike_id":"d21b9887-d73c-42f1-9b5f-33d551cc28ba","system_id":"levelo_inurba_marseille","lat":43.276179,"lon":5.361009,"is_reserved":false,"is_disabled":false,"rental_uris":{"android":"levelo://app?vid=d21b9887-d73c-42f1-9b5f-33d551cc28ba","ios":"levelo://app?vid=d21b9887-d73c-42f1-9b5f-33d551cc28ba"},"vehicle_type_id":"4","last_reported":1683554795,"current_range_meters":18400,"station_id":"ce4bgj92rcd13ifvqbe0","pricing_plan_id":"free"},{"bike_id":"b6e61f04-6284-4e0a-b173-2874c53e487f","system_id":"levelo_inurba_marseille","lat":43.276179,"lon":5.361009,"is_reserved":false,"is_disabled":false,"rental_uris":{"android":"levelo://app?vid=b6e61f04-6284-4e0a-b173-2874c53e487f","ios":"levelo://app?vid=b6e61f04-6284-4e0a-b173-2874c53e487f"},"vehicle_type_id":"4","last_reported":1683554795,"current_range_meters":19600,"station_id":"ce4bgj92rcd13ifvqbe0","pricing_plan_id":"free"},{"bike_id":"133444f2-ec38-4ea0-a7eb-46d8a7d90f25","system_id":"levelo_inurba_marseille","lat":43.276179,"lon":5.361009,"is_reserved":false,"is_disabled":false,"rental_uris":{"android":"levelo://app?vid=133444f2-ec38-4ea0-a7eb-46d8a7d90f25","ios":"levelo://app?vid=133444f2-ec38-4ea0-a7eb-46d8a7d90f25"},"vehicle_type_id":"4","last_reported":1683554795,"current_range_meters":20400,"station_id":"ce4bgj92rcd13ifvqbe0","pricing_plan_id":"free"},{"bike_id":"4cbf6c5f-b780-40bf-a192-5d1e7aea8c49","system_id":"levelo_inurba_marseille","lat":43.276179,"lon":5.361009,"is_reserved":false,"is_disabled":false,"rental_uris":{"android":"levelo://app?vid=4cbf6c5f-b780-40bf-a192-5d1e7aea8c49","ios":"levelo://app?vid=4cbf6c5f-b780-40bf-a192-5d1e7aea8c49"},"vehicle_type_id":"4","last_reported":1683554795,"current_range_meters":18400,"station_id":"ce4bgj92rcd13ifvqbe0","pricing_plan_id":"free"},{"bike_id":"f9764df3-4651-4fa2-a4e5-661ee224c0dc","system_id":"levelo_inurba_marseille","lat":43.276179,"lon":5.361009,"is_reserved":false,"is_disabled":false,"rental_uris":{"android":"levelo://app?vid=f9764df3-4651-4fa2-a4e5-661ee224c0dc","ios":"levelo://app?vid=f9764df3-4651-4fa2-a4e5-661ee224c0dc"},"vehicle_type_id":"4","last_reported":1683554795,"current_range_meters":15600,"station_id":"ce4bgj92rcd13ifvqbe0","pricing_plan_id":"free"},{"bike_id":"1861269f-67cc-4a22-a8fc-de69a425d453","system_id":"levelo_inurba_marseille","lat":43.27612,"lon":5.36107,"is_reserved":false,"is_disabled":false,"rental_uris":{"android":"levelo://app?vid=1861269f-67cc-4a22-a8fc-de69a425d453","ios":"levelo://app?vid=1861269f-67cc-4a22-a8fc-de69a425d453"},"vehicle_type_id":"4","last_reported":1683554795,"current_range_meters":7600,"station_id":"ce4bgj92rcd13ifvqbe0","pricing_plan_id":"free"},{"bike_id":"0285b01f-d4de-4389-bd78-48e1913590a0","system_id":"levelo_inurba_marseille","lat":43.276179,"lon":5.361009,"is_reserved":false,"is_disabled":false,"rental_uris":{"android":"levelo://app?vid=0285b01f-d4de-4389-bd78-48e1913590a0","ios":"levelo://app?vid=0285b01f-d4de-4389-bd78-48e1913590a0"},"vehicle_type_id":"4","last_reported":1683554795,"current_range_meters":1200,"station_id":"ce4bgj92rcd13ifvqbe0","pricing_plan_id":"free"},{"bike_id":"d12ec49d-0c1d-4a93-a1d3-6b67fcd32ee2","system_id":"levelo_inurba_marseille","lat":43.27543,"lon":5.35977,"is_reserved":false,"is_disabled":false,"rental_uris":{"android":"levelo://app?vid=d12ec49d-0c1d-4a93-a1d3-6b67fcd32ee2","ios":"levelo://app?vid=d12ec49d-0c1d-4a93-a1d3-6b67fcd32ee2"},"vehicle_type_id":"4","last_reported":1683554795,"current_range_meters":4000,"station_id":"ce4bgj92rcd13ifvqbe0","pricing_plan_id":"free"},{"bike_id":"c3cc8b0e-2de1-421c-aff9-3a53e193f5ab","system_id":"levelo_inurba_marseille","lat":43.278401,"lon":5.392152,"is_reserved":false,"is_disabled":false,"rental_uris":{"android":"levelo://app?vid=c3cc8b0e-2de1-421c-aff9-3a53e193f5ab","ios":"levelo://app?vid=c3cc8b0e-2de1-421c-aff9-3a53e193f5ab"},"vehicle_type_id":"4","last_reported":1683554795,"current_range_meters":25200,"station_id":"ce4bhjp2rcd13ifvqga0","pricing_plan_id":"free"},{"bike_id":"f858913f-67a8-4406-b7c2-fd0745180d23","system_id":"levelo_inurba_marseille","lat":43.278401,"lon":5.392152,"is_reserved":false,"is_disabled":false,"rental_uris":{"android":"levelo://app?vid=f858913f-67a8-4406-b7c2-fd0745180d23","ios":"levelo://app?vid=f858913f-67a8-4406-b7c2-fd0745180d23"},"vehicle_type_id":"4","last_reported":1683554795,"current_range_meters":17600,"station_id":"ce4bhjp2rcd13ifvqga0","pricing_plan_id":"free"},{"bike_id":"2a9f1b7b-efb3-4af7-a41e-2c9daedd92d8","system_id":"levelo_inurba_marseille","lat":43.273613,"lon":5.362705,"is_reserved":false,"is_disabled":false,"rental_uris":{"android":"levelo://app?vid=2a9f1b7b-efb3-4af7-a41e-2c9daedd92d8","ios":"levelo://app?vid=2a9f1b7b-efb3-4af7-a41e-2c9daedd92d8"},"vehicle_type_id":"4","last_reported":1683554795,"current_range_meters":28400,"station_id":"ce4bhbh2rcd13ifvqeo0","pricing_plan_id":"free"},{"bike_id":"61596c98-86ef-4d32-9647-6aa648f6a64a","system_id":"levelo_inurba_marseille","lat":43.273613,"lon":5.362705,"is_reserved":false,"is_disabled":false,"rental_uris":{"android":"levelo://app?vid=61596c98-86ef-4d32-9647-6aa648f6a64a","ios":"levelo://app?vid=61596c98-86ef-4d32-9647-6aa648f6a64a"},"vehicle_type_id":"4","last_reported":1683554795,"current_range_meters":9200,"station_id":"ce4bhbh2rcd13ifvqeo0","pricing_plan_id":"free"},{"bike_id":"79e92e05-1cde-4218-b66e-b723b9a0f114","system_id":"levelo_inurba_marseille","lat":43.273609,"lon":5.362708,"is_reserved":false,"is_disabled":false,"rental_uris":{"android":"levelo://app?vid=79e92e05-1cde-4218-b66e-b723b9a0f114","ios":"levelo://app?vid=79e92e05-1cde-4218-b66e-b723b9a0f114"},"vehicle_type_id":"4","last_reported":1683554795,"current_range_meters":26000,"station_id":"ce4bhbh2rcd13ifvqeo0","pricing_plan_id":"free"},{"bike_id":"58d25a49-f622-4129-ae7c-1c754fb2c98e","system_id":"levelo_inurba_marseille","lat":43.273609,"lon":5.362708,"is_reserved":false,"is_disabled":false,"rental_uris":{"android":"levelo://app?vid=58d25a49-f622-4129-ae7c-1c754fb2c98e","ios":"levelo://app?vid=58d25a49-f622-4129-ae7c-1c754fb2c98e"},"vehicle_type_id":"4","last_reported":1683554795,"current_range_meters":9200,"station_id":"ce4bhbh2rcd13ifvqeo0","pricing_plan_id":"free"},{"bike_id":"21b23107-ef1a-4c23-ac17-2895ce3d923e","system_id":"levelo_inurba_marseille","lat":43.273613,"lon":5.362705,"is_reserved":false,"is_disabled":false,"rental_uris":{"android":"levelo://app?vid=21b23107-ef1a-4c23-ac17-2895ce3d923e","ios":"levelo://app?vid=21b23107-ef1a-4c23-ac17-2895ce3d923e"},"vehicle_type_id":"4","last_reported":1683554795,"current_range_meters":23600,"station_id":"ce4bhbh2rcd13ifvqeo0","pricing_plan_id":"free"},{"bike_id":"9e3918b3-faa6-48f4-a825-b6430a225052","system_id":"levelo_inurba_marseille","lat":43.2738,"lon":5.36256,"is_reserved":false,"is_disabled":false,"rental_uris":{"android":"levelo://app?vid=9e3918b3-faa6-48f4-a825-b6430a225052","ios":"levelo://app?vid=9e3918b3-faa6-48f4-a825-b6430a225052"},"vehicle_type_id":"4","last_reported":1683554795,"current_range_meters":8800,"station_id":"ce4bhbh2rcd13ifvqeo0","pricing_plan_id":"free"},{"bike_id":"acdf70bf-af1f-4360-8576-dd7216c39256","system_id":"levelo_inurba_marseille","lat":43.2738,"lon":5.36249,"is_reserved":false,"is_disabled":false,"rental_uris":{"android":"levelo://app?vid=acdf70bf-af1f-4360-8576-dd7216c39256","ios":"levelo://app?vid=acdf70bf-af1f-4360-8576-dd7216c39256"},"vehicle_type_id":"4","last_reported":1683554795,"current_range_meters":21600,"station_id":"","pricing_plan_id":"free"},{"bike_id":"432277c9-aa72-4ea2-9cc6-2d7223873749","system_id":"levelo_inurba_marseille","lat":43.273613,"lon":5.362705,"is_reserved":false,"is_disabled":false,"rental_uris":{"android":"levelo://app?vid=432277c9-aa72-4ea2-9cc6-2d7223873749","ios":"levelo://app?vid=432277c9-aa72-4ea2-9cc6-2d7223873749"},"vehicle_type_id":"4","last_reported":1683554795,"current_range_meters":21600,"station_id":"ce4bhbh2rcd13ifvqeo0","pricing_plan_id":"free"},{"bike_id":"a0c873ba-485e-4712-a05d-87fabd764b63","system_id":"levelo_inurba_marseille","lat":43.27379,"lon":5.36251,"is_reserved":false,"is_disabled":false,"rental_uris":{"android":"levelo://app?vid=a0c873ba-485e-4712-a05d-87fabd764b63","ios":"levelo://app?vid=a0c873ba-485e-4712-a05d-87fabd764b63"},"vehicle_type_id":"4","last_reported":1683554795,"current_range_meters":22800,"station_id":"ce4bhbh2rcd13ifvqeo0","pricing_plan_id":"free"},{"bike_id":"3f0c2974-eaa9-4702-9b5d-c19311382717","system_id":"levelo_inurba_marseille","lat":43.273613,"lon":5.362705,"is_reserved":false,"is_disabled":false,"rental_uris":{"android":"levelo://app?vid=3f0c2974-eaa9-4702-9b5d-c19311382717","ios":"levelo://app?vid=3f0c2974-eaa9-4702-9b5d-c19311382717"},"vehicle_type_id":"4","last_reported":1683554795,"current_range_meters":31600,"station_id":"ce4bhbh2rcd13ifvqeo0","pricing_plan_id":"free"},{"bike_id":"69ee5d4c-8c57-4a26-a0f0-487ab775577e","system_id":"levelo_inurba_marseille","lat":43.27378,"lon":5.3626,"is_reserved":false,"is_disabled":false,"rental_uris":{"android":"levelo://app?vid=69ee5d4c-8c57-4a26-a0f0-487ab775577e","ios":"levelo://app?vid=69ee5d4c-8c57-4a26-a0f0-487ab775577e"},"vehicle_type_id":"4","last_reported":1683554795,"current_range_meters":20400,"station_id":"ce4bhbh2rcd13ifvqeo0","pricing_plan_id":"free"},{"bike_id":"43b6a5d0-c1ed-4018-8aca-98fac210ab3a","system_id":"levelo_inurba_marseille","lat":43.273609,"lon":5.362708,"is_reserved":false,"is_disabled":false,"rental_uris":{"android":"levelo://app?vid=43b6a5d0-c1ed-4018-8aca-98fac210ab3a","ios":"levelo://app?vid=43b6a5d0-c1ed-4018-8aca-98fac210ab3a"},"vehicle_type_id":"4","last_reported":1683554795,"current_range_meters":31600,"station_id":"ce4bhbh2rcd13ifvqeo0","pricing_plan_id":"free"},{"bike_id":"4074b3c2-3f5a-427b-b5cf-79bf1e03394e","system_id":"levelo_inurba_marseille","lat":43.273609,"lon":5.362708,"is_reserved":false,"is_disabled":false,"rental_uris":{"android":"levelo://app?vid=4074b3c2-3f5a-427b-b5cf-79bf1e03394e","ios":"levelo://app?vid=4074b3c2-3f5a-427b-b5cf-79bf1e03394e"},"vehicle_type_id":"4","last_reported":1683554795,"current_range_meters":11200,"station_id":"ce4bhbh2rcd13ifvqeo0","pricing_plan_id":"free"},{"bike_id":"5bad95ee-15b4-4563-8dae-a9e73b24b764","system_id":"levelo_inurba_marseille","lat":43.273613,"lon":5.362705,"is_reserved":false,"is_disabled":false,"rental_uris":{"android":"levelo://app?vid=5bad95ee-15b4-4563-8dae-a9e73b24b764","ios":"levelo://app?vid=5bad95ee-15b4-4563-8dae-a9e73b24b764"},"vehicle_type_id":"4","last_reported":1683554795,"current_range_meters":31600,"station_id":"ce4bhbh2rcd13ifvqeo0","pricing_plan_id":"free"},{"bike_id":"f13c6a0c-508e-4f27-b601-28603d7405e6","system_id":"levelo_inurba_marseille","lat":43.273609,"lon":5.362708,"is_reserved":false,"is_disabled":false,"rental_uris":{"android":"levelo://app?vid=f13c6a0c-508e-4f27-b601-28603d7405e6","ios":"levelo://app?vid=f13c6a0c-508e-4f27-b601-28603d7405e6"},"vehicle_type_id":"4","last_reported":1683554795,"current_range_meters":12000,"station_id":"ce4bhbh2rcd13ifvqeo0","pricing_plan_id":"free"},{"bike_id":"90102f9a-bb21-49ff-9383-55e0dce45049","system_id":"levelo_inurba_marseille","lat":43.273609,"lon":5.362708,"is_reserved":false,"is_disabled":false,"rental_uris":{"android":"levelo://app?vid=90102f9a-bb21-49ff-9383-55e0dce45049","ios":"levelo://app?vid=90102f9a-bb21-49ff-9383-55e0dce45049"},"vehicle_type_id":"4","last_reported":1683554795,"current_range_meters":25200,"station_id":"ce4bhbh2rcd13ifvqeo0","pricing_plan_id":"free"},{"bike_id":"3a53e1b5-55da-4ce0-ad8b-f7d49f4a5cc0","system_id":"levelo_inurba_marseille","lat":43.273613,"lon":5.362705,"is_reserved":false,"is_disabled":false,"rental_uris":{"android":"levelo://app?vid=3a53e1b5-55da-4ce0-ad8b-f7d49f4a5cc0","ios":"levelo://app?vid=3a53e1b5-55da-4ce0-ad8b-f7d49f4a5cc0"},"vehicle_type_id":"4","last_reported":1683554795,"current_range_meters":29600,"station_id":"ce4bhbh2rcd13ifvqeo0","pricing_plan_id":"free"},{"bike_id":"1615f1e4-0a0e-45eb-b49a-3741a572d394","system_id":"levelo_inurba_marseille","lat":43.273613,"lon":5.362705,"is_reserved":false,"is_disabled":false,"rental_uris":{"android":"levelo://app?vid=1615f1e4-0a0e-45eb-b49a-3741a572d394","ios":"levelo://app?vid=1615f1e4-0a0e-45eb-b49a-3741a572d394"},"vehicle_type_id":"4","last_reported":1683554795,"current_range_meters":4800,"station_id":"ce4bhbh2rcd13ifvqeo0","pricing_plan_id":"free"},{"bike_id":"26d93507-2054-4b2e-b30f-0e760dd9e6c7","system_id":"levelo_inurba_marseille","lat":43.273609,"lon":5.362708,"is_reserved":false,"is_disabled":false,"rental_uris":{"android":"levelo://app?vid=26d93507-2054-4b2e-b30f-0e760dd9e6c7","ios":"levelo://app?vid=26d93507-2054-4b2e-b30f-0e760dd9e6c7"},"vehicle_type_id":"4","last_reported":1683554795,"current_range_meters":11600,"station_id":"ce4bhbh2rcd13ifvqeo0","pricing_plan_id":"free"},{"bike_id":"a5a37aac-cf92-49c1-903a-20e4b210ebd8","system_id":"levelo_inurba_marseille","lat":43.273609,"lon":5.362708,"is_reserved":false,"is_disabled":false,"rental_uris":{"android":"levelo://app?vid=a5a37aac-cf92-49c1-903a-20e4b210ebd8","ios":"levelo://app?vid=a5a37aac-cf92-49c1-903a-20e4b210ebd8"},"vehicle_type_id":"4","last_reported":1683554795,"current_range_meters":31200,"station_id":"ce4bhbh2rcd13ifvqeo0","pricing_plan_id":"free"},{"bike_id":"294be055-4880-4192-b473-b96a84442a5d","system_id":"levelo_inurba_marseille","lat":43.27376,"lon":5.36257,"is_reserved":false,"is_disabled":false,"rental_uris":{"android":"levelo://app?vid=294be055-4880-4192-b473-b96a84442a5d","ios":"levelo://app?vid=294be055-4880-4192-b473-b96a84442a5d"},"vehicle_type_id":"4","last_reported":1683554795,"current_range_meters":6800,"station_id":"ce4bhbh2rcd13ifvqeo0","pricing_plan_id":"free"},{"bike_id":"b522f12c-5bba-4cd0-879e-437e44703205","system_id":"levelo_inurba_marseille","lat":43.273609,"lon":5.362708,"is_reserved":false,"is_disabled":false,"rental_uris":{"android":"levelo://app?vid=b522f12c-5bba-4cd0-879e-437e44703205","ios":"levelo://app?vid=b522f12c-5bba-4cd0-879e-437e44703205"},"vehicle_type_id":"4","last_reported":1683554795,"current_range_meters":31600,"station_id":"ce4bhbh2rcd13ifvqeo0","pricing_plan_id":"free"},{"bike_id":"09fa7c00-f51c-4c0e-8469-936916b40ef0","system_id":"levelo_inurba_marseille","lat":43.273613,"lon":5.362705,"is_reserved":false,"is_disabled":false,"rental_uris":{"android":"levelo://app?vid=09fa7c00-f51c-4c0e-8469-936916b40ef0","ios":"levelo://app?vid=09fa7c00-f51c-4c0e-8469-936916b40ef0"},"vehicle_type_id":"4","last_reported":1683554795,"current_range_meters":0,"station_id":"ce4bhbh2rcd13ifvqeo0","pricing_plan_id":"free"},{"bike_id":"a005dfe8-5a9d-4a0f-8485-ff2ab725e63b","system_id":"levelo_inurba_marseille","lat":43.27376,"lon":5.36254,"is_reserved":false,"is_disabled":false,"rental_uris":{"android":"levelo://app?vid=a005dfe8-5a9d-4a0f-8485-ff2ab725e63b","ios":"levelo://app?vid=a005dfe8-5a9d-4a0f-8485-ff2ab725e63b"},"vehicle_type_id":"4","last_reported":1683554795,"current_range_meters":2400,"station_id":"ce4bhbh2rcd13ifvqeo0","pricing_plan_id":"free"},{"bike_id":"4c076be0-8d7e-42d8-b420-dc7399a700c7","system_id":"levelo_inurba_marseille","lat":43.273613,"lon":5.362705,"is_reserved":false,"is_disabled":false,"rental_uris":{"android":"levelo://app?vid=4c076be0-8d7e-42d8-b420-dc7399a700c7","ios":"levelo://app?vid=4c076be0-8d7e-42d8-b420-dc7399a700c7"},"vehicle_type_id":"4","last_reported":1683554795,"current_range_meters":17600,"station_id":"ce4bhbh2rcd13ifvqeo0","pricing_plan_id":"free"},{"bike_id":"18aa65f1-912f-4b1a-8742-59041849bbcb","system_id":"levelo_inurba_marseille","lat":43.27376,"lon":5.3625,"is_reserved":false,"is_disabled":false,"rental_uris":{"android":"levelo://app?vid=18aa65f1-912f-4b1a-8742-59041849bbcb","ios":"levelo://app?vid=18aa65f1-912f-4b1a-8742-59041849bbcb"},"vehicle_type_id":"4","last_reported":1683554795,"current_range_meters":9600,"station_id":"ce4bhbh2rcd13ifvqeo0","pricing_plan_id":"free"},{"bike_id":"f323656e-029a-43b2-810b-bcfbd370ea1d","system_id":"levelo_inurba_marseille","lat":43.273613,"lon":5.362705,"is_reserved":false,"is_disabled":false,"rental_uris":{"android":"levelo://app?vid=f323656e-029a-43b2-810b-bcfbd370ea1d","ios":"levelo://app?vid=f323656e-029a-43b2-810b-bcfbd370ea1d"},"vehicle_type_id":"4","last_reported":1683554795,"current_range_meters":24400,"station_id":"ce4bhbh2rcd13ifvqeo0","pricing_plan_id":"free"},{"bike_id":"3f956054-a2de-42ad-9559-94cdb162c013","system_id":"levelo_inurba_marseille","lat":43.273609,"lon":5.362708,"is_reserved":false,"is_disabled":false,"rental_uris":{"android":"levelo://app?vid=3f956054-a2de-42ad-9559-94cdb162c013","ios":"levelo://app?vid=3f956054-a2de-42ad-9559-94cdb162c013"},"vehicle_type_id":"4","last_reported":1683554795,"current_range_meters":31600,"station_id":"ce4bhbh2rcd13ifvqeo0","pricing_plan_id":"free"},{"bike_id":"66cc51ce-e08e-4614-aab2-d867822920ea","system_id":"levelo_inurba_marseille","lat":43.27375,"lon":5.36261,"is_reserved":false,"is_disabled":false,"rental_uris":{"android":"levelo://app?vid=66cc51ce-e08e-4614-aab2-d867822920ea","ios":"levelo://app?vid=66cc51ce-e08e-4614-aab2-d867822920ea"},"vehicle_type_id":"4","last_reported":1683554795,"current_range_meters":24000,"station_id":"ce4bhbh2rcd13ifvqeo0","pricing_plan_id":"free"},{"bike_id":"fb6aa1fa-0947-48b2-bed7-a5f1a3958ca7","system_id":"levelo_inurba_marseille","lat":43.273609,"lon":5.362708,"is_reserved":false,"is_disabled":false,"rental_uris":{"android":"levelo://app?vid=fb6aa1fa-0947-48b2-bed7-a5f1a3958ca7","ios":"levelo://app?vid=fb6aa1fa-0947-48b2-bed7-a5f1a3958ca7"},"vehicle_type_id":"4","last_reported":1683554795,"current_range_meters":19600,"station_id":"ce4bhbh2rcd13ifvqeo0","pricing_plan_id":"free"},{"bike_id":"f7af4aab-ea3b-4c27-939f-2e8936aa96e4","system_id":"levelo_inurba_marseille","lat":43.27375,"lon":5.36259,"is_reserved":false,"is_disabled":false,"rental_uris":{"android":"levelo://app?vid=f7af4aab-ea3b-4c27-939f-2e8936aa96e4","ios":"levelo://app?vid=f7af4aab-ea3b-4c27-939f-2e8936aa96e4"},"vehicle_type_id":"4","last_reported":1683554795,"current_range_meters":2000,"station_id":"ce4bhbh2rcd13ifvqeo0","pricing_plan_id":"free"},{"bike_id":"5468653c-6058-4968-a126-fc1b5af8e921","system_id":"levelo_inurba_marseille","lat":43.273609,"lon":5.362708,"is_reserved":false,"is_disabled":false,"rental_uris":{"android":"levelo://app?vid=5468653c-6058-4968-a126-fc1b5af8e921","ios":"levelo://app?vid=5468653c-6058-4968-a126-fc1b5af8e921"},"vehicle_type_id":"4","last_reported":1683554795,"current_range_meters":19200,"station_id":"ce4bhbh2rcd13ifvqeo0","pricing_plan_id":"free"},{"bike_id":"5eb7b6ad-fe98-4b0b-9938-4952a5eb6fe2","system_id":"levelo_inurba_marseille","lat":43.273609,"lon":5.362708,"is_reserved":false,"is_disabled":false,"rental_uris":{"android":"levelo://app?vid=5eb7b6ad-fe98-4b0b-9938-4952a5eb6fe2","ios":"levelo://app?vid=5eb7b6ad-fe98-4b0b-9938-4952a5eb6fe2"},"vehicle_type_id":"4","last_reported":1683554795,"current_range_meters":0,"station_id":"ce4bhbh2rcd13ifvqeo0","pricing_plan_id":"free"},{"bike_id":"7aeb8413-9a3b-4f7f-bb35-0e698677b64b","system_id":"levelo_inurba_marseille","lat":43.273609,"lon":5.362708,"is_reserved":false,"is_disabled":false,"rental_uris":{"android":"levelo://app?vid=7aeb8413-9a3b-4f7f-bb35-0e698677b64b","ios":"levelo://app?vid=7aeb8413-9a3b-4f7f-bb35-0e698677b64b"},"vehicle_type_id":"4","last_reported":1683554795,"current_range_meters":12000,"station_id":"ce4bhbh2rcd13ifvqeo0","pricing_plan_id":"free"},{"bike_id":"5bc8eca8-3b5b-4ed6-9d2a-30e08b85ae08","system_id":"levelo_inurba_marseille","lat":43.27373,"lon":5.36258,"is_reserved":false,"is_disabled":false,"rental_uris":{"android":"levelo://app?vid=5bc8eca8-3b5b-4ed6-9d2a-30e08b85ae08","ios":"levelo://app?vid=5bc8eca8-3b5b-4ed6-9d2a-30e08b85ae08"},"vehicle_type_id":"4","last_reported":1683554795,"current_range_meters":19600,"station_id":"ce4bhbh2rcd13ifvqeo0","pricing_plan_id":"free"},{"bike_id":"a9f01865-26ac-4fb7-b386-ec90dbacc5b9","system_id":"levelo_inurba_marseille","lat":43.27373,"lon":5.36257,"is_reserved":false,"is_disabled":false,"rental_uris":{"android":"levelo://app?vid=a9f01865-26ac-4fb7-b386-ec90dbacc5b9","ios":"levelo://app?vid=a9f01865-26ac-4fb7-b386-ec90dbacc5b9"},"vehicle_type_id":"4","last_reported":1683554795,"current_range_meters":28000,"station_id":"ce4bhbh2rcd13ifvqeo0","pricing_plan_id":"free"},{"bike_id":"135d1892-dde6-4ae4-9f83-cf939bc733ad","system_id":"levelo_inurba_marseille","lat":43.273609,"lon":5.362708,"is_reserved":false,"is_disabled":false,"rental_uris":{"android":"levelo://app?vid=135d1892-dde6-4ae4-9f83-cf939bc733ad","ios":"levelo://app?vid=135d1892-dde6-4ae4-9f83-cf939bc733ad"},"vehicle_type_id":"4","last_reported":1683554795,"current_range_meters":23200,"station_id":"ce4bhbh2rcd13ifvqeo0","pricing_plan_id":"free"},{"bike_id":"e54c0d44-d0a2-49bd-a589-85ea57c174d4","system_id":"levelo_inurba_marseille","lat":43.27373,"lon":5.36255,"is_reserved":false,"is_disabled":false,"rental_uris":{"android":"levelo://app?vid=e54c0d44-d0a2-49bd-a589-85ea57c174d4","ios":"levelo://app?vid=e54c0d44-d0a2-49bd-a589-85ea57c174d4"},"vehicle_type_id":"4","last_reported":1683554795,"current_range_meters":22000,"station_id":"ce4bhbh2rcd13ifvqeo0","pricing_plan_id":"free"},{"bike_id":"fd21131b-c049-487d-bffb-c12c88eb5442","system_id":"levelo_inurba_marseille","lat":43.273613,"lon":5.362705,"is_reserved":false,"is_disabled":false,"rental_uris":{"android":"levelo://app?vid=fd21131b-c049-487d-bffb-c12c88eb5442","ios":"levelo://app?vid=fd21131b-c049-487d-bffb-c12c88eb5442"},"vehicle_type_id":"4","last_reported":1683554795,"current_range_meters":31600,"station_id":"ce4bhbh2rcd13ifvqeo0","pricing_plan_id":"free"},{"bike_id":"5c45b351-8e45-4ce5-b467-e516e498c069","system_id":"levelo_inurba_marseille","lat":43.273609,"lon":5.362708,"is_reserved":false,"is_disabled":false,"rental_uris":{"android":"levelo://app?vid=5c45b351-8e45-4ce5-b467-e516e498c069","ios":"levelo://app?vid=5c45b351-8e45-4ce5-b467-e516e498c069"},"vehicle_type_id":"4","last_reported":1683554795,"current_range_meters":22000,"station_id":"ce4bhbh2rcd13ifvqeo0","pricing_plan_id":"free"},{"bike_id":"76ef355f-74b8-47d2-9b28-d9e761985f63","system_id":"levelo_inurba_marseille","lat":43.27372,"lon":5.36257,"is_reserved":false,"is_disabled":false,"rental_uris":{"android":"levelo://app?vid=76ef355f-74b8-47d2-9b28-d9e761985f63","ios":"levelo://app?vid=76ef355f-74b8-47d2-9b28-d9e761985f63"},"vehicle_type_id":"4","last_reported":1683554795,"current_range_meters":19200,"station_id":"ce4bhbh2rcd13ifvqeo0","pricing_plan_id":"free"},{"bike_id":"c1c0f0bd-f388-40ed-9021-f32527d66562","system_id":"levelo_inurba_marseille","lat":43.273609,"lon":5.362708,"is_reserved":false,"is_disabled":false,"rental_uris":{"android":"levelo://app?vid=c1c0f0bd-f388-40ed-9021-f32527d66562","ios":"levelo://app?vid=c1c0f0bd-f388-40ed-9021-f32527d66562"},"vehicle_type_id":"4","last_reported":1683554795,"current_range_meters":8400,"station_id":"ce4bhbh2rcd13ifvqeo0","pricing_plan_id":"free"},{"bike_id":"f359f747-98bf-43ea-b3e8-7c1e368f5f6a","system_id":"levelo_inurba_marseille","lat":43.273609,"lon":5.362708,"is_reserved":false,"is_disabled":false,"rental_uris":{"android":"levelo://app?vid=f359f747-98bf-43ea-b3e8-7c1e368f5f6a","ios":"levelo://app?vid=f359f747-98bf-43ea-b3e8-7c1e368f5f6a"},"vehicle_type_id":"4","last_reported":1683554795,"current_range_meters":10400,"station_id":"ce4bhbh2rcd13ifvqeo0","pricing_plan_id":"free"},{"bike_id":"90038fb2-856d-4a6d-8597-fad7e6ab5ad1","system_id":"levelo_inurba_marseille","lat":43.273609,"lon":5.362708,"is_reserved":false,"is_disabled":false,"rental_uris":{"android":"levelo://app?vid=90038fb2-856d-4a6d-8597-fad7e6ab5ad1","ios":"levelo://app?vid=90038fb2-856d-4a6d-8597-fad7e6ab5ad1"},"vehicle_type_id":"4","last_reported":1683554795,"current_range_meters":7200,"station_id":"ce4bhbh2rcd13ifvqeo0","pricing_plan_id":"free"},{"bike_id":"97c8773a-e73d-4d33-9212-ed94aba0a3b4","system_id":"levelo_inurba_marseille","lat":43.273609,"lon":5.362708,"is_reserved":false,"is_disabled":false,"rental_uris":{"android":"levelo://app?vid=97c8773a-e73d-4d33-9212-ed94aba0a3b4","ios":"levelo://app?vid=97c8773a-e73d-4d33-9212-ed94aba0a3b4"},"vehicle_type_id":"4","last_reported":1683554795,"current_range_meters":32000,"station_id":"ce4bhbh2rcd13ifvqeo0","pricing_plan_id":"free"},{"bike_id":"917010e9-146a-49bb-847a-43f85ccba8c3","system_id":"levelo_inurba_marseille","lat":43.273613,"lon":5.362705,"is_reserved":false,"is_disabled":false,"rental_uris":{"android":"levelo://app?vid=917010e9-146a-49bb-847a-43f85ccba8c3","ios":"levelo://app?vid=917010e9-146a-49bb-847a-43f85ccba8c3"},"vehicle_type_id":"4","last_reported":1683554795,"current_range_meters":22800,"station_id":"ce4bhbh2rcd13ifvqeo0","pricing_plan_id":"free"},{"bike_id":"e027a164-cc37-4037-9098-dbb22b35294d","system_id":"levelo_inurba_marseille","lat":43.336134,"lon":5.410341,"is_reserved":false,"is_disabled":false,"rental_uris":{"android":"levelo://app?vid=e027a164-cc37-4037-9098-dbb22b35294d","ios":"levelo://app?vid=e027a164-cc37-4037-9098-dbb22b35294d"},"vehicle_type_id":"4","last_reported":1683554795,"current_range_meters":26000,"station_id":"ce4bhqh2rcd13ifvqhmg","pricing_plan_id":"free"},{"bike_id":"3c74701a-f6a0-435d-9b34-35e94fed7183","system_id":"levelo_inurba_marseille","lat":43.32788,"lon":5.41792,"is_reserved":false,"is_disabled":false,"rental_uris":{"android":"levelo://app?vid=3c74701a-f6a0-435d-9b34-35e94fed7183","ios":"levelo://app?vid=3c74701a-f6a0-435d-9b34-35e94fed7183"},"vehicle_type_id":"4","last_reported":1683554795,"current_range_meters":14000,"station_id":"","pricing_plan_id":"free"},{"bike_id":"db3dca1b-0d01-4ca7-838c-23ee8a122c54","system_id":"levelo_inurba_marseille","lat":43.31717,"lon":5.424,"is_reserved":false,"is_disabled":false,"rental_uris":{"android":"levelo://app?vid=db3dca1b-0d01-4ca7-838c-23ee8a122c54","ios":"levelo://app?vid=db3dca1b-0d01-4ca7-838c-23ee8a122c54"},"vehicle_type_id":"4","last_reported":1683554795,"current_range_meters":23600,"station_id":"ce4bhp92rcd13ifvqhbg","pricing_plan_id":"free"},{"bike_id":"9f4068d5-0f8d-45ff-b73e-5175a92f78a2","system_id":"levelo_inurba_marseille","lat":43.31726,"lon":5.42399,"is_reserved":false,"is_disabled":false,"rental_uris":{"android":"levelo://app?vid=9f4068d5-0f8d-45ff-b73e-5175a92f78a2","ios":"levelo://app?vid=9f4068d5-0f8d-45ff-b73e-5175a92f78a2"},"vehicle_type_id":"4","last_reported":1683554795,"current_range_meters":0,"station_id":"ce4bhp92rcd13ifvqhbg","pricing_plan_id":"free"},{"bike_id":"687ac03d-a5c0-4259-9591-cb0a98ee6881","system_id":"levelo_inurba_marseille","lat":43.3172,"lon":5.424,"is_reserved":false,"is_disabled":false,"rental_uris":{"android":"levelo://app?vid=687ac03d-a5c0-4259-9591-cb0a98ee6881","ios":"levelo://app?vid=687ac03d-a5c0-4259-9591-cb0a98ee6881"},"vehicle_type_id":"4","last_reported":1683554795,"current_range_meters":19600,"station_id":"ce4bhp92rcd13ifvqhbg","pricing_plan_id":"free"},{"bike_id":"56460abe-93fd-4347-9359-06676c50ed5b","system_id":"levelo_inurba_marseille","lat":43.310785,"lon":5.424305,"is_reserved":false,"is_disabled":false,"rental_uris":{"android":"levelo://app?vid=56460abe-93fd-4347-9359-06676c50ed5b","ios":"levelo://app?vid=56460abe-93fd-4347-9359-06676c50ed5b"},"vehicle_type_id":"4","last_reported":1683554795,"current_range_meters":28000,"station_id":"ce4bhp92rcd13ifvqhag","pricing_plan_id":"free"},{"bike_id":"cdd66801-a1f5-4bed-847d-ccd1e7a4bc49","system_id":"levelo_inurba_marseille","lat":43.310785,"lon":5.424305,"is_reserved":false,"is_disabled":false,"rental_uris":{"android":"levelo://app?vid=cdd66801-a1f5-4bed-847d-ccd1e7a4bc49","ios":"levelo://app?vid=cdd66801-a1f5-4bed-847d-ccd1e7a4bc49"},"vehicle_type_id":"4","last_reported":1683554795,"current_range_meters":31600,"station_id":"ce4bhp92rcd13ifvqhag","pricing_plan_id":"free"},{"bike_id":"83d90a67-703a-47e9-a0c8-486659e4ab33","system_id":"levelo_inurba_marseille","lat":43.310785,"lon":5.424305,"is_reserved":false,"is_disabled":false,"rental_uris":{"android":"levelo://app?vid=83d90a67-703a-47e9-a0c8-486659e4ab33","ios":"levelo://app?vid=83d90a67-703a-47e9-a0c8-486659e4ab33"},"vehicle_type_id":"4","last_reported":1683554795,"current_range_meters":31600,"station_id":"ce4bhp92rcd13ifvqhag","pricing_plan_id":"free"},{"bike_id":"f28d81d2-a73a-4620-971d-88de85416129","system_id":"levelo_inurba_marseille","lat":43.2742,"lon":5.39418,"is_reserved":false,"is_disabled":false,"rental_uris":{"android":"levelo://app?vid=f28d81d2-a73a-4620-971d-88de85416129","ios":"levelo://app?vid=f28d81d2-a73a-4620-971d-88de85416129"},"vehicle_type_id":"4","last_reported":1683554795,"current_range_meters":22400,"station_id":"ce4bhdp2rcd13ifvqf20","pricing_plan_id":"free"},{"bike_id":"6ee9e9c7-2c25-451e-ad85-1e97f547bf48","system_id":"levelo_inurba_marseille","lat":43.304154,"lon":5.425417,"is_reserved":false,"is_disabled":false,"rental_uris":{"android":"levelo://app?vid=6ee9e9c7-2c25-451e-ad85-1e97f547bf48","ios":"levelo://app?vid=6ee9e9c7-2c25-451e-ad85-1e97f547bf48"},"vehicle_type_id":"4","last_reported":1683554795,"current_range_meters":29600,"station_id":"","pricing_plan_id":"free"},{"bike_id":"660924fb-690c-4713-983f-83134378120c","system_id":"levelo_inurba_marseille","lat":43.295574,"lon":5.422873,"is_reserved":false,"is_disabled":false,"rental_uris":{"android":"levelo://app?vid=660924fb-690c-4713-983f-83134378120c","ios":"levelo://app?vid=660924fb-690c-4713-983f-83134378120c"},"vehicle_type_id":"4","last_reported":1683554795,"current_range_meters":31200,"station_id":"","pricing_plan_id":"free"},{"bike_id":"04d6f401-2a9c-4013-9d0e-0ab17841ecf2","system_id":"levelo_inurba_marseille","lat":43.295577,"lon":5.422904,"is_reserved":false,"is_disabled":false,"rental_uris":{"android":"levelo://app?vid=04d6f401-2a9c-4013-9d0e-0ab17841ecf2","ios":"levelo://app?vid=04d6f401-2a9c-4013-9d0e-0ab17841ecf2"},"vehicle_type_id":"4","last_reported":1683554795,"current_range_meters":31200,"station_id":"","pricing_plan_id":"free"},{"bike_id":"a09b5167-4a4a-4e38-8b9d-47cee2412737","system_id":"levelo_inurba_marseille","lat":43.295564,"lon":5.42292,"is_reserved":false,"is_disabled":false,"rental_uris":{"android":"levelo://app?vid=a09b5167-4a4a-4e38-8b9d-47cee2412737","ios":"levelo://app?vid=a09b5167-4a4a-4e38-8b9d-47cee2412737"},"vehicle_type_id":"4","last_reported":1683554795,"current_range_meters":7200,"station_id":"","pricing_plan_id":"free"},{"bike_id":"116601ac-dc5c-423d-9e72-ed9eae00e494","system_id":"levelo_inurba_marseille","lat":43.27215,"lon":5.39179,"is_reserved":false,"is_disabled":false,"rental_uris":{"android":"levelo://app?vid=116601ac-dc5c-423d-9e72-ed9eae00e494","ios":"levelo://app?vid=116601ac-dc5c-423d-9e72-ed9eae00e494"},"vehicle_type_id":"4","last_reported":1683554795,"current_range_meters":5200,"station_id":"ce4bhhp2rcd13ifvqfm0","pricing_plan_id":"free"},{"bike_id":"c5ffc68d-0823-4d51-b339-9c2445a209bb","system_id":"levelo_inurba_marseille","lat":43.278128,"lon":5.407195,"is_reserved":false,"is_disabled":false,"rental_uris":{"android":"levelo://app?vid=c5ffc68d-0823-4d51-b339-9c2445a209bb","ios":"levelo://app?vid=c5ffc68d-0823-4d51-b339-9c2445a209bb"},"vehicle_type_id":"4","last_reported":1683554795,"current_range_meters":2800,"station_id":"ce4bhnh2rcd13ifvqgtg","pricing_plan_id":"free"},{"bike_id":"617cab00-e074-42c8-a59b-a30177189a40","system_id":"levelo_inurba_marseille","lat":43.269467,"lon":5.386439,"is_reserved":false,"is_disabled":false,"rental_uris":{"android":"levelo://app?vid=617cab00-e074-42c8-a59b-a30177189a40","ios":"levelo://app?vid=617cab00-e074-42c8-a59b-a30177189a40"},"vehicle_type_id":"4","last_reported":1683554795,"current_range_meters":0,"station_id":"ce4bhh92rcd13ifvqfh0","pricing_plan_id":"free"},{"bike_id":"bd8909da-6d02-4427-bffb-f0f1e36da558","system_id":"levelo_inurba_marseille","lat":43.265714,"lon":5.372891,"is_reserved":false,"is_disabled":false,"rental_uris":{"android":"levelo://app?vid=bd8909da-6d02-4427-bffb-f0f1e36da558","ios":"levelo://app?vid=bd8909da-6d02-4427-bffb-f0f1e36da558"},"vehicle_type_id":"4","last_reported":1683554795,"current_range_meters":27600,"station_id":"ce4bhg12rcd13ifvqf70","pricing_plan_id":"free"},{"bike_id":"1ff15c34-267e-47cc-bc00-5d5778aea174","system_id":"levelo_inurba_marseille","lat":43.265714,"lon":5.372891,"is_reserved":false,"is_disabled":false,"rental_uris":{"android":"levelo://app?vid=1ff15c34-267e-47cc-bc00-5d5778aea174","ios":"levelo://app?vid=1ff15c34-267e-47cc-bc00-5d5778aea174"},"vehicle_type_id":"4","last_reported":1683554795,"current_range_meters":31200,"station_id":"ce4bhg12rcd13ifvqf70","pricing_plan_id":"free"},{"bike_id":"c1fcbc11-e33b-441e-b1b2-4c3416ca5758","system_id":"levelo_inurba_marseille","lat":43.265714,"lon":5.372891,"is_reserved":false,"is_disabled":false,"rental_uris":{"android":"levelo://app?vid=c1fcbc11-e33b-441e-b1b2-4c3416ca5758","ios":"levelo://app?vid=c1fcbc11-e33b-441e-b1b2-4c3416ca5758"},"vehicle_type_id":"4","last_reported":1683554795,"current_range_meters":31200,"station_id":"ce4bhg12rcd13ifvqf70","pricing_plan_id":"free"},{"bike_id":"9eeb424d-072c-4fb1-a3fa-ab08e619d4f2","system_id":"levelo_inurba_marseille","lat":43.265714,"lon":5.372891,"is_reserved":false,"is_disabled":false,"rental_uris":{"android":"levelo://app?vid=9eeb424d-072c-4fb1-a3fa-ab08e619d4f2","ios":"levelo://app?vid=9eeb424d-072c-4fb1-a3fa-ab08e619d4f2"},"vehicle_type_id":"4","last_reported":1683554795,"current_range_meters":25600,"station_id":"ce4bhg12rcd13ifvqf70","pricing_plan_id":"free"},{"bike_id":"331cf36f-b62e-46d5-973d-410b5322623b","system_id":"levelo_inurba_marseille","lat":43.26555,"lon":5.37289,"is_reserved":false,"is_disabled":false,"rental_uris":{"android":"levelo://app?vid=331cf36f-b62e-46d5-973d-410b5322623b","ios":"levelo://app?vid=331cf36f-b62e-46d5-973d-410b5322623b"},"vehicle_type_id":"4","last_reported":1683554795,"current_range_meters":800,"station_id":"ce4bhg12rcd13ifvqf70","pricing_plan_id":"free"},{"bike_id":"fa7f0099-5b08-4660-b9c5-db406f2f0a0e","system_id":"levelo_inurba_marseille","lat":43.265714,"lon":5.372891,"is_reserved":false,"is_disabled":false,"rental_uris":{"android":"levelo://app?vid=fa7f0099-5b08-4660-b9c5-db406f2f0a0e","ios":"levelo://app?vid=fa7f0099-5b08-4660-b9c5-db406f2f0a0e"},"vehicle_type_id":"4","last_reported":1683554795,"current_range_meters":14800,"station_id":"ce4bhg12rcd13ifvqf70","pricing_plan_id":"free"},{"bike_id":"10290d3a-056f-40f3-83c1-57ed690eb981","system_id":"levelo_inurba_marseille","lat":43.26553,"lon":5.37293,"is_reserved":false,"is_disabled":false,"rental_uris":{"android":"levelo://app?vid=10290d3a-056f-40f3-83c1-57ed690eb981","ios":"levelo://app?vid=10290d3a-056f-40f3-83c1-57ed690eb981"},"vehicle_type_id":"4","last_reported":1683554795,"current_range_meters":17200,"station_id":"ce4bhg12rcd13ifvqf70","pricing_plan_id":"free"},{"bike_id":"2347ecf1-aea2-43a4-82c9-a87f343b64b3","system_id":"levelo_inurba_marseille","lat":43.2655,"lon":5.37288,"is_reserved":false,"is_disabled":false,"rental_uris":{"android":"levelo://app?vid=2347ecf1-aea2-43a4-82c9-a87f343b64b3","ios":"levelo://app?vid=2347ecf1-aea2-43a4-82c9-a87f343b64b3"},"vehicle_type_id":"4","last_reported":1683554795,"current_range_meters":400,"station_id":"ce4bhg12rcd13ifvqf70","pricing_plan_id":"free"},{"bike_id":"a80c31e9-1457-42dc-9f6c-6409c3b946e5","system_id":"levelo_inurba_marseille","lat":43.2657,"lon":5.39007,"is_reserved":false,"is_disabled":false,"rental_uris":{"android":"levelo://app?vid=a80c31e9-1457-42dc-9f6c-6409c3b946e5","ios":"levelo://app?vid=a80c31e9-1457-42dc-9f6c-6409c3b946e5"},"vehicle_type_id":"4","last_reported":1683554795,"current_range_meters":13200,"station_id":"ce4bhe12rcd13ifvqf30","pricing_plan_id":"free"},