{"last_updated":1679314446,"ttl":30,"version":"2.2","data":{"bikes":[{"bike_id":"7fe44374-7639-47ec-a56f-70e11cf070b5","system_id":"levelo_inurba_marseille","lat":43.31218,"lon":5.36837,"is_reserved":false,"is_disabled":false,"rental_uris":{"android":"levelo://app?vid=7fe44374-7639-47ec-a56f-70e11cf070b5","ios":"levelo://app?vid=7fe44374-7639-47ec-a56f-70e11cf070b5"},"vehicle_type_id":"4","last_reported":1679314446,"current_range_meters":10800,"station_id":"","pricing_plan_id":"free"},{"bike_id":"68d3090e-36b1-44da-9001-3fc4dcf66e9f","system_id":"levelo_inurba_marseille","lat":43.309076,"lon":5.368465,"is_reserved":false,"is_disabled":false,"rental_uris":{"android":"levelo://app?vid=68d3090e-36b1-44da-9001-3fc4dcf66e9f","ios":"levelo://app?vid=68d3090e-36b1-44da-9001-3fc4dcf66e9f"},"vehicle_type_id":"4","last_reported":1679314446,"current_range_meters":26000,"station_id":"ce4bgn92rcd13ifvqbvg","pricing_plan_id":"free"},{"bike_id":"dc46f849-62cf-47d9-993c-25d51a98d655","system_id":"levelo_inurba_marseille","lat":43.28072,"lon":5.505495,"is_reserved":false,"is_disabled":false,"rental_uris":{"android":"levelo://app?vid=dc46f849-62cf-47d9-993c-25d51a98d655","ios":"levelo://app?vid=dc46f849-62cf-47d9-993c-25d51a98d655"},"vehicle_type_id":"4","last_reported":1679314446,"current_range_meters":2000,"station_id":"","pricing_plan_id":"free"},{"bike_id":"875159f1-b088-427a-943b-37d1dd52c7fe","system_id":"levelo_inurba_marseille","lat":43.308821,"lon":5.371994,"is_reserved":false,"is_disabled":false,"rental_uris":{"android":"levelo://app?vid=875159f1-b088-427a-943b-37d1dd52c7fe","ios":"levelo://app?vid=875159f1-b088-427a-943b-37d1dd52c7fe"},"vehicle_type_id":"4","last_reported":1679314446,"current_range_meters":30400,"station_id":"ce4bguh2rcd13ifvqckg","pricing_plan_id":"free"},{"bike_id":"b5b56b44-5cc4-44f7-aa7f-dff010f3d9da","system_id":"levelo_inurba_marseille","lat":43.305466,"lon":5.367058,"is_reserved":false,"is_disabled":false,"rental_uris":{"android":"levelo://app?vid=b5b56b44-5cc4-44f7-aa7f-dff010f3d9da","ios":"levelo://app?vid=b5b56b44-5cc4-44f7-aa7f-dff010f3d9da"},"vehicle_type_id":"4","last_reported":1679314446,"current_range_meters":0,"station_id":"","pricing_plan_id":"free"},{"bike_id":"2c840358-b0cd-4008-ad40-e6475d30eb09","system_id":"levelo_inurba_marseille","lat":43.305389,"lon":5.367038,"is_reserved":false,"is_disabled":false,"rental_uris":{"android":"levelo://app?vid=2c840358-b0cd-4008-ad40-e6475d30eb09","ios":"levelo://app?vid=2c840358-b0cd-4008-ad40-e6475d30eb09"},"vehicle_type_id":"4","last_reported":1679314446,"current_range_meters":20400,"station_id":"ce4bgrp2rcd13ifvqc9g","pricing_plan_id":"free"},{"bike_id":"fe033ddd-90ad-4500-b8f6-f04b36205ee5","system_id":"levelo_inurba_marseille","lat":43.30529,"lon":5.36686,"is_reserved":false,"is_disabled":false,"rental_uris":{"android":"levelo://app?vid=fe033ddd-90ad-4500-b8f6-f04b36205ee5","ios":"levelo://app?vid=fe033ddd-90ad-4500-b8f6-f04b36205ee5"},"vehicle_type_id":"4","last_reported":1679314446,"current_range_meters":3200,"station_id":"","pricing_plan_id":"free"},{"bike_id":"9501f391-1ebe-44a9-a9e9-e1594413d30c","system_id":"levelo_inurba_marseille","lat":43.317998,"lon":5.377828,"is_reserved":false,"is_disabled":false,"rental_uris":{"android":"levelo://app?vid=9501f391-1ebe-44a9-a9e9-e1594413d30c","ios":"levelo://app?vid=9501f391-1ebe-44a9-a9e9-e1594413d30c"},"vehicle_type_id":"4","last_reported":1679314446,"current_range_meters":0,"station_id":"","pricing_plan_id":"free"},{"bike_id":"4733a617-6492-4762-84a4-b6c7e41d51a4","system_id":"levelo_inurba_marseille","lat":43.30532,"lon":5.37612,"is_reserved":false,"is_disabled":false,"rental_uris":{"android":"levelo://app?vid=4733a617-6492-4762-84a4-b6c7e41d51a4","ios":"levelo://app?vid=4733a617-6492-4762-84a4-b6c7e41d51a4"},"vehicle_type_id":"4","last_reported":1679314446,"current_range_meters":800,"station_id":"","pricing_plan_id":"free"},{"bike_id":"527fbc7c-23cc-4e79-970b-f5a413555113","system_id":"levelo_inurba_marseille","lat":43.302182,"lon":5.365496,"is_reserved":false,"is_disabled":false,"rental_uris":{"android":"levelo://app?vid=527fbc7c-23cc-4e79-970b-f5a413555113","ios":"levelo://app?vid=527fbc7c-23cc-4e79-970b-f5a413555113"},"vehicle_type_id":"4","last_reported":1679314446,"current_range_meters":25600,"station_id":"","pricing_plan_id":"free"},{"bike_id":"d2ba27d7-8575-428c-b5ad-1ae5b6c62f4d","system_id":"levelo_inurba_marseille","lat":43.30194,"lon":5.36613,"is_reserved":false,"is_disabled":false,"rental_uris":{"android":"levelo://app?vid=d2ba27d7-8575-428c-b5ad-1ae5b6c62f4d","ios":"levelo://app?vid=d2ba27d7-8575-428c-b5ad-1ae5b6c62f4d"},"vehicle_type_id":"4","last_reported":1679314446,"current_range_meters":0,"station_id":"","pricing_plan_id":"free"},{"bike_id":"8bac2c59-f548-4c76-8929-cd337de18d21","system_id":"levelo_inurba_marseille","lat":43.301883,"lon":5.366128,"is_reserved":false,"is_disabled":false,"rental_uris":{"android":"levelo://app?vid=8bac2c59-f548-4c76-8929-cd337de18d21","ios":"levelo://app?vid=8bac2c59-f548-4c76-8929-cd337de18d21"},"vehicle_type_id":"4","last_reported":1679314446,"current_range_meters":23600,"station_id":"","pricing_plan_id":"free"},{"bike_id":"452b2672-b362-4d38-9696-ddda64ec1212","system_id":"levelo_inurba_marseille","lat":43.301939,"lon":5.366286,"is_reserved":false,"is_disabled":false,"rental_uris":{"android":"levelo://app?vid=452b2672-b362-4d38-9696-ddda64ec1212","ios":"levelo://app?vid=452b2672-b362-4d38-9696-ddda64ec1212"},"vehicle_type_id":"4","last_reported":1679314446,"current_range_meters":31600,"station_id":"ce4bgrh2rcd13ifvqc8g","pricing_plan_id":"free"},{"bike_id":"98ecd958-69e3-44d8-8927-52fa523f4ad6","system_id":"levelo_inurba_marseille","lat":43.30186,"lon":5.36609,"is_reserved":false,"is_disabled":false,"rental_uris":{"android":"levelo://app?vid=98ecd958-69e3-44d8-8927-52fa523f4ad6","ios":"levelo://app?vid=98ecd958-69e3-44d8-8927-52fa523f4ad6"},"vehicle_type_id":"4","last_reported":1679314446,"current_range_meters":23200,"station_id":"","pricing_plan_id":"free"},{"bike_id":"120a5a49-09b2-4e1e-9da0-5d81dbe8ec8f","system_id":"levelo_inurba_marseille","lat":43.301939,"lon":5.366286,"is_reserved":false,"is_disabled":false,"rental_uris":{"android":"levelo://app?vid=120a5a49-09b2-4e1e-9da0-5d81dbe8ec8f","ios":"levelo://app?vid=120a5a49-09b2-4e1e-9da0-5d81dbe8ec8f"},"vehicle_type_id":"4","last_reported":1679314446,"current_range_meters":29200,"station_id":"ce4bgrh2rcd13ifvqc8g","pricing_plan_id":"free"},{"bike_id":"fe4b7fed-8b18-47be-90d3-2c4944b53c47","system_id":"levelo_inurba_marseille","lat":43.30184,"lon":5.36617,"is_reserved":false,"is_disabled":false,"rental_uris":{"android":"levelo://app?vid=fe4b7fed-8b18-47be-90d3-2c4944b53c47","ios":"levelo://app?vid=fe4b7fed-8b18-47be-90d3-2c4944b53c47"},"vehicle_type_id":"4","last_reported":1679314446,"current_range_meters":10800,"station_id":"","pricing_plan_id":"free"},{"bike_id":"5fbdb319-87fa-4806-bb62-d9e98df51a6e","system_id":"levelo_inurba_marseille","lat":43.30183,"lon":5.3661,"is_reserved":false,"is_disabled":false,"rental_uris":{"android":"levelo://app?vid=5fbdb319-87fa-4806-bb62-d9e98df51a6e","ios":"levelo://app?vid=5fbdb319-87fa-4806-bb62-d9e98df51a6e"},"vehicle_type_id":"4","last_reported":1679314446,"current_range_meters":30800,"station_id":"","pricing_plan_id":"free"},{"bike_id":"e208e456-da24-4632-9c3e-003ba3f5637f","system_id":"levelo_inurba_marseille","lat":43.30178,"lon":5.36606,"is_reserved":false,"is_disabled":false,"rental_uris":{"android":"levelo://app?vid=e208e456-da24-4632-9c3e-003ba3f5637f","ios":"levelo://app?vid=e208e456-da24-4632-9c3e-003ba3f5637f"},"vehicle_type_id":"4","last_reported":1679314446,"current_range_meters":23200,"station_id":"ce4bgrh2rcd13ifvqc8g","pricing_plan_id":"free"},{"bike_id":"f2c5fdf7-f777-4815-9b43-1090d21e6340","system_id":"levelo_inurba_marseille","lat":43.304606,"lon":5.379026,"is_reserved":false,"is_disabled":false,"rental_uris":{"android":"levelo://app?vid=f2c5fdf7-f777-4815-9b43-1090d21e6340","ios":"levelo://app?vid=f2c5fdf7-f777-4815-9b43-1090d21e6340"},"vehicle_type_id":"4","last_reported":1679314446,"current_range_meters":10000,"station_id":"ce4bgup2rcd13ifvqcn0","pricing_plan_id":"free"},{"bike_id":"fbae1a5f-6699-47ba-8c24-9d691a255838","system_id":"levelo_inurba_marseille","lat":43.304606,"lon":5.379026,"is_reserved":false,"is_disabled":false,"rental_uris":{"android":"levelo://app?vid=fbae1a5f-6699-47ba-8c24-9d691a255838","ios":"levelo://app?vid=fbae1a5f-6699-47ba-8c24-9d691a255838"},"vehicle_type_id":"4","last_reported":1679314446,"current_range_meters":26800,"station_id":"ce4bgup2rcd13ifvqcn0","pricing_plan_id":"free"},{"bike_id":"fc968d8b-558d-45be-9156-24860a5906b7","system_id":"levelo_inurba_marseille","lat":43.304606,"lon":5.379026,"is_reserved":false,"is_disabled":false,"rental_uris":{"android":"levelo://app?vid=fc968d8b-558d-45be-9156-24860a5906b7","ios":"levelo://app?vid=fc968d8b-558d-45be-9156-24860a5906b7"},"vehicle_type_id":"4","last_reported":1679314446,"current_range_meters":6000,"station_id":"ce4bgup2rcd13ifvqcn0","pricing_plan_id":"free"},{"bike_id":"eea981f3-939d-40b3-ba15-5e769a58eaea","system_id":"levelo_inurba_marseille","lat":43.304606,"lon":5.379026,"is_reserved":false,"is_disabled":false,"rental_uris":{"android":"levelo://app?vid=eea981f3-939d-40b3-ba15-5e769a58eaea","ios":"levelo://app?vid=eea981f3-939d-40b3-ba15-5e769a58eaea"},"vehicle_type_id":"4","last_reported":1679314446,"current_range_meters":31200,"station_id":"ce4bgup2rcd13ifvqcn0","pricing_plan_id":"free"},{"bike_id":"4e187126-b5d9-49aa-8f82-476ac7df2f3f","system_id":"levelo_inurba_marseille","lat":43.304606,"lon":5.379026,"is_reserved":false,"is_disabled":false,"rental_uris":{"android":"levelo://app?vid=4e187126-b5d9-49aa-8f82-476ac7df2f3f","ios":"levelo://app?vid=4e187126-b5d9-49aa-8f82-476ac7df2f3f"},"vehicle_type_id":"4","last_reported":1679314446,"current_range_meters":20000,"station_id":"ce4bgup2rcd13ifvqcn0","pricing_plan_id":"free"},{"bike_id":"4f539ebc-439d-4f33-84af-077bdc7feaef","system_id":"levelo_inurba_marseille","lat":43.299094,"lon":5.365415,"is_reserved":false,"is_disabled":false,"rental_uris":{"android":"levelo://app?vid=4f539ebc-439d-4f33-84af-077bdc7feaef","ios":"levelo://app?vid=4f539ebc-439d-4f33-84af-077bdc7feaef"},"vehicle_type_id":"4","last_reported":1679314446,"current_range_meters":15200,"station_id":"ce4bgm92rcd13ifvqbr0","pricing_plan_id":"free"},{"bike_id":"3ebba03b-f95a-416d-9132-63633ce2eba4","system_id":"levelo_inurba_marseille","lat":43.299094,"lon":5.365415,"is_reserved":false,"is_disabled":false,"rental_uris":{"android":"levelo://app?vid=3ebba03b-f95a-416d-9132-63633ce2eba4","ios":"levelo://app?vid=3ebba03b-f95a-416d-9132-63633ce2eba4"},"vehicle_type_id":"4","last_reported":1679314446,"current_range_meters":11600,"station_id":"ce4bgm92rcd13ifvqbr0","pricing_plan_id":"free"},{"bike_id":"068d06a9-27d9-4165-9cf1-d6c272c55d63","system_id":"levelo_inurba_marseille","lat":43.30588,"lon":5.38332,"is_reserved":false,"is_disabled":false,"rental_uris":{"android":"levelo://app?vid=068d06a9-27d9-4165-9cf1-d6c272c55d63","ios":"levelo://app?vid=068d06a9-27d9-4165-9cf1-d6c272c55d63"},"vehicle_type_id":"4","last_reported":1679314446,"current_range_meters":2400,"station_id":"","pricing_plan_id":"free"},{"bike_id":"01ffe7dd-532b-4f21-bec2-d405fecda320","system_id":"levelo_inurba_marseille","lat":43.32572,"lon":5.37453,"is_reserved":false,"is_disabled":false,"rental_uris":{"android":"levelo://app?vid=01ffe7dd-532b-4f21-bec2-d405fecda320","ios":"levelo://app?vid=01ffe7dd-532b-4f21-bec2-d405fecda320"},"vehicle_type_id":"4","last_reported":1679314446,"current_range_meters":13200,"station_id":"","pricing_plan_id":"free"},{"bike_id":"a3a4939d-8642-46a3-876d-c6a543fe1705","system_id":"levelo_inurba_marseille","lat":43.298433,"lon":5.362774,"is_reserved":false,"is_disabled":false,"rental_uris":{"android":"levelo://app?vid=a3a4939d-8642-46a3-876d-c6a543fe1705","ios":"levelo://app?vid=a3a4939d-8642-46a3-876d-c6a543fe1705"},"vehicle_type_id":"4","last_reported":1679314446,"current_range_meters":12000,"station_id":"ce4bgpp2rcd13ifvqc3g","pricing_plan_id":"free"},{"bike_id":"3a1bda86-630b-45ed-9275-59e32c7a9729","system_id":"levelo_inurba_marseille","lat":43.305364,"lon":5.384119,"is_reserved":false,"is_disabled":false,"rental_uris":{"android":"levelo://app?vid=3a1bda86-630b-45ed-9275-59e32c7a9729","ios":"levelo://app?vid=3a1bda86-630b-45ed-9275-59e32c7a9729"},"vehicle_type_id":"4","last_reported":1679314446,"current_range_meters":24800,"station_id":"ce4bgg92rcd13ifvqb30","pricing_plan_id":"free"},{"bike_id":"e1e535cc-6514-49c8-9f82-46e16b459d7a","system_id":"levelo_inurba_marseille","lat":43.311722,"lon":5.387247,"is_reserved":false,"is_disabled":false,"rental_uris":{"android":"levelo://app?vid=e1e535cc-6514-49c8-9f82-46e16b459d7a","ios":"levelo://app?vid=e1e535cc-6514-49c8-9f82-46e16b459d7a"},"vehicle_type_id":"4","last_reported":1679314446,"current_range_meters":800,"station_id":"ce4bgv12rcd13ifvqcp0","pricing_plan_id":"free"},{"bike_id":"3ba68082-d9f5-4627-80e9-5f5a61f24efe","system_id":"levelo_inurba_marseille","lat":43.311722,"lon":5.387247,"is_reserved":false,"is_disabled":false,"rental_uris":{"android":"levelo://app?vid=3ba68082-d9f5-4627-80e9-5f5a61f24efe","ios":"levelo://app?vid=3ba68082-d9f5-4627-80e9-5f5a61f24efe"},"vehicle_type_id":"4","last_reported":1679314446,"current_range_meters":26800,"station_id":"ce4bgv12rcd13ifvqcp0","pricing_plan_id":"free"},{"bike_id":"bb05728c-147f-4815-b04a-36742d22bf71","system_id":"levelo_inurba_marseille","lat":43.29785,"lon":5.371011,"is_reserved":false,"is_disabled":false,"rental_uris":{"android":"levelo://app?vid=bb05728c-147f-4815-b04a-36742d22bf71","ios":"levelo://app?vid=bb05728c-147f-4815-b04a-36742d22bf71"},"vehicle_type_id":"4","last_reported":1679314446,"current_range_meters":24800,"station_id":"ce4bgop2rcd13ifvqc1g","pricing_plan_id":"free"},{"bike_id":"6642481b-2504-4802-b6f7-14dc10605b88","system_id":"levelo_inurba_marseille","lat":43.298666,"lon":5.375755,"is_reserved":false,"is_disabled":false,"rental_uris":{"android":"levelo://app?vid=6642481b-2504-4802-b6f7-14dc10605b88","ios":"levelo://app?vid=6642481b-2504-4802-b6f7-14dc10605b88"},"vehicle_type_id":"4","last_reported":1679314446,"current_range_meters":18000,"station_id":"","pricing_plan_id":"free"},{"bike_id":"a46c9a94-2276-45ed-ad88-071530af8440","system_id":"levelo_inurba_marseille","lat":43.328371,"lon":5.366909,"is_reserved":false,"is_disabled":false,"rental_uris":{"android":"levelo://app?vid=a46c9a94-2276-45ed-ad88-071530af8440","ios":"levelo://app?vid=a46c9a94-2276-45ed-ad88-071530af8440"},"vehicle_type_id":"4","last_reported":1679314446,"current_range_meters":11200,"station_id":"ce4bhs92rcd13ifvqi0g","pricing_plan_id":"free"},{"bike_id":"7c86f585-0fba-41b8-96ea-a9167075828d","system_id":"levelo_inurba_marseille","lat":43.296921,"lon":5.376579,"is_reserved":false,"is_disabled":false,"rental_uris":{"android":"levelo://app?vid=7c86f585-0fba-41b8-96ea-a9167075828d","ios":"levelo://app?vid=7c86f585-0fba-41b8-96ea-a9167075828d"},"vehicle_type_id":"4","last_reported":1679314446,"current_range_meters":0,"station_id":"ce4bgkh2rcd13ifvqbl0","pricing_plan_id":"free"},{"bike_id":"67487124-c860-42c0-9c20-b5b052f983d9","system_id":"levelo_inurba_marseille","lat":43.296921,"lon":5.376579,"is_reserved":false,"is_disabled":false,"rental_uris":{"android":"levelo://app?vid=67487124-c860-42c0-9c20-b5b052f983d9","ios":"levelo://app?vid=67487124-c860-42c0-9c20-b5b052f983d9"},"vehicle_type_id":"4","last_reported":1679314446,"current_range_meters":10000,"station_id":"ce4bgkh2rcd13ifvqbl0","pricing_plan_id":"free"},{"bike_id":"e119b009-c2e9-4236-aea6-b4d406dd5872","system_id":"levelo_inurba_marseille","lat":43.309589,"lon":5.390258,"is_reserved":false,"is_disabled":false,"rental_uris":{"android":"levelo://app?vid=e119b009-c2e9-4236-aea6-b4d406dd5872","ios":"levelo://app?vid=e119b009-c2e9-4236-aea6-b4d406dd5872"},"vehicle_type_id":"4","last_reported":1679314446,"current_range_meters":24000,"station_id":"ce4bgup2rcd13ifvqco0","pricing_plan_id":"free"},{"bike_id":"1eb3ba08-ae16-4ea3-9939-570ddadf25bf","system_id":"levelo_inurba_marseille","lat":43.317557,"lon":5.390173,"is_reserved":false,"is_disabled":false,"rental_uris":{"android":"levelo://app?vid=1eb3ba08-ae16-4ea3-9939-570ddadf25bf","ios":"levelo://app?vid=1eb3ba08-ae16-4ea3-9939-570ddadf25bf"},"vehicle_type_id":"4","last_reported":1679314446,"current_range_meters":14000,"station_id":"ce4bhqp2rcd13ifvqhng","pricing_plan_id":"free"},{"bike_id":"041e1d06-602a-41bd-82af-6ca4a38b8fd0","system_id":"levelo_inurba_marseille","lat":43.299717,"lon":5.384845,"is_reserved":false,"is_disabled":false,"rental_uris":{"android":"levelo://app?vid=041e1d06-602a-41bd-82af-6ca4a38b8fd0","ios":"levelo://app?vid=041e1d06-602a-41bd-82af-6ca4a38b8fd0"},"vehicle_type_id":"4","last_reported":1679314446,"current_range_meters":26400,"station_id":"ce4bgj92rcd13ifvqbd0","pricing_plan_id":"free"},{"bike_id":"52bcf0cd-1e9e-4fa5-b433-7e5a56aea10c","system_id":"levelo_inurba_marseille","lat":43.29966,"lon":5.384845,"is_reserved":false,"is_disabled":false,"rental_uris":{"android":"levelo://app?vid=52bcf0cd-1e9e-4fa5-b433-7e5a56aea10c","ios":"levelo://app?vid=52bcf0cd-1e9e-4fa5-b433-7e5a56aea10c"},"vehicle_type_id":"4","last_reported":1679314446,"current_range_meters":0,"station_id":"","pricing_plan_id":"free"},{"bike_id":"35b28b1f-3504-4ca9-b2f8-4430b47d84ac","system_id":"levelo_inurba_marseille","lat":43.323624,"lon":5.388881,"is_reserved":false,"is_disabled":false,"rental_uris":{"android":"levelo://app?vid=35b28b1f-3504-4ca9-b2f8-4430b47d84ac","ios":"levelo://app?vid=35b28b1f-3504-4ca9-b2f8-4430b47d84ac"},"vehicle_type_id":"4","last_reported":1679314446,"current_range_meters":0,"station_id":"ce4bhqp2rcd13ifvqhog","pricing_plan_id":"free"},{"bike_id":"5439a8ad-a1ee-4098-abeb-f53341f22fe5","system_id":"levelo_inurba_marseille","lat":43.293249,"lon":5.371578,"is_reserved":false,"is_disabled":false,"rental_uris":{"android":"levelo://app?vid=5439a8ad-a1ee-4098-abeb-f53341f22fe5","ios":"levelo://app?vid=5439a8ad-a1ee-4098-abeb-f53341f22fe5"},"vehicle_type_id":"4","last_reported":1679314446,"current_range_meters":0,"station_id":"ce4bgh92rcd13ifvqb40","pricing_plan_id":"free"},{"bike_id":"2418d0eb-b3c3-4095-befc-b008e14490f1","system_id":"levelo_inurba_marseille","lat":43.293249,"lon":5.371578,"is_reserved":false,"is_disabled":false,"rental_uris":{"android":"levelo://app?vid=2418d0eb-b3c3-4095-befc-b008e14490f1","ios":"levelo://app?vid=2418d0eb-b3c3-4095-befc-b008e14490f1"},"vehicle_type_id":"4","last_reported":1679314446,"current_range_meters":7200,"station_id":"ce4bgh92rcd13ifvqb40","pricing_plan_id":"free"},{"bike_id":"f5ad82ed-e8ee-4de2-b6e6-730a528622f8","system_id":"levelo_inurba_marseille","lat":43.305994,"lon":5.393687,"is_reserved":false,"is_disabled":false,"rental_uris":{"android":"levelo://app?vid=f5ad82ed-e8ee-4de2-b6e6-730a528622f8","ios":"levelo://app?vid=f5ad82ed-e8ee-4de2-b6e6-730a528622f8"},"vehicle_type_id":"4","last_reported":1679314446,"current_range_meters":12400,"station_id":"ce4bh0p2rcd13ifvqd80","pricing_plan_id":"free"},{"bike_id":"48ff3b2d-7d88-4efa-9be7-1bf62386b621","system_id":"levelo_inurba_marseille","lat":43.305994,"lon":5.393687,"is_reserved":false,"is_disabled":false,"rental_uris":{"android":"levelo://app?vid=48ff3b2d-7d88-4efa-9be7-1bf62386b621","ios":"levelo://app?vid=48ff3b2d-7d88-4efa-9be7-1bf62386b621"},"vehicle_type_id":"4","last_reported":1679314446,"current_range_meters":20800,"station_id":"ce4bh0p2rcd13ifvqd80","pricing_plan_id":"free"},{"bike_id":"4f882ff1-dc6b-41b2-9327-d75ba525fb0a","system_id":"levelo_inurba_marseille","lat":43.2936,"lon":5.37835,"is_reserved":false,"is_disabled":false,"rental_uris":{"android":"levelo://app?vid=4f882ff1-dc6b-41b2-9327-d75ba525fb0a","ios":"levelo://app?vid=4f882ff1-dc6b-41b2-9327-d75ba525fb0a"},"vehicle_type_id":"4","last_reported":1679314446,"current_range_meters":20000,"station_id":"ce4bgjh2rcd13ifvqbf0","pricing_plan_id":"free"},{"bike_id":"647aa8bd-712d-4ab7-9629-ee64134e119e","system_id":"levelo_inurba_marseille","lat":43.292311,"lon":5.360731,"is_reserved":false,"is_disabled":false,"rental_uris":{"android":"levelo://app?vid=647aa8bd-712d-4ab7-9629-ee64134e119e","ios":"levelo://app?vid=647aa8bd-712d-4ab7-9629-ee64134e119e"},"vehicle_type_id":"4","last_reported":1679314446,"current_range_meters":23600,"station_id":"ce4bhbh2rcd13ifvqeqg","pricing_plan_id":"free"},{"bike_id":"c2a19da1-7245-47a4-8dc0-ba4c5c8a0bbc","system_id":"levelo_inurba_marseille","lat":43.292311,"lon":5.360731,"is_reserved":false,"is_disabled":false,"rental_uris":{"android":"levelo://app?vid=c2a19da1-7245-47a4-8dc0-ba4c5c8a0bbc","ios":"levelo://app?vid=c2a19da1-7245-47a4-8dc0-ba4c5c8a0bbc"},"vehicle_type_id":"4","last_reported":1679314446,"current_range_meters":31600,"station_id":"ce4bhbh2rcd13ifvqeqg","pricing_plan_id":"free"},{"bike_id":"31d8040e-cb70-4ea9-a21f-577eee7f0b2c","system_id":"levelo_inurba_marseille","lat":43.292279,"lon":5.360619,"is_reserved":false,"is_disabled":false,"rental_uris":{"android":"levelo://app?vid=31d8040e-cb70-4ea9-a21f-577eee7f0b2c","ios":"levelo://app?vid=31d8040e-cb70-4ea9-a21f-577eee7f0b2c"},"vehicle_type_id":"4","last_reported":1679314446,"current_range_meters":27600,"station_id":"ce4bhbh2rcd13ifvqeqg","pricing_plan_id":"free"},{"bike_id":"8012e1a4-80fd-4e93-b995-68445c96aeb1","system_id":"levelo_inurba_marseille","lat":43.292311,"lon":5.360731,"is_reserved":false,"is_disabled":false,"rental_uris":{"android":"levelo://app?vid=8012e1a4-80fd-4e93-b995-68445c96aeb1","ios":"levelo://app?vid=8012e1a4-80fd-4e93-b995-68445c96aeb1"},"vehicle_type_id":"4","last_reported":1679314446,"current_range_meters":9200,"station_id":"ce4bhbh2rcd13ifvqeqg","pricing_plan_id":"free"},{"bike_id":"1a6668d5-f3a4-423d-8ddc-97fdc9791cce","system_id":"levelo_inurba_marseille","lat":43.292311,"lon":5.360731,"is_reserved":false,"is_disabled":false,"rental_uris":{"android":"levelo://app?vid=1a6668d5-f3a4-423d-8ddc-97fdc9791cce","ios":"levelo://app?vid=1a6668d5-f3a4-423d-8ddc-97fdc9791cce"},"vehicle_type_id":"4","last_reported":1679314446,"current_range_meters":30800,"station_id":"ce4bhbh2rcd13ifvqeqg","pricing_plan_id":"free"},{"bike_id":"db0786ff-440e-4b0c-bf46-1b1cd63f7871","system_id":"levelo_inurba_marseille","lat":43.292311,"lon":5.360731,"is_reserved":false,"is_disabled":false,"rental_uris":{"android":"levelo://app?vid=db0786ff-440e-4b0c-bf46-1b1cd63f7871","ios":"levelo://app?vid=db0786ff-440e-4b0c-bf46-1b1cd63f7871"},"vehicle_type_id":"4","last_reported":1679314446,"current_range_meters":21600,"station_id":"ce4bhbh2rcd13ifvqeqg","pricing_plan_id":"free"},{"bike_id":"66c63f96-ed06-4172-9668-caedd12c7ae7","system_id":"levelo_inurba_marseille","lat":43.292311,"lon":5.360731,"is_reserved":false,"is_disabled":false,"rental_uris":{"android":"levelo://app?vid=66c63f96-ed06-4172-9668-caedd12c7ae7","ios":"levelo://app?vid=66c63f96-ed06-4172-9668-caedd12c7ae7"},"vehicle_type_id":"4","last_reported":1679314446,"current_range_meters":30400,"station_id":"ce4bhbh2rcd13ifvqeqg","pricing_plan_id":"free"},{"bike_id":"3761e804-735b-433b-9f79-f1ec55f96df9","system_id":"levelo_inurba_marseille","lat":43.292311,"lon":5.360731,"is_reserved":false,"is_disabled":false,"rental_uris":{"android":"levelo://app?vid=3761e804-735b-433b-9f79-f1ec55f96df9","ios":"levelo://app?vid=3761e804-735b-433b-9f79-f1ec55f96df9"},"vehicle_type_id":"4","last_reported":1679314446,"current_range_meters":23200,"station_id":"ce4bhbh2rcd13ifvqeqg","pricing_plan_id":"free"},{"bike_id":"87cd55d7-424f-45b9-bcd9-96bf5268f39f","system_id":"levelo_inurba_marseille","lat":43.293009,"lon":5.374584,"is_reserved":false,"is_disabled":false,"rental_uris":{"android":"levelo://app?vid=87cd55d7-424f-45b9-bcd9-96bf5268f39f","ios":"levelo://app?vid=87cd55d7-424f-45b9-bcd9-96bf5268f39f"},"vehicle_type_id":"4","last_reported":1679314446,"current_range_meters":24800,"station_id":"ce4bgi12rcd13ifvqb70","pricing_plan_id":"free"},{"bike_id":"ff29b740-b52f-4b9a-a6d2-4f3fa5c8379c","system_id":"levelo_inurba_marseille","lat":43.293009,"lon":5.374584,"is_reserved":false,"is_disabled":false,"rental_uris":{"android":"levelo://app?vid=ff29b740-b52f-4b9a-a6d2-4f3fa5c8379c","ios":"levelo://app?vid=ff29b740-b52f-4b9a-a6d2-4f3fa5c8379c"},"vehicle_type_id":"4","last_reported":1679314446,"current_range_meters":12000,"station_id":"ce4bgi12rcd13ifvqb70","pricing_plan_id":"free"},{"bike_id":"c1190db0-4f31-4c85-894c-eea4213f7dc3","system_id":"levelo_inurba_marseille","lat":43.293009,"lon":5.374584,"is_reserved":false,"is_disabled":false,"rental_uris":{"android":"levelo://app?vid=c1190db0-4f31-4c85-894c-eea4213f7dc3","ios":"levelo://app?vid=c1190db0-4f31-4c85-894c-eea4213f7dc3"},"vehicle_type_id":"4","last_reported":1679314446,"current_range_meters":16800,"station_id":"ce4bgi12rcd13ifvqb70","pricing_plan_id":"free"},{"bike_id":"cbe0c142-22a8-4f55-ba13-acec615524e4","system_id":"levelo_inurba_marseille","lat":43.29884,"lon":5.389023,"is_reserved":false,"is_disabled":false,"rental_uris":{"android":"levelo://app?vid=cbe0c142-22a8-4f55-ba13-acec615524e4","ios":"levelo://app?vid=cbe0c142-22a8-4f55-ba13-acec615524e4"},"vehicle_type_id":"4","last_reported":1679314446,"current_range_meters":800,"station_id":"ce4bgih2rcd13ifvqba0","pricing_plan_id":"free"},{"bike_id":"d36bfb7a-68f7-4d68-b021-1a9f2494aa1f","system_id":"levelo_inurba_marseille","lat":43.29529,"lon":5.385581,"is_reserved":false,"is_disabled":false,"rental_uris":{"android":"levelo://app?vid=d36bfb7a-68f7-4d68-b021-1a9f2494aa1f","ios":"levelo://app?vid=d36bfb7a-68f7-4d68-b021-1a9f2494aa1f"},"vehicle_type_id":"4","last_reported":1679314446,"current_range_meters":16800,"station_id":"ce4bgih2rcd13ifvqba0","pricing_plan_id":"free"},{"bike_id":"9befc766-1c9c-4a75-a271-da98bdbf4048","system_id":"levelo_inurba_marseille","lat":43.29529,"lon":5.385581,"is_reserved":false,"is_disabled":false,"rental_uris":{"android":"levelo://app?vid=9befc766-1c9c-4a75-a271-da98bdbf4048","ios":"levelo://app?vid=9befc766-1c9c-4a75-a271-da98bdbf4048"},"vehicle_type_id":"4","last_reported":1679314446,"current_range_meters":18800,"station_id":"ce4bgih2rcd13ifvqba0","pricing_plan_id":"free"},{"bike_id":"2bcc4d33-fcbf-408a-96d3-51e8a29f51b1","system_id":"levelo_inurba_marseille","lat":43.290797,"lon":5.357323,"is_reserved":false,"is_disabled":false,"rental_uris":{"android":"levelo://app?vid=2bcc4d33-fcbf-408a-96d3-51e8a29f51b1","ios":"levelo://app?vid=2bcc4d33-fcbf-408a-96d3-51e8a29f51b1"},"vehicle_type_id":"4","last_reported":1679314446,"current_range_meters":18400,"station_id":"","pricing_plan_id":"free"},{"bike_id":"78f5dea0-fed7-4468-932b-b68ea61dd336","system_id":"levelo_inurba_marseille","lat":43.290319,"lon":5.375732,"is_reserved":false,"is_disabled":false,"rental_uris":{"android":"levelo://app?vid=78f5dea0-fed7-4468-932b-b68ea61dd336","ios":"levelo://app?vid=78f5dea0-fed7-4468-932b-b68ea61dd336"},"vehicle_type_id":"4","last_reported":1679314446,"current_range_meters":2400,"station_id":"ce4bh692rcd13ifvqe90","pricing_plan_id":"free"},{"bike_id":"00b6b489-d207-459c-929b-055c3eea7774","system_id":"levelo_inurba_marseille","lat":43.304274,"lon":5.397513,"is_reserved":false,"is_disabled":false,"rental_uris":{"android":"levelo://app?vid=00b6b489-d207-459c-929b-055c3eea7774","ios":"levelo://app?vid=00b6b489-d207-459c-929b-055c3eea7774"},"vehicle_type_id":"4","last_reported":1679314446,"current_range_meters":31600,"station_id":"ce4bh092rcd13ifvqd20","pricing_plan_id":"free"},{"bike_id":"95274fff-e2e1-492f-9dba-53b8f10bb44f","system_id":"levelo_inurba_marseille","lat":43.290104,"lon":5.356111,"is_reserved":false,"is_disabled":false,"rental_uris":{"android":"levelo://app?vid=95274fff-e2e1-492f-9dba-53b8f10bb44f","ios":"levelo://app?vid=95274fff-e2e1-492f-9dba-53b8f10bb44f"},"vehicle_type_id":"4","last_reported":1679314446,"current_range_meters":18400,"station_id":"ce4bhb92rcd13ifvqen0","pricing_plan_id":"free"},{"bike_id":"17eca480-0391-419f-a382-232ddfdfc3e8","system_id":"levelo_inurba_marseille","lat":43.272116,"lon":5.391747,"is_reserved":false,"is_disabled":false,"rental_uris":{"android":"levelo://app?vid=17eca480-0391-419f-a382-232ddfdfc3e8","ios":"levelo://app?vid=17eca480-0391-419f-a382-232ddfdfc3e8"},"vehicle_type_id":"4","last_reported":1679314446,"current_range_meters":29600,"station_id":"ce4bhhp2rcd13ifvqfm0","pricing_plan_id":"free"},{"bike_id":"e943ea30-a534-450d-bced-6d35d11176fe","system_id":"levelo_inurba_marseille","lat":43.290104,"lon":5.356111,"is_reserved":false,"is_disabled":false,"rental_uris":{"android":"levelo://app?vid=e943ea30-a534-450d-bced-6d35d11176fe","ios":"levelo://app?vid=e943ea30-a534-450d-bced-6d35d11176fe"},"vehicle_type_id":"4","last_reported":1679314446,"current_range_meters":16800,"station_id":"ce4bhb92rcd13ifvqen0","pricing_plan_id":"free"},{"bike_id":"432145f4-53a3-4f30-a562-d594f8d9ce52","system_id":"levelo_inurba_marseille","lat":43.272116,"lon":5.391747,"is_reserved":false,"is_disabled":false,"rental_uris":{"android":"levelo://app?vid=432145f4-53a3-4f30-a562-d594f8d9ce52","ios":"levelo://app?vid=432145f4-53a3-4f30-a562-d594f8d9ce52"},"vehicle_type_id":"4","last_reported":1679314446,"current_range_meters":25600,"station_id":"ce4bhhp2rcd13ifvqfm0","pricing_plan_id":"free"},{"bike_id":"f28ba38b-dd60-44f3-be2b-893e5fe413a1","system_id":"levelo_inurba_marseille","lat":43.29101,"lon":5.38135,"is_reserved":false,"is_disabled":false,"rental_uris":{"android":"levelo://app?vid=f28ba38b-dd60-44f3-be2b-893e5fe413a1","ios":"levelo://app?vid=f28ba38b-dd60-44f3-be2b-893e5fe413a1"},"vehicle_type_id":"4","last_reported":1679314446,"current_range_meters":1600,"station_id":"","pricing_plan_id":"free"},{"bike_id":"6c608276-650e-4ac5-b303-5843469d30e8","system_id":"levelo_inurba_marseille","lat":43.290995,"lon":5.381361,"is_reserved":false,"is_disabled":false,"rental_uris":{"android":"levelo://app?vid=6c608276-650e-4ac5-b303-5843469d30e8","ios":"levelo://app?vid=6c608276-650e-4ac5-b303-5843469d30e8"},"vehicle_type_id":"4","last_reported":1679314446,"current_range_meters":27200,"station_id":"ce4bh512rcd13ifvqe2g","pricing_plan_id":"free"},{"bike_id":"27970d83-bf4c-460c-899f-1ad9e58fa5eb","system_id":"levelo_inurba_marseille","lat":43.290995,"lon":5.381361,"is_reserved":false,"is_disabled":false,"rental_uris":{"android":"levelo://app?vid=27970d83-bf4c-460c-899f-1ad9e58fa5eb","ios":"levelo://app?vid=27970d83-bf4c-460c-899f-1ad9e58fa5eb"},"vehicle_type_id":"4","last_reported":1679314446,"current_range_meters":16000,"station_id":"ce4bh512rcd13ifvqe2g","pricing_plan_id":"free"},{"bike_id":"d33b4f82-b74d-4647-a068-28453cdbd55d","system_id":"levelo_inurba_marseille","lat":43.28856,"lon":5.358371,"is_reserved":false,"is_disabled":false,"rental_uris":{"android":"levelo://app?vid=d33b4f82-b74d-4647-a068-28453cdbd55d","ios":"levelo://app?vid=d33b4f82-b74d-4647-a068-28453cdbd55d"},"vehicle_type_id":"4","last_reported":1679314446,"current_range_meters":20000,"station_id":"ce4bhb12rcd13ifvqem0","pricing_plan_id":"free"},{"bike_id":"1a530478-7456-44ca-8ea3-7e7421e961ed","system_id":"levelo_inurba_marseille","lat":43.28851,"lon":5.35861,"is_reserved":false,"is_disabled":false,"rental_uris":{"android":"levelo://app?vid=1a530478-7456-44ca-8ea3-7e7421e961ed","ios":"levelo://app?vid=1a530478-7456-44ca-8ea3-7e7421e961ed"},"vehicle_type_id":"4","last_reported":1679314446,"current_range_meters":19200,"station_id":"ce4bhb12rcd13ifvqem0","pricing_plan_id":"free"},{"bike_id":"b6459f29-2664-4a48-bc5d-a4d25c13e60b","system_id":"levelo_inurba_marseille","lat":43.30642,"lon":5.401031,"is_reserved":false,"is_disabled":false,"rental_uris":{"android":"levelo://app?vid=b6459f29-2664-4a48-bc5d-a4d25c13e60b","ios":"levelo://app?vid=b6459f29-2664-4a48-bc5d-a4d25c13e60b"},"vehicle_type_id":"4","last_reported":1679314446,"current_range_meters":13600,"station_id":"ce4bh112rcd13ifvqda0","pricing_plan_id":"free"},{"bike_id":"da031352-dd73-46bb-ac10-70e0d3f05bfa","system_id":"levelo_inurba_marseille","lat":43.30642,"lon":5.401031,"is_reserved":false,"is_disabled":false,"rental_uris":{"android":"levelo://app?vid=da031352-dd73-46bb-ac10-70e0d3f05bfa","ios":"levelo://app?vid=da031352-dd73-46bb-ac10-70e0d3f05bfa"},"vehicle_type_id":"4","last_reported":1679314446,"current_range_meters":28800,"station_id":"ce4bh112rcd13ifvqda0","pricing_plan_id":"free"},{"bike_id":"3488d44e-6f3d-480c-81e5-cf0240a54dae","system_id":"levelo_inurba_marseille","lat":43.286593,"lon":5.363346,"is_reserved":false,"is_disabled":false,"rental_uris":{"android":"levelo://app?vid=3488d44e-6f3d-480c-81e5-cf0240a54dae","ios":"levelo://app?vid=3488d44e-6f3d-480c-81e5-cf0240a54dae"},"vehicle_type_id":"4","last_reported":1679314446,"current_range_meters":12400,"station_id":"ce4bhah2rcd13ifvqej0","pricing_plan_id":"free"},{"bike_id":"0c9dea4d-e10e-4a09-a296-848389d565ac","system_id":"levelo_inurba_marseille","lat":43.295123,"lon":5.394066,"is_reserved":false,"is_disabled":false,"rental_uris":{"android":"levelo://app?vid=0c9dea4d-e10e-4a09-a296-848389d565ac","ios":"levelo://app?vid=0c9dea4d-e10e-4a09-a296-848389d565ac"},"vehicle_type_id":"4","last_reported":1679314446,"current_range_meters":0,"station_id":"ce4bh292rcd13ifvqdf0","pricing_plan_id":"free"},{"bike_id":"2d9117ac-d1fc-4cae-953f-68a88cce55a2","system_id":"levelo_inurba_marseille","lat":43.300749,"lon":5.399592,"is_reserved":false,"is_disabled":false,"rental_uris":{"android":"levelo://app?vid=2d9117ac-d1fc-4cae-953f-68a88cce55a2","ios":"levelo://app?vid=2d9117ac-d1fc-4cae-953f-68a88cce55a2"},"vehicle_type_id":"4","last_reported":1679314446,"current_range_meters":0,"station_id":"","pricing_plan_id":"free"},{"bike_id":"46b3f5c2-7868-4e54-920e-73c9bd4a18c2","system_id":"levelo_inurba_marseille","lat":43.286039,"lon":5.370679,"is_reserved":false,"is_disabled":false,"rental_uris":{"android":"levelo://app?vid=46b3f5c2-7868-4e54-920e-73c9bd4a18c2","ios":"levelo://app?vid=46b3f5c2-7868-4e54-920e-73c9bd4a18c2"},"vehicle_type_id":"4","last_reported":1679314446,"current_range_meters":26000,"station_id":"ce4bht12rcd13ifvqi60","pricing_plan_id":"free"},{"bike_id":"451e675e-b18b-4590-9270-dfc86f4dd89a","system_id":"levelo_inurba_marseille","lat":43.286128,"lon":5.370664,"is_reserved":false,"is_disabled":false,"rental_uris":{"android":"levelo://app?vid=451e675e-b18b-4590-9270-dfc86f4dd89a","ios":"levelo://app?vid=451e675e-b18b-4590-9270-dfc86f4dd89a"},"vehicle_type_id":"4","last_reported":1679314446,"current_range_meters":16400,"station_id":"ce4bht12rcd13ifvqi60","pricing_plan_id":"free"},{"bike_id":"b3f29ed6-7cdf-4afb-bed5-9bf3633ee038","system_id":"levelo_inurba_marseille","lat":43.286039,"lon":5.370679,"is_reserved":false,"is_disabled":false,"rental_uris":{"android":"levelo://app?vid=b3f29ed6-7cdf-4afb-bed5-9bf3633ee038","ios":"levelo://app?vid=b3f29ed6-7cdf-4afb-bed5-9bf3633ee038"},"vehicle_type_id":"4","last_reported":1679314446,"current_range_meters":18800,"station_id":"ce4bht12rcd13ifvqi60","pricing_plan_id":"free"},{"bike_id":"efda364f-db0b-4e65-ab7c-8527e28dcd85","system_id":"levelo_inurba_marseille","lat":43.286039,"lon":5.370679,"is_reserved":false,"is_disabled":false,"rental_uris":{"android":"levelo://app?vid=efda364f-db0b-4e65-ab7c-8527e28dcd85","ios":"levelo://app?vid=efda364f-db0b-4e65-ab7c-8527e28dcd85"},"vehicle_type_id":"4","last_reported":1679314446,"current_range_meters":9200,"station_id":"ce4bht12rcd13ifvqi60","pricing_plan_id":"free"},{"bike_id":"8211271a-0d31-4fa9-b2ee-793fac1a6fe9","system_id":"levelo_inurba_marseille","lat":43.287184,"lon":5.37937,"is_reserved":false,"is_disabled":false,"rental_uris":{"android":"levelo://app?vid=8211271a-0d31-4fa9-b2ee-793fac1a6fe9","ios":"levelo://app?vid=8211271a-0d31-4fa9-b2ee-793fac1a6fe9"},"vehicle_type_id":"4","last_reported":1679314446,"current_range_meters":6000,"station_id":"ce4bh9p2rcd13ifvqec0","pricing_plan_id":"free"},{"bike_id":"14e3e8d4-8680-4c61-8578-844c48129ca9","system_id":"levelo_inurba_marseille","lat":43.28713,"lon":5.3792,"is_reserved":false,"is_disabled":false,"rental_uris":{"android":"levelo://app?vid=14e3e8d4-8680-4c61-8578-844c48129ca9","ios":"levelo://app?vid=14e3e8d4-8680-4c61-8578-844c48129ca9"},"vehicle_type_id":"4","last_reported":1679314446,"current_range_meters":16400,"station_id":"","pricing_plan_id":"free"},{"bike_id":"b9206c67-9a71-44f4-95a7-b7ecdfc64b99","system_id":"levelo_inurba_marseille","lat":43.287184,"lon":5.37937,"is_reserved":false,"is_disabled":false,"rental_uris":{"android":"levelo://app?vid=b9206c67-9a71-44f4-95a7-b7ecdfc64b99","ios":"levelo://app?vid=b9206c67-9a71-44f4-95a7-b7ecdfc64b99"},"vehicle_type_id":"4","last_reported":1679314446,"current_range_meters":16400,"station_id":"ce4bh9p2rcd13ifvqec0","pricing_plan_id":"free"},{"bike_id":"fa5807b8-c96d-4958-81b8-e44505868a3c","system_id":"levelo_inurba_marseille","lat":43.31641,"lon":5.404387,"is_reserved":false,"is_disabled":false,"rental_uris":{"android":"levelo://app?vid=fa5807b8-c96d-4958-81b8-e44505868a3c","ios":"levelo://app?vid=fa5807b8-c96d-4958-81b8-e44505868a3c"},"vehicle_type_id":"4","last_reported":1679314446,"current_range_meters":20000,"station_id":"","pricing_plan_id":"free"},{"bike_id":"bd9b1221-b608-42aa-aab1-3df0620253c3","system_id":"levelo_inurba_marseille","lat":43.30032,"lon":5.40104,"is_reserved":false,"is_disabled":false,"rental_uris":{"android":"levelo://app?vid=bd9b1221-b608-42aa-aab1-3df0620253c3","ios":"levelo://app?vid=bd9b1221-b608-42aa-aab1-3df0620253c3"},"vehicle_type_id":"4","last_reported":1679314446,"current_range_meters":25200,"station_id":"ce4bhnp2rcd13ifvqgvg","pricing_plan_id":"free"},{"bike_id":"5267551e-0b50-438f-8e42-7e6ae5252b76","system_id":"levelo_inurba_marseille","lat":43.33717,"lon":5.391857,"is_reserved":false,"is_disabled":false,"rental_uris":{"android":"levelo://app?vid=5267551e-0b50-438f-8e42-7e6ae5252b76","ios":"levelo://app?vid=5267551e-0b50-438f-8e42-7e6ae5252b76"},"vehicle_type_id":"4","last_reported":1679314446,"current_range_meters":31600,"station_id":"ce4bhr92rcd13ifvqhsg","pricing_plan_id":"free"},{"bike_id":"9fe845fd-f453-4e00-82a1-bd49e502af83","system_id":"levelo_inurba_marseille","lat":43.284787,"lon":5.384116,"is_reserved":false,"is_disabled":false,"rental_uris":{"android":"levelo://app?vid=9fe845fd-f453-4e00-82a1-bd49e502af83","ios":"levelo://app?vid=9fe845fd-f453-4e00-82a1-bd49e502af83"},"vehicle_type_id":"4","last_reported":1679314446,"current_range_meters":27200,"station_id":"ce4bh512rcd13ifvqe3g","pricing_plan_id":"free"},{"bike_id":"fc14de17-b60b-4c4d-a452-af24b0ac44c1","system_id":"levelo_inurba_marseille","lat":43.284768,"lon":5.384266,"is_reserved":false,"is_disabled":false,"rental_uris":{"android":"levelo://app?vid=fc14de17-b60b-4c4d-a452-af24b0ac44c1","ios":"levelo://app?vid=fc14de17-b60b-4c4d-a452-af24b0ac44c1"},"vehicle_type_id":"4","last_reported":1679314446,"current_range_meters":22000,"station_id":"ce4bh512rcd13ifvqe3g","pricing_plan_id":"free"},{"bike_id":"9ab1585e-b6db-4d1a-b68b-b1dd790f0e17","system_id":"levelo_inurba_marseille","lat":43.289363,"lon":5.396322,"is_reserved":false,"is_disabled":false,"rental_uris":{"android":"levelo://app?vid=9ab1585e-b6db-4d1a-b68b-b1dd790f0e17","ios":"levelo://app?vid=9ab1585e-b6db-4d1a-b68b-b1dd790f0e17"},"vehicle_type_id":"4","last_reported":1679314446,"current_range_meters":10800,"station_id":"ce4bh3h2rcd13ifvqdn0","pricing_plan_id":"free"},{"bike_id":"4f37a183-7972-4771-8e7e-1e9dd3829415","system_id":"levelo_inurba_marseille","lat":43.29269,"lon":5.40112,"is_reserved":false,"is_disabled":false,"rental_uris":{"android":"levelo://app?vid=4f37a183-7972-4771-8e7e-1e9dd3829415","ios":"levelo://app?vid=4f37a183-7972-4771-8e7e-1e9dd3829415"},"vehicle_type_id":"4","last_reported":1679314446,"current_range_meters":30400,"station_id":"ce4bh312rcd13ifvqdk0","pricing_plan_id":"free"},{"bike_id":"b04cdd97-f9be-4785-991e-e292ffea6a5a","system_id":"levelo_inurba_marseille","lat":43.282754,"lon":5.350519,"is_reserved":false,"is_disabled":false,"rental_uris":{"android":"levelo://app?vid=b04cdd97-f9be-4785-991e-e292ffea6a5a","ios":"levelo://app?vid=b04cdd97-f9be-4785-991e-e292ffea6a5a"},"vehicle_type_id":"4","last_reported":1679314446,"current_range_meters":23200,"station_id":"ce4bhbp2rcd13ifvqerg","pricing_plan_id":"free"},{"bike_id":"b5c417bd-d7ca-4129-9fb5-2dc2b12116fb","system_id":"levelo_inurba_marseille","lat":43.283502,"lon":5.386471,"is_reserved":false,"is_disabled":false,"rental_uris":{"android":"levelo://app?vid=b5c417bd-d7ca-4129-9fb5-2dc2b12116fb","ios":"levelo://app?vid=b5c417bd-d7ca-4129-9fb5-2dc2b12116fb"},"vehicle_type_id":"4","last_reported":1679314446,"current_range_meters":30400,"station_id":"ce4bh492rcd13ifvqdvg","pricing_plan_id":"free"},{"bike_id":"de160046-ad6d-43e6-b752-06622b362b3a","system_id":"levelo_inurba_marseille","lat":43.28039,"lon":5.369297,"is_reserved":false,"is_disabled":false,"rental_uris":{"android":"levelo://app?vid=de160046-ad6d-43e6-b752-06622b362b3a","ios":"levelo://app?vid=de160046-ad6d-43e6-b752-06622b362b3a"},"vehicle_type_id":"4","last_reported":1679314446,"current_range_meters":27200,"station_id":"ce4bha12rcd13ifvqef0","pricing_plan_id":"free"},{"bike_id":"9a8d16d8-805a-414e-b116-53cefeba9a15","system_id":"levelo_inurba_marseille","lat":43.296263,"lon":5.40601,"is_reserved":false,"is_disabled":false,"rental_uris":{"android":"levelo://app?vid=9a8d16d8-805a-414e-b116-53cefeba9a15","ios":"levelo://app?vid=9a8d16d8-805a-414e-b116-53cefeba9a15"},"vehicle_type_id":"4","last_reported":1679314446,"current_range_meters":3200,"station_id":"ce4bh0h2rcd13ifvqd60","pricing_plan_id":"free"},{"bike_id":"e16f4a40-8489-41b0-97b5-89d8dd640b57","system_id":"levelo_inurba_marseille","lat":43.284462,"lon":5.392121,"is_reserved":false,"is_disabled":false,"rental_uris":{"android":"levelo://app?vid=e16f4a40-8489-41b0-97b5-89d8dd640b57","ios":"levelo://app?vid=e16f4a40-8489-41b0-97b5-89d8dd640b57"},"vehicle_type_id":"4","last_reported":1679314446,"current_range_meters":17600,"station_id":"ce4bhoh2rcd13ifvqh5g","pricing_plan_id":"free"},{"bike_id":"31c50dd7-8fad-428d-81d7-7b97a52959b1","system_id":"levelo_inurba_marseille","lat":43.287783,"lon":5.398858,"is_reserved":false,"is_disabled":false,"rental_uris":{"android":"levelo://app?vid=31c50dd7-8fad-428d-81d7-7b97a52959b1","ios":"levelo://app?vid=31c50dd7-8fad-428d-81d7-7b97a52959b1"},"vehicle_type_id":"4","last_reported":1679314446,"current_range_meters":0,"station_id":"","pricing_plan_id":"free"},{"bike_id":"9de94277-975e-4e84-b4da-6ad461027688","system_id":"levelo_inurba_marseille","lat":43.304188,"lon":5.412904,"is_reserved":false,"is_disabled":false,"rental_uris":{"android":"levelo://app?vid=9de94277-975e-4e84-b4da-6ad461027688","ios":"levelo://app?vid=9de94277-975e-4e84-b4da-6ad461027688"},"vehicle_type_id":"4","last_reported":1679314446,"current_range_meters":19600,"station_id":"ce4bhop2rcd13ifvqh8g","pricing_plan_id":"free"},{"bike_id":"eb2c466e-6860-4f25-8708-f9b534f86448","system_id":"levelo_inurba_marseille","lat":43.304188,"lon":5.412904,"is_reserved":false,"is_disabled":false,"rental_uris":{"android":"levelo://app?vid=eb2c466e-6860-4f25-8708-f9b534f86448","ios":"levelo://app?vid=eb2c466e-6860-4f25-8708-f9b534f86448"},"vehicle_type_id":"4","last_reported":1679314446,"current_range_meters":21600,"station_id":"ce4bhop2rcd13ifvqh8g","pricing_plan_id":"free"},{"bike_id":"4b681e5b-e8a9-45e3-a09c-c7e8e4189b71","system_id":"levelo_inurba_marseille","lat":43.304188,"lon":5.412904,"is_reserved":false,"is_disabled":false,"rental_uris":{"android":"levelo://app?vid=4b681e5b-e8a9-45e3-a09c-c7e8e4189b71","ios":"levelo://app?vid=4b681e5b-e8a9-45e3-a09c-c7e8e4189b71"},"vehicle_type_id":"4","last_reported":1679314446,"current_range_meters":20000,"station_id":"ce4bhop2rcd13ifvqh8g","pricing_plan_id":"free"},{"bike_id":"1f8c1ac7-ce2b-4aa8-a7d3-9cb53f19bfe9","system_id":"levelo_inurba_marseille","lat":43.287154,"lon":5.399979,"is_reserved":false,"is_disabled":false,"rental_uris":{"android":"levelo://app?vid=1f8c1ac7-ce2b-4aa8-a7d3-9cb53f19bfe9","ios":"levelo://app?vid=1f8c1ac7-ce2b-4aa8-a7d3-9cb53f19bfe9"},"vehicle_type_id":"4","last_reported":1679314446,"current_range_meters":28800,"station_id":"ce4bho92rcd13ifvqh3g","pricing_plan_id":"free"},{"bike_id":"032e9004-3b2f-4a3d-bdfd-120e19c9b728","system_id":"levelo_inurba_marseille","lat":43.287154,"lon":5.399979,"is_reserved":false,"is_disabled":false,"rental_uris":{"android":"levelo://app?vid=032e9004-3b2f-4a3d-bdfd-120e19c9b728","ios":"levelo://app?vid=032e9004-3b2f-4a3d-bdfd-120e19c9b728"},"vehicle_type_id":"4","last_reported":1679314446,"current_range_meters":17200,"station_id":"ce4bho92rcd13ifvqh3g","pricing_plan_id":"free"},{"bike_id":"cb793134-f21e-43c6-b21f-a2efb8b551f2","system_id":"levelo_inurba_marseille","lat":43.32032,"lon":5.41545,"is_reserved":false,"is_disabled":false,"rental_uris":{"android":"levelo://app?vid=cb793134-f21e-43c6-b21f-a2efb8b551f2","ios":"levelo://app?vid=cb793134-f21e-43c6-b21f-a2efb8b551f2"},"vehicle_type_id":"4","last_reported":1679314446,"current_range_meters":7600,"station_id":"","pricing_plan_id":"free"},{"bike_id":"ee24bdf3-3d3f-41c0-b8d0-b5a6657f2bdc","system_id":"levelo_inurba_marseille","lat":43.279742,"lon":5.38744,"is_reserved":false,"is_disabled":false,"rental_uris":{"android":"levelo://app?vid=ee24bdf3-3d3f-41c0-b8d0-b5a6657f2bdc","ios":"levelo://app?vid=ee24bdf3-3d3f-41c0-b8d0-b5a6657f2bdc"},"vehicle_type_id":"4","last_reported":1679314446,"current_range_meters":13600,"station_id":"ce4bhg12rcd13ifvqf80","pricing_plan_id":"free"},{"bike_id":"3b1f5255-01f1-4ad5-9fdf-22b94ab7de89","system_id":"levelo_inurba_marseille","lat":43.279742,"lon":5.38744,"is_reserved":false,"is_disabled":false,"rental_uris":{"android":"levelo://app?vid=3b1f5255-01f1-4ad5-9fdf-22b94ab7de89","ios":"levelo://app?vid=3b1f5255-01f1-4ad5-9fdf-22b94ab7de89"},"vehicle_type_id":"4","last_reported":1679314446,"current_range_meters":21200,"station_id":"ce4bhg12rcd13ifvqf80","pricing_plan_id":"free"},{"bike_id":"762f8075-2e7f-4fd4-a36b-65a4d7cbad79","system_id":"levelo_inurba_marseille","lat":43.279742,"lon":5.38744,"is_reserved":false,"is_disabled":false,"rental_uris":{"android":"levelo://app?vid=762f8075-2e7f-4fd4-a36b-65a4d7cbad79","ios":"levelo://app?vid=762f8075-2e7f-4fd4-a36b-65a4d7cbad79"},"vehicle_type_id":"4","last_reported":1679314446,"current_range_meters":0,"station_id":"ce4bhg12rcd13ifvqf80","pricing_plan_id":"free"},{"bike_id":"679fd8f8-2235-438a-a9e9-ce3e34fe297a","system_id":"levelo_inurba_marseille","lat":43.324784,"lon":5.414323,"is_reserved":false,"is_disabled":false,"rental_uris":{"android":"levelo://app?vid=679fd8f8-2235-438a-a9e9-ce3e34fe297a","ios":"levelo://app?vid=679fd8f8-2235-438a-a9e9-ce3e34fe297a"},"vehicle_type_id":"4","last_reported":1679314446,"current_range_meters":800,"station_id":"","pricing_plan_id":"free"},{"bike_id":"a57dc194-305a-44f0-99db-90d78b97744b","system_id":"levelo_inurba_marseille","lat":43.324813,"lon":5.414339,"is_reserved":false,"is_disabled":false,"rental_uris":{"android":"levelo://app?vid=a57dc194-305a-44f0-99db-90d78b97744b","ios":"levelo://app?vid=a57dc194-305a-44f0-99db-90d78b97744b"},"vehicle_type_id":"4","last_reported":1679314446,"current_range_meters":0,"station_id":"","pricing_plan_id":"free"},{"bike_id":"83b79a0c-ae11-4c1d-af22-d2e34fda9703","system_id":"levelo_inurba_marseille","lat":43.325243,"lon":5.414326,"is_reserved":false,"is_disabled":false,"rental_uris":{"android":"levelo://app?vid=83b79a0c-ae11-4c1d-af22-d2e34fda9703","ios":"levelo://app?vid=83b79a0c-ae11-4c1d-af22-d2e34fda9703"},"vehicle_type_id":"4","last_reported":1679314446,"current_range_meters":0,"station_id":"ce4bhq12rcd13ifvqhhg","pricing_plan_id":"free"},{"bike_id":"7c8f5c9c-ca3b-4bdc-a1d9-af2163f519b1","system_id":"levelo_inurba_marseille","lat":43.292571,"lon":5.409107,"is_reserved":false,"is_disabled":false,"rental_uris":{"android":"levelo://app?vid=7c8f5c9c-ca3b-4bdc-a1d9-af2163f519b1","ios":"levelo://app?vid=7c8f5c9c-ca3b-4bdc-a1d9-af2163f519b1"},"vehicle_type_id":"4","last_reported":1679314446,"current_range_meters":23600,"station_id":"ce4bh192rcd13ifvqdc0","pricing_plan_id":"free"},{"bike_id":"8a9ce083-ae4a-4a8f-8e1c-018814d803bd","system_id":"levelo_inurba_marseille","lat":43.325233,"lon":5.414318,"is_reserved":false,"is_disabled":false,"rental_uris":{"android":"levelo://app?vid=8a9ce083-ae4a-4a8f-8e1c-018814d803bd","ios":"levelo://app?vid=8a9ce083-ae4a-4a8f-8e1c-018814d803bd"},"vehicle_type_id":"4","last_reported":1679314446,"current_range_meters":6800,"station_id":"ce4bhq12rcd13ifvqhhg","pricing_plan_id":"free"},{"bike_id":"dc0b2ba8-2075-4974-9298-a99716c0986a","system_id":"levelo_inurba_marseille","lat":43.29262,"lon":5.40904,"is_reserved":false,"is_disabled":false,"rental_uris":{"android":"levelo://app?vid=dc0b2ba8-2075-4974-9298-a99716c0986a","ios":"levelo://app?vid=dc0b2ba8-2075-4974-9298-a99716c0986a"},"vehicle_type_id":"4","last_reported":1679314446,"current_range_meters":28800,"station_id":"ce4bh192rcd13ifvqdc0","pricing_plan_id":"free"},{"bike_id":"7a6809ff-b098-48bf-8bfb-df8d1a7f33ca","system_id":"levelo_inurba_marseille","lat":43.32525,"lon":5.41432,"is_reserved":false,"is_disabled":false,"rental_uris":{"android":"levelo://app?vid=7a6809ff-b098-48bf-8bfb-df8d1a7f33ca","ios":"levelo://app?vid=7a6809ff-b098-48bf-8bfb-df8d1a7f33ca"},"vehicle_type_id":"4","last_reported":1679314446,"current_range_meters":0,"station_id":"","pricing_plan_id":"free"},{"bike_id":"a747ac25-7925-4e75-b3f1-df50bb6fa69c","system_id":"levelo_inurba_marseille","lat":43.325233,"lon":5.414318,"is_reserved":false,"is_disabled":false,"rental_uris":{"android":"levelo://app?vid=a747ac25-7925-4e75-b3f1-df50bb6fa69c","ios":"levelo://app?vid=a747ac25-7925-4e75-b3f1-df50bb6fa69c"},"vehicle_type_id":"4","last_reported":1679314446,"current_range_meters":12000,"station_id":"ce4bhq12rcd13ifvqhhg","pricing_plan_id":"free"},{"bike_id":"be5ebee7-1ef6-4132-86d4-10698dcd5ae9","system_id":"levelo_inurba_marseille","lat":43.276179,"lon":5.361009,"is_reserved":false,"is_disabled":false,"rental_uris":{"android":"levelo://app?vid=be5ebee7-1ef6-4132-86d4-10698dcd5ae9","ios":"levelo://app?vid=be5ebee7-1ef6-4132-86d4-10698dcd5ae9"},"vehicle_type_id":"4","last_reported":1679314446,"current_range_meters":28800,"station_id":"ce4bgj92rcd13ifvqbe0","pricing_plan_id":"free"},{"bike_id":"47679763-1367-4d62-ab64-3de348acf3c8","system_id":"levelo_inurba_marseille","lat":43.281758,"lon":5.396173,"is_reserved":false,"is_disabled":false,"rental_uris":{"android":"levelo://app?vid=47679763-1367-4d62-ab64-3de348acf3c8","ios":"levelo://app?vid=47679763-1367-4d62-ab64-3de348acf3c8"},"vehicle_type_id":"4","last_reported":1679314446,"current_range_meters":20800,"station_id":"","pricing_plan_id":"free"},{"bike_id":"9bbd947f-2502-40a0-883f-b75eca68b444","system_id":"levelo_inurba_marseille","lat":43.28082,"lon":5.39663,"is_reserved":false,"is_disabled":false,"rental_uris":{"android":"levelo://app?vid=9bbd947f-2502-40a0-883f-b75eca68b444","ios":"levelo://app?vid=9bbd947f-2502-40a0-883f-b75eca68b444"},"vehicle_type_id":"4","last_reported":1679314446,"current_range_meters":20000,"station_id":"","pricing_plan_id":"free"},{"bike_id":"7c46911a-eee0-47e3-8546-44b8561bce7c","system_id":"levelo_inurba_marseille","lat":43.280784,"lon":5.396622,"is_reserved":false,"is_disabled":false,"rental_uris":{"android":"levelo://app?vid=7c46911a-eee0-47e3-8546-44b8561bce7c","ios":"levelo://app?vid=7c46911a-eee0-47e3-8546-44b8561bce7c"},"vehicle_type_id":"4","last_reported":1679314446,"current_range_meters":21600,"station_id":"ce4bho12rcd13ifvqh2g","pricing_plan_id":"free"},{"bike_id":"bb5377e7-eaa0-417f-a8c1-c863ba6f1c0d","system_id":"levelo_inurba_marseille","lat":43.28082,"lon":5.39706,"is_reserved":false,"is_disabled":false,"rental_uris":{"android":"levelo://app?vid=bb5377e7-eaa0-417f-a8c1-c863ba6f1c0d","ios":"levelo://app?vid=bb5377e7-eaa0-417f-a8c1-c863ba6f1c0d"},"vehicle_type_id":"4","last_reported":1679314446,"current_range_meters":4000,"station_id":"","pricing_plan_id":"free"},{"bike_id":"93c49e57-8015-448f-acd0-9bb3ad0466ed","system_id":"levelo_inurba_marseille","lat":43.28079,"lon":5.397,"is_reserved":false,"is_disabled":false,"rental_uris":{"android":"levelo://app?vid=93c49e57-8015-448f-acd0-9bb3ad0466ed","ios":"levelo://app?vid=93c49e57-8015-448f-acd0-9bb3ad0466ed"},"vehicle_type_id":"4","last_reported":1679314446,"current_range_meters":30000,"station_id":"","pricing_plan_id":"free"},{"bike_id":"32a670dc-f632-4037-b94b-a2da4afcff7d","system_id":"levelo_inurba_marseille","lat":43.27378,"lon":5.36253,"is_reserved":false,"is_disabled":false,"rental_uris":{"android":"levelo://app?vid=32a670dc-f632-4037-b94b-a2da4afcff7d","ios":"levelo://app?vid=32a670dc-f632-4037-b94b-a2da4afcff7d"},"vehicle_type_id":"4","last_reported":1679314446,"current_range_meters":5600,"station_id":"","pricing_plan_id":"free"},{"bike_id":"93982b9e-a052-4323-9f34-97e2620434f7","system_id":"levelo_inurba_marseille","lat":43.273613,"lon":5.362705,"is_reserved":false,"is_disabled":false,"rental_uris":{"android":"levelo://app?vid=93982b9e-a052-4323-9f34-97e2620434f7","ios":"levelo://app?vid=93982b9e-a052-4323-9f34-97e2620434f7"},"vehicle_type_id":"4","last_reported":1679314446,"current_range_meters":8000,"station_id":"ce4bhbh2rcd13ifvqeo0","pricing_plan_id":"free"},{"bike_id":"5f43c133-482d-404c-908d-c4afaa6c4fe8","system_id":"levelo_inurba_marseille","lat":43.273613,"lon":5.362705,"is_reserved":false,"is_disabled":false,"rental_uris":{"android":"levelo://app?vid=5f43c133-482d-404c-908d-c4afaa6c4fe8","ios":"levelo://app?vid=5f43c133-482d-404c-908d-c4afaa6c4fe8"},"vehicle_type_id":"4","last_reported":1679314446,"current_range_meters":28400,"station_id":"ce4bhbh2rcd13ifvqeo0","pricing_plan_id":"free"},{"bike_id":"3625dfe4-4838-40a9-bfe8-ba70618b96cc","system_id":"levelo_inurba_marseille","lat":43.273613,"lon":5.362705,"is_reserved":false,"is_disabled":false,"rental_uris":{"android":"levelo://app?vid=3625dfe4-4838-40a9-bfe8-ba70618b96cc","ios":"levelo://app?vid=3625dfe4-4838-40a9-bfe8-ba70618b96cc"},"vehicle_type_id":"4","last_reported":1679314446,"current_range_meters":27600,"station_id":"ce4bhbh2rcd13ifvqeo0","pricing_plan_id":"free"},{"bike_id":"4a8bcd9e-3ec5-4cbb-83a3-cab656a72487","system_id":"levelo_inurba_marseille","lat":43.273613,"lon":5.362705,"is_reserved":false,"is_disabled":false,"rental_uris":{"android":"levelo://app?vid=4a8bcd9e-3ec5-4cbb-83a3-cab656a72487","ios":"levelo://app?vid=4a8bcd9e-3ec5-4cbb-83a3-cab656a72487"},"vehicle_type_id":"4","last_reported":1679314446,"current_range_meters":22400,"station_id":"ce4bhbh2rcd13ifvqeo0","pricing_plan_id":"free"},{"bike_id":"fa528e8a-6be0-4ee8-b0c5-de1ba7752521","system_id":"levelo_inurba_marseille","lat":43.273613,"lon":5.362705,"is_reserved":false,"is_disabled":false,"rental_uris":{"android":"levelo://app?vid=fa528e8a-6be0-4ee8-b0c5-de1ba7752521","ios":"levelo://app?vid=fa528e8a-6be0-4ee8-b0c5-de1ba7752521"},"vehicle_type_id":"4","last_reported":1679314446,"current_range_meters":21200,"station_id":"ce4bhbh2rcd13ifvqeo0","pricing_plan_id":"free"},{"bike_id":"6039ceb4-5a23-44aa-8b9a-cd194f5abd0f","system_id":"levelo_inurba_marseille","lat":43.317121,"lon":5.423936,"is_reserved":false,"is_disabled":false,"rental_uris":{"android":"levelo://app?vid=6039ceb4-5a23-44aa-8b9a-cd194f5abd0f","ios":"levelo://app?vid=6039ceb4-5a23-44aa-8b9a-cd194f5abd0f"},"vehicle_type_id":"4","last_reported":1679314446,"current_range_meters":22400,"station_id":"ce4bhp92rcd13ifvqhbg","pricing_plan_id":"free"},{"bike_id":"722d4074-046d-4f55-8b06-6587f4dd3631","system_id":"levelo_inurba_marseille","lat":43.317121,"lon":5.423936,"is_reserved":false,"is_disabled":false,"rental_uris":{"android":"levelo://app?vid=722d4074-046d-4f55-8b06-6587f4dd3631","ios":"levelo://app?vid=722d4074-046d-4f55-8b06-6587f4dd3631"},"vehicle_type_id":"4","last_reported":1679314446,"current_range_meters":14000,"station_id":"ce4bhp92rcd13ifvqhbg","pricing_plan_id":"free"},{"bike_id":"191b914a-0dc8-45ab-8795-1b314c3fbf5e","system_id":"levelo_inurba_marseille","lat":43.273129,"lon":5.390725,"is_reserved":false,"is_disabled":false,"rental_uris":{"android":"levelo://app?vid=191b914a-0dc8-45ab-8795-1b314c3fbf5e","ios":"levelo://app?vid=191b914a-0dc8-45ab-8795-1b314c3fbf5e"},"vehicle_type_id":"4","last_reported":1679314446,"current_range_meters":19200,"station_id":"ce4bhgp2rcd13ifvqfe0","pricing_plan_id":"free"},{"bike_id":"553a820c-4fe9-498a-b307-bf09cbaabe8a","system_id":"levelo_inurba_marseille","lat":43.273157,"lon":5.39066,"is_reserved":false,"is_disabled":false,"rental_uris":{"android":"levelo://app?vid=553a820c-4fe9-498a-b307-bf09cbaabe8a","ios":"levelo://app?vid=553a820c-4fe9-498a-b307-bf09cbaabe8a"},"vehicle_type_id":"4","last_reported":1679314446,"current_range_meters":21600,"station_id":"","pricing_plan_id":"free"},{"bike_id":"fa4ebb83-a4ec-42d7-b5f7-aa64b5927749","system_id":"levelo_inurba_marseille","lat":43.273129,"lon":5.390725,"is_reserved":false,"is_disabled":false,"rental_uris":{"android":"levelo://app?vid=fa4ebb83-a4ec-42d7-b5f7-aa64b5927749","ios":"levelo://app?vid=fa4ebb83-a4ec-42d7-b5f7-aa64b5927749"},"vehicle_type_id":"4","last_reported":1679314446,"current_range_meters":29600,"station_id":"ce4bhgp2rcd13ifvqfe0","pricing_plan_id":"free"},{"bike_id":"ac818bcd-836c-4a14-8dab-ae51914d50b8","system_id":"levelo_inurba_marseille","lat":43.273129,"lon":5.390725,"is_reserved":false,"is_disabled":false,"rental_uris":{"android":"levelo://app?vid=ac818bcd-836c-4a14-8dab-ae51914d50b8","ios":"levelo://app?vid=ac818bcd-836c-4a14-8dab-ae51914d50b8"},"vehicle_type_id":"4","last_reported":1679314446,"current_range_meters":28400,"station_id":"ce4bhgp2rcd13ifvqfe0","pricing_plan_id":"free"},{"bike_id":"a3b10e3c-6491-4710-a2af-b7a6e4f45b8b","system_id":"levelo_inurba_marseille","lat":43.272116,"lon":5.391747,"is_reserved":false,"is_disabled":false,"rental_uris":{"android":"levelo://app?vid=a3b10e3c-6491-4710-a2af-b7a6e4f45b8b","ios":"levelo://app?vid=a3b10e3c-6491-4710-a2af-b7a6e4f45b8b"},"vehicle_type_id":"4","last_reported":1679314446,"current_range_meters":18400,"station_id":"ce4bhhp2rcd13ifvqfm0","pricing_plan_id":"free"},{"bike_id":"95568952-c9cf-4078-8b22-e7c64b0068de","system_id":"levelo_inurba_marseille","lat":43.29556,"lon":5.4228,"is_reserved":false,"is_disabled":false,"rental_uris":{"android":"levelo://app?vid=95568952-c9cf-4078-8b22-e7c64b0068de","ios":"levelo://app?vid=95568952-c9cf-4078-8b22-e7c64b0068de"},"vehicle_type_id":"4","last_reported":1679314446,"current_range_meters":31600,"station_id":"","pricing_plan_id":"free"},{"bike_id":"2302e543-5559-49a1-97a6-ebeab36d0d39","system_id":"levelo_inurba_marseille","lat":43.29554,"lon":5.4228,"is_reserved":false,"is_disabled":false,"rental_uris":{"android":"levelo://app?vid=2302e543-5559-49a1-97a6-ebeab36d0d39","ios":"levelo://app?vid=2302e543-5559-49a1-97a6-ebeab36d0d39"},"vehicle_type_id":"4","last_reported":1679314446,"current_range_meters":15200,"station_id":"ce4bhph2rcd13ifvqhdg","pricing_plan_id":"free"},{"bike_id":"16efaf82-e492-4e03-9515-7e4f37d0881a","system_id":"levelo_inurba_marseille","lat":43.295523,"lon":5.422926,"is_reserved":false,"is_disabled":false,"rental_uris":{"android":"levelo://app?vid=16efaf82-e492-4e03-9515-7e4f37d0881a","ios":"levelo://app?vid=16efaf82-e492-4e03-9515-7e4f37d0881a"},"vehicle_type_id":"4","last_reported":1679314446,"current_range_meters":22800,"station_id":"ce4bhph2rcd13ifvqhdg","pricing_plan_id":"free"},{"bike_id":"cf9078e5-a655-4eb8-b017-e2821e6b3a50","system_id":"levelo_inurba_marseille","lat":43.29557,"lon":5.42291,"is_reserved":false,"is_disabled":false,"rental_uris":{"android":"levelo://app?vid=cf9078e5-a655-4eb8-b017-e2821e6b3a50","ios":"levelo://app?vid=cf9078e5-a655-4eb8-b017-e2821e6b3a50"},"vehicle_type_id":"4","last_reported":1679314446,"current_range_meters":14000,"station_id":"ce4bhph2rcd13ifvqhdg","pricing_plan_id":"free"},{"bike_id":"9e319041-98b9-438c-9039-4b5c1fcea779","system_id":"levelo_inurba_marseille","lat":43.272125,"lon":5.39178,"is_reserved":false,"is_disabled":false,"rental_uris":{"android":"levelo://app?vid=9e319041-98b9-438c-9039-4b5c1fcea779","ios":"levelo://app?vid=9e319041-98b9-438c-9039-4b5c1fcea779"},"vehicle_type_id":"4","last_reported":1679314446,"current_range_meters":7200,"station_id":"ce4bhhp2rcd13ifvqfm0","pricing_plan_id":"free"},{"bike_id":"8f13ea68-baec-4227-9610-d45be6bee932","system_id":"levelo_inurba_marseille","lat":43.272116,"lon":5.391763,"is_reserved":false,"is_disabled":false,"rental_uris":{"android":"levelo://app?vid=8f13ea68-baec-4227-9610-d45be6bee932","ios":"levelo://app?vid=8f13ea68-baec-4227-9610-d45be6bee932"},"vehicle_type_id":"4","last_reported":1679314446,"current_range_meters":26400,"station_id":"ce4bhhp2rcd13ifvqfm0","pricing_plan_id":"free"},{"bike_id":"7a40978f-c2de-44a4-9c47-4872622e1bcc","system_id":"levelo_inurba_marseille","lat":43.272116,"lon":5.391763,"is_reserved":false,"is_disabled":false,"rental_uris":{"android":"levelo://app?vid=7a40978f-c2de-44a4-9c47-4872622e1bcc","ios":"levelo://app?vid=7a40978f-c2de-44a4-9c47-4872622e1bcc"},"vehicle_type_id":"4","last_reported":1679314446,"current_range_meters":26000,"station_id":"ce4bhhp2rcd13ifvqfm0","pricing_plan_id":"free"},{"bike_id":"b9ef06e7-e8b9-44c7-883b-d912c7b1ae15","system_id":"levelo_inurba_marseille","lat":43.272116,"lon":5.391763,"is_reserved":false,"is_disabled":false,"rental_uris":{"android":"levelo://app?vid=b9ef06e7-e8b9-44c7-883b-d912c7b1ae15","ios":"levelo://app?vid=b9ef06e7-e8b9-44c7-883b-d912c7b1ae15"},"vehicle_type_id":"4","last_reported":1679314446,"current_range_meters":30000,"station_id":"ce4bhhp2rcd13ifvqfm0","pricing_plan_id":"free"},{"bike_id":"eb515140-e964-4249-b16b-7aad739592d3","system_id":"levelo_inurba_marseille","lat":43.272116,"lon":5.391763,"is_reserved":false,"is_disabled":false,"rental_uris":{"android":"levelo://app?vid=eb515140-e964-4249-b16b-7aad739592d3","ios":"levelo://app?vid=eb515140-e964-4249-b16b-7aad739592d3"},"vehicle_type_id":"4","last_reported":1679314446,"current_range_meters":28400,"station_id":"ce4bhhp2rcd13ifvqfm0","pricing_plan_id":"free"},{"bike_id":"a6bc14dd-5f32-4a5b-b465-94ceb68999f0","system_id":"levelo_inurba_marseille","lat":43.272116,"lon":5.391763,"is_reserved":false,"is_disabled":false,"rental_uris":{"android":"levelo://app?vid=a6bc14dd-5f32-4a5b-b465-94ceb68999f0","ios":"levelo://app?vid=a6bc14dd-5f32-4a5b-b465-94ceb68999f0"},"vehicle_type_id":"4","last_reported":1679314446,"current_range_meters":30400,"station_id":"ce4bhhp2rcd13ifvqfm0","pricing_plan_id":"free"},{"bike_id":"08d1f178-cf85-45df-8f7b-1f62c1e87445","system_id":"levelo_inurba_marseille","lat":43.272116,"lon":5.391747,"is_reserved":false,"is_disabled":false,"rental_uris":{"android":"levelo://app?vid=08d1f178-cf85-45df-8f7b-1f62c1e87445","ios":"levelo://app?vid=08d1f178-cf85-45df-8f7b-1f62c1e87445"},"vehicle_type_id":"4","last_reported":1679314446,"current_range_meters":4400,"station_id":"ce4bhhp2rcd13ifvqfm0","pricing_plan_id":"free"},{"bike_id":"2685c61b-563d-4757-956d-ed67342ec40e","system_id":"levelo_inurba_marseille","lat":43.272118,"lon":5.391758,"is_reserved":false,"is_disabled":false,"rental_uris":{"android":"levelo://app?vid=2685c61b-563d-4757-956d-ed67342ec40e","ios":"levelo://app?vid=2685c61b-563d-4757-956d-ed67342ec40e"},"vehicle_type_id":"4","last_reported":1679314446,"current_range_meters":19200,"station_id":"ce4bhhp2rcd13ifvqfm0","pricing_plan_id":"free"},{"bike_id":"3b5c1f36-fc95-4439-ba42-9c4f18e66f5f","system_id":"levelo_inurba_marseille","lat":43.272118,"lon":5.391758,"is_reserved":false,"is_disabled":false,"rental_uris":{"android":"levelo://app?vid=3b5c1f36-fc95-4439-ba42-9c4f18e66f5f","ios":"levelo://app?vid=3b5c1f36-fc95-4439-ba42-9c4f18e66f5f"},"vehicle_type_id":"4","last_reported":1679314446,"current_range_meters":31600,"station_id":"ce4bhhp2rcd13ifvqfm0","pricing_plan_id":"free"},{"bike_id":"72fd52a6-7b03-4c7f-81d7-44e3b4d9b6c8","system_id":"levelo_inurba_marseille","lat":43.335,"lon":5.42028,"is_reserved":false,"is_disabled":false,"rental_uris":{"android":"levelo://app?vid=72fd52a6-7b03-4c7f-81d7-44e3b4d9b6c8","ios":"levelo://app?vid=72fd52a6-7b03-4c7f-81d7-44e3b4d9b6c8"},"vehicle_type_id":"4","last_reported":1679314446,"current_range_meters":4800,"station_id":"","pricing_plan_id":"free"},{"bike_id":"f72f9090-0f8e-4606-9f9b-c2366ae3c2bc","system_id":"levelo_inurba_marseille","lat":43.278128,"lon":5.407195,"is_reserved":false,"is_disabled":false,"rental_uris":{"android":"levelo://app?vid=f72f9090-0f8e-4606-9f9b-c2366ae3c2bc","ios":"levelo://app?vid=f72f9090-0f8e-4606-9f9b-c2366ae3c2bc"},"vehicle_type_id":"4","last_reported":1679314446,"current_range_meters":10800,"station_id":"ce4bhnh2rcd13ifvqgtg","pricing_plan_id":"free"},{"bike_id":"fb3e2f30-8736-48ed-8fc6-5953d61aab8a","system_id":"levelo_inurba_marseille","lat":43.26932,"lon":5.38918,"is_reserved":false,"is_disabled":false,"rental_uris":{"android":"levelo://app?vid=fb3e2f30-8736-48ed-8fc6-5953d61aab8a","ios":"levelo://app?vid=fb3e2f30-8736-48ed-8fc6-5953d61aab8a"},"vehicle_type_id":"4","last_reported":1679314446,"current_range_meters":25200,"station_id":"ce4bhhh2rcd13ifvqfl0","pricing_plan_id":"free"},{"bike_id":"2968cb7d-c419-4ad1-a113-87823a7ea2c2","system_id":"levelo_inurba_marseille","lat":43.337874,"lon":5.421003,"is_reserved":false,"is_disabled":false,"rental_uris":{"android":"levelo://app?vid=2968cb7d-c419-4ad1-a113-87823a7ea2c2","ios":"levelo://app?vid=2968cb7d-c419-4ad1-a113-87823a7ea2c2"},"vehicle_type_id":"4","last_reported":1679314446,"current_range_meters":1200,"station_id":"","pricing_plan_id":"free"},{"bike_id":"213f5946-6775-4b21-8c2a-95865d3eb2cf","system_id":"levelo_inurba_marseille","lat":43.266867,"lon":5.382726,"is_reserved":false,"is_disabled":false,"rental_uris":{"android":"levelo://app?vid=213f5946-6775-4b21-8c2a-95865d3eb2cf","ios":"levelo://app?vid=213f5946-6775-4b21-8c2a-95865d3eb2cf"},"vehicle_type_id":"4","last_reported":1679314446,"current_range_meters":24800,"station_id":"ce4bhg92rcd13ifvqf90","pricing_plan_id":"free"},{"bike_id":"7296a249-1f43-4662-b065-dd3cfc36bc45","system_id":"levelo_inurba_marseille","lat":43.26561,"lon":5.37282,"is_reserved":false,"is_disabled":false,"rental_uris":{"android":"levelo://app?vid=7296a249-1f43-4662-b065-dd3cfc36bc45","ios":"levelo://app?vid=7296a249-1f43-4662-b065-dd3cfc36bc45"},"vehicle_type_id":"4","last_reported":1679314446,"current_range_meters":29200,"station_id":"","pricing_plan_id":"free"},{"bike_id":"7a135028-83ab-429e-b03f-ba1fb1b95a49","system_id":"levelo_inurba_marseille","lat":43.26557,"lon":5.37286,"is_reserved":false,"is_disabled":false,"rental_uris":{"android":"levelo://app?vid=7a135028-83ab-429e-b03f-ba1fb1b95a49","ios":"levelo://app?vid=7a135028-83ab-429e-b03f-ba1fb1b95a49"},"vehicle_type_id":"4","last_reported":1679314446,"current_range_meters":29200,"station_id":"","pricing_plan_id":"free"},{"bike_id":"9cf7ea4d-9ee7-455f-a875-10e2bb714167","system_id":"levelo_inurba_marseille","lat":43.26786,"lon":5.3941,"is_reserved":false,"is_disabled":false,"rental_uris":{"android":"levelo://app?vid=9cf7ea4d-9ee7-455f-a875-10e2bb714167","ios":"levelo://app?vid=9cf7ea4d-9ee7-455f-a875-10e2bb714167"},"vehicle_type_id":"4","last_reported":1679314446,"current_range_meters":10000,"station_id":"ce4bhh12rcd13ifvqfg0","pricing_plan_id":"free"},{"bike_id":"62d56e94-e91a-4c3f-a71c-017c663075b2","system_id":"levelo_inurba_marseille","lat":43.26778,"lon":5.39412,"is_reserved":false,"is_disabled":false,"rental_uris":{"android":"levelo://app?vid=62d56e94-e91a-4c3f-a71c-017c663075b2","ios":"levelo://app?vid=62d56e94-e91a-4c3f-a71c-017c663075b2"},"vehicle_type_id":"4","last_reported":1679314446,"current_range_meters":800,"station_id":"","pricing_plan_id":"free"},{"bike_id":"7621a702-e8bb-432e-8bb4-cc41d479da46","system_id":"levelo_inurba_marseille","lat":43.2607,"lon":5.393983,"is_reserved":false,"is_disabled":false,"rental_uris":{"android":"levelo://app?vid=7621a702-e8bb-432e-8bb4-cc41d479da46","ios":"levelo://app?vid=7621a702-e8bb-432e-8bb4-cc41d479da46"},"vehicle_type_id":"4","last_reported":1679314446,"current_range_meters":24800,"station_id":"ce4bhh92rcd13ifvqfj0","pricing_plan_id":"free"},{"bike_id":"8ef094be-976c-42f1-b4bf-a5e22306c295","system_id":"levelo_inurba_marseille","lat":43.26064,"lon":5.39395,"is_reserved":false,"is_disabled":false,"rental_uris":{"android":"levelo://app?vid=8ef094be-976c-42f1-b4bf-a5e22306c295","ios":"levelo://app?vid=8ef094be-976c-42f1-b4bf-a5e22306c295"},"vehicle_type_id":"4","last_reported":1679314446,"current_range_meters":29600,"station_id":"","pricing_plan_id":"free"},{"bike_id":"da14d2b3-1039-4ca4-ae23-631bd52b38a0","system_id":"levelo_inurba_marseille","lat":43.2607,"lon":5.393983,"is_reserved":false,"is_disabled":false,"rental_uris":{"android":"levelo://app?vid=da14d2b3-1039-4ca4-ae23-631bd52b38a0","ios":"levelo://app?vid=da14d2b3-1039-4ca4-ae23-631bd52b38a0"},"vehicle_type_id":"4","last_reported":1679314446,"current_range_meters":3600,"station_id":"ce4bhh92rcd13ifvqfj0","pricing_plan_id":"free"},{"bike_id":"a98d1a0c-9368-4be0-8ca9-0d091c86032f","system_id":"levelo_inurba_marseille","lat":43.26063,"lon":5.39393,"is_reserved":false,"is_disabled":false,"rental_uris":{"android":"levelo://app?vid=a98d1a0c-9368-4be0-8ca9-0d091c86032f","ios":"levelo://app?vid=a98d1a0c-9368-4be0-8ca9-0d091c86032f"},"vehicle_type_id":"4","last_reported":1679314446,"current_range_meters":2400,"station_id":"","pricing_plan_id":"free"},{"bike_id":"d5d78156-17c0-49e1-bbc7-261edf7fe782","system_id":"levelo_inurba_marseille","lat":43.2607,"lon":5.393983,"is_reserved":false,"is_disabled":false,"rental_uris":{"android":"levelo://app?vid=d5d78156-17c0-49e1-bbc7-261edf7fe782","ios":"levelo://app?vid=d5d78156-17c0-49e1-bbc7-261edf7fe782"},"vehicle_type_id":"4","last_reported":1679314446,"current_range_meters":29200,"station_id":"ce4bhh92rcd13ifvqfj0","pricing_plan_id":"free"},{"bike_id":"c75295c8-a7e0-4081-86a0-df8d1928e76b","system_id":"levelo_inurba_marseille","lat":43.2607,"lon":5.393983,"is_reserved":false,"is_disabled":false,"rental_uris":{"android":"levelo://app?vid=c75295c8-a7e0-4081-86a0-df8d1928e76b","ios":"levelo://app?vid=c75295c8-a7e0-4081-86a0-df8d1928e76b"},"vehicle_type_id":"4","last_reported":1679314446,"current_range_meters":11200,"station_id":"ce4bhh92rcd13ifvqfj0","pricing_plan_id":"free"},{"bike_id":"d39c44c9-05ba-48cd-a0df-6bbf5c4aa6d6","system_id":"levelo_inurba_marseille","lat":43.26059,"lon":5.39392,"is_reserved":false,"is_disabled":false,"rental_uris":{"android":"levelo://app?vid=d39c44c9-05ba-48cd-a0df-6bbf5c4aa6d6","ios":"levelo://app?vid=d39c44c9-05ba-48cd-a0df-6bbf5c4aa6d6"},"vehicle_type_id":"4","last_reported":1679314446,"current_range_meters":21200,"station_id":"","pricing_plan_id":"free"},{"bike_id":"2933e12e-4b95-4853-903b-e9664c7613b7","system_id":"levelo_inurba_marseille","lat":43.260605,"lon":5.394055,"is_reserved":false,"is_disabled":false,"rental_uris":{"android":"levelo://app?vid=2933e12e-4b95-4853-903b-e9664c7613b7","ios":"levelo://app?vid=2933e12e-4b95-4853-903b-e9664c7613b7"},"vehicle_type_id":"4","last_reported":1679314446,"current_range_meters":10000,"station_id":"","pricing_plan_id":"free"},{"bike_id":"c528138c-31ff-4414-8131-b6bd949dc757","system_id":"levelo_inurba_marseille","lat":43.26055,"lon":5.39402,"is_reserved":false,"is_disabled":false,"rental_uris":{"android":"levelo://app?vid=c528138c-31ff-4414-8131-b6bd949dc757","ios":"levelo://app?vid=c528138c-31ff-4414-8131-b6bd949dc757"},"vehicle_type_id":"4","last_reported":1679314446,"current_range_meters":26000,"station_id":"","pricing_plan_id":"free"},{"bike_id":"5e70b087-6858-4363-b488-74a755ec9826","system_id":"levelo_inurba_marseille","lat":43.26087,"lon":5.39777,"is_reserved":false,"is_disabled":false,"rental_uris":{"android":"levelo://app?vid=5e70b087-6858-4363-b488-74a755ec9826","ios":"levelo://app?vid=5e70b087-6858-4363-b488-74a755ec9826"},"vehicle_type_id":"4","last_reported":1679314446,"current_range_meters":19200,"station_id":"","pricing_plan_id":"free"},{"bike_id":"9e3043a0-62cc-43b7-a488-f3ad2f9f071b","system_id":"levelo_inurba_marseille","lat":43.2925,"lon":5.441367,"is_reserved":false,"is_disabled":false,"rental_uris":{"android":"levelo://app?vid=9e3043a0-62cc-43b7-a488-f3ad2f9f071b","ios":"levelo://app?vid=9e3043a0-62cc-43b7-a488-f3ad2f9f071b"},"vehicle_type_id":"4","last_reported":1679314446,"current_range_meters":15200,"station_id":"","pricing_plan_id":"free"},{"bike_id":"9c6013c4-8028-48cb-913c-fd283b44b887","system_id":"levelo_inurba_marseille","lat":43.254945,"lon":5.376454,"is_reserved":false,"is_disabled":false,"rental_uris":{"android":"levelo://app?vid=9c6013c4-8028-48cb-913c-fd283b44b887","ios":"levelo://app?vid=9c6013c4-8028-48cb-913c-fd283b44b887"},"vehicle_type_id":"4","last_reported":1679314446,"current_range_meters":28400,"station_id":"ce4bhh12rcd13ifvqff0","pricing_plan_id":"free"},{"bike_id":"7423ebe6-0528-45f2-8b80-fa83e518e5b7","system_id":"levelo_inurba_marseille","lat":43.250966,"lon":5.395186,"is_reserved":false,"is_disabled":false,"rental_uris":{"android":"levelo://app?vid=7423ebe6-0528-45f2-8b80-fa83e518e5b7","ios":"levelo://app?vid=7423ebe6-0528-45f2-8b80-fa83e518e5b7"},"vehicle_type_id":"4","last_reported":1679314446,"current_range_meters":30800,"station_id":"ce4bhm12rcd13ifvqgkg","pricing_plan_id":"free"},{"bike_id":"ca316646-ee6c-4c5c-ad73-7eb46ddfd86c","system_id":"levelo_inurba_marseille","lat":43.250966,"lon":5.395186,"is_reserved":false,"is_disabled":false,"rental_uris":{"android":"levelo://app?vid=ca316646-ee6c-4c5c-ad73-7eb46ddfd86c","ios":"levelo://app?vid=ca316646-ee6c-4c5c-ad73-7eb46ddfd86c"},"vehicle_type_id":"4","last_reported":1679314446,"current_range_meters":29200,"station_id":"ce4bhm12rcd13ifvqgkg","pricing_plan_id":"free"},{"bike_id":"b984e624-ac96-4796-805a-b5a9d34693ac","system_id":"levelo_inurba_marseille","lat":43.250966,"lon":5.395186,"is_reserved":false,"is_disabled":false,"rental_uris":{"android":"levelo://app?vid=b984e624-ac96-4796-805a-b5a9d34693ac","ios":"levelo://app?vid=b984e624-ac96-4796-805a-b5a9d34693ac"},"vehicle_type_id":"4","last_reported":1679314446,"current_range_meters":24800,"station_id":"ce4bhm12rcd13ifvqgkg","pricing_plan_id":"free"},{"bike_id":"69149cbc-650a-47ea-8706-11bdc5b69dde","system_id":"levelo_inurba_marseille","lat":43.24778,"lon":5.37545,"is_reserved":false,"is_disabled":false,"rental_uris":{"android":"levelo://app?vid=69149cbc-650a-47ea-8706-11bdc5b69dde","ios":"levelo://app?vid=69149cbc-650a-47ea-8706-11bdc5b69dde"},"vehicle_type_id":"4","last_reported":1679314446,"current_range_meters":0,"station_id":"","pricing_plan_id":"free"},{"bike_id":"4d2f0368-7f4b-43c9-9f89-7896d09fa325","system_id":"levelo_inurba_marseille","lat":43.251319,"lon":5.403018,"is_reserved":false,"is_disabled":false,"rental_uris":{"android":"levelo://app?vid=4d2f0368-7f4b-43c9-9f89-7896d09fa325","ios":"levelo://app?vid=4d2f0368-7f4b-43c9-9f89-7896d09fa325"},"vehicle_type_id":"4","last_reported":1679314446,"current_range_meters":24000,"station_id":"","pricing_plan_id":"free"},{"bike_id":"8cae9ac9-6241-4934-999f-c5e584688994","system_id":"levelo_inurba_marseille","lat":43.24693,"lon":5.382096,"is_reserved":false,"is_disabled":false,"rental_uris":{"android":"levelo://app?vid=8cae9ac9-6241-4934-999f-c5e584688994","ios":"levelo://app?vid=8cae9ac9-6241-4934-999f-c5e584688994"},"vehicle_type_id":"4","last_reported":1679314446,"current_range_meters":25600,"station_id":"ce4bhih2rcd13ifvqfr0","pricing_plan_id":"free"},{"bike_id":"6d8f5d21-8875-4729-9b6e-38f1ce579a6c","system_id":"levelo_inurba_marseille","lat":43.25102,"lon":5.403214,"is_reserved":false,"is_disabled":false,"rental_uris":{"android":"levelo://app?vid=6d8f5d21-8875-4729-9b6e-38f1ce579a6c","ios":"levelo://app?vid=6d8f5d21-8875-4729-9b6e-38f1ce579a6c"},"vehicle_type_id":"4","last_reported":1679314446,"current_range_meters":24000,"station_id":"ce4bhlh2rcd13ifvqgig","pricing_plan_id":"free"},{"bike_id":"1aca7518-f7cf-4f4e-8bda-36f785b06954","system_id":"levelo_inurba_marseille","lat":43.251064,"lon":5.404286,"is_reserved":false,"is_disabled":false,"rental_uris":{"android":"levelo://app?vid=1aca7518-f7cf-4f4e-8bda-36f785b06954","ios":"levelo://app?vid=1aca7518-f7cf-4f4e-8bda-36f785b06954"},"vehicle_type_id":"4","last_reported":1679314446,"current_range_meters":17200,"station_id":"ce4bhlh2rcd13ifvqgig","pricing_plan_id":"free"},{"bike_id":"3c593d93-e2b9-4e9e-b965-79a752dbcf89","system_id":"levelo_inurba_marseille","lat":43.24077,"lon":5.37763,"is_reserved":false,"is_disabled":false,"rental_uris":{"android":"levelo://app?vid=3c593d93-e2b9-4e9e-b965-79a752dbcf89","ios":"levelo://app?vid=3c593d93-e2b9-4e9e-b965-79a752dbcf89"},"vehicle_type_id":"4","last_reported":1679314446,"current_range_meters":6000,"station_id":"ce4bhnp2rcd13ifvqgvg","pricing_plan_id":"free"},{"bike_id":"f3b4d708-0774-4575-90ff-f6038c8ac032","system_id":"levelo_inurba_marseille","lat":43.24073,"lon":5.37757,"is_reserved":false,"is_disabled":false,"rental_uris":{"android":"levelo://app?vid=f3b4d708-0774-4575-90ff-f6038c8ac032","ios":"levelo://app?vid=f3b4d708-0774-4575-90ff-f6038c8ac032"},"vehicle_type_id":"4","last_reported":1679314446,"current_range_meters":18400,"station_id":"ce4bhnp2rcd13ifvqgvg","pricing_plan_id":"free"},{"bike_id":"a45ebdbe-7bd9-47e7-b849-60af602d3362","system_id":"levelo_inurba_marseille","lat":43.24072,"lon":5.37753,"is_reserved":false,"is_disabled":false,"rental_uris":{"android":"levelo://app?vid=a45ebdbe-7bd9-47e7-b849-60af602d3362","ios":"levelo://app?vid=a45ebdbe-7bd9-47e7-b849-60af602d3362"},"vehicle_type_id":"4","last_reported":1679314446,"current_range_meters":6800,"station_id":"","pricing_plan_id":"free"},{"bike_id":"1d205e08-7a67-4d4d-8ddd-d72ba207be34","system_id":"levelo_inurba_marseille","lat":43.240623,"lon":5.377642,"is_reserved":false,"is_disabled":false,"rental_uris":{"android":"levelo://app?vid=1d205e08-7a67-4d4d-8ddd-d72ba207be34","ios":"levelo://app?vid=1d205e08-7a67-4d4d-8ddd-d72ba207be34"},"vehicle_type_id":"4","last_reported":1679314446,"current_range_meters":10400,"station_id":"ce4bhnp2rcd13ifvqgvg","pricing_plan_id":"free"},{"bike_id":"d4be3624-b198-436e-8f16-3748291836a6","system_id":"levelo_inurba_marseille","lat":43.240623,"lon":5.377642,"is_reserved":false,"is_disabled":false,"rental_uris":{"android":"levelo://app?vid=d4be3624-b198-436e-8f16-3748291836a6","ios":"levelo://app?vid=d4be3624-b198-436e-8f16-3748291836a6"},"vehicle_type_id":"4","last_reported":1679314446,"current_range_meters":10400,"station_id":"ce4bhnp2rcd13ifvqgvg","pricing_plan_id":"free"},{"bike_id":"333b4673-5f2e-4bd6-a3cc-75239d1562d9","system_id":"levelo_inurba_marseille","lat":43.239588,"lon":5.366238,"is_reserved":false,"is_disabled":false,"rental_uris":{"android":"levelo://app?vid=333b4673-5f2e-4bd6-a3cc-75239d1562d9","ios":"levelo://app?vid=333b4673-5f2e-4bd6-a3cc-75239d1562d9"},"vehicle_type_id":"4","last_reported":1679314446,"current_range_meters":31600,"station_id":"ce4bhi12rcd13ifvqfp0","pricing_plan_id":"free"},{"bike_id":"898d13de-8b0e-4fa4-a666-2b5ffe0bd04c","system_id":"levelo_inurba_marseille","lat":43.24183,"lon":5.39726,"is_reserved":false,"is_disabled":false,"rental_uris":{"android":"levelo://app?vid=898d13de-8b0e-4fa4-a666-2b5ffe0bd04c","ios":"levelo://app?vid=898d13de-8b0e-4fa4-a666-2b5ffe0bd04c"},"vehicle_type_id":"4","last_reported":1679314446,"current_range_meters":19200,"station_id":"","pricing_plan_id":"free"},{"bike_id":"92819819-a2fe-41af-b612-18a08812ded7","system_id":"levelo_inurba_marseille","lat":43.241782,"lon":5.397264,"is_reserved":false,"is_disabled":false,"rental_uris":{"android":"levelo://app?vid=92819819-a2fe-41af-b612-18a08812ded7","ios":"levelo://app?vid=92819819-a2fe-41af-b612-18a08812ded7"},"vehicle_type_id":"4","last_reported":1679314446,"current_range_meters":21600,"station_id":"ce4bhn12rcd13ifvqgpg","pricing_plan_id":"free"},{"bike_id":"334e498b-b826-46b9-9de7-4687ff6c9d3a","system_id":"levelo_inurba_marseille","lat":43.238258,"lon":5.375673,"is_reserved":false,"is_disabled":false,"rental_uris":{"android":"levelo://app?vid=334e498b-b826-46b9-9de7-4687ff6c9d3a","ios":"levelo://app?vid=334e498b-b826-46b9-9de7-4687ff6c9d3a"},"vehicle_type_id":"4","last_reported":1679314446,"current_range_meters":0,"station_id":"","pricing_plan_id":"free"},{"bike_id":"e34f181a-112f-4508-a098-99bf91bdc40c","system_id":"levelo_inurba_marseille","lat":43.231971,"lon":5.355528,"is_reserved":false,"is_disabled":false,"rental_uris":{"android":"levelo://app?vid=e34f181a-112f-4508-a098-99bf91bdc40c","ios":"levelo://app?vid=e34f181a-112f-4508-a098-99bf91bdc40c"},"vehicle_type_id":"4","last_reported":1679314446,"current_range_meters":23200,"station_id":"","pricing_plan_id":"free"},{"bike_id":"bfcb15fc-57d9-450e-b441-aa842f4c08f9","system_id":"levelo_inurba_marseille","lat":43.231923,"lon":5.355545,"is_reserved":false,"is_disabled":false,"rental_uris":{"android":"levelo://app?vid=bfcb15fc-57d9-450e-b441-aa842f4c08f9","ios":"levelo://app?vid=bfcb15fc-57d9-450e-b441-aa842f4c08f9"},"vehicle_type_id":"4","last_reported":1679314446,"current_range_meters":13600,"station_id":"ce4bhu92rcd13ifvqi70","pricing_plan_id":"free"},{"bike_id":"93df46c2-755c-4e44-82e8-313b251854e5","system_id":"levelo_inurba_marseille","lat":43.231919,"lon":5.355532,"is_reserved":false,"is_disabled":false,"rental_uris":{"android":"levelo://app?vid=93df46c2-755c-4e44-82e8-313b251854e5","ios":"levelo://app?vid=93df46c2-755c-4e44-82e8-313b251854e5"},"vehicle_type_id":"4","last_reported":1679314446,"current_range_meters":28800,"station_id":"ce4bhu92rcd13ifvqi70","pricing_plan_id":"free"},{"bike_id":"7e5b34c9-bda3-49cc-b83f-b415445dece3","system_id":"levelo_inurba_marseille","lat":43.231923,"lon":5.355545,"is_reserved":false,"is_disabled":false,"rental_uris":{"android":"levelo://app?vid=7e5b34c9-bda3-49cc-b83f-b415445dece3","ios":"levelo://app?vid=7e5b34c9-bda3-49cc-b83f-b415445dece3"},"vehicle_type_id":"4","last_reported":1679314446,"current_range_meters":26400,"station_id":"ce4bhu92rcd13ifvqi70","pricing_plan_id":"free"},{"bike_id":"36e4d05f-9c7d-4464-8d5c-f6f35fd0aeb0","system_id":"levelo_inurba_marseille","lat":43.231923,"lon":5.355545,"is_reserved":false,"is_disabled":false,"rental_uris":{"android":"levelo://app?vid=36e4d05f-9c7d-4464-8d5c-f6f35fd0aeb0","ios":"levelo://app?vid=36e4d05f-9c7d-4464-8d5c-f6f35fd0aeb0"},"vehicle_type_id":"4","last_reported":1679314446,"current_range_meters":30400,"station_id":"ce4bhu92rcd13ifvqi70","pricing_plan_id":"free"},{"bike_id":"5dda21a0-4fd2-4ce0-bc65-60056dc23de8","system_id":"levelo_inurba_marseille","lat":43.231923,"lon":5.355545,"is_reserved":false,"is_disabled":false,"rental_uris":{"android":"levelo://app?vid=5dda21a0-4fd2-4ce0-bc65-60056dc23de8","ios":"levelo://app?vid=5dda21a0-4fd2-4ce0-bc65-60056dc23de8"},"vehicle_type_id":"4","last_reported":1679314446,"current_range_meters":28800,"station_id":"ce4bhu92rcd13ifvqi70","pricing_plan_id":"free"},{"bike_id":"d99043f6-4cae-4da2-9eba-ad6f942f0a0a","system_id":"levelo_inurba_marseille","lat":43.231919,"lon":5.355532,"is_reserved":false,"is_disabled":false,"rental_uris":{"android":"levelo://app?vid=d99043f6-4cae-4da2-9eba-ad6f942f0a0a","ios":"levelo://app?vid=d99043f6-4cae-4da2-9eba-ad6f942f0a0a"},"vehicle_type_id":"4","last_reported":1679314446,"current_range_meters":24400,"station_id":"ce4bhu92rcd13ifvqi70","pricing_plan_id":"free"},{"bike_id":"2330a857-0775-4481-8767-6dfc1bdded79","system_id":"levelo_inurba_marseille","lat":43.28626,"lon":5.47505,"is_reserved":false,"is_disabled":false,"rental_uris":{"android":"levelo://app?vid=2330a857-0775-4481-8767-6dfc1bdded79","ios":"levelo://app?vid=2330a857-0775-4481-8767-6dfc1bdded79"},"vehicle_type_id":"4","last_reported":1679314446,"current_range_meters":14000,"station_id":"","pricing_plan_id":"free"}]}}