{"last_updated":1736561464,"ttl":60,"version":"2.2","data":{"bikes":[{"bike_id":"9efffc4b-6a38-4517-ab0e-918d1c43dbfa","system_id":"levelo_inurba_marseille","lat":43.33613,"lon":5.41,"is_reserved":false,"is_disabled":false,"rental_uris":{"android":"levelo://app?vid=9efffc4b-6a38-4517-ab0e-918d1c43dbfa","ios":"levelo://app?vid=9efffc4b-6a38-4517-ab0e-918d1c43dbfa"},"vehicle_type_id":"4","last_reported":1736561464,"current_range_meters":36000,"station_id":"ce4bhqh2rcd13ifvqhmg","pricing_plan_id":"cebpf4jnsgd1na2vs0mg"},{"bike_id":"14a8245a-9128-40d3-8265-cf1423d2fdc8","system_id":"levelo_inurba_marseille","lat":43.24804,"lon":5.37453,"is_reserved":false,"is_disabled":false,"rental_uris":{"android":"levelo://app?vid=14a8245a-9128-40d3-8265-cf1423d2fdc8","ios":"levelo://app?vid=14a8245a-9128-40d3-8265-cf1423d2fdc8"},"vehicle_type_id":"4","last_reported":1736561464,"current_range_meters":38800,"station_id":"ce4bhgh2rcd13ifvqfb0","pricing_plan_id":"cebpf4jnsgd1na2vs0mg"},{"bike_id":"d4b06b90-36bb-4ab0-af4e-3334c9d4e6d4","system_id":"levelo_inurba_marseille","lat":43.23398,"lon":5.35885,"is_reserved":false,"is_disabled":false,"rental_uris":{"android":"levelo://app?vid=d4b06b90-36bb-4ab0-af4e-3334c9d4e6d4","ios":"levelo://app?vid=d4b06b90-36bb-4ab0-af4e-3334c9d4e6d4"},"vehicle_type_id":"4","last_reported":1736561464,"current_range_meters":8000,"station_id":"","pricing_plan_id":"cebpf4jnsgd1na2vs0mg"},{"bike_id":"9ff24b9e-60a3-48d4-8cde-0ae6dfde2dc8","system_id":"levelo_inurba_marseille","lat":43.33011,"lon":5.39017,"is_reserved":false,"is_disabled":false,"rental_uris":{"android":"levelo://app?vid=9ff24b9e-60a3-48d4-8cde-0ae6dfde2dc8","ios":"levelo://app?vid=9ff24b9e-60a3-48d4-8cde-0ae6dfde2dc8"},"vehicle_type_id":"4","last_reported":1736561464,"current_range_meters":30800,"station_id":"ce4bhr92rcd13ifvqhrg","pricing_plan_id":"cebpf4jnsgd1na2vs0mg"},{"bike_id":"79a7df46-a7ca-4d27-97af-0883a0d4aacd","system_id":"levelo_inurba_marseille","lat":43.24802,"lon":5.37454,"is_reserved":false,"is_disabled":false,"rental_uris":{"android":"levelo://app?vid=79a7df46-a7ca-4d27-97af-0883a0d4aacd","ios":"levelo://app?vid=79a7df46-a7ca-4d27-97af-0883a0d4aacd"},"vehicle_type_id":"4","last_reported":1736561464,"current_range_meters":34000,"station_id":"ce4bhgh2rcd13ifvqfb0","pricing_plan_id":"cebpf4jnsgd1na2vs0mg"},{"bike_id":"42034ff5-e6b0-40c2-8baa-a33bc13731d4","system_id":"levelo_inurba_marseille","lat":43.25926,"lon":5.40897,"is_reserved":false,"is_disabled":true,"rental_uris":{"android":"levelo://app?vid=42034ff5-e6b0-40c2-8baa-a33bc13731d4","ios":"levelo://app?vid=42034ff5-e6b0-40c2-8baa-a33bc13731d4"},"vehicle_type_id":"4","last_reported":1736561464,"current_range_meters":27600,"station_id":"ce4bhm92rcd13ifvqglg","pricing_plan_id":"cebpf4jnsgd1na2vs0mg"},{"bike_id":"2776acb0-e784-4db3-9704-ed4ff8ea7b58","system_id":"levelo_inurba_marseille","lat":43.27946,"lon":5.3873,"is_reserved":false,"is_disabled":false,"rental_uris":{"android":"levelo://app?vid=2776acb0-e784-4db3-9704-ed4ff8ea7b58","ios":"levelo://app?vid=2776acb0-e784-4db3-9704-ed4ff8ea7b58"},"vehicle_type_id":"4","last_reported":1736561464,"current_range_meters":36000,"station_id":"ce4bhg12rcd13ifvqf80","pricing_plan_id":"cebpf4jnsgd1na2vs0mg"},{"bike_id":"02fa8d23-b641-466a-8661-f76f63fb8c6e","system_id":"levelo_inurba_marseille","lat":43.31533,"lon":5.38034,"is_reserved":false,"is_disabled":false,"rental_uris":{"android":"levelo://app?vid=02fa8d23-b641-466a-8661-f76f63fb8c6e","ios":"levelo://app?vid=02fa8d23-b641-466a-8661-f76f63fb8c6e"},"vehicle_type_id":"4","last_reported":1736561464,"current_range_meters":38800,"station_id":"ce4bhsp2rcd13ifvqi50","pricing_plan_id":"cebpf4jnsgd1na2vs0mg"},{"bike_id":"0fe425bb-f9c2-47cb-b4cc-f55ce66357e3","system_id":"levelo_inurba_marseille","lat":43.24053,"lon":5.37759,"is_reserved":false,"is_disabled":false,"rental_uris":{"android":"levelo://app?vid=0fe425bb-f9c2-47cb-b4cc-f55ce66357e3","ios":"levelo://app?vid=0fe425bb-f9c2-47cb-b4cc-f55ce66357e3"},"vehicle_type_id":"4","last_reported":1736561464,"current_range_meters":39200,"station_id":"ce4bhnp2rcd13ifvqgvg","pricing_plan_id":"cebpf4jnsgd1na2vs0mg"},{"bike_id":"d2f823e9-4311-4ea5-8493-dc6417fe0a04","system_id":"levelo_inurba_marseille","lat":43.2841,"lon":5.34994,"is_reserved":false,"is_disabled":true,"rental_uris":{"android":"levelo://app?vid=d2f823e9-4311-4ea5-8493-dc6417fe0a04","ios":"levelo://app?vid=d2f823e9-4311-4ea5-8493-dc6417fe0a04"},"vehicle_type_id":"4","last_reported":1736561464,"current_range_meters":2000,"station_id":"ce4bhbh2rcd13ifvqepg","pricing_plan_id":"cebpf4jnsgd1na2vs0mg"},{"bike_id":"a444a04d-7a75-4bb0-b921-23a4f692b157","system_id":"levelo_inurba_marseille","lat":43.24649,"lon":5.38892,"is_reserved":false,"is_disabled":false,"rental_uris":{"android":"levelo://app?vid=a444a04d-7a75-4bb0-b921-23a4f692b157","ios":"levelo://app?vid=a444a04d-7a75-4bb0-b921-23a4f692b157"},"vehicle_type_id":"4","last_reported":1736561464,"current_range_meters":21600,"station_id":"ce4bhg12rcd13ifvqf60","pricing_plan_id":"cebpf4jnsgd1na2vs0mg"},{"bike_id":"b246f170-19e2-4621-9322-d904efe8f685","system_id":"levelo_inurba_marseille","lat":43.33602,"lon":5.40965,"is_reserved":false,"is_disabled":true,"rental_uris":{"android":"levelo://app?vid=b246f170-19e2-4621-9322-d904efe8f685","ios":"levelo://app?vid=b246f170-19e2-4621-9322-d904efe8f685"},"vehicle_type_id":"4","last_reported":1736561464,"current_range_meters":2000,"station_id":"ce4bhqh2rcd13ifvqhmg","pricing_plan_id":"cebpf4jnsgd1na2vs0mg"},{"bike_id":"42b2945a-873e-44b2-ae60-3504061c9f79","system_id":"levelo_inurba_marseille","lat":43.28253,"lon":5.35067,"is_reserved":false,"is_disabled":false,"rental_uris":{"android":"levelo://app?vid=42b2945a-873e-44b2-ae60-3504061c9f79","ios":"levelo://app?vid=42b2945a-873e-44b2-ae60-3504061c9f79"},"vehicle_type_id":"4","last_reported":1736561464,"current_range_meters":12800,"station_id":"ce4bhbp2rcd13ifvqerg","pricing_plan_id":"cebpf4jnsgd1na2vs0mg"},{"bike_id":"4a1197e9-1d8f-4601-b512-fd7b383aeec4","system_id":"levelo_inurba_marseille","lat":43.23964,"lon":5.36631,"is_reserved":false,"is_disabled":false,"rental_uris":{"android":"levelo://app?vid=4a1197e9-1d8f-4601-b512-fd7b383aeec4","ios":"levelo://app?vid=4a1197e9-1d8f-4601-b512-fd7b383aeec4"},"vehicle_type_id":"4","last_reported":1736561464,"current_range_meters":21600,"station_id":"ce4bhi12rcd13ifvqfp0","pricing_plan_id":"cebpf4jnsgd1na2vs0mg"},{"bike_id":"5e751dc9-d0f7-485e-a2a1-1e43b64bc915","system_id":"levelo_inurba_marseille","lat":43.28585,"lon":5.39493,"is_reserved":false,"is_disabled":false,"rental_uris":{"android":"levelo://app?vid=5e751dc9-d0f7-485e-a2a1-1e43b64bc915","ios":"levelo://app?vid=5e751dc9-d0f7-485e-a2a1-1e43b64bc915"},"vehicle_type_id":"4","last_reported":1736561464,"current_range_meters":35200,"station_id":"ce4bh292rcd13ifvqdg0","pricing_plan_id":"cebpf4jnsgd1na2vs0mg"},{"bike_id":"7d80a78b-0e36-49c4-9d6e-50edf6ca6450","system_id":"levelo_inurba_marseille","lat":43.27985,"lon":5.41659,"is_reserved":false,"is_disabled":false,"rental_uris":{"android":"levelo://app?vid=7d80a78b-0e36-49c4-9d6e-50edf6ca6450","ios":"levelo://app?vid=7d80a78b-0e36-49c4-9d6e-50edf6ca6450"},"vehicle_type_id":"4","last_reported":1736561464,"current_range_meters":38800,"station_id":"ce4bho12rcd13ifvqh1g","pricing_plan_id":"cebpf4jnsgd1na2vs0mg"},{"bike_id":"f27315e5-5b6e-4c1c-bf3c-bb19556d13a1","system_id":"levelo_inurba_marseille","lat":43.33611,"lon":5.40986,"is_reserved":false,"is_disabled":false,"rental_uris":{"android":"levelo://app?vid=f27315e5-5b6e-4c1c-bf3c-bb19556d13a1","ios":"levelo://app?vid=f27315e5-5b6e-4c1c-bf3c-bb19556d13a1"},"vehicle_type_id":"4","last_reported":1736561464,"current_range_meters":38800,"station_id":"ce4bhqh2rcd13ifvqhmg","pricing_plan_id":"cebpf4jnsgd1na2vs0mg"},{"bike_id":"91e92e19-3b30-4f9d-9cb8-e0e26630b776","system_id":"levelo_inurba_marseille","lat":43.25853,"lon":5.399,"is_reserved":false,"is_disabled":false,"rental_uris":{"android":"levelo://app?vid=91e92e19-3b30-4f9d-9cb8-e0e26630b776","ios":"levelo://app?vid=91e92e19-3b30-4f9d-9cb8-e0e26630b776"},"vehicle_type_id":"4","last_reported":1736561464,"current_range_meters":28800,"station_id":"ce4bhl92rcd13ifvqghg","pricing_plan_id":"cebpf4jnsgd1na2vs0mg"},{"bike_id":"853d56cd-3451-4764-beab-a40e85523b05","system_id":"levelo_inurba_marseille","lat":43.24647,"lon":5.38898,"is_reserved":false,"is_disabled":false,"rental_uris":{"android":"levelo://app?vid=853d56cd-3451-4764-beab-a40e85523b05","ios":"levelo://app?vid=853d56cd-3451-4764-beab-a40e85523b05"},"vehicle_type_id":"4","last_reported":1736561464,"current_range_meters":6800,"station_id":"ce4bhg12rcd13ifvqf60","pricing_plan_id":"cebpf4jnsgd1na2vs0mg"},{"bike_id":"2c1e6826-ba01-47fd-9f3c-08c7df023fd8","system_id":"levelo_inurba_marseille","lat":43.28449,"lon":5.35894,"is_reserved":false,"is_disabled":false,"rental_uris":{"android":"levelo://app?vid=2c1e6826-ba01-47fd-9f3c-08c7df023fd8","ios":"levelo://app?vid=2c1e6826-ba01-47fd-9f3c-08c7df023fd8"},"vehicle_type_id":"4","last_reported":1736561464,"current_range_meters":20800,"station_id":"ce4bhah2rcd13ifvqei0","pricing_plan_id":"cebpf4jnsgd1na2vs0mg"},{"bike_id":"004c2ac5-7f25-4e48-8a80-9a02537f6ba6","system_id":"levelo_inurba_marseille","lat":43.32101,"lon":5.36774,"is_reserved":false,"is_disabled":false,"rental_uris":{"android":"levelo://app?vid=004c2ac5-7f25-4e48-8a80-9a02537f6ba6","ios":"levelo://app?vid=004c2ac5-7f25-4e48-8a80-9a02537f6ba6"},"vehicle_type_id":"4","last_reported":1736561464,"current_range_meters":32800,"station_id":"ce4bhrh2rcd13ifvqhug","pricing_plan_id":"cebpf4jnsgd1na2vs0mg"},{"bike_id":"6a8dc65c-8c47-4239-8815-8efa2acdc338","system_id":"levelo_inurba_marseille","lat":43.27978,"lon":5.41646,"is_reserved":false,"is_disabled":true,"rental_uris":{"android":"levelo://app?vid=6a8dc65c-8c47-4239-8815-8efa2acdc338","ios":"levelo://app?vid=6a8dc65c-8c47-4239-8815-8efa2acdc338"},"vehicle_type_id":"4","last_reported":1736561464,"current_range_meters":12800,"station_id":"ce4bho12rcd13ifvqh1g","pricing_plan_id":"cebpf4jnsgd1na2vs0mg"},{"bike_id":"2f457c0c-5283-4f66-b319-69a87ce07d89","system_id":"levelo_inurba_marseille","lat":43.24998,"lon":5.38928,"is_reserved":false,"is_disabled":false,"rental_uris":{"android":"levelo://app?vid=2f457c0c-5283-4f66-b319-69a87ce07d89","ios":"levelo://app?vid=2f457c0c-5283-4f66-b319-69a87ce07d89"},"vehicle_type_id":"4","last_reported":1736561464,"current_range_meters":32800,"station_id":"ce4bhgp2rcd13ifvqfd0","pricing_plan_id":"cebpf4jnsgd1na2vs0mg"},{"bike_id":"aca9d58c-8821-4d79-88c1-67c3a044952f","system_id":"levelo_inurba_marseille","lat":43.33023,"lon":5.39046,"is_reserved":false,"is_disabled":false,"rental_uris":{"android":"levelo://app?vid=aca9d58c-8821-4d79-88c1-67c3a044952f","ios":"levelo://app?vid=aca9d58c-8821-4d79-88c1-67c3a044952f"},"vehicle_type_id":"4","last_reported":1736561464,"current_range_meters":24000,"station_id":"ce4bhr92rcd13ifvqhrg","pricing_plan_id":"cebpf4jnsgd1na2vs0mg"},{"bike_id":"86cd1141-6e96-4c04-94b3-22ca752a46a1","system_id":"levelo_inurba_marseille","lat":43.23181,"lon":5.39983,"is_reserved":false,"is_disabled":false,"rental_uris":{"android":"levelo://app?vid=86cd1141-6e96-4c04-94b3-22ca752a46a1","ios":"levelo://app?vid=86cd1141-6e96-4c04-94b3-22ca752a46a1"},"vehicle_type_id":"4","last_reported":1736561464,"current_range_meters":39200,"station_id":"ce4bhn12rcd13ifvqgqg","pricing_plan_id":"cebpf4jnsgd1na2vs0mg"},{"bike_id":"0754a3a6-d8ad-4e11-a0fd-2e381f851794","system_id":"levelo_inurba_marseille","lat":43.33727,"lon":5.39174,"is_reserved":false,"is_disabled":false,"rental_uris":{"android":"levelo://app?vid=0754a3a6-d8ad-4e11-a0fd-2e381f851794","ios":"levelo://app?vid=0754a3a6-d8ad-4e11-a0fd-2e381f851794"},"vehicle_type_id":"4","last_reported":1736561464,"current_range_meters":38800,"station_id":"ce4bhr92rcd13ifvqhsg","pricing_plan_id":"cebpf4jnsgd1na2vs0mg"},{"bike_id":"ba43f1cb-442f-415b-aaf2-ab3a50e56056","system_id":"levelo_inurba_marseille","lat":43.23958,"lon":5.36633,"is_reserved":false,"is_disabled":false,"rental_uris":{"android":"levelo://app?vid=ba43f1cb-442f-415b-aaf2-ab3a50e56056","ios":"levelo://app?vid=ba43f1cb-442f-415b-aaf2-ab3a50e56056"},"vehicle_type_id":"4","last_reported":1736561464,"current_range_meters":11200,"station_id":"ce4bhi12rcd13ifvqfp0","pricing_plan_id":"cebpf4jnsgd1na2vs0mg"},{"bike_id":"50bd41a2-4134-4514-bd21-8188f8f923aa","system_id":"levelo_inurba_marseille","lat":43.287,"lon":5.39936,"is_reserved":false,"is_disabled":true,"rental_uris":{"android":"levelo://app?vid=50bd41a2-4134-4514-bd21-8188f8f923aa","ios":"levelo://app?vid=50bd41a2-4134-4514-bd21-8188f8f923aa"},"vehicle_type_id":"4","last_reported":1736561464,"current_range_meters":1600,"station_id":"","pricing_plan_id":"cebpf4jnsgd1na2vs0mg"},{"bike_id":"c1dea8eb-dedb-48c3-82b9-ba4d059a0755","system_id":"levelo_inurba_marseille","lat":43.26566,"lon":5.3727,"is_reserved":false,"is_disabled":true,"rental_uris":{"android":"levelo://app?vid=c1dea8eb-dedb-48c3-82b9-ba4d059a0755","ios":"levelo://app?vid=c1dea8eb-dedb-48c3-82b9-ba4d059a0755"},"vehicle_type_id":"4","last_reported":1736561464,"current_range_meters":10800,"station_id":"ce4bhg12rcd13ifvqf70","pricing_plan_id":"cebpf4jnsgd1na2vs0mg"},{"bike_id":"666c0c92-428a-4f95-8531-2a4d6f4a5bb0","system_id":"levelo_inurba_marseille","lat":43.24704,"lon":5.38133,"is_reserved":false,"is_disabled":false,"rental_uris":{"android":"levelo://app?vid=666c0c92-428a-4f95-8531-2a4d6f4a5bb0","ios":"levelo://app?vid=666c0c92-428a-4f95-8531-2a4d6f4a5bb0"},"vehicle_type_id":"4","last_reported":1736561464,"current_range_meters":9600,"station_id":"","pricing_plan_id":"cebpf4jnsgd1na2vs0mg"},{"bike_id":"3e35ef7b-3237-4c6e-a7b1-693543e13672","system_id":"levelo_inurba_marseille","lat":43.24655,"lon":5.38887,"is_reserved":false,"is_disabled":false,"rental_uris":{"android":"levelo://app?vid=3e35ef7b-3237-4c6e-a7b1-693543e13672","ios":"levelo://app?vid=3e35ef7b-3237-4c6e-a7b1-693543e13672"},"vehicle_type_id":"4","last_reported":1736561464,"current_range_meters":30400,"station_id":"ce4bhg12rcd13ifvqf60","pricing_plan_id":"cebpf4jnsgd1na2vs0mg"},{"bike_id":"018b1dec-e598-4953-b405-2ab1506b9d97","system_id":"levelo_inurba_marseille","lat":43.29017,"lon":5.35604,"is_reserved":false,"is_disabled":false,"rental_uris":{"android":"levelo://app?vid=018b1dec-e598-4953-b405-2ab1506b9d97","ios":"levelo://app?vid=018b1dec-e598-4953-b405-2ab1506b9d97"},"vehicle_type_id":"4","last_reported":1736561464,"current_range_meters":39200,"station_id":"ce4bhb92rcd13ifvqen0","pricing_plan_id":"cebpf4jnsgd1na2vs0mg"},{"bike_id":"f1fed00d-7214-4615-a882-fc8ac039a804","system_id":"levelo_inurba_marseille","lat":43.31721,"lon":5.42406,"is_reserved":false,"is_disabled":false,"rental_uris":{"android":"levelo://app?vid=f1fed00d-7214-4615-a882-fc8ac039a804","ios":"levelo://app?vid=f1fed00d-7214-4615-a882-fc8ac039a804"},"vehicle_type_id":"4","last_reported":1736561464,"current_range_meters":16000,"station_id":"ce4bhp92rcd13ifvqhbg","pricing_plan_id":"cebpf4jnsgd1na2vs0mg"},{"bike_id":"71cf82d9-2798-42b4-a4cc-4ab59dd88803","system_id":"levelo_inurba_marseille","lat":43.23185,"lon":5.39986,"is_reserved":false,"is_disabled":false,"rental_uris":{"android":"levelo://app?vid=71cf82d9-2798-42b4-a4cc-4ab59dd88803","ios":"levelo://app?vid=71cf82d9-2798-42b4-a4cc-4ab59dd88803"},"vehicle_type_id":"4","last_reported":1736561464,"current_range_meters":9200,"station_id":"ce4bhn12rcd13ifvqgqg","pricing_plan_id":"cebpf4jnsgd1na2vs0mg"},{"bike_id":"dcb2126a-d21d-4ccc-8dd5-f93c643abd4d","system_id":"levelo_inurba_marseille","lat":43.28919,"lon":5.38413,"is_reserved":false,"is_disabled":true,"rental_uris":{"android":"levelo://app?vid=dcb2126a-d21d-4ccc-8dd5-f93c643abd4d","ios":"levelo://app?vid=dcb2126a-d21d-4ccc-8dd5-f93c643abd4d"},"vehicle_type_id":"4","last_reported":1736561464,"current_range_meters":10000,"station_id":"ce4bh612rcd13ifvqe6g","pricing_plan_id":"cebpf4jnsgd1na2vs0mg"},{"bike_id":"40aa582d-815a-4ab4-b49f-d3b3d622ee04","system_id":"levelo_inurba_marseille","lat":43.23062,"lon":5.35502,"is_reserved":false,"is_disabled":false,"rental_uris":{"android":"levelo://app?vid=40aa582d-815a-4ab4-b49f-d3b3d622ee04","ios":"levelo://app?vid=40aa582d-815a-4ab4-b49f-d3b3d622ee04"},"vehicle_type_id":"4","last_reported":1736561464,"current_range_meters":38800,"station_id":"cpo3342slgdg3j2ifvpg","pricing_plan_id":"cebpf4jnsgd1na2vs0mg"},{"bike_id":"6b750947-fb43-40e2-9931-495446cc2b3f","system_id":"levelo_inurba_marseille","lat":43.22916,"lon":5.35379,"is_reserved":false,"is_disabled":false,"rental_uris":{"android":"levelo://app?vid=6b750947-fb43-40e2-9931-495446cc2b3f","ios":"levelo://app?vid=6b750947-fb43-40e2-9931-495446cc2b3f"},"vehicle_type_id":"4","last_reported":1736561464,"current_range_meters":38800,"station_id":"cpo3532slgdg3j2ikp40","pricing_plan_id":"cebpf4jnsgd1na2vs0mg"},{"bike_id":"c8e997c0-8580-4d0f-8d9f-0766596381e1","system_id":"levelo_inurba_marseille","lat":43.34025,"lon":5.37533,"is_reserved":false,"is_disabled":false,"rental_uris":{"android":"levelo://app?vid=c8e997c0-8580-4d0f-8d9f-0766596381e1","ios":"levelo://app?vid=c8e997c0-8580-4d0f-8d9f-0766596381e1"},"vehicle_type_id":"4","last_reported":1736561464,"current_range_meters":8000,"station_id":"","pricing_plan_id":"cebpf4jnsgd1na2vs0mg"},{"bike_id":"cdd6ea3b-b2d4-4fc4-9a6f-f8f110676853","system_id":"levelo_inurba_marseille","lat":43.275614,"lon":5.384484,"is_reserved":false,"is_disabled":false,"rental_uris":{"android":"levelo://app?vid=cdd6ea3b-b2d4-4fc4-9a6f-f8f110676853","ios":"levelo://app?vid=cdd6ea3b-b2d4-4fc4-9a6f-f8f110676853"},"vehicle_type_id":"4","last_reported":1736561464,"current_range_meters":37600,"station_id":"ce4bhh92rcd13ifvqfi0","pricing_plan_id":"cebpf4jnsgd1na2vs0mg"},{"bike_id":"5b79b006-d7c3-4b04-9541-c9d77e2d63cb","system_id":"levelo_inurba_marseille","lat":43.31731,"lon":5.40458,"is_reserved":false,"is_disabled":true,"rental_uris":{"android":"levelo://app?vid=5b79b006-d7c3-4b04-9541-c9d77e2d63cb","ios":"levelo://app?vid=5b79b006-d7c3-4b04-9541-c9d77e2d63cb"},"vehicle_type_id":"4","last_reported":1736561464,"current_range_meters":14000,"station_id":"ce4bh012rcd13ifvqd00","pricing_plan_id":"cebpf4jnsgd1na2vs0mg"},{"bike_id":"1f5ef9f6-050f-4f79-a9ce-badba66ed461","system_id":"levelo_inurba_marseille","lat":43.28624,"lon":5.40036,"is_reserved":false,"is_disabled":false,"rental_uris":{"android":"levelo://app?vid=1f5ef9f6-050f-4f79-a9ce-badba66ed461","ios":"levelo://app?vid=1f5ef9f6-050f-4f79-a9ce-badba66ed461"},"vehicle_type_id":"4","last_reported":1736561464,"current_range_meters":24400,"station_id":"","pricing_plan_id":"cebpf4jnsgd1na2vs0mg"},{"bike_id":"56bddece-92f9-4ae4-872a-f4e44198a5cb","system_id":"levelo_inurba_marseille","lat":43.286693,"lon":5.363552,"is_reserved":false,"is_disabled":false,"rental_uris":{"android":"levelo://app?vid=56bddece-92f9-4ae4-872a-f4e44198a5cb","ios":"levelo://app?vid=56bddece-92f9-4ae4-872a-f4e44198a5cb"},"vehicle_type_id":"4","last_reported":1736561464,"current_range_meters":21600,"station_id":"ce4bhah2rcd13ifvqej0","pricing_plan_id":"cebpf4jnsgd1na2vs0mg"},{"bike_id":"79da2544-1cc6-4479-aa5c-48161bc5839b","system_id":"levelo_inurba_marseille","lat":43.30406,"lon":5.39745,"is_reserved":false,"is_disabled":true,"rental_uris":{"android":"levelo://app?vid=79da2544-1cc6-4479-aa5c-48161bc5839b","ios":"levelo://app?vid=79da2544-1cc6-4479-aa5c-48161bc5839b"},"vehicle_type_id":"4","last_reported":1736561464,"current_range_meters":28800,"station_id":"ce4bh092rcd13ifvqd20","pricing_plan_id":"cebpf4jnsgd1na2vs0mg"},{"bike_id":"8c51b07a-8e07-48bf-b1a9-e9c7292766b1","system_id":"levelo_inurba_marseille","lat":43.25719,"lon":5.411,"is_reserved":false,"is_disabled":false,"rental_uris":{"android":"levelo://app?vid=8c51b07a-8e07-48bf-b1a9-e9c7292766b1","ios":"levelo://app?vid=8c51b07a-8e07-48bf-b1a9-e9c7292766b1"},"vehicle_type_id":"4","last_reported":1736561464,"current_range_meters":6400,"station_id":"ce4bhkp2rcd13ifvqgd0","pricing_plan_id":"cebpf4jnsgd1na2vs0mg"},{"bike_id":"6d907632-b7a4-409f-98d5-031bae93ab87","system_id":"levelo_inurba_marseille","lat":43.23956,"lon":5.36648,"is_reserved":false,"is_disabled":false,"rental_uris":{"android":"levelo://app?vid=6d907632-b7a4-409f-98d5-031bae93ab87","ios":"levelo://app?vid=6d907632-b7a4-409f-98d5-031bae93ab87"},"vehicle_type_id":"4","last_reported":1736561464,"current_range_meters":38000,"station_id":"ce4bhi12rcd13ifvqfp0","pricing_plan_id":"cebpf4jnsgd1na2vs0mg"},{"bike_id":"eb9b2df2-fdc1-4d66-abed-6bda4748c4f1","system_id":"levelo_inurba_marseille","lat":43.26202,"lon":5.3792,"is_reserved":false,"is_disabled":false,"rental_uris":{"android":"levelo://app?vid=eb9b2df2-fdc1-4d66-abed-6bda4748c4f1","ios":"levelo://app?vid=eb9b2df2-fdc1-4d66-abed-6bda4748c4f1"},"vehicle_type_id":"4","last_reported":1736561464,"current_range_meters":28800,"station_id":"ce4bhjp2rcd13ifvqg90","pricing_plan_id":"cebpf4jnsgd1na2vs0mg"},{"bike_id":"ff5a9bce-26da-47b3-90f2-801aa7ac6b31","system_id":"levelo_inurba_marseille","lat":43.30772,"lon":5.37647,"is_reserved":false,"is_disabled":false,"rental_uris":{"android":"levelo://app?vid=ff5a9bce-26da-47b3-90f2-801aa7ac6b31","ios":"levelo://app?vid=ff5a9bce-26da-47b3-90f2-801aa7ac6b31"},"vehicle_type_id":"4","last_reported":1736561464,"current_range_meters":38800,"station_id":"ce4bgv92rcd13ifvqcq0","pricing_plan_id":"cebpf4jnsgd1na2vs0mg"},{"bike_id":"4e36486e-78ed-45f0-99d4-e2d2e858abb4","system_id":"levelo_inurba_marseille","lat":43.28941,"lon":5.39616,"is_reserved":false,"is_disabled":false,"rental_uris":{"android":"levelo://app?vid=4e36486e-78ed-45f0-99d4-e2d2e858abb4","ios":"levelo://app?vid=4e36486e-78ed-45f0-99d4-e2d2e858abb4"},"vehicle_type_id":"4","last_reported":1736561464,"current_range_meters":37600,"station_id":"ce4bh3h2rcd13ifvqdn0","pricing_plan_id":"cebpf4jnsgd1na2vs0mg"},{"bike_id":"def74ce6-753a-4e79-a7db-761444b894cb","system_id":"levelo_inurba_marseille","lat":43.27952,"lon":5.41032,"is_reserved":false,"is_disabled":false,"rental_uris":{"android":"levelo://app?vid=def74ce6-753a-4e79-a7db-761444b894cb","ios":"levelo://app?vid=def74ce6-753a-4e79-a7db-761444b894cb"},"vehicle_type_id":"4","last_reported":1736561464,"current_range_meters":28400,"station_id":"ce4bhnp2rcd13ifvqh0g","pricing_plan_id":"cebpf4jnsgd1na2vs0mg"},{"bike_id":"6b764e8c-1a43-46a3-97d7-14881c8e848c","system_id":"levelo_inurba_marseille","lat":43.25827,"lon":5.39427,"is_reserved":false,"is_disabled":false,"rental_uris":{"android":"levelo://app?vid=6b764e8c-1a43-46a3-97d7-14881c8e848c","ios":"levelo://app?vid=6b764e8c-1a43-46a3-97d7-14881c8e848c"},"vehicle_type_id":"4","last_reported":1736561464,"current_range_meters":38800,"station_id":"ce4bhip2rcd13ifvqft0","pricing_plan_id":"cebpf4jnsgd1na2vs0mg"},{"bike_id":"d8327471-e10e-4e1d-a46b-c43156fc0620","system_id":"levelo_inurba_marseille","lat":43.26783,"lon":5.39426,"is_reserved":false,"is_disabled":true,"rental_uris":{"android":"levelo://app?vid=d8327471-e10e-4e1d-a46b-c43156fc0620","ios":"levelo://app?vid=d8327471-e10e-4e1d-a46b-c43156fc0620"},"vehicle_type_id":"4","last_reported":1736561464,"current_range_meters":800,"station_id":"ce4bhh12rcd13ifvqfg0","pricing_plan_id":"cebpf4jnsgd1na2vs0mg"},{"bike_id":"f404313a-b453-4ed2-9cf2-f503539db699","system_id":"levelo_inurba_marseille","lat":43.2798,"lon":5.39978,"is_reserved":false,"is_disabled":true,"rental_uris":{"android":"levelo://app?vid=f404313a-b453-4ed2-9cf2-f503539db699","ios":"levelo://app?vid=f404313a-b453-4ed2-9cf2-f503539db699"},"vehicle_type_id":"4","last_reported":1736561464,"current_range_meters":3200,"station_id":"ce4bho92rcd13ifvqh4g","pricing_plan_id":"cebpf4jnsgd1na2vs0mg"},{"bike_id":"be7cb983-263e-4fb2-bba0-39d4210e0eee","system_id":"levelo_inurba_marseille","lat":43.3079,"lon":5.37656,"is_reserved":false,"is_disabled":false,"rental_uris":{"android":"levelo://app?vid=be7cb983-263e-4fb2-bba0-39d4210e0eee","ios":"levelo://app?vid=be7cb983-263e-4fb2-bba0-39d4210e0eee"},"vehicle_type_id":"4","last_reported":1736561464,"current_range_meters":9600,"station_id":"ce4bgv92rcd13ifvqcq0","pricing_plan_id":"cebpf4jnsgd1na2vs0mg"},{"bike_id":"58804d2d-088a-45f1-b5c0-22e26cb045f7","system_id":"levelo_inurba_marseille","lat":43.28667,"lon":5.38661,"is_reserved":false,"is_disabled":false,"rental_uris":{"android":"levelo://app?vid=58804d2d-088a-45f1-b5c0-22e26cb045f7","ios":"levelo://app?vid=58804d2d-088a-45f1-b5c0-22e26cb045f7"},"vehicle_type_id":"4","last_reported":1736561464,"current_range_meters":38800,"station_id":"ce4bh492rcd13ifvqdug","pricing_plan_id":"cebpf4jnsgd1na2vs0mg"},{"bike_id":"1e4652f2-30e2-4f03-86f9-f7057516dcd0","system_id":"levelo_inurba_marseille","lat":43.29662,"lon":5.40213,"is_reserved":false,"is_disabled":false,"rental_uris":{"android":"levelo://app?vid=1e4652f2-30e2-4f03-86f9-f7057516dcd0","ios":"levelo://app?vid=1e4652f2-30e2-4f03-86f9-f7057516dcd0"},"vehicle_type_id":"4","last_reported":1736561464,"current_range_meters":24000,"station_id":"","pricing_plan_id":"cebpf4jnsgd1na2vs0mg"},{"bike_id":"205b7d5c-f249-493e-95ba-aef9f33766e7","system_id":"levelo_inurba_marseille","lat":43.2407,"lon":5.37736,"is_reserved":false,"is_disabled":false,"rental_uris":{"android":"levelo://app?vid=205b7d5c-f249-493e-95ba-aef9f33766e7","ios":"levelo://app?vid=205b7d5c-f249-493e-95ba-aef9f33766e7"},"vehicle_type_id":"4","last_reported":1736561464,"current_range_meters":33600,"station_id":"ce4bhnp2rcd13ifvqgvg","pricing_plan_id":"cebpf4jnsgd1na2vs0mg"},{"bike_id":"4fe9a578-bb1b-4c06-a180-e2c3473d1475","system_id":"levelo_inurba_marseille","lat":43.30795,"lon":5.3816,"is_reserved":false,"is_disabled":false,"rental_uris":{"android":"levelo://app?vid=4fe9a578-bb1b-4c06-a180-e2c3473d1475","ios":"levelo://app?vid=4fe9a578-bb1b-4c06-a180-e2c3473d1475"},"vehicle_type_id":"4","last_reported":1736561464,"current_range_meters":31200,"station_id":"ce4bgt12rcd13ifvqce0","pricing_plan_id":"cebpf4jnsgd1na2vs0mg"},{"bike_id":"c0b21104-fdbd-4548-a6af-f0a8553ce1f9","system_id":"levelo_inurba_marseille","lat":43.33014,"lon":5.3903,"is_reserved":false,"is_disabled":false,"rental_uris":{"android":"levelo://app?vid=c0b21104-fdbd-4548-a6af-f0a8553ce1f9","ios":"levelo://app?vid=c0b21104-fdbd-4548-a6af-f0a8553ce1f9"},"vehicle_type_id":"4","last_reported":1736561464,"current_range_meters":17600,"station_id":"ce4bhr92rcd13ifvqhrg","pricing_plan_id":"cebpf4jnsgd1na2vs0mg"},{"bike_id":"426ee80e-06b0-4d0f-86a5-ea8ad64aaa11","system_id":"levelo_inurba_marseille","lat":43.28908,"lon":5.4378,"is_reserved":false,"is_disabled":false,"rental_uris":{"android":"levelo://app?vid=426ee80e-06b0-4d0f-86a5-ea8ad64aaa11","ios":"levelo://app?vid=426ee80e-06b0-4d0f-86a5-ea8ad64aaa11"},"vehicle_type_id":"4","last_reported":1736561464,"current_range_meters":19200,"station_id":"","pricing_plan_id":"cebpf4jnsgd1na2vs0mg"},{"bike_id":"f4ba1f99-e6f4-494e-88e3-098ca5ac79ff","system_id":"levelo_inurba_marseille","lat":43.27845,"lon":5.39202,"is_reserved":false,"is_disabled":false,"rental_uris":{"android":"levelo://app?vid=f4ba1f99-e6f4-494e-88e3-098ca5ac79ff","ios":"levelo://app?vid=f4ba1f99-e6f4-494e-88e3-098ca5ac79ff"},"vehicle_type_id":"4","last_reported":1736561464,"current_range_meters":39200,"station_id":"ce4bhjp2rcd13ifvqga0","pricing_plan_id":"cebpf4jnsgd1na2vs0mg"},{"bike_id":"0305a46a-8828-4eb8-9b74-a0ed320d40a1","system_id":"levelo_inurba_marseille","lat":43.30276,"lon":5.37701,"is_reserved":false,"is_disabled":false,"rental_uris":{"android":"levelo://app?vid=0305a46a-8828-4eb8-9b74-a0ed320d40a1","ios":"levelo://app?vid=0305a46a-8828-4eb8-9b74-a0ed320d40a1"},"vehicle_type_id":"4","last_reported":1736561464,"current_range_meters":37600,"station_id":"ce4bguh2rcd13ifvqcj0","pricing_plan_id":"cebpf4jnsgd1na2vs0mg"},{"bike_id":"f4649fbc-df91-4234-a3ba-5f8e7e2f6f23","system_id":"levelo_inurba_marseille","lat":43.2978,"lon":5.39352,"is_reserved":false,"is_disabled":false,"rental_uris":{"android":"levelo://app?vid=f4649fbc-df91-4234-a3ba-5f8e7e2f6f23","ios":"levelo://app?vid=f4649fbc-df91-4234-a3ba-5f8e7e2f6f23"},"vehicle_type_id":"4","last_reported":1736561464,"current_range_meters":38800,"station_id":"chh1huq6cuj3fo74tm60","pricing_plan_id":"cebpf4jnsgd1na2vs0mg"},{"bike_id":"314d0b94-da02-4586-aafe-32947b2151c1","system_id":"levelo_inurba_marseille","lat":43.25811,"lon":5.39387,"is_reserved":false,"is_disabled":true,"rental_uris":{"android":"levelo://app?vid=314d0b94-da02-4586-aafe-32947b2151c1","ios":"levelo://app?vid=314d0b94-da02-4586-aafe-32947b2151c1"},"vehicle_type_id":"4","last_reported":1736561464,"current_range_meters":7200,"station_id":"ce4bhip2rcd13ifvqft0","pricing_plan_id":"cebpf4jnsgd1na2vs0mg"},{"bike_id":"ff83f4be-66ea-4e71-9ae6-0d26428845e5","system_id":"levelo_inurba_marseille","lat":43.3079,"lon":5.38152,"is_reserved":false,"is_disabled":false,"rental_uris":{"android":"levelo://app?vid=ff83f4be-66ea-4e71-9ae6-0d26428845e5","ios":"levelo://app?vid=ff83f4be-66ea-4e71-9ae6-0d26428845e5"},"vehicle_type_id":"4","last_reported":1736561464,"current_range_meters":30800,"station_id":"ce4bgt12rcd13ifvqce0","pricing_plan_id":"cebpf4jnsgd1na2vs0mg"},{"bike_id":"b27cc99f-6b66-4ab0-833d-ef1cae10794f","system_id":"levelo_inurba_marseille","lat":43.25911,"lon":5.39951,"is_reserved":false,"is_disabled":false,"rental_uris":{"android":"levelo://app?vid=b27cc99f-6b66-4ab0-833d-ef1cae10794f","ios":"levelo://app?vid=b27cc99f-6b66-4ab0-833d-ef1cae10794f"},"vehicle_type_id":"4","last_reported":1736561464,"current_range_meters":39200,"station_id":"ce4bhl92rcd13ifvqghg","pricing_plan_id":"cebpf4jnsgd1na2vs0mg"},{"bike_id":"ac0e8162-b3fd-4541-ab8c-fac6912321c6","system_id":"levelo_inurba_marseille","lat":43.29973,"lon":5.38492,"is_reserved":false,"is_disabled":true,"rental_uris":{"android":"levelo://app?vid=ac0e8162-b3fd-4541-ab8c-fac6912321c6","ios":"levelo://app?vid=ac0e8162-b3fd-4541-ab8c-fac6912321c6"},"vehicle_type_id":"4","last_reported":1736561464,"current_range_meters":26000,"station_id":"ce4bgj92rcd13ifvqbd0","pricing_plan_id":"cebpf4jnsgd1na2vs0mg"},{"bike_id":"64e22768-79ef-4593-847f-a621c4893945","system_id":"levelo_inurba_marseille","lat":43.31533,"lon":5.38017,"is_reserved":false,"is_disabled":false,"rental_uris":{"android":"levelo://app?vid=64e22768-79ef-4593-847f-a621c4893945","ios":"levelo://app?vid=64e22768-79ef-4593-847f-a621c4893945"},"vehicle_type_id":"4","last_reported":1736561464,"current_range_meters":38800,"station_id":"ce4bhsp2rcd13ifvqi50","pricing_plan_id":"cebpf4jnsgd1na2vs0mg"},{"bike_id":"f4dbc556-58b0-4dfd-be99-18a51c032520","system_id":"levelo_inurba_marseille","lat":43.24173,"lon":5.39724,"is_reserved":false,"is_disabled":true,"rental_uris":{"android":"levelo://app?vid=f4dbc556-58b0-4dfd-be99-18a51c032520","ios":"levelo://app?vid=f4dbc556-58b0-4dfd-be99-18a51c032520"},"vehicle_type_id":"4","last_reported":1736561464,"current_range_meters":38800,"station_id":"ce4bhn12rcd13ifvqgpg","pricing_plan_id":"cebpf4jnsgd1na2vs0mg"},{"bike_id":"3b7f7710-b140-46ff-8020-c87dc109a871","system_id":"levelo_inurba_marseille","lat":43.30877,"lon":5.37216,"is_reserved":false,"is_disabled":false,"rental_uris":{"android":"levelo://app?vid=3b7f7710-b140-46ff-8020-c87dc109a871","ios":"levelo://app?vid=3b7f7710-b140-46ff-8020-c87dc109a871"},"vehicle_type_id":"4","last_reported":1736561464,"current_range_meters":25200,"station_id":"ce4bguh2rcd13ifvqckg","pricing_plan_id":"cebpf4jnsgd1na2vs0mg"},{"bike_id":"d2916d76-3bbb-46d8-809e-46d373125475","system_id":"levelo_inurba_marseille","lat":43.284247,"lon":5.349864,"is_reserved":false,"is_disabled":false,"rental_uris":{"android":"levelo://app?vid=d2916d76-3bbb-46d8-809e-46d373125475","ios":"levelo://app?vid=d2916d76-3bbb-46d8-809e-46d373125475"},"vehicle_type_id":"4","last_reported":1736561464,"current_range_meters":9200,"station_id":"ce4bhbh2rcd13ifvqepg","pricing_plan_id":"cebpf4jnsgd1na2vs0mg"},{"bike_id":"441d2b48-7037-41b0-bd6b-b8b0699bf5bc","system_id":"levelo_inurba_marseille","lat":43.28831,"lon":5.39304,"is_reserved":false,"is_disabled":false,"rental_uris":{"android":"levelo://app?vid=441d2b48-7037-41b0-bd6b-b8b0699bf5bc","ios":"levelo://app?vid=441d2b48-7037-41b0-bd6b-b8b0699bf5bc"},"vehicle_type_id":"4","last_reported":1736561464,"current_range_meters":38800,"station_id":"ce4bh2p2rcd13ifvqdi0","pricing_plan_id":"cebpf4jnsgd1na2vs0mg"},{"bike_id":"615a1e6f-4735-4f02-948e-aeb057bf64eb","system_id":"levelo_inurba_marseille","lat":43.27998,"lon":5.40004,"is_reserved":false,"is_disabled":false,"rental_uris":{"android":"levelo://app?vid=615a1e6f-4735-4f02-948e-aeb057bf64eb","ios":"levelo://app?vid=615a1e6f-4735-4f02-948e-aeb057bf64eb"},"vehicle_type_id":"4","last_reported":1736561464,"current_range_meters":38400,"station_id":"ce4bho92rcd13ifvqh4g","pricing_plan_id":"cebpf4jnsgd1na2vs0mg"},{"bike_id":"824b3cea-9aa4-416a-829a-13497342160b","system_id":"levelo_inurba_marseille","lat":43.28475,"lon":5.38443,"is_reserved":false,"is_disabled":false,"rental_uris":{"android":"levelo://app?vid=824b3cea-9aa4-416a-829a-13497342160b","ios":"levelo://app?vid=824b3cea-9aa4-416a-829a-13497342160b"},"vehicle_type_id":"4","last_reported":1736561464,"current_range_meters":36000,"station_id":"ce4bh512rcd13ifvqe3g","pricing_plan_id":"cebpf4jnsgd1na2vs0mg"},{"bike_id":"80609ff8-7d7d-4ae2-9159-aea837c7c52b","system_id":"levelo_inurba_marseille","lat":43.23957,"lon":5.36623,"is_reserved":false,"is_disabled":false,"rental_uris":{"android":"levelo://app?vid=80609ff8-7d7d-4ae2-9159-aea837c7c52b","ios":"levelo://app?vid=80609ff8-7d7d-4ae2-9159-aea837c7c52b"},"vehicle_type_id":"4","last_reported":1736561464,"current_range_meters":12400,"station_id":"ce4bhi12rcd13ifvqfp0","pricing_plan_id":"cebpf4jnsgd1na2vs0mg"},{"bike_id":"a54e3103-dd05-4edc-b802-d77e205514d2","system_id":"levelo_inurba_marseille","lat":43.2551,"lon":5.37657,"is_reserved":false,"is_disabled":false,"rental_uris":{"android":"levelo://app?vid=a54e3103-dd05-4edc-b802-d77e205514d2","ios":"levelo://app?vid=a54e3103-dd05-4edc-b802-d77e205514d2"},"vehicle_type_id":"4","last_reported":1736561464,"current_range_meters":27200,"station_id":"ce4bhh12rcd13ifvqff0","pricing_plan_id":"cebpf4jnsgd1na2vs0mg"},{"bike_id":"35828faa-18e0-4956-b613-39471aef9dd1","system_id":"levelo_inurba_marseille","lat":43.31521,"lon":5.3725,"is_reserved":false,"is_disabled":false,"rental_uris":{"android":"levelo://app?vid=35828faa-18e0-4956-b613-39471aef9dd1","ios":"levelo://app?vid=35828faa-18e0-4956-b613-39471aef9dd1"},"vehicle_type_id":"4","last_reported":1736561464,"current_range_meters":38000,"station_id":"","pricing_plan_id":"cebpf4jnsgd1na2vs0mg"},{"bike_id":"ff26ca3b-66d2-47c9-bf97-1371a28b591b","system_id":"levelo_inurba_marseille","lat":43.28402,"lon":5.386,"is_reserved":false,"is_disabled":false,"rental_uris":{"android":"levelo://app?vid=ff26ca3b-66d2-47c9-bf97-1371a28b591b","ios":"levelo://app?vid=ff26ca3b-66d2-47c9-bf97-1371a28b591b"},"vehicle_type_id":"4","last_reported":1736561464,"current_range_meters":37600,"station_id":"ce4bh492rcd13ifvqdvg","pricing_plan_id":"cebpf4jnsgd1na2vs0mg"},{"bike_id":"4c98b426-117a-4c85-9df8-d16e360d8aed","system_id":"levelo_inurba_marseille","lat":43.31174,"lon":5.38722,"is_reserved":false,"is_disabled":false,"rental_uris":{"android":"levelo://app?vid=4c98b426-117a-4c85-9df8-d16e360d8aed","ios":"levelo://app?vid=4c98b426-117a-4c85-9df8-d16e360d8aed"},"vehicle_type_id":"4","last_reported":1736561464,"current_range_meters":27600,"station_id":"ce4bgv12rcd13ifvqcp0","pricing_plan_id":"cebpf4jnsgd1na2vs0mg"},{"bike_id":"5edb9b21-4917-4f45-9961-6635931db922","system_id":"levelo_inurba_marseille","lat":43.22923,"lon":5.3539,"is_reserved":false,"is_disabled":false,"rental_uris":{"android":"levelo://app?vid=5edb9b21-4917-4f45-9961-6635931db922","ios":"levelo://app?vid=5edb9b21-4917-4f45-9961-6635931db922"},"vehicle_type_id":"4","last_reported":1736561464,"current_range_meters":38800,"station_id":"cpo3532slgdg3j2ikp40","pricing_plan_id":"cebpf4jnsgd1na2vs0mg"},{"bike_id":"6c16b955-c13c-49a6-a5bb-29559922d02c","system_id":"levelo_inurba_marseille","lat":43.23957,"lon":5.36632,"is_reserved":false,"is_disabled":false,"rental_uris":{"android":"levelo://app?vid=6c16b955-c13c-49a6-a5bb-29559922d02c","ios":"levelo://app?vid=6c16b955-c13c-49a6-a5bb-29559922d02c"},"vehicle_type_id":"4","last_reported":1736561464,"current_range_meters":23200,"station_id":"ce4bhi12rcd13ifvqfp0","pricing_plan_id":"cebpf4jnsgd1na2vs0mg"},{"bike_id":"acc57c46-0c06-4767-b429-edb19e5dc1a2","system_id":"levelo_inurba_marseille","lat":43.30126,"lon":5.39885,"is_reserved":false,"is_disabled":true,"rental_uris":{"android":"levelo://app?vid=acc57c46-0c06-4767-b429-edb19e5dc1a2","ios":"levelo://app?vid=acc57c46-0c06-4767-b429-edb19e5dc1a2"},"vehicle_type_id":"4","last_reported":1736561464,"current_range_meters":28800,"station_id":"ce4bh0h2rcd13ifvqd40","pricing_plan_id":"cebpf4jnsgd1na2vs0mg"},{"bike_id":"816f16d8-6ff0-4785-861d-d7f867697579","system_id":"levelo_inurba_marseille","lat":43.31526,"lon":5.38053,"is_reserved":false,"is_disabled":false,"rental_uris":{"android":"levelo://app?vid=816f16d8-6ff0-4785-861d-d7f867697579","ios":"levelo://app?vid=816f16d8-6ff0-4785-861d-d7f867697579"},"vehicle_type_id":"4","last_reported":1736561464,"current_range_meters":38800,"station_id":"ce4bhsp2rcd13ifvqi50","pricing_plan_id":"cebpf4jnsgd1na2vs0mg"},{"bike_id":"7f297130-5859-40f6-8adb-5ad46eabf70c","system_id":"levelo_inurba_marseille","lat":43.30847,"lon":5.39655,"is_reserved":false,"is_disabled":false,"rental_uris":{"android":"levelo://app?vid=7f297130-5859-40f6-8adb-5ad46eabf70c","ios":"levelo://app?vid=7f297130-5859-40f6-8adb-5ad46eabf70c"},"vehicle_type_id":"4","last_reported":1736561464,"current_range_meters":27600,"station_id":"","pricing_plan_id":"cebpf4jnsgd1na2vs0mg"},{"bike_id":"ccb1b754-1c55-42c8-a839-f81bb658ca10","system_id":"levelo_inurba_marseille","lat":43.31478,"lon":5.37301,"is_reserved":false,"is_disabled":false,"rental_uris":{"android":"levelo://app?vid=ccb1b754-1c55-42c8-a839-f81bb658ca10","ios":"levelo://app?vid=ccb1b754-1c55-42c8-a839-f81bb658ca10"},"vehicle_type_id":"4","last_reported":1736561464,"current_range_meters":38800,"station_id":"ce4bgt12rcd13ifvqcd0","pricing_plan_id":"cebpf4jnsgd1na2vs0mg"},{"bike_id":"5a712bf8-b4ee-4f68-ab45-f981662d215e","system_id":"levelo_inurba_marseille","lat":43.31322,"lon":5.39686,"is_reserved":false,"is_disabled":false,"rental_uris":{"android":"levelo://app?vid=5a712bf8-b4ee-4f68-ab45-f981662d215e","ios":"levelo://app?vid=5a712bf8-b4ee-4f68-ab45-f981662d215e"},"vehicle_type_id":"4","last_reported":1736561464,"current_range_meters":30800,"station_id":"ce4bgvp2rcd13ifvqcu0","pricing_plan_id":"cebpf4jnsgd1na2vs0mg"},{"bike_id":"b86458a3-a41c-4953-a329-a88765884697","system_id":"levelo_inurba_marseille","lat":43.28835,"lon":5.35837,"is_reserved":false,"is_disabled":false,"rental_uris":{"android":"levelo://app?vid=b86458a3-a41c-4953-a329-a88765884697","ios":"levelo://app?vid=b86458a3-a41c-4953-a329-a88765884697"},"vehicle_type_id":"4","last_reported":1736561464,"current_range_meters":36400,"station_id":"ce4bhb12rcd13ifvqem0","pricing_plan_id":"cebpf4jnsgd1na2vs0mg"},{"bike_id":"5af52256-de7d-401d-b1d3-7b2e6225d370","system_id":"levelo_inurba_marseille","lat":43.28848,"lon":5.39317,"is_reserved":false,"is_disabled":false,"rental_uris":{"android":"levelo://app?vid=5af52256-de7d-401d-b1d3-7b2e6225d370","ios":"levelo://app?vid=5af52256-de7d-401d-b1d3-7b2e6225d370"},"vehicle_type_id":"4","last_reported":1736561464,"current_range_meters":25200,"station_id":"ce4bh2p2rcd13ifvqdi0","pricing_plan_id":"cebpf4jnsgd1na2vs0mg"},{"bike_id":"6be0c4ce-0844-4f84-87fd-0c954d6de298","system_id":"levelo_inurba_marseille","lat":43.28703,"lon":5.37405,"is_reserved":false,"is_disabled":false,"rental_uris":{"android":"levelo://app?vid=6be0c4ce-0844-4f84-87fd-0c954d6de298","ios":"levelo://app?vid=6be0c4ce-0844-4f84-87fd-0c954d6de298"},"vehicle_type_id":"4","last_reported":1736561464,"current_range_meters":39200,"station_id":"ce4bh3p2rcd13ifvqdq0","pricing_plan_id":"cebpf4jnsgd1na2vs0mg"},{"bike_id":"534c6702-dfa1-401b-970b-2ac69bdd882a","system_id":"levelo_inurba_marseille","lat":43.24066,"lon":5.37767,"is_reserved":false,"is_disabled":false,"rental_uris":{"android":"levelo://app?vid=534c6702-dfa1-401b-970b-2ac69bdd882a","ios":"levelo://app?vid=534c6702-dfa1-401b-970b-2ac69bdd882a"},"vehicle_type_id":"4","last_reported":1736561464,"current_range_meters":30400,"station_id":"ce4bhnp2rcd13ifvqgvg","pricing_plan_id":"cebpf4jnsgd1na2vs0mg"},{"bike_id":"066fc890-cce1-4b7e-a941-320c51e991c9","system_id":"levelo_inurba_marseille","lat":43.2395,"lon":5.3663,"is_reserved":false,"is_disabled":false,"rental_uris":{"android":"levelo://app?vid=066fc890-cce1-4b7e-a941-320c51e991c9","ios":"levelo://app?vid=066fc890-cce1-4b7e-a941-320c51e991c9"},"vehicle_type_id":"4","last_reported":1736561464,"current_range_meters":24400,"station_id":"ce4bhi12rcd13ifvqfp0","pricing_plan_id":"cebpf4jnsgd1na2vs0mg"},{"bike_id":"1f320d40-5106-4360-ae07-0c583456ec9f","system_id":"levelo_inurba_marseille","lat":43.28451,"lon":5.35874,"is_reserved":false,"is_disabled":false,"rental_uris":{"android":"levelo://app?vid=1f320d40-5106-4360-ae07-0c583456ec9f","ios":"levelo://app?vid=1f320d40-5106-4360-ae07-0c583456ec9f"},"vehicle_type_id":"4","last_reported":1736561464,"current_range_meters":36800,"station_id":"ce4bhah2rcd13ifvqei0","pricing_plan_id":"cebpf4jnsgd1na2vs0mg"},{"bike_id":"375be35c-f252-4a1c-9a01-188df748f2f1","system_id":"levelo_inurba_marseille","lat":43.2799,"lon":5.40015,"is_reserved":false,"is_disabled":false,"rental_uris":{"android":"levelo://app?vid=375be35c-f252-4a1c-9a01-188df748f2f1","ios":"levelo://app?vid=375be35c-f252-4a1c-9a01-188df748f2f1"},"vehicle_type_id":"4","last_reported":1736561464,"current_range_meters":33200,"station_id":"ce4bho92rcd13ifvqh4g","pricing_plan_id":"cebpf4jnsgd1na2vs0mg"},{"bike_id":"b1cd05bd-cc6d-452b-8b8c-f24ee7fb627f","system_id":"levelo_inurba_marseille","lat":43.25837,"lon":5.39427,"is_reserved":false,"is_disabled":false,"rental_uris":{"android":"levelo://app?vid=b1cd05bd-cc6d-452b-8b8c-f24ee7fb627f","ios":"levelo://app?vid=b1cd05bd-cc6d-452b-8b8c-f24ee7fb627f"},"vehicle_type_id":"4","last_reported":1736561464,"current_range_meters":34000,"station_id":"ce4bhip2rcd13ifvqft0","pricing_plan_id":"cebpf4jnsgd1na2vs0mg"},{"bike_id":"920798f7-7e0f-4faf-94c5-26499c6ea003","system_id":"levelo_inurba_marseille","lat":43.29802,"lon":5.404137,"is_reserved":false,"is_disabled":false,"rental_uris":{"android":"levelo://app?vid=920798f7-7e0f-4faf-94c5-26499c6ea003","ios":"levelo://app?vid=920798f7-7e0f-4faf-94c5-26499c6ea003"},"vehicle_type_id":"4","last_reported":1736561464,"current_range_meters":37600,"station_id":"ce4bh112rcd13ifvqd90","pricing_plan_id":"cebpf4jnsgd1na2vs0mg"},{"bike_id":"200f3726-f376-4e1a-b922-6fa633b9c4ac","system_id":"levelo_inurba_marseille","lat":43.2467,"lon":5.38162,"is_reserved":false,"is_disabled":false,"rental_uris":{"android":"levelo://app?vid=200f3726-f376-4e1a-b922-6fa633b9c4ac","ios":"levelo://app?vid=200f3726-f376-4e1a-b922-6fa633b9c4ac"},"vehicle_type_id":"4","last_reported":1736561464,"current_range_meters":8400,"station_id":"ce4bhih2rcd13ifvqfr0","pricing_plan_id":"cebpf4jnsgd1na2vs0mg"},{"bike_id":"b94841c1-eb31-4836-a3e0-47119f4d34b1","system_id":"levelo_inurba_marseille","lat":43.3119,"lon":5.38664,"is_reserved":false,"is_disabled":false,"rental_uris":{"android":"levelo://app?vid=b94841c1-eb31-4836-a3e0-47119f4d34b1","ios":"levelo://app?vid=b94841c1-eb31-4836-a3e0-47119f4d34b1"},"vehicle_type_id":"4","last_reported":1736561464,"current_range_meters":9600,"station_id":"ce4bgv12rcd13ifvqcp0","pricing_plan_id":"cebpf4jnsgd1na2vs0mg"},{"bike_id":"f7248333-c3ea-4047-84a5-689947d7b51f","system_id":"levelo_inurba_marseille","lat":43.29955,"lon":5.41337,"is_reserved":false,"is_disabled":false,"rental_uris":{"android":"levelo://app?vid=f7248333-c3ea-4047-84a5-689947d7b51f","ios":"levelo://app?vid=f7248333-c3ea-4047-84a5-689947d7b51f"},"vehicle_type_id":"4","last_reported":1736561464,"current_range_meters":38000,"station_id":"ce4bhp12rcd13ifvqh9g","pricing_plan_id":"cebpf4jnsgd1na2vs0mg"},{"bike_id":"d20173c0-2c44-4618-9a6e-7640bc98f56e","system_id":"levelo_inurba_marseille","lat":43.27918,"lon":5.39572,"is_reserved":false,"is_disabled":false,"rental_uris":{"android":"levelo://app?vid=d20173c0-2c44-4618-9a6e-7640bc98f56e","ios":"levelo://app?vid=d20173c0-2c44-4618-9a6e-7640bc98f56e"},"vehicle_type_id":"4","last_reported":1736561464,"current_range_meters":10000,"station_id":"ce4bhf92rcd13ifvqf40","pricing_plan_id":"cebpf4jnsgd1na2vs0mg"},{"bike_id":"2c9dd628-c688-4c37-b6d2-d665ced3ed71","system_id":"levelo_inurba_marseille","lat":43.25008,"lon":5.38908,"is_reserved":false,"is_disabled":false,"rental_uris":{"android":"levelo://app?vid=2c9dd628-c688-4c37-b6d2-d665ced3ed71","ios":"levelo://app?vid=2c9dd628-c688-4c37-b6d2-d665ced3ed71"},"vehicle_type_id":"4","last_reported":1736561464,"current_range_meters":38800,"station_id":"ce4bhgp2rcd13ifvqfd0","pricing_plan_id":"cebpf4jnsgd1na2vs0mg"},{"bike_id":"471bf253-796f-4272-a47b-069ce2ba791e","system_id":"levelo_inurba_marseille","lat":43.30285,"lon":5.40063,"is_reserved":false,"is_disabled":false,"rental_uris":{"android":"levelo://app?vid=471bf253-796f-4272-a47b-069ce2ba791e","ios":"levelo://app?vid=471bf253-796f-4272-a47b-069ce2ba791e"},"vehicle_type_id":"4","last_reported":1736561464,"current_range_meters":38800,"station_id":"ce4bgvh2rcd13ifvqcs0","pricing_plan_id":"cebpf4jnsgd1na2vs0mg"},{"bike_id":"85077f2d-96d6-4799-acc0-68a7354da011","system_id":"levelo_inurba_marseille","lat":43.25489,"lon":5.37646,"is_reserved":false,"is_disabled":false,"rental_uris":{"android":"levelo://app?vid=85077f2d-96d6-4799-acc0-68a7354da011","ios":"levelo://app?vid=85077f2d-96d6-4799-acc0-68a7354da011"},"vehicle_type_id":"4","last_reported":1736561464,"current_range_meters":35200,"station_id":"ce4bhh12rcd13ifvqff0","pricing_plan_id":"cebpf4jnsgd1na2vs0mg"},{"bike_id":"6f5d218f-db1a-4b96-bcf2-b235eea71c2f","system_id":"levelo_inurba_marseille","lat":43.25504,"lon":5.37645,"is_reserved":false,"is_disabled":false,"rental_uris":{"android":"levelo://app?vid=6f5d218f-db1a-4b96-bcf2-b235eea71c2f","ios":"levelo://app?vid=6f5d218f-db1a-4b96-bcf2-b235eea71c2f"},"vehicle_type_id":"4","last_reported":1736561464,"current_range_meters":6800,"station_id":"ce4bhh12rcd13ifvqff0","pricing_plan_id":"cebpf4jnsgd1na2vs0mg"},{"bike_id":"0734aaa2-3547-415d-bfbd-0fccaa1be7a4","system_id":"levelo_inurba_marseille","lat":43.23186,"lon":5.39975,"is_reserved":false,"is_disabled":false,"rental_uris":{"android":"levelo://app?vid=0734aaa2-3547-415d-bfbd-0fccaa1be7a4","ios":"levelo://app?vid=0734aaa2-3547-415d-bfbd-0fccaa1be7a4"},"vehicle_type_id":"4","last_reported":1736561464,"current_range_meters":20000,"station_id":"ce4bhn12rcd13ifvqgqg","pricing_plan_id":"cebpf4jnsgd1na2vs0mg"},{"bike_id":"bc72b692-fa80-4572-afe8-0e7949eae868","system_id":"levelo_inurba_marseille","lat":43.33739,"lon":5.37436,"is_reserved":false,"is_disabled":false,"rental_uris":{"android":"levelo://app?vid=bc72b692-fa80-4572-afe8-0e7949eae868","ios":"levelo://app?vid=bc72b692-fa80-4572-afe8-0e7949eae868"},"vehicle_type_id":"4","last_reported":1736561464,"current_range_meters":24800,"station_id":"","pricing_plan_id":"cebpf4jnsgd1na2vs0mg"},{"bike_id":"f034f60e-f6a5-493d-81f8-11f969db77cf","system_id":"levelo_inurba_marseille","lat":43.28656,"lon":5.36357,"is_reserved":false,"is_disabled":false,"rental_uris":{"android":"levelo://app?vid=f034f60e-f6a5-493d-81f8-11f969db77cf","ios":"levelo://app?vid=f034f60e-f6a5-493d-81f8-11f969db77cf"},"vehicle_type_id":"4","last_reported":1736561464,"current_range_meters":26000,"station_id":"ce4bhah2rcd13ifvqej0","pricing_plan_id":"cebpf4jnsgd1na2vs0mg"},{"bike_id":"403b6456-c595-432f-9fb5-fe207e40ff7b","system_id":"levelo_inurba_marseille","lat":43.27173,"lon":5.40998,"is_reserved":false,"is_disabled":false,"rental_uris":{"android":"levelo://app?vid=403b6456-c595-432f-9fb5-fe207e40ff7b","ios":"levelo://app?vid=403b6456-c595-432f-9fb5-fe207e40ff7b"},"vehicle_type_id":"4","last_reported":1736561464,"current_range_meters":38800,"station_id":"ce4bhl12rcd13ifvqgf0","pricing_plan_id":"cebpf4jnsgd1na2vs0mg"},{"bike_id":"95b73565-ea42-4632-8f13-11a462a50d51","system_id":"levelo_inurba_marseille","lat":43.29166,"lon":5.37147,"is_reserved":false,"is_disabled":false,"rental_uris":{"android":"levelo://app?vid=95b73565-ea42-4632-8f13-11a462a50d51","ios":"levelo://app?vid=95b73565-ea42-4632-8f13-11a462a50d51"},"vehicle_type_id":"4","last_reported":1736561464,"current_range_meters":28000,"station_id":"ce4bha92rcd13ifvqeh0","pricing_plan_id":"cebpf4jnsgd1na2vs0mg"},{"bike_id":"927ed3ac-e7cb-406a-84ae-66f41fc9f0f5","system_id":"levelo_inurba_marseille","lat":43.28457,"lon":5.35885,"is_reserved":false,"is_disabled":false,"rental_uris":{"android":"levelo://app?vid=927ed3ac-e7cb-406a-84ae-66f41fc9f0f5","ios":"levelo://app?vid=927ed3ac-e7cb-406a-84ae-66f41fc9f0f5"},"vehicle_type_id":"4","last_reported":1736561464,"current_range_meters":16000,"station_id":"ce4bhah2rcd13ifvqei0","pricing_plan_id":"cebpf4jnsgd1na2vs0mg"},{"bike_id":"616ca5d9-9002-4edc-8e69-a5555dc3713a","system_id":"levelo_inurba_marseille","lat":43.30278,"lon":5.37698,"is_reserved":false,"is_disabled":false,"rental_uris":{"android":"levelo://app?vid=616ca5d9-9002-4edc-8e69-a5555dc3713a","ios":"levelo://app?vid=616ca5d9-9002-4edc-8e69-a5555dc3713a"},"vehicle_type_id":"4","last_reported":1736561464,"current_range_meters":38000,"station_id":"ce4bguh2rcd13ifvqcj0","pricing_plan_id":"cebpf4jnsgd1na2vs0mg"},{"bike_id":"7e9a745e-c82d-4677-a3f0-c081269f42e9","system_id":"levelo_inurba_marseille","lat":43.28988,"lon":5.35606,"is_reserved":false,"is_disabled":false,"rental_uris":{"android":"levelo://app?vid=7e9a745e-c82d-4677-a3f0-c081269f42e9","ios":"levelo://app?vid=7e9a745e-c82d-4677-a3f0-c081269f42e9"},"vehicle_type_id":"4","last_reported":1736561464,"current_range_meters":28400,"station_id":"ce4bhb92rcd13ifvqen0","pricing_plan_id":"cebpf4jnsgd1na2vs0mg"},{"bike_id":"30e4531b-e8e8-4b15-9b00-7df43c117db1","system_id":"levelo_inurba_marseille","lat":43.311646,"lon":5.387074,"is_reserved":false,"is_disabled":false,"rental_uris":{"android":"levelo://app?vid=30e4531b-e8e8-4b15-9b00-7df43c117db1","ios":"levelo://app?vid=30e4531b-e8e8-4b15-9b00-7df43c117db1"},"vehicle_type_id":"4","last_reported":1736561464,"current_range_meters":24400,"station_id":"ce4bgv12rcd13ifvqcp0","pricing_plan_id":"cebpf4jnsgd1na2vs0mg"},{"bike_id":"dd94d798-0f12-40fb-bff3-b8fae7bc2945","system_id":"levelo_inurba_marseille","lat":43.26486,"lon":5.39547,"is_reserved":false,"is_disabled":false,"rental_uris":{"android":"levelo://app?vid=dd94d798-0f12-40fb-bff3-b8fae7bc2945","ios":"levelo://app?vid=dd94d798-0f12-40fb-bff3-b8fae7bc2945"},"vehicle_type_id":"4","last_reported":1736561464,"current_range_meters":38400,"station_id":"ce4bhi12rcd13ifvqfq0","pricing_plan_id":"cebpf4jnsgd1na2vs0mg"},{"bike_id":"e28483d1-4b50-47d3-8f68-bbbc48a67024","system_id":"levelo_inurba_marseille","lat":43.29052,"lon":5.37167,"is_reserved":false,"is_disabled":true,"rental_uris":{"android":"levelo://app?vid=e28483d1-4b50-47d3-8f68-bbbc48a67024","ios":"levelo://app?vid=e28483d1-4b50-47d3-8f68-bbbc48a67024"},"vehicle_type_id":"4","last_reported":1736561464,"current_range_meters":30000,"station_id":"ce4bh5p2rcd13ifvqe4g","pricing_plan_id":"cebpf4jnsgd1na2vs0mg"},{"bike_id":"1d4a8f95-f17f-4c5f-8510-b75a9f17f9a0","system_id":"levelo_inurba_marseille","lat":43.31351,"lon":5.38492,"is_reserved":false,"is_disabled":false,"rental_uris":{"android":"levelo://app?vid=1d4a8f95-f17f-4c5f-8510-b75a9f17f9a0","ios":"levelo://app?vid=1d4a8f95-f17f-4c5f-8510-b75a9f17f9a0"},"vehicle_type_id":"4","last_reported":1736561464,"current_range_meters":25600,"station_id":"ce4bgt92rcd13ifvqcf0","pricing_plan_id":"cebpf4jnsgd1na2vs0mg"},{"bike_id":"82b556fb-1e29-46d6-967a-3d3f7c9da2ae","system_id":"levelo_inurba_marseille","lat":43.2396,"lon":5.36635,"is_reserved":false,"is_disabled":false,"rental_uris":{"android":"levelo://app?vid=82b556fb-1e29-46d6-967a-3d3f7c9da2ae","ios":"levelo://app?vid=82b556fb-1e29-46d6-967a-3d3f7c9da2ae"},"vehicle_type_id":"4","last_reported":1736561464,"current_range_meters":22800,"station_id":"ce4bhi12rcd13ifvqfp0","pricing_plan_id":"cebpf4jnsgd1na2vs0mg"},{"bike_id":"0da916ad-7fc3-43b9-a34a-22ae57eaaf04","system_id":"levelo_inurba_marseille","lat":43.29554,"lon":5.42265,"is_reserved":false,"is_disabled":false,"rental_uris":{"android":"levelo://app?vid=0da916ad-7fc3-43b9-a34a-22ae57eaaf04","ios":"levelo://app?vid=0da916ad-7fc3-43b9-a34a-22ae57eaaf04"},"vehicle_type_id":"4","last_reported":1736561464,"current_range_meters":38000,"station_id":"ce4bhph2rcd13ifvqhdg","pricing_plan_id":"cebpf4jnsgd1na2vs0mg"},{"bike_id":"ea85eaf0-fde0-43c4-b882-10e3bd598be8","system_id":"levelo_inurba_marseille","lat":43.25115,"lon":5.40325,"is_reserved":false,"is_disabled":true,"rental_uris":{"android":"levelo://app?vid=ea85eaf0-fde0-43c4-b882-10e3bd598be8","ios":"levelo://app?vid=ea85eaf0-fde0-43c4-b882-10e3bd598be8"},"vehicle_type_id":"4","last_reported":1736561464,"current_range_meters":7200,"station_id":"ce4bhlh2rcd13ifvqgig","pricing_plan_id":"cebpf4jnsgd1na2vs0mg"},{"bike_id":"31deab58-a9f1-459e-8345-5b15de53f55a","system_id":"levelo_inurba_marseille","lat":43.29922,"lon":5.37442,"is_reserved":false,"is_disabled":false,"rental_uris":{"android":"levelo://app?vid=31deab58-a9f1-459e-8345-5b15de53f55a","ios":"levelo://app?vid=31deab58-a9f1-459e-8345-5b15de53f55a"},"vehicle_type_id":"4","last_reported":1736561464,"current_range_meters":38000,"station_id":"ce4bgjh2rcd13ifvqbg0","pricing_plan_id":"cebpf4jnsgd1na2vs0mg"},{"bike_id":"7a0a8a69-615c-43f3-a001-073b74f4a57b","system_id":"levelo_inurba_marseille","lat":43.25575,"lon":5.38242,"is_reserved":false,"is_disabled":false,"rental_uris":{"android":"levelo://app?vid=7a0a8a69-615c-43f3-a001-073b74f4a57b","ios":"levelo://app?vid=7a0a8a69-615c-43f3-a001-073b74f4a57b"},"vehicle_type_id":"4","last_reported":1736561464,"current_range_meters":24800,"station_id":"ce4bhih2rcd13ifvqfs0","pricing_plan_id":"cebpf4jnsgd1na2vs0mg"},{"bike_id":"83b551bf-f2fc-4dad-a913-91d0e1a6bcff","system_id":"levelo_inurba_marseille","lat":43.31068,"lon":5.38346,"is_reserved":false,"is_disabled":false,"rental_uris":{"android":"levelo://app?vid=83b551bf-f2fc-4dad-a913-91d0e1a6bcff","ios":"levelo://app?vid=83b551bf-f2fc-4dad-a913-91d0e1a6bcff"},"vehicle_type_id":"4","last_reported":1736561464,"current_range_meters":17200,"station_id":"ce4bgv92rcd13ifvqcr0","pricing_plan_id":"cebpf4jnsgd1na2vs0mg"},{"bike_id":"04b99ebe-7927-40e6-9554-a7aa6d8ff5da","system_id":"levelo_inurba_marseille","lat":43.32985,"lon":5.38973,"is_reserved":false,"is_disabled":false,"rental_uris":{"android":"levelo://app?vid=04b99ebe-7927-40e6-9554-a7aa6d8ff5da","ios":"levelo://app?vid=04b99ebe-7927-40e6-9554-a7aa6d8ff5da"},"vehicle_type_id":"4","last_reported":1736561464,"current_range_meters":38800,"station_id":"ce4bhr92rcd13ifvqhrg","pricing_plan_id":"cebpf4jnsgd1na2vs0mg"},{"bike_id":"00ce025b-3337-4565-8d1c-47adff4217d7","system_id":"levelo_inurba_marseille","lat":43.24543,"lon":5.39518,"is_reserved":false,"is_disabled":false,"rental_uris":{"android":"levelo://app?vid=00ce025b-3337-4565-8d1c-47adff4217d7","ios":"levelo://app?vid=00ce025b-3337-4565-8d1c-47adff4217d7"},"vehicle_type_id":"4","last_reported":1736561464,"current_range_meters":38800,"station_id":"ce4bhlp2rcd13ifvqgjg","pricing_plan_id":"cebpf4jnsgd1na2vs0mg"},{"bike_id":"b984475e-70f5-478d-a365-e48ebf91675f","system_id":"levelo_inurba_marseille","lat":43.29543,"lon":5.38548,"is_reserved":false,"is_disabled":true,"rental_uris":{"android":"levelo://app?vid=b984475e-70f5-478d-a365-e48ebf91675f","ios":"levelo://app?vid=b984475e-70f5-478d-a365-e48ebf91675f"},"vehicle_type_id":"4","last_reported":1736561464,"current_range_meters":0,"station_id":"ce4bgih2rcd13ifvqba0","pricing_plan_id":"cebpf4jnsgd1na2vs0mg"},{"bike_id":"e2cf5614-606d-46e0-bba1-511a39a5ccf3","system_id":"levelo_inurba_marseille","lat":43.30923,"lon":5.40137,"is_reserved":false,"is_disabled":false,"rental_uris":{"android":"levelo://app?vid=e2cf5614-606d-46e0-bba1-511a39a5ccf3","ios":"levelo://app?vid=e2cf5614-606d-46e0-bba1-511a39a5ccf3"},"vehicle_type_id":"4","last_reported":1736561464,"current_range_meters":37600,"station_id":"ce4bgvp2rcd13ifvqct0","pricing_plan_id":"cebpf4jnsgd1na2vs0mg"},{"bike_id":"af38867d-be91-4da5-9124-0d5c4fc919d2","system_id":"levelo_inurba_marseille","lat":43.31515,"lon":5.38041,"is_reserved":false,"is_disabled":false,"rental_uris":{"android":"levelo://app?vid=af38867d-be91-4da5-9124-0d5c4fc919d2","ios":"levelo://app?vid=af38867d-be91-4da5-9124-0d5c4fc919d2"},"vehicle_type_id":"4","last_reported":1736561464,"current_range_meters":27600,"station_id":"ce4bhsp2rcd13ifvqi50","pricing_plan_id":"cebpf4jnsgd1na2vs0mg"},{"bike_id":"c659b38a-f5c3-4a38-b728-280247010d6a","system_id":"levelo_inurba_marseille","lat":43.28857,"lon":5.39297,"is_reserved":false,"is_disabled":false,"rental_uris":{"android":"levelo://app?vid=c659b38a-f5c3-4a38-b728-280247010d6a","ios":"levelo://app?vid=c659b38a-f5c3-4a38-b728-280247010d6a"},"vehicle_type_id":"4","last_reported":1736561464,"current_range_meters":38800,"station_id":"ce4bh2p2rcd13ifvqdi0","pricing_plan_id":"cebpf4jnsgd1na2vs0mg"},{"bike_id":"28a1db78-56fc-4c29-bd72-a3e3c1895393","system_id":"levelo_inurba_marseille","lat":43.29782,"lon":5.39346,"is_reserved":false,"is_disabled":false,"rental_uris":{"android":"levelo://app?vid=28a1db78-56fc-4c29-bd72-a3e3c1895393","ios":"levelo://app?vid=28a1db78-56fc-4c29-bd72-a3e3c1895393"},"vehicle_type_id":"4","last_reported":1736561464,"current_range_meters":38800,"station_id":"chh1huq6cuj3fo74tm60","pricing_plan_id":"cebpf4jnsgd1na2vs0mg"},{"bike_id":"d4e77abc-3bbc-4e4b-a5bc-6b106cd5b9ec","system_id":"levelo_inurba_marseille","lat":43.31081,"lon":5.3834,"is_reserved":false,"is_disabled":false,"rental_uris":{"android":"levelo://app?vid=d4e77abc-3bbc-4e4b-a5bc-6b106cd5b9ec","ios":"levelo://app?vid=d4e77abc-3bbc-4e4b-a5bc-6b106cd5b9ec"},"vehicle_type_id":"4","last_reported":1736561464,"current_range_meters":38800,"station_id":"ce4bgv92rcd13ifvqcr0","pricing_plan_id":"cebpf4jnsgd1na2vs0mg"},{"bike_id":"40c1d513-2254-420b-92be-9704d01a9676","system_id":"levelo_inurba_marseille","lat":43.27313,"lon":5.39077,"is_reserved":false,"is_disabled":false,"rental_uris":{"android":"levelo://app?vid=40c1d513-2254-420b-92be-9704d01a9676","ios":"levelo://app?vid=40c1d513-2254-420b-92be-9704d01a9676"},"vehicle_type_id":"4","last_reported":1736561464,"current_range_meters":8400,"station_id":"ce4bhgp2rcd13ifvqfe0","pricing_plan_id":"cebpf4jnsgd1na2vs0mg"},{"bike_id":"29bd74f6-2d23-419f-a342-bfe9a1997636","system_id":"levelo_inurba_marseille","lat":43.28703,"lon":5.3999,"is_reserved":false,"is_disabled":false,"rental_uris":{"android":"levelo://app?vid=29bd74f6-2d23-419f-a342-bfe9a1997636","ios":"levelo://app?vid=29bd74f6-2d23-419f-a342-bfe9a1997636"},"vehicle_type_id":"4","last_reported":1736561464,"current_range_meters":26000,"station_id":"ce4bho92rcd13ifvqh3g","pricing_plan_id":"cebpf4jnsgd1na2vs0mg"},{"bike_id":"0bcc64a9-b35b-445e-951b-117593e1c83a","system_id":"levelo_inurba_marseille","lat":43.2782,"lon":5.40698,"is_reserved":false,"is_disabled":false,"rental_uris":{"android":"levelo://app?vid=0bcc64a9-b35b-445e-951b-117593e1c83a","ios":"levelo://app?vid=0bcc64a9-b35b-445e-951b-117593e1c83a"},"vehicle_type_id":"4","last_reported":1736561464,"current_range_meters":33600,"station_id":"ce4bhnh2rcd13ifvqgtg","pricing_plan_id":"cebpf4jnsgd1na2vs0mg"},{"bike_id":"dc11ba24-a904-4ff2-b474-52348d374425","system_id":"levelo_inurba_marseille","lat":43.27617,"lon":5.36122,"is_reserved":false,"is_disabled":false,"rental_uris":{"android":"levelo://app?vid=dc11ba24-a904-4ff2-b474-52348d374425","ios":"levelo://app?vid=dc11ba24-a904-4ff2-b474-52348d374425"},"vehicle_type_id":"4","last_reported":1736561464,"current_range_meters":20800,"station_id":"ce4bgj92rcd13ifvqbe0","pricing_plan_id":"cebpf4jnsgd1na2vs0mg"},{"bike_id":"aad17fe9-5eb4-4717-a51a-da7e6a7942e4","system_id":"levelo_inurba_marseille","lat":43.31502,"lon":5.37278,"is_reserved":false,"is_disabled":false,"rental_uris":{"android":"levelo://app?vid=aad17fe9-5eb4-4717-a51a-da7e6a7942e4","ios":"levelo://app?vid=aad17fe9-5eb4-4717-a51a-da7e6a7942e4"},"vehicle_type_id":"4","last_reported":1736561464,"current_range_meters":8800,"station_id":"ce4bgt12rcd13ifvqcd0","pricing_plan_id":"cebpf4jnsgd1na2vs0mg"},{"bike_id":"a65c46ae-456f-4ee3-8a9f-a2ed306f68c3","system_id":"levelo_inurba_marseille","lat":43.28663,"lon":5.36347,"is_reserved":false,"is_disabled":false,"rental_uris":{"android":"levelo://app?vid=a65c46ae-456f-4ee3-8a9f-a2ed306f68c3","ios":"levelo://app?vid=a65c46ae-456f-4ee3-8a9f-a2ed306f68c3"},"vehicle_type_id":"4","last_reported":1736561464,"current_range_meters":28000,"station_id":"ce4bhah2rcd13ifvqej0","pricing_plan_id":"cebpf4jnsgd1na2vs0mg"},{"bike_id":"bb09aba3-e725-4db5-9d0b-860b910730c7","system_id":"levelo_inurba_marseille","lat":43.31327,"lon":5.39704,"is_reserved":false,"is_disabled":true,"rental_uris":{"android":"levelo://app?vid=bb09aba3-e725-4db5-9d0b-860b910730c7","ios":"levelo://app?vid=bb09aba3-e725-4db5-9d0b-860b910730c7"},"vehicle_type_id":"4","last_reported":1736561464,"current_range_meters":3200,"station_id":"ce4bgvp2rcd13ifvqcu0","pricing_plan_id":"cebpf4jnsgd1na2vs0mg"},{"bike_id":"dc39ef56-0762-469c-bd56-a1581f605a94","system_id":"levelo_inurba_marseille","lat":43.25573,"lon":5.38257,"is_reserved":false,"is_disabled":false,"rental_uris":{"android":"levelo://app?vid=dc39ef56-0762-469c-bd56-a1581f605a94","ios":"levelo://app?vid=dc39ef56-0762-469c-bd56-a1581f605a94"},"vehicle_type_id":"4","last_reported":1736561464,"current_range_meters":28000,"station_id":"ce4bhih2rcd13ifvqfs0","pricing_plan_id":"cebpf4jnsgd1na2vs0mg"},{"bike_id":"1ff4d6af-d168-4206-80a1-8f85ab0c0a00","system_id":"levelo_inurba_marseille","lat":43.25884,"lon":5.39898,"is_reserved":false,"is_disabled":true,"rental_uris":{"android":"levelo://app?vid=1ff4d6af-d168-4206-80a1-8f85ab0c0a00","ios":"levelo://app?vid=1ff4d6af-d168-4206-80a1-8f85ab0c0a00"},"vehicle_type_id":"4","last_reported":1736561464,"current_range_meters":20400,"station_id":"ce4bhl92rcd13ifvqghg","pricing_plan_id":"cebpf4jnsgd1na2vs0mg"},{"bike_id":"6a8a7e32-0f66-4fdd-a2b8-81f2afb9b4a8","system_id":"levelo_inurba_marseille","lat":43.23958,"lon":5.36632,"is_reserved":false,"is_disabled":false,"rental_uris":{"android":"levelo://app?vid=6a8a7e32-0f66-4fdd-a2b8-81f2afb9b4a8","ios":"levelo://app?vid=6a8a7e32-0f66-4fdd-a2b8-81f2afb9b4a8"},"vehicle_type_id":"4","last_reported":1736561464,"current_range_meters":17600,"station_id":"ce4bhi12rcd13ifvqfp0","pricing_plan_id":"cebpf4jnsgd1na2vs0mg"},{"bike_id":"f99436a0-1320-4745-ba01-d4277007add7","system_id":"levelo_inurba_marseille","lat":43.28988,"lon":5.35604,"is_reserved":false,"is_disabled":false,"rental_uris":{"android":"levelo://app?vid=f99436a0-1320-4745-ba01-d4277007add7","ios":"levelo://app?vid=f99436a0-1320-4745-ba01-d4277007add7"},"vehicle_type_id":"4","last_reported":1736561464,"current_range_meters":18000,"station_id":"ce4bhb92rcd13ifvqen0","pricing_plan_id":"cebpf4jnsgd1na2vs0mg"},{"bike_id":"1d174f3c-56fd-4bd2-841f-15687ff97534","system_id":"levelo_inurba_marseille","lat":43.3013,"lon":5.39873,"is_reserved":false,"is_disabled":true,"rental_uris":{"android":"levelo://app?vid=1d174f3c-56fd-4bd2-841f-15687ff97534","ios":"levelo://app?vid=1d174f3c-56fd-4bd2-841f-15687ff97534"},"vehicle_type_id":"4","last_reported":1736561464,"current_range_meters":0,"station_id":"ce4bh0h2rcd13ifvqd40","pricing_plan_id":"cebpf4jnsgd1na2vs0mg"},{"bike_id":"750dedb6-a00f-4b07-bc2f-3484aab220a6","system_id":"levelo_inurba_marseille","lat":43.33019,"lon":5.39024,"is_reserved":false,"is_disabled":false,"rental_uris":{"android":"levelo://app?vid=750dedb6-a00f-4b07-bc2f-3484aab220a6","ios":"levelo://app?vid=750dedb6-a00f-4b07-bc2f-3484aab220a6"},"vehicle_type_id":"4","last_reported":1736561464,"current_range_meters":38000,"station_id":"ce4bhr92rcd13ifvqhrg","pricing_plan_id":"cebpf4jnsgd1na2vs0mg"},{"bike_id":"43ba9551-a568-4286-a5dd-a27e49b977c2","system_id":"levelo_inurba_marseille","lat":43.25703,"lon":5.41132,"is_reserved":false,"is_disabled":false,"rental_uris":{"android":"levelo://app?vid=43ba9551-a568-4286-a5dd-a27e49b977c2","ios":"levelo://app?vid=43ba9551-a568-4286-a5dd-a27e49b977c2"},"vehicle_type_id":"4","last_reported":1736561464,"current_range_meters":38000,"station_id":"ce4bhkp2rcd13ifvqgd0","pricing_plan_id":"cebpf4jnsgd1na2vs0mg"},{"bike_id":"d4b9ec52-492e-41b6-8dae-be3aec56cf81","system_id":"levelo_inurba_marseille","lat":43.28621,"lon":5.35101,"is_reserved":false,"is_disabled":false,"rental_uris":{"android":"levelo://app?vid=d4b9ec52-492e-41b6-8dae-be3aec56cf81","ios":"levelo://app?vid=d4b9ec52-492e-41b6-8dae-be3aec56cf81"},"vehicle_type_id":"4","last_reported":1736561464,"current_range_meters":8400,"station_id":"ce4bhch2rcd13ifvqeug","pricing_plan_id":"cebpf4jnsgd1na2vs0mg"},{"bike_id":"e041ed2a-1ada-4409-8815-abd8eb3a5e49","system_id":"levelo_inurba_marseille","lat":43.30134,"lon":5.39878,"is_reserved":false,"is_disabled":false,"rental_uris":{"android":"levelo://app?vid=e041ed2a-1ada-4409-8815-abd8eb3a5e49","ios":"levelo://app?vid=e041ed2a-1ada-4409-8815-abd8eb3a5e49"},"vehicle_type_id":"4","last_reported":1736561464,"current_range_meters":24000,"station_id":"ce4bh0h2rcd13ifvqd40","pricing_plan_id":"cebpf4jnsgd1na2vs0mg"},{"bike_id":"2b4cffb3-77ea-48e3-baee-701d676c1001","system_id":"levelo_inurba_marseille","lat":43.26099,"lon":5.38703,"is_reserved":false,"is_disabled":false,"rental_uris":{"android":"levelo://app?vid=2b4cffb3-77ea-48e3-baee-701d676c1001","ios":"levelo://app?vid=2b4cffb3-77ea-48e3-baee-701d676c1001"},"vehicle_type_id":"4","last_reported":1736561464,"current_range_meters":8400,"station_id":"","pricing_plan_id":"cebpf4jnsgd1na2vs0mg"},{"bike_id":"10f7d31a-ef8d-4e8a-acbf-8aa9a8c72143","system_id":"levelo_inurba_marseille","lat":43.24418,"lon":5.37069,"is_reserved":false,"is_disabled":false,"rental_uris":{"android":"levelo://app?vid=10f7d31a-ef8d-4e8a-acbf-8aa9a8c72143","ios":"levelo://app?vid=10f7d31a-ef8d-4e8a-acbf-8aa9a8c72143"},"vehicle_type_id":"4","last_reported":1736561464,"current_range_meters":20000,"station_id":"ce4bhhh2rcd13ifvqfk0","pricing_plan_id":"cebpf4jnsgd1na2vs0mg"},{"bike_id":"229a4a9e-a4d6-48f4-a974-2872d0fec353","system_id":"levelo_inurba_marseille","lat":43.262,"lon":5.37451,"is_reserved":false,"is_disabled":false,"rental_uris":{"android":"levelo://app?vid=229a4a9e-a4d6-48f4-a974-2872d0fec353","ios":"levelo://app?vid=229a4a9e-a4d6-48f4-a974-2872d0fec353"},"vehicle_type_id":"4","last_reported":1736561464,"current_range_meters":26800,"station_id":"ce4bhgp2rcd13ifvqfc0","pricing_plan_id":"cebpf4jnsgd1na2vs0mg"},{"bike_id":"f0c080b7-cc84-4ae6-b5d3-19e354905365","system_id":"levelo_inurba_marseille","lat":43.29015,"lon":5.3815,"is_reserved":false,"is_disabled":true,"rental_uris":{"android":"levelo://app?vid=f0c080b7-cc84-4ae6-b5d3-19e354905365","ios":"levelo://app?vid=f0c080b7-cc84-4ae6-b5d3-19e354905365"},"vehicle_type_id":"4","last_reported":1736561464,"current_range_meters":37600,"station_id":"ce4bh4p2rcd13ifvqe1g","pricing_plan_id":"cebpf4jnsgd1na2vs0mg"},{"bike_id":"86c26674-463c-4247-bb38-fb36dd08faa8","system_id":"levelo_inurba_marseille","lat":43.28403,"lon":5.37524,"is_reserved":false,"is_disabled":false,"rental_uris":{"android":"levelo://app?vid=86c26674-463c-4247-bb38-fb36dd08faa8","ios":"levelo://app?vid=86c26674-463c-4247-bb38-fb36dd08faa8"},"vehicle_type_id":"4","last_reported":1736561464,"current_range_meters":34800,"station_id":"ce4bh412rcd13ifvqds0","pricing_plan_id":"cebpf4jnsgd1na2vs0mg"},{"bike_id":"ae29e0de-7b5a-45d6-ace3-313c5e88010a","system_id":"levelo_inurba_marseille","lat":43.27988,"lon":5.41658,"is_reserved":false,"is_disabled":true,"rental_uris":{"android":"levelo://app?vid=ae29e0de-7b5a-45d6-ace3-313c5e88010a","ios":"levelo://app?vid=ae29e0de-7b5a-45d6-ace3-313c5e88010a"},"vehicle_type_id":"4","last_reported":1736561464,"current_range_meters":3200,"station_id":"ce4bho12rcd13ifvqh1g","pricing_plan_id":"cebpf4jnsgd1na2vs0mg"},{"bike_id":"6d3c43c5-c17b-40f3-93fb-200e6d3a08d1","system_id":"levelo_inurba_marseille","lat":43.29789,"lon":5.38106,"is_reserved":false,"is_disabled":true,"rental_uris":{"android":"levelo://app?vid=6d3c43c5-c17b-40f3-93fb-200e6d3a08d1","ios":"levelo://app?vid=6d3c43c5-c17b-40f3-93fb-200e6d3a08d1"},"vehicle_type_id":"4","last_reported":1736561464,"current_range_meters":38400,"station_id":"ce4bgip2rcd13ifvqbb0","pricing_plan_id":"cebpf4jnsgd1na2vs0mg"},{"bike_id":"572f0254-11cf-4ef2-b3f9-66737ed8298a","system_id":"levelo_inurba_marseille","lat":43.28422,"lon":5.34994,"is_reserved":false,"is_disabled":true,"rental_uris":{"android":"levelo://app?vid=572f0254-11cf-4ef2-b3f9-66737ed8298a","ios":"levelo://app?vid=572f0254-11cf-4ef2-b3f9-66737ed8298a"},"vehicle_type_id":"4","last_reported":1736561464,"current_range_meters":400,"station_id":"ce4bhbh2rcd13ifvqepg","pricing_plan_id":"cebpf4jnsgd1na2vs0mg"},{"bike_id":"81e650fb-946f-4e41-a04f-8169232bb99d","system_id":"levelo_inurba_marseille","lat":43.23188,"lon":5.3999,"is_reserved":false,"is_disabled":false,"rental_uris":{"android":"levelo://app?vid=81e650fb-946f-4e41-a04f-8169232bb99d","ios":"levelo://app?vid=81e650fb-946f-4e41-a04f-8169232bb99d"},"vehicle_type_id":"4","last_reported":1736561464,"current_range_meters":32800,"station_id":"ce4bhn12rcd13ifvqgqg","pricing_plan_id":"cebpf4jnsgd1na2vs0mg"},{"bike_id":"24bd131f-fceb-4ce6-b6f3-2cc044254956","system_id":"levelo_inurba_marseille","lat":43.29115,"lon":5.39733,"is_reserved":false,"is_disabled":false,"rental_uris":{"android":"levelo://app?vid=24bd131f-fceb-4ce6-b6f3-2cc044254956","ios":"levelo://app?vid=24bd131f-fceb-4ce6-b6f3-2cc044254956"},"vehicle_type_id":"4","last_reported":1736561464,"current_range_meters":30800,"station_id":"","pricing_plan_id":"cebpf4jnsgd1na2vs0mg"},{"bike_id":"f0fb8bfb-285b-4d03-adbf-fe52517bb93c","system_id":"levelo_inurba_marseille","lat":43.23205,"lon":5.35552,"is_reserved":false,"is_disabled":false,"rental_uris":{"android":"levelo://app?vid=f0fb8bfb-285b-4d03-adbf-fe52517bb93c","ios":"levelo://app?vid=f0fb8bfb-285b-4d03-adbf-fe52517bb93c"},"vehicle_type_id":"4","last_reported":1736561464,"current_range_meters":38800,"station_id":"ce4bhu92rcd13ifvqi70","pricing_plan_id":"cebpf4jnsgd1na2vs0mg"},{"bike_id":"204b913d-2cab-47ef-b537-218fcdf75de2","system_id":"levelo_inurba_marseille","lat":43.24688,"lon":5.38143,"is_reserved":false,"is_disabled":false,"rental_uris":{"android":"levelo://app?vid=204b913d-2cab-47ef-b537-218fcdf75de2","ios":"levelo://app?vid=204b913d-2cab-47ef-b537-218fcdf75de2"},"vehicle_type_id":"4","last_reported":1736561464,"current_range_meters":30800,"station_id":"ce4bhih2rcd13ifvqfr0","pricing_plan_id":"cebpf4jnsgd1na2vs0mg"},{"bike_id":"2699aa44-e054-4052-825f-54a662a06c6e","system_id":"levelo_inurba_marseille","lat":43.23203,"lon":5.39971,"is_reserved":false,"is_disabled":false,"rental_uris":{"android":"levelo://app?vid=2699aa44-e054-4052-825f-54a662a06c6e","ios":"levelo://app?vid=2699aa44-e054-4052-825f-54a662a06c6e"},"vehicle_type_id":"4","last_reported":1736561464,"current_range_meters":38800,"station_id":"ce4bhn12rcd13ifvqgqg","pricing_plan_id":"cebpf4jnsgd1na2vs0mg"},{"bike_id":"61754fba-3376-4768-8c7c-511ea5daf5e6","system_id":"levelo_inurba_marseille","lat":43.314435,"lon":5.373752,"is_reserved":false,"is_disabled":false,"rental_uris":{"android":"levelo://app?vid=61754fba-3376-4768-8c7c-511ea5daf5e6","ios":"levelo://app?vid=61754fba-3376-4768-8c7c-511ea5daf5e6"},"vehicle_type_id":"4","last_reported":1736561464,"current_range_meters":3600,"station_id":"","pricing_plan_id":"cebpf4jnsgd1na2vs0mg"},{"bike_id":"e5d237dd-02ee-4407-835a-80c7604a33d8","system_id":"levelo_inurba_marseille","lat":43.27698,"lon":5.3882,"is_reserved":false,"is_disabled":false,"rental_uris":{"android":"levelo://app?vid=e5d237dd-02ee-4407-835a-80c7604a33d8","ios":"levelo://app?vid=e5d237dd-02ee-4407-835a-80c7604a33d8"},"vehicle_type_id":"4","last_reported":1736561464,"current_range_meters":36400,"station_id":"ce4bhi12rcd13ifvqfo0","pricing_plan_id":"cebpf4jnsgd1na2vs0mg"},{"bike_id":"a6bab0bb-085a-41b1-b8e2-10de2a66914c","system_id":"levelo_inurba_marseille","lat":43.3111,"lon":5.37753,"is_reserved":false,"is_disabled":false,"rental_uris":{"android":"levelo://app?vid=a6bab0bb-085a-41b1-b8e2-10de2a66914c","ios":"levelo://app?vid=a6bab0bb-085a-41b1-b8e2-10de2a66914c"},"vehicle_type_id":"4","last_reported":1736561464,"current_range_meters":19600,"station_id":"ce4bgt92rcd13ifvqcg0","pricing_plan_id":"cebpf4jnsgd1na2vs0mg"},{"bike_id":"30653996-9326-4bca-864c-21ac92f61041","system_id":"levelo_inurba_marseille","lat":43.24647,"lon":5.3887,"is_reserved":false,"is_disabled":false,"rental_uris":{"android":"levelo://app?vid=30653996-9326-4bca-864c-21ac92f61041","ios":"levelo://app?vid=30653996-9326-4bca-864c-21ac92f61041"},"vehicle_type_id":"4","last_reported":1736561464,"current_range_meters":35600,"station_id":"ce4bhg12rcd13ifvqf60","pricing_plan_id":"cebpf4jnsgd1na2vs0mg"},{"bike_id":"adcbc14e-e2fe-4b1d-9a5c-4991fa8d3d69","system_id":"levelo_inurba_marseille","lat":43.29001,"lon":5.35579,"is_reserved":false,"is_disabled":true,"rental_uris":{"android":"levelo://app?vid=adcbc14e-e2fe-4b1d-9a5c-4991fa8d3d69","ios":"levelo://app?vid=adcbc14e-e2fe-4b1d-9a5c-4991fa8d3d69"},"vehicle_type_id":"4","last_reported":1736561464,"current_range_meters":38800,"station_id":"ce4bhb92rcd13ifvqen0","pricing_plan_id":"cebpf4jnsgd1na2vs0mg"},{"bike_id":"bed24a32-106d-49f4-8d2d-17f021b9dbe6","system_id":"levelo_inurba_marseille","lat":43.275,"lon":5.42443,"is_reserved":false,"is_disabled":true,"rental_uris":{"android":"levelo://app?vid=bed24a32-106d-49f4-8d2d-17f021b9dbe6","ios":"levelo://app?vid=bed24a32-106d-49f4-8d2d-17f021b9dbe6"},"vehicle_type_id":"4","last_reported":1736561464,"current_range_meters":2800,"station_id":"ce4bhn92rcd13ifvqgrg","pricing_plan_id":"cebpf4jnsgd1na2vs0mg"},{"bike_id":"fd64c8a3-a4fc-42da-8d2c-308cff8a2a4f","system_id":"levelo_inurba_marseille","lat":43.30246,"lon":5.40064,"is_reserved":false,"is_disabled":false,"rental_uris":{"android":"levelo://app?vid=fd64c8a3-a4fc-42da-8d2c-308cff8a2a4f","ios":"levelo://app?vid=fd64c8a3-a4fc-42da-8d2c-308cff8a2a4f"},"vehicle_type_id":"4","last_reported":1736561464,"current_range_meters":38800,"station_id":"ce4bgvh2rcd13ifvqcs0","pricing_plan_id":"cebpf4jnsgd1na2vs0mg"},{"bike_id":"51098504-36bc-46da-bc89-d62c2a5ea627","system_id":"levelo_inurba_marseille","lat":43.29426,"lon":5.38618,"is_reserved":false,"is_disabled":true,"rental_uris":{"android":"levelo://app?vid=51098504-36bc-46da-bc89-d62c2a5ea627","ios":"levelo://app?vid=51098504-36bc-46da-bc89-d62c2a5ea627"},"vehicle_type_id":"4","last_reported":1736561464,"current_range_meters":1600,"station_id":"ce4bh2h2rcd13ifvqdh0","pricing_plan_id":"cebpf4jnsgd1na2vs0mg"},{"bike_id":"d20a774b-60d4-4fea-8501-140e94d9ac48","system_id":"levelo_inurba_marseille","lat":43.27116,"lon":5.38494,"is_reserved":false,"is_disabled":false,"rental_uris":{"android":"levelo://app?vid=d20a774b-60d4-4fea-8501-140e94d9ac48","ios":"levelo://app?vid=d20a774b-60d4-4fea-8501-140e94d9ac48"},"vehicle_type_id":"4","last_reported":1736561464,"current_range_meters":30400,"station_id":"","pricing_plan_id":"cebpf4jnsgd1na2vs0mg"},{"bike_id":"7317d6d0-ec2e-4f43-a527-c168ad6c9de8","system_id":"levelo_inurba_marseille","lat":43.27433,"lon":5.39367,"is_reserved":false,"is_disabled":false,"rental_uris":{"android":"levelo://app?vid=7317d6d0-ec2e-4f43-a527-c168ad6c9de8","ios":"levelo://app?vid=7317d6d0-ec2e-4f43-a527-c168ad6c9de8"},"vehicle_type_id":"4","last_reported":1736561464,"current_range_meters":36400,"station_id":"ce4bhdp2rcd13ifvqf20","pricing_plan_id":"cebpf4jnsgd1na2vs0mg"},{"bike_id":"b704bf42-2bc7-4506-b669-8ca7a3330fef","system_id":"levelo_inurba_marseille","lat":43.28119,"lon":5.4263,"is_reserved":false,"is_disabled":true,"rental_uris":{"android":"levelo://app?vid=b704bf42-2bc7-4506-b669-8ca7a3330fef","ios":"levelo://app?vid=b704bf42-2bc7-4506-b669-8ca7a3330fef"},"vehicle_type_id":"4","last_reported":1736561464,"current_range_meters":34800,"station_id":"ce4bhnh2rcd13ifvqgug","pricing_plan_id":"cebpf4jnsgd1na2vs0mg"},{"bike_id":"04c144bb-885d-4367-8bc8-e2ccfca26ca3","system_id":"levelo_inurba_marseille","lat":43.31499,"lon":5.38898,"is_reserved":false,"is_disabled":true,"rental_uris":{"android":"levelo://app?vid=04c144bb-885d-4367-8bc8-e2ccfca26ca3","ios":"levelo://app?vid=04c144bb-885d-4367-8bc8-e2ccfca26ca3"},"vehicle_type_id":"4","last_reported":1736561464,"current_range_meters":24000,"station_id":"","pricing_plan_id":"cebpf4jnsgd1na2vs0mg"},{"bike_id":"fc409626-cf3b-4f65-bf74-11f59f5d8632","system_id":"levelo_inurba_marseille","lat":43.28665,"lon":5.3636,"is_reserved":false,"is_disabled":false,"rental_uris":{"android":"levelo://app?vid=fc409626-cf3b-4f65-bf74-11f59f5d8632","ios":"levelo://app?vid=fc409626-cf3b-4f65-bf74-11f59f5d8632"},"vehicle_type_id":"4","last_reported":1736561464,"current_range_meters":38800,"station_id":"ce4bhah2rcd13ifvqej0","pricing_plan_id":"cebpf4jnsgd1na2vs0mg"},{"bike_id":"1987856f-76cd-431b-a3f6-7cd1fa990954","system_id":"levelo_inurba_marseille","lat":43.29022,"lon":5.39978,"is_reserved":false,"is_disabled":false,"rental_uris":{"android":"levelo://app?vid=1987856f-76cd-431b-a3f6-7cd1fa990954","ios":"levelo://app?vid=1987856f-76cd-431b-a3f6-7cd1fa990954"},"vehicle_type_id":"4","last_reported":1736561464,"current_range_meters":38800,"station_id":"ce4bh392rcd13ifvqdm0","pricing_plan_id":"cebpf4jnsgd1na2vs0mg"},{"bike_id":"ef656606-4429-4ee4-bc24-929ad2bc221a","system_id":"levelo_inurba_marseille","lat":43.28723,"lon":5.36079,"is_reserved":false,"is_disabled":false,"rental_uris":{"android":"levelo://app?vid=ef656606-4429-4ee4-bc24-929ad2bc221a","ios":"levelo://app?vid=ef656606-4429-4ee4-bc24-929ad2bc221a"},"vehicle_type_id":"4","last_reported":1736561464,"current_range_meters":22800,"station_id":"cki0cbj6b192h4jlfktg","pricing_plan_id":"cebpf4jnsgd1na2vs0mg"},{"bike_id":"ede473a8-4ad3-4177-9dfc-dc40ae6098e2","system_id":"levelo_inurba_marseille","lat":43.24685,"lon":5.38142,"is_reserved":false,"is_disabled":false,"rental_uris":{"android":"levelo://app?vid=ede473a8-4ad3-4177-9dfc-dc40ae6098e2","ios":"levelo://app?vid=ede473a8-4ad3-4177-9dfc-dc40ae6098e2"},"vehicle_type_id":"4","last_reported":1736561464,"current_range_meters":8800,"station_id":"ce4bhih2rcd13ifvqfr0","pricing_plan_id":"cebpf4jnsgd1na2vs0mg"},{"bike_id":"89f21abd-2121-48f5-ae07-10c03ed8e233","system_id":"levelo_inurba_marseille","lat":43.28073,"lon":5.39649,"is_reserved":false,"is_disabled":false,"rental_uris":{"android":"levelo://app?vid=89f21abd-2121-48f5-ae07-10c03ed8e233","ios":"levelo://app?vid=89f21abd-2121-48f5-ae07-10c03ed8e233"},"vehicle_type_id":"4","last_reported":1736561464,"current_range_meters":38400,"station_id":"ce4bho12rcd13ifvqh2g","pricing_plan_id":"cebpf4jnsgd1na2vs0mg"},{"bike_id":"e2744ec8-2f1a-4025-9ec0-6a07f5db3fc4","system_id":"levelo_inurba_marseille","lat":43.25498,"lon":5.37654,"is_reserved":false,"is_disabled":false,"rental_uris":{"android":"levelo://app?vid=e2744ec8-2f1a-4025-9ec0-6a07f5db3fc4","ios":"levelo://app?vid=e2744ec8-2f1a-4025-9ec0-6a07f5db3fc4"},"vehicle_type_id":"4","last_reported":1736561464,"current_range_meters":38800,"station_id":"ce4bhh12rcd13ifvqff0","pricing_plan_id":"cebpf4jnsgd1na2vs0mg"},{"bike_id":"39e8b8db-a45b-47ac-924f-708d2b3bef9a","system_id":"levelo_inurba_marseille","lat":43.28617,"lon":5.35107,"is_reserved":false,"is_disabled":false,"rental_uris":{"android":"levelo://app?vid=39e8b8db-a45b-47ac-924f-708d2b3bef9a","ios":"levelo://app?vid=39e8b8db-a45b-47ac-924f-708d2b3bef9a"},"vehicle_type_id":"4","last_reported":1736561464,"current_range_meters":16400,"station_id":"ce4bhch2rcd13ifvqeug","pricing_plan_id":"cebpf4jnsgd1na2vs0mg"},{"bike_id":"cc759f92-165c-46f7-84dc-07726493697c","system_id":"levelo_inurba_marseille","lat":43.28086,"lon":5.39654,"is_reserved":false,"is_disabled":false,"rental_uris":{"android":"levelo://app?vid=cc759f92-165c-46f7-84dc-07726493697c","ios":"levelo://app?vid=cc759f92-165c-46f7-84dc-07726493697c"},"vehicle_type_id":"4","last_reported":1736561464,"current_range_meters":29600,"station_id":"ce4bho12rcd13ifvqh2g","pricing_plan_id":"cebpf4jnsgd1na2vs0mg"},{"bike_id":"9c413fb1-8955-4528-ba15-78d41b7bda61","system_id":"levelo_inurba_marseille","lat":43.28721,"lon":5.36075,"is_reserved":false,"is_disabled":false,"rental_uris":{"android":"levelo://app?vid=9c413fb1-8955-4528-ba15-78d41b7bda61","ios":"levelo://app?vid=9c413fb1-8955-4528-ba15-78d41b7bda61"},"vehicle_type_id":"4","last_reported":1736561464,"current_range_meters":38800,"station_id":"cki0cbj6b192h4jlfktg","pricing_plan_id":"cebpf4jnsgd1na2vs0mg"},{"bike_id":"9be01537-e054-45c4-92d8-0b0eb1e034b4","system_id":"levelo_inurba_marseille","lat":43.2782,"lon":5.40682,"is_reserved":false,"is_disabled":false,"rental_uris":{"android":"levelo://app?vid=9be01537-e054-45c4-92d8-0b0eb1e034b4","ios":"levelo://app?vid=9be01537-e054-45c4-92d8-0b0eb1e034b4"},"vehicle_type_id":"4","last_reported":1736561464,"current_range_meters":38800,"station_id":"ce4bhnh2rcd13ifvqgtg","pricing_plan_id":"cebpf4jnsgd1na2vs0mg"},{"bike_id":"8f4043a6-533f-4456-93f0-3a6cf229af24","system_id":"levelo_inurba_marseille","lat":43.27189,"lon":5.40984,"is_reserved":false,"is_disabled":false,"rental_uris":{"android":"levelo://app?vid=8f4043a6-533f-4456-93f0-3a6cf229af24","ios":"levelo://app?vid=8f4043a6-533f-4456-93f0-3a6cf229af24"},"vehicle_type_id":"4","last_reported":1736561464,"current_range_meters":38400,"station_id":"ce4bhl12rcd13ifvqgf0","pricing_plan_id":"cebpf4jnsgd1na2vs0mg"},{"bike_id":"e2544aba-a350-44bf-ba9f-d261b2f4eb98","system_id":"levelo_inurba_marseille","lat":43.27942,"lon":5.41046,"is_reserved":false,"is_disabled":false,"rental_uris":{"android":"levelo://app?vid=e2544aba-a350-44bf-ba9f-d261b2f4eb98","ios":"levelo://app?vid=e2544aba-a350-44bf-ba9f-d261b2f4eb98"},"vehicle_type_id":"4","last_reported":1736561464,"current_range_meters":38800,"station_id":"ce4bhnp2rcd13ifvqh0g","pricing_plan_id":"cebpf4jnsgd1na2vs0mg"},{"bike_id":"e6f7d7e2-d224-4aea-aab6-683e10be3675","system_id":"levelo_inurba_marseille","lat":43.28836,"lon":5.35827,"is_reserved":false,"is_disabled":false,"rental_uris":{"android":"levelo://app?vid=e6f7d7e2-d224-4aea-aab6-683e10be3675","ios":"levelo://app?vid=e6f7d7e2-d224-4aea-aab6-683e10be3675"},"vehicle_type_id":"4","last_reported":1736561464,"current_range_meters":36800,"station_id":"ce4bhb12rcd13ifvqem0","pricing_plan_id":"cebpf4jnsgd1na2vs0mg"},{"bike_id":"4b4b3bc7-2235-4f9b-942f-2041db4f9891","system_id":"levelo_inurba_marseille","lat":43.317,"lon":5.378,"is_reserved":false,"is_disabled":false,"rental_uris":{"android":"levelo://app?vid=4b4b3bc7-2235-4f9b-942f-2041db4f9891","ios":"levelo://app?vid=4b4b3bc7-2235-4f9b-942f-2041db4f9891"},"vehicle_type_id":"4","last_reported":1736561464,"current_range_meters":39200,"station_id":"ce4bgth2rcd13ifvqch0","pricing_plan_id":"cebpf4jnsgd1na2vs0mg"},{"bike_id":"eff54138-236c-42ba-9c85-631100c7b170","system_id":"levelo_inurba_marseille","lat":43.31532,"lon":5.3803,"is_reserved":false,"is_disabled":false,"rental_uris":{"android":"levelo://app?vid=eff54138-236c-42ba-9c85-631100c7b170","ios":"levelo://app?vid=eff54138-236c-42ba-9c85-631100c7b170"},"vehicle_type_id":"4","last_reported":1736561464,"current_range_meters":14800,"station_id":"ce4bhsp2rcd13ifvqi50","pricing_plan_id":"cebpf4jnsgd1na2vs0mg"},{"bike_id":"f6071aa5-be8a-4ad9-aee5-14dfd3eef30b","system_id":"levelo_inurba_marseille","lat":43.315,"lon":5.3727,"is_reserved":false,"is_disabled":false,"rental_uris":{"android":"levelo://app?vid=f6071aa5-be8a-4ad9-aee5-14dfd3eef30b","ios":"levelo://app?vid=f6071aa5-be8a-4ad9-aee5-14dfd3eef30b"},"vehicle_type_id":"4","last_reported":1736561464,"current_range_meters":38800,"station_id":"ce4bgt12rcd13ifvqcd0","pricing_plan_id":"cebpf4jnsgd1na2vs0mg"},{"bike_id":"1e2223a2-c032-49e7-8dbf-982df86a0520","system_id":"levelo_inurba_marseille","lat":43.22925,"lon":5.35376,"is_reserved":false,"is_disabled":false,"rental_uris":{"android":"levelo://app?vid=1e2223a2-c032-49e7-8dbf-982df86a0520","ios":"levelo://app?vid=1e2223a2-c032-49e7-8dbf-982df86a0520"},"vehicle_type_id":"4","last_reported":1736561464,"current_range_meters":30000,"station_id":"cpo3532slgdg3j2ikp40","pricing_plan_id":"cebpf4jnsgd1na2vs0mg"},{"bike_id":"7042dd75-b7d4-4323-a32c-b213e72ea8eb","system_id":"levelo_inurba_marseille","lat":43.30139,"lon":5.39874,"is_reserved":false,"is_disabled":false,"rental_uris":{"android":"levelo://app?vid=7042dd75-b7d4-4323-a32c-b213e72ea8eb","ios":"levelo://app?vid=7042dd75-b7d4-4323-a32c-b213e72ea8eb"},"vehicle_type_id":"4","last_reported":1736561464,"current_range_meters":36800,"station_id":"ce4bh0h2rcd13ifvqd40","pricing_plan_id":"cebpf4jnsgd1na2vs0mg"},{"bike_id":"aa8ac0ca-89b2-472c-abe3-0a86d5057c87","system_id":"levelo_inurba_marseille","lat":43.26053,"lon":5.39382,"is_reserved":false,"is_disabled":false,"rental_uris":{"android":"levelo://app?vid=aa8ac0ca-89b2-472c-abe3-0a86d5057c87","ios":"levelo://app?vid=aa8ac0ca-89b2-472c-abe3-0a86d5057c87"},"vehicle_type_id":"4","last_reported":1736561464,"current_range_meters":7200,"station_id":"ce4bhh92rcd13ifvqfj0","pricing_plan_id":"cebpf4jnsgd1na2vs0mg"},{"bike_id":"5f2cf356-122a-4d24-85ba-e38bc4612223","system_id":"levelo_inurba_marseille","lat":43.2558,"lon":5.38221,"is_reserved":false,"is_disabled":true,"rental_uris":{"android":"levelo://app?vid=5f2cf356-122a-4d24-85ba-e38bc4612223","ios":"levelo://app?vid=5f2cf356-122a-4d24-85ba-e38bc4612223"},"vehicle_type_id":"4","last_reported":1736561464,"current_range_meters":35600,"station_id":"ce4bhih2rcd13ifvqfs0","pricing_plan_id":"cebpf4jnsgd1na2vs0mg"},{"bike_id":"be8a233f-ad85-41b2-af03-bfa1e3033438","system_id":"levelo_inurba_marseille","lat":43.23198,"lon":5.35542,"is_reserved":false,"is_disabled":false,"rental_uris":{"android":"levelo://app?vid=be8a233f-ad85-41b2-af03-bfa1e3033438","ios":"levelo://app?vid=be8a233f-ad85-41b2-af03-bfa1e3033438"},"vehicle_type_id":"4","last_reported":1736561464,"current_range_meters":22400,"station_id":"ce4bhu92rcd13ifvqi70","pricing_plan_id":"cebpf4jnsgd1na2vs0mg"},{"bike_id":"d7284d59-0fa0-4e55-88c3-9102035d8a99","system_id":"levelo_inurba_marseille","lat":43.30251,"lon":5.40057,"is_reserved":false,"is_disabled":true,"rental_uris":{"android":"levelo://app?vid=d7284d59-0fa0-4e55-88c3-9102035d8a99","ios":"levelo://app?vid=d7284d59-0fa0-4e55-88c3-9102035d8a99"},"vehicle_type_id":"4","last_reported":1736561464,"current_range_meters":10800,"station_id":"ce4bgvh2rcd13ifvqcs0","pricing_plan_id":"cebpf4jnsgd1na2vs0mg"},{"bike_id":"c5d1d69e-d576-4c18-9575-313b82dc76db","system_id":"levelo_inurba_marseille","lat":43.28603,"lon":5.37061,"is_reserved":false,"is_disabled":false,"rental_uris":{"android":"levelo://app?vid=c5d1d69e-d576-4c18-9575-313b82dc76db","ios":"levelo://app?vid=c5d1d69e-d576-4c18-9575-313b82dc76db"},"vehicle_type_id":"4","last_reported":1736561464,"current_range_meters":26800,"station_id":"ce4bht12rcd13ifvqi60","pricing_plan_id":"cebpf4jnsgd1na2vs0mg"},{"bike_id":"6f217313-e82a-4ced-ad03-cd53b8b45ef1","system_id":"levelo_inurba_marseille","lat":43.29916,"lon":5.37846,"is_reserved":false,"is_disabled":false,"rental_uris":{"android":"levelo://app?vid=6f217313-e82a-4ced-ad03-cd53b8b45ef1","ios":"levelo://app?vid=6f217313-e82a-4ced-ad03-cd53b8b45ef1"},"vehicle_type_id":"4","last_reported":1736561464,"current_range_meters":17600,"station_id":"","pricing_plan_id":"cebpf4jnsgd1na2vs0mg"},{"bike_id":"4d764c30-8ffe-42d4-aae0-be4ceabca9ff","system_id":"levelo_inurba_marseille","lat":43.31702,"lon":5.37756,"is_reserved":false,"is_disabled":false,"rental_uris":{"android":"levelo://app?vid=4d764c30-8ffe-42d4-aae0-be4ceabca9ff","ios":"levelo://app?vid=4d764c30-8ffe-42d4-aae0-be4ceabca9ff"},"vehicle_type_id":"4","last_reported":1736561464,"current_range_meters":30400,"station_id":"ce4bgth2rcd13ifvqch0","pricing_plan_id":"cebpf4jnsgd1na2vs0mg"},{"bike_id":"1d9c544e-a2d9-48f3-a1ee-3d014b88eb86","system_id":"levelo_inurba_marseille","lat":43.31357,"lon":5.38492,"is_reserved":false,"is_disabled":false,"rental_uris":{"android":"levelo://app?vid=1d9c544e-a2d9-48f3-a1ee-3d014b88eb86","ios":"levelo://app?vid=1d9c544e-a2d9-48f3-a1ee-3d014b88eb86"},"vehicle_type_id":"4","last_reported":1736561464,"current_range_meters":33200,"station_id":"ce4bgt92rcd13ifvqcf0","pricing_plan_id":"cebpf4jnsgd1na2vs0mg"},{"bike_id":"18408ae9-67a3-4b12-af80-7b64bfc1f57a","system_id":"levelo_inurba_marseille","lat":43.2926,"lon":5.40887,"is_reserved":false,"is_disabled":false,"rental_uris":{"android":"levelo://app?vid=18408ae9-67a3-4b12-af80-7b64bfc1f57a","ios":"levelo://app?vid=18408ae9-67a3-4b12-af80-7b64bfc1f57a"},"vehicle_type_id":"4","last_reported":1736561464,"current_range_meters":22000,"station_id":"ce4bh192rcd13ifvqdc0","pricing_plan_id":"cebpf4jnsgd1na2vs0mg"},{"bike_id":"57f5a8a9-f2e5-4673-966d-ca04b8d8c8e6","system_id":"levelo_inurba_marseille","lat":43.31091,"lon":5.37723,"is_reserved":false,"is_disabled":false,"rental_uris":{"android":"levelo://app?vid=57f5a8a9-f2e5-4673-966d-ca04b8d8c8e6","ios":"levelo://app?vid=57f5a8a9-f2e5-4673-966d-ca04b8d8c8e6"},"vehicle_type_id":"4","last_reported":1736561464,"current_range_meters":8400,"station_id":"ce4bgt92rcd13ifvqcg0","pricing_plan_id":"cebpf4jnsgd1na2vs0mg"},{"bike_id":"85427a88-99f5-4856-b496-8ef79c1ec2f5","system_id":"levelo_inurba_marseille","lat":43.24694,"lon":5.38143,"is_reserved":false,"is_disabled":false,"rental_uris":{"android":"levelo://app?vid=85427a88-99f5-4856-b496-8ef79c1ec2f5","ios":"levelo://app?vid=85427a88-99f5-4856-b496-8ef79c1ec2f5"},"vehicle_type_id":"4","last_reported":1736561464,"current_range_meters":36400,"station_id":"ce4bhih2rcd13ifvqfr0","pricing_plan_id":"cebpf4jnsgd1na2vs0mg"},{"bike_id":"65388605-1a70-4c58-b461-d0046c57c728","system_id":"levelo_inurba_marseille","lat":43.31501,"lon":5.3728,"is_reserved":false,"is_disabled":false,"rental_uris":{"android":"levelo://app?vid=65388605-1a70-4c58-b461-d0046c57c728","ios":"levelo://app?vid=65388605-1a70-4c58-b461-d0046c57c728"},"vehicle_type_id":"4","last_reported":1736561464,"current_range_meters":16800,"station_id":"ce4bgt12rcd13ifvqcd0","pricing_plan_id":"cebpf4jnsgd1na2vs0mg"},{"bike_id":"6d62c332-8463-4361-8de6-c419ab720f3d","system_id":"levelo_inurba_marseille","lat":43.28072,"lon":5.39652,"is_reserved":false,"is_disabled":false,"rental_uris":{"android":"levelo://app?vid=6d62c332-8463-4361-8de6-c419ab720f3d","ios":"levelo://app?vid=6d62c332-8463-4361-8de6-c419ab720f3d"},"vehicle_type_id":"4","last_reported":1736561464,"current_range_meters":28800,"station_id":"ce4bho12rcd13ifvqh2g","pricing_plan_id":"cebpf4jnsgd1na2vs0mg"},{"bike_id":"15d282da-837a-46ee-b861-d05a52aef175","system_id":"levelo_inurba_marseille","lat":43.28944,"lon":5.36382,"is_reserved":false,"is_disabled":false,"rental_uris":{"android":"levelo://app?vid=15d282da-837a-46ee-b861-d05a52aef175","ios":"levelo://app?vid=15d282da-837a-46ee-b861-d05a52aef175"},"vehicle_type_id":"4","last_reported":1736561464,"current_range_meters":30000,"station_id":"ce4bhc92rcd13ifvqetg","pricing_plan_id":"cebpf4jnsgd1na2vs0mg"},{"bike_id":"10b087d3-b27a-4384-ae75-250401046e12","system_id":"levelo_inurba_marseille","lat":43.3156,"lon":5.37986,"is_reserved":false,"is_disabled":false,"rental_uris":{"android":"levelo://app?vid=10b087d3-b27a-4384-ae75-250401046e12","ios":"levelo://app?vid=10b087d3-b27a-4384-ae75-250401046e12"},"vehicle_type_id":"4","last_reported":1736561464,"current_range_meters":38800,"station_id":"ce4bhsp2rcd13ifvqi50","pricing_plan_id":"cebpf4jnsgd1na2vs0mg"},{"bike_id":"cbc47527-3ca1-4448-a53a-1fa30b5ad082","system_id":"levelo_inurba_marseille","lat":43.28434,"lon":5.3919,"is_reserved":false,"is_disabled":false,"rental_uris":{"android":"levelo://app?vid=cbc47527-3ca1-4448-a53a-1fa30b5ad082","ios":"levelo://app?vid=cbc47527-3ca1-4448-a53a-1fa30b5ad082"},"vehicle_type_id":"4","last_reported":1736561464,"current_range_meters":8400,"station_id":"ce4bhoh2rcd13ifvqh5g","pricing_plan_id":"cebpf4jnsgd1na2vs0mg"},{"bike_id":"ad28bd53-1c8c-44ea-9a1c-1e5a5b2498fe","system_id":"levelo_inurba_marseille","lat":43.24168,"lon":5.36402,"is_reserved":false,"is_disabled":false,"rental_uris":{"android":"levelo://app?vid=ad28bd53-1c8c-44ea-9a1c-1e5a5b2498fe","ios":"levelo://app?vid=ad28bd53-1c8c-44ea-9a1c-1e5a5b2498fe"},"vehicle_type_id":"4","last_reported":1736561464,"current_range_meters":8400,"station_id":"cpo36qri1sfpv3e86is0","pricing_plan_id":"cebpf4jnsgd1na2vs0mg"},{"bike_id":"30b4f19a-5b8b-4ac5-8a89-8b14fe041003","system_id":"levelo_inurba_marseille","lat":43.24814,"lon":5.37456,"is_reserved":false,"is_disabled":false,"rental_uris":{"android":"levelo://app?vid=30b4f19a-5b8b-4ac5-8a89-8b14fe041003","ios":"levelo://app?vid=30b4f19a-5b8b-4ac5-8a89-8b14fe041003"},"vehicle_type_id":"4","last_reported":1736561464,"current_range_meters":20800,"station_id":"ce4bhgh2rcd13ifvqfb0","pricing_plan_id":"cebpf4jnsgd1na2vs0mg"},{"bike_id":"ad746cf8-4245-4698-b3cf-55cfec0266f7","system_id":"levelo_inurba_marseille","lat":43.25889,"lon":5.39875,"is_reserved":false,"is_disabled":false,"rental_uris":{"android":"levelo://app?vid=ad746cf8-4245-4698-b3cf-55cfec0266f7","ios":"levelo://app?vid=ad746cf8-4245-4698-b3cf-55cfec0266f7"},"vehicle_type_id":"4","last_reported":1736561464,"current_range_meters":8400,"station_id":"ce4bhl92rcd13ifvqghg","pricing_plan_id":"cebpf4jnsgd1na2vs0mg"},{"bike_id":"dbd9b530-fed1-4d45-bb60-d02086423e0f","system_id":"levelo_inurba_marseille","lat":43.27189,"lon":5.40981,"is_reserved":false,"is_disabled":false,"rental_uris":{"android":"levelo://app?vid=dbd9b530-fed1-4d45-bb60-d02086423e0f","ios":"levelo://app?vid=dbd9b530-fed1-4d45-bb60-d02086423e0f"},"vehicle_type_id":"4","last_reported":1736561464,"current_range_meters":38800,"station_id":"ce4bhl12rcd13ifvqgf0","pricing_plan_id":"cebpf4jnsgd1na2vs0mg"},{"bike_id":"04dafb08-87ad-4cfe-be8b-3c9f0fe86a42","system_id":"levelo_inurba_marseille","lat":43.25821,"lon":5.39435,"is_reserved":false,"is_disabled":false,"rental_uris":{"android":"levelo://app?vid=04dafb08-87ad-4cfe-be8b-3c9f0fe86a42","ios":"levelo://app?vid=04dafb08-87ad-4cfe-be8b-3c9f0fe86a42"},"vehicle_type_id":"4","last_reported":1736561464,"current_range_meters":19200,"station_id":"ce4bhip2rcd13ifvqft0","pricing_plan_id":"cebpf4jnsgd1na2vs0mg"},{"bike_id":"945ca576-ac1b-4dc5-a671-fce3479ae0ad","system_id":"levelo_inurba_marseille","lat":43.31066,"lon":5.38348,"is_reserved":false,"is_disabled":false,"rental_uris":{"android":"levelo://app?vid=945ca576-ac1b-4dc5-a671-fce3479ae0ad","ios":"levelo://app?vid=945ca576-ac1b-4dc5-a671-fce3479ae0ad"},"vehicle_type_id":"4","last_reported":1736561464,"current_range_meters":14000,"station_id":"ce4bgv92rcd13ifvqcr0","pricing_plan_id":"cebpf4jnsgd1na2vs0mg"},{"bike_id":"b5a31aab-1574-4a6b-8401-1e0a2c59ce4b","system_id":"levelo_inurba_marseille","lat":43.27835,"lon":5.39201,"is_reserved":false,"is_disabled":false,"rental_uris":{"android":"levelo://app?vid=b5a31aab-1574-4a6b-8401-1e0a2c59ce4b","ios":"levelo://app?vid=b5a31aab-1574-4a6b-8401-1e0a2c59ce4b"},"vehicle_type_id":"4","last_reported":1736561464,"current_range_meters":24800,"station_id":"ce4bhjp2rcd13ifvqga0","pricing_plan_id":"cebpf4jnsgd1na2vs0mg"},{"bike_id":"2d18369b-801b-4b4a-903b-d976e9a33c0d","system_id":"levelo_inurba_marseille","lat":43.25823,"lon":5.39425,"is_reserved":false,"is_disabled":false,"rental_uris":{"android":"levelo://app?vid=2d18369b-801b-4b4a-903b-d976e9a33c0d","ios":"levelo://app?vid=2d18369b-801b-4b4a-903b-d976e9a33c0d"},"vehicle_type_id":"4","last_reported":1736561464,"current_range_meters":32000,"station_id":"ce4bhip2rcd13ifvqft0","pricing_plan_id":"cebpf4jnsgd1na2vs0mg"},{"bike_id":"8b88170d-e695-4530-8583-a66b3ec41a93","system_id":"levelo_inurba_marseille","lat":43.33604,"lon":5.4103,"is_reserved":false,"is_disabled":false,"rental_uris":{"android":"levelo://app?vid=8b88170d-e695-4530-8583-a66b3ec41a93","ios":"levelo://app?vid=8b88170d-e695-4530-8583-a66b3ec41a93"},"vehicle_type_id":"4","last_reported":1736561464,"current_range_meters":14400,"station_id":"ce4bhqh2rcd13ifvqhmg","pricing_plan_id":"cebpf4jnsgd1na2vs0mg"},{"bike_id":"3a16c1ee-f720-45eb-bdaf-ae71c9e16faf","system_id":"levelo_inurba_marseille","lat":43.32533,"lon":5.41438,"is_reserved":false,"is_disabled":false,"rental_uris":{"android":"levelo://app?vid=3a16c1ee-f720-45eb-bdaf-ae71c9e16faf","ios":"levelo://app?vid=3a16c1ee-f720-45eb-bdaf-ae71c9e16faf"},"vehicle_type_id":"4","last_reported":1736561464,"current_range_meters":38000,"station_id":"ce4bhq12rcd13ifvqhhg","pricing_plan_id":"cebpf4jnsgd1na2vs0mg"},{"bike_id":"b8acbba0-a715-4ced-a2aa-0517db10ac9d","system_id":"levelo_inurba_marseille","lat":43.22936,"lon":5.3537,"is_reserved":false,"is_disabled":true,"rental_uris":{"android":"levelo://app?vid=b8acbba0-a715-4ced-a2aa-0517db10ac9d","ios":"levelo://app?vid=b8acbba0-a715-4ced-a2aa-0517db10ac9d"},"vehicle_type_id":"4","last_reported":1736561464,"current_range_meters":37600,"station_id":"cpo3532slgdg3j2ikp40","pricing_plan_id":"cebpf4jnsgd1na2vs0mg"},{"bike_id":"93eae98b-5ccf-4ee7-9d96-0e4060f411f2","system_id":"levelo_inurba_marseille","lat":43.23968,"lon":5.36623,"is_reserved":false,"is_disabled":false,"rental_uris":{"android":"levelo://app?vid=93eae98b-5ccf-4ee7-9d96-0e4060f411f2","ios":"levelo://app?vid=93eae98b-5ccf-4ee7-9d96-0e4060f411f2"},"vehicle_type_id":"4","last_reported":1736561464,"current_range_meters":29600,"station_id":"ce4bhi12rcd13ifvqfp0","pricing_plan_id":"cebpf4jnsgd1na2vs0mg"},{"bike_id":"55d6bc39-d199-4c02-aa2e-392175452eee","system_id":"levelo_inurba_marseille","lat":43.24676,"lon":5.38137,"is_reserved":false,"is_disabled":false,"rental_uris":{"android":"levelo://app?vid=55d6bc39-d199-4c02-aa2e-392175452eee","ios":"levelo://app?vid=55d6bc39-d199-4c02-aa2e-392175452eee"},"vehicle_type_id":"4","last_reported":1736561464,"current_range_meters":16400,"station_id":"ce4bhih2rcd13ifvqfr0","pricing_plan_id":"cebpf4jnsgd1na2vs0mg"},{"bike_id":"47894883-9411-4bd7-8b31-81ed1947cbf2","system_id":"levelo_inurba_marseille","lat":43.28001,"lon":5.41593,"is_reserved":false,"is_disabled":false,"rental_uris":{"android":"levelo://app?vid=47894883-9411-4bd7-8b31-81ed1947cbf2","ios":"levelo://app?vid=47894883-9411-4bd7-8b31-81ed1947cbf2"},"vehicle_type_id":"4","last_reported":1736561464,"current_range_meters":34800,"station_id":"","pricing_plan_id":"cebpf4jnsgd1na2vs0mg"},{"bike_id":"97bcb446-6bb9-47e4-954c-ada27848fb90","system_id":"levelo_inurba_marseille","lat":43.29245,"lon":5.4091,"is_reserved":false,"is_disabled":false,"rental_uris":{"android":"levelo://app?vid=97bcb446-6bb9-47e4-954c-ada27848fb90","ios":"levelo://app?vid=97bcb446-6bb9-47e4-954c-ada27848fb90"},"vehicle_type_id":"4","last_reported":1736561464,"current_range_meters":38800,"station_id":"ce4bh192rcd13ifvqdc0","pricing_plan_id":"cebpf4jnsgd1na2vs0mg"},{"bike_id":"eb58e795-69d2-4128-9bac-5bf120e11b19","system_id":"levelo_inurba_marseille","lat":43.31327,"lon":5.37327,"is_reserved":false,"is_disabled":false,"rental_uris":{"android":"levelo://app?vid=eb58e795-69d2-4128-9bac-5bf120e11b19","ios":"levelo://app?vid=eb58e795-69d2-4128-9bac-5bf120e11b19"},"vehicle_type_id":"4","last_reported":1736561464,"current_range_meters":28000,"station_id":"","pricing_plan_id":"cebpf4jnsgd1na2vs0mg"},{"bike_id":"492eaeaa-12ec-45d5-becd-2f0b35e16c8d","system_id":"levelo_inurba_marseille","lat":43.24166,"lon":5.36383,"is_reserved":false,"is_disabled":false,"rental_uris":{"android":"levelo://app?vid=492eaeaa-12ec-45d5-becd-2f0b35e16c8d","ios":"levelo://app?vid=492eaeaa-12ec-45d5-becd-2f0b35e16c8d"},