{"last_updated":1678215995,"ttl":30,"version":"2.2","data":{"bikes":[{"bike_id":"b40e2a75-e737-45cc-bf50-6c3fe6cad874","system_id":"levelo_inurba_marseille","lat":43.314811,"lon":5.373103,"is_reserved":false,"is_disabled":false,"rental_uris":{"android":"levelo://app?vid=b40e2a75-e737-45cc-bf50-6c3fe6cad874","ios":"levelo://app?vid=b40e2a75-e737-45cc-bf50-6c3fe6cad874"},"vehicle_type_id":"4","last_reported":1678215995,"current_range_meters":0,"station_id":"ce4bgt12rcd13ifvqcd0","pricing_plan_id":"free"},{"bike_id":"8fb61902-1948-4dc4-bb64-227b26f0cf23","system_id":"levelo_inurba_marseille","lat":43.308614,"lon":5.372098,"is_reserved":false,"is_disabled":false,"rental_uris":{"android":"levelo://app?vid=8fb61902-1948-4dc4-bb64-227b26f0cf23","ios":"levelo://app?vid=8fb61902-1948-4dc4-bb64-227b26f0cf23"},"vehicle_type_id":"4","last_reported":1678215995,"current_range_meters":0,"station_id":"ce4bguh2rcd13ifvqckg","pricing_plan_id":"free"},{"bike_id":"c71796e2-1e6b-4a7e-83fa-d8c1e2bb4038","system_id":"levelo_inurba_marseille","lat":43.308614,"lon":5.372098,"is_reserved":false,"is_disabled":false,"rental_uris":{"android":"levelo://app?vid=c71796e2-1e6b-4a7e-83fa-d8c1e2bb4038","ios":"levelo://app?vid=c71796e2-1e6b-4a7e-83fa-d8c1e2bb4038"},"vehicle_type_id":"4","last_reported":1678215995,"current_range_meters":23200,"station_id":"ce4bguh2rcd13ifvqckg","pricing_plan_id":"free"},{"bike_id":"761f1d08-449d-4ffd-a83e-a594a8094317","system_id":"levelo_inurba_marseille","lat":43.30912,"lon":5.372497,"is_reserved":false,"is_disabled":false,"rental_uris":{"android":"levelo://app?vid=761f1d08-449d-4ffd-a83e-a594a8094317","ios":"levelo://app?vid=761f1d08-449d-4ffd-a83e-a594a8094317"},"vehicle_type_id":"4","last_reported":1678215995,"current_range_meters":0,"station_id":"","pricing_plan_id":"free"},{"bike_id":"ed6e5b86-0def-456c-86a1-e67d7e755a23","system_id":"levelo_inurba_marseille","lat":43.305989,"lon":5.37225,"is_reserved":false,"is_disabled":false,"rental_uris":{"android":"levelo://app?vid=ed6e5b86-0def-456c-86a1-e67d7e755a23","ios":"levelo://app?vid=ed6e5b86-0def-456c-86a1-e67d7e755a23"},"vehicle_type_id":"4","last_reported":1678215995,"current_range_meters":3200,"station_id":"ce4bgqh2rcd13ifvqc4g","pricing_plan_id":"free"},{"bike_id":"cb583970-3098-4cbc-967c-3f4a1c161fc4","system_id":"levelo_inurba_marseille","lat":43.317075,"lon":5.377367,"is_reserved":false,"is_disabled":false,"rental_uris":{"android":"levelo://app?vid=cb583970-3098-4cbc-967c-3f4a1c161fc4","ios":"levelo://app?vid=cb583970-3098-4cbc-967c-3f4a1c161fc4"},"vehicle_type_id":"4","last_reported":1678215995,"current_range_meters":26800,"station_id":"ce4bgth2rcd13ifvqch0","pricing_plan_id":"free"},{"bike_id":"25e1479d-7b14-4248-ab09-3e114980952b","system_id":"levelo_inurba_marseille","lat":43.317075,"lon":5.377367,"is_reserved":false,"is_disabled":false,"rental_uris":{"android":"levelo://app?vid=25e1479d-7b14-4248-ab09-3e114980952b","ios":"levelo://app?vid=25e1479d-7b14-4248-ab09-3e114980952b"},"vehicle_type_id":"4","last_reported":1678215995,"current_range_meters":28000,"station_id":"ce4bgth2rcd13ifvqch0","pricing_plan_id":"free"},{"bike_id":"60a25a6f-4c15-4e38-bd2a-7f03cfc5f5a1","system_id":"levelo_inurba_marseille","lat":43.308029,"lon":5.381567,"is_reserved":false,"is_disabled":false,"rental_uris":{"android":"levelo://app?vid=60a25a6f-4c15-4e38-bd2a-7f03cfc5f5a1","ios":"levelo://app?vid=60a25a6f-4c15-4e38-bd2a-7f03cfc5f5a1"},"vehicle_type_id":"4","last_reported":1678215995,"current_range_meters":0,"station_id":"ce4bgt12rcd13ifvqce0","pricing_plan_id":"free"},{"bike_id":"37871e0e-bc3e-4ee3-b886-a1ba0c6fac0d","system_id":"levelo_inurba_marseille","lat":43.308012,"lon":5.381511,"is_reserved":false,"is_disabled":false,"rental_uris":{"android":"levelo://app?vid=37871e0e-bc3e-4ee3-b886-a1ba0c6fac0d","ios":"levelo://app?vid=37871e0e-bc3e-4ee3-b886-a1ba0c6fac0d"},"vehicle_type_id":"4","last_reported":1678215995,"current_range_meters":3200,"station_id":"ce4bgt12rcd13ifvqce0","pricing_plan_id":"free"},{"bike_id":"8af21139-5db2-473b-8153-84b40793cc28","system_id":"levelo_inurba_marseille","lat":43.304606,"lon":5.379026,"is_reserved":false,"is_disabled":false,"rental_uris":{"android":"levelo://app?vid=8af21139-5db2-473b-8153-84b40793cc28","ios":"levelo://app?vid=8af21139-5db2-473b-8153-84b40793cc28"},"vehicle_type_id":"4","last_reported":1678215995,"current_range_meters":0,"station_id":"ce4bgup2rcd13ifvqcn0","pricing_plan_id":"free"},{"bike_id":"46e6f3dc-1b00-4d98-b846-f11942083c81","system_id":"levelo_inurba_marseille","lat":43.30461,"lon":5.37902,"is_reserved":false,"is_disabled":false,"rental_uris":{"android":"levelo://app?vid=46e6f3dc-1b00-4d98-b846-f11942083c81","ios":"levelo://app?vid=46e6f3dc-1b00-4d98-b846-f11942083c81"},"vehicle_type_id":"4","last_reported":1678215995,"current_range_meters":3200,"station_id":"","pricing_plan_id":"free"},{"bike_id":"2c63f21f-85e5-4001-91a4-4e1f94c46145","system_id":"levelo_inurba_marseille","lat":43.3046,"lon":5.37901,"is_reserved":false,"is_disabled":false,"rental_uris":{"android":"levelo://app?vid=2c63f21f-85e5-4001-91a4-4e1f94c46145","ios":"levelo://app?vid=2c63f21f-85e5-4001-91a4-4e1f94c46145"},"vehicle_type_id":"4","last_reported":1678215995,"current_range_meters":4800,"station_id":"","pricing_plan_id":"free"},{"bike_id":"91040d3f-1dec-406d-85a8-f1a66077167a","system_id":"levelo_inurba_marseille","lat":43.30459,"lon":5.379,"is_reserved":false,"is_disabled":false,"rental_uris":{"android":"levelo://app?vid=91040d3f-1dec-406d-85a8-f1a66077167a","ios":"levelo://app?vid=91040d3f-1dec-406d-85a8-f1a66077167a"},"vehicle_type_id":"4","last_reported":1678215995,"current_range_meters":15200,"station_id":"","pricing_plan_id":"free"},{"bike_id":"875bad67-4474-439c-8d95-a1286cd0ddcf","system_id":"levelo_inurba_marseille","lat":43.304606,"lon":5.379026,"is_reserved":false,"is_disabled":false,"rental_uris":{"android":"levelo://app?vid=875bad67-4474-439c-8d95-a1286cd0ddcf","ios":"levelo://app?vid=875bad67-4474-439c-8d95-a1286cd0ddcf"},"vehicle_type_id":"4","last_reported":1678215995,"current_range_meters":1200,"station_id":"ce4bgup2rcd13ifvqcn0","pricing_plan_id":"free"},{"bike_id":"04f1acc9-eae3-4bd2-9588-7ad9a8e92ed2","system_id":"levelo_inurba_marseille","lat":43.304606,"lon":5.379026,"is_reserved":false,"is_disabled":false,"rental_uris":{"android":"levelo://app?vid=04f1acc9-eae3-4bd2-9588-7ad9a8e92ed2","ios":"levelo://app?vid=04f1acc9-eae3-4bd2-9588-7ad9a8e92ed2"},"vehicle_type_id":"4","last_reported":1678215995,"current_range_meters":2400,"station_id":"ce4bgup2rcd13ifvqcn0","pricing_plan_id":"free"},{"bike_id":"cc302250-3623-4a8a-af96-e2ac358862b9","system_id":"levelo_inurba_marseille","lat":43.313593,"lon":5.384937,"is_reserved":false,"is_disabled":false,"rental_uris":{"android":"levelo://app?vid=cc302250-3623-4a8a-af96-e2ac358862b9","ios":"levelo://app?vid=cc302250-3623-4a8a-af96-e2ac358862b9"},"vehicle_type_id":"4","last_reported":1678215995,"current_range_meters":9200,"station_id":"","pricing_plan_id":"free"},{"bike_id":"e5a54131-4e65-4c4d-96a9-13ac0bbe783c","system_id":"levelo_inurba_marseille","lat":43.305364,"lon":5.384119,"is_reserved":false,"is_disabled":false,"rental_uris":{"android":"levelo://app?vid=e5a54131-4e65-4c4d-96a9-13ac0bbe783c","ios":"levelo://app?vid=e5a54131-4e65-4c4d-96a9-13ac0bbe783c"},"vehicle_type_id":"4","last_reported":1678215995,"current_range_meters":20800,"station_id":"ce4bgg92rcd13ifvqb30","pricing_plan_id":"free"},{"bike_id":"d39a7ec3-f487-479a-882b-3fe55fa071d3","system_id":"levelo_inurba_marseille","lat":43.311722,"lon":5.387247,"is_reserved":false,"is_disabled":false,"rental_uris":{"android":"levelo://app?vid=d39a7ec3-f487-479a-882b-3fe55fa071d3","ios":"levelo://app?vid=d39a7ec3-f487-479a-882b-3fe55fa071d3"},"vehicle_type_id":"4","last_reported":1678215995,"current_range_meters":4400,"station_id":"ce4bgv12rcd13ifvqcp0","pricing_plan_id":"free"},{"bike_id":"880dee65-5b22-4b9e-b5f1-4b0ba3226ced","system_id":"levelo_inurba_marseille","lat":43.328371,"lon":5.366912,"is_reserved":false,"is_disabled":false,"rental_uris":{"android":"levelo://app?vid=880dee65-5b22-4b9e-b5f1-4b0ba3226ced","ios":"levelo://app?vid=880dee65-5b22-4b9e-b5f1-4b0ba3226ced"},"vehicle_type_id":"4","last_reported":1678215995,"current_range_meters":16400,"station_id":"ce4bhs92rcd13ifvqi0g","pricing_plan_id":"free"},{"bike_id":"e554fe19-0dd7-4786-a1ea-5e84d79718e6","system_id":"levelo_inurba_marseille","lat":43.328371,"lon":5.366912,"is_reserved":false,"is_disabled":false,"rental_uris":{"android":"levelo://app?vid=e554fe19-0dd7-4786-a1ea-5e84d79718e6","ios":"levelo://app?vid=e554fe19-0dd7-4786-a1ea-5e84d79718e6"},"vehicle_type_id":"4","last_reported":1678215995,"current_range_meters":16400,"station_id":"ce4bhs92rcd13ifvqi0g","pricing_plan_id":"free"},{"bike_id":"36d4f49c-720f-4fa0-b108-908cdf3c0741","system_id":"levelo_inurba_marseille","lat":43.32829,"lon":5.36696,"is_reserved":false,"is_disabled":false,"rental_uris":{"android":"levelo://app?vid=36d4f49c-720f-4fa0-b108-908cdf3c0741","ios":"levelo://app?vid=36d4f49c-720f-4fa0-b108-908cdf3c0741"},"vehicle_type_id":"4","last_reported":1678215995,"current_range_meters":5600,"station_id":"","pricing_plan_id":"free"},{"bike_id":"86c4f221-bf16-4da5-b1e3-79ba1ac14f6f","system_id":"levelo_inurba_marseille","lat":43.32831,"lon":5.3669,"is_reserved":false,"is_disabled":false,"rental_uris":{"android":"levelo://app?vid=86c4f221-bf16-4da5-b1e3-79ba1ac14f6f","ios":"levelo://app?vid=86c4f221-bf16-4da5-b1e3-79ba1ac14f6f"},"vehicle_type_id":"4","last_reported":1678215995,"current_range_meters":400,"station_id":"ce4bhs92rcd13ifvqi0g","pricing_plan_id":"free"},{"bike_id":"5ef59c72-905c-4c73-9834-87a3086b515a","system_id":"levelo_inurba_marseille","lat":43.328371,"lon":5.366912,"is_reserved":false,"is_disabled":false,"rental_uris":{"android":"levelo://app?vid=5ef59c72-905c-4c73-9834-87a3086b515a","ios":"levelo://app?vid=5ef59c72-905c-4c73-9834-87a3086b515a"},"vehicle_type_id":"4","last_reported":1678215995,"current_range_meters":6400,"station_id":"ce4bhs92rcd13ifvqi0g","pricing_plan_id":"free"},{"bike_id":"cc44b73e-1fde-4e04-9674-6f985d934bf1","system_id":"levelo_inurba_marseille","lat":43.328371,"lon":5.366912,"is_reserved":false,"is_disabled":false,"rental_uris":{"android":"levelo://app?vid=cc44b73e-1fde-4e04-9674-6f985d934bf1","ios":"levelo://app?vid=cc44b73e-1fde-4e04-9674-6f985d934bf1"},"vehicle_type_id":"4","last_reported":1678215995,"current_range_meters":6800,"station_id":"ce4bhs92rcd13ifvqi0g","pricing_plan_id":"free"},{"bike_id":"61e3a18c-ed1e-4c4d-9e4b-6ba94d88cef9","system_id":"levelo_inurba_marseille","lat":43.29674,"lon":5.37284,"is_reserved":false,"is_disabled":false,"rental_uris":{"android":"levelo://app?vid=61e3a18c-ed1e-4c4d-9e4b-6ba94d88cef9","ios":"levelo://app?vid=61e3a18c-ed1e-4c4d-9e4b-6ba94d88cef9"},"vehicle_type_id":"4","last_reported":1678215995,"current_range_meters":8400,"station_id":"ce4bgk12rcd13ifvqbj0","pricing_plan_id":"free"},{"bike_id":"67bc581c-fc60-442c-9f37-5332e8b705e7","system_id":"levelo_inurba_marseille","lat":43.296249,"lon":5.371634,"is_reserved":false,"is_disabled":false,"rental_uris":{"android":"levelo://app?vid=67bc581c-fc60-442c-9f37-5332e8b705e7","ios":"levelo://app?vid=67bc581c-fc60-442c-9f37-5332e8b705e7"},"vehicle_type_id":"4","last_reported":1678215995,"current_range_meters":0,"station_id":"","pricing_plan_id":"free"},{"bike_id":"41adfeae-16cf-484a-b2c7-ea5ef1a1f1ad","system_id":"levelo_inurba_marseille","lat":43.29573,"lon":5.367355,"is_reserved":false,"is_disabled":false,"rental_uris":{"android":"levelo://app?vid=41adfeae-16cf-484a-b2c7-ea5ef1a1f1ad","ios":"levelo://app?vid=41adfeae-16cf-484a-b2c7-ea5ef1a1f1ad"},"vehicle_type_id":"4","last_reported":1678215995,"current_range_meters":27200,"station_id":"ce4bgph2rcd13ifvqc2g","pricing_plan_id":"free"},{"bike_id":"ddf26907-2a89-40d6-95d5-cef89e9f3f21","system_id":"levelo_inurba_marseille","lat":43.317104,"lon":5.436818,"is_reserved":false,"is_disabled":false,"rental_uris":{"android":"levelo://app?vid=ddf26907-2a89-40d6-95d5-cef89e9f3f21","ios":"levelo://app?vid=ddf26907-2a89-40d6-95d5-cef89e9f3f21"},"vehicle_type_id":"4","last_reported":1678215995,"current_range_meters":31600,"station_id":"ce4bhp92rcd13ifvqhcg","pricing_plan_id":"free"},{"bike_id":"7a104678-1c6d-4610-9929-0f4c82fbbdf2","system_id":"levelo_inurba_marseille","lat":43.299028,"lon":5.381509,"is_reserved":false,"is_disabled":false,"rental_uris":{"android":"levelo://app?vid=7a104678-1c6d-4610-9929-0f4c82fbbdf2","ios":"levelo://app?vid=7a104678-1c6d-4610-9929-0f4c82fbbdf2"},"vehicle_type_id":"4","last_reported":1678215995,"current_range_meters":22000,"station_id":"ce4bgj12rcd13ifvqbc0","pricing_plan_id":"free"},{"bike_id":"b68c8d79-35ca-4abe-acbb-02b7e2b8ec34","system_id":"levelo_inurba_marseille","lat":43.299028,"lon":5.381509,"is_reserved":false,"is_disabled":false,"rental_uris":{"android":"levelo://app?vid=b68c8d79-35ca-4abe-acbb-02b7e2b8ec34","ios":"levelo://app?vid=b68c8d79-35ca-4abe-acbb-02b7e2b8ec34"},"vehicle_type_id":"4","last_reported":1678215995,"current_range_meters":16400,"station_id":"ce4bgj12rcd13ifvqbc0","pricing_plan_id":"free"},{"bike_id":"ce3baeee-26cb-4bcf-bf71-25651ba1e64f","system_id":"levelo_inurba_marseille","lat":43.299028,"lon":5.381509,"is_reserved":false,"is_disabled":false,"rental_uris":{"android":"levelo://app?vid=ce3baeee-26cb-4bcf-bf71-25651ba1e64f","ios":"levelo://app?vid=ce3baeee-26cb-4bcf-bf71-25651ba1e64f"},"vehicle_type_id":"4","last_reported":1678215995,"current_range_meters":8000,"station_id":"ce4bgj12rcd13ifvqbc0","pricing_plan_id":"free"},{"bike_id":"0c5738dd-400d-4e6d-a98c-72fb3d32fcd3","system_id":"levelo_inurba_marseille","lat":43.317557,"lon":5.390173,"is_reserved":false,"is_disabled":false,"rental_uris":{"android":"levelo://app?vid=0c5738dd-400d-4e6d-a98c-72fb3d32fcd3","ios":"levelo://app?vid=0c5738dd-400d-4e6d-a98c-72fb3d32fcd3"},"vehicle_type_id":"4","last_reported":1678215995,"current_range_meters":18800,"station_id":"ce4bhqp2rcd13ifvqhng","pricing_plan_id":"free"},{"bike_id":"a2ce11ea-55ce-415e-8f92-3b4ef0972f23","system_id":"levelo_inurba_marseille","lat":43.31755,"lon":5.39015,"is_reserved":false,"is_disabled":false,"rental_uris":{"android":"levelo://app?vid=a2ce11ea-55ce-415e-8f92-3b4ef0972f23","ios":"levelo://app?vid=a2ce11ea-55ce-415e-8f92-3b4ef0972f23"},"vehicle_type_id":"4","last_reported":1678215995,"current_range_meters":6400,"station_id":"","pricing_plan_id":"free"},{"bike_id":"36deac6a-e562-4687-ae0c-4ad7a83049e8","system_id":"levelo_inurba_marseille","lat":43.317557,"lon":5.390173,"is_reserved":false,"is_disabled":false,"rental_uris":{"android":"levelo://app?vid=36deac6a-e562-4687-ae0c-4ad7a83049e8","ios":"levelo://app?vid=36deac6a-e562-4687-ae0c-4ad7a83049e8"},"vehicle_type_id":"4","last_reported":1678215995,"current_range_meters":1200,"station_id":"ce4bhqp2rcd13ifvqhng","pricing_plan_id":"free"},{"bike_id":"3588ed7a-63de-4460-88d9-6f441e0942a6","system_id":"levelo_inurba_marseille","lat":43.309589,"lon":5.390258,"is_reserved":false,"is_disabled":false,"rental_uris":{"android":"levelo://app?vid=3588ed7a-63de-4460-88d9-6f441e0942a6","ios":"levelo://app?vid=3588ed7a-63de-4460-88d9-6f441e0942a6"},"vehicle_type_id":"4","last_reported":1678215995,"current_range_meters":400,"station_id":"ce4bgup2rcd13ifvqco0","pricing_plan_id":"free"},{"bike_id":"b11f37c5-a95f-44e0-a099-04e915386bff","system_id":"levelo_inurba_marseille","lat":43.30431,"lon":5.38892,"is_reserved":false,"is_disabled":false,"rental_uris":{"android":"levelo://app?vid=b11f37c5-a95f-44e0-a099-04e915386bff","ios":"levelo://app?vid=b11f37c5-a95f-44e0-a099-04e915386bff"},"vehicle_type_id":"4","last_reported":1678215995,"current_range_meters":0,"station_id":"","pricing_plan_id":"free"},{"bike_id":"f8bb2681-e64f-410c-9dab-fda972f5a51b","system_id":"levelo_inurba_marseille","lat":43.3043,"lon":5.38895,"is_reserved":false,"is_disabled":false,"rental_uris":{"android":"levelo://app?vid=f8bb2681-e64f-410c-9dab-fda972f5a51b","ios":"levelo://app?vid=f8bb2681-e64f-410c-9dab-fda972f5a51b"},"vehicle_type_id":"4","last_reported":1678215995,"current_range_meters":6000,"station_id":"","pricing_plan_id":"free"},{"bike_id":"4877fb94-466b-4b82-8abf-052fb1b945ca","system_id":"levelo_inurba_marseille","lat":43.32364,"lon":5.38877,"is_reserved":false,"is_disabled":false,"rental_uris":{"android":"levelo://app?vid=4877fb94-466b-4b82-8abf-052fb1b945ca","ios":"levelo://app?vid=4877fb94-466b-4b82-8abf-052fb1b945ca"},"vehicle_type_id":"4","last_reported":1678215995,"current_range_meters":31600,"station_id":"ce4bhqp2rcd13ifvqhog","pricing_plan_id":"free"},{"bike_id":"6a5c0800-d4a8-411d-8e31-7844a07b7436","system_id":"levelo_inurba_marseille","lat":43.32367,"lon":5.388836,"is_reserved":false,"is_disabled":false,"rental_uris":{"android":"levelo://app?vid=6a5c0800-d4a8-411d-8e31-7844a07b7436","ios":"levelo://app?vid=6a5c0800-d4a8-411d-8e31-7844a07b7436"},"vehicle_type_id":"4","last_reported":1678215995,"current_range_meters":11200,"station_id":"ce4bhqp2rcd13ifvqhog","pricing_plan_id":"free"},{"bike_id":"cb81a7a8-1852-49bb-9364-8eda5bf9cd79","system_id":"levelo_inurba_marseille","lat":43.32367,"lon":5.388836,"is_reserved":false,"is_disabled":false,"rental_uris":{"android":"levelo://app?vid=cb81a7a8-1852-49bb-9364-8eda5bf9cd79","ios":"levelo://app?vid=cb81a7a8-1852-49bb-9364-8eda5bf9cd79"},"vehicle_type_id":"4","last_reported":1678215995,"current_range_meters":26000,"station_id":"ce4bhqp2rcd13ifvqhog","pricing_plan_id":"free"},{"bike_id":"875c2b0b-1c1c-4dd5-b6df-1c330bb2e1bf","system_id":"levelo_inurba_marseille","lat":43.32363,"lon":5.38884,"is_reserved":false,"is_disabled":false,"rental_uris":{"android":"levelo://app?vid=875c2b0b-1c1c-4dd5-b6df-1c330bb2e1bf","ios":"levelo://app?vid=875c2b0b-1c1c-4dd5-b6df-1c330bb2e1bf"},"vehicle_type_id":"4","last_reported":1678215995,"current_range_meters":13600,"station_id":"","pricing_plan_id":"free"},{"bike_id":"90d3f984-dc76-4c26-89dc-08ababd0b9f5","system_id":"levelo_inurba_marseille","lat":43.32367,"lon":5.388836,"is_reserved":false,"is_disabled":false,"rental_uris":{"android":"levelo://app?vid=90d3f984-dc76-4c26-89dc-08ababd0b9f5","ios":"levelo://app?vid=90d3f984-dc76-4c26-89dc-08ababd0b9f5"},"vehicle_type_id":"4","last_reported":1678215995,"current_range_meters":9600,"station_id":"ce4bhqp2rcd13ifvqhog","pricing_plan_id":"free"},{"bike_id":"c19519f0-1de8-4ada-8b55-f694afbd3089","system_id":"levelo_inurba_marseille","lat":43.323656,"lon":5.388834,"is_reserved":false,"is_disabled":false,"rental_uris":{"android":"levelo://app?vid=c19519f0-1de8-4ada-8b55-f694afbd3089","ios":"levelo://app?vid=c19519f0-1de8-4ada-8b55-f694afbd3089"},"vehicle_type_id":"4","last_reported":1678215995,"current_range_meters":18800,"station_id":"ce4bhqp2rcd13ifvqhog","pricing_plan_id":"free"},{"bike_id":"9f8a3e07-b19c-4d8d-8cf6-b5561388c8c2","system_id":"levelo_inurba_marseille","lat":43.32366,"lon":5.388835,"is_reserved":false,"is_disabled":false,"rental_uris":{"android":"levelo://app?vid=9f8a3e07-b19c-4d8d-8cf6-b5561388c8c2","ios":"levelo://app?vid=9f8a3e07-b19c-4d8d-8cf6-b5561388c8c2"},"vehicle_type_id":"4","last_reported":1678215995,"current_range_meters":28800,"station_id":"","pricing_plan_id":"free"},{"bike_id":"4f4ad25a-813d-41af-900e-1838747168ba","system_id":"levelo_inurba_marseille","lat":43.32367,"lon":5.388836,"is_reserved":false,"is_disabled":false,"rental_uris":{"android":"levelo://app?vid=4f4ad25a-813d-41af-900e-1838747168ba","ios":"levelo://app?vid=4f4ad25a-813d-41af-900e-1838747168ba"},"vehicle_type_id":"4","last_reported":1678215995,"current_range_meters":1600,"station_id":"ce4bhqp2rcd13ifvqhog","pricing_plan_id":"free"},{"bike_id":"23de0590-3e36-4134-b60d-082bcfa62f9d","system_id":"levelo_inurba_marseille","lat":43.32367,"lon":5.388836,"is_reserved":false,"is_disabled":false,"rental_uris":{"android":"levelo://app?vid=23de0590-3e36-4134-b60d-082bcfa62f9d","ios":"levelo://app?vid=23de0590-3e36-4134-b60d-082bcfa62f9d"},"vehicle_type_id":"4","last_reported":1678215995,"current_range_meters":10800,"station_id":"ce4bhqp2rcd13ifvqhog","pricing_plan_id":"free"},{"bike_id":"e8b62d11-c899-4e39-b427-4268fce27d3c","system_id":"levelo_inurba_marseille","lat":43.32367,"lon":5.388836,"is_reserved":false,"is_disabled":false,"rental_uris":{"android":"levelo://app?vid=e8b62d11-c899-4e39-b427-4268fce27d3c","ios":"levelo://app?vid=e8b62d11-c899-4e39-b427-4268fce27d3c"},"vehicle_type_id":"4","last_reported":1678215995,"current_range_meters":31600,"station_id":"ce4bhqp2rcd13ifvqhog","pricing_plan_id":"free"},{"bike_id":"6c8f6444-fab5-478d-b6b9-8b99d9d5cb40","system_id":"levelo_inurba_marseille","lat":43.293009,"lon":5.374584,"is_reserved":false,"is_disabled":false,"rental_uris":{"android":"levelo://app?vid=6c8f6444-fab5-478d-b6b9-8b99d9d5cb40","ios":"levelo://app?vid=6c8f6444-fab5-478d-b6b9-8b99d9d5cb40"},"vehicle_type_id":"4","last_reported":1678215995,"current_range_meters":0,"station_id":"ce4bgi12rcd13ifvqb70","pricing_plan_id":"free"},{"bike_id":"d0acff24-240f-4987-918e-07343959a61c","system_id":"levelo_inurba_marseille","lat":43.292311,"lon":5.360731,"is_reserved":false,"is_disabled":false,"rental_uris":{"android":"levelo://app?vid=d0acff24-240f-4987-918e-07343959a61c","ios":"levelo://app?vid=d0acff24-240f-4987-918e-07343959a61c"},"vehicle_type_id":"4","last_reported":1678215995,"current_range_meters":0,"station_id":"ce4bhbh2rcd13ifvqeqg","pricing_plan_id":"free"},{"bike_id":"6605f0ce-71e9-4a60-9ec6-ff0e275e816d","system_id":"levelo_inurba_marseille","lat":43.301,"lon":5.39084,"is_reserved":false,"is_disabled":false,"rental_uris":{"android":"levelo://app?vid=6605f0ce-71e9-4a60-9ec6-ff0e275e816d","ios":"levelo://app?vid=6605f0ce-71e9-4a60-9ec6-ff0e275e816d"},"vehicle_type_id":"4","last_reported":1678215995,"current_range_meters":13200,"station_id":"ce4bh192rcd13ifvqdb0","pricing_plan_id":"free"},{"bike_id":"39e49390-a457-48e2-bc0c-766b457b2209","system_id":"levelo_inurba_marseille","lat":43.313291,"lon":5.396838,"is_reserved":false,"is_disabled":false,"rental_uris":{"android":"levelo://app?vid=39e49390-a457-48e2-bc0c-766b457b2209","ios":"levelo://app?vid=39e49390-a457-48e2-bc0c-766b457b2209"},"vehicle_type_id":"4","last_reported":1678215995,"current_range_meters":27600,"station_id":"ce4bgvp2rcd13ifvqcu0","pricing_plan_id":"free"},{"bike_id":"d9256199-cd9b-4aca-a2af-1301b91c216a","system_id":"levelo_inurba_marseille","lat":43.313291,"lon":5.396838,"is_reserved":false,"is_disabled":false,"rental_uris":{"android":"levelo://app?vid=d9256199-cd9b-4aca-a2af-1301b91c216a","ios":"levelo://app?vid=d9256199-cd9b-4aca-a2af-1301b91c216a"},"vehicle_type_id":"4","last_reported":1678215995,"current_range_meters":29200,"station_id":"ce4bgvp2rcd13ifvqcu0","pricing_plan_id":"free"},{"bike_id":"967935c5-5620-4dd7-93e8-c76663202f0a","system_id":"levelo_inurba_marseille","lat":43.313291,"lon":5.396838,"is_reserved":false,"is_disabled":false,"rental_uris":{"android":"levelo://app?vid=967935c5-5620-4dd7-93e8-c76663202f0a","ios":"levelo://app?vid=967935c5-5620-4dd7-93e8-c76663202f0a"},"vehicle_type_id":"4","last_reported":1678215995,"current_range_meters":30800,"station_id":"ce4bgvp2rcd13ifvqcu0","pricing_plan_id":"free"},{"bike_id":"34303234-a701-4077-9d01-f6245f8a4a9e","system_id":"levelo_inurba_marseille","lat":43.313291,"lon":5.396838,"is_reserved":false,"is_disabled":false,"rental_uris":{"android":"levelo://app?vid=34303234-a701-4077-9d01-f6245f8a4a9e","ios":"levelo://app?vid=34303234-a701-4077-9d01-f6245f8a4a9e"},"vehicle_type_id":"4","last_reported":1678215995,"current_range_meters":31600,"station_id":"ce4bgvp2rcd13ifvqcu0","pricing_plan_id":"free"},{"bike_id":"94841641-ef14-423a-8550-577250c9fc0e","system_id":"levelo_inurba_marseille","lat":43.313291,"lon":5.396838,"is_reserved":false,"is_disabled":false,"rental_uris":{"android":"levelo://app?vid=94841641-ef14-423a-8550-577250c9fc0e","ios":"levelo://app?vid=94841641-ef14-423a-8550-577250c9fc0e"},"vehicle_type_id":"4","last_reported":1678215995,"current_range_meters":30000,"station_id":"ce4bgvp2rcd13ifvqcu0","pricing_plan_id":"free"},{"bike_id":"824abb22-c18d-4bb2-90a7-88d1b74a3892","system_id":"levelo_inurba_marseille","lat":43.313291,"lon":5.396838,"is_reserved":false,"is_disabled":false,"rental_uris":{"android":"levelo://app?vid=824abb22-c18d-4bb2-90a7-88d1b74a3892","ios":"levelo://app?vid=824abb22-c18d-4bb2-90a7-88d1b74a3892"},"vehicle_type_id":"4","last_reported":1678215995,"current_range_meters":27600,"station_id":"ce4bgvp2rcd13ifvqcu0","pricing_plan_id":"free"},{"bike_id":"6cde185f-fed8-4340-8861-a8ba363c2ef4","system_id":"levelo_inurba_marseille","lat":43.290779,"lon":5.371482,"is_reserved":false,"is_disabled":false,"rental_uris":{"android":"levelo://app?vid=6cde185f-fed8-4340-8861-a8ba363c2ef4","ios":"levelo://app?vid=6cde185f-fed8-4340-8861-a8ba363c2ef4"},"vehicle_type_id":"4","last_reported":1678215995,"current_range_meters":14400,"station_id":"ce4bh5p2rcd13ifvqe4g","pricing_plan_id":"free"},{"bike_id":"29301f5d-e55f-467f-b0b4-77d6de1b3984","system_id":"levelo_inurba_marseille","lat":43.289439,"lon":5.366377,"is_reserved":false,"is_disabled":false,"rental_uris":{"android":"levelo://app?vid=29301f5d-e55f-467f-b0b4-77d6de1b3984","ios":"levelo://app?vid=29301f5d-e55f-467f-b0b4-77d6de1b3984"},"vehicle_type_id":"4","last_reported":1678215995,"current_range_meters":0,"station_id":"ce4bhap2rcd13ifvqek0","pricing_plan_id":"free"},{"bike_id":"223aa476-77ff-429a-acec-2a53716d0707","system_id":"levelo_inurba_marseille","lat":43.289184,"lon":5.366408,"is_reserved":false,"is_disabled":false,"rental_uris":{"android":"levelo://app?vid=223aa476-77ff-429a-acec-2a53716d0707","ios":"levelo://app?vid=223aa476-77ff-429a-acec-2a53716d0707"},"vehicle_type_id":"4","last_reported":1678215995,"current_range_meters":6400,"station_id":"ce4bhap2rcd13ifvqek0","pricing_plan_id":"free"},{"bike_id":"5f11e5f6-ca83-419b-98f6-744f738b2557","system_id":"levelo_inurba_marseille","lat":43.289184,"lon":5.366408,"is_reserved":false,"is_disabled":false,"rental_uris":{"android":"levelo://app?vid=5f11e5f6-ca83-419b-98f6-744f738b2557","ios":"levelo://app?vid=5f11e5f6-ca83-419b-98f6-744f738b2557"},"vehicle_type_id":"4","last_reported":1678215995,"current_range_meters":25200,"station_id":"ce4bhap2rcd13ifvqek0","pricing_plan_id":"free"},{"bike_id":"86cb099b-243e-4489-af39-9b01cf952355","system_id":"levelo_inurba_marseille","lat":43.289184,"lon":5.366408,"is_reserved":false,"is_disabled":false,"rental_uris":{"android":"levelo://app?vid=86cb099b-243e-4489-af39-9b01cf952355","ios":"levelo://app?vid=86cb099b-243e-4489-af39-9b01cf952355"},"vehicle_type_id":"4","last_reported":1678215995,"current_range_meters":0,"station_id":"ce4bhap2rcd13ifvqek0","pricing_plan_id":"free"},{"bike_id":"5aeef49c-0dee-48bb-be9e-cc302346c83f","system_id":"levelo_inurba_marseille","lat":43.28896,"lon":5.36526,"is_reserved":false,"is_disabled":false,"rental_uris":{"android":"levelo://app?vid=5aeef49c-0dee-48bb-be9e-cc302346c83f","ios":"levelo://app?vid=5aeef49c-0dee-48bb-be9e-cc302346c83f"},"vehicle_type_id":"4","last_reported":1678215995,"current_range_meters":0,"station_id":"","pricing_plan_id":"free"},{"bike_id":"029da041-4e88-413f-8efc-7e655416b370","system_id":"levelo_inurba_marseille","lat":43.33042,"lon":5.3892,"is_reserved":false,"is_disabled":false,"rental_uris":{"android":"levelo://app?vid=029da041-4e88-413f-8efc-7e655416b370","ios":"levelo://app?vid=029da041-4e88-413f-8efc-7e655416b370"},"vehicle_type_id":"4","last_reported":1678215995,"current_range_meters":12000,"station_id":"","pricing_plan_id":"free"},{"bike_id":"9cc3b4da-56fb-48ca-acee-85e72c702ff2","system_id":"levelo_inurba_marseille","lat":43.290065,"lon":5.356151,"is_reserved":false,"is_disabled":false,"rental_uris":{"android":"levelo://app?vid=9cc3b4da-56fb-48ca-acee-85e72c702ff2","ios":"levelo://app?vid=9cc3b4da-56fb-48ca-acee-85e72c702ff2"},"vehicle_type_id":"4","last_reported":1678215995,"current_range_meters":3200,"station_id":"","pricing_plan_id":"free"},{"bike_id":"d5d1de10-783b-403c-af10-694d1375797b","system_id":"levelo_inurba_marseille","lat":43.33046,"lon":5.38918,"is_reserved":false,"is_disabled":false,"rental_uris":{"android":"levelo://app?vid=d5d1de10-783b-403c-af10-694d1375797b","ios":"levelo://app?vid=d5d1de10-783b-403c-af10-694d1375797b"},"vehicle_type_id":"4","last_reported":1678215995,"current_range_meters":0,"station_id":"ce4bhr92rcd13ifvqhrg","pricing_plan_id":"free"},{"bike_id":"4d1f8d51-c561-482e-b008-521cc34bda56","system_id":"levelo_inurba_marseille","lat":43.33043,"lon":5.38923,"is_reserved":false,"is_disabled":false,"rental_uris":{"android":"levelo://app?vid=4d1f8d51-c561-482e-b008-521cc34bda56","ios":"levelo://app?vid=4d1f8d51-c561-482e-b008-521cc34bda56"},"vehicle_type_id":"4","last_reported":1678215995,"current_range_meters":21600,"station_id":"","pricing_plan_id":"free"},{"bike_id":"a50b1a5d-47e0-4f9b-b11d-292e505d049f","system_id":"levelo_inurba_marseille","lat":43.290104,"lon":5.356111,"is_reserved":false,"is_disabled":false,"rental_uris":{"android":"levelo://app?vid=a50b1a5d-47e0-4f9b-b11d-292e505d049f","ios":"levelo://app?vid=a50b1a5d-47e0-4f9b-b11d-292e505d049f"},"vehicle_type_id":"4","last_reported":1678215995,"current_range_meters":10000,"station_id":"ce4bhb92rcd13ifvqen0","pricing_plan_id":"free"},{"bike_id":"b26ffba4-c2b7-4c32-8449-2472aae121a2","system_id":"levelo_inurba_marseille","lat":43.330442,"lon":5.389148,"is_reserved":false,"is_disabled":false,"rental_uris":{"android":"levelo://app?vid=b26ffba4-c2b7-4c32-8449-2472aae121a2","ios":"levelo://app?vid=b26ffba4-c2b7-4c32-8449-2472aae121a2"},"vehicle_type_id":"4","last_reported":1678215995,"current_range_meters":0,"station_id":"ce4bhr92rcd13ifvqhrg","pricing_plan_id":"free"},{"bike_id":"fe889985-586d-4886-b58f-18e131332ba0","system_id":"levelo_inurba_marseille","lat":43.291003,"lon":5.381327,"is_reserved":false,"is_disabled":false,"rental_uris":{"android":"levelo://app?vid=fe889985-586d-4886-b58f-18e131332ba0","ios":"levelo://app?vid=fe889985-586d-4886-b58f-18e131332ba0"},"vehicle_type_id":"4","last_reported":1678215995,"current_range_meters":0,"station_id":"ce4bh512rcd13ifvqe2g","pricing_plan_id":"free"},{"bike_id":"94d626dc-ed7c-4583-ac5a-5b7a188dd00a","system_id":"levelo_inurba_marseille","lat":43.290997,"lon":5.38139,"is_reserved":false,"is_disabled":false,"rental_uris":{"android":"levelo://app?vid=94d626dc-ed7c-4583-ac5a-5b7a188dd00a","ios":"levelo://app?vid=94d626dc-ed7c-4583-ac5a-5b7a188dd00a"},"vehicle_type_id":"4","last_reported":1678215995,"current_range_meters":0,"station_id":"ce4bh512rcd13ifvqe2g","pricing_plan_id":"free"},{"bike_id":"ec3e6d95-72cd-451f-9af0-77080050a20c","system_id":"levelo_inurba_marseille","lat":43.28856,"lon":5.358371,"is_reserved":false,"is_disabled":false,"rental_uris":{"android":"levelo://app?vid=ec3e6d95-72cd-451f-9af0-77080050a20c","ios":"levelo://app?vid=ec3e6d95-72cd-451f-9af0-77080050a20c"},"vehicle_type_id":"4","last_reported":1678215995,"current_range_meters":29200,"station_id":"ce4bhb12rcd13ifvqem0","pricing_plan_id":"free"},{"bike_id":"51cb6b7f-8413-4adf-8a8f-a51c36eb84ac","system_id":"levelo_inurba_marseille","lat":43.33742,"lon":5.37469,"is_reserved":false,"is_disabled":false,"rental_uris":{"android":"levelo://app?vid=51cb6b7f-8413-4adf-8a8f-a51c36eb84ac","ios":"levelo://app?vid=51cb6b7f-8413-4adf-8a8f-a51c36eb84ac"},"vehicle_type_id":"4","last_reported":1678215995,"current_range_meters":15200,"station_id":"","pricing_plan_id":"free"},{"bike_id":"9025cc1a-ce11-40ea-8951-9e6016a25beb","system_id":"levelo_inurba_marseille","lat":43.30649,"lon":5.40096,"is_reserved":false,"is_disabled":false,"rental_uris":{"android":"levelo://app?vid=9025cc1a-ce11-40ea-8951-9e6016a25beb","ios":"levelo://app?vid=9025cc1a-ce11-40ea-8951-9e6016a25beb"},"vehicle_type_id":"4","last_reported":1678215995,"current_range_meters":30000,"station_id":"","pricing_plan_id":"free"},{"bike_id":"aed36677-0165-4ba3-b9ee-d6c25539b74b","system_id":"levelo_inurba_marseille","lat":43.30642,"lon":5.401031,"is_reserved":false,"is_disabled":false,"rental_uris":{"android":"levelo://app?vid=aed36677-0165-4ba3-b9ee-d6c25539b74b","ios":"levelo://app?vid=aed36677-0165-4ba3-b9ee-d6c25539b74b"},"vehicle_type_id":"4","last_reported":1678215995,"current_range_meters":7600,"station_id":"ce4bh112rcd13ifvqda0","pricing_plan_id":"free"},{"bike_id":"49ba8c2b-6f71-4a01-8e21-bd4cbbad93d3","system_id":"levelo_inurba_marseille","lat":43.2911,"lon":5.38558,"is_reserved":false,"is_disabled":false,"rental_uris":{"android":"levelo://app?vid=49ba8c2b-6f71-4a01-8e21-bd4cbbad93d3","ios":"levelo://app?vid=49ba8c2b-6f71-4a01-8e21-bd4cbbad93d3"},"vehicle_type_id":"4","last_reported":1678215995,"current_range_meters":28400,"station_id":"ce4bh4p2rcd13ifvqe0g","pricing_plan_id":"free"},{"bike_id":"47da02e2-750d-4609-bbe7-3b3a1de14ba7","system_id":"levelo_inurba_marseille","lat":43.306412,"lon":5.401035,"is_reserved":false,"is_disabled":false,"rental_uris":{"android":"levelo://app?vid=47da02e2-750d-4609-bbe7-3b3a1de14ba7","ios":"levelo://app?vid=47da02e2-750d-4609-bbe7-3b3a1de14ba7"},"vehicle_type_id":"4","last_reported":1678215995,"current_range_meters":0,"station_id":"ce4bh112rcd13ifvqda0","pricing_plan_id":"free"},{"bike_id":"68be6f2c-9091-46a6-9fc2-7d8a06d85fea","system_id":"levelo_inurba_marseille","lat":43.298681,"lon":5.397225,"is_reserved":false,"is_disabled":false,"rental_uris":{"android":"levelo://app?vid=68be6f2c-9091-46a6-9fc2-7d8a06d85fea","ios":"levelo://app?vid=68be6f2c-9091-46a6-9fc2-7d8a06d85fea"},"vehicle_type_id":"4","last_reported":1678215995,"current_range_meters":1600,"station_id":"ce4bh0h2rcd13ifvqd50","pricing_plan_id":"free"},{"bike_id":"d19a463c-2069-45c8-8215-70d09746a01e","system_id":"levelo_inurba_marseille","lat":43.286593,"lon":5.363346,"is_reserved":false,"is_disabled":false,"rental_uris":{"android":"levelo://app?vid=d19a463c-2069-45c8-8215-70d09746a01e","ios":"levelo://app?vid=d19a463c-2069-45c8-8215-70d09746a01e"},"vehicle_type_id":"4","last_reported":1678215995,"current_range_meters":0,"station_id":"ce4bhah2rcd13ifvqej0","pricing_plan_id":"free"},{"bike_id":"96ab6641-f48e-4629-a573-8ffb9cc62af2","system_id":"levelo_inurba_marseille","lat":43.286632,"lon":5.363585,"is_reserved":false,"is_disabled":false,"rental_uris":{"android":"levelo://app?vid=96ab6641-f48e-4629-a573-8ffb9cc62af2","ios":"levelo://app?vid=96ab6641-f48e-4629-a573-8ffb9cc62af2"},"vehicle_type_id":"4","last_reported":1678215995,"current_range_meters":0,"station_id":"","pricing_plan_id":"free"},{"bike_id":"869b97f7-e74d-479c-9583-2c9b1e047f87","system_id":"levelo_inurba_marseille","lat":43.302759,"lon":5.400793,"is_reserved":false,"is_disabled":false,"rental_uris":{"android":"levelo://app?vid=869b97f7-e74d-479c-9583-2c9b1e047f87","ios":"levelo://app?vid=869b97f7-e74d-479c-9583-2c9b1e047f87"},"vehicle_type_id":"4","last_reported":1678215995,"current_range_meters":12400,"station_id":"ce4bgvh2rcd13ifvqcs0","pricing_plan_id":"free"},{"bike_id":"0bc6a219-ca9a-4adc-9501-9efb84dd5c18","system_id":"levelo_inurba_marseille","lat":43.286039,"lon":5.370679,"is_reserved":false,"is_disabled":false,"rental_uris":{"android":"levelo://app?vid=0bc6a219-ca9a-4adc-9501-9efb84dd5c18","ios":"levelo://app?vid=0bc6a219-ca9a-4adc-9501-9efb84dd5c18"},"vehicle_type_id":"4","last_reported":1678215995,"current_range_meters":1600,"station_id":"ce4bht12rcd13ifvqi60","pricing_plan_id":"free"},{"bike_id":"54387617-0ce7-44f1-a88f-e243371f53b9","system_id":"levelo_inurba_marseille","lat":43.286039,"lon":5.370679,"is_reserved":false,"is_disabled":false,"rental_uris":{"android":"levelo://app?vid=54387617-0ce7-44f1-a88f-e243371f53b9","ios":"levelo://app?vid=54387617-0ce7-44f1-a88f-e243371f53b9"},"vehicle_type_id":"4","last_reported":1678215995,"current_range_meters":13200,"station_id":"ce4bht12rcd13ifvqi60","pricing_plan_id":"free"},{"bike_id":"559f1592-0812-4202-8407-4953ab072a93","system_id":"levelo_inurba_marseille","lat":43.286039,"lon":5.370679,"is_reserved":false,"is_disabled":false,"rental_uris":{"android":"levelo://app?vid=559f1592-0812-4202-8407-4953ab072a93","ios":"levelo://app?vid=559f1592-0812-4202-8407-4953ab072a93"},"vehicle_type_id":"4","last_reported":1678215995,"current_range_meters":16000,"station_id":"ce4bht12rcd13ifvqi60","pricing_plan_id":"free"},{"bike_id":"b99b24b8-562c-4bf4-9345-8fc31cc3104d","system_id":"levelo_inurba_marseille","lat":43.287185,"lon":5.379373,"is_reserved":false,"is_disabled":false,"rental_uris":{"android":"levelo://app?vid=b99b24b8-562c-4bf4-9345-8fc31cc3104d","ios":"levelo://app?vid=b99b24b8-562c-4bf4-9345-8fc31cc3104d"},"vehicle_type_id":"4","last_reported":1678215995,"current_range_meters":3200,"station_id":"ce4bh9p2rcd13ifvqec0","pricing_plan_id":"free"},{"bike_id":"9516a636-1577-45d9-97f9-5151cd4f222d","system_id":"levelo_inurba_marseille","lat":43.316517,"lon":5.404375,"is_reserved":false,"is_disabled":false,"rental_uris":{"android":"levelo://app?vid=9516a636-1577-45d9-97f9-5151cd4f222d","ios":"levelo://app?vid=9516a636-1577-45d9-97f9-5151cd4f222d"},"vehicle_type_id":"4","last_reported":1678215995,"current_range_meters":800,"station_id":"ce4bh012rcd13ifvqd00","pricing_plan_id":"free"},{"bike_id":"bf307c10-ba7e-43ff-a163-bec2fa0acd57","system_id":"levelo_inurba_marseille","lat":43.316517,"lon":5.404375,"is_reserved":false,"is_disabled":false,"rental_uris":{"android":"levelo://app?vid=bf307c10-ba7e-43ff-a163-bec2fa0acd57","ios":"levelo://app?vid=bf307c10-ba7e-43ff-a163-bec2fa0acd57"},"vehicle_type_id":"4","last_reported":1678215995,"current_range_meters":26400,"station_id":"ce4bh012rcd13ifvqd00","pricing_plan_id":"free"},{"bike_id":"6420d3b7-4e27-40f0-8b4b-1b65351966d4","system_id":"levelo_inurba_marseille","lat":43.316517,"lon":5.404375,"is_reserved":false,"is_disabled":false,"rental_uris":{"android":"levelo://app?vid=6420d3b7-4e27-40f0-8b4b-1b65351966d4","ios":"levelo://app?vid=6420d3b7-4e27-40f0-8b4b-1b65351966d4"},"vehicle_type_id":"4","last_reported":1678215995,"current_range_meters":31200,"station_id":"ce4bh012rcd13ifvqd00","pricing_plan_id":"free"},{"bike_id":"3ec128d0-98ab-45bd-9a26-a9d2a905d892","system_id":"levelo_inurba_marseille","lat":43.316517,"lon":5.404375,"is_reserved":false,"is_disabled":false,"rental_uris":{"android":"levelo://app?vid=3ec128d0-98ab-45bd-9a26-a9d2a905d892","ios":"levelo://app?vid=3ec128d0-98ab-45bd-9a26-a9d2a905d892"},"vehicle_type_id":"4","last_reported":1678215995,"current_range_meters":31600,"station_id":"ce4bh012rcd13ifvqd00","pricing_plan_id":"free"},{"bike_id":"67767538-3531-447b-9a6f-059454b4f763","system_id":"levelo_inurba_marseille","lat":43.316441,"lon":5.404361,"is_reserved":false,"is_disabled":false,"rental_uris":{"android":"levelo://app?vid=67767538-3531-447b-9a6f-059454b4f763","ios":"levelo://app?vid=67767538-3531-447b-9a6f-059454b4f763"},"vehicle_type_id":"4","last_reported":1678215995,"current_range_meters":16000,"station_id":"","pricing_plan_id":"free"},{"bike_id":"ec48ee8b-d84c-4502-95f2-b3c1a18fc0ba","system_id":"levelo_inurba_marseille","lat":43.316517,"lon":5.404375,"is_reserved":false,"is_disabled":false,"rental_uris":{"android":"levelo://app?vid=ec48ee8b-d84c-4502-95f2-b3c1a18fc0ba","ios":"levelo://app?vid=ec48ee8b-d84c-4502-95f2-b3c1a18fc0ba"},"vehicle_type_id":"4","last_reported":1678215995,"current_range_meters":24000,"station_id":"ce4bh012rcd13ifvqd00","pricing_plan_id":"free"},{"bike_id":"367ba2da-b74f-4e22-8c4c-96bf774fd88b","system_id":"levelo_inurba_marseille","lat":43.316439,"lon":5.404366,"is_reserved":false,"is_disabled":false,"rental_uris":{"android":"levelo://app?vid=367ba2da-b74f-4e22-8c4c-96bf774fd88b","ios":"levelo://app?vid=367ba2da-b74f-4e22-8c4c-96bf774fd88b"},"vehicle_type_id":"4","last_reported":1678215995,"current_range_meters":24400,"station_id":"","pricing_plan_id":"free"},{"bike_id":"f8107d2c-c2d5-448b-96a6-ef2e1b05346e","system_id":"levelo_inurba_marseille","lat":43.316517,"lon":5.404375,"is_reserved":false,"is_disabled":false,"rental_uris":{"android":"levelo://app?vid=f8107d2c-c2d5-448b-96a6-ef2e1b05346e","ios":"levelo://app?vid=f8107d2c-c2d5-448b-96a6-ef2e1b05346e"},"vehicle_type_id":"4","last_reported":1678215995,"current_range_meters":26400,"station_id":"ce4bh012rcd13ifvqd00","pricing_plan_id":"free"},{"bike_id":"edd94406-6bde-4ea6-b0c3-06ac27032c55","system_id":"levelo_inurba_marseille","lat":43.316444,"lon":5.404368,"is_reserved":false,"is_disabled":false,"rental_uris":{"android":"levelo://app?vid=edd94406-6bde-4ea6-b0c3-06ac27032c55","ios":"levelo://app?vid=edd94406-6bde-4ea6-b0c3-06ac27032c55"},"vehicle_type_id":"4","last_reported":1678215995,"current_range_meters":28800,"station_id":"","pricing_plan_id":"free"},{"bike_id":"f70bf337-dd37-48a7-bb9d-212122d5d3da","system_id":"levelo_inurba_marseille","lat":43.316449,"lon":5.404367,"is_reserved":false,"is_disabled":false,"rental_uris":{"android":"levelo://app?vid=f70bf337-dd37-48a7-bb9d-212122d5d3da","ios":"levelo://app?vid=f70bf337-dd37-48a7-bb9d-212122d5d3da"},"vehicle_type_id":"4","last_reported":1678215995,"current_range_meters":31200,"station_id":"","pricing_plan_id":"free"},{"bike_id":"055352d2-d2f7-4daa-80b7-12ade4346929","system_id":"levelo_inurba_marseille","lat":43.316517,"lon":5.404375,"is_reserved":false,"is_disabled":false,"rental_uris":{"android":"levelo://app?vid=055352d2-d2f7-4daa-80b7-12ade4346929","ios":"levelo://app?vid=055352d2-d2f7-4daa-80b7-12ade4346929"},"vehicle_type_id":"4","last_reported":1678215995,"current_range_meters":31600,"station_id":"ce4bh012rcd13ifvqd00","pricing_plan_id":"free"},{"bike_id":"8d20e5ef-ecd1-4f01-bda5-af7a5a45c520","system_id":"levelo_inurba_marseille","lat":43.316517,"lon":5.404375,"is_reserved":false,"is_disabled":false,"rental_uris":{"android":"levelo://app?vid=8d20e5ef-ecd1-4f01-bda5-af7a5a45c520","ios":"levelo://app?vid=8d20e5ef-ecd1-4f01-bda5-af7a5a45c520"},"vehicle_type_id":"4","last_reported":1678215995,"current_range_meters":31600,"station_id":"ce4bh012rcd13ifvqd00","pricing_plan_id":"free"},{"bike_id":"6588e522-9372-4917-83ad-dca7a4419c99","system_id":"levelo_inurba_marseille","lat":43.316517,"lon":5.404375,"is_reserved":false,"is_disabled":false,"rental_uris":{"android":"levelo://app?vid=6588e522-9372-4917-83ad-dca7a4419c99","ios":"levelo://app?vid=6588e522-9372-4917-83ad-dca7a4419c99"},"vehicle_type_id":"4","last_reported":1678215995,"current_range_meters":31200,"station_id":"ce4bh012rcd13ifvqd00","pricing_plan_id":"free"},{"bike_id":"2b3dbf90-41f2-4167-b1d6-e97f1ccff26e","system_id":"levelo_inurba_marseille","lat":43.316517,"lon":5.404375,"is_reserved":false,"is_disabled":false,"rental_uris":{"android":"levelo://app?vid=2b3dbf90-41f2-4167-b1d6-e97f1ccff26e","ios":"levelo://app?vid=2b3dbf90-41f2-4167-b1d6-e97f1ccff26e"},"vehicle_type_id":"4","last_reported":1678215995,"current_range_meters":2400,"station_id":"ce4bh012rcd13ifvqd00","pricing_plan_id":"free"},{"bike_id":"fdefb30a-307d-46de-9cdd-1d692d75b837","system_id":"levelo_inurba_marseille","lat":43.316471,"lon":5.404381,"is_reserved":false,"is_disabled":false,"rental_uris":{"android":"levelo://app?vid=fdefb30a-307d-46de-9cdd-1d692d75b837","ios":"levelo://app?vid=fdefb30a-307d-46de-9cdd-1d692d75b837"},"vehicle_type_id":"4","last_reported":1678215995,"current_range_meters":29600,"station_id":"","pricing_plan_id":"free"},{"bike_id":"744eb3ba-3d59-437b-9881-d8bfe7db3aea","system_id":"levelo_inurba_marseille","lat":43.316486,"lon":5.404382,"is_reserved":false,"is_disabled":false,"rental_uris":{"android":"levelo://app?vid=744eb3ba-3d59-437b-9881-d8bfe7db3aea","ios":"levelo://app?vid=744eb3ba-3d59-437b-9881-d8bfe7db3aea"},"vehicle_type_id":"4","last_reported":1678215995,"current_range_meters":15200,"station_id":"","pricing_plan_id":"free"},{"bike_id":"153ae908-81ba-46b7-9a1e-1dce1d7527fd","system_id":"levelo_inurba_marseille","lat":43.316517,"lon":5.404375,"is_reserved":false,"is_disabled":false,"rental_uris":{"android":"levelo://app?vid=153ae908-81ba-46b7-9a1e-1dce1d7527fd","ios":"levelo://app?vid=153ae908-81ba-46b7-9a1e-1dce1d7527fd"},"vehicle_type_id":"4","last_reported":1678215995,"current_range_meters":29200,"station_id":"ce4bh012rcd13ifvqd00","pricing_plan_id":"free"},{"bike_id":"cb96273f-f1db-43fe-92a9-9aef5dae05c3","system_id":"levelo_inurba_marseille","lat":43.316517,"lon":5.404375,"is_reserved":false,"is_disabled":false,"rental_uris":{"android":"levelo://app?vid=cb96273f-f1db-43fe-92a9-9aef5dae05c3","ios":"levelo://app?vid=cb96273f-f1db-43fe-92a9-9aef5dae05c3"},"vehicle_type_id":"4","last_reported":1678215995,"current_range_meters":27200,"station_id":"ce4bh012rcd13ifvqd00","pricing_plan_id":"free"},{"bike_id":"8e119521-6acf-47f5-b582-74be75cf42f7","system_id":"levelo_inurba_marseille","lat":43.33407,"lon":5.392137,"is_reserved":false,"is_disabled":false,"rental_uris":{"android":"levelo://app?vid=8e119521-6acf-47f5-b582-74be75cf42f7","ios":"levelo://app?vid=8e119521-6acf-47f5-b582-74be75cf42f7"},"vehicle_type_id":"4","last_reported":1678215995,"current_range_meters":8800,"station_id":"","pricing_plan_id":"free"},{"bike_id":"23e2f9d2-d862-4b95-b0ec-50e6488cd6ef","system_id":"levelo_inurba_marseille","lat":43.28599,"lon":5.35336,"is_reserved":false,"is_disabled":false,"rental_uris":{"android":"levelo://app?vid=23e2f9d2-d862-4b95-b0ec-50e6488cd6ef","ios":"levelo://app?vid=23e2f9d2-d862-4b95-b0ec-50e6488cd6ef"},"vehicle_type_id":"4","last_reported":1678215995,"current_range_meters":7600,"station_id":"","pricing_plan_id":"free"},{"bike_id":"64f64a80-0dca-4f2b-9929-d3b448fb5a3d","system_id":"levelo_inurba_marseille","lat":43.284741,"lon":5.359089,"is_reserved":false,"is_disabled":false,"rental_uris":{"android":"levelo://app?vid=64f64a80-0dca-4f2b-9929-d3b448fb5a3d","ios":"levelo://app?vid=64f64a80-0dca-4f2b-9929-d3b448fb5a3d"},"vehicle_type_id":"4","last_reported":1678215995,"current_range_meters":0,"station_id":"ce4bhah2rcd13ifvqei0","pricing_plan_id":"free"},{"bike_id":"105d9df7-45e4-4e3a-921c-655427568732","system_id":"levelo_inurba_marseille","lat":43.284534,"lon":5.358662,"is_reserved":false,"is_disabled":false,"rental_uris":{"android":"levelo://app?vid=105d9df7-45e4-4e3a-921c-655427568732","ios":"levelo://app?vid=105d9df7-45e4-4e3a-921c-655427568732"},"vehicle_type_id":"4","last_reported":1678215995,"current_range_meters":18800,"station_id":"ce4bhah2rcd13ifvqei0","pricing_plan_id":"free"},{"bike_id":"e88a480e-b356-4030-8384-b8bda12bfca4","system_id":"levelo_inurba_marseille","lat":43.28462,"lon":5.35895,"is_reserved":false,"is_disabled":false,"rental_uris":{"android":"levelo://app?vid=e88a480e-b356-4030-8384-b8bda12bfca4","ios":"levelo://app?vid=e88a480e-b356-4030-8384-b8bda12bfca4"},"vehicle_type_id":"4","last_reported":1678215995,"current_range_meters":3200,"station_id":"","pricing_plan_id":"free"},{"bike_id":"503c50e1-7546-47fc-9b14-2b4c8f932717","system_id":"levelo_inurba_marseille","lat":43.284534,"lon":5.358662,"is_reserved":false,"is_disabled":false,"rental_uris":{"android":"levelo://app?vid=503c50e1-7546-47fc-9b14-2b4c8f932717","ios":"levelo://app?vid=503c50e1-7546-47fc-9b14-2b4c8f932717"},"vehicle_type_id":"4","last_reported":1678215995,"current_range_meters":7600,"station_id":"ce4bhah2rcd13ifvqei0","pricing_plan_id":"free"},{"bike_id":"0cb6b5f8-7503-41e1-9239-1ba7b739c832","system_id":"levelo_inurba_marseille","lat":43.284534,"lon":5.358662,"is_reserved":false,"is_disabled":false,"rental_uris":{"android":"levelo://app?vid=0cb6b5f8-7503-41e1-9239-1ba7b739c832","ios":"levelo://app?vid=0cb6b5f8-7503-41e1-9239-1ba7b739c832"},"vehicle_type_id":"4","last_reported":1678215995,"current_range_meters":5600,"station_id":"ce4bhah2rcd13ifvqei0","pricing_plan_id":"free"},{"bike_id":"2b62f604-1c2e-493d-b1dc-aa15490ccf65","system_id":"levelo_inurba_marseille","lat":43.284534,"lon":5.358662,"is_reserved":false,"is_disabled":false,"rental_uris":{"android":"levelo://app?vid=2b62f604-1c2e-493d-b1dc-aa15490ccf65","ios":"levelo://app?vid=2b62f604-1c2e-493d-b1dc-aa15490ccf65"},"vehicle_type_id":"4","last_reported":1678215995,"current_range_meters":16000,"station_id":"ce4bhah2rcd13ifvqei0","pricing_plan_id":"free"},{"bike_id":"dc7e37ca-2251-4b5a-b3fe-09023dfbfc8b","system_id":"levelo_inurba_marseille","lat":43.295713,"lon":5.399639,"is_reserved":false,"is_disabled":false,"rental_uris":{"android":"levelo://app?vid=dc7e37ca-2251-4b5a-b3fe-09023dfbfc8b","ios":"levelo://app?vid=dc7e37ca-2251-4b5a-b3fe-09023dfbfc8b"},"vehicle_type_id":"4","last_reported":1678215995,"current_range_meters":4800,"station_id":"ce4bh312rcd13ifvqdj0","pricing_plan_id":"free"},{"bike_id":"701cdd90-9b3f-45ac-b6ad-147a5c8d827f","system_id":"levelo_inurba_marseille","lat":43.295713,"lon":5.399639,"is_reserved":false,"is_disabled":false,"rental_uris":{"android":"levelo://app?vid=701cdd90-9b3f-45ac-b6ad-147a5c8d827f","ios":"levelo://app?vid=701cdd90-9b3f-45ac-b6ad-147a5c8d827f"},"vehicle_type_id":"4","last_reported":1678215995,"current_range_meters":6800,"station_id":"ce4bh312rcd13ifvqdj0","pricing_plan_id":"free"},{"bike_id":"138fa437-2f54-46fd-bcbc-dabe43290ac1","system_id":"levelo_inurba_marseille","lat":43.286811,"lon":5.386577,"is_reserved":false,"is_disabled":false,"rental_uris":{"android":"levelo://app?vid=138fa437-2f54-46fd-bcbc-dabe43290ac1","ios":"levelo://app?vid=138fa437-2f54-46fd-bcbc-dabe43290ac1"},"vehicle_type_id":"4","last_reported":1678215995,"current_range_meters":0,"station_id":"","pricing_plan_id":"free"},{"bike_id":"71fc5fce-a164-470b-91b5-952f483cdf5e","system_id":"levelo_inurba_marseille","lat":43.28675,"lon":5.38666,"is_reserved":false,"is_disabled":false,"rental_uris":{"android":"levelo://app?vid=71fc5fce-a164-470b-91b5-952f483cdf5e","ios":"levelo://app?vid=71fc5fce-a164-470b-91b5-952f483cdf5e"},"vehicle_type_id":"4","last_reported":1678215995,"current_range_meters":1200,"station_id":"","pricing_plan_id":"free"},{"bike_id":"9945ffb2-90b5-4b82-981d-ebd7970408cc","system_id":"levelo_inurba_marseille","lat":43.28674,"lon":5.38668,"is_reserved":false,"is_disabled":false,"rental_uris":{"android":"levelo://app?vid=9945ffb2-90b5-4b82-981d-ebd7970408cc","ios":"levelo://app?vid=9945ffb2-90b5-4b82-981d-ebd7970408cc"},"vehicle_type_id":"4","last_reported":1678215995,"current_range_meters":800,"station_id":"","pricing_plan_id":"free"},{"bike_id":"7d068035-e299-4acf-974a-13a363ce365a","system_id":"levelo_inurba_marseille","lat":43.286595,"lon":5.386795,"is_reserved":false,"is_disabled":false,"rental_uris":{"android":"levelo://app?vid=7d068035-e299-4acf-974a-13a363ce365a","ios":"levelo://app?vid=7d068035-e299-4acf-974a-13a363ce365a"},"vehicle_type_id":"4","last_reported":1678215995,"current_range_meters":0,"station_id":"ce4bh492rcd13ifvqdug","pricing_plan_id":"free"},{"bike_id":"fcb3054b-a9e5-4248-8841-a3965b97d96b","system_id":"levelo_inurba_marseille","lat":43.286595,"lon":5.386795,"is_reserved":false,"is_disabled":false,"rental_uris":{"android":"levelo://app?vid=fcb3054b-a9e5-4248-8841-a3965b97d96b","ios":"levelo://app?vid=fcb3054b-a9e5-4248-8841-a3965b97d96b"},"vehicle_type_id":"4","last_reported":1678215995,"current_range_meters":0,"station_id":"ce4bh492rcd13ifvqdug","pricing_plan_id":"free"},{"bike_id":"de4a8079-ad6c-46ae-8e7f-a059f09ed22a","system_id":"levelo_inurba_marseille","lat":43.337168,"lon":5.391825,"is_reserved":false,"is_disabled":false,"rental_uris":{"android":"levelo://app?vid=de4a8079-ad6c-46ae-8e7f-a059f09ed22a","ios":"levelo://app?vid=de4a8079-ad6c-46ae-8e7f-a059f09ed22a"},"vehicle_type_id":"4","last_reported":1678215995,"current_range_meters":25200,"station_id":"ce4bhr92rcd13ifvqhsg","pricing_plan_id":"free"},{"bike_id":"52ec1317-6258-4cd8-802a-01ff73acd84d","system_id":"levelo_inurba_marseille","lat":43.337168,"lon":5.391825,"is_reserved":false,"is_disabled":false,"rental_uris":{"android":"levelo://app?vid=52ec1317-6258-4cd8-802a-01ff73acd84d","ios":"levelo://app?vid=52ec1317-6258-4cd8-802a-01ff73acd84d"},"vehicle_type_id":"4","last_reported":1678215995,"current_range_meters":800,"station_id":"ce4bhr92rcd13ifvqhsg","pricing_plan_id":"free"},{"bike_id":"ab0feb94-5fb8-4a18-8a28-af999dec1d0f","system_id":"levelo_inurba_marseille","lat":43.33725,"lon":5.39184,"is_reserved":false,"is_disabled":false,"rental_uris":{"android":"levelo://app?vid=ab0feb94-5fb8-4a18-8a28-af999dec1d0f","ios":"levelo://app?vid=ab0feb94-5fb8-4a18-8a28-af999dec1d0f"},"vehicle_type_id":"4","last_reported":1678215995,"current_range_meters":28400,"station_id":"","pricing_plan_id":"free"},{"bike_id":"a160f424-a72b-4877-a8d0-9cca33032376","system_id":"levelo_inurba_marseille","lat":43.32344,"lon":5.40617,"is_reserved":false,"is_disabled":false,"rental_uris":{"android":"levelo://app?vid=a160f424-a72b-4877-a8d0-9cca33032376","ios":"levelo://app?vid=a160f424-a72b-4877-a8d0-9cca33032376"},"vehicle_type_id":"4","last_reported":1678215995,"current_range_meters":18400,"station_id":"ce4bhq92rcd13ifvqhjg","pricing_plan_id":"free"},{"bike_id":"1a0985e7-8012-4188-a1ab-5d2a657e6e8f","system_id":"levelo_inurba_marseille","lat":43.337245,"lon":5.391878,"is_reserved":false,"is_disabled":false,"rental_uris":{"android":"levelo://app?vid=1a0985e7-8012-4188-a1ab-5d2a657e6e8f","ios":"levelo://app?vid=1a0985e7-8012-4188-a1ab-5d2a657e6e8f"},"vehicle_type_id":"4","last_reported":1678215995,"current_range_meters":22000,"station_id":"","pricing_plan_id":"free"},{"bike_id":"c4dbf44f-b2f6-4712-bc48-ad2c8fae7753","system_id":"levelo_inurba_marseille","lat":43.337162,"lon":5.392052,"is_reserved":false,"is_disabled":false,"rental_uris":{"android":"levelo://app?vid=c4dbf44f-b2f6-4712-bc48-ad2c8fae7753","ios":"levelo://app?vid=c4dbf44f-b2f6-4712-bc48-ad2c8fae7753"},"vehicle_type_id":"4","last_reported":1678215995,"current_range_meters":21200,"station_id":"ce4bhr92rcd13ifvqhsg","pricing_plan_id":"free"},{"bike_id":"049dad72-6330-444a-8c59-496aca383226","system_id":"levelo_inurba_marseille","lat":43.33728,"lon":5.39184,"is_reserved":false,"is_disabled":false,"rental_uris":{"android":"levelo://app?vid=049dad72-6330-444a-8c59-496aca383226","ios":"levelo://app?vid=049dad72-6330-444a-8c59-496aca383226"},"vehicle_type_id":"4","last_reported":1678215995,"current_range_meters":30400,"station_id":"","pricing_plan_id":"free"},{"bike_id":"be723eb2-fe68-47b9-8031-53deb5571e51","system_id":"levelo_inurba_marseille","lat":43.337267,"lon":5.391874,"is_reserved":false,"is_disabled":false,"rental_uris":{"android":"levelo://app?vid=be723eb2-fe68-47b9-8031-53deb5571e51","ios":"levelo://app?vid=be723eb2-fe68-47b9-8031-53deb5571e51"},"vehicle_type_id":"4","last_reported":1678215995,"current_range_meters":800,"station_id":"","pricing_plan_id":"free"},{"bike_id":"356dacce-9210-49f9-a9ca-08fabcadc7f9","system_id":"levelo_inurba_marseille","lat":43.32338,"lon":5.40624,"is_reserved":false,"is_disabled":false,"rental_uris":{"android":"levelo://app?vid=356dacce-9210-49f9-a9ca-08fabcadc7f9","ios":"levelo://app?vid=356dacce-9210-49f9-a9ca-08fabcadc7f9"},"vehicle_type_id":"4","last_reported":1678215995,"current_range_meters":14000,"station_id":"ce4bhq92rcd13ifvqhjg","pricing_plan_id":"free"},{"bike_id":"b633daa5-dd71-4ea0-9043-b6f0b29c3ff6","system_id":"levelo_inurba_marseille","lat":43.323387,"lon":5.40624,"is_reserved":false,"is_disabled":false,"rental_uris":{"android":"levelo://app?vid=b633daa5-dd71-4ea0-9043-b6f0b29c3ff6","ios":"levelo://app?vid=b633daa5-dd71-4ea0-9043-b6f0b29c3ff6"},"vehicle_type_id":"4","last_reported":1678215995,"current_range_meters":11200,"station_id":"ce4bhq92rcd13ifvqhjg","pricing_plan_id":"free"},{"bike_id":"d4c7f542-c031-417a-8366-7658ace0fd1c","system_id":"levelo_inurba_marseille","lat":43.337293,"lon":5.39186,"is_reserved":false,"is_disabled":false,"rental_uris":{"android":"levelo://app?vid=d4c7f542-c031-417a-8366-7658ace0fd1c","ios":"levelo://app?vid=d4c7f542-c031-417a-8366-7658ace0fd1c"},"vehicle_type_id":"4","last_reported":1678215995,"current_range_meters":2800,"station_id":"","pricing_plan_id":"free"},{"bike_id":"0984a3a5-e7ec-436d-89c2-1f41475d970a","system_id":"levelo_inurba_marseille","lat":43.32343,"lon":5.40625,"is_reserved":false,"is_disabled":false,"rental_uris":{"android":"levelo://app?vid=0984a3a5-e7ec-436d-89c2-1f41475d970a","ios":"levelo://app?vid=0984a3a5-e7ec-436d-89c2-1f41475d970a"},"vehicle_type_id":"4","last_reported":1678215995,"current_range_meters":22000,"station_id":"ce4bhq92rcd13ifvqhjg","pricing_plan_id":"free"},{"bike_id":"c8241319-0afc-4e27-8528-1c6a7ecdbe85","system_id":"levelo_inurba_marseille","lat":43.32344,"lon":5.40626,"is_reserved":false,"is_disabled":false,"rental_uris":{"android":"levelo://app?vid=c8241319-0afc-4e27-8528-1c6a7ecdbe85","ios":"levelo://app?vid=c8241319-0afc-4e27-8528-1c6a7ecdbe85"},"vehicle_type_id":"4","last_reported":1678215995,"current_range_meters":10400,"station_id":"ce4bhq92rcd13ifvqhjg","pricing_plan_id":"free"},{"bike_id":"43846fbb-8f94-4d60-9772-12608e142e2b","system_id":"levelo_inurba_marseille","lat":43.28478,"lon":5.38417,"is_reserved":false,"is_disabled":false,"rental_uris":{"android":"levelo://app?vid=43846fbb-8f94-4d60-9772-12608e142e2b","ios":"levelo://app?vid=43846fbb-8f94-4d60-9772-12608e142e2b"},"vehicle_type_id":"4","last_reported":1678215995,"current_range_meters":3600,"station_id":"ce4bh512rcd13ifvqe3g","pricing_plan_id":"free"},{"bike_id":"b51686d5-640f-4216-aa79-f064d542da93","system_id":"levelo_inurba_marseille","lat":43.284219,"lon":5.3497,"is_reserved":false,"is_disabled":false,"rental_uris":{"android":"levelo://app?vid=b51686d5-640f-4216-aa79-f064d542da93","ios":"levelo://app?vid=b51686d5-640f-4216-aa79-f064d542da93"},"vehicle_type_id":"4","last_reported":1678215995,"current_range_meters":28000,"station_id":"ce4bhbh2rcd13ifvqepg","pricing_plan_id":"free"},{"bike_id":"c167f8bf-6686-41e3-b228-5157ae0c58a6","system_id":"levelo_inurba_marseille","lat":43.292724,"lon":5.401131,"is_reserved":false,"is_disabled":false,"rental_uris":{"android":"levelo://app?vid=c167f8bf-6686-41e3-b228-5157ae0c58a6","ios":"levelo://app?vid=c167f8bf-6686-41e3-b228-5157ae0c58a6"},"vehicle_type_id":"4","last_reported":1678215995,"current_range_meters":14400,"station_id":"ce4bh312rcd13ifvqdk0","pricing_plan_id":"free"},{"bike_id":"3476a78c-48b4-4aba-9d18-23be30e5e1ab","system_id":"levelo_inurba_marseille","lat":43.292724,"lon":5.401131,"is_reserved":false,"is_disabled":false,"rental_uris":{"android":"levelo://app?vid=3476a78c-48b4-4aba-9d18-23be30e5e1ab","ios":"levelo://app?vid=3476a78c-48b4-4aba-9d18-23be30e5e1ab"},"vehicle_type_id":"4","last_reported":1678215995,"current_range_meters":14400,"station_id":"ce4bh312rcd13ifvqdk0","pricing_plan_id":"free"},{"bike_id":"f53bdfe9-c5dd-418b-b559-cf6ec1e562e4","system_id":"levelo_inurba_marseille","lat":43.292724,"lon":5.401131,"is_reserved":false,"is_disabled":false,"rental_uris":{"android":"levelo://app?vid=f53bdfe9-c5dd-418b-b559-cf6ec1e562e4","ios":"levelo://app?vid=f53bdfe9-c5dd-418b-b559-cf6ec1e562e4"},"vehicle_type_id":"4","last_reported":1678215995,"current_range_meters":0,"station_id":"ce4bh312rcd13ifvqdk0","pricing_plan_id":"free"},{"bike_id":"f83ad36a-a86a-45b9-84be-00fe888a5e39","system_id":"levelo_inurba_marseille","lat":43.292724,"lon":5.401131,"is_reserved":false,"is_disabled":false,"rental_uris":{"android":"levelo://app?vid=f83ad36a-a86a-45b9-84be-00fe888a5e39","ios":"levelo://app?vid=f83ad36a-a86a-45b9-84be-00fe888a5e39"},"vehicle_type_id":"4","last_reported":1678215995,"current_range_meters":6000,"station_id":"ce4bh312rcd13ifvqdk0","pricing_plan_id":"free"},{"bike_id":"e65604fd-16fe-41fd-a81e-46cfd00ad7b3","system_id":"levelo_inurba_marseille","lat":43.282744,"lon":5.350533,"is_reserved":false,"is_disabled":false,"rental_uris":{"android":"levelo://app?vid=e65604fd-16fe-41fd-a81e-46cfd00ad7b3","ios":"levelo://app?vid=e65604fd-16fe-41fd-a81e-46cfd00ad7b3"},"vehicle_type_id":"4","last_reported":1678215995,"current_range_meters":0,"station_id":"ce4bhbp2rcd13ifvqerg","pricing_plan_id":"free"},{"bike_id":"36eead4e-e568-4412-bec1-08269340c942","system_id":"levelo_inurba_marseille","lat":43.282744,"lon":5.350533,"is_reserved":false,"is_disabled":false,"rental_uris":{"android":"levelo://app?vid=36eead4e-e568-4412-bec1-08269340c942","ios":"levelo://app?vid=36eead4e-e568-4412-bec1-08269340c942"},"vehicle_type_id":"4","last_reported":1678215995,"current_range_meters":6000,"station_id":"ce4bhbp2rcd13ifvqerg","pricing_plan_id":"free"},{"bike_id":"ca187cd8-85d4-4dc1-8ab1-a80345a3a443","system_id":"levelo_inurba_marseille","lat":43.280418,"lon":5.369458,"is_reserved":false,"is_disabled":false,"rental_uris":{"android":"levelo://app?vid=ca187cd8-85d4-4dc1-8ab1-a80345a3a443","ios":"levelo://app?vid=ca187cd8-85d4-4dc1-8ab1-a80345a3a443"},"vehicle_type_id":"4","last_reported":1678215995,"current_range_meters":13600,"station_id":"ce4bha12rcd13ifvqef0","pricing_plan_id":"free"},{"bike_id":"e4b3ac76-a113-4bdf-9ef3-037ec032ad31","system_id":"levelo_inurba_marseille","lat":43.280329,"lon":5.369388,"is_reserved":false,"is_disabled":false,"rental_uris":{"android":"levelo://app?vid=e4b3ac76-a113-4bdf-9ef3-037ec032ad31","ios":"levelo://app?vid=e4b3ac76-a113-4bdf-9ef3-037ec032ad31"},"vehicle_type_id":"4","last_reported":1678215995,"current_range_meters":9600,"station_id":"","pricing_plan_id":"free"},{"bike_id":"df9b2bc7-f01a-4493-9480-414de5bf9324","system_id":"levelo_inurba_marseille","lat":43.28039,"lon":5.369297,"is_reserved":false,"is_disabled":false,"rental_uris":{"android":"levelo://app?vid=df9b2bc7-f01a-4493-9480-414de5bf9324","ios":"levelo://app?vid=df9b2bc7-f01a-4493-9480-414de5bf9324"},"vehicle_type_id":"4","last_reported":1678215995,"current_range_meters":5600,"station_id":"ce4bha12rcd13ifvqef0","pricing_plan_id":"free"},{"bike_id":"d64d2e88-0ff5-4497-bf27-de5bad5c52d1","system_id":"levelo_inurba_marseille","lat":43.280322,"lon":5.36951,"is_reserved":false,"is_disabled":false,"rental_uris":{"android":"levelo://app?vid=d64d2e88-0ff5-4497-bf27-de5bad5c52d1","ios":"levelo://app?vid=d64d2e88-0ff5-4497-bf27-de5bad5c52d1"},"vehicle_type_id":"4","last_reported":1678215995,"current_range_meters":14800,"station_id":"","pricing_plan_id":"free"},{"bike_id":"ab493cd2-f341-4304-932c-dadd436736de","system_id":"levelo_inurba_marseille","lat":43.280313,"lon":5.369484,"is_reserved":false,"is_disabled":false,"rental_uris":{"android":"levelo://app?vid=ab493cd2-f341-4304-932c-dadd436736de","ios":"levelo://app?vid=ab493cd2-f341-4304-932c-dadd436736de"},"vehicle_type_id":"4","last_reported":1678215995,"current_range_meters":0,"station_id":"","pricing_plan_id":"free"},{"bike_id":"4a819106-5908-4133-927a-14ddd146e1fc","system_id":"levelo_inurba_marseille","lat":43.29041,"lon":5.399634,"is_reserved":false,"is_disabled":false,"rental_uris":{"android":"levelo://app?vid=4a819106-5908-4133-927a-14ddd146e1fc","ios":"levelo://app?vid=4a819106-5908-4133-927a-14ddd146e1fc"},"vehicle_type_id":"4","last_reported":1678215995,"current_range_meters":12400,"station_id":"ce4bh392rcd13ifvqdm0","pricing_plan_id":"free"},{"bike_id":"bdbd6e80-b13f-4bd4-b893-ec8963168846","system_id":"levelo_inurba_marseille","lat":43.294328,"lon":5.403834,"is_reserved":false,"is_disabled":false,"rental_uris":{"android":"levelo://app?vid=bdbd6e80-b13f-4bd4-b893-ec8963168846","ios":"levelo://app?vid=bdbd6e80-b13f-4bd4-b893-ec8963168846"},"vehicle_type_id":"4","last_reported":1678215995,"current_range_meters":13600,"station_id":"ce4bh0h2rcd13ifvqd60","pricing_plan_id":"free"},{"bike_id":"58da1039-ab85-41f7-ade1-70b69e3fc139","system_id":"levelo_inurba_marseille","lat":43.290412,"lon":5.399633,"is_reserved":false,"is_disabled":false,"rental_uris":{"android":"levelo://app?vid=58da1039-ab85-41f7-ade1-70b69e3fc139","ios":"levelo://app?vid=58da1039-ab85-41f7-ade1-70b69e3fc139"},"vehicle_type_id":"4","last_reported":1678215995,"current_range_meters":13200,"station_id":"ce4bh392rcd13ifvqdm0","pricing_plan_id":"free"},{"bike_id":"e0a300d4-0af8-4cb1-a305-36e58fd2dd37","system_id":"levelo_inurba_marseille","lat":43.290412,"lon":5.399633,"is_reserved":false,"is_disabled":false,"rental_uris":{"android":"levelo://app?vid=e0a300d4-0af8-4cb1-a305-36e58fd2dd37","ios":"levelo://app?vid=e0a300d4-0af8-4cb1-a305-36e58fd2dd37"},"vehicle_type_id":"4","last_reported":1678215995,"current_range_meters":5600,"station_id":"ce4bh392rcd13ifvqdm0","pricing_plan_id":"free"},{"bike_id":"84c1a431-0bdf-4f37-9a1b-28dc92ec0f87","system_id":"levelo_inurba_marseille","lat":43.29041,"lon":5.399634,"is_reserved":false,"is_disabled":false,"rental_uris":{"android":"levelo://app?vid=84c1a431-0bdf-4f37-9a1b-28dc92ec0f87","ios":"levelo://app?vid=84c1a431-0bdf-4f37-9a1b-28dc92ec0f87"},"vehicle_type_id":"4","last_reported":1678215995,"current_range_meters":7600,"station_id":"ce4bh392rcd13ifvqdm0","pricing_plan_id":"free"},{"bike_id":"d4122468-bd7e-41af-b695-fb068a0b8d4a","system_id":"levelo_inurba_marseille","lat":43.296263,"lon":5.40601,"is_reserved":false,"is_disabled":false,"rental_uris":{"android":"levelo://app?vid=d4122468-bd7e-41af-b695-fb068a0b8d4a","ios":"levelo://app?vid=d4122468-bd7e-41af-b695-fb068a0b8d4a"},"vehicle_type_id":"4","last_reported":1678215995,"current_range_meters":27200,"station_id":"ce4bh0h2rcd13ifvqd60","pricing_plan_id":"free"},{"bike_id":"6a65700a-fde2-46e6-a6b2-ca4fc2fd66c2","system_id":"levelo_inurba_marseille","lat":43.296263,"lon":5.40601,"is_reserved":false,"is_disabled":false,"rental_uris":{"android":"levelo://app?vid=6a65700a-fde2-46e6-a6b2-ca4fc2fd66c2","ios":"levelo://app?vid=6a65700a-fde2-46e6-a6b2-ca4fc2fd66c2"},"vehicle_type_id":"4","last_reported":1678215995,"current_range_meters":2800,"station_id":"ce4bh0h2rcd13ifvqd60","pricing_plan_id":"free"},{"bike_id":"1c3fa1c1-bc5f-4c2a-9db2-c2ce30189f33","system_id":"levelo_inurba_marseille","lat":43.281044,"lon":5.378308,"is_reserved":false,"is_disabled":false,"rental_uris":{"android":"levelo://app?vid=1c3fa1c1-bc5f-4c2a-9db2-c2ce30189f33","ios":"levelo://app?vid=1c3fa1c1-bc5f-4c2a-9db2-c2ce30189f33"},"vehicle_type_id":"4","last_reported":1678215995,"current_range_meters":0,"station_id":"ce4bha12rcd13ifvqee0","pricing_plan_id":"free"},{"bike_id":"e82d4b9b-0d16-4901-9471-90394eb8f75a","system_id":"levelo_inurba_marseille","lat":43.29041,"lon":5.399634,"is_reserved":false,"is_disabled":false,"rental_uris":{"android":"levelo://app?vid=e82d4b9b-0d16-4901-9471-90394eb8f75a","ios":"levelo://app?vid=e82d4b9b-0d16-4901-9471-90394eb8f75a"},"vehicle_type_id":"4","last_reported":1678215995,"current_range_meters":1200,"station_id":"ce4bh392rcd13ifvqdm0","pricing_plan_id":"free"},{"bike_id":"7db2d7bb-6b72-4c6d-a58e-af5a345000b8","system_id":"levelo_inurba_marseille","lat":43.28095,"lon":5.37839,"is_reserved":false,"is_disabled":false,"rental_uris":{"android":"levelo://app?vid=7db2d7bb-6b72-4c6d-a58e-af5a345000b8","ios":"levelo://app?vid=7db2d7bb-6b72-4c6d-a58e-af5a345000b8"},"vehicle_type_id":"4","last_reported":1678215995,"current_range_meters":0,"station_id":"","pricing_plan_id":"free"},{"bike_id":"315f8307-5058-4ae2-ad28-b37162946063","system_id":"levelo_inurba_marseille","lat":43.304188,"lon":5.412904,"is_reserved":false,"is_disabled":false,"rental_uris":{"android":"levelo://app?vid=315f8307-5058-4ae2-ad28-b37162946063","ios":"levelo://app?vid=315f8307-5058-4ae2-ad28-b37162946063"},"vehicle_type_id":"4","last_reported":1678215995,"current_range_meters":16800,"station_id":"ce4bhop2rcd13ifvqh8g","pricing_plan_id":"free"},{"bike_id":"be3e685f-bd77-45bc-a00e-38be4904a326","system_id":"levelo_inurba_marseille","lat":43.304188,"lon":5.412904,"is_reserved":false,"is_disabled":false,"rental_uris":{"android":"levelo://app?vid=be3e685f-bd77-45bc-a00e-38be4904a326","ios":"levelo://app?vid=be3e685f-bd77-45bc-a00e-38be4904a326"},"vehicle_type_id":"4","last_reported":1678215995,"current_range_meters":25200,"station_id":"ce4bhop2rcd13ifvqh8g","pricing_plan_id":"free"},{"bike_id":"e0645603-5f0f-46da-8c3d-a38d6c40cef3","system_id":"levelo_inurba_marseille","lat":43.304188,"lon":5.412904,"is_reserved":false,"is_disabled":false,"rental_uris":{"android":"levelo://app?vid=e0645603-5f0f-46da-8c3d-a38d6c40cef3","ios":"levelo://app?vid=e0645603-5f0f-46da-8c3d-a38d6c40cef3"},"vehicle_type_id":"4","last_reported":1678215995,"current_range_meters":16800,"station_id":"ce4bhop2rcd13ifvqh8g","pricing_plan_id":"free"},{"bike_id":"e48b3c3c-e39b-48a0-8e76-41d429dfb78c","system_id":"levelo_inurba_marseille","lat":43.304188,"lon":5.412904,"is_reserved":false,"is_disabled":false,"rental_uris":{"android":"levelo://app?vid=e48b3c3c-e39b-48a0-8e76-41d429dfb78c","ios":"levelo://app?vid=e48b3c3c-e39b-48a0-8e76-41d429dfb78c"},"vehicle_type_id":"4","last_reported":1678215995,"current_range_meters":0,"station_id":"ce4bhop2rcd13ifvqh8g","pricing_plan_id":"free"},{"bike_id":"a18c057b-3157-486d-898b-183cd7402715","system_id":"levelo_inurba_marseille","lat":43.299579,"lon":5.413255,"is_reserved":false,"is_disabled":false,"rental_uris":{"android":"levelo://app?vid=a18c057b-3157-486d-898b-183cd7402715","ios":"levelo://app?vid=a18c057b-3157-486d-898b-183cd7402715"},"vehicle_type_id":"4","last_reported":1678215995,"current_range_meters":11600,"station_id":"ce4bhp12rcd13ifvqh9g","pricing_plan_id":"free"},{"bike_id":"d77a3a84-3910-48a4-b44f-bfa2e6f2bb1f","system_id":"levelo_inurba_marseille","lat":43.299579,"lon":5.413255,"is_reserved":false,"is_disabled":false,"rental_uris":{"android":"levelo://app?vid=d77a3a84-3910-48a4-b44f-bfa2e6f2bb1f","ios":"levelo://app?vid=d77a3a84-3910-48a4-b44f-bfa2e6f2bb1f"},"vehicle_type_id":"4","last_reported":1678215995,"current_range_meters":16800,"station_id":"ce4bhp12rcd13ifvqh9g","pricing_plan_id":"free"},{"bike_id":"cd3e0849-2041-42bf-b6fe-9d09371a3870","system_id":"levelo_inurba_marseille","lat":43.299579,"lon":5.413255,"is_reserved":false,"is_disabled":false,"rental_uris":{"android":"levelo://app?vid=cd3e0849-2041-42bf-b6fe-9d09371a3870","ios":"levelo://app?vid=cd3e0849-2041-42bf-b6fe-9d09371a3870"},"vehicle_type_id":"4","last_reported":1678215995,"current_range_meters":20000,"station_id":"ce4bhp12rcd13ifvqh9g","pricing_plan_id":"free"},{"bike_id":"f8dd7bfa-eda0-4252-8ba1-e7fe84691cc2","system_id":"levelo_inurba_marseille","lat":43.299579,"lon":5.413255,"is_reserved":false,"is_disabled":false,"rental_uris":{"android":"levelo://app?vid=f8dd7bfa-eda0-4252-8ba1-e7fe84691cc2","ios":"levelo://app?vid=f8dd7bfa-eda0-4252-8ba1-e7fe84691cc2"},"vehicle_type_id":"4","last_reported":1678215995,"current_range_meters":23200,"station_id":"ce4bhp12rcd13ifvqh9g","pricing_plan_id":"free"},{"bike_id":"88fc273f-5c88-4161-8144-2bfb54c2ab93","system_id":"levelo_inurba_marseille","lat":43.299577,"lon":5.413277,"is_reserved":false,"is_disabled":false,"rental_uris":{"android":"levelo://app?vid=88fc273f-5c88-4161-8144-2bfb54c2ab93","ios":"levelo://app?vid=88fc273f-5c88-4161-8144-2bfb54c2ab93"},"vehicle_type_id":"4","last_reported":1678215995,"current_range_meters":22000,"station_id":"ce4bhp12rcd13ifvqh9g","pricing_plan_id":"free"},{"bike_id":"65f2bd2d-ad32-40b1-8798-dcc38961a983","system_id":"levelo_inurba_marseille","lat":43.299577,"lon":5.413277,"is_reserved":false,"is_disabled":false,"rental_uris":{"android":"levelo://app?vid=65f2bd2d-ad32-40b1-8798-dcc38961a983","ios":"levelo://app?vid=65f2bd2d-ad32-40b1-8798-dcc38961a983"},"vehicle_type_id":"4","last_reported":1678215995,"current_range_meters":27600,"station_id":"ce4bhp12rcd13ifvqh9g","pricing_plan_id":"free"},{"bike_id":"9f2a908e-8cf6-4760-bb03-526f81cf22a1","system_id":"levelo_inurba_marseille","lat":43.299577,"lon":5.413277,"is_reserved":false,"is_disabled":false,"rental_uris":{"android":"levelo://app?vid=9f2a908e-8cf6-4760-bb03-526f81cf22a1","ios":"levelo://app?vid=9f2a908e-8cf6-4760-bb03-526f81cf22a1"},"vehicle_type_id":"4","last_reported":1678215995,"current_range_meters":25600,"station_id":"ce4bhp12rcd13ifvqh9g","pricing_plan_id":"free"},{"bike_id":"38dd2bd7-fc25-4cf2-84a1-a963d73db5f3","system_id":"levelo_inurba_marseille","lat":43.320045,"lon":5.415048,"is_reserved":false,"is_disabled":false,"rental_uris":{"android":"levelo://app?vid=38dd2bd7-fc25-4cf2-84a1-a963d73db5f3","ios":"levelo://app?vid=38dd2bd7-fc25-4cf2-84a1-a963d73db5f3"},"vehicle_type_id":"4","last_reported":1678215995,"current_range_meters":24800,"station_id":"ce4bhq92rcd13ifvqhkg","pricing_plan_id":"free"},{"bike_id":"60c94c2c-ed8a-4f69-b34d-530c27e96725","system_id":"levelo_inurba_marseille","lat":43.325243,"lon":5.414326,"is_reserved":false,"is_disabled":false,"rental_uris":{"android":"levelo://app?vid=60c94c2c-ed8a-4f69-b34d-530c27e96725","ios":"levelo://app?vid=60c94c2c-ed8a-4f69-b34d-530c27e96725"},"vehicle_type_id":"4","last_reported":1678215995,"current_range_meters":19600,"station_id":"ce4bhq12rcd13ifvqhhg","pricing_plan_id":"free"},{"bike_id":"090e2b45-a915-470d-a12a-c03f58057613","system_id":"levelo_inurba_marseille","lat":43.276223,"lon":5.361257,"is_reserved":false,"is_disabled":false,"rental_uris":{"android":"levelo://app?vid=090e2b45-a915-470d-a12a-c03f58057613","ios":"levelo://app?vid=090e2b45-a915-470d-a12a-c03f58057613"},"vehicle_type_id":"4","last_reported":1678215995,"current_range_meters":16800,"station_id":"","pricing_plan_id":"free"},{"bike_id":"2e3ca9a4-3670-455d-b96b-18278bd4f56b","system_id":"levelo_inurba_marseille","lat":43.27618,"lon":5.361009,"is_reserved":false,"is_disabled":false,"rental_uris":{"android":"levelo://app?vid=2e3ca9a4-3670-455d-b96b-18278bd4f56b","ios":"levelo://app?vid=2e3ca9a4-3670-455d-b96b-18278bd4f56b"},"vehicle_type_id":"4","last_reported":1678215995,"current_range_meters":16800,"station_id":"ce4bgj92rcd13ifvqbe0","pricing_plan_id":"free"},{"bike_id":"a6bf0c71-b670-4a15-ad24-068baa7b89da","system_id":"levelo_inurba_marseille","lat":43.325233,"lon":5.414318,"is_reserved":false,"is_disabled":false,"rental_uris":{"android":"levelo://app?vid=a6bf0c71-b670-4a15-ad24-068baa7b89da","ios":"levelo://app?vid=a6bf0c71-b670-4a15-ad24-068baa7b89da"},"vehicle_type_id":"4","last_reported":1678215995,"current_range_meters":0,"station_id":"ce4bhq12rcd13ifvqhhg","pricing_plan_id":"free"},{"bike_id":"9e9936e3-de1f-4663-adc7-495160ff8ebd","system_id":"levelo_inurba_marseille","lat":43.27618,"lon":5.361009,"is_reserved":false,"is_disabled":false,"rental_uris":{"android":"levelo://app?vid=9e9936e3-de1f-4663-adc7-495160ff8ebd","ios":"levelo://app?vid=9e9936e3-de1f-4663-adc7-495160ff8ebd"},"vehicle_type_id":"4","last_reported":1678215995,"current_range_meters":8400,"station_id":"ce4bgj92rcd13ifvqbe0","pricing_plan_id":"free"},{"bike_id":"c0309ac4-02df-4b10-b544-553a460fbc78","system_id":"levelo_inurba_marseille","lat":43.235293,"lon":5.409899,"is_reserved":false,"is_disabled":false,"rental_uris":{"android":"levelo://app?vid=c0309ac4-02df-4b10-b544-553a460fbc78","ios":"levelo://app?vid=c0309ac4-02df-4b10-b544-553a460fbc78"},"vehicle_type_id":"4","last_reported":1678215995,"current_range_meters":6000,"station_id":"","pricing_plan_id":"free"},{"bike_id":"340d66e8-bda1-48b8-b9e2-90cd8e482b59","system_id":"levelo_inurba_marseille","lat":43.276134,"lon":5.361071,"is_reserved":false,"is_disabled":false,"rental_uris":{"android":"levelo://app?vid=340d66e8-bda1-48b8-b9e2-90cd8e482b59","ios":"levelo://app?vid=340d66e8-bda1-48b8-b9e2-90cd8e482b59"},"vehicle_type_id":"4","last_reported":1678215995,"current_range_meters":10000,"station_id":"ce4bgj92rcd13ifvqbe0","pricing_plan_id":"free"},{"bike_id":"fcf3d486-d32f-4fa5-9ee8-b5133eb18281","system_id":"levelo_inurba_marseille","lat":43.27618,"lon":5.361009,"is_reserved":false,"is_disabled":false,"rental_uris":{"android":"levelo://app?vid=fcf3d486-d32f-4fa5-9ee8-b5133eb18281","ios":"levelo://app?vid=fcf3d486-d32f-4fa5-9ee8-b5133eb18281"},"vehicle_type_id":"4","last_reported":1678215995,"current_range_meters":21200,"station_id":"ce4bgj92rcd13ifvqbe0","pricing_plan_id":"free"},{"bike_id":"88eedc7b-dd58-4b8f-abc9-020d11215194","system_id":"levelo_inurba_marseille","lat":43.273843,"lon":5.362579,"is_reserved":false,"is_disabled":false,"rental_uris":{"android":"levelo://app?vid=88eedc7b-dd58-4b8f-abc9-020d11215194","ios":"levelo://app?vid=88eedc7b-dd58-4b8f-abc9-020d11215194"},"vehicle_type_id":"4","last_reported":1678215995,"current_range_meters":12800,"station_id":"ce4bhbh2rcd13ifvqeo0","pricing_plan_id":"free"},{"bike_id":"31a15b17-a18a-4c11-9514-617fc48edbb4","system_id":"levelo_inurba_marseille","lat":43.27381,"lon":5.36256,"is_reserved":false,"is_disabled":false,"rental_uris":{"android":"levelo://app?vid=31a15b17-a18a-4c11-9514-617fc48edbb4","ios":"levelo://app?vid=31a15b17-a18a-4c11-9514-617fc48edbb4"},"vehicle_type_id":"4","last_reported":1678215995,"current_range_meters":2000,"station_id":"ce4bhbh2rcd13ifvqeo0","pricing_plan_id":"free"},{"bike_id":"d4b79244-b631-47cc-89da-2f4dd3e2f847","system_id":"levelo_inurba_marseille","lat":43.2738,"lon":5.36258,"is_reserved":false,"is_disabled":false,"rental_uris":{"android":"levelo://app?vid=d4b79244-b631-47cc-89da-2f4dd3e2f847","ios":"levelo://app?vid=d4b79244-b631-47cc-89da-2f4dd3e2f847"},"vehicle_type_id":"4","last_reported":1678215995,"current_range_meters":20800,"station_id":"ce4bhbh2rcd13ifvqeo0","pricing_plan_id":"free"},{"bike_id":"ae94e0b1-c74f-4227-af9f-6a3209b764c2","system_id":"levelo_inurba_marseille","lat":43.273768,"lon":5.362594,"is_reserved":false,"is_disabled":false,"rental_uris":{"android":"levelo://app?vid=ae94e0b1-c74f-4227-af9f-6a3209b764c2","ios":"levelo://app?vid=ae94e0b1-c74f-4227-af9f-6a3209b764c2"},"vehicle_type_id":"4","last_reported":1678215995,"current_range_meters":0,"station_id":"ce4bhbh2rcd13ifvqeo0","pricing_plan_id":"free"},{"bike_id":"7c7b727f-4ee4-4cb4-a988-de186dfebbc3","system_id":"levelo_inurba_marseille","lat":43.273613,"lon":5.362705,"is_reserved":false,"is_disabled":false,"rental_uris":{"android":"levelo://app?vid=7c7b727f-4ee4-4cb4-a988-de186dfebbc3","ios":"levelo://app?vid=7c7b727f-4ee4-4cb4-a988-de186dfebbc3"},"vehicle_type_id":"4","last_reported":1678215995,"current_range_meters":25200,"station_id":"ce4bhbh2rcd13ifvqeo0","pricing_plan_id":"free"},{"bike_id":"939e3cb2-ae6c-412c-88f5-5e2e35771892","system_id":"levelo_inurba_marseille","lat":43.33608,"lon":5.41035,"is_reserved":false,"is_disabled":false,"rental_uris":{"android":"levelo://app?vid=939e3cb2-ae6c-412c-88f5-5e2e35771892","ios":"levelo://app?vid=939e3cb2-ae6c-412c-88f5-5e2e35771892"},"vehicle_type_id":"4","last_reported":1678215995,"current_range_meters":0,"station_id":"","pricing_plan_id":"free"},{"bike_id":"ba25d3fc-5a08-48e3-b4e0-999837d33296","system_id":"levelo_inurba_marseille","lat":43.317121,"lon":5.423936,"is_reserved":false,"is_disabled":false,"rental_uris":{"android":"levelo://app?vid=ba25d3fc-5a08-48e3-b4e0-999837d33296","ios":"levelo://app?vid=ba25d3fc-5a08-48e3-b4e0-999837d33296"},"vehicle_type_id":"4","last_reported":1678215995,"current_range_meters":21600,"station_id":"ce4bhp92rcd13ifvqhbg","pricing_plan_id":"free"},{"bike_id":"590c7288-d3d7-451b-b069-bbe9914df065","system_id":"levelo_inurba_marseille","lat":43.317121,"lon":5.423936,"is_reserved":false,"is_disabled":false,"rental_uris":{"android":"levelo://app?vid=590c7288-d3d7-451b-b069-bbe9914df065","ios":"levelo://app?vid=590c7288-d3d7-451b-b069-bbe9914df065"},"vehicle_type_id":"4","last_reported":1678215995,"current_range_meters":30000,"station_id":"ce4bhp92rcd13ifvqhbg","pricing_plan_id":"free"},{"bike_id":"8410146e-bbca-4603-b549-3495e7115207","system_id":"levelo_inurba_marseille","lat":43.317121,"lon":5.423936,"is_reserved":false,"is_disabled":false,"rental_uris":{"android":"levelo://app?vid=8410146e-bbca-4603-b549-3495e7115207","ios":"levelo://app?vid=8410146e-bbca-4603-b549-3495e7115207"},"vehicle_type_id":"4","last_reported":1678215995,"current_range_meters":28800,"station_id":"ce4bhp92rcd13ifvqhbg","pricing_plan_id":"free"},{"bike_id":"d66d215f-4be2-463f-813a-4c41d0a10b20","system_id":"levelo_inurba_marseille","lat":43.317121,"lon":5.423936,"is_reserved":false,"is_disabled":false,"rental_uris":{"android":"levelo://app?vid=d66d215f-4be2-463f-813a-4c41d0a10b20","ios":"levelo://app?vid=d66d215f-4be2-463f-813a-4c41d0a10b20"},"vehicle_type_id":"4","last_reported":1678215995,"current_range_meters":31600,"station_id":"ce4bhp92rcd13ifvqhbg","pricing_plan_id":"free"},{"bike_id":"91eaa121-f6fc-429c-927e-5f02f4f485a9","system_id":"levelo_inurba_marseille","lat":43.317121,"lon":5.423936,"is_reserved":false,"is_disabled":false,"rental_uris":{"android":"levelo://app?vid=91eaa121-f6fc-429c-927e-5f02f4f485a9","ios":"levelo://app?vid=91eaa121-f6fc-429c-927e-5f02f4f485a9"},"vehicle_type_id":"4","last_reported":1678215995,"current_range_meters":25200,"station_id":"ce4bhp92rcd13ifvqhbg","pricing_plan_id":"free"},{"bike_id":"4cba71a6-8c0c-49e8-ada6-4e1721bebb00","system_id":"levelo_inurba_marseille","lat":43.317121,"lon":5.423936,"is_reserved":false,"is_disabled":false,"rental_uris":{"android":"levelo://app?vid=4cba71a6-8c0c-49e8-ada6-4e1721bebb00","ios":"levelo://app?vid=4cba71a6-8c0c-49e8-ada6-4e1721bebb00"},"vehicle_type_id":"4","last_reported":1678215995,"current_range_meters":27200,"station_id":"ce4bhp92rcd13ifvqhbg","pricing_plan_id":"free"},{"bike_id":"e9c5949a-ede5-44c0-9df0-6ffe877b98fb","system_id":"levelo_inurba_marseille","lat":43.31089,"lon":5.42433,"is_reserved":false,"is_disabled":false,"rental_uris":{"android":"levelo://app?vid=e9c5949a-ede5-44c0-9df0-6ffe877b98fb","ios":"levelo://app?vid=e9c5949a-ede5-44c0-9df0-6ffe877b98fb"},"vehicle_type_id":"4","last_reported":1678215995,"current_range_meters":26000,"station_id":"","pricing_plan_id":"free"},{"bike_id":"01db7f5c-bb05-4c87-96e9-658083155c8c","system_id":"levelo_inurba_marseille","lat":43.273223,"lon":5.390916,"is_reserved":false,"is_disabled":false,"rental_uris":{"android":"levelo://app?vid=01db7f5c-bb05-4c87-96e9-658083155c8c","ios":"levelo://app?vid=01db7f5c-bb05-4c87-96e9-658083155c8c"},"vehicle_type_id":"4","last_reported":1678215995,"current_range_meters":0,"station_id":"ce4bhgp2rcd13ifvqfe0","pricing_plan_id":"free"},{"bike_id":"17de7e31-f63b-498b-82a2-2b6fac6c3518","system_id":"levelo_inurba_marseille","lat":43.30415,"lon":5.4254,"is_reserved":false,"is_disabled":false,"rental_uris":{"android":"levelo://app?vid=17de7e31-f63b-498b-82a2-2b6fac6c3518","ios":"levelo://app?vid=17de7e31-f63b-498b-82a2-2b6fac6c3518"},"vehicle_type_id":"4","last_reported":1678215995,"current_range_meters":0,"station_id":"","pricing_plan_id":"free"},{"bike_id":"fcfc7777-4645-4b2a-adc6-6b7639ec2580","system_id":"levelo_inurba_marseille","lat":43.304096,"lon":5.425385,"is_reserved":false,"is_disabled":false,"rental_uris":{"android":"levelo://app?vid=fcfc7777-4645-4b2a-adc6-6b7639ec2580","ios":"levelo://app?vid=fcfc7777-4645-4b2a-adc6-6b7639ec2580"},"vehicle_type_id":"4","last_reported":1678215995,"current_range_meters":31600,"station_id":"ce4bhoh2rcd13ifvqh6g","pricing_plan_id":"free"},{"bike_id":"deb467c2-ffdb-486b-84ad-69d00a23860f","system_id":"levelo_inurba_marseille","lat":43.304212,"lon":5.425682,"is_reserved":false,"is_disabled":false,"rental_uris":{"android":"levelo://app?vid=deb467c2-ffdb-486b-84ad-69d00a23860f","ios":"levelo://app?vid=deb467c2-ffdb-486b-84ad-69d00a23860f"},"vehicle_type_id":"4","last_reported":1678215995,"current_range_meters":21600,"station_id":"","pricing_plan_id":"free"},{"bike_id":"72b87734-6f9e-4cd9-90cc-9fdda57284ad","system_id":"levelo_inurba_marseille","lat":43.295523,"lon":5.422926,"is_reserved":false,"is_disabled":false,"rental_uris":{"android":"levelo://app?vid=72b87734-6f9e-4cd9-90cc-9fdda57284ad","ios":"levelo://app?vid=72b87734-6f9e-4cd9-90cc-9fdda57284ad"},"vehicle_type_id":"4","last_reported":1678215995,"current_range_meters":28800,"station_id":"ce4bhph2rcd13ifvqhdg","pricing_plan_id":"free"},{"bike_id":"481275fc-8ab7-46db-acc1-96f54929c4f3","system_id":"levelo_inurba_marseille","lat":43.29554,"lon":5.42285,"is_reserved":false,"is_disabled":false,"rental_uris":{"android":"levelo://app?vid=481275fc-8ab7-46db-acc1-96f54929c4f3","ios":"levelo://app?vid=481275fc-8ab7-46db-acc1-96f54929c4f3"},"vehicle_type_id":"4","last_reported":1678215995,"current_range_meters":21200,"station_id":"","pricing_plan_id":"free"},{"bike_id":"14cbee55-2e29-42bf-911a-f4fa030ef986","system_id":"levelo_inurba_marseille","lat":43.295523,"lon":5.422926,"is_reserved":false,"is_disabled":false,"rental_uris":{"android":"levelo://app?vid=14cbee55-2e29-42bf-911a-f4fa030ef986","ios":"levelo://app?vid=14cbee55-2e29-42bf-911a-f4fa030ef986"},"vehicle_type_id":"4","last_reported":1678215995,"current_range_meters":30000,"station_id":"ce4bhph2rcd13ifvqhdg","pricing_plan_id":"free"},{"bike_id":"eceb7273-3fb7-4152-8b72-3cfbcec81b64","system_id":"levelo_inurba_marseille","lat":43.29558,"lon":5.42291,"is_reserved":false,"is_disabled":false,"rental_uris":{"android":"levelo://app?vid=eceb7273-3fb7-4152-8b72-3cfbcec81b64","ios":"levelo://app?vid=eceb7273-3fb7-4152-8b72-3cfbcec81b64"},"vehicle_type_id":"4","last_reported":1678215995,"current_range_meters":4800,"station_id":"ce4bhph2rcd13ifvqhdg","pricing_plan_id":"free"},{"bike_id":"2028f269-6a1f-409c-9564-48854f0e1b36","system_id":"levelo_inurba_marseille","lat":43.295605,"lon":5.422937,"is_reserved":false,"is_disabled":false,"rental_uris":{"android":"levelo://app?vid=2028f269-6a1f-409c-9564-48854f0e1b36","ios":"levelo://app?vid=2028f269-6a1f-409c-9564-48854f0e1b36"},"vehicle_type_id":"4","last_reported":1678215995,"current_range_meters":0,"station_id":"ce4bhph2rcd13ifvqhdg","pricing_plan_id":"free"},{"bike_id":"6e70f4b1-c81b-4cea-98e4-43dd3d72a708","system_id":"levelo_inurba_marseille","lat":43.278128,"lon":5.407195,"is_reserved":false,"is_disabled":false,"rental_uris":{"android":"levelo://app?vid=6e70f4b1-c81b-4cea-98e4-43dd3d72a708","ios":"levelo://app?vid=6e70f4b1-c81b-4cea-98e4-43dd3d72a708"},"vehicle_type_id":"4","last_reported":1678215995,"current_range_meters":24800,"station_id":"ce4bhnh2rcd13ifvqgtg","pricing_plan_id":"free"},{"bike_id":"7291bc7e-1b25-42cc-aa54-ad92a4b02c5d","system_id":"levelo_inurba_marseille","lat":43.278128,"lon":5.407195,"is_reserved":false,"is_disabled":false,"rental_uris":{"android":"levelo://app?vid=7291bc7e-1b25-42cc-aa54-ad92a4b02c5d","ios":"levelo://app?vid=7291bc7e-1b25-42cc-aa54-ad92a4b02c5d"},"vehicle_type_id":"4","last_reported":1678215995,"current_range_meters":5200,"station_id":"ce4bhnh2rcd13ifvqgtg","pricing_plan_id":"free"},{"bike_id":"9819be72-7540-4c2d-b2d8-4372f11a5805","system_id":"levelo_inurba_marseille","lat":43.269467,"lon":5.386439,"is_reserved":false,"is_disabled":false,"rental_uris":{"android":"levelo://app?vid=9819be72-7540-4c2d-b2d8-4372f11a5805","ios":"levelo://app?vid=9819be72-7540-4c2d-b2d8-4372f11a5805"},"vehicle_type_id":"4","last_reported":1678215995,"current_range_meters":15200,"station_id":"ce4bhh92rcd13ifvqfh0","pricing_plan_id":"free"},{"bike_id":"6addd717-c191-43ed-a44a-2f0d67ea95c7","system_id":"levelo_inurba_marseille","lat":43.33869,"lon":5.42077,"is_reserved":false,"is_disabled":false,"rental_uris":{"android":"levelo://app?vid=6addd717-c191-43ed-a44a-2f0d67ea95c7","ios":"levelo://app?vid=6addd717-c191-43ed-a44a-2f0d67ea95c7"},"vehicle_type_id":"4","last_reported":1678215995,"current_range_meters":1200,"station_id":"","pricing_plan_id":"free"},{"bike_id":"b966c2ca-4f62-4fab-96e0-86407b02b582","system_id":"levelo_inurba_marseille","lat":43.28001,"lon":5.41665,"is_reserved":false,"is_disabled":false,"rental_uris":{"android":"levelo://app?vid=b966c2ca-4f62-4fab-96e0-86407b02b582","ios":"levelo://app?vid=b966c2ca-4f62-4fab-96e0-86407b02b582"},"vehicle_type_id":"4","last_reported":1678215995,"current_range_meters":24800,"station_id":"ce4bho12rcd13ifvqh1g","pricing_plan_id":"free"},{"bike_id":"4e7e29b2-a612-4a5a-8ae1-c6c59e4f5cc9","system_id":"levelo_inurba_marseille","lat":43.27998,"lon":5.41664,"is_reserved":false,"is_disabled":false,"rental_uris":{"android":"levelo://app?vid=4e7e29b2-a612-4a5a-8ae1-c6c59e4f5cc9","ios":"levelo://app?vid=4e7e29b2-a612-4a5a-8ae1-c6c59e4f5cc9"},"vehicle_type_id":"4","last_reported":1678215995,"current_range_meters":6000,"station_id":"ce4bho12rcd13ifvqh1g","pricing_plan_id":"free"},{"bike_id":"8c4170a5-4f5d-4da7-a4d1-0ad2d802b7a5","system_id":"levelo_inurba_marseille","lat":43.27991,"lon":5.4166,"is_reserved":false,"is_disabled":false,"rental_uris":{"android":"levelo://app?vid=8c4170a5-4f5d-4da7-a4d1-0ad2d802b7a5","ios":"levelo://app?vid=8c4170a5-4f5d-4da7-a4d1-0ad2d802b7a5"},"vehicle_type_id":"4","last_reported":1678215995,"current_range_meters":8400,"station_id":"ce4bho12rcd13ifvqh1g","pricing_plan_id":"free"},{"bike_id":"4dab643e-c6e9-4ac5-8328-c913bc67b6e2","system_id":"levelo_inurba_marseille","lat":43.27993,"lon":5.41663,"is_reserved":false,"is_disabled":false,"rental_uris":{"android":"levelo://app?vid=4dab643e-c6e9-4ac5-8328-c913bc67b6e2","ios":"levelo://app?vid=4dab643e-c6e9-4ac5-8328-c913bc67b6e2"},"vehicle_type_id":"4","last_reported":1678215995,"current_range_meters":5600,"station_id":"ce4bho12rcd13ifvqh1g","pricing_plan_id":"free"},{"bike_id":"3469160e-61b1-4779-9e82-f8b2c75f8c81","system_id":"levelo_inurba_marseille","lat":43.27989,"lon":5.41661,"is_reserved":false,"is_disabled":false,"rental_uris":{"android":"levelo://app?vid=3469160e-61b1-4779-9e82-f8b2c75f8c81","ios":"levelo://app?vid=3469160e-61b1-4779-9e82-f8b2c75f8c81"},"vehicle_type_id":"4","last_reported":1678215995,"current_range_meters":0,"station_id":"ce4bho12rcd13ifvqh1g","pricing_plan_id":"free"},{"bike_id":"a2ec4a86-9609-42ff-b78a-c630335f8442","system_id":"levelo_inurba_marseille","lat":43.27987,"lon":5.4166,"is_reserved":false,"is_disabled":false,"rental_uris":{"android":"levelo://app?vid=a2ec4a86-9609-42ff-b78a-c630335f8442","ios":"levelo://app?vid=a2ec4a86-9609-42ff-b78a-c630335f8442"},"vehicle_type_id":"4","last_reported":1678215995,"current_range_meters":8000,"station_id":"ce4bho12rcd13ifvqh1g","pricing_plan_id":"free"},{"bike_id":"108ea302-9a70-46cc-ad5c-c100d994b729","system_id":"levelo_inurba_marseille","lat":43.27987,"lon":5.41662,"is_reserved":false,"is_disabled":false,"rental_uris":{"android":"levelo://app?vid=108ea302-9a70-46cc-ad5c-c100d994b729","ios":"levelo://app?vid=108ea302-9a70-46cc-ad5c-c100d994b729"},"vehicle_type_id":"4","last_reported":1678215995,"current_range_meters":10800,"station_id":"ce4bho12rcd13ifvqh1g","pricing_plan_id":"free"},{"bike_id":"bce961dd-6517-4c7b-a7e0-d9117daf2234","system_id":"levelo_inurba_marseille","lat":43.27985,"lon":5.41662,"is_reserved":false,"is_disabled":false,"rental_uris":{"android":"levelo://app?vid=bce961dd-6517-4c7b-a7e0-d9117daf2234","ios":"levelo://app?vid=bce961dd-6517-4c7b-a7e0-d9117daf2234"},"vehicle_type_id":"4","last_reported":1678215995,"current_range_meters":6400,"station_id":"ce4bho12rcd13ifvqh1g","pricing_plan_id":"free"},{"bike_id":"1ff25ccb-de0d-49ca-8f0e-f94a68eb3cd2","system_id":"levelo_inurba_marseille","lat":43.308051,"lon":5.43527,"is_reserved":false,"is_disabled":false,"rental_uris":{"android":"levelo://app?vid=1ff25ccb-de0d-49ca-8f0e-f94a68eb3cd2","ios":"levelo://app?vid=1ff25ccb-de0d-49ca-8f0e-f94a68eb3cd2"},"vehicle_type_id":"4","last_reported":1678215995,"current_range_meters":1200,"station_id":"ce4bhph2rcd13ifvqheg","pricing_plan_id":"free"},{"bike_id":"185bae1e-0bf4-4361-bb4a-7dd9c7c09873","system_id":"levelo_inurba_marseille","lat":43.30801,"lon":5.43526,"is_reserved":false,"is_disabled":false,"rental_uris":{"android":"levelo://app?vid=185bae1e-0bf4-4361-bb4a-7dd9c7c09873","ios":"levelo://app?vid=185bae1e-0bf4-4361-bb4a-7dd9c7c09873"},"vehicle_type_id":"4","last_reported":1678215995,"current_range_meters":8000,"station_id":"","pricing_plan_id":"free"},{"bike_id":"b5b47465-e993-4576-893f-821a1a304d87","system_id":"levelo_inurba_marseille","lat":43.308051,"lon":5.43527,"is_reserved":false,"is_disabled":false,"rental_uris":{"android":"levelo://app?vid=b5b47465-e993-4576-893f-821a1a304d87","ios":"levelo://app?vid=b5b47465-e993-4576-893f-821a1a304d87"},"vehicle_type_id":"4","last_reported":1678215995,"current_range_meters":27600,"station_id":"ce4bhph2rcd13ifvqheg","pricing_plan_id":"free"},{"bike_id":"dc22286a-4353-4e69-a779-8e7203250207","system_id":"levelo_inurba_marseille","lat":43.265673,"lon":5.390089,"is_reserved":false,"is_disabled":false,"rental_uris":{"android":"levelo://app?vid=dc22286a-4353-4e69-a779-8e7203250207","ios":"levelo://app?vid=dc22286a-4353-4e69-a779-8e7203250207"},"vehicle_type_id":"4","last_reported":1678215995,"current_range_meters":0,"station_id":"","pricing_plan_id":"free"},{"bike_id":"ecbe15f7-9786-4f23-89af-81f5eeea054c","system_id":"levelo_inurba_marseille","lat":43.313571,"lon":5.384829,"is_reserved":false,"is_disabled":false,"rental_uris":{"android":"levelo://app?vid=ecbe15f7-9786-4f23-89af-81f5eeea054c","ios":"levelo://app?vid=ecbe15f7-9786-4f23-89af-81f5eeea054c"},"vehicle_type_id":"4","last_reported":1678215995,"current_range_meters":0,"station_id":"ce4bgt92rcd13ifvqcf0","pricing_plan_id":"free"},{"bike_id":"18545826-417e-4743-a331-0888555795d7","system_id":"levelo_inurba_marseille","lat":43.261782,"lon":5.374515,"is_reserved":false,"is_disabled":false,"rental_uris":{"android":"levelo://app?vid=18545826-417e-4743-a331-0888555795d7","ios":"levelo://app?vid=18545826-417e-4743-a331-0888555795d7"},"vehicle_type_id":"4","last_reported":1678215995,"current_range_meters":400,"station_id":"ce4bhgp2rcd13ifvqfc0","pricing_plan_id":"free"},{"bike_id":"8bd5f244-2965-4f00-8dbb-09599ab3ccec","system_id":"levelo_inurba_marseille","lat":43.261782,"lon":5.374515,"is_reserved":false,"is_disabled":false,"rental_uris":{"android":"levelo://app?vid=8bd5f244-2965-4f00-8dbb-09599ab3ccec","ios":"levelo://app?vid=8bd5f244-2965-4f00-8dbb-09599ab3ccec"},"vehicle_type_id":"4","last_reported":1678215995,"current_range_meters":0,"station_id":"ce4bhgp2rcd13ifvqfc0","pricing_plan_id":"free"},{"bike_id":"8922bec6-4873-4743-9232-d017924f71fc","system_id":"levelo_inurba_marseille","lat":43.3171,"lon":5.43702,"is_reserved":false,"is_disabled":false,"rental_uris":{"android":"levelo://app?vid=8922bec6-4873-4743-9232-d017924f71fc","ios":"levelo://app?vid=8922bec6-4873-4743-9232-d017924f71fc"},"vehicle_type_id":"4","last_reported":1678215995,"current_range_meters":25200,"station_id":"ce4bhp92rcd13ifvqhcg","pricing_plan_id":"free"},{"bike_id":"91e5f31d-b465-4083-a4b0-688b461c6a2f","system_id":"levelo_inurba_marseille","lat":43.31711,"lon":5.43704,"is_reserved":false,"is_disabled":false,"rental_uris":{"android":"levelo://app?vid=91e5f31d-b465-4083-a4b0-688b461c6a2f","ios":"levelo://app?vid=91e5f31d-b465-4083-a4b0-688b461c6a2f"},"vehicle_type_id":"4","last_reported":1678215995,"current_range_meters":24000,"station_id":"","pricing_plan_id":"free"},{"bike_id":"deb230d9-e2ce-4828-8dfd-8caf73ef336a","system_id":"levelo_inurba_marseille","lat":43.317104,"lon":5.436818,"is_reserved":false,"is_disabled":false,"rental_uris":{"android":"levelo://app?vid=deb230d9-e2ce-4828-8dfd-8caf73ef336a","ios":"levelo://app?vid=deb230d9-e2ce-4828-8dfd-8caf73ef336a"},"vehicle_type_id":"4","last_reported":1678215995,"current_range_meters":29600,"station_id":"ce4bhp92rcd13ifvqhcg","pricing_plan_id":"free"},{"bike_id":"5c1d9668-532b-4c90-bc4c-b078a9777fc5","system_id":"levelo_inurba_marseille","lat":43.31714,"lon":5.43705,"is_reserved":false,"is_disabled":false,"rental_uris":{"android":"levelo://app?vid=5c1d9668-532b-4c90-bc4c-b078a9777fc5","ios":"levelo://app?vid=5c1d9668-532b-4c90-bc4c-b078a9777fc5"},"vehicle_type_id":"4","last_reported":1678215995,"current_range_meters":21200,"station_id":"","pricing_plan_id":"free"},{"bike_id":"a65802aa-bb26-490c-a2d8-8217d337afc7","system_id":"levelo_inurba_marseille","lat":43.317104,"lon":5.436818,"is_reserved":false,"is_disabled":false,"rental_uris":{"android":"levelo://app?vid=a65802aa-bb26-490c-a2d8-8217d337afc7","ios":"levelo://app?vid=a65802aa-bb26-490c-a2d8-8217d337afc7"},"vehicle_type_id":"4","last_reported":1678215995,"current_range_meters":27200,"station_id":"ce4bhp92rcd13ifvqhcg","pricing_plan_id":"free"},{"bike_id":"8caef8d6-af78-462d-b769-f1fdd03e6982","system_id":"levelo_inurba_marseille","lat":43.317104,"lon":5.436818,"is_reserved":false,"is_disabled":false,"rental_uris":{"android":"levelo://app?vid=8caef8d6-af78-462d-b769-f1fdd03e6982","ios":"levelo://app?vid=8caef8d6-af78-462d-b769-f1fdd03e6982"},"vehicle_type_id":"4","last_reported":1678215995,"current_range_meters":31600,"station_id":"ce4bhp92rcd13ifvqhcg","pricing_plan_id":"free"},{"bike_id":"da5b7b3b-c7bd-43bf-993c-7129f4c74635","system_id":"levelo_inurba_marseille","lat":43.317104,"lon":5.436818,"is_reserved":false,"is_disabled":false,"rental_uris":{"android":"levelo://app?vid=da5b7b3b-c7bd-43bf-993c-7129f4c74635","ios":"levelo://app?vid=da5b7b3b-c7bd-43bf-993c-7129f4c74635"},"vehicle_type_id":"4","last_reported":1678215995,"current_range_meters":30800,"station_id":"ce4bhp92rcd13ifvqhcg","pricing_plan_id":"free"},{"bike_id":"94f6fac7-2eee-40bc-819f-de11f026c44e","system_id":"levelo_inurba_marseille","lat":43.26202,"lon":5.379299,"is_reserved":false,"is_disabled":false,"rental_uris":{"android":"levelo://app?vid=94f6fac7-2eee-40bc-819f-de11f026c44e","ios":"levelo://app?vid=94f6fac7-2eee-40bc-819f-de11f026c44e"},"vehicle_type_id":"4","last_reported":1678215995,"current_range_meters":5600,"station_id":"ce4bhjp2rcd13ifvqg90","pricing_plan_id":"free"},{"bike_id":"7535cf05-8faf-467c-9ca0-b95ea122d99b","system_id":"levelo_inurba_marseille","lat":43.267959,"lon":5.402687,"is_reserved":false,"is_disabled":false,"rental_uris":{"android":"levelo://app?vid=7535cf05-8faf-467c-9ca0-b95ea122d99b","ios":"levelo://app?vid=7535cf05-8faf-467c-9ca0-b95ea122d99b"},"vehicle_type_id":"4","last_reported":1678215995,"current_range_meters":30000,"station_id":"ce501612rcd8frsf0b60","pricing_plan_id":"free"},{"bike_id":"399aef0d-a384-40f3-bf73-68fc50f4a525","system_id":"levelo_inurba_marseille","lat":43.267959,"lon":5.402687,"is_reserved":false,"is_disabled":false,"rental_uris":{"android":"levelo://app?vid=399aef0d-a384-40f3-bf73-68fc50f4a525","ios":"levelo://app?vid=399aef0d-a384-40f3-bf73-68fc50f4a525"},"vehicle_type_id":"4","last_reported":1678215995,"current_range_meters":17600,"station_id":"ce501612rcd8frsf0b60","pricing_plan_id":"free"},{"bike_id":"24305a25-3999-4fbf-8bb8-3ead0bd4125d","system_id":"levelo_inurba_marseille","lat":43.26802,"lon":5.402683,"is_reserved":false,"is_disabled":false,"rental_uris":{"android":"levelo://app?vid=24305a25-3999-4fbf-8bb8-3ead0bd4125d","ios":"levelo://app?vid=24305a25-3999-4fbf-8bb8-3ead0bd4125d"},"vehicle_type_id":"4","last_reported":1678215995,"current_range_meters":15200,"station_id":"","pricing_plan_id":"free"},{"bike_id":"8cc26443-f6fb-4914-bc57-604109898873","system_id":"levelo_inurba_marseille","lat":43.267959,"lon":5.402687,"is_reserved":false,"is_disabled":false,"rental_uris":{"android":"levelo://app?vid=8cc26443-f6fb-4914-bc57-604109898873","ios":"levelo://app?vid=8cc26443-f6fb-4914-bc57-604109898873"},"vehicle_type_id":"4","last_reported":1678215995,"current_range_meters":18400,"station_id":"ce501612rcd8frsf0b60","pricing_plan_id":"free"},{"bike_id":"e20051ea-8598-4269-a8c3-aa8d14d413a8","system_id":"levelo_inurba_marseille","lat":43.26069,"lon":5.39393,"is_reserved":false,"is_disabled":false,"rental_uris":{"android":"levelo://app?vid=e20051ea-8598-4269-a8c3-aa8d14d413a8","ios":"levelo://app?vid=e20051ea-8598-4269-a8c3-aa8d14d413a8"},"vehicle_type_id":"4","last_reported":1678215995,"current_range_meters":22400,"station_id":"ce4bhh92rcd13ifvqfj0","pricing_plan_id":"free"},{"bike_id":"5e30b870-8081-44f3-aee1-5fdc270d0491","system_id":"levelo_inurba_marseille","lat":43.26055,"lon":5.3939,"is_reserved":false,"is_disabled":false,"rental_uris":{"android":"levelo://app?vid=5e30b870-8081-44f3-aee1-5fdc270d0491","ios":"levelo://app?vid=5e30b870-8081-44f3-aee1-5fdc270d0491"},"vehicle_type_id":"4","last_reported":1678215995,"current_range_meters":0,"station_id":"","pricing_plan_id":"free"},{"bike_id":"7d22f946-6e31-47a9-bb8e-df47830b8424","system_id":"levelo_inurba_marseille","lat":43.260912,"lon":5.397584,"is_reserved":false,"is_disabled":false,"rental_uris":{"android":"levelo://app?vid=7d22f946-6e31-47a9-bb8e-df47830b8424","ios":"levelo://app?vid=7d22f946-6e31-47a9-bb8e-df47830b8424"},