{"last_updated":1731096552,"ttl":60,"version":"2.2","data":{"bikes":[{"bike_id":"db1270ab-1d82-4751-8226-c53da6298ee0","system_id":"levelo_inurba_marseille","lat":43.27567,"lon":5.38411,"is_reserved":false,"is_disabled":false,"rental_uris":{"android":"levelo://app?vid=db1270ab-1d82-4751-8226-c53da6298ee0","ios":"levelo://app?vid=db1270ab-1d82-4751-8226-c53da6298ee0"},"vehicle_type_id":"4","last_reported":1731096552,"current_range_meters":32000,"station_id":"ce4bhh92rcd13ifvqfi0","pricing_plan_id":"cebpf4jnsgd1na2vs0mg"},{"bike_id":"810dd2a8-51ac-424e-a216-350e3c574e31","system_id":"levelo_inurba_marseille","lat":43.272,"lon":5.39188,"is_reserved":false,"is_disabled":false,"rental_uris":{"android":"levelo://app?vid=810dd2a8-51ac-424e-a216-350e3c574e31","ios":"levelo://app?vid=810dd2a8-51ac-424e-a216-350e3c574e31"},"vehicle_type_id":"4","last_reported":1731096552,"current_range_meters":8400,"station_id":"ce4bhhp2rcd13ifvqfm0","pricing_plan_id":"cebpf4jnsgd1na2vs0mg"},{"bike_id":"37b18ebd-4aa0-4ca2-bfbb-ac9479701cc7","system_id":"levelo_inurba_marseille","lat":43.2807,"lon":5.39651,"is_reserved":false,"is_disabled":false,"rental_uris":{"android":"levelo://app?vid=37b18ebd-4aa0-4ca2-bfbb-ac9479701cc7","ios":"levelo://app?vid=37b18ebd-4aa0-4ca2-bfbb-ac9479701cc7"},"vehicle_type_id":"4","last_reported":1731096552,"current_range_meters":33600,"station_id":"ce4bho12rcd13ifvqh2g","pricing_plan_id":"cebpf4jnsgd1na2vs0mg"},{"bike_id":"f1ec8a70-660b-4caf-a4e3-10a8fcf375b3","system_id":"levelo_inurba_marseille","lat":43.28343,"lon":5.38105,"is_reserved":false,"is_disabled":false,"rental_uris":{"android":"levelo://app?vid=f1ec8a70-660b-4caf-a4e3-10a8fcf375b3","ios":"levelo://app?vid=f1ec8a70-660b-4caf-a4e3-10a8fcf375b3"},"vehicle_type_id":"4","last_reported":1731096552,"current_range_meters":37600,"station_id":"ce4bh412rcd13ifvqdr0","pricing_plan_id":"cebpf4jnsgd1na2vs0mg"},{"bike_id":"82536cc0-376e-4593-bc1a-7a6291b8b76e","system_id":"levelo_inurba_marseille","lat":43.26941,"lon":5.40243,"is_reserved":false,"is_disabled":false,"rental_uris":{"android":"levelo://app?vid=82536cc0-376e-4593-bc1a-7a6291b8b76e","ios":"levelo://app?vid=82536cc0-376e-4593-bc1a-7a6291b8b76e"},"vehicle_type_id":"4","last_reported":1731096552,"current_range_meters":36400,"station_id":"cjm6bp8fraef2m0cb0m0","pricing_plan_id":"cebpf4jnsgd1na2vs0mg"},{"bike_id":"06bb3e06-6dfc-4c7a-bbfb-aaacb082969f","system_id":"levelo_inurba_marseille","lat":43.25106,"lon":5.40322,"is_reserved":false,"is_disabled":false,"rental_uris":{"android":"levelo://app?vid=06bb3e06-6dfc-4c7a-bbfb-aaacb082969f","ios":"levelo://app?vid=06bb3e06-6dfc-4c7a-bbfb-aaacb082969f"},"vehicle_type_id":"4","last_reported":1731096552,"current_range_meters":36000,"station_id":"ce4bhlh2rcd13ifvqgig","pricing_plan_id":"cebpf4jnsgd1na2vs0mg"},{"bike_id":"68bb9078-c705-4e4c-81de-7ae7c7d86c43","system_id":"levelo_inurba_marseille","lat":43.31886,"lon":5.37968,"is_reserved":false,"is_disabled":false,"rental_uris":{"android":"levelo://app?vid=68bb9078-c705-4e4c-81de-7ae7c7d86c43","ios":"levelo://app?vid=68bb9078-c705-4e4c-81de-7ae7c7d86c43"},"vehicle_type_id":"4","last_reported":1731096552,"current_range_meters":32400,"station_id":"ce4bgth2rcd13ifvqch0","pricing_plan_id":"cebpf4jnsgd1na2vs0mg"},{"bike_id":"d9fecdbf-e004-4862-8635-2f31f0c7cbbe","system_id":"levelo_inurba_marseille","lat":43.29016,"lon":5.3811,"is_reserved":false,"is_disabled":false,"rental_uris":{"android":"levelo://app?vid=d9fecdbf-e004-4862-8635-2f31f0c7cbbe","ios":"levelo://app?vid=d9fecdbf-e004-4862-8635-2f31f0c7cbbe"},"vehicle_type_id":"4","last_reported":1731096552,"current_range_meters":39200,"station_id":"ce4bh4p2rcd13ifvqe1g","pricing_plan_id":"cebpf4jnsgd1na2vs0mg"},{"bike_id":"06565820-d6e6-4755-af4e-cbf74b00bcc1","system_id":"levelo_inurba_marseille","lat":43.27982,"lon":5.41663,"is_reserved":false,"is_disabled":false,"rental_uris":{"android":"levelo://app?vid=06565820-d6e6-4755-af4e-cbf74b00bcc1","ios":"levelo://app?vid=06565820-d6e6-4755-af4e-cbf74b00bcc1"},"vehicle_type_id":"4","last_reported":1731096552,"current_range_meters":38800,"station_id":"ce4bho12rcd13ifvqh1g","pricing_plan_id":"cebpf4jnsgd1na2vs0mg"},{"bike_id":"3f8e9100-8f64-42ec-b328-73d6145177de","system_id":"levelo_inurba_marseille","lat":43.337444,"lon":5.374475,"is_reserved":false,"is_disabled":false,"rental_uris":{"android":"levelo://app?vid=3f8e9100-8f64-42ec-b328-73d6145177de","ios":"levelo://app?vid=3f8e9100-8f64-42ec-b328-73d6145177de"},"vehicle_type_id":"4","last_reported":1731096552,"current_range_meters":20000,"station_id":"","pricing_plan_id":"cebpf4jnsgd1na2vs0mg"},{"bike_id":"80f82b3a-f845-4fcb-8369-8424e6a25244","system_id":"levelo_inurba_marseille","lat":43.27307,"lon":5.39107,"is_reserved":false,"is_disabled":false,"rental_uris":{"android":"levelo://app?vid=80f82b3a-f845-4fcb-8369-8424e6a25244","ios":"levelo://app?vid=80f82b3a-f845-4fcb-8369-8424e6a25244"},"vehicle_type_id":"4","last_reported":1731096552,"current_range_meters":24400,"station_id":"ce4bhgp2rcd13ifvqfe0","pricing_plan_id":"cebpf4jnsgd1na2vs0mg"},{"bike_id":"2b71a9d2-3360-4ca4-8e23-6be6968c51d6","system_id":"levelo_inurba_marseille","lat":43.28,"lon":5.40004,"is_reserved":false,"is_disabled":false,"rental_uris":{"android":"levelo://app?vid=2b71a9d2-3360-4ca4-8e23-6be6968c51d6","ios":"levelo://app?vid=2b71a9d2-3360-4ca4-8e23-6be6968c51d6"},"vehicle_type_id":"4","last_reported":1731096552,"current_range_meters":3600,"station_id":"ce4bho92rcd13ifvqh4g","pricing_plan_id":"cebpf4jnsgd1na2vs0mg"},{"bike_id":"04702635-01a3-4d23-8cf0-96cf13d36152","system_id":"levelo_inurba_marseille","lat":43.28403,"lon":5.3751,"is_reserved":false,"is_disabled":false,"rental_uris":{"android":"levelo://app?vid=04702635-01a3-4d23-8cf0-96cf13d36152","ios":"levelo://app?vid=04702635-01a3-4d23-8cf0-96cf13d36152"},"vehicle_type_id":"4","last_reported":1731096552,"current_range_meters":28000,"station_id":"ce4bh412rcd13ifvqds0","pricing_plan_id":"cebpf4jnsgd1na2vs0mg"},{"bike_id":"c88f1b31-dd3c-4e82-a81a-152198c83c26","system_id":"levelo_inurba_marseille","lat":43.31216,"lon":5.36846,"is_reserved":false,"is_disabled":false,"rental_uris":{"android":"levelo://app?vid=c88f1b31-dd3c-4e82-a81a-152198c83c26","ios":"levelo://app?vid=c88f1b31-dd3c-4e82-a81a-152198c83c26"},"vehicle_type_id":"4","last_reported":1731096552,"current_range_meters":8400,"station_id":"ce4bgl92rcd13ifvqbq0","pricing_plan_id":"cebpf4jnsgd1na2vs0mg"},{"bike_id":"bde45c92-bf8f-4f17-a6a0-94eacd0123ea","system_id":"levelo_inurba_marseille","lat":43.29068,"lon":5.38152,"is_reserved":false,"is_disabled":false,"rental_uris":{"android":"levelo://app?vid=bde45c92-bf8f-4f17-a6a0-94eacd0123ea","ios":"levelo://app?vid=bde45c92-bf8f-4f17-a6a0-94eacd0123ea"},"vehicle_type_id":"4","last_reported":1731096552,"current_range_meters":24800,"station_id":"ce4bh512rcd13ifvqe2g","pricing_plan_id":"cebpf4jnsgd1na2vs0mg"},{"bike_id":"7a61aa54-4124-4dcd-858b-db846d80c8c4","system_id":"levelo_inurba_marseille","lat":43.27617,"lon":5.361,"is_reserved":false,"is_disabled":false,"rental_uris":{"android":"levelo://app?vid=7a61aa54-4124-4dcd-858b-db846d80c8c4","ios":"levelo://app?vid=7a61aa54-4124-4dcd-858b-db846d80c8c4"},"vehicle_type_id":"4","last_reported":1731096552,"current_range_meters":6400,"station_id":"ce4bgj92rcd13ifvqbe0","pricing_plan_id":"cebpf4jnsgd1na2vs0mg"},{"bike_id":"83bf1303-3f70-444d-b4e9-f25331b74ae7","system_id":"levelo_inurba_marseille","lat":43.32048,"lon":5.41546,"is_reserved":false,"is_disabled":false,"rental_uris":{"android":"levelo://app?vid=83bf1303-3f70-444d-b4e9-f25331b74ae7","ios":"levelo://app?vid=83bf1303-3f70-444d-b4e9-f25331b74ae7"},"vehicle_type_id":"4","last_reported":1731096552,"current_range_meters":16400,"station_id":"ce4bhq92rcd13ifvqhkg","pricing_plan_id":"cebpf4jnsgd1na2vs0mg"},{"bike_id":"d764c4c4-f2c0-4051-87f5-8e9eb0720abd","system_id":"levelo_inurba_marseille","lat":43.27996,"lon":5.4,"is_reserved":false,"is_disabled":false,"rental_uris":{"android":"levelo://app?vid=d764c4c4-f2c0-4051-87f5-8e9eb0720abd","ios":"levelo://app?vid=d764c4c4-f2c0-4051-87f5-8e9eb0720abd"},"vehicle_type_id":"4","last_reported":1731096552,"current_range_meters":15200,"station_id":"ce4bho92rcd13ifvqh4g","pricing_plan_id":"cebpf4jnsgd1na2vs0mg"},{"bike_id":"5d746427-2799-445a-b5de-ea557250ec19","system_id":"levelo_inurba_marseille","lat":43.27209,"lon":5.39175,"is_reserved":false,"is_disabled":false,"rental_uris":{"android":"levelo://app?vid=5d746427-2799-445a-b5de-ea557250ec19","ios":"levelo://app?vid=5d746427-2799-445a-b5de-ea557250ec19"},"vehicle_type_id":"4","last_reported":1731096552,"current_range_meters":4800,"station_id":"ce4bhhp2rcd13ifvqfm0","pricing_plan_id":"cebpf4jnsgd1na2vs0mg"},{"bike_id":"b29d39ea-ec1b-4379-af8c-f852303f7c25","system_id":"levelo_inurba_marseille","lat":43.3122,"lon":5.36847,"is_reserved":false,"is_disabled":false,"rental_uris":{"android":"levelo://app?vid=b29d39ea-ec1b-4379-af8c-f852303f7c25","ios":"levelo://app?vid=b29d39ea-ec1b-4379-af8c-f852303f7c25"},"vehicle_type_id":"4","last_reported":1731096552,"current_range_meters":5600,"station_id":"ce4bgl92rcd13ifvqbq0","pricing_plan_id":"cebpf4jnsgd1na2vs0mg"},{"bike_id":"ad6ff796-c433-497f-b32d-d9cf3cdcb14b","system_id":"levelo_inurba_marseille","lat":43.2942,"lon":5.3862,"is_reserved":false,"is_disabled":false,"rental_uris":{"android":"levelo://app?vid=ad6ff796-c433-497f-b32d-d9cf3cdcb14b","ios":"levelo://app?vid=ad6ff796-c433-497f-b32d-d9cf3cdcb14b"},"vehicle_type_id":"4","last_reported":1731096552,"current_range_meters":38000,"station_id":"ce4bh2h2rcd13ifvqdh0","pricing_plan_id":"cebpf4jnsgd1na2vs0mg"},{"bike_id":"1a92279e-1152-4bb1-a030-ac5c06a6a547","system_id":"levelo_inurba_marseille","lat":43.30797,"lon":5.43527,"is_reserved":false,"is_disabled":false,"rental_uris":{"android":"levelo://app?vid=1a92279e-1152-4bb1-a030-ac5c06a6a547","ios":"levelo://app?vid=1a92279e-1152-4bb1-a030-ac5c06a6a547"},"vehicle_type_id":"4","last_reported":1731096552,"current_range_meters":38400,"station_id":"ce4bhph2rcd13ifvqheg","pricing_plan_id":"cebpf4jnsgd1na2vs0mg"},{"bike_id":"f07d0dae-5563-4484-8ea2-c885a4a19beb","system_id":"levelo_inurba_marseille","lat":43.31117,"lon":5.37781,"is_reserved":false,"is_disabled":false,"rental_uris":{"android":"levelo://app?vid=f07d0dae-5563-4484-8ea2-c885a4a19beb","ios":"levelo://app?vid=f07d0dae-5563-4484-8ea2-c885a4a19beb"},"vehicle_type_id":"4","last_reported":1731096552,"current_range_meters":5600,"station_id":"ce4bgt92rcd13ifvqcg0","pricing_plan_id":"cebpf4jnsgd1na2vs0mg"},{"bike_id":"d1a14875-c4c1-42aa-a7c2-8e96cb80e3de","system_id":"levelo_inurba_marseille","lat":43.29297,"lon":5.37184,"is_reserved":false,"is_disabled":false,"rental_uris":{"android":"levelo://app?vid=d1a14875-c4c1-42aa-a7c2-8e96cb80e3de","ios":"levelo://app?vid=d1a14875-c4c1-42aa-a7c2-8e96cb80e3de"},"vehicle_type_id":"4","last_reported":1731096552,"current_range_meters":38800,"station_id":"ce4bgh92rcd13ifvqb40","pricing_plan_id":"cebpf4jnsgd1na2vs0mg"},{"bike_id":"3346f908-de04-43e9-8754-5e6979379c61","system_id":"levelo_inurba_marseille","lat":43.27996,"lon":5.40009,"is_reserved":false,"is_disabled":false,"rental_uris":{"android":"levelo://app?vid=3346f908-de04-43e9-8754-5e6979379c61","ios":"levelo://app?vid=3346f908-de04-43e9-8754-5e6979379c61"},"vehicle_type_id":"4","last_reported":1731096552,"current_range_meters":25200,"station_id":"ce4bho92rcd13ifvqh4g","pricing_plan_id":"cebpf4jnsgd1na2vs0mg"},{"bike_id":"b2ea2d84-8520-4feb-b30b-1ffe3087e1c8","system_id":"levelo_inurba_marseille","lat":43.29252,"lon":5.38423,"is_reserved":false,"is_disabled":false,"rental_uris":{"android":"levelo://app?vid=b2ea2d84-8520-4feb-b30b-1ffe3087e1c8","ios":"levelo://app?vid=b2ea2d84-8520-4feb-b30b-1ffe3087e1c8"},"vehicle_type_id":"4","last_reported":1731096552,"current_range_meters":24000,"station_id":"ce4bh692rcd13ifvqea0","pricing_plan_id":"cebpf4jnsgd1na2vs0mg"},{"bike_id":"bd4013a2-9ae0-4b3e-907b-d02d1afa1138","system_id":"levelo_inurba_marseille","lat":43.2465,"lon":5.38888,"is_reserved":false,"is_disabled":false,"rental_uris":{"android":"levelo://app?vid=bd4013a2-9ae0-4b3e-907b-d02d1afa1138","ios":"levelo://app?vid=bd4013a2-9ae0-4b3e-907b-d02d1afa1138"},"vehicle_type_id":"4","last_reported":1731096552,"current_range_meters":30400,"station_id":"ce4bhg12rcd13ifvqf60","pricing_plan_id":"cebpf4jnsgd1na2vs0mg"},{"bike_id":"b9059161-bc2a-4853-8231-de961bd5f1e7","system_id":"levelo_inurba_marseille","lat":43.33711,"lon":5.39174,"is_reserved":false,"is_disabled":false,"rental_uris":{"android":"levelo://app?vid=b9059161-bc2a-4853-8231-de961bd5f1e7","ios":"levelo://app?vid=b9059161-bc2a-4853-8231-de961bd5f1e7"},"vehicle_type_id":"4","last_reported":1731096552,"current_range_meters":26000,"station_id":"ce4bhr92rcd13ifvqhsg","pricing_plan_id":"cebpf4jnsgd1na2vs0mg"},{"bike_id":"dd966a76-ccc0-4266-9126-0178b34bacf2","system_id":"levelo_inurba_marseille","lat":43.26941,"lon":5.40243,"is_reserved":false,"is_disabled":false,"rental_uris":{"android":"levelo://app?vid=dd966a76-ccc0-4266-9126-0178b34bacf2","ios":"levelo://app?vid=dd966a76-ccc0-4266-9126-0178b34bacf2"},"vehicle_type_id":"4","last_reported":1731096552,"current_range_meters":25200,"station_id":"cjm6bp8fraef2m0cb0m0","pricing_plan_id":"cebpf4jnsgd1na2vs0mg"},{"bike_id":"eed59be7-0021-4779-ae77-47f2c3f2e673","system_id":"levelo_inurba_marseille","lat":43.27318,"lon":5.39089,"is_reserved":false,"is_disabled":false,"rental_uris":{"android":"levelo://app?vid=eed59be7-0021-4779-ae77-47f2c3f2e673","ios":"levelo://app?vid=eed59be7-0021-4779-ae77-47f2c3f2e673"},"vehicle_type_id":"4","last_reported":1731096552,"current_range_meters":28000,"station_id":"ce4bhgp2rcd13ifvqfe0","pricing_plan_id":"cebpf4jnsgd1na2vs0mg"},{"bike_id":"ec342a9d-5c61-4984-a28e-8519e0aa0e08","system_id":"levelo_inurba_marseille","lat":43.270081,"lon":5.40091,"is_reserved":false,"is_disabled":false,"rental_uris":{"android":"levelo://app?vid=ec342a9d-5c61-4984-a28e-8519e0aa0e08","ios":"levelo://app?vid=ec342a9d-5c61-4984-a28e-8519e0aa0e08"},"vehicle_type_id":"4","last_reported":1731096552,"current_range_meters":6000,"station_id":"ce4bhh92rcd13ifvqfi0","pricing_plan_id":"cebpf4jnsgd1na2vs0mg"},{"bike_id":"90849aa7-29be-4f63-a008-efbe269f63de","system_id":"levelo_inurba_marseille","lat":43.29262,"lon":5.38441,"is_reserved":false,"is_disabled":false,"rental_uris":{"android":"levelo://app?vid=90849aa7-29be-4f63-a008-efbe269f63de","ios":"levelo://app?vid=90849aa7-29be-4f63-a008-efbe269f63de"},"vehicle_type_id":"4","last_reported":1731096552,"current_range_meters":14000,"station_id":"ce4bh692rcd13ifvqea0","pricing_plan_id":"cebpf4jnsgd1na2vs0mg"},{"bike_id":"ab2d5df1-6a82-4ee7-ae9d-a6e74a705fb9","system_id":"levelo_inurba_marseille","lat":43.27911,"lon":5.39577,"is_reserved":false,"is_disabled":false,"rental_uris":{"android":"levelo://app?vid=ab2d5df1-6a82-4ee7-ae9d-a6e74a705fb9","ios":"levelo://app?vid=ab2d5df1-6a82-4ee7-ae9d-a6e74a705fb9"},"vehicle_type_id":"4","last_reported":1731096552,"current_range_meters":25600,"station_id":"ce4bhf92rcd13ifvqf40","pricing_plan_id":"cebpf4jnsgd1na2vs0mg"},{"bike_id":"98c4faae-fbde-496d-89d1-20879bd1c17c","system_id":"levelo_inurba_marseille","lat":43.29417,"lon":5.38618,"is_reserved":false,"is_disabled":false,"rental_uris":{"android":"levelo://app?vid=98c4faae-fbde-496d-89d1-20879bd1c17c","ios":"levelo://app?vid=98c4faae-fbde-496d-89d1-20879bd1c17c"},"vehicle_type_id":"4","last_reported":1731096552,"current_range_meters":14400,"station_id":"ce4bh2h2rcd13ifvqdh0","pricing_plan_id":"cebpf4jnsgd1na2vs0mg"},{"bike_id":"e2ca5d94-4139-4ab7-b7cc-47e56d686dcd","system_id":"levelo_inurba_marseille","lat":43.30144,"lon":5.37416,"is_reserved":false,"is_disabled":false,"rental_uris":{"android":"levelo://app?vid=e2ca5d94-4139-4ab7-b7cc-47e56d686dcd","ios":"levelo://app?vid=e2ca5d94-4139-4ab7-b7cc-47e56d686dcd"},"vehicle_type_id":"4","last_reported":1731096552,"current_range_meters":28400,"station_id":"ce4bgs92rcd13ifvqcc0","pricing_plan_id":"cebpf4jnsgd1na2vs0mg"},{"bike_id":"22c2910c-c395-401a-9c60-3a72ab53ce1d","system_id":"levelo_inurba_marseille","lat":43.26548,"lon":5.39502,"is_reserved":false,"is_disabled":false,"rental_uris":{"android":"levelo://app?vid=22c2910c-c395-401a-9c60-3a72ab53ce1d","ios":"levelo://app?vid=22c2910c-c395-401a-9c60-3a72ab53ce1d"},"vehicle_type_id":"4","last_reported":1731096552,"current_range_meters":30800,"station_id":"ce4bhh12rcd13ifvqfg0","pricing_plan_id":"cebpf4jnsgd1na2vs0mg"},{"bike_id":"f4ef053d-e709-4411-bdd9-de1d0f41e46f","system_id":"levelo_inurba_marseille","lat":43.2293,"lon":5.35374,"is_reserved":false,"is_disabled":false,"rental_uris":{"android":"levelo://app?vid=f4ef053d-e709-4411-bdd9-de1d0f41e46f","ios":"levelo://app?vid=f4ef053d-e709-4411-bdd9-de1d0f41e46f"},"vehicle_type_id":"4","last_reported":1731096552,"current_range_meters":39200,"station_id":"cpo3532slgdg3j2ikp40","pricing_plan_id":"cebpf4jnsgd1na2vs0mg"},{"bike_id":"fadedcf9-dfd3-4e59-94d6-79eeeb18d149","system_id":"levelo_inurba_marseille","lat":43.313319,"lon":5.396921,"is_reserved":false,"is_disabled":false,"rental_uris":{"android":"levelo://app?vid=fadedcf9-dfd3-4e59-94d6-79eeeb18d149","ios":"levelo://app?vid=fadedcf9-dfd3-4e59-94d6-79eeeb18d149"},"vehicle_type_id":"4","last_reported":1731096552,"current_range_meters":38400,"station_id":"ce4bhap2rcd13ifvqek0","pricing_plan_id":"cebpf4jnsgd1na2vs0mg"},{"bike_id":"32c2bd90-d3d2-4c4e-9401-f0ea9e3ce881","system_id":"levelo_inurba_marseille","lat":43.29262,"lon":5.3843,"is_reserved":false,"is_disabled":false,"rental_uris":{"android":"levelo://app?vid=32c2bd90-d3d2-4c4e-9401-f0ea9e3ce881","ios":"levelo://app?vid=32c2bd90-d3d2-4c4e-9401-f0ea9e3ce881"},"vehicle_type_id":"4","last_reported":1731096552,"current_range_meters":38800,"station_id":"ce4bh692rcd13ifvqea0","pricing_plan_id":"cebpf4jnsgd1na2vs0mg"},{"bike_id":"80590553-7a60-4301-a5bc-0f28a55be41a","system_id":"levelo_inurba_marseille","lat":43.26801,"lon":5.40258,"is_reserved":false,"is_disabled":false,"rental_uris":{"android":"levelo://app?vid=80590553-7a60-4301-a5bc-0f28a55be41a","ios":"levelo://app?vid=80590553-7a60-4301-a5bc-0f28a55be41a"},"vehicle_type_id":"4","last_reported":1731096552,"current_range_meters":7200,"station_id":"ce501612rcd8frsf0b60","pricing_plan_id":"cebpf4jnsgd1na2vs0mg"},{"bike_id":"982c92fa-5a39-4022-a5c2-2c0c81e43e5c","system_id":"levelo_inurba_marseille","lat":43.26943,"lon":5.40252,"is_reserved":false,"is_disabled":false,"rental_uris":{"android":"levelo://app?vid=982c92fa-5a39-4022-a5c2-2c0c81e43e5c","ios":"levelo://app?vid=982c92fa-5a39-4022-a5c2-2c0c81e43e5c"},"vehicle_type_id":"4","last_reported":1731096552,"current_range_meters":30000,"station_id":"cjm6bp8fraef2m0cb0m0","pricing_plan_id":"cebpf4jnsgd1na2vs0mg"},{"bike_id":"a70c6d78-3874-4d34-9b9b-47715f9749a4","system_id":"levelo_inurba_marseille","lat":43.26333,"lon":5.377389,"is_reserved":false,"is_disabled":false,"rental_uris":{"android":"levelo://app?vid=a70c6d78-3874-4d34-9b9b-47715f9749a4","ios":"levelo://app?vid=a70c6d78-3874-4d34-9b9b-47715f9749a4"},"vehicle_type_id":"4","last_reported":1731096552,"current_range_meters":23200,"station_id":"ce4bgi92rcd13ifvqb90","pricing_plan_id":"cebpf4jnsgd1na2vs0mg"},{"bike_id":"0068481c-09a4-465d-a885-c578d3b25bf9","system_id":"levelo_inurba_marseille","lat":43.29419,"lon":5.38622,"is_reserved":false,"is_disabled":false,"rental_uris":{"android":"levelo://app?vid=0068481c-09a4-465d-a885-c578d3b25bf9","ios":"levelo://app?vid=0068481c-09a4-465d-a885-c578d3b25bf9"},"vehicle_type_id":"4","last_reported":1731096552,"current_range_meters":13600,"station_id":"ce4bh2h2rcd13ifvqdh0","pricing_plan_id":"cebpf4jnsgd1na2vs0mg"},{"bike_id":"d6b5f488-d126-4a27-860c-5f7b4e6dfa13","system_id":"levelo_inurba_marseille","lat":43.27321,"lon":5.39085,"is_reserved":false,"is_disabled":false,"rental_uris":{"android":"levelo://app?vid=d6b5f488-d126-4a27-860c-5f7b4e6dfa13","ios":"levelo://app?vid=d6b5f488-d126-4a27-860c-5f7b4e6dfa13"},"vehicle_type_id":"4","last_reported":1731096552,"current_range_meters":17200,"station_id":"ce4bhgp2rcd13ifvqfe0","pricing_plan_id":"cebpf4jnsgd1na2vs0mg"},{"bike_id":"71bb50a1-6cdb-4a6f-b24c-1cbd7c603ad3","system_id":"levelo_inurba_marseille","lat":43.31421,"lon":5.37405,"is_reserved":false,"is_disabled":false,"rental_uris":{"android":"levelo://app?vid=71bb50a1-6cdb-4a6f-b24c-1cbd7c603ad3","ios":"levelo://app?vid=71bb50a1-6cdb-4a6f-b24c-1cbd7c603ad3"},"vehicle_type_id":"4","last_reported":1731096552,"current_range_meters":32000,"station_id":"","pricing_plan_id":"cebpf4jnsgd1na2vs0mg"},{"bike_id":"b4ad1abe-6669-4317-b6c7-ea7e704ed285","system_id":"levelo_inurba_marseille","lat":43.29583,"lon":5.36733,"is_reserved":false,"is_disabled":false,"rental_uris":{"android":"levelo://app?vid=b4ad1abe-6669-4317-b6c7-ea7e704ed285","ios":"levelo://app?vid=b4ad1abe-6669-4317-b6c7-ea7e704ed285"},"vehicle_type_id":"4","last_reported":1731096552,"current_range_meters":39200,"station_id":"ce4bgph2rcd13ifvqc2g","pricing_plan_id":"cebpf4jnsgd1na2vs0mg"},{"bike_id":"b8fdd341-0697-41ca-82c9-e4253415f4e6","system_id":"levelo_inurba_marseille","lat":43.23055,"lon":5.35495,"is_reserved":false,"is_disabled":false,"rental_uris":{"android":"levelo://app?vid=b8fdd341-0697-41ca-82c9-e4253415f4e6","ios":"levelo://app?vid=b8fdd341-0697-41ca-82c9-e4253415f4e6"},"vehicle_type_id":"4","last_reported":1731096552,"current_range_meters":36000,"station_id":"cpo3342slgdg3j2ifvpg","pricing_plan_id":"cebpf4jnsgd1na2vs0mg"},{"bike_id":"108e794d-7eb9-44ba-a6f3-fa349d9cfa0a","system_id":"levelo_inurba_marseille","lat":43.29268,"lon":5.38436,"is_reserved":false,"is_disabled":false,"rental_uris":{"android":"levelo://app?vid=108e794d-7eb9-44ba-a6f3-fa349d9cfa0a","ios":"levelo://app?vid=108e794d-7eb9-44ba-a6f3-fa349d9cfa0a"},"vehicle_type_id":"4","last_reported":1731096552,"current_range_meters":19200,"station_id":"ce4bh692rcd13ifvqea0","pricing_plan_id":"cebpf4jnsgd1na2vs0mg"},{"bike_id":"8ff5e79b-a318-4cea-90de-983e55b74757","system_id":"levelo_inurba_marseille","lat":43.29049,"lon":5.3591,"is_reserved":false,"is_disabled":false,"rental_uris":{"android":"levelo://app?vid=8ff5e79b-a318-4cea-90de-983e55b74757","ios":"levelo://app?vid=8ff5e79b-a318-4cea-90de-983e55b74757"},"vehicle_type_id":"4","last_reported":1731096552,"current_range_meters":7200,"station_id":"ce4bha92rcd13ifvqeg0","pricing_plan_id":"cebpf4jnsgd1na2vs0mg"},{"bike_id":"dba055a8-65ad-4a26-95af-d855889f0816","system_id":"levelo_inurba_marseille","lat":43.27173,"lon":5.40982,"is_reserved":false,"is_disabled":false,"rental_uris":{"android":"levelo://app?vid=dba055a8-65ad-4a26-95af-d855889f0816","ios":"levelo://app?vid=dba055a8-65ad-4a26-95af-d855889f0816"},"vehicle_type_id":"4","last_reported":1731096552,"current_range_meters":4400,"station_id":"ce4bhl12rcd13ifvqgf0","pricing_plan_id":"cebpf4jnsgd1na2vs0mg"},{"bike_id":"81810b84-aa4f-48ca-b798-5fa024ef24f1","system_id":"levelo_inurba_marseille","lat":43.28951,"lon":5.36397,"is_reserved":false,"is_disabled":false,"rental_uris":{"android":"levelo://app?vid=81810b84-aa4f-48ca-b798-5fa024ef24f1","ios":"levelo://app?vid=81810b84-aa4f-48ca-b798-5fa024ef24f1"},"vehicle_type_id":"4","last_reported":1731096552,"current_range_meters":25600,"station_id":"ce4bhc92rcd13ifvqetg","pricing_plan_id":"cebpf4jnsgd1na2vs0mg"},{"bike_id":"da7f5966-01e2-4cd7-a5cd-68f9a7972199","system_id":"levelo_inurba_marseille","lat":43.2872,"lon":5.36078,"is_reserved":false,"is_disabled":false,"rental_uris":{"android":"levelo://app?vid=da7f5966-01e2-4cd7-a5cd-68f9a7972199","ios":"levelo://app?vid=da7f5966-01e2-4cd7-a5cd-68f9a7972199"},"vehicle_type_id":"4","last_reported":1731096552,"current_range_meters":10800,"station_id":"cki0cbj6b192h4jlfktg","pricing_plan_id":"cebpf4jnsgd1na2vs0mg"},{"bike_id":"42e98bb2-53b9-4fdc-8424-c35c2b61bde7","system_id":"levelo_inurba_marseille","lat":43.28407,"lon":5.37496,"is_reserved":false,"is_disabled":false,"rental_uris":{"android":"levelo://app?vid=42e98bb2-53b9-4fdc-8424-c35c2b61bde7","ios":"levelo://app?vid=42e98bb2-53b9-4fdc-8424-c35c2b61bde7"},"vehicle_type_id":"4","last_reported":1731096552,"current_range_meters":16400,"station_id":"ce4bh412rcd13ifvqds0","pricing_plan_id":"cebpf4jnsgd1na2vs0mg"},{"bike_id":"56e4231f-f624-4093-9390-55bc32a7bdaa","system_id":"levelo_inurba_marseille","lat":43.292694,"lon":5.38435,"is_reserved":false,"is_disabled":false,"rental_uris":{"android":"levelo://app?vid=56e4231f-f624-4093-9390-55bc32a7bdaa","ios":"levelo://app?vid=56e4231f-f624-4093-9390-55bc32a7bdaa"},"vehicle_type_id":"4","last_reported":1731096552,"current_range_meters":7200,"station_id":"ce4bh692rcd13ifvqea0","pricing_plan_id":"cebpf4jnsgd1na2vs0mg"},{"bike_id":"44fbaf17-78eb-4401-9a44-b348747dcdb6","system_id":"levelo_inurba_marseille","lat":43.30879,"lon":5.39638,"is_reserved":false,"is_disabled":false,"rental_uris":{"android":"levelo://app?vid=44fbaf17-78eb-4401-9a44-b348747dcdb6","ios":"levelo://app?vid=44fbaf17-78eb-4401-9a44-b348747dcdb6"},"vehicle_type_id":"4","last_reported":1731096552,"current_range_meters":39200,"station_id":"ce4bh012rcd13ifvqcv0","pricing_plan_id":"cebpf4jnsgd1na2vs0mg"},{"bike_id":"ad1ea731-bbba-4f11-8072-f97e49de7dc0","system_id":"levelo_inurba_marseille","lat":43.28,"lon":5.40013,"is_reserved":false,"is_disabled":false,"rental_uris":{"android":"levelo://app?vid=ad1ea731-bbba-4f11-8072-f97e49de7dc0","ios":"levelo://app?vid=ad1ea731-bbba-4f11-8072-f97e49de7dc0"},"vehicle_type_id":"4","last_reported":1731096552,"current_range_meters":37600,"station_id":"ce4bho92rcd13ifvqh4g","pricing_plan_id":"cebpf4jnsgd1na2vs0mg"},{"bike_id":"077a2c1f-bfcf-40bd-9c90-f4b54cc558c1","system_id":"levelo_inurba_marseille","lat":43.30192,"lon":5.36594,"is_reserved":false,"is_disabled":false,"rental_uris":{"android":"levelo://app?vid=077a2c1f-bfcf-40bd-9c90-f4b54cc558c1","ios":"levelo://app?vid=077a2c1f-bfcf-40bd-9c90-f4b54cc558c1"},"vehicle_type_id":"4","last_reported":1731096552,"current_range_meters":36000,"station_id":"ce4bgrh2rcd13ifvqc8g","pricing_plan_id":"cebpf4jnsgd1na2vs0mg"},{"bike_id":"dbe1ee58-77eb-4a4b-b965-2fa3fdb48b3f","system_id":"levelo_inurba_marseille","lat":43.31282,"lon":5.40169,"is_reserved":false,"is_disabled":false,"rental_uris":{"android":"levelo://app?vid=dbe1ee58-77eb-4a4b-b965-2fa3fdb48b3f","ios":"levelo://app?vid=dbe1ee58-77eb-4a4b-b965-2fa3fdb48b3f"},"vehicle_type_id":"4","last_reported":1731096552,"current_range_meters":27600,"station_id":"ce4bh092rcd13ifvqd30","pricing_plan_id":"cebpf4jnsgd1na2vs0mg"},{"bike_id":"ac1ceaa2-30d9-46ba-979d-5486e08ff315","system_id":"levelo_inurba_marseille","lat":43.3171,"lon":5.43703,"is_reserved":false,"is_disabled":false,"rental_uris":{"android":"levelo://app?vid=ac1ceaa2-30d9-46ba-979d-5486e08ff315","ios":"levelo://app?vid=ac1ceaa2-30d9-46ba-979d-5486e08ff315"},"vehicle_type_id":"4","last_reported":1731096552,"current_range_meters":9200,"station_id":"ce4bhp92rcd13ifvqhcg","pricing_plan_id":"cebpf4jnsgd1na2vs0mg"},{"bike_id":"84734344-4100-498f-90db-13a43f921e51","system_id":"levelo_inurba_marseille","lat":43.29618,"lon":5.37151,"is_reserved":false,"is_disabled":false,"rental_uris":{"android":"levelo://app?vid=84734344-4100-498f-90db-13a43f921e51","ios":"levelo://app?vid=84734344-4100-498f-90db-13a43f921e51"},"vehicle_type_id":"4","last_reported":1731096552,"current_range_meters":28000,"station_id":"ce4bgnh2rcd13ifvqc0g","pricing_plan_id":"cebpf4jnsgd1na2vs0mg"},{"bike_id":"82bcb5cc-eff7-40fa-ae6c-a3c17f56dccf","system_id":"levelo_inurba_marseille","lat":43.31981,"lon":5.38139,"is_reserved":false,"is_disabled":false,"rental_uris":{"android":"levelo://app?vid=82bcb5cc-eff7-40fa-ae6c-a3c17f56dccf","ios":"levelo://app?vid=82bcb5cc-eff7-40fa-ae6c-a3c17f56dccf"},"vehicle_type_id":"4","last_reported":1731096552,"current_range_meters":14000,"station_id":"ce4bhr12rcd13ifvqhpg","pricing_plan_id":"cebpf4jnsgd1na2vs0mg"},{"bike_id":"b8ef9640-9524-4f24-8173-bd17b4f5b7d8","system_id":"levelo_inurba_marseille","lat":43.27317,"lon":5.39083,"is_reserved":false,"is_disabled":false,"rental_uris":{"android":"levelo://app?vid=b8ef9640-9524-4f24-8173-bd17b4f5b7d8","ios":"levelo://app?vid=b8ef9640-9524-4f24-8173-bd17b4f5b7d8"},"vehicle_type_id":"4","last_reported":1731096552,"current_range_meters":35200,"station_id":"ce4bhgp2rcd13ifvqfe0","pricing_plan_id":"cebpf4jnsgd1na2vs0mg"},{"bike_id":"c48e6a42-0730-45d9-8b9d-84308ea8d228","system_id":"levelo_inurba_marseille","lat":43.2694,"lon":5.40238,"is_reserved":false,"is_disabled":false,"rental_uris":{"android":"levelo://app?vid=c48e6a42-0730-45d9-8b9d-84308ea8d228","ios":"levelo://app?vid=c48e6a42-0730-45d9-8b9d-84308ea8d228"},"vehicle_type_id":"4","last_reported":1731096552,"current_range_meters":12400,"station_id":"cjm6bp8fraef2m0cb0m0","pricing_plan_id":"cebpf4jnsgd1na2vs0mg"},{"bike_id":"a2f9b983-c043-42d3-84cc-7e89c4b30e18","system_id":"levelo_inurba_marseille","lat":43.27678,"lon":5.3887,"is_reserved":false,"is_disabled":false,"rental_uris":{"android":"levelo://app?vid=a2f9b983-c043-42d3-84cc-7e89c4b30e18","ios":"levelo://app?vid=a2f9b983-c043-42d3-84cc-7e89c4b30e18"},"vehicle_type_id":"4","last_reported":1731096552,"current_range_meters":36400,"station_id":"ce4bhi12rcd13ifvqfo0","pricing_plan_id":"cebpf4jnsgd1na2vs0mg"},{"bike_id":"bc2d6971-e395-4768-9fc5-d20d0fa99369","system_id":"levelo_inurba_marseille","lat":43.28008,"lon":5.40015,"is_reserved":false,"is_disabled":false,"rental_uris":{"android":"levelo://app?vid=bc2d6971-e395-4768-9fc5-d20d0fa99369","ios":"levelo://app?vid=bc2d6971-e395-4768-9fc5-d20d0fa99369"},"vehicle_type_id":"4","last_reported":1731096552,"current_range_meters":18800,"station_id":"ce4bho92rcd13ifvqh4g","pricing_plan_id":"cebpf4jnsgd1na2vs0mg"},{"bike_id":"4196c03e-69d8-4f99-9423-2897f6861c23","system_id":"levelo_inurba_marseille","lat":43.28102,"lon":5.37837,"is_reserved":false,"is_disabled":false,"rental_uris":{"android":"levelo://app?vid=4196c03e-69d8-4f99-9423-2897f6861c23","ios":"levelo://app?vid=4196c03e-69d8-4f99-9423-2897f6861c23"},"vehicle_type_id":"4","last_reported":1731096552,"current_range_meters":25200,"station_id":"ce4bha12rcd13ifvqee0","pricing_plan_id":"cebpf4jnsgd1na2vs0mg"},{"bike_id":"2a1f2b15-e51a-4a08-958c-9704bd56602b","system_id":"levelo_inurba_marseille","lat":43.26804,"lon":5.4027,"is_reserved":false,"is_disabled":false,"rental_uris":{"android":"levelo://app?vid=2a1f2b15-e51a-4a08-958c-9704bd56602b","ios":"levelo://app?vid=2a1f2b15-e51a-4a08-958c-9704bd56602b"},"vehicle_type_id":"4","last_reported":1731096552,"current_range_meters":8800,"station_id":"ce501612rcd8frsf0b60","pricing_plan_id":"cebpf4jnsgd1na2vs0mg"},{"bike_id":"925c71e7-5f31-4440-9980-b2d3c19ba772","system_id":"levelo_inurba_marseille","lat":43.27316,"lon":5.39071,"is_reserved":false,"is_disabled":false,"rental_uris":{"android":"levelo://app?vid=925c71e7-5f31-4440-9980-b2d3c19ba772","ios":"levelo://app?vid=925c71e7-5f31-4440-9980-b2d3c19ba772"},"vehicle_type_id":"4","last_reported":1731096552,"current_range_meters":7200,"station_id":"ce4bhgp2rcd13ifvqfe0","pricing_plan_id":"cebpf4jnsgd1na2vs0mg"},{"bike_id":"79c31e38-c961-491e-bf26-01c3071ff7ba","system_id":"levelo_inurba_marseille","lat":43.27318,"lon":5.39082,"is_reserved":false,"is_disabled":false,"rental_uris":{"android":"levelo://app?vid=79c31e38-c961-491e-bf26-01c3071ff7ba","ios":"levelo://app?vid=79c31e38-c961-491e-bf26-01c3071ff7ba"},"vehicle_type_id":"4","last_reported":1731096552,"current_range_meters":33200,"station_id":"ce4bhgp2rcd13ifvqfe0","pricing_plan_id":"cebpf4jnsgd1na2vs0mg"},{"bike_id":"d0d7f828-bd04-4608-b04e-888aeb08a5a6","system_id":"levelo_inurba_marseille","lat":43.27063,"lon":5.40249,"is_reserved":false,"is_disabled":false,"rental_uris":{"android":"levelo://app?vid=d0d7f828-bd04-4608-b04e-888aeb08a5a6","ios":"levelo://app?vid=d0d7f828-bd04-4608-b04e-888aeb08a5a6"},"vehicle_type_id":"4","last_reported":1731096552,"current_range_meters":8000,"station_id":"ce4bhk92rcd13ifvqgc0","pricing_plan_id":"cebpf4jnsgd1na2vs0mg"},{"bike_id":"f7a34f65-cbee-4af7-b746-569c2301d457","system_id":"levelo_inurba_marseille","lat":43.30301,"lon":5.36888,"is_reserved":false,"is_disabled":false,"rental_uris":{"android":"levelo://app?vid=f7a34f65-cbee-4af7-b746-569c2301d457","ios":"levelo://app?vid=f7a34f65-cbee-4af7-b746-569c2301d457"},"vehicle_type_id":"4","last_reported":1731096552,"current_range_meters":16400,"station_id":"ce4bgqh2rcd13ifvqc5g","pricing_plan_id":"cebpf4jnsgd1na2vs0mg"},{"bike_id":"fe9bc27c-4f00-454d-a1fc-d675d0e6b387","system_id":"levelo_inurba_marseille","lat":43.26942,"lon":5.40239,"is_reserved":false,"is_disabled":false,"rental_uris":{"android":"levelo://app?vid=fe9bc27c-4f00-454d-a1fc-d675d0e6b387","ios":"levelo://app?vid=fe9bc27c-4f00-454d-a1fc-d675d0e6b387"},"vehicle_type_id":"4","last_reported":1731096552,"current_range_meters":27600,"station_id":"cjm6bp8fraef2m0cb0m0","pricing_plan_id":"cebpf4jnsgd1na2vs0mg"},{"bike_id":"f2b88fdd-2e0b-4b5e-888c-35155555732c","system_id":"levelo_inurba_marseille","lat":43.31983,"lon":5.38136,"is_reserved":false,"is_disabled":false,"rental_uris":{"android":"levelo://app?vid=f2b88fdd-2e0b-4b5e-888c-35155555732c","ios":"levelo://app?vid=f2b88fdd-2e0b-4b5e-888c-35155555732c"},"vehicle_type_id":"4","last_reported":1731096552,"current_range_meters":39200,"station_id":"ce4bhr12rcd13ifvqhpg","pricing_plan_id":"cebpf4jnsgd1na2vs0mg"},{"bike_id":"6620e73e-63eb-4fc6-8f54-cfecf7ecd726","system_id":"levelo_inurba_marseille","lat":43.28002,"lon":5.40006,"is_reserved":false,"is_disabled":false,"rental_uris":{"android":"levelo://app?vid=6620e73e-63eb-4fc6-8f54-cfecf7ecd726","ios":"levelo://app?vid=6620e73e-63eb-4fc6-8f54-cfecf7ecd726"},"vehicle_type_id":"4","last_reported":1731096552,"current_range_meters":8400,"station_id":"ce4bho92rcd13ifvqh4g","pricing_plan_id":"cebpf4jnsgd1na2vs0mg"},{"bike_id":"da13d5cd-964e-4f39-b1f4-c24734caa4d9","system_id":"levelo_inurba_marseille","lat":43.29302,"lon":5.37175,"is_reserved":false,"is_disabled":false,"rental_uris":{"android":"levelo://app?vid=da13d5cd-964e-4f39-b1f4-c24734caa4d9","ios":"levelo://app?vid=da13d5cd-964e-4f39-b1f4-c24734caa4d9"},"vehicle_type_id":"4","last_reported":1731096552,"current_range_meters":14400,"station_id":"ce4bgh92rcd13ifvqb40","pricing_plan_id":"cebpf4jnsgd1na2vs0mg"},{"bike_id":"b9478b1d-79e3-44c9-ae60-496dd5151f62","system_id":"levelo_inurba_marseille","lat":43.29168,"lon":5.37137,"is_reserved":false,"is_disabled":false,"rental_uris":{"android":"levelo://app?vid=b9478b1d-79e3-44c9-ae60-496dd5151f62","ios":"levelo://app?vid=b9478b1d-79e3-44c9-ae60-496dd5151f62"},"vehicle_type_id":"4","last_reported":1731096552,"current_range_meters":38800,"station_id":"ce4bha92rcd13ifvqeh0","pricing_plan_id":"cebpf4jnsgd1na2vs0mg"},{"bike_id":"cb9ddf3f-a92f-49e4-b8e4-77cf2860339e","system_id":"levelo_inurba_marseille","lat":43.29039,"lon":5.39959,"is_reserved":false,"is_disabled":false,"rental_uris":{"android":"levelo://app?vid=cb9ddf3f-a92f-49e4-b8e4-77cf2860339e","ios":"levelo://app?vid=cb9ddf3f-a92f-49e4-b8e4-77cf2860339e"},"vehicle_type_id":"4","last_reported":1731096552,"current_range_meters":2800,"station_id":"ce4bh392rcd13ifvqdm0","pricing_plan_id":"cebpf4jnsgd1na2vs0mg"},{"bike_id":"2d6670b0-58a0-4902-bd78-19105391cbc7","system_id":"levelo_inurba_marseille","lat":43.29223,"lon":5.36061,"is_reserved":false,"is_disabled":false,"rental_uris":{"android":"levelo://app?vid=2d6670b0-58a0-4902-bd78-19105391cbc7","ios":"levelo://app?vid=2d6670b0-58a0-4902-bd78-19105391cbc7"},"vehicle_type_id":"4","last_reported":1731096552,"current_range_meters":20000,"station_id":"ce4bhbh2rcd13ifvqeqg","pricing_plan_id":"cebpf4jnsgd1na2vs0mg"},{"bike_id":"0244cb55-5c6d-481d-8473-12d40bb6d28a","system_id":"levelo_inurba_marseille","lat":43.27571,"lon":5.38404,"is_reserved":false,"is_disabled":false,"rental_uris":{"android":"levelo://app?vid=0244cb55-5c6d-481d-8473-12d40bb6d28a","ios":"levelo://app?vid=0244cb55-5c6d-481d-8473-12d40bb6d28a"},"vehicle_type_id":"4","last_reported":1731096552,"current_range_meters":33600,"station_id":"ce4bhh92rcd13ifvqfi0","pricing_plan_id":"cebpf4jnsgd1na2vs0mg"},{"bike_id":"01f3caa2-e415-40b2-ba0a-f2c7ff0be4ae","system_id":"levelo_inurba_marseille","lat":43.29445,"lon":5.39737,"is_reserved":false,"is_disabled":false,"rental_uris":{"android":"levelo://app?vid=01f3caa2-e415-40b2-ba0a-f2c7ff0be4ae","ios":"levelo://app?vid=01f3caa2-e415-40b2-ba0a-f2c7ff0be4ae"},"vehicle_type_id":"4","last_reported":1731096552,"current_range_meters":13600,"station_id":"ce4bh3h2rcd13ifvqdo0","pricing_plan_id":"cebpf4jnsgd1na2vs0mg"},{"bike_id":"7adb32ad-fa93-48f3-8ff7-95b77f67bd56","system_id":"levelo_inurba_marseille","lat":43.29846,"lon":5.36282,"is_reserved":false,"is_disabled":false,"rental_uris":{"android":"levelo://app?vid=7adb32ad-fa93-48f3-8ff7-95b77f67bd56","ios":"levelo://app?vid=7adb32ad-fa93-48f3-8ff7-95b77f67bd56"},"vehicle_type_id":"4","last_reported":1731096552,"current_range_meters":38800,"station_id":"ce4bgpp2rcd13ifvqc3g","pricing_plan_id":"cebpf4jnsgd1na2vs0mg"},{"bike_id":"89dea935-c016-4547-b4f2-a6dcfc6157cb","system_id":"levelo_inurba_marseille","lat":43.26938,"lon":5.40243,"is_reserved":false,"is_disabled":false,"rental_uris":{"android":"levelo://app?vid=89dea935-c016-4547-b4f2-a6dcfc6157cb","ios":"levelo://app?vid=89dea935-c016-4547-b4f2-a6dcfc6157cb"},"vehicle_type_id":"4","last_reported":1731096552,"current_range_meters":36800,"station_id":"cjm6bp8fraef2m0cb0m0","pricing_plan_id":"cebpf4jnsgd1na2vs0mg"},{"bike_id":"d070148f-8ecc-4c75-8cb1-c8bc85f50390","system_id":"levelo_inurba_marseille","lat":43.33021,"lon":5.39044,"is_reserved":false,"is_disabled":false,"rental_uris":{"android":"levelo://app?vid=d070148f-8ecc-4c75-8cb1-c8bc85f50390","ios":"levelo://app?vid=d070148f-8ecc-4c75-8cb1-c8bc85f50390"},"vehicle_type_id":"4","last_reported":1731096552,"current_range_meters":14000,"station_id":"ce4bhr92rcd13ifvqhrg","pricing_plan_id":"cebpf4jnsgd1na2vs0mg"},{"bike_id":"49802e5d-6e7d-4d65-ade0-af9d690a65b9","system_id":"levelo_inurba_marseille","lat":43.27813,"lon":5.40717,"is_reserved":false,"is_disabled":false,"rental_uris":{"android":"levelo://app?vid=49802e5d-6e7d-4d65-ade0-af9d690a65b9","ios":"levelo://app?vid=49802e5d-6e7d-4d65-ade0-af9d690a65b9"},"vehicle_type_id":"4","last_reported":1731096552,"current_range_meters":22400,"station_id":"ce4bhnh2rcd13ifvqgtg","pricing_plan_id":"cebpf4jnsgd1na2vs0mg"},{"bike_id":"29824cde-4cdc-4355-9b22-a5922a403deb","system_id":"levelo_inurba_marseille","lat":43.337444,"lon":5.374475,"is_reserved":false,"is_disabled":false,"rental_uris":{"android":"levelo://app?vid=29824cde-4cdc-4355-9b22-a5922a403deb","ios":"levelo://app?vid=29824cde-4cdc-4355-9b22-a5922a403deb"},"vehicle_type_id":"4","last_reported":1731096552,"current_range_meters":36800,"station_id":"","pricing_plan_id":"cebpf4jnsgd1na2vs0mg"},{"bike_id":"bd8c2fc7-b0b3-4959-b841-fd9492586770","system_id":"levelo_inurba_marseille","lat":43.2695,"lon":5.40245,"is_reserved":false,"is_disabled":false,"rental_uris":{"android":"levelo://app?vid=bd8c2fc7-b0b3-4959-b841-fd9492586770","ios":"levelo://app?vid=bd8c2fc7-b0b3-4959-b841-fd9492586770"},"vehicle_type_id":"4","last_reported":1731096552,"current_range_meters":28400,"station_id":"cjm6bp8fraef2m0cb0m0","pricing_plan_id":"cebpf4jnsgd1na2vs0mg"},{"bike_id":"136548bd-9b2c-4d98-84ce-36d39467f2b3","system_id":"levelo_inurba_marseille","lat":43.26942,"lon":5.40246,"is_reserved":false,"is_disabled":false,"rental_uris":{"android":"levelo://app?vid=136548bd-9b2c-4d98-84ce-36d39467f2b3","ios":"levelo://app?vid=136548bd-9b2c-4d98-84ce-36d39467f2b3"},"vehicle_type_id":"4","last_reported":1731096552,"current_range_meters":22400,"station_id":"cjm6bp8fraef2m0cb0m0","pricing_plan_id":"cebpf4jnsgd1na2vs0mg"},{"bike_id":"67e17654-368e-4b56-a0c7-552a55a43533","system_id":"levelo_inurba_marseille","lat":43.2756,"lon":5.3841,"is_reserved":false,"is_disabled":false,"rental_uris":{"android":"levelo://app?vid=67e17654-368e-4b56-a0c7-552a55a43533","ios":"levelo://app?vid=67e17654-368e-4b56-a0c7-552a55a43533"},"vehicle_type_id":"4","last_reported":1731096552,"current_range_meters":32000,"station_id":"ce4bhh92rcd13ifvqfi0","pricing_plan_id":"cebpf4jnsgd1na2vs0mg"},{"bike_id":"eccb9bf1-4a0c-4df5-8229-bf46f21c4329","system_id":"levelo_inurba_marseille","lat":43.31713,"lon":5.42395,"is_reserved":false,"is_disabled":false,"rental_uris":{"android":"levelo://app?vid=eccb9bf1-4a0c-4df5-8229-bf46f21c4329","ios":"levelo://app?vid=eccb9bf1-4a0c-4df5-8229-bf46f21c4329"},"vehicle_type_id":"4","last_reported":1731096552,"current_range_meters":36800,"station_id":"ce4bhp92rcd13ifvqhbg","pricing_plan_id":"cebpf4jnsgd1na2vs0mg"},{"bike_id":"ef288286-229d-4b9a-a189-8d61840dcffb","system_id":"levelo_inurba_marseille","lat":43.23189,"lon":5.35548,"is_reserved":false,"is_disabled":false,"rental_uris":{"android":"levelo://app?vid=ef288286-229d-4b9a-a189-8d61840dcffb","ios":"levelo://app?vid=ef288286-229d-4b9a-a189-8d61840dcffb"},"vehicle_type_id":"4","last_reported":1731096552,"current_range_meters":37600,"station_id":"ce4bhu92rcd13ifvqi70","pricing_plan_id":"cebpf4jnsgd1na2vs0mg"},{"bike_id":"92860f3a-6eab-4f7c-b9c8-ec43b76ff206","system_id":"levelo_inurba_marseille","lat":43.23963,"lon":5.36616,"is_reserved":false,"is_disabled":false,"rental_uris":{"android":"levelo://app?vid=92860f3a-6eab-4f7c-b9c8-ec43b76ff206","ios":"levelo://app?vid=92860f3a-6eab-4f7c-b9c8-ec43b76ff206"},"vehicle_type_id":"4","last_reported":1731096552,"current_range_meters":32000,"station_id":"ce4bhi12rcd13ifvqfp0","pricing_plan_id":"cebpf4jnsgd1na2vs0mg"},{"bike_id":"68df6f6b-61ce-494c-870f-eed158722807","system_id":"levelo_inurba_marseille","lat":43.26553,"lon":5.37285,"is_reserved":false,"is_disabled":false,"rental_uris":{"android":"levelo://app?vid=68df6f6b-61ce-494c-870f-eed158722807","ios":"levelo://app?vid=68df6f6b-61ce-494c-870f-eed158722807"},"vehicle_type_id":"4","last_reported":1731096552,"current_range_meters":35200,"station_id":"ce4bhg12rcd13ifvqf70","pricing_plan_id":"cebpf4jnsgd1na2vs0mg"},{"bike_id":"886c5890-2348-46d7-aae9-e41e14c2a41f","system_id":"levelo_inurba_marseille","lat":43.27996,"lon":5.40014,"is_reserved":false,"is_disabled":false,"rental_uris":{"android":"levelo://app?vid=886c5890-2348-46d7-aae9-e41e14c2a41f","ios":"levelo://app?vid=886c5890-2348-46d7-aae9-e41e14c2a41f"},"vehicle_type_id":"4","last_reported":1731096552,"current_range_meters":38000,"station_id":"ce4bho92rcd13ifvqh4g","pricing_plan_id":"cebpf4jnsgd1na2vs0mg"},{"bike_id":"ec2c11b7-eadd-46da-a0b4-6f08cd8a9b45","system_id":"levelo_inurba_marseille","lat":43.2743,"lon":5.394,"is_reserved":false,"is_disabled":false,"rental_uris":{"android":"levelo://app?vid=ec2c11b7-eadd-46da-a0b4-6f08cd8a9b45","ios":"levelo://app?vid=ec2c11b7-eadd-46da-a0b4-6f08cd8a9b45"},"vehicle_type_id":"4","last_reported":1731096552,"current_range_meters":28800,"station_id":"ce4bhdp2rcd13ifvqf20","pricing_plan_id":"cebpf4jnsgd1na2vs0mg"},{"bike_id":"c5ac0297-7c32-4fa8-90a0-78eafcc097af","system_id":"levelo_inurba_marseille","lat":43.30806,"lon":5.40004,"is_reserved":false,"is_disabled":false,"rental_uris":{"android":"levelo://app?vid=c5ac0297-7c32-4fa8-90a0-78eafcc097af","ios":"levelo://app?vid=c5ac0297-7c32-4fa8-90a0-78eafcc097af"},"vehicle_type_id":"4","last_reported":1731096552,"current_range_meters":9600,"station_id":"","pricing_plan_id":"cebpf4jnsgd1na2vs0mg"},{"bike_id":"5c2e91b0-db21-4162-85e8-dbe374504ee6","system_id":"levelo_inurba_marseille","lat":43.27813,"lon":5.40705,"is_reserved":false,"is_disabled":false,"rental_uris":{"android":"levelo://app?vid=5c2e91b0-db21-4162-85e8-dbe374504ee6","ios":"levelo://app?vid=5c2e91b0-db21-4162-85e8-dbe374504ee6"},"vehicle_type_id":"4","last_reported":1731096552,"current_range_meters":39200,"station_id":"ce4bhnh2rcd13ifvqgtg","pricing_plan_id":"cebpf4jnsgd1na2vs0mg"},{"bike_id":"5b5df625-091a-48ae-a114-d616b146cb56","system_id":"levelo_inurba_marseille","lat":43.29837,"lon":5.36267,"is_reserved":false,"is_disabled":false,"rental_uris":{"android":"levelo://app?vid=5b5df625-091a-48ae-a114-d616b146cb56","ios":"levelo://app?vid=5b5df625-091a-48ae-a114-d616b146cb56"},"vehicle_type_id":"4","last_reported":1731096552,"current_range_meters":38400,"station_id":"ce4bgpp2rcd13ifvqc3g","pricing_plan_id":"cebpf4jnsgd1na2vs0mg"},{"bike_id":"c0661686-c2a9-4ced-a1e1-c0ea9648698c","system_id":"levelo_inurba_marseille","lat":43.31278,"lon":5.40174,"is_reserved":false,"is_disabled":false,"rental_uris":{"android":"levelo://app?vid=c0661686-c2a9-4ced-a1e1-c0ea9648698c","ios":"levelo://app?vid=c0661686-c2a9-4ced-a1e1-c0ea9648698c"},"vehicle_type_id":"4","last_reported":1731096552,"current_range_meters":38000,"station_id":"ce4bh092rcd13ifvqd30","pricing_plan_id":"cebpf4jnsgd1na2vs0mg"},{"bike_id":"37cbea81-cd52-4d51-b897-93a27b07082a","system_id":"levelo_inurba_marseille","lat":43.29528,"lon":5.38538,"is_reserved":false,"is_disabled":false,"rental_uris":{"android":"levelo://app?vid=37cbea81-cd52-4d51-b897-93a27b07082a","ios":"levelo://app?vid=37cbea81-cd52-4d51-b897-93a27b07082a"},"vehicle_type_id":"4","last_reported":1731096552,"current_range_meters":26800,"station_id":"ce4bgih2rcd13ifvqba0","pricing_plan_id":"cebpf4jnsgd1na2vs0mg"},{"bike_id":"fdd15750-5113-435c-81dc-aa8b468c48eb","system_id":"levelo_inurba_marseille","lat":43.28153,"lon":5.42641,"is_reserved":false,"is_disabled":false,"rental_uris":{"android":"levelo://app?vid=fdd15750-5113-435c-81dc-aa8b468c48eb","ios":"levelo://app?vid=fdd15750-5113-435c-81dc-aa8b468c48eb"},"vehicle_type_id":"4","last_reported":1731096552,"current_range_meters":16800,"station_id":"ce4bhnh2rcd13ifvqgug","pricing_plan_id":"cebpf4jnsgd1na2vs0mg"},{"bike_id":"c0b0244e-d43e-46aa-a1c9-86c34fd228aa","system_id":"levelo_inurba_marseille","lat":43.31488,"lon":5.373142,"is_reserved":false,"is_disabled":false,"rental_uris":{"android":"levelo://app?vid=c0b0244e-d43e-46aa-a1c9-86c34fd228aa","ios":"levelo://app?vid=c0b0244e-d43e-46aa-a1c9-86c34fd228aa"},"vehicle_type_id":"4","last_reported":1731096552,"current_range_meters":37600,"station_id":"ce4bgt12rcd13ifvqcd0","pricing_plan_id":"cebpf4jnsgd1na2vs0mg"},{"bike_id":"1d9634b7-92f8-42dc-b38d-c9b269308e00","system_id":"levelo_inurba_marseille","lat":43.28001,"lon":5.40001,"is_reserved":false,"is_disabled":false,"rental_uris":{"android":"levelo://app?vid=1d9634b7-92f8-42dc-b38d-c9b269308e00","ios":"levelo://app?vid=1d9634b7-92f8-42dc-b38d-c9b269308e00"},"vehicle_type_id":"4","last_reported":1731096552,"current_range_meters":34800,"station_id":"ce4bho92rcd13ifvqh4g","pricing_plan_id":"cebpf4jnsgd1na2vs0mg"},{"bike_id":"8faa22dc-5f3c-4af6-b84b-f554e09d6313","system_id":"levelo_inurba_marseille","lat":43.337444,"lon":5.374475,"is_reserved":false,"is_disabled":false,"rental_uris":{"android":"levelo://app?vid=8faa22dc-5f3c-4af6-b84b-f554e09d6313","ios":"levelo://app?vid=8faa22dc-5f3c-4af6-b84b-f554e09d6313"},"vehicle_type_id":"4","last_reported":1731096552,"current_range_meters":36400,"station_id":"","pricing_plan_id":"cebpf4jnsgd1na2vs0mg"},{"bike_id":"c5eb6fd9-48e9-46e5-82ae-a044f97572e4","system_id":"levelo_inurba_marseille","lat":43.28932,"lon":5.36649,"is_reserved":false,"is_disabled":false,"rental_uris":{"android":"levelo://app?vid=c5eb6fd9-48e9-46e5-82ae-a044f97572e4","ios":"levelo://app?vid=c5eb6fd9-48e9-46e5-82ae-a044f97572e4"},"vehicle_type_id":"4","last_reported":1731096552,"current_range_meters":35600,"station_id":"ce4bhap2rcd13ifvqek0","pricing_plan_id":"cebpf4jnsgd1na2vs0mg"},{"bike_id":"61892a9e-576b-4a39-a5c5-aa7b307c3d49","system_id":"levelo_inurba_marseille","lat":43.27997,"lon":5.39999,"is_reserved":false,"is_disabled":false,"rental_uris":{"android":"levelo://app?vid=61892a9e-576b-4a39-a5c5-aa7b307c3d49","ios":"levelo://app?vid=61892a9e-576b-4a39-a5c5-aa7b307c3d49"},"vehicle_type_id":"4","last_reported":1731096552,"current_range_meters":18800,"station_id":"ce4bho92rcd13ifvqh4g","pricing_plan_id":"cebpf4jnsgd1na2vs0mg"},{"bike_id":"ca24a55b-6170-4d7b-9cb2-9b51ff03f68f","system_id":"levelo_inurba_marseille","lat":43.26933,"lon":5.38919,"is_reserved":false,"is_disabled":false,"rental_uris":{"android":"levelo://app?vid=ca24a55b-6170-4d7b-9cb2-9b51ff03f68f","ios":"levelo://app?vid=ca24a55b-6170-4d7b-9cb2-9b51ff03f68f"},"vehicle_type_id":"4","last_reported":1731096552,"current_range_meters":38000,"station_id":"ce4bhhh2rcd13ifvqfl0","pricing_plan_id":"cebpf4jnsgd1na2vs0mg"},{"bike_id":"c7a601e3-837f-43df-885f-82aca8c8aba7","system_id":"levelo_inurba_marseille","lat":43.29445,"lon":5.38456,"is_reserved":false,"is_disabled":false,"rental_uris":{"android":"levelo://app?vid=c7a601e3-837f-43df-885f-82aca8c8aba7","ios":"levelo://app?vid=c7a601e3-837f-43df-885f-82aca8c8aba7"},"vehicle_type_id":"4","last_reported":1731096552,"current_range_meters":16000,"station_id":"","pricing_plan_id":"cebpf4jnsgd1na2vs0mg"},{"bike_id":"804d1eeb-66c6-4c53-84af-991639b68540","system_id":"levelo_inurba_marseille","lat":43.29529,"lon":5.38546,"is_reserved":false,"is_disabled":false,"rental_uris":{"android":"levelo://app?vid=804d1eeb-66c6-4c53-84af-991639b68540","ios":"levelo://app?vid=804d1eeb-66c6-4c53-84af-991639b68540"},"vehicle_type_id":"4","last_reported":1731096552,"current_range_meters":37600,"station_id":"ce4bgih2rcd13ifvqba0","pricing_plan_id":"cebpf4jnsgd1na2vs0mg"},{"bike_id":"dee76a84-a568-43ea-9d78-a3ea36150b1b","system_id":"levelo_inurba_marseille","lat":43.2952,"lon":5.38538,"is_reserved":false,"is_disabled":false,"rental_uris":{"android":"levelo://app?vid=dee76a84-a568-43ea-9d78-a3ea36150b1b","ios":"levelo://app?vid=dee76a84-a568-43ea-9d78-a3ea36150b1b"},"vehicle_type_id":"4","last_reported":1731096552,"current_range_meters":32400,"station_id":"ce4bgih2rcd13ifvqba0","pricing_plan_id":"cebpf4jnsgd1na2vs0mg"},{"bike_id":"51c9ec69-0aca-4a87-9653-500df8e21edb","system_id":"levelo_inurba_marseille","lat":43.32291,"lon":5.38262,"is_reserved":false,"is_disabled":false,"rental_uris":{"android":"levelo://app?vid=51c9ec69-0aca-4a87-9653-500df8e21edb","ios":"levelo://app?vid=51c9ec69-0aca-4a87-9653-500df8e21edb"},"vehicle_type_id":"4","last_reported":1731096552,"current_range_meters":32800,"station_id":"ce4bhr12rcd13ifvqhqg","pricing_plan_id":"cebpf4jnsgd1na2vs0mg"},{"bike_id":"f71f3d24-e3fa-489a-bd82-3a7b3caecc0b","system_id":"levelo_inurba_marseille","lat":43.312027,"lon":5.36853,"is_reserved":false,"is_disabled":false,"rental_uris":{"android":"levelo://app?vid=f71f3d24-e3fa-489a-bd82-3a7b3caecc0b","ios":"levelo://app?vid=f71f3d24-e3fa-489a-bd82-3a7b3caecc0b"},"vehicle_type_id":"4","last_reported":1731096552,"current_range_meters":37600,"station_id":"ce4bgl92rcd13ifvqbq0","pricing_plan_id":"cebpf4jnsgd1na2vs0mg"},{"bike_id":"7febb05c-0483-42a3-800b-b67ed7a76e76","system_id":"levelo_inurba_marseille","lat":43.31219,"lon":5.36861,"is_reserved":false,"is_disabled":false,"rental_uris":{"android":"levelo://app?vid=7febb05c-0483-42a3-800b-b67ed7a76e76","ios":"levelo://app?vid=7febb05c-0483-42a3-800b-b67ed7a76e76"},"vehicle_type_id":"4","last_reported":1731096552,"current_range_meters":6800,"station_id":"ce4bgl92rcd13ifvqbq0","pricing_plan_id":"cebpf4jnsgd1na2vs0mg"},{"bike_id":"8ad082a7-2522-46bf-9e24-e1338cc76b94","system_id":"levelo_inurba_marseille","lat":43.28696,"lon":5.37385,"is_reserved":false,"is_disabled":false,"rental_uris":{"android":"levelo://app?vid=8ad082a7-2522-46bf-9e24-e1338cc76b94","ios":"levelo://app?vid=8ad082a7-2522-46bf-9e24-e1338cc76b94"},"vehicle_type_id":"4","last_reported":1731096552,"current_range_meters":17600,"station_id":"ce4bh3p2rcd13ifvqdq0","pricing_plan_id":"cebpf4jnsgd1na2vs0mg"},{"bike_id":"174b8d7c-6848-4016-b24b-870b68ed4eb7","system_id":"levelo_inurba_marseille","lat":43.28642,"lon":5.39306,"is_reserved":false,"is_disabled":false,"rental_uris":{"android":"levelo://app?vid=174b8d7c-6848-4016-b24b-870b68ed4eb7","ios":"levelo://app?vid=174b8d7c-6848-4016-b24b-870b68ed4eb7"},"vehicle_type_id":"4","last_reported":1731096552,"current_range_meters":33200,"station_id":"ce4bh292rcd13ifvqdg0","pricing_plan_id":"cebpf4jnsgd1na2vs0mg"},{"bike_id":"16a8dee7-4bf6-4c5e-af34-c49906bd0ac3","system_id":"levelo_inurba_marseille","lat":43.25114,"lon":5.40314,"is_reserved":false,"is_disabled":false,"rental_uris":{"android":"levelo://app?vid=16a8dee7-4bf6-4c5e-af34-c49906bd0ac3","ios":"levelo://app?vid=16a8dee7-4bf6-4c5e-af34-c49906bd0ac3"},"vehicle_type_id":"4","last_reported":1731096552,"current_range_meters":3200,"station_id":"ce4bhlh2rcd13ifvqgig","pricing_plan_id":"cebpf4jnsgd1na2vs0mg"},{"bike_id":"e21f7810-51f2-470c-be96-cee661a17dba","system_id":"levelo_inurba_marseille","lat":43.29413,"lon":5.38621,"is_reserved":false,"is_disabled":false,"rental_uris":{"android":"levelo://app?vid=e21f7810-51f2-470c-be96-cee661a17dba","ios":"levelo://app?vid=e21f7810-51f2-470c-be96-cee661a17dba"},"vehicle_type_id":"4","last_reported":1731096552,"current_range_meters":6400,"station_id":"ce4bh2h2rcd13ifvqdh0","pricing_plan_id":"cebpf4jnsgd1na2vs0mg"},{"bike_id":"6b2aa77e-fcc3-4423-8069-024d8720ad99","system_id":"levelo_inurba_marseille","lat":43.29841,"lon":5.36267,"is_reserved":false,"is_disabled":false,"rental_uris":{"android":"levelo://app?vid=6b2aa77e-fcc3-4423-8069-024d8720ad99","ios":"levelo://app?vid=6b2aa77e-fcc3-4423-8069-024d8720ad99"},"vehicle_type_id":"4","last_reported":1731096552,"current_range_meters":36800,"station_id":"ce4bgpp2rcd13ifvqc3g","pricing_plan_id":"cebpf4jnsgd1na2vs0mg"},{"bike_id":"8b792342-90e2-45c5-8153-6444b1c3d7cd","system_id":"levelo_inurba_marseille","lat":43.29527,"lon":5.3854,"is_reserved":false,"is_disabled":false,"rental_uris":{"android":"levelo://app?vid=8b792342-90e2-45c5-8153-6444b1c3d7cd","ios":"levelo://app?vid=8b792342-90e2-45c5-8153-6444b1c3d7cd"},"vehicle_type_id":"4","last_reported":1731096552,"current_range_meters":38800,"station_id":"ce4bgih2rcd13ifvqba0","pricing_plan_id":"cebpf4jnsgd1na2vs0mg"},{"bike_id":"2adcf9ea-9ed3-4dc8-91cc-7f8548a1a0ce","system_id":"levelo_inurba_marseille","lat":43.29173,"lon":5.3714,"is_reserved":false,"is_disabled":false,"rental_uris":{"android":"levelo://app?vid=2adcf9ea-9ed3-4dc8-91cc-7f8548a1a0ce","ios":"levelo://app?vid=2adcf9ea-9ed3-4dc8-91cc-7f8548a1a0ce"},"vehicle_type_id":"4","last_reported":1731096552,"current_range_meters":39200,"station_id":"ce4bha92rcd13ifvqeh0","pricing_plan_id":"cebpf4jnsgd1na2vs0mg"},{"bike_id":"d6fdae69-642e-4d84-a8fd-edeb75ed0ef4","system_id":"levelo_inurba_marseille","lat":43.22932,"lon":5.35376,"is_reserved":false,"is_disabled":false,"rental_uris":{"android":"levelo://app?vid=d6fdae69-642e-4d84-a8fd-edeb75ed0ef4","ios":"levelo://app?vid=d6fdae69-642e-4d84-a8fd-edeb75ed0ef4"},"vehicle_type_id":"4","last_reported":1731096552,"current_range_meters":39200,"station_id":"cpo3532slgdg3j2ikp40","pricing_plan_id":"cebpf4jnsgd1na2vs0mg"},{"bike_id":"be5dfcaf-d6d6-4b2e-b7ea-50933cc1096c","system_id":"levelo_inurba_marseille","lat":43.28855,"lon":5.35847,"is_reserved":false,"is_disabled":false,"rental_uris":{"android":"levelo://app?vid=be5dfcaf-d6d6-4b2e-b7ea-50933cc1096c","ios":"levelo://app?vid=be5dfcaf-d6d6-4b2e-b7ea-50933cc1096c"},"vehicle_type_id":"4","last_reported":1731096552,"current_range_meters":38800,"station_id":"ce4bhb12rcd13ifvqem0","pricing_plan_id":"cebpf4jnsgd1na2vs0mg"},{"bike_id":"ca94bb18-769f-461f-afd8-9404116dbcc5","system_id":"levelo_inurba_marseille","lat":43.2796,"lon":5.38727,"is_reserved":false,"is_disabled":false,"rental_uris":{"android":"levelo://app?vid=ca94bb18-769f-461f-afd8-9404116dbcc5","ios":"levelo://app?vid=ca94bb18-769f-461f-afd8-9404116dbcc5"},"vehicle_type_id":"4","last_reported":1731096552,"current_range_meters":6400,"station_id":"ce4bhg12rcd13ifvqf80","pricing_plan_id":"cebpf4jnsgd1na2vs0mg"},{"bike_id":"86d64521-d332-4842-b4fb-5fa4820d8c81","system_id":"levelo_inurba_marseille","lat":43.337444,"lon":5.374475,"is_reserved":false,"is_disabled":false,"rental_uris":{"android":"levelo://app?vid=86d64521-d332-4842-b4fb-5fa4820d8c81","ios":"levelo://app?vid=86d64521-d332-4842-b4fb-5fa4820d8c81"},"vehicle_type_id":"4","last_reported":1731096552,"current_range_meters":36400,"station_id":"","pricing_plan_id":"cebpf4jnsgd1na2vs0mg"},{"bike_id":"26921074-199e-46e5-97dc-e603c0be2cf9","system_id":"levelo_inurba_marseille","lat":43.312097,"lon":5.368597,"is_reserved":false,"is_disabled":false,"rental_uris":{"android":"levelo://app?vid=26921074-199e-46e5-97dc-e603c0be2cf9","ios":"levelo://app?vid=26921074-199e-46e5-97dc-e603c0be2cf9"},"vehicle_type_id":"4","last_reported":1731096552,"current_range_meters":10800,"station_id":"ce4bgrp2rcd13ifvqc9g","pricing_plan_id":"cebpf4jnsgd1na2vs0mg"},{"bike_id":"e60eb568-be45-4840-9fb5-e8c23b1c67b0","system_id":"levelo_inurba_marseille","lat":43.26942,"lon":5.40236,"is_reserved":false,"is_disabled":false,"rental_uris":{"android":"levelo://app?vid=e60eb568-be45-4840-9fb5-e8c23b1c67b0","ios":"levelo://app?vid=e60eb568-be45-4840-9fb5-e8c23b1c67b0"},"vehicle_type_id":"4","last_reported":1731096552,"current_range_meters":19600,"station_id":"cjm6bp8fraef2m0cb0m0","pricing_plan_id":"cebpf4jnsgd1na2vs0mg"},{"bike_id":"561dcda3-b315-468a-84a8-7bb4d296bc0c","system_id":"levelo_inurba_marseille","lat":43.29583,"lon":5.36745,"is_reserved":false,"is_disabled":false,"rental_uris":{"android":"levelo://app?vid=561dcda3-b315-468a-84a8-7bb4d296bc0c","ios":"levelo://app?vid=561dcda3-b315-468a-84a8-7bb4d296bc0c"},"vehicle_type_id":"4","last_reported":1731096552,"current_range_meters":14400,"station_id":"ce4bgph2rcd13ifvqc2g","pricing_plan_id":"cebpf4jnsgd1na2vs0mg"},{"bike_id":"448d3bf9-78cb-439a-a23b-0e48f1b89013","system_id":"levelo_inurba_marseille","lat":43.32366,"lon":5.3889,"is_reserved":false,"is_disabled":false,"rental_uris":{"android":"levelo://app?vid=448d3bf9-78cb-439a-a23b-0e48f1b89013","ios":"levelo://app?vid=448d3bf9-78cb-439a-a23b-0e48f1b89013"},"vehicle_type_id":"4","last_reported":1731096552,"current_range_meters":15200,"station_id":"ce4bhqp2rcd13ifvqhog","pricing_plan_id":"cebpf4jnsgd1na2vs0mg"},{"bike_id":"faa1d2a0-e221-4776-8f84-0d8a8abc02c2","system_id":"levelo_inurba_marseille","lat":43.29896,"lon":5.43669,"is_reserved":false,"is_disabled":false,"rental_uris":{"android":"levelo://app?vid=faa1d2a0-e221-4776-8f84-0d8a8abc02c2","ios":"levelo://app?vid=faa1d2a0-e221-4776-8f84-0d8a8abc02c2"},"vehicle_type_id":"4","last_reported":1731096552,"current_range_meters":8000,"station_id":"ce4bhpp2rcd13ifvqhfg","pricing_plan_id":"cebpf4jnsgd1na2vs0mg"},{"bike_id":"8223f247-c531-4644-9539-f8becba52cfc","system_id":"levelo_inurba_marseille","lat":43.27204,"lon":5.39179,"is_reserved":false,"is_disabled":false,"rental_uris":{"android":"levelo://app?vid=8223f247-c531-4644-9539-f8becba52cfc","ios":"levelo://app?vid=8223f247-c531-4644-9539-f8becba52cfc"},"vehicle_type_id":"4","last_reported":1731096552,"current_range_meters":37600,"station_id":"ce4bhhp2rcd13ifvqfm0","pricing_plan_id":"cebpf4jnsgd1na2vs0mg"},{"bike_id":"ade777ad-ef0d-4b58-aaa7-ba1df982f0a4","system_id":"levelo_inurba_marseille","lat":43.301819,"lon":5.366029,"is_reserved":false,"is_disabled":false,"rental_uris":{"android":"levelo://app?vid=ade777ad-ef0d-4b58-aaa7-ba1df982f0a4","ios":"levelo://app?vid=ade777ad-ef0d-4b58-aaa7-ba1df982f0a4"},"vehicle_type_id":"4","last_reported":1731096552,"current_range_meters":11200,"station_id":"ce4bgrh2rcd13ifvqc8g","pricing_plan_id":"cebpf4jnsgd1na2vs0mg"},{"bike_id":"77f8fb8e-be1a-4fbe-ac49-6a6d9bdb23b2","system_id":"levelo_inurba_marseille","lat":43.3019,"lon":5.36589,"is_reserved":false,"is_disabled":false,"rental_uris":{"android":"levelo://app?vid=77f8fb8e-be1a-4fbe-ac49-6a6d9bdb23b2","ios":"levelo://app?vid=77f8fb8e-be1a-4fbe-ac49-6a6d9bdb23b2"},"vehicle_type_id":"4","last_reported":1731096552,"current_range_meters":23200,"station_id":"ce4bgrh2rcd13ifvqc8g","pricing_plan_id":"cebpf4jnsgd1na2vs0mg"},{"bike_id":"916c364f-ca06-48b9-b902-016dec24a2fe","system_id":"levelo_inurba_marseille","lat":43.28344,"lon":5.38111,"is_reserved":false,"is_disabled":false,"rental_uris":{"android":"levelo://app?vid=916c364f-ca06-48b9-b902-016dec24a2fe","ios":"levelo://app?vid=916c364f-ca06-48b9-b902-016dec24a2fe"},"vehicle_type_id":"4","last_reported":1731096552,"current_range_meters":8000,"station_id":"ce4bh412rcd13ifvqdr0","pricing_plan_id":"cebpf4jnsgd1na2vs0mg"},{"bike_id":"a76fb4ba-d619-4af9-a5e1-b5bcde5649e4","system_id":"levelo_inurba_marseille","lat":43.29796,"lon":5.38086,"is_reserved":false,"is_disabled":false,"rental_uris":{"android":"levelo://app?vid=a76fb4ba-d619-4af9-a5e1-b5bcde5649e4","ios":"levelo://app?vid=a76fb4ba-d619-4af9-a5e1-b5bcde5649e4"},"vehicle_type_id":"4","last_reported":1731096552,"current_range_meters":30000,"station_id":"ce4bgip2rcd13ifvqbb0","pricing_plan_id":"cebpf4jnsgd1na2vs0mg"},{"bike_id":"d0426f5c-c552-4520-9d45-ccf437352948","system_id":"levelo_inurba_marseille","lat":43.29964,"lon":5.3849,"is_reserved":false,"is_disabled":false,"rental_uris":{"android":"levelo://app?vid=d0426f5c-c552-4520-9d45-ccf437352948","ios":"levelo://app?vid=d0426f5c-c552-4520-9d45-ccf437352948"},"vehicle_type_id":"4","last_reported":1731096552,"current_range_meters":34000,"station_id":"ce4bgj92rcd13ifvqbd0","pricing_plan_id":"cebpf4jnsgd1na2vs0mg"},{"bike_id":"16ce690f-3450-439f-af9b-434168d12034","system_id":"levelo_inurba_marseille","lat":43.3013,"lon":5.39854,"is_reserved":false,"is_disabled":false,"rental_uris":{"android":"levelo://app?vid=16ce690f-3450-439f-af9b-434168d12034","ios":"levelo://app?vid=16ce690f-3450-439f-af9b-434168d12034"},"vehicle_type_id":"4","last_reported":1731096552,"current_range_meters":27600,"station_id":"ce4bh0h2rcd13ifvqd40","pricing_plan_id":"cebpf4jnsgd1na2vs0mg"},{"bike_id":"9bb8c5d7-cad2-430b-8ef0-c08b020acb0c","system_id":"levelo_inurba_marseille","lat":43.26793,"lon":5.39411,"is_reserved":false,"is_disabled":false,"rental_uris":{"android":"levelo://app?vid=9bb8c5d7-cad2-430b-8ef0-c08b020acb0c","ios":"levelo://app?vid=9bb8c5d7-cad2-430b-8ef0-c08b020acb0c"},"vehicle_type_id":"4","last_reported":1731096552,"current_range_meters":33200,"station_id":"ce4bhh12rcd13ifvqfg0","pricing_plan_id":"cebpf4jnsgd1na2vs0mg"},{"bike_id":"a0d9d5ae-de17-4341-bed9-edfa4e4e8139","system_id":"levelo_inurba_marseille","lat":43.30446,"lon":5.36628,"is_reserved":false,"is_disabled":false,"rental_uris":{"android":"levelo://app?vid=a0d9d5ae-de17-4341-bed9-edfa4e4e8139","ios":"levelo://app?vid=a0d9d5ae-de17-4341-bed9-edfa4e4e8139"},"vehicle_type_id":"4","last_reported":1731096552,"current_range_meters":6400,"station_id":"","pricing_plan_id":"cebpf4jnsgd1na2vs0mg"},{"bike_id":"240fac95-469b-4ec1-a905-bc2e3ab6eab7","system_id":"levelo_inurba_marseille","lat":43.24804,"lon":5.37457,"is_reserved":false,"is_disabled":false,"rental_uris":{"android":"levelo://app?vid=240fac95-469b-4ec1-a905-bc2e3ab6eab7","ios":"levelo://app?vid=240fac95-469b-4ec1-a905-bc2e3ab6eab7"},"vehicle_type_id":"4","last_reported":1731096552,"current_range_meters":38800,"station_id":"ce4bhgh2rcd13ifvqfb0","pricing_plan_id":"cebpf4jnsgd1na2vs0mg"},{"bike_id":"389ff5b7-2624-4e46-b1ea-8da9f4657d80","system_id":"levelo_inurba_marseille","lat":43.29084,"lon":5.37209,"is_reserved":false,"is_disabled":false,"rental_uris":{"android":"levelo://app?vid=389ff5b7-2624-4e46-b1ea-8da9f4657d80","ios":"levelo://app?vid=389ff5b7-2624-4e46-b1ea-8da9f4657d80"},"vehicle_type_id":"4","last_reported":1731096552,"current_range_meters":20000,"station_id":"ce4bhbp2rcd13ifvqerg","pricing_plan_id":"cebpf4jnsgd1na2vs0mg"},{"bike_id":"a69400a5-a810-4ee2-929b-27ab1cc2faf2","system_id":"levelo_inurba_marseille","lat":43.29034,"lon":5.38644,"is_reserved":false,"is_disabled":false,"rental_uris":{"android":"levelo://app?vid=a69400a5-a810-4ee2-929b-27ab1cc2faf2","ios":"levelo://app?vid=a69400a5-a810-4ee2-929b-27ab1cc2faf2"},"vehicle_type_id":"4","last_reported":1731096552,"current_range_meters":32800,"station_id":"ce4bh4p2rcd13ifvqe0g","pricing_plan_id":"cebpf4jnsgd1na2vs0mg"},{"bike_id":"99e03d11-763b-4e9c-ba9a-0c9a2185b360","system_id":"levelo_inurba_marseille","lat":43.32476,"lon":5.36565,"is_reserved":false,"is_disabled":false,"rental_uris":{"android":"levelo://app?vid=99e03d11-763b-4e9c-ba9a-0c9a2185b360","ios":"levelo://app?vid=99e03d11-763b-4e9c-ba9a-0c9a2185b360"},"vehicle_type_id":"4","last_reported":1731096552,"current_range_meters":35200,"station_id":"ce4bhs12rcd13ifvqhvg","pricing_plan_id":"cebpf4jnsgd1na2vs0mg"},{"bike_id":"77579d8b-19be-49f1-81b8-797c693d2109","system_id":"levelo_inurba_marseille","lat":43.27998,"lon":5.40012,"is_reserved":false,"is_disabled":false,"rental_uris":{"android":"levelo://app?vid=77579d8b-19be-49f1-81b8-797c693d2109","ios":"levelo://app?vid=77579d8b-19be-49f1-81b8-797c693d2109"},"vehicle_type_id":"4","last_reported":1731096552,"current_range_meters":6800,"station_id":"ce4bho92rcd13ifvqh4g","pricing_plan_id":"cebpf4jnsgd1na2vs0mg"},{"bike_id":"00c1e91d-02b7-443f-8540-5319d38d7c6e","system_id":"levelo_inurba_marseille","lat":43.3009,"lon":5.39069,"is_reserved":false,"is_disabled":false,"rental_uris":{"android":"levelo://app?vid=00c1e91d-02b7-443f-8540-5319d38d7c6e","ios":"levelo://app?vid=00c1e91d-02b7-443f-8540-5319d38d7c6e"},"vehicle_type_id":"4","last_reported":1731096552,"current_range_meters":19600,"station_id":"ce4bh192rcd13ifvqdb0","pricing_plan_id":"cebpf4jnsgd1na2vs0mg"},{"bike_id":"9948fe99-c849-4325-b4f5-4a0727ba3775","system_id":"levelo_inurba_marseille","lat":43.33025,"lon":5.39039,"is_reserved":false,"is_disabled":false,"rental_uris":{"android":"levelo://app?vid=9948fe99-c849-4325-b4f5-4a0727ba3775","ios":"levelo://app?vid=9948fe99-c849-4325-b4f5-4a0727ba3775"},"vehicle_type_id":"4","last_reported":1731096552,"current_range_meters":25600,"station_id":"ce4bhr92rcd13ifvqhrg","pricing_plan_id":"cebpf4jnsgd1na2vs0mg"},{"bike_id":"af4daf64-18f9-41ec-b8bd-1df711ac30af","system_id":"levelo_inurba_marseille","lat":43.3121,"lon":5.3684,"is_reserved":false,"is_disabled":false,"rental_uris":{"android":"levelo://app?vid=af4daf64-18f9-41ec-b8bd-1df711ac30af","ios":"levelo://app?vid=af4daf64-18f9-41ec-b8bd-1df711ac30af"},"vehicle_type_id":"4","last_reported":1731096552,"current_range_meters":28800,"station_id":"ce4bgl92rcd13ifvqbq0","pricing_plan_id":"cebpf4jnsgd1na2vs0mg"},{"bike_id":"0396d81f-1315-431b-9708-9e4ab19f7741","system_id":"levelo_inurba_marseille","lat":43.28007,"lon":5.40009,"is_reserved":false,"is_disabled":false,"rental_uris":{"android":"levelo://app?vid=0396d81f-1315-431b-9708-9e4ab19f7741","ios":"levelo://app?vid=0396d81f-1315-431b-9708-9e4ab19f7741"},"vehicle_type_id":"4","last_reported":1731096552,"current_range_meters":38800,"station_id":"ce4bho92rcd13ifvqh4g","pricing_plan_id":"cebpf4jnsgd1na2vs0mg"},{"bike_id":"ac4edb56-e223-43e5-a54b-bf9fd57ec56d","system_id":"levelo_inurba_marseille","lat":43.2465,"lon":5.38892,"is_reserved":false,"is_disabled":false,"rental_uris":{"android":"levelo://app?vid=ac4edb56-e223-43e5-a54b-bf9fd57ec56d","ios":"levelo://app?vid=ac4edb56-e223-43e5-a54b-bf9fd57ec56d"},"vehicle_type_id":"4","last_reported":1731096552,"current_range_meters":35200,"station_id":"ce4bhg12rcd13ifvqf60","pricing_plan_id":"cebpf4jnsgd1na2vs0mg"},{"bike_id":"c86631e5-d57c-47d0-9f55-28ba68363e00","system_id":"levelo_inurba_marseille","lat":43.29719,"lon":5.37703,"is_reserved":false,"is_disabled":false,"rental_uris":{"android":"levelo://app?vid=c86631e5-d57c-47d0-9f55-28ba68363e00","ios":"levelo://app?vid=c86631e5-d57c-47d0-9f55-28ba68363e00"},"vehicle_type_id":"4","last_reported":1731096552,"current_range_meters":19200,"station_id":"ce4bgkh2rcd13ifvqbl0","pricing_plan_id":"cebpf4jnsgd1na2vs0mg"},{"bike_id":"766799c6-586b-4a88-8d56-fe4d76a4eacb","system_id":"levelo_inurba_marseille","lat":43.32373,"lon":5.38877,"is_reserved":false,"is_disabled":false,"rental_uris":{"android":"levelo://app?vid=766799c6-586b-4a88-8d56-fe4d76a4eacb","ios":"levelo://app?vid=766799c6-586b-4a88-8d56-fe4d76a4eacb"},"vehicle_type_id":"4","last_reported":1731096552,"current_range_meters":30000,"station_id":"ce4bhqp2rcd13ifvqhog","pricing_plan_id":"cebpf4jnsgd1na2vs0mg"},{"bike_id":"f2b48753-19da-4417-9c33-55d3019c581a","system_id":"levelo_inurba_marseille","lat":43.28002,"lon":5.4,"is_reserved":false,"is_disabled":false,"rental_uris":{"android":"levelo://app?vid=f2b48753-19da-4417-9c33-55d3019c581a","ios":"levelo://app?vid=f2b48753-19da-4417-9c33-55d3019c581a"},"vehicle_type_id":"4","last_reported":1731096552,"current_range_meters":13600,"station_id":"ce4bho92rcd13ifvqh4g","pricing_plan_id":"cebpf4jnsgd1na2vs0mg"},{"bike_id":"ec5fb625-e82d-4dcf-ad35-28a539b49751","system_id":"levelo_inurba_marseille","lat":43.29172,"lon":5.3714,"is_reserved":false,"is_disabled":false,"rental_uris":{"android":"levelo://app?vid=ec5fb625-e82d-4dcf-ad35-28a539b49751","ios":"levelo://app?vid=ec5fb625-e82d-4dcf-ad35-28a539b49751"},"vehicle_type_id":"4","last_reported":1731096552,"current_range_meters":10800,"station_id":"ce4bha92rcd13ifvqeh0","pricing_plan_id":"cebpf4jnsgd1na2vs0mg"},{"bike_id":"b375be74-6c57-4501-9ce7-4352ef01626b","system_id":"levelo_inurba_marseille","lat":43.27994,"lon":5.39996,"is_reserved":false,"is_disabled":false,"rental_uris":{"android":"levelo://app?vid=b375be74-6c57-4501-9ce7-4352ef01626b","ios":"levelo://app?vid=b375be74-6c57-4501-9ce7-4352ef01626b"},"vehicle_type_id":"4","last_reported":1731096552,"current_range_meters":4400,"station_id":"ce4bho92rcd13ifvqh4g","pricing_plan_id":"cebpf4jnsgd1na2vs0mg"},{"bike_id":"ae26c1a5-a0f0-470a-94a5-93de2da4cc6b","system_id":"levelo_inurba_marseille","lat":43.31704,"lon":5.40472,"is_reserved":false,"is_disabled":false,"rental_uris":{"android":"levelo://app?vid=ae26c1a5-a0f0-470a-94a5-93de2da4cc6b","ios":"levelo://app?vid=ae26c1a5-a0f0-470a-94a5-93de2da4cc6b"},"vehicle_type_id":"4","last_reported":1731096552,"current_range_meters":15200,"station_id":"ce4bh012rcd13ifvqd00","pricing_plan_id":"cebpf4jnsgd1na2vs0mg"},{"bike_id":"0efb37ae-077f-4af8-926a-196d33e7cca8","system_id":"levelo_inurba_marseille","lat":43.28569,"lon":5.39493,"is_reserved":false,"is_disabled":false,"rental_uris":{"android":"levelo://app?vid=0efb37ae-077f-4af8-926a-196d33e7cca8","ios":"levelo://app?vid=0efb37ae-077f-4af8-926a-196d33e7cca8"},"vehicle_type_id":"4","last_reported":1731096552,"current_range_meters":38000,"station_id":"ce4bh292rcd13ifvqdg0","pricing_plan_id":"cebpf4jnsgd1na2vs0mg"},{"bike_id":"4adc051b-cab2-444f-a4c6-933d4708baf0","system_id":"levelo_inurba_marseille","lat":43.31714,"lon":5.42398,"is_reserved":false,"is_disabled":false,"rental_uris":{"android":"levelo://app?vid=4adc051b-cab2-444f-a4c6-933d4708baf0","ios":"levelo://app?vid=4adc051b-cab2-444f-a4c6-933d4708baf0"},"vehicle_type_id":"4","last_reported":1731096552,"current_range_meters":12000,"station_id":"ce4bhp92rcd13ifvqhbg","pricing_plan_id":"cebpf4jnsgd1na2vs0mg"},{"bike_id":"51077039-f16f-40c8-b3a3-43f1d712330f","system_id":"levelo_inurba_marseille","lat":43.26791,"lon":5.39412,"is_reserved":false,"is_disabled":false,"rental_uris":{"android":"levelo://app?vid=51077039-f16f-40c8-b3a3-43f1d712330f","ios":"levelo://app?vid=51077039-f16f-40c8-b3a3-43f1d712330f"},"vehicle_type_id":"4","last_reported":1731096552,"current_range_meters":17600,"station_id":"ce4bhh12rcd13ifvqfg0","pricing_plan_id":"cebpf4jnsgd1na2vs0mg"},{"bike_id":"3255d714-f850-46bb-a908-5e84096398d8","system_id":"levelo_inurba_marseille","lat":43.27987,"lon":5.39997,"is_reserved":false,"is_disabled":false,"rental_uris":{"android":"levelo://app?vid=3255d714-f850-46bb-a908-5e84096398d8","ios":"levelo://app?vid=3255d714-f850-46bb-a908-5e84096398d8"},"vehicle_type_id":"4","last_reported":1731096552,"current_range_meters":16800,"station_id":"ce4bho92rcd13ifvqh4g","pricing_plan_id":"cebpf4jnsgd1na2vs0mg"},{"bike_id":"2fb19143-7a0c-42d0-947d-4cb86b880c17","system_id":"levelo_inurba_marseille","lat":43.29419,"lon":5.38626,"is_reserved":false,"is_disabled":false,"rental_uris":{"android":"levelo://app?vid=2fb19143-7a0c-42d0-947d-4cb86b880c17","ios":"levelo://app?vid=2fb19143-7a0c-42d0-947d-4cb86b880c17"},"vehicle_type_id":"4","last_reported":1731096552,"current_range_meters":36800,"station_id":"ce4bh2h2rcd13ifvqdh0","pricing_plan_id":"cebpf4jnsgd1na2vs0mg"},{"bike_id":"88f52a5f-4acb-44b2-87b8-d0fd0b2cb235","system_id":"levelo_inurba_marseille","lat":43.26804,"lon":5.40266,"is_reserved":false,"is_disabled":false,"rental_uris":{"android":"levelo://app?vid=88f52a5f-4acb-44b2-87b8-d0fd0b2cb235","ios":"levelo://app?vid=88f52a5f-4acb-44b2-87b8-d0fd0b2cb235"},"vehicle_type_id":"4","last_reported":1731096552,"current_range_meters":28000,"station_id":"ce501612rcd8frsf0b60","pricing_plan_id":"cebpf4jnsgd1na2vs0mg"},{"bike_id":"422a7d56-d1d8-414b-9ffd-f4745e19e469","system_id":"levelo_inurba_marseille","lat":43.30522,"lon":5.3659,"is_reserved":false,"is_disabled":false,"rental_uris":{"android":"levelo://app?vid=422a7d56-d1d8-414b-9ffd-f4745e19e469","ios":"levelo://app?vid=422a7d56-d1d8-414b-9ffd-f4745e19e469"},"vehicle_type_id":"4","last_reported":1731096552,"current_range_meters":38400,"station_id":"ce4bgqh2rcd13ifvqc5g","pricing_plan_id":"cebpf4jnsgd1na2vs0mg"},{"bike_id":"adac7352-002b-4a5a-8e03-dbcf7c907176","system_id":"levelo_inurba_marseille","lat":43.27988,"lon":5.40001,"is_reserved":false,"is_disabled":false,"rental_uris":{"android":"levelo://app?vid=adac7352-002b-4a5a-8e03-dbcf7c907176","ios":"levelo://app?vid=adac7352-002b-4a5a-8e03-dbcf7c907176"},"vehicle_type_id":"4","last_reported":1731096552,"current_range_meters":27600,"station_id":"ce4bho92rcd13ifvqh4g","pricing_plan_id":"cebpf4jnsgd1na2vs0mg"},{"bike_id":"84389021-ba88-4202-b227-904c28bd666b","system_id":"levelo_inurba_marseille","lat":43.29073,"lon":5.37159,"is_reserved":false,"is_disabled":false,"rental_uris":{"android":"levelo://app?vid=84389021-ba88-4202-b227-904c28bd666b","ios":"levelo://app?vid=84389021-ba88-4202-b227-904c28bd666b"},"vehicle_type_id":"4","last_reported":1731096552,"current_range_meters":8400,"station_id":"ce4bh5p2rcd13ifvqe4g","pricing_plan_id":"cebpf4jnsgd1na2vs0mg"},{"bike_id":"0b74ce83-e6b1-4485-8ca6-3897f29a426e","system_id":"levelo_inurba_marseille","lat":43.2396,"lon":5.36626,"is_reserved":false,"is_disabled":false,"rental_uris":{"android":"levelo://app?vid=0b74ce83-e6b1-4485-8ca6-3897f29a426e","ios":"levelo://app?vid=0b74ce83-e6b1-4485-8ca6-3897f29a426e"},"vehicle_type_id":"4","last_reported":1731096552,"current_range_meters":20800,"station_id":"ce4bhi12rcd13ifvqfp0","pricing_plan_id":"cebpf4jnsgd1na2vs0mg"},{"bike_id":"2bbcb9cc-f8b8-4b14-879a-f3df66920005","system_id":"levelo_inurba_marseille","lat":43.31213,"lon":5.36849,"is_reserved":false,"is_disabled":false,"rental_uris":{"android":"levelo://app?vid=2bbcb9cc-f8b8-4b14-879a-f3df66920005","ios":"levelo://app?vid=2bbcb9cc-f8b8-4b14-879a-f3df66920005"},"vehicle_type_id":"4","last_reported":1731096552,"current_range_meters":18800,"station_id":"ce4bgl92rcd13ifvqbq0","pricing_plan_id":"cebpf4jnsgd1na2vs0mg"},{"bike_id":"bb1484af-50bc-4d33-b023-524a6830fe46","system_id":"levelo_inurba_marseille","lat":43.2953,"lon":5.38542,"is_reserved":false,"is_disabled":false,"rental_uris":{"android":"levelo://app?vid=bb1484af-50bc-4d33-b023-524a6830fe46","ios":"levelo://app?vid=bb1484af-50bc-4d33-b023-524a6830fe46"},"vehicle_type_id":"4","last_reported":1731096552,"current_range_meters":32800,"station_id":"ce4bgih2rcd13ifvqba0","pricing_plan_id":"cebpf4jnsgd1na2vs0mg"},{"bike_id":"f94bdcbe-9a46-4c5f-879c-d5fc8c43084c","system_id":"levelo_inurba_marseille","lat":43.33026,"lon":5.39039,"is_reserved":false,"is_disabled":false,"rental_uris":{"android":"levelo://app?vid=f94bdcbe-9a46-4c5f-879c-d5fc8c43084c","ios":"levelo://app?vid=f94bdcbe-9a46-4c5f-879c-d5fc8c43084c"},"vehicle_type_id":"4","last_reported":1731096552,"current_range_meters":39200,"station_id":"ce4bhr92rcd13ifvqhrg","pricing_plan_id":"cebpf4jnsgd1na2vs0mg"},{"bike_id":"f9d7e7b9-a5e5-445a-843b-c0e382f294aa","system_id":"levelo_inurba_marseille","lat":43.2926,"lon":5.38436,"is_reserved":false,"is_disabled":false,"rental_uris":{"android":"levelo://app?vid=f9d7e7b9-a5e5-445a-843b-c0e382f294aa","ios":"levelo://app?vid=f9d7e7b9-a5e5-445a-843b-c0e382f294aa"},"vehicle_type_id":"4","last_reported":1731096552,"current_range_meters":38800,"station_id":"ce4bh692rcd13ifvqea0","pricing_plan_id":"cebpf4jnsgd1na2vs0mg"},{"bike_id":"b958ce2e-0dd0-403d-acf6-4d94c4232a37","system_id":"levelo_inurba_marseille","lat":43.26805,"lon":5.40265,"is_reserved":false,"is_disabled":false,"rental_uris":{"android":"levelo://app?vid=b958ce2e-0dd0-403d-acf6-4d94c4232a37","ios":"levelo://app?vid=b958ce2e-0dd0-403d-acf6-4d94c4232a37"},"vehicle_type_id":"4","last_reported":1731096552,"current_range_meters":32000,"station_id":"ce501612rcd8frsf0b60","pricing_plan_id":"cebpf4jnsgd1na2vs0mg"},{"bike_id":"46236b54-003d-407c-892b-fc08621a8550","system_id":"levelo_inurba_marseille","lat":43.28604,"lon":5.37058,"is_reserved":false,"is_disabled":false,"rental_uris":{"android":"levelo://app?vid=46236b54-003d-407c-892b-fc08621a8550","ios":"levelo://app?vid=46236b54-003d-407c-892b-fc08621a8550"},"vehicle_type_id":"4","last_reported":1731096552,"current_range_meters":23200,"station_id":"ce4bht12rcd13ifvqi60","pricing_plan_id":"cebpf4jnsgd1na2vs0mg"},{"bike_id":"ae9d8fef-154d-4809-99b6-c308924e7ae8","system_id":"levelo_inurba_marseille","lat":43.29422,"lon":5.38623,"is_reserved":false,"is_disabled":false,"rental_uris":{"android":"levelo://app?vid=ae9d8fef-154d-4809-99b6-c308924e7ae8","ios":"levelo://app?vid=ae9d8fef-154d-4809-99b6-c308924e7ae8"},"vehicle_type_id":"4","last_reported":1731096552,"current_range_meters":38800,"station_id":"ce4bh2h2rcd13ifvqdh0","pricing_plan_id":"cebpf4jnsgd1na2vs0mg"},{"bike_id":"ccaa7c8c-c9c2-4aa9-9620-c5f0cb69e0bb","system_id":"levelo_inurba_marseille","lat":43.337444,"lon":5.374475,"is_reserved":false,"is_disabled":false,"rental_uris":{"android":"levelo://app?vid=ccaa7c8c-c9c2-4aa9-9620-c5f0cb69e0bb","ios":"levelo://app?vid=ccaa7c8c-c9c2-4aa9-9620-c5f0cb69e0bb"},"vehicle_type_id":"4","last_reported":1731096552,"current_range_meters":26800,"station_id":"","pricing_plan_id":"cebpf4jnsgd1na2vs0mg"},{"bike_id":"2a6caaf6-34f1-4e12-8c9d-153fd774cf91","system_id":"levelo_inurba_marseille","lat":43.24806,"lon":5.37453,"is_reserved":false,"is_disabled":false,"rental_uris":{"android":"levelo://app?vid=2a6caaf6-34f1-4e12-8c9d-153fd774cf91","ios":"levelo://app?vid=2a6caaf6-34f1-4e12-8c9d-153fd774cf91"},"vehicle_type_id":"4","last_reported":1731096552,"current_range_meters":30000,"station_id":"ce4bhgh2rcd13ifvqfb0","pricing_plan_id":"cebpf4jnsgd1na2vs0mg"},{"bike_id":"d8a48484-faab-44ba-996f-655ad518571f","system_id":"levelo_inurba_marseille","lat":43.28615,"lon":5.35107,"is_reserved":false,"is_disabled":false,"rental_uris":{"android":"levelo://app?vid=d8a48484-faab-44ba-996f-655ad518571f","ios":"levelo://app?vid=d8a48484-faab-44ba-996f-655ad518571f"},"vehicle_type_id":"4","last_reported":1731096552,"current_range_meters":28800,"station_id":"ce4bhch2rcd13ifvqeug","pricing_plan_id":"cebpf4jnsgd1na2vs0mg"},{"bike_id":"5ce8e61c-3342-4241-b80c-2e4895aa2f21","system_id":"levelo_inurba_marseille","lat":43.29528,"lon":5.38533,"is_reserved":false,"is_disabled":false,"rental_uris":{"android":"levelo://app?vid=5ce8e61c-3342-4241-b80c-2e4895aa2f21","ios":"levelo://app?vid=5ce8e61c-3342-4241-b80c-2e4895aa2f21"},"vehicle_type_id":"4","last_reported":1731096552,"current_range_meters":9600,"station_id":"ce4bgih2rcd13ifvqba0","pricing_plan_id":"cebpf4jnsgd1na2vs0mg"},{"bike_id":"6dff1885-15b3-4a8b-86f4-def77a197e46","system_id":"levelo_inurba_marseille","lat":43.29849,"lon":5.36286,"is_reserved":false,"is_disabled":false,"rental_uris":{"android":"levelo://app?vid=6dff1885-15b3-4a8b-86f4-def77a197e46","ios":"levelo://app?vid=6dff1885-15b3-4a8b-86f4-def77a197e46"},"vehicle_type_id":"4","last_reported":1731096552,"current_range_meters":39200,"station_id":"ce4bgpp2rcd13ifvqc3g","pricing_plan_id":"cebpf4jnsgd1na2vs0mg"},{"bike_id":"cf288c2a-669a-4f3d-9675-1ee72c7ac844","system_id":"levelo_inurba_marseille","lat":43.31331,"lon":5.39698,"is_reserved":false,"is_disabled":false,"rental_uris":{"android":"levelo://app?vid=cf288c2a-669a-4f3d-9675-1ee72c7ac844","ios":"levelo://app?vid=cf288c2a-669a-4f3d-9675-1ee72c7ac844"},"vehicle_type_id":"4","last_reported":1731096552,"current_range_meters":20800,"station_id":"ce4bgvp2rcd13ifvqcu0","pricing_plan_id":"cebpf4jnsgd1na2vs0mg"},{"bike_id":"ff989801-f59b-46d1-867b-7c2b6eab1cca","system_id":"levelo_inurba_marseille","lat":43.337444,"lon":5.374475,"is_reserved":false,"is_disabled":false,"rental_uris":{"android":"levelo://app?vid=ff989801-f59b-46d1-867b-7c2b6eab1cca","ios":"levelo://app?vid=ff989801-f59b-46d1-867b-7c2b6eab1cca"},"vehicle_type_id":"4","last_reported":1731096552,"current_range_meters":36800,"station_id":"","pricing_plan_id":"cebpf4jnsgd1na2vs0mg"},{"bike_id":"0c90e92e-5f10-4c08-a7e2-08f6e9320dcc","system_id":"levelo_inurba_marseille","lat":43.279979,"lon":5.400115,"is_reserved":false,"is_disabled":false,"rental_uris":{"android":"levelo://app?vid=0c90e92e-5f10-4c08-a7e2-08f6e9320dcc","ios":"levelo://app?vid=0c90e92e-5f10-4c08-a7e2-08f6e9320dcc"},"vehicle_type_id":"4","last_reported":1731096552,"current_range_meters":38800,"station_id":"ce4bho92rcd13ifvqh4g","pricing_plan_id":"cebpf4jnsgd1na2vs0mg"},{"bike_id":"9d5d59d0-d3d9-492e-b9cc-e20201e0c6c4","system_id":"levelo_inurba_marseille","lat":43.26939,"lon":5.40243,"is_reserved":false,"is_disabled":false,"rental_uris":{"android":"levelo://app?vid=9d5d59d0-d3d9-492e-b9cc-e20201e0c6c4","ios":"levelo://app?vid=9d5d59d0-d3d9-492e-b9cc-e20201e0c6c4"},"vehicle_type_id":"4","last_reported":1731096552,"current_range_meters":16800,"station_id":"cjm6bp8fraef2m0cb0m0","pricing_plan_id":"cebpf4jnsgd1na2vs0mg"},{"bike_id":"7a111f95-0e6e-4864-809a-a23d3dc8fce5","system_id":"levelo_inurba_marseille","lat":43.28003,"lon":5.40011,"is_reserved":false,"is_disabled":false,"rental_uris":{"android":"levelo://app?vid=7a111f95-0e6e-4864-809a-a23d3dc8fce5","ios":"levelo://app?vid=7a111f95-0e6e-4864-809a-a23d3dc8fce5"},"vehicle_type_id":"4","last_reported":1731096552,"current_range_meters":38800,"station_id":"ce4bho92rcd13ifvqh4g","pricing_plan_id":"cebpf4jnsgd1na2vs0mg"},{"bike_id":"cfe894de-4a81-4056-877f-ac9953747d71","system_id":"levelo_inurba_marseille","lat":43.2743,"lon":5.39417,"is_reserved":false,"is_disabled":false,"rental_uris":{"android":"levelo://app?vid=cfe894de-4a81-4056-877f-ac9953747d71","ios":"levelo://app?vid=cfe894de-4a81-4056-877f-ac9953747d71"},"vehicle_type_id":"4","last_reported":1731096552,"current_range_meters":34800,"station_id":"ce4bhdp2rcd13ifvqf20","pricing_plan_id":"cebpf4jnsgd1na2vs0mg"},{"bike_id":"40735bbd-103d-42a4-916d-ae8a20ff22f9","system_id":"levelo_inurba_marseille","lat":43.30596,"lon":5.37208,"is_reserved":false,"is_disabled":false,"rental_uris":{"android":"levelo://app?vid=40735bbd-103d-42a4-916d-ae8a20ff22f9","ios":"levelo://app?vid=40735bbd-103d-42a4-916d-ae8a20ff22f9"},"vehicle_type_id":"4","last_reported":1731096552,"current_range_meters":39200,"station_id":"ce4bgqh2rcd13ifvqc4g","pricing_plan_id":"cebpf4jnsgd1na2vs0mg"},{"bike_id":"69d38419-f915-4ada-a460-f28c05bf4ad2","system_id":"levelo_inurba_marseille","lat":43.2707,"lon":5.42277,"is_reserved":false,"is_disabled":false,"rental_uris":{"android":"levelo://app?vid=69d38419-f915-4ada-a460-f28c05bf4ad2","ios":"levelo://app?vid=69d38419-f915-4ada-a460-f28c05bf4ad2"},"vehicle_type_id":"4","last_reported":1731096552,"current_range_meters":27600,"station_id":"ce4bhk92rcd13ifvqgb0","pricing_plan_id":"cebpf4jnsgd1na2vs0mg"},{"bike_id":"d115c69c-dc61-4019-86ca-8f3ef1285cfb","system_id":"levelo_inurba_marseille","lat":43.22927,"lon":5.35378,"is_reserved":false,"is_disabled":false,"rental_uris":{"android":"levelo://app?vid=d115c69c-dc61-4019-86ca-8f3ef1285cfb","ios":"levelo://app?vid=d115c69c-dc61-4019-86ca-8f3ef1285cfb"},"vehicle_type_id":"4","last_reported":1731096552,"current_range_meters":36400,"station_id":"cpo3532slgdg3j2ikp40","pricing_plan_id":"cebpf4jnsgd1na2vs0mg"},{"bike_id":"0361b4f1-40e1-43b7-8a6f-c28564b4da09","system_id":"levelo_inurba_marseille","lat":43.29268,"lon":5.38438,"is_reserved":false,"is_disabled":false,"rental_uris":{"android":"levelo://app?vid=0361b4f1-40e1-43b7-8a6f-c28564b4da09","ios":"levelo://app?vid=0361b4f1-40e1-43b7-8a6f-c28564b4da09"},"vehicle_type_id":"4","last_reported":1731096552,"current_range_meters":21600,"station_id":"ce4bh692rcd13ifvqea0","pricing_plan_id":"cebpf4jnsgd1na2vs0mg"},{"bike_id":"2fb6d72a-2d16-40bd-99bf-1441548aab9d","system_id":"levelo_inurba_marseille","lat":43.29037,"lon":5.37562,"is_reserved":false,"is_disabled":false,"rental_uris":{"android":"levelo://app?vid=2fb6d72a-2d16-40bd-99bf-1441548aab9d","ios":"levelo://app?vid=2fb6d72a-2d16-40bd-99bf-1441548aab9d"},"vehicle_type_id":"4","last_reported":1731096552,"current_range_meters":30800,"station_id":"ce4bh692rcd13ifvqe90","pricing_plan_id":"cebpf4jnsgd1na2vs0mg"},{"bike_id":"be94c940-c56d-4132-af66-fedb762b3e0f","system_id":"levelo_inurba_marseille","lat":43.23193,"lon":5.35556,"is_reserved":false,"is_disabled":false,"rental_uris":{"android":"levelo://app?vid=be94c940-c56d-4132-af66-fedb762b3e0f","ios":"levelo://app?vid=be94c940-c56d-4132-af66-fedb762b3e0f"},"vehicle_type_id":"4","last_reported":1731096552,"current_range_meters":39200,"station_id":"ce4bhu92rcd13ifvqi70","pricing_plan_id":"cebpf4jnsgd1na2vs0mg"},{"bike_id":"aca338e1-414e-4613-a44d-ca0b5ab09924","system_id":"levelo_inurba_marseille","lat":43.2953,"lon":5.38537,"is_reserved":false,"is_disabled":false,"rental_uris":{"android":"levelo://app?vid=aca338e1-414e-4613-a44d-ca0b5ab09924","ios":"levelo://app?vid=aca338e1-414e-4613-a44d-ca0b5ab09924"},"vehicle_type_id":"4","last_reported":1731096552,"current_range_meters":23200,"station_id":"ce4bgih2rcd13ifvqba0","pricing_plan_id":"cebpf4jnsgd1na2vs0mg"},{"bike_id":"020b1c4c-0ab8-4d48-ae33-153a08eab865","system_id":"levelo_inurba_marseille","lat":43.29295,"lon":5.37444,"is_reserved":false,"is_disabled":false,"rental_uris":{"android":"levelo://app?vid=020b1c4c-0ab8-4d48-ae33-153a08eab865","ios":"levelo://app?vid=020b1c4c-0ab8-4d48-ae33-153a08eab865"},"vehicle_type_id":"4","last_reported":1731096552,"current_range_meters":21600,"station_id":"ce4bgi12rcd13ifvqb70","pricing_plan_id":"cebpf4jnsgd1na2vs0mg"},{"bike_id":"73a2fecc-8ffd-4864-a14b-7a5b0d425dbd","system_id":"levelo_inurba_marseille","lat":43.27051,"lon":5.40261,"is_reserved":false,"is_disabled":false,"rental_uris":{"android":"levelo://app?vid=73a2fecc-8ffd-4864-a14b-7a5b0d425dbd","ios":"levelo://app?vid=73a2fecc-8ffd-4864-a14b-7a5b0d425dbd"},"vehicle_type_id":"4","last_reported":1731096552,"current_range_meters":33600,"station_id":"ce4bhk92rcd13ifvqgc0","pricing_plan_id":"cebpf4jnsgd1na2vs0mg"},{"bike_id":"dc8b6b7f-5b62-41a6-b1f7-6ec941a004e3","system_id":"levelo_inurba_marseille","lat":43.27815,"lon":5.40711,"is_reserved":false,"is_disabled":false,"rental_uris":{"android":"levelo://app?vid=dc8b6b7f-5b62-41a6-b1f7-6ec941a004e3","ios":"levelo://app?vid=dc8b6b7f-5b62-41a6-b1f7-6ec941a004e3"},"vehicle_type_id":"4","last_reported":1731096552,"current_range_meters":39200,"station_id":"ce4bhnh2rcd13ifvqgtg","pricing_plan_id":"cebpf4jnsgd1na2vs0mg"},{"bike_id":"f5383d24-209d-422e-b873-55e2ad4e0361","system_id":"levelo_inurba_marseille","lat":43.2978,"lon":5.37091,"is_reserved":false,"is_disabled":false,"rental_uris":{"android":"levelo://app?vid=f5383d24-209d-422e-b873-55e2ad4e0361","ios":"levelo://app?vid=f5383d24-209d-422e-b873-55e2ad4e0361"},"vehicle_type_id":"4","last_reported":1731096552,"current_range_meters":39200,"station_id":"ce4bgop2rcd13ifvqc1g","pricing_plan_id":"cebpf4jnsgd1na2vs0mg"},{"bike_id":"a84da567-451e-4ec1-93fa-5bb93ec7dee8","system_id":"levelo_inurba_marseille","lat":43.30098,"lon":5.39081,"is_reserved":false,"is_disabled":false,"rental_uris":{"android":"levelo://app?vid=a84da567-451e-4ec1-93fa-5bb93ec7dee8","ios":"levelo://app?vid=a84da567-451e-4ec1-93fa-5bb93ec7dee8"},"vehicle_type_id":"4","last_reported":1731096552,"current_range_meters":16000,"station_id":"ce4bh192rcd13ifvqdb0","pricing_plan_id":"cebpf4jnsgd1na2vs0mg"},{"bike_id":"8d9907b8-c5d9-4917-bc3a-078a23921f15","system_id":"levelo_inurba_marseille","lat":43.26944,"lon":5.40243,"is_reserved":false,"is_disabled":false,"rental_uris":{"android":"levelo://app?vid=8d9907b8-c5d9-4917-bc3a-078a23921f15","ios":"levelo://app?vid=8d9907b8-c5d9-4917-bc3a-078a23921f15"},"vehicle_type_id":"4","last_reported":1731096552,"current_range_meters":31200,"station_id":"cjm6bp8fraef2m0cb0m0","pricing_plan_id":"cebpf4jnsgd1na2vs0mg"},{"bike_id":"2391a952-ef22-4ee0-9fa7-8d7daece7f52","system_id":"levelo_inurba_marseille","lat":43.2941,"lon":5.38623,"is_reserved":false,"is_disabled":false,"rental_uris":{"android":"levelo://app?vid=2391a952-ef22-4ee0-9fa7-8d7daece7f52","ios":"levelo://app?vid=2391a952-ef22-4ee0-9fa7-8d7daece7f52"},"vehicle_type_id":"4","last_reported":1731096552,"current_range_meters":38800,"station_id":"ce4bh2h2rcd13ifvqdh0","pricing_plan_id":"cebpf4jnsgd1na2vs0mg"},{"bike_id":"d2ac84c5-be35-4810-8d41-8f1c6eccd5ea","system_id":"levelo_inurba_marseille","lat":43.30951,"lon":5.39018,"is_reserved":false,"is_disabled":false,"rental_uris":{"android":"levelo://app?vid=d2ac84c5-be35-4810-8d41-8f1c6eccd5ea","ios":"levelo://app?vid=d2ac84c5-be35-4810-8d41-8f1c6eccd5ea"},"vehicle_type_id":"4","last_reported":1731096552,"current_range_meters":36000,"station_id":"ce4bgup2rcd13ifvqco0","pricing_plan_id":"cebpf4jnsgd1na2vs0mg"},{"bike_id":"7e55b26c-0afe-4ae2-9518-83448907abae","system_id":"levelo_inurba_marseille","lat":43.30888,"lon":5.3964,"is_reserved":false,"is_disabled":false,"rental_uris":{"android":"levelo://app?vid=7e55b26c-0afe-4ae2-9518-83448907abae","ios":"levelo://app?vid=7e55b26c-0afe-4ae2-9518-83448907abae"},"vehicle_type_id":"4","last_reported":1731096552,"current_range_meters":20400,"station_id":"ce4bh012rcd13ifvqcv0","pricing_plan_id":"cebpf4jnsgd1na2vs0mg"},{"bike_id":"1bff8ecc-4541-441c-9388-85489e932040","system_id":"levelo_inurba_marseille","lat":43.3108,"lon":5.38355,"is_reserved":false,"is_disabled":false,"rental_uris":{"android":"levelo://app?vid=1bff8ecc-4541-441c-9388-85489e932040","ios":"levelo://app?vid=1bff8ecc-4541-441c-9388-85489e932040"},"vehicle_type_id":"4","last_reported":1731096552,"current_range_meters":2000,"station_id":"ce4bgv92rcd13ifvqcr0","pricing_plan_id":"cebpf4jnsgd1na2vs0mg"},{"bike_id":"24f9dea8-5ae5-470e-9912-32e1ae991119","system_id":"levelo_inurba_marseille","lat":43.28669,"lon":5.36354,"is_reserved":false,"is_disabled":false,"rental_uris":{"android":"levelo://app?vid=24f9dea8-5ae5-470e-9912-32e1ae991119","ios":"levelo://app?vid=24f9dea8-5ae5-470e-9912-32e1ae991119"},"vehicle_type_id":"4","last_reported":1731096552,"current_range_meters":4400,"station_id":"ce4bhah2rcd13ifvqej0","pricing_plan_id":"cebpf4jnsgd1na2vs0mg"},{"bike_id":"ec9282d1-72a3-450d-9fc7-70f2e917175a","system_id":"levelo_inurba_marseille","lat":43.2501,"lon":5.38912,"is_reserved":false,"is_disabled":false,"rental_uris":{"android":"levelo://app?vid=ec9282d1-72a3-450d-9fc7-70f2e917175a","ios":"levelo://app?vid=ec9282d1-72a3-450d-9fc7-70f2e917175a"},"vehicle_type_id":"4","last_reported":1731096552,"current_range_meters":34000,"station_id":"ce4bhgp2rcd13ifvqfd0","pricing_plan_id":"cebpf4jnsgd1na2vs0mg"},{"bike_id":"744ded5f-43f1-476a-987a-d6020dc1b894","system_id":"levelo_inurba_marseille","lat":43.29101,"lon":5.3814,"is_reserved":false,"is_disabled":false,"rental_uris":{"android":"levelo://app?vid=744ded5f-43f1-476a-987a-d6020dc1b894","ios":"levelo://app?vid=744ded5f-43f1-476a-987a-d6020dc1b894"},"vehicle_type_id":"4","last_reported":1731096552,"current_range_meters":14800,"station_id":"ce4bh512rcd13ifvqe2g","pricing_plan_id":"cebpf4jnsgd1na2vs0mg"},{"bike_id":"02f3bd69-c440-439f-96d2-1f56246cbb70","system_id":"levelo_inurba_marseille","lat":43.23055,"lon":5.35489,"is_reserved":false,"is_disabled":false,"rental_uris":{"android":"levelo://app?vid=02f3bd69-c440-439f-96d2-1f56246cbb70","ios":"levelo://app?vid=02f3bd69-c440-439f-96d2-1f56246cbb70"},"vehicle_type_id":"4","last_reported":1731096552,"current_range_meters":30800,"station_id":"cpo3342slgdg3j2ifvpg","pricing_plan_id":"cebpf4jnsgd1na2vs0mg"},{"bike_id":"033097e6-de3d-44fa-a83d-d8ef134dc263","system_id":"levelo_inurba_marseille","lat":43.29365,"lon":5.37847,"is_reserved":false,"is_disabled":false,"rental_uris":{"android":"levelo://app?vid=033097e6-de3d-44fa-a83d-d8ef134dc263","ios":"levelo://app?vid=033097e6-de3d-44fa-a83d-d8ef134dc263"},"vehicle_type_id":"4","last_reported":1731096552,"current_range_meters":29600,"station_id":"ce4bgjh2rcd13ifvqbf0","pricing_plan_id":"cebpf4jnsgd1na2vs0mg"},{"bike_id":"c70be11e-bafc-46fd-bf8d-541c7a9d2a50","system_id":"levelo_inurba_marseille","lat":43.28123,"lon":5.40137,"is_reserved":false,"is_disabled":false,"rental_uris":{"android":"levelo://app?vid=c70be11e-bafc-46fd-bf8d-541c7a9d2a50","ios":"levelo://app?vid=c70be11e-bafc-46fd-bf8d-541c7a9d2a50"},"vehicle_type_id":"4","last_reported":1731096552,"current_range_meters":32800,"station_id":"","pricing_plan_id":"cebpf4jnsgd1na2vs0mg"},{"bike_id":"3d355af6-b1c9-4201-9bc2-787a47a6b453","system_id":"levelo_inurba_marseille","lat":43.31272,"lon":5.40167,"is_reserved":false,"is_disabled":false,"rental_uris":{"android":"levelo://app?vid=3d355af6-b1c9-4201-9bc2-787a47a6b453","ios":"levelo://app?vid=3d355af6-b1c9-4201-9bc2-787a47a6b453"},"vehicle_type_id":"4","last_reported":1731096552,"current_range_meters":32000,"station_id":"ce4bh092rcd13ifvqd30","pricing_plan_id":"cebpf4jnsgd1na2vs0mg"},{"bike_id":"04c33c41-7d2c-4ad1-9547-7c592fdb82f1","system_id":"levelo_inurba_marseille","lat":43.3175,"lon":5.39007,"is_reserved":false,"is_disabled":false,"rental_uris":{"android":"levelo://app?vid=04c33c41-7d2c-4ad1-9547-7c592fdb82f1","ios":"levelo://app?vid=04c33c41-7d2c-4ad1-9547-7c592fdb82f1"},"vehicle_type_id":"4","last_reported":1731096552,"current_range_meters":36800,"station_id":"ce4bhqp2rcd13ifvqhng","pricing_plan_id":"cebpf4jnsgd1na2vs0mg"},{"bike_id":"a842f678-5646-44f0-8a4d-392643bfb6e8","system_id":"levelo_inurba_marseille","lat":43.272,"lon":5.39175,"is_reserved":false,"is_disabled":false,"rental_uris":{"android":"levelo://app?vid=a842f678-5646-44f0-8a4d-392643bfb6e8","ios":"levelo://app?vid=a842f678-5646-44f0-8a4d-392643bfb6e8"},"vehicle_type_id":"4","last_reported":1731096552,"current_range_meters":30400,"station_id":"ce4bhhp2rcd13ifvqfm0","pricing_plan_id":"cebpf4jnsgd1na2vs0mg"},{"bike_id":"225e1e3a-c63c-4c21-8237-00cfa14443b4","system_id":"levelo_inurba_marseille","lat":43.3014,"lon":5.39869,"is_reserved":false,"is_disabled":false,"rental_uris":{"android":"levelo://app?vid=225e1e3a-c63c-4c21-8237-00cfa14443b4","ios":"levelo://app?vid=225e1e3a-c63c-4c21-8237-00cfa14443b4"},"vehicle_type_id":"4","last_reported":1731096552,"current_range_meters":8000,"station_id":"ce4bh0h2rcd13ifvqd40","pricing_plan_id":"cebpf4jnsgd1na2vs0mg"},{"bike_id":"432734fd-bd46-4742-bf63-b89989e3ed1a","system_id":"levelo_inurba_marseille","lat":43.29402,"lon":5.38625,"is_reserved":false,"is_disabled":false,"rental_uris":{"android":"levelo://app?vid=432734fd-bd46-4742-bf63-b89989e3ed1a","ios":"levelo://app?vid=432734fd-bd46-4742-bf63-b89989e3ed1a"},"vehicle_type_id":"4","last_reported":1731096552,"current_range_meters":24800,"station_id":"ce4bh2h2rcd13ifvqdh0","pricing_plan_id":"cebpf4jnsgd1na2vs0mg"},{"bike_id":"7feff496-5c04-49b3-b3b5-b468a8b42267","system_id":"levelo_inurba_marseille","lat":43.28479,"lon":5.38401,"is_reserved":false,"is_disabled":false,"rental_uris":{"android":"levelo://app?vid=7feff496-5c04-49b3-b3b5-b468a8b42267","ios":"levelo://app?vid=7feff496-5c04-49b3-b3b5-b468a8b42267"},"vehicle_type_id":"4","last_reported":1731096552,"current_range_meters":38800,"station_id":"ce4bh512rcd13ifvqe3g","pricing_plan_id":"cebpf4jnsgd1na2vs0mg"},{"bike_id":"7e8d6a90-f792-4a95-9015-81871beb55ba","system_id":"levelo_inurba_marseille","lat":43.26553,"lon":5.37286,"is_reserved":false,"is_disabled":false,"rental_uris":{"android":"levelo://app?vid=7e8d6a90-f792-4a95-9015-81871beb55ba","ios":"levelo://app?vid=7e8d6a90-f792-4a95-9015-81871beb55ba"},"vehicle_type_id":"4","last_reported":1731096552,"current_range_meters":34000,"station_id":"ce4bhg12rcd13ifvqf70","pricing_plan_id":"cebpf4jnsgd1na2vs0mg"},{"bike_id":"b1ec116a-76f2-4eee-8b23-80d7665d58d9","system_id":"levelo_inurba_marseille","lat":43.31718,"lon":5.43724,"is_reserved":false,"is_disabled":false,"rental_uris":{"android":"levelo://app?vid=b1ec116a-76f2-4eee-8b23-80d7665d58d9","ios":"levelo://app?vid=b1ec116a-76f2-4eee-8b23-80d7665d58d9"},"vehicle_type_id":"4","last_reported":1731096552,"current_range_meters":8800,"station_id":"ce4bhp92rcd13ifvqhcg","pricing_plan_id":"cebpf4jnsgd1na2vs0mg"},{"bike_id":"c3cae747-1840-4e85-b0e3-f2a4aea40a4a","system_id":"levelo_inurba_marseille","lat":43.3135,"lon":5.39148,"is_reserved":false,"is_disabled":false,"rental_uris":{"android":"levelo://app?vid=c3cae747-1840-4e85-b0e3-f2a4aea40a4a","ios":"levelo://app?vid=c3cae747-1840-4e85-b0e3-f2a4aea40a4a"},"vehicle_type_id":"4","last_reported":1731096552,"current_range_meters":8000,"station_id":"","pricing_plan_id":"cebpf4jnsgd1na2vs0mg"},{"bike_id":"d76d317d-40cb-4c09-bfb6-86ac752753c3","system_id":"levelo_inurba_marseille","lat":43.27997,"lon":5.40001,"is_reserved":false,"is_disabled":false,"rental_uris":{"android":"levelo://app?vid=d76d317d-40cb-4c09-bfb6-86ac752753c3","ios":"levelo://app?vid=d76d317d-40cb-4c09-bfb6-86ac752753c3"},"vehicle_type_id":"4","last_reported":1731096552,"current_range_meters":36400,"station_id":"ce4bho92rcd13ifvqh4g","pricing_plan_id":"cebpf4jnsgd1na2vs0mg"},{"bike_id":"0fdaab97-356b-43fc-83ba-fc9885d24bc3","system_id":"levelo_inurba_marseille","lat":43.2737,"lon":5.36248,"is_reserved":false,"is_disabled":false,"rental_uris":{"android":"levelo://app?vid=0fdaab97-356b-43fc-83ba-fc9885d24bc3","ios":"levelo://app?vid=0fdaab97-356b-43fc-83ba-fc9885d24bc3"},"vehicle_type_id":"4","last_reported":1731096552,"current_range_meters":6800,"station_id":"ce4bhbh2rcd13ifvqeo0","pricing_plan_id":"cebpf4jnsgd1na2vs0mg"},{"bike_id":"49fb809d-733c-4a30-8e72-2ad8868795b5","system_id":"levelo_inurba_marseille","lat":43.29412,"lon":5.38608,"is_reserved":false,"is_disabled":false,"rental_uris":{"android":"levelo://app?vid=49fb809d-733c-4a30-8e72-2ad8868795b5","ios":"levelo://app?vid=49fb809d-733c-4a30-8e72-2ad8868795b5"},"vehicle_type_id":"4","last_reported":1731096552,"current_range_meters":38800,"station_id":"ce4bh2h2rcd13ifvqdh0","pricing_plan_id":"cebpf4jnsgd1na2vs0mg"},{"bike_id":"928f3e93-8b4f-476a-968e-14f5cc3d9017","system_id":"levelo_inurba_marseille","lat":43.2848,"lon":5.3854,"is_reserved":false,"is_disabled":false,"rental_uris":{"android":"levelo://app?vid=928f3e93-8b4f-476a-968e-14f5cc3d9017","ios":"levelo://app?vid=928f3e93-8b4f-476a-968e-14f5cc3d9017"},"vehicle_type_id":"4","last_reported":1731096552,"current_range_meters":38800,"station_id":"ce4bh8p2rcd13ifvqeb0","pricing_plan_id":"cebpf4jnsgd1na2vs0mg"},{"bike_id":"a23e175d-1ac7-4652-8737-4e4cd7d051d7","system_id":"levelo_inurba_marseille","lat":43.28044,"lon":5.397,"is_reserved":false,"is_disabled":false,"rental_uris":{"android":"levelo://app?vid=a23e175d-1ac7-4652-8737-4e4cd7d051d7","ios":"levelo://app?vid=a23e175d-1ac7-4652-8737-4e4cd7d051d7"},"vehicle_type_id":"4","last_reported":1731096552,"current_range_meters":18800,"station_id":"ce4bho12rcd13ifvqh2g","pricing_plan_id":"cebpf4jnsgd1na2vs0mg"},{"bike_id":"d2abf79a-e626-4f31-9a11-682d1bbde0f6","system_id":"levelo_inurba_marseille","lat":43.27432,"lon":5.39414,"is_reserved":false,"is_disabled":false,"rental_uris":{"android":"levelo://app?vid=d2abf79a-e626-4f31-9a11-682d1bbde0f6","ios":"levelo://app?vid=d2abf79a-e626-4f31-9a11-682d1bbde0f6"},"vehicle_type_id":"4","last_reported":1731096552,"current_range_meters":39200,"station_id":"ce4bhdp2rcd13ifvqf20","pricing_plan_id":"cebpf4jnsgd1na2vs0mg"},