{"last_updated":1701893280,"ttl":30,"version":"2.2","data":{"bikes":[{"bike_id":"00fd0414-f335-4b45-86db-e3ab2591728b","system_id":"levelo_inurba_marseille","lat":43.305706,"lon":5.365654,"is_reserved":false,"is_disabled":false,"rental_uris":{"android":"levelo://app?vid=00fd0414-f335-4b45-86db-e3ab2591728b","ios":"levelo://app?vid=00fd0414-f335-4b45-86db-e3ab2591728b"},"vehicle_type_id":"4","last_reported":1701893280,"current_range_meters":14000,"station_id":"ce4bgs12rcd13ifvqcag","pricing_plan_id":"free"},{"bike_id":"3a578191-6f1e-4a3d-9c82-2683572bb26d","system_id":"levelo_inurba_marseille","lat":43.319237,"lon":5.37299,"is_reserved":false,"is_disabled":false,"rental_uris":{"android":"levelo://app?vid=3a578191-6f1e-4a3d-9c82-2683572bb26d","ios":"levelo://app?vid=3a578191-6f1e-4a3d-9c82-2683572bb26d"},"vehicle_type_id":"4","last_reported":1701893280,"current_range_meters":0,"station_id":"","pricing_plan_id":"free"},{"bike_id":"32c60a84-173f-43f2-b56b-6c7206c9d027","system_id":"levelo_inurba_marseille","lat":43.305989,"lon":5.37225,"is_reserved":false,"is_disabled":false,"rental_uris":{"android":"levelo://app?vid=32c60a84-173f-43f2-b56b-6c7206c9d027","ios":"levelo://app?vid=32c60a84-173f-43f2-b56b-6c7206c9d027"},"vehicle_type_id":"4","last_reported":1701893280,"current_range_meters":2400,"station_id":"ce4bgqh2rcd13ifvqc4g","pricing_plan_id":"free"},{"bike_id":"dfde6743-1e95-41b5-852a-abf431e89a00","system_id":"levelo_inurba_marseille","lat":43.311131,"lon":5.377651,"is_reserved":false,"is_disabled":false,"rental_uris":{"android":"levelo://app?vid=dfde6743-1e95-41b5-852a-abf431e89a00","ios":"levelo://app?vid=dfde6743-1e95-41b5-852a-abf431e89a00"},"vehicle_type_id":"4","last_reported":1701893280,"current_range_meters":13200,"station_id":"ce4bgt92rcd13ifvqcg0","pricing_plan_id":"free"},{"bike_id":"c58a2089-b67f-42c5-ac7a-21fc01aff172","system_id":"levelo_inurba_marseille","lat":43.320564,"lon":5.371714,"is_reserved":false,"is_disabled":false,"rental_uris":{"android":"levelo://app?vid=c58a2089-b67f-42c5-ac7a-21fc01aff172","ios":"levelo://app?vid=c58a2089-b67f-42c5-ac7a-21fc01aff172"},"vehicle_type_id":"4","last_reported":1701893280,"current_range_meters":4000,"station_id":"","pricing_plan_id":"free"},{"bike_id":"adf146c5-e4e1-4668-9a33-042940925130","system_id":"levelo_inurba_marseille","lat":43.31351,"lon":5.37909,"is_reserved":false,"is_disabled":false,"rental_uris":{"android":"levelo://app?vid=adf146c5-e4e1-4668-9a33-042940925130","ios":"levelo://app?vid=adf146c5-e4e1-4668-9a33-042940925130"},"vehicle_type_id":"4","last_reported":1701893280,"current_range_meters":5200,"station_id":"","pricing_plan_id":"free"},{"bike_id":"d4693ab0-c8bb-4254-92cf-d961350123ba","system_id":"levelo_inurba_marseille","lat":43.301939,"lon":5.366286,"is_reserved":false,"is_disabled":false,"rental_uris":{"android":"levelo://app?vid=d4693ab0-c8bb-4254-92cf-d961350123ba","ios":"levelo://app?vid=d4693ab0-c8bb-4254-92cf-d961350123ba"},"vehicle_type_id":"4","last_reported":1701893280,"current_range_meters":24000,"station_id":"ce4bgrh2rcd13ifvqc8g","pricing_plan_id":"free"},{"bike_id":"1ea60f58-75f7-4484-b705-1156df4b02ad","system_id":"levelo_inurba_marseille","lat":43.30281,"lon":5.37331,"is_reserved":false,"is_disabled":false,"rental_uris":{"android":"levelo://app?vid=1ea60f58-75f7-4484-b705-1156df4b02ad","ios":"levelo://app?vid=1ea60f58-75f7-4484-b705-1156df4b02ad"},"vehicle_type_id":"4","last_reported":1701893280,"current_range_meters":7600,"station_id":"","pricing_plan_id":"free"},{"bike_id":"9ee4c670-2e61-4dea-bc17-5281b8afb803","system_id":"levelo_inurba_marseille","lat":43.301939,"lon":5.366286,"is_reserved":false,"is_disabled":false,"rental_uris":{"android":"levelo://app?vid=9ee4c670-2e61-4dea-bc17-5281b8afb803","ios":"levelo://app?vid=9ee4c670-2e61-4dea-bc17-5281b8afb803"},"vehicle_type_id":"4","last_reported":1701893280,"current_range_meters":0,"station_id":"ce4bgrh2rcd13ifvqc8g","pricing_plan_id":"free"},{"bike_id":"a45c56d4-4b12-4294-a1b9-3b3bc4270f40","system_id":"levelo_inurba_marseille","lat":43.3081,"lon":5.38143,"is_reserved":false,"is_disabled":false,"rental_uris":{"android":"levelo://app?vid=a45c56d4-4b12-4294-a1b9-3b3bc4270f40","ios":"levelo://app?vid=a45c56d4-4b12-4294-a1b9-3b3bc4270f40"},"vehicle_type_id":"4","last_reported":1701893280,"current_range_meters":0,"station_id":"ce4bgt12rcd13ifvqce0","pricing_plan_id":"free"},{"bike_id":"74bbfcfa-bf3c-4b1b-952c-0185f0fcb260","system_id":"levelo_inurba_marseille","lat":43.30807,"lon":5.38154,"is_reserved":false,"is_disabled":false,"rental_uris":{"android":"levelo://app?vid=74bbfcfa-bf3c-4b1b-952c-0185f0fcb260","ios":"levelo://app?vid=74bbfcfa-bf3c-4b1b-952c-0185f0fcb260"},"vehicle_type_id":"4","last_reported":1701893280,"current_range_meters":0,"station_id":"ce4bgt12rcd13ifvqce0","pricing_plan_id":"free"},{"bike_id":"02b9df50-c340-43dc-9c5b-e2e566cf6378","system_id":"levelo_inurba_marseille","lat":43.30798,"lon":5.38154,"is_reserved":false,"is_disabled":false,"rental_uris":{"android":"levelo://app?vid=02b9df50-c340-43dc-9c5b-e2e566cf6378","ios":"levelo://app?vid=02b9df50-c340-43dc-9c5b-e2e566cf6378"},"vehicle_type_id":"4","last_reported":1701893280,"current_range_meters":0,"station_id":"ce4bgt12rcd13ifvqce0","pricing_plan_id":"free"},{"bike_id":"fa064211-f3d3-4824-bb27-ff5ba665659e","system_id":"levelo_inurba_marseille","lat":43.30799,"lon":5.38156,"is_reserved":false,"is_disabled":false,"rental_uris":{"android":"levelo://app?vid=fa064211-f3d3-4824-bb27-ff5ba665659e","ios":"levelo://app?vid=fa064211-f3d3-4824-bb27-ff5ba665659e"},"vehicle_type_id":"4","last_reported":1701893280,"current_range_meters":0,"station_id":"ce4bgt12rcd13ifvqce0","pricing_plan_id":"free"},{"bike_id":"869cc380-7af1-4035-869d-ad2afc9490bb","system_id":"levelo_inurba_marseille","lat":43.304539,"lon":5.379082,"is_reserved":false,"is_disabled":false,"rental_uris":{"android":"levelo://app?vid=869cc380-7af1-4035-869d-ad2afc9490bb","ios":"levelo://app?vid=869cc380-7af1-4035-869d-ad2afc9490bb"},"vehicle_type_id":"4","last_reported":1701893280,"current_range_meters":10000,"station_id":"ce4bgup2rcd13ifvqcn0","pricing_plan_id":"free"},{"bike_id":"e6a7946c-a7d5-4369-b254-577b631c8d1a","system_id":"levelo_inurba_marseille","lat":43.31719,"lon":5.38246,"is_reserved":false,"is_disabled":false,"rental_uris":{"android":"levelo://app?vid=e6a7946c-a7d5-4369-b254-577b631c8d1a","ios":"levelo://app?vid=e6a7946c-a7d5-4369-b254-577b631c8d1a"},"vehicle_type_id":"4","last_reported":1701893280,"current_range_meters":26000,"station_id":"","pricing_plan_id":"free"},{"bike_id":"44b639d4-c394-49b2-9e18-6098ae373bd6","system_id":"levelo_inurba_marseille","lat":43.31919,"lon":5.38121,"is_reserved":false,"is_disabled":false,"rental_uris":{"android":"levelo://app?vid=44b639d4-c394-49b2-9e18-6098ae373bd6","ios":"levelo://app?vid=44b639d4-c394-49b2-9e18-6098ae373bd6"},"vehicle_type_id":"4","last_reported":1701893280,"current_range_meters":30400,"station_id":"","pricing_plan_id":"free"},{"bike_id":"997be212-dffb-4096-89c5-eb989d979e9e","system_id":"levelo_inurba_marseille","lat":43.30143,"lon":5.37413,"is_reserved":false,"is_disabled":false,"rental_uris":{"android":"levelo://app?vid=997be212-dffb-4096-89c5-eb989d979e9e","ios":"levelo://app?vid=997be212-dffb-4096-89c5-eb989d979e9e"},"vehicle_type_id":"4","last_reported":1701893280,"current_range_meters":30800,"station_id":"ce4bgs92rcd13ifvqcc0","pricing_plan_id":"free"},{"bike_id":"4ef92b0c-7bc0-4274-9e89-465dd9c41028","system_id":"levelo_inurba_marseille","lat":43.301429,"lon":5.37413,"is_reserved":false,"is_disabled":false,"rental_uris":{"android":"levelo://app?vid=4ef92b0c-7bc0-4274-9e89-465dd9c41028","ios":"levelo://app?vid=4ef92b0c-7bc0-4274-9e89-465dd9c41028"},"vehicle_type_id":"4","last_reported":1701893280,"current_range_meters":13600,"station_id":"ce4bgs92rcd13ifvqcc0","pricing_plan_id":"free"},{"bike_id":"9ee0ef7a-8d9c-4d78-8ae5-64e12b708d26","system_id":"levelo_inurba_marseille","lat":43.319997,"lon":5.381594,"is_reserved":false,"is_disabled":false,"rental_uris":{"android":"levelo://app?vid=9ee0ef7a-8d9c-4d78-8ae5-64e12b708d26","ios":"levelo://app?vid=9ee0ef7a-8d9c-4d78-8ae5-64e12b708d26"},"vehicle_type_id":"4","last_reported":1701893280,"current_range_meters":0,"station_id":"ce4bhr12rcd13ifvqhpg","pricing_plan_id":"free"},{"bike_id":"6f1a7f4d-a1d9-47fc-8be2-19cb7f99daaf","system_id":"levelo_inurba_marseille","lat":43.3199,"lon":5.38169,"is_reserved":false,"is_disabled":false,"rental_uris":{"android":"levelo://app?vid=6f1a7f4d-a1d9-47fc-8be2-19cb7f99daaf","ios":"levelo://app?vid=6f1a7f4d-a1d9-47fc-8be2-19cb7f99daaf"},"vehicle_type_id":"4","last_reported":1701893280,"current_range_meters":25200,"station_id":"ce4bhr12rcd13ifvqhpg","pricing_plan_id":"free"},{"bike_id":"6bbc4704-bdb7-485a-b657-3e670f011673","system_id":"levelo_inurba_marseille","lat":43.30575,"lon":5.38374,"is_reserved":false,"is_disabled":false,"rental_uris":{"android":"levelo://app?vid=6bbc4704-bdb7-485a-b657-3e670f011673","ios":"levelo://app?vid=6bbc4704-bdb7-485a-b657-3e670f011673"},"vehicle_type_id":"4","last_reported":1701893280,"current_range_meters":0,"station_id":"","pricing_plan_id":"free"},{"bike_id":"ea7a184b-6a01-47fd-b347-1470b528f2c4","system_id":"levelo_inurba_marseille","lat":43.305364,"lon":5.384119,"is_reserved":false,"is_disabled":false,"rental_uris":{"android":"levelo://app?vid=ea7a184b-6a01-47fd-b347-1470b528f2c4","ios":"levelo://app?vid=ea7a184b-6a01-47fd-b347-1470b528f2c4"},"vehicle_type_id":"4","last_reported":1701893280,"current_range_meters":6800,"station_id":"ce4bgg92rcd13ifvqb30","pricing_plan_id":"free"},{"bike_id":"793ca785-6f03-4c5a-a2e4-47d48ee16b70","system_id":"levelo_inurba_marseille","lat":43.298433,"lon":5.362774,"is_reserved":false,"is_disabled":false,"rental_uris":{"android":"levelo://app?vid=793ca785-6f03-4c5a-a2e4-47d48ee16b70","ios":"levelo://app?vid=793ca785-6f03-4c5a-a2e4-47d48ee16b70"},"vehicle_type_id":"4","last_reported":1701893280,"current_range_meters":15200,"station_id":"ce4bgpp2rcd13ifvqc3g","pricing_plan_id":"free"},{"bike_id":"25fa25dd-d46c-4133-804a-3bc99ab8a624","system_id":"levelo_inurba_marseille","lat":43.299243,"lon":5.374807,"is_reserved":false,"is_disabled":false,"rental_uris":{"android":"levelo://app?vid=25fa25dd-d46c-4133-804a-3bc99ab8a624","ios":"levelo://app?vid=25fa25dd-d46c-4133-804a-3bc99ab8a624"},"vehicle_type_id":"4","last_reported":1701893280,"current_range_meters":8400,"station_id":"ce4bgjh2rcd13ifvqbg0","pricing_plan_id":"free"},{"bike_id":"dcfcce41-8840-4a9c-b046-ec8f2f9d33dc","system_id":"levelo_inurba_marseille","lat":43.311722,"lon":5.387247,"is_reserved":false,"is_disabled":false,"rental_uris":{"android":"levelo://app?vid=dcfcce41-8840-4a9c-b046-ec8f2f9d33dc","ios":"levelo://app?vid=dcfcce41-8840-4a9c-b046-ec8f2f9d33dc"},"vehicle_type_id":"4","last_reported":1701893280,"current_range_meters":15200,"station_id":"ce4bgv12rcd13ifvqcp0","pricing_plan_id":"free"},{"bike_id":"79ce753b-faa7-4fdc-a525-caccc981a3dd","system_id":"levelo_inurba_marseille","lat":43.297774,"lon":5.370875,"is_reserved":false,"is_disabled":false,"rental_uris":{"android":"levelo://app?vid=79ce753b-faa7-4fdc-a525-caccc981a3dd","ios":"levelo://app?vid=79ce753b-faa7-4fdc-a525-caccc981a3dd"},"vehicle_type_id":"4","last_reported":1701893280,"current_range_meters":21600,"station_id":"ce4bgop2rcd13ifvqc1g","pricing_plan_id":"free"},{"bike_id":"5080d4b1-3c07-41d1-a768-d93ebcb4fda1","system_id":"levelo_inurba_marseille","lat":43.297774,"lon":5.370875,"is_reserved":false,"is_disabled":false,"rental_uris":{"android":"levelo://app?vid=5080d4b1-3c07-41d1-a768-d93ebcb4fda1","ios":"levelo://app?vid=5080d4b1-3c07-41d1-a768-d93ebcb4fda1"},"vehicle_type_id":"4","last_reported":1701893280,"current_range_meters":26000,"station_id":"ce4bgop2rcd13ifvqc1g","pricing_plan_id":"free"},{"bike_id":"ccd2930a-694b-4f68-b635-18c1f22abb51","system_id":"levelo_inurba_marseille","lat":43.322872,"lon":5.382756,"is_reserved":false,"is_disabled":false,"rental_uris":{"android":"levelo://app?vid=ccd2930a-694b-4f68-b635-18c1f22abb51","ios":"levelo://app?vid=ccd2930a-694b-4f68-b635-18c1f22abb51"},"vehicle_type_id":"4","last_reported":1701893280,"current_range_meters":30800,"station_id":"ce4bhr12rcd13ifvqhqg","pricing_plan_id":"free"},{"bike_id":"e162cb92-ec88-4378-922d-c24222956199","system_id":"levelo_inurba_marseille","lat":43.322872,"lon":5.382756,"is_reserved":false,"is_disabled":false,"rental_uris":{"android":"levelo://app?vid=e162cb92-ec88-4378-922d-c24222956199","ios":"levelo://app?vid=e162cb92-ec88-4378-922d-c24222956199"},"vehicle_type_id":"4","last_reported":1701893280,"current_range_meters":23600,"station_id":"ce4bhr12rcd13ifvqhqg","pricing_plan_id":"free"},{"bike_id":"55ccc96c-fa12-43da-ace3-cf5d15fb5429","system_id":"levelo_inurba_marseille","lat":43.298218,"lon":5.374416,"is_reserved":false,"is_disabled":false,"rental_uris":{"android":"levelo://app?vid=55ccc96c-fa12-43da-ace3-cf5d15fb5429","ios":"levelo://app?vid=55ccc96c-fa12-43da-ace3-cf5d15fb5429"},"vehicle_type_id":"4","last_reported":1701893280,"current_range_meters":12400,"station_id":"","pricing_plan_id":"free"},{"bike_id":"cce15627-0bb6-4c03-b21c-33120a200a2a","system_id":"levelo_inurba_marseille","lat":43.297163,"lon":5.365866,"is_reserved":false,"is_disabled":false,"rental_uris":{"android":"levelo://app?vid=cce15627-0bb6-4c03-b21c-33120a200a2a","ios":"levelo://app?vid=cce15627-0bb6-4c03-b21c-33120a200a2a"},"vehicle_type_id":"4","last_reported":1701893280,"current_range_meters":19200,"station_id":"ce4bgn12rcd13ifvqbt0","pricing_plan_id":"free"},{"bike_id":"3f1631e6-39ee-456c-a0f3-d3538ea9ac5c","system_id":"levelo_inurba_marseille","lat":43.297163,"lon":5.365866,"is_reserved":false,"is_disabled":false,"rental_uris":{"android":"levelo://app?vid=3f1631e6-39ee-456c-a0f3-d3538ea9ac5c","ios":"levelo://app?vid=3f1631e6-39ee-456c-a0f3-d3538ea9ac5c"},"vehicle_type_id":"4","last_reported":1701893280,"current_range_meters":22400,"station_id":"ce4bgn12rcd13ifvqbt0","pricing_plan_id":"free"},{"bike_id":"2424b203-2bfa-46d0-8b7b-b616d11edac6","system_id":"levelo_inurba_marseille","lat":43.328395,"lon":5.36236,"is_reserved":false,"is_disabled":false,"rental_uris":{"android":"levelo://app?vid=2424b203-2bfa-46d0-8b7b-b616d11edac6","ios":"levelo://app?vid=2424b203-2bfa-46d0-8b7b-b616d11edac6"},"vehicle_type_id":"4","last_reported":1701893280,"current_range_meters":8000,"station_id":"","pricing_plan_id":"free"},{"bike_id":"94007754-7055-4e9f-884b-a69ad1a23f33","system_id":"levelo_inurba_marseille","lat":43.298946,"lon":5.378259,"is_reserved":false,"is_disabled":false,"rental_uris":{"android":"levelo://app?vid=94007754-7055-4e9f-884b-a69ad1a23f33","ios":"levelo://app?vid=94007754-7055-4e9f-884b-a69ad1a23f33"},"vehicle_type_id":"4","last_reported":1701893280,"current_range_meters":22000,"station_id":"","pricing_plan_id":"free"},{"bike_id":"92dc65d6-6823-4de3-93d4-056f738f090c","system_id":"levelo_inurba_marseille","lat":43.316538,"lon":5.38954,"is_reserved":false,"is_disabled":false,"rental_uris":{"android":"levelo://app?vid=92dc65d6-6823-4de3-93d4-056f738f090c","ios":"levelo://app?vid=92dc65d6-6823-4de3-93d4-056f738f090c"},"vehicle_type_id":"4","last_reported":1701893280,"current_range_meters":8400,"station_id":"","pricing_plan_id":"free"},{"bike_id":"d24311f0-d9eb-4874-abb4-6ba68647233c","system_id":"levelo_inurba_marseille","lat":43.296921,"lon":5.376579,"is_reserved":false,"is_disabled":false,"rental_uris":{"android":"levelo://app?vid=d24311f0-d9eb-4874-abb4-6ba68647233c","ios":"levelo://app?vid=d24311f0-d9eb-4874-abb4-6ba68647233c"},"vehicle_type_id":"4","last_reported":1701893280,"current_range_meters":20000,"station_id":"ce4bgkh2rcd13ifvqbl0","pricing_plan_id":"free"},{"bike_id":"e9599ef7-1961-4526-8c10-5e70c1891cfa","system_id":"levelo_inurba_marseille","lat":43.29708,"lon":5.37702,"is_reserved":false,"is_disabled":false,"rental_uris":{"android":"levelo://app?vid=e9599ef7-1961-4526-8c10-5e70c1891cfa","ios":"levelo://app?vid=e9599ef7-1961-4526-8c10-5e70c1891cfa"},"vehicle_type_id":"4","last_reported":1701893280,"current_range_meters":18800,"station_id":"ce4bgkh2rcd13ifvqbl0","pricing_plan_id":"free"},{"bike_id":"0149116d-e05d-4b2d-8553-17616f0e8b08","system_id":"levelo_inurba_marseille","lat":43.309589,"lon":5.390258,"is_reserved":false,"is_disabled":false,"rental_uris":{"android":"levelo://app?vid=0149116d-e05d-4b2d-8553-17616f0e8b08","ios":"levelo://app?vid=0149116d-e05d-4b2d-8553-17616f0e8b08"},"vehicle_type_id":"4","last_reported":1701893280,"current_range_meters":20000,"station_id":"ce4bgup2rcd13ifvqco0","pricing_plan_id":"free"},{"bike_id":"12daa09a-f553-48e2-8ccb-f63937d96b85","system_id":"levelo_inurba_marseille","lat":43.317557,"lon":5.390173,"is_reserved":false,"is_disabled":false,"rental_uris":{"android":"levelo://app?vid=12daa09a-f553-48e2-8ccb-f63937d96b85","ios":"levelo://app?vid=12daa09a-f553-48e2-8ccb-f63937d96b85"},"vehicle_type_id":"4","last_reported":1701893280,"current_range_meters":17600,"station_id":"ce4bhqp2rcd13ifvqhng","pricing_plan_id":"free"},{"bike_id":"9de1a80e-a5a6-4b70-9a80-3d9a37cc8846","system_id":"levelo_inurba_marseille","lat":43.33024,"lon":5.36419,"is_reserved":false,"is_disabled":false,"rental_uris":{"android":"levelo://app?vid=9de1a80e-a5a6-4b70-9a80-3d9a37cc8846","ios":"levelo://app?vid=9de1a80e-a5a6-4b70-9a80-3d9a37cc8846"},"vehicle_type_id":"4","last_reported":1701893280,"current_range_meters":29200,"station_id":"","pricing_plan_id":"free"},{"bike_id":"8ef64723-62b0-456b-8d0e-f83c86483f2f","system_id":"levelo_inurba_marseille","lat":43.29514,"lon":5.37423,"is_reserved":false,"is_disabled":false,"rental_uris":{"android":"levelo://app?vid=8ef64723-62b0-456b-8d0e-f83c86483f2f","ios":"levelo://app?vid=8ef64723-62b0-456b-8d0e-f83c86483f2f"},"vehicle_type_id":"4","last_reported":1701893280,"current_range_meters":0,"station_id":"","pricing_plan_id":"free"},{"bike_id":"c0d112ed-aa00-4e04-98cc-5e233d12053e","system_id":"levelo_inurba_marseille","lat":43.299717,"lon":5.384845,"is_reserved":false,"is_disabled":false,"rental_uris":{"android":"levelo://app?vid=c0d112ed-aa00-4e04-98cc-5e233d12053e","ios":"levelo://app?vid=c0d112ed-aa00-4e04-98cc-5e233d12053e"},"vehicle_type_id":"4","last_reported":1701893280,"current_range_meters":11200,"station_id":"ce4bgj92rcd13ifvqbd0","pricing_plan_id":"free"},{"bike_id":"233e4129-c716-4e09-94ef-d5f352bf2177","system_id":"levelo_inurba_marseille","lat":43.29601,"lon":5.381084,"is_reserved":false,"is_disabled":false,"rental_uris":{"android":"levelo://app?vid=233e4129-c716-4e09-94ef-d5f352bf2177","ios":"levelo://app?vid=233e4129-c716-4e09-94ef-d5f352bf2177"},"vehicle_type_id":"4","last_reported":1701893280,"current_range_meters":28000,"station_id":"ce4bgl12rcd13ifvqbo0","pricing_plan_id":"free"},{"bike_id":"72ea6385-fc9d-4606-ac6e-fc5d186f7d6d","system_id":"levelo_inurba_marseille","lat":43.30595,"lon":5.39361,"is_reserved":false,"is_disabled":false,"rental_uris":{"android":"levelo://app?vid=72ea6385-fc9d-4606-ac6e-fc5d186f7d6d","ios":"levelo://app?vid=72ea6385-fc9d-4606-ac6e-fc5d186f7d6d"},"vehicle_type_id":"4","last_reported":1701893280,"current_range_meters":10000,"station_id":"ce4bh0p2rcd13ifvqd80","pricing_plan_id":"free"},{"bike_id":"71be9b7b-7d31-439c-9da1-1ef5edf46d53","system_id":"levelo_inurba_marseille","lat":43.305994,"lon":5.393687,"is_reserved":false,"is_disabled":false,"rental_uris":{"android":"levelo://app?vid=71be9b7b-7d31-439c-9da1-1ef5edf46d53","ios":"levelo://app?vid=71be9b7b-7d31-439c-9da1-1ef5edf46d53"},"vehicle_type_id":"4","last_reported":1701893280,"current_range_meters":400,"station_id":"ce4bh0p2rcd13ifvqd80","pricing_plan_id":"free"},{"bike_id":"311790f4-0d13-4d22-b2c7-2f4b06fd5d28","system_id":"levelo_inurba_marseille","lat":43.302992,"lon":5.392136,"is_reserved":false,"is_disabled":false,"rental_uris":{"android":"levelo://app?vid=311790f4-0d13-4d22-b2c7-2f4b06fd5d28","ios":"levelo://app?vid=311790f4-0d13-4d22-b2c7-2f4b06fd5d28"},"vehicle_type_id":"4","last_reported":1701893280,"current_range_meters":6000,"station_id":"ce4bgkh2rcd13ifvqbk0","pricing_plan_id":"free"},{"bike_id":"090bde6e-66e3-4556-9fcf-534de9c85789","system_id":"levelo_inurba_marseille","lat":43.291675,"lon":5.371583,"is_reserved":false,"is_disabled":false,"rental_uris":{"android":"levelo://app?vid=090bde6e-66e3-4556-9fcf-534de9c85789","ios":"levelo://app?vid=090bde6e-66e3-4556-9fcf-534de9c85789"},"vehicle_type_id":"4","last_reported":1701893280,"current_range_meters":24800,"station_id":"ce4bha92rcd13ifvqeh0","pricing_plan_id":"free"},{"bike_id":"780ad88f-df78-4597-ab81-7c5557296a52","system_id":"levelo_inurba_marseille","lat":43.291675,"lon":5.371583,"is_reserved":false,"is_disabled":false,"rental_uris":{"android":"levelo://app?vid=780ad88f-df78-4597-ab81-7c5557296a52","ios":"levelo://app?vid=780ad88f-df78-4597-ab81-7c5557296a52"},"vehicle_type_id":"4","last_reported":1701893280,"current_range_meters":18000,"station_id":"ce4bha92rcd13ifvqeh0","pricing_plan_id":"free"},{"bike_id":"096201ef-8609-4286-b756-40dfeb402718","system_id":"levelo_inurba_marseille","lat":43.29198,"lon":5.35802,"is_reserved":false,"is_disabled":false,"rental_uris":{"android":"levelo://app?vid=096201ef-8609-4286-b756-40dfeb402718","ios":"levelo://app?vid=096201ef-8609-4286-b756-40dfeb402718"},"vehicle_type_id":"4","last_reported":1701893280,"current_range_meters":4400,"station_id":"ce4bhb12rcd13ifvqel0","pricing_plan_id":"free"},{"bike_id":"01bd8474-381a-4efd-a326-b246b5f06534","system_id":"levelo_inurba_marseille","lat":43.290631,"lon":5.359244,"is_reserved":false,"is_disabled":false,"rental_uris":{"android":"levelo://app?vid=01bd8474-381a-4efd-a326-b246b5f06534","ios":"levelo://app?vid=01bd8474-381a-4efd-a326-b246b5f06534"},"vehicle_type_id":"4","last_reported":1701893280,"current_range_meters":11200,"station_id":"ce4bha92rcd13ifvqeg0","pricing_plan_id":"free"},{"bike_id":"50dc6a3a-d392-40b0-9f63-35402ec5ed17","system_id":"levelo_inurba_marseille","lat":43.290263,"lon":5.374317,"is_reserved":false,"is_disabled":false,"rental_uris":{"android":"levelo://app?vid=50dc6a3a-d392-40b0-9f63-35402ec5ed17","ios":"levelo://app?vid=50dc6a3a-d392-40b0-9f63-35402ec5ed17"},"vehicle_type_id":"4","last_reported":1701893280,"current_range_meters":2800,"station_id":"","pricing_plan_id":"free"},{"bike_id":"52b35c58-4764-48ab-a049-812ccd22adf4","system_id":"levelo_inurba_marseille","lat":43.290327,"lon":5.375711,"is_reserved":false,"is_disabled":false,"rental_uris":{"android":"levelo://app?vid=52b35c58-4764-48ab-a049-812ccd22adf4","ios":"levelo://app?vid=52b35c58-4764-48ab-a049-812ccd22adf4"},"vehicle_type_id":"4","last_reported":1701893280,"current_range_meters":8800,"station_id":"ce4bh692rcd13ifvqe90","pricing_plan_id":"free"},{"bike_id":"d9a772eb-e9f0-4caa-a5cb-2f1a8c7b7986","system_id":"levelo_inurba_marseille","lat":43.289184,"lon":5.366408,"is_reserved":false,"is_disabled":false,"rental_uris":{"android":"levelo://app?vid=d9a772eb-e9f0-4caa-a5cb-2f1a8c7b7986","ios":"levelo://app?vid=d9a772eb-e9f0-4caa-a5cb-2f1a8c7b7986"},"vehicle_type_id":"4","last_reported":1701893280,"current_range_meters":31200,"station_id":"ce4bhap2rcd13ifvqek0","pricing_plan_id":"free"},{"bike_id":"304c9e39-9d02-4bb9-a88b-45e1147fdd60","system_id":"levelo_inurba_marseille","lat":43.289184,"lon":5.366408,"is_reserved":false,"is_disabled":false,"rental_uris":{"android":"levelo://app?vid=304c9e39-9d02-4bb9-a88b-45e1147fdd60","ios":"levelo://app?vid=304c9e39-9d02-4bb9-a88b-45e1147fdd60"},"vehicle_type_id":"4","last_reported":1701893280,"current_range_meters":0,"station_id":"ce4bhap2rcd13ifvqek0","pricing_plan_id":"free"},{"bike_id":"b1d3bd38-a58e-4fa1-8a74-565d884c5ea3","system_id":"levelo_inurba_marseille","lat":43.289184,"lon":5.366408,"is_reserved":false,"is_disabled":false,"rental_uris":{"android":"levelo://app?vid=b1d3bd38-a58e-4fa1-8a74-565d884c5ea3","ios":"levelo://app?vid=b1d3bd38-a58e-4fa1-8a74-565d884c5ea3"},"vehicle_type_id":"4","last_reported":1701893280,"current_range_meters":31600,"station_id":"ce4bhap2rcd13ifvqek0","pricing_plan_id":"free"},{"bike_id":"ad9a28b4-f454-492e-8dc9-bab39e422c8e","system_id":"levelo_inurba_marseille","lat":43.289184,"lon":5.366408,"is_reserved":false,"is_disabled":false,"rental_uris":{"android":"levelo://app?vid=ad9a28b4-f454-492e-8dc9-bab39e422c8e","ios":"levelo://app?vid=ad9a28b4-f454-492e-8dc9-bab39e422c8e"},"vehicle_type_id":"4","last_reported":1701893280,"current_range_meters":31600,"station_id":"ce4bhap2rcd13ifvqek0","pricing_plan_id":"free"},{"bike_id":"a02a1b20-1fb1-4951-988a-77389649024d","system_id":"levelo_inurba_marseille","lat":43.289259,"lon":5.366364,"is_reserved":false,"is_disabled":false,"rental_uris":{"android":"levelo://app?vid=a02a1b20-1fb1-4951-988a-77389649024d","ios":"levelo://app?vid=a02a1b20-1fb1-4951-988a-77389649024d"},"vehicle_type_id":"4","last_reported":1701893280,"current_range_meters":22400,"station_id":"","pricing_plan_id":"free"},{"bike_id":"d2f9abb6-9805-4e3b-8a04-9a927667d3bb","system_id":"levelo_inurba_marseille","lat":43.292644,"lon":5.384257,"is_reserved":false,"is_disabled":false,"rental_uris":{"android":"levelo://app?vid=d2f9abb6-9805-4e3b-8a04-9a927667d3bb","ios":"levelo://app?vid=d2f9abb6-9805-4e3b-8a04-9a927667d3bb"},"vehicle_type_id":"4","last_reported":1701893280,"current_range_meters":12000,"station_id":"ce4bh692rcd13ifvqea0","pricing_plan_id":"free"},{"bike_id":"0f5ba8c4-099a-4884-ae56-f804fa87f3cf","system_id":"levelo_inurba_marseille","lat":43.290104,"lon":5.356111,"is_reserved":false,"is_disabled":false,"rental_uris":{"android":"levelo://app?vid=0f5ba8c4-099a-4884-ae56-f804fa87f3cf","ios":"levelo://app?vid=0f5ba8c4-099a-4884-ae56-f804fa87f3cf"},"vehicle_type_id":"4","last_reported":1701893280,"current_range_meters":4400,"station_id":"ce4bhb92rcd13ifvqen0","pricing_plan_id":"free"},{"bike_id":"b197cbe7-a489-43b4-926b-b2f71fd3eb65","system_id":"levelo_inurba_marseille","lat":43.297815,"lon":5.393548,"is_reserved":false,"is_disabled":false,"rental_uris":{"android":"levelo://app?vid=b197cbe7-a489-43b4-926b-b2f71fd3eb65","ios":"levelo://app?vid=b197cbe7-a489-43b4-926b-b2f71fd3eb65"},"vehicle_type_id":"4","last_reported":1701893280,"current_range_meters":6000,"station_id":"chh1huq6cuj3fo74tm60","pricing_plan_id":"free"},{"bike_id":"74e8b9ae-3a7e-4511-8ed8-c0c1501e15d7","system_id":"levelo_inurba_marseille","lat":43.29778,"lon":5.39335,"is_reserved":false,"is_disabled":false,"rental_uris":{"android":"levelo://app?vid=74e8b9ae-3a7e-4511-8ed8-c0c1501e15d7","ios":"levelo://app?vid=74e8b9ae-3a7e-4511-8ed8-c0c1501e15d7"},"vehicle_type_id":"4","last_reported":1701893280,"current_range_meters":10800,"station_id":"chh1huq6cuj3fo74tm60","pricing_plan_id":"free"},{"bike_id":"b83f54bc-b814-40b4-82de-08cdb79687d0","system_id":"levelo_inurba_marseille","lat":43.290094,"lon":5.381264,"is_reserved":false,"is_disabled":false,"rental_uris":{"android":"levelo://app?vid=b83f54bc-b814-40b4-82de-08cdb79687d0","ios":"levelo://app?vid=b83f54bc-b814-40b4-82de-08cdb79687d0"},"vehicle_type_id":"4","last_reported":1701893280,"current_range_meters":7200,"station_id":"ce4bh4p2rcd13ifvqe1g","pricing_plan_id":"free"},{"bike_id":"c655cb89-92ee-4a03-8128-76bfc9e75cdb","system_id":"levelo_inurba_marseille","lat":43.288487,"lon":5.358625,"is_reserved":false,"is_disabled":false,"rental_uris":{"android":"levelo://app?vid=c655cb89-92ee-4a03-8128-76bfc9e75cdb","ios":"levelo://app?vid=c655cb89-92ee-4a03-8128-76bfc9e75cdb"},"vehicle_type_id":"4","last_reported":1701893280,"current_range_meters":0,"station_id":"ce4bhb12rcd13ifvqem0","pricing_plan_id":"free"},{"bike_id":"3dcc588a-3007-4d42-8cd2-6bb0abb7cb8c","system_id":"levelo_inurba_marseille","lat":43.30935,"lon":5.40147,"is_reserved":false,"is_disabled":false,"rental_uris":{"android":"levelo://app?vid=3dcc588a-3007-4d42-8cd2-6bb0abb7cb8c","ios":"levelo://app?vid=3dcc588a-3007-4d42-8cd2-6bb0abb7cb8c"},"vehicle_type_id":"4","last_reported":1701893280,"current_range_meters":0,"station_id":"ce4bgvp2rcd13ifvqct0","pricing_plan_id":"free"},{"bike_id":"e3ac798c-6343-43ea-9327-13ff9d258c8c","system_id":"levelo_inurba_marseille","lat":43.337463,"lon":5.374796,"is_reserved":false,"is_disabled":false,"rental_uris":{"android":"levelo://app?vid=e3ac798c-6343-43ea-9327-13ff9d258c8c","ios":"levelo://app?vid=e3ac798c-6343-43ea-9327-13ff9d258c8c"},"vehicle_type_id":"4","last_reported":1701893280,"current_range_meters":30400,"station_id":"","pricing_plan_id":"free"},{"bike_id":"c1dbbc09-0034-45ec-8bd0-52d9f84cbcd2","system_id":"levelo_inurba_marseille","lat":43.337515,"lon":5.374499,"is_reserved":false,"is_disabled":false,"rental_uris":{"android":"levelo://app?vid=c1dbbc09-0034-45ec-8bd0-52d9f84cbcd2","ios":"levelo://app?vid=c1dbbc09-0034-45ec-8bd0-52d9f84cbcd2"},"vehicle_type_id":"4","last_reported":1701893280,"current_range_meters":30800,"station_id":"","pricing_plan_id":"free"},{"bike_id":"44c1b1b2-0973-4870-b46d-f2780c9c18c7","system_id":"levelo_inurba_marseille","lat":43.337504,"lon":5.374602,"is_reserved":false,"is_disabled":false,"rental_uris":{"android":"levelo://app?vid=44c1b1b2-0973-4870-b46d-f2780c9c18c7","ios":"levelo://app?vid=44c1b1b2-0973-4870-b46d-f2780c9c18c7"},"vehicle_type_id":"4","last_reported":1701893280,"current_range_meters":20800,"station_id":"","pricing_plan_id":"free"},{"bike_id":"822605d2-7494-4f1f-8e85-7b21a1e83420","system_id":"levelo_inurba_marseille","lat":43.337517,"lon":5.374738,"is_reserved":false,"is_disabled":false,"rental_uris":{"android":"levelo://app?vid=822605d2-7494-4f1f-8e85-7b21a1e83420","ios":"levelo://app?vid=822605d2-7494-4f1f-8e85-7b21a1e83420"},"vehicle_type_id":"4","last_reported":1701893280,"current_range_meters":22800,"station_id":"","pricing_plan_id":"free"},{"bike_id":"c7696395-4b6d-47c6-ba5e-ed97d58bdf6e","system_id":"levelo_inurba_marseille","lat":43.337579,"lon":5.374603,"is_reserved":false,"is_disabled":false,"rental_uris":{"android":"levelo://app?vid=c7696395-4b6d-47c6-ba5e-ed97d58bdf6e","ios":"levelo://app?vid=c7696395-4b6d-47c6-ba5e-ed97d58bdf6e"},"vehicle_type_id":"4","last_reported":1701893280,"current_range_meters":27200,"station_id":"","pricing_plan_id":"free"},{"bike_id":"c414c01b-a2f8-498a-b878-2b9e16cb8f02","system_id":"levelo_inurba_marseille","lat":43.337624,"lon":5.374428,"is_reserved":false,"is_disabled":false,"rental_uris":{"android":"levelo://app?vid=c414c01b-a2f8-498a-b878-2b9e16cb8f02","ios":"levelo://app?vid=c414c01b-a2f8-498a-b878-2b9e16cb8f02"},"vehicle_type_id":"4","last_reported":1701893280,"current_range_meters":28400,"station_id":"","pricing_plan_id":"free"},{"bike_id":"f5d79dbc-d3de-4a2b-8652-21e6bd5f0486","system_id":"levelo_inurba_marseille","lat":43.30642,"lon":5.401031,"is_reserved":false,"is_disabled":false,"rental_uris":{"android":"levelo://app?vid=f5d79dbc-d3de-4a2b-8652-21e6bd5f0486","ios":"levelo://app?vid=f5d79dbc-d3de-4a2b-8652-21e6bd5f0486"},"vehicle_type_id":"4","last_reported":1701893280,"current_range_meters":0,"station_id":"ce4bh112rcd13ifvqda0","pricing_plan_id":"free"},{"bike_id":"736de286-1827-490e-9b81-8542a82e14a5","system_id":"levelo_inurba_marseille","lat":43.33757,"lon":5.37498,"is_reserved":false,"is_disabled":false,"rental_uris":{"android":"levelo://app?vid=736de286-1827-490e-9b81-8542a82e14a5","ios":"levelo://app?vid=736de286-1827-490e-9b81-8542a82e14a5"},"vehicle_type_id":"4","last_reported":1701893280,"current_range_meters":24800,"station_id":"","pricing_plan_id":"free"},{"bike_id":"8a54f192-34c1-4b84-b2dd-9be8f8e35ad9","system_id":"levelo_inurba_marseille","lat":43.3377,"lon":5.37483,"is_reserved":false,"is_disabled":false,"rental_uris":{"android":"levelo://app?vid=8a54f192-34c1-4b84-b2dd-9be8f8e35ad9","ios":"levelo://app?vid=8a54f192-34c1-4b84-b2dd-9be8f8e35ad9"},"vehicle_type_id":"4","last_reported":1701893280,"current_range_meters":29600,"station_id":"","pricing_plan_id":"free"},{"bike_id":"d0b32134-b372-467f-8cb7-c9fa8fed5513","system_id":"levelo_inurba_marseille","lat":43.301117,"lon":5.398795,"is_reserved":false,"is_disabled":false,"rental_uris":{"android":"levelo://app?vid=d0b32134-b372-467f-8cb7-c9fa8fed5513","ios":"levelo://app?vid=d0b32134-b372-467f-8cb7-c9fa8fed5513"},"vehicle_type_id":"4","last_reported":1701893280,"current_range_meters":4400,"station_id":"ce4bh0h2rcd13ifvqd40","pricing_plan_id":"free"},{"bike_id":"1ab10416-68e5-4c23-9fdb-54ab6c528f9b","system_id":"levelo_inurba_marseille","lat":43.286961,"lon":5.373785,"is_reserved":false,"is_disabled":false,"rental_uris":{"android":"levelo://app?vid=1ab10416-68e5-4c23-9fdb-54ab6c528f9b","ios":"levelo://app?vid=1ab10416-68e5-4c23-9fdb-54ab6c528f9b"},"vehicle_type_id":"4","last_reported":1701893280,"current_range_meters":25200,"station_id":"ce4bh3p2rcd13ifvqdq0","pricing_plan_id":"free"},{"bike_id":"c2e65f08-5996-446d-85b3-3f29e84300af","system_id":"levelo_inurba_marseille","lat":43.286961,"lon":5.373785,"is_reserved":false,"is_disabled":false,"rental_uris":{"android":"levelo://app?vid=c2e65f08-5996-446d-85b3-3f29e84300af","ios":"levelo://app?vid=c2e65f08-5996-446d-85b3-3f29e84300af"},"vehicle_type_id":"4","last_reported":1701893280,"current_range_meters":25600,"station_id":"ce4bh3p2rcd13ifvqdq0","pricing_plan_id":"free"},{"bike_id":"a6eac9af-9742-40a9-9b41-ebb204662b27","system_id":"levelo_inurba_marseille","lat":43.290345,"lon":5.38646,"is_reserved":false,"is_disabled":false,"rental_uris":{"android":"levelo://app?vid=a6eac9af-9742-40a9-9b41-ebb204662b27","ios":"levelo://app?vid=a6eac9af-9742-40a9-9b41-ebb204662b27"},"vehicle_type_id":"4","last_reported":1701893280,"current_range_meters":0,"station_id":"ce4bh4p2rcd13ifvqe0g","pricing_plan_id":"free"},{"bike_id":"734af296-3d80-49b2-99c0-ef97e5843ad6","system_id":"levelo_inurba_marseille","lat":43.272116,"lon":5.391747,"is_reserved":false,"is_disabled":false,"rental_uris":{"android":"levelo://app?vid=734af296-3d80-49b2-99c0-ef97e5843ad6","ios":"levelo://app?vid=734af296-3d80-49b2-99c0-ef97e5843ad6"},"vehicle_type_id":"4","last_reported":1701893280,"current_range_meters":13600,"station_id":"ce4bhhp2rcd13ifvqfm0","pricing_plan_id":"free"},{"bike_id":"08e7f685-a433-4f9c-8168-9caeda4b98af","system_id":"levelo_inurba_marseille","lat":43.289307,"lon":5.38406,"is_reserved":false,"is_disabled":false,"rental_uris":{"android":"levelo://app?vid=08e7f685-a433-4f9c-8168-9caeda4b98af","ios":"levelo://app?vid=08e7f685-a433-4f9c-8168-9caeda4b98af"},"vehicle_type_id":"4","last_reported":1701893280,"current_range_meters":2000,"station_id":"ce4bh612rcd13ifvqe6g","pricing_plan_id":"free"},{"bike_id":"4643467b-22cc-4fd6-b622-284e43a5bc20","system_id":"levelo_inurba_marseille","lat":43.302759,"lon":5.400793,"is_reserved":false,"is_disabled":false,"rental_uris":{"android":"levelo://app?vid=4643467b-22cc-4fd6-b622-284e43a5bc20","ios":"levelo://app?vid=4643467b-22cc-4fd6-b622-284e43a5bc20"},"vehicle_type_id":"4","last_reported":1701893280,"current_range_meters":14400,"station_id":"ce4bgvh2rcd13ifvqcs0","pricing_plan_id":"free"},{"bike_id":"16d0e0b0-12b1-415c-8d09-f1935ff19bff","system_id":"levelo_inurba_marseille","lat":43.302759,"lon":5.400793,"is_reserved":false,"is_disabled":false,"rental_uris":{"android":"levelo://app?vid=16d0e0b0-12b1-415c-8d09-f1935ff19bff","ios":"levelo://app?vid=16d0e0b0-12b1-415c-8d09-f1935ff19bff"},"vehicle_type_id":"4","last_reported":1701893280,"current_range_meters":4400,"station_id":"ce4bgvh2rcd13ifvqcs0","pricing_plan_id":"free"},{"bike_id":"92a24054-0a7c-4baa-91b4-d16d24e86aee","system_id":"levelo_inurba_marseille","lat":43.286039,"lon":5.370679,"is_reserved":false,"is_disabled":false,"rental_uris":{"android":"levelo://app?vid=92a24054-0a7c-4baa-91b4-d16d24e86aee","ios":"levelo://app?vid=92a24054-0a7c-4baa-91b4-d16d24e86aee"},"vehicle_type_id":"4","last_reported":1701893280,"current_range_meters":26000,"station_id":"ce4bht12rcd13ifvqi60","pricing_plan_id":"free"},{"bike_id":"2b7281bb-9d55-48a9-9d95-1fb64ad1aee8","system_id":"levelo_inurba_marseille","lat":43.28462,"lon":5.35894,"is_reserved":false,"is_disabled":false,"rental_uris":{"android":"levelo://app?vid=2b7281bb-9d55-48a9-9d95-1fb64ad1aee8","ios":"levelo://app?vid=2b7281bb-9d55-48a9-9d95-1fb64ad1aee8"},"vehicle_type_id":"4","last_reported":1701893280,"current_range_meters":20000,"station_id":"ce4bhah2rcd13ifvqei0","pricing_plan_id":"free"},{"bike_id":"d7916f79-aa61-4cd5-9e24-834c5f8e301f","system_id":"levelo_inurba_marseille","lat":43.28461,"lon":5.35886,"is_reserved":false,"is_disabled":false,"rental_uris":{"android":"levelo://app?vid=d7916f79-aa61-4cd5-9e24-834c5f8e301f","ios":"levelo://app?vid=d7916f79-aa61-4cd5-9e24-834c5f8e301f"},"vehicle_type_id":"4","last_reported":1701893280,"current_range_meters":9200,"station_id":"ce4bhah2rcd13ifvqei0","pricing_plan_id":"free"},{"bike_id":"46e40643-a63e-4be4-96f6-90e92af93835","system_id":"levelo_inurba_marseille","lat":43.28455,"lon":5.35897,"is_reserved":false,"is_disabled":false,"rental_uris":{"android":"levelo://app?vid=46e40643-a63e-4be4-96f6-90e92af93835","ios":"levelo://app?vid=46e40643-a63e-4be4-96f6-90e92af93835"},"vehicle_type_id":"4","last_reported":1701893280,"current_range_meters":31200,"station_id":"ce4bhah2rcd13ifvqei0","pricing_plan_id":"free"},{"bike_id":"4fd27d83-2eef-48d1-a7f4-77ec05ebce00","system_id":"levelo_inurba_marseille","lat":43.294314,"lon":5.397498,"is_reserved":false,"is_disabled":false,"rental_uris":{"android":"levelo://app?vid=4fd27d83-2eef-48d1-a7f4-77ec05ebce00","ios":"levelo://app?vid=4fd27d83-2eef-48d1-a7f4-77ec05ebce00"},"vehicle_type_id":"4","last_reported":1701893280,"current_range_meters":29200,"station_id":"ce4bh3h2rcd13ifvqdo0","pricing_plan_id":"free"},{"bike_id":"2576c6ce-ebab-4f9b-8b0e-6e02832ea67b","system_id":"levelo_inurba_marseille","lat":43.283998,"lon":5.375062,"is_reserved":false,"is_disabled":false,"rental_uris":{"android":"levelo://app?vid=2576c6ce-ebab-4f9b-8b0e-6e02832ea67b","ios":"levelo://app?vid=2576c6ce-ebab-4f9b-8b0e-6e02832ea67b"},"vehicle_type_id":"4","last_reported":1701893280,"current_range_meters":22400,"station_id":"ce4bh412rcd13ifvqds0","pricing_plan_id":"free"},{"bike_id":"44abf257-c116-4cc8-b342-3e7eb23898c4","system_id":"levelo_inurba_marseille","lat":43.283998,"lon":5.375062,"is_reserved":false,"is_disabled":false,"rental_uris":{"android":"levelo://app?vid=44abf257-c116-4cc8-b342-3e7eb23898c4","ios":"levelo://app?vid=44abf257-c116-4cc8-b342-3e7eb23898c4"},"vehicle_type_id":"4","last_reported":1701893280,"current_range_meters":0,"station_id":"ce4bh412rcd13ifvqds0","pricing_plan_id":"free"},{"bike_id":"a5364961-2c1f-4558-a6d9-719f9d267247","system_id":"levelo_inurba_marseille","lat":43.323464,"lon":5.406297,"is_reserved":false,"is_disabled":false,"rental_uris":{"android":"levelo://app?vid=a5364961-2c1f-4558-a6d9-719f9d267247","ios":"levelo://app?vid=a5364961-2c1f-4558-a6d9-719f9d267247"},"vehicle_type_id":"4","last_reported":1701893280,"current_range_meters":24000,"station_id":"ce4bhq92rcd13ifvqhjg","pricing_plan_id":"free"},{"bike_id":"4e584a37-1054-46d4-a92f-dfa8d626b5a0","system_id":"levelo_inurba_marseille","lat":43.292724,"lon":5.401131,"is_reserved":false,"is_disabled":false,"rental_uris":{"android":"levelo://app?vid=4e584a37-1054-46d4-a92f-dfa8d626b5a0","ios":"levelo://app?vid=4e584a37-1054-46d4-a92f-dfa8d626b5a0"},"vehicle_type_id":"4","last_reported":1701893280,"current_range_meters":5600,"station_id":"ce4bh312rcd13ifvqdk0","pricing_plan_id":"free"},{"bike_id":"9da1462c-15dc-44ce-9a56-181ed17061e1","system_id":"levelo_inurba_marseille","lat":43.29132,"lon":5.399733,"is_reserved":false,"is_disabled":false,"rental_uris":{"android":"levelo://app?vid=9da1462c-15dc-44ce-9a56-181ed17061e1","ios":"levelo://app?vid=9da1462c-15dc-44ce-9a56-181ed17061e1"},"vehicle_type_id":"4","last_reported":1701893280,"current_range_meters":0,"station_id":"","pricing_plan_id":"free"},{"bike_id":"ea03e3ec-9bd5-4cc7-b008-b573e4d04b5d","system_id":"levelo_inurba_marseille","lat":43.282754,"lon":5.350519,"is_reserved":false,"is_disabled":false,"rental_uris":{"android":"levelo://app?vid=ea03e3ec-9bd5-4cc7-b008-b573e4d04b5d","ios":"levelo://app?vid=ea03e3ec-9bd5-4cc7-b008-b573e4d04b5d"},"vehicle_type_id":"4","last_reported":1701893280,"current_range_meters":8800,"station_id":"ce4bhbp2rcd13ifvqerg","pricing_plan_id":"free"},{"bike_id":"62fd1763-2eb4-46c1-a4f4-c979520883eb","system_id":"levelo_inurba_marseille","lat":43.282754,"lon":5.350519,"is_reserved":false,"is_disabled":false,"rental_uris":{"android":"levelo://app?vid=62fd1763-2eb4-46c1-a4f4-c979520883eb","ios":"levelo://app?vid=62fd1763-2eb4-46c1-a4f4-c979520883eb"},"vehicle_type_id":"4","last_reported":1701893280,"current_range_meters":7200,"station_id":"ce4bhbp2rcd13ifvqerg","pricing_plan_id":"free"},{"bike_id":"af181c1b-7a34-490c-92e0-3f5beaab2a27","system_id":"levelo_inurba_marseille","lat":43.283502,"lon":5.386471,"is_reserved":false,"is_disabled":false,"rental_uris":{"android":"levelo://app?vid=af181c1b-7a34-490c-92e0-3f5beaab2a27","ios":"levelo://app?vid=af181c1b-7a34-490c-92e0-3f5beaab2a27"},"vehicle_type_id":"4","last_reported":1701893280,"current_range_meters":5200,"station_id":"ce4bh492rcd13ifvqdvg","pricing_plan_id":"free"},{"bike_id":"696a3634-e885-4f08-a743-90bcabb565f6","system_id":"levelo_inurba_marseille","lat":43.281044,"lon":5.378308,"is_reserved":false,"is_disabled":false,"rental_uris":{"android":"levelo://app?vid=696a3634-e885-4f08-a743-90bcabb565f6","ios":"levelo://app?vid=696a3634-e885-4f08-a743-90bcabb565f6"},"vehicle_type_id":"4","last_reported":1701893280,"current_range_meters":4400,"station_id":"ce4bha12rcd13ifvqee0","pricing_plan_id":"free"},{"bike_id":"4de26ca4-741c-4d61-85d8-6299b222a311","system_id":"levelo_inurba_marseille","lat":43.284462,"lon":5.392121,"is_reserved":false,"is_disabled":false,"rental_uris":{"android":"levelo://app?vid=4de26ca4-741c-4d61-85d8-6299b222a311","ios":"levelo://app?vid=4de26ca4-741c-4d61-85d8-6299b222a311"},"vehicle_type_id":"4","last_reported":1701893280,"current_range_meters":7600,"station_id":"ce4bhoh2rcd13ifvqh5g","pricing_plan_id":"free"},{"bike_id":"fda665b4-1b62-453e-8dc4-088c16226c22","system_id":"levelo_inurba_marseille","lat":43.304188,"lon":5.412904,"is_reserved":false,"is_disabled":false,"rental_uris":{"android":"levelo://app?vid=fda665b4-1b62-453e-8dc4-088c16226c22","ios":"levelo://app?vid=fda665b4-1b62-453e-8dc4-088c16226c22"},"vehicle_type_id":"4","last_reported":1701893280,"current_range_meters":21200,"station_id":"ce4bhop2rcd13ifvqh8g","pricing_plan_id":"free"},{"bike_id":"caaaf642-632e-48ac-98a4-6055dadc2ea1","system_id":"levelo_inurba_marseille","lat":43.279087,"lon":5.380114,"is_reserved":false,"is_disabled":false,"rental_uris":{"android":"levelo://app?vid=caaaf642-632e-48ac-98a4-6055dadc2ea1","ios":"levelo://app?vid=caaaf642-632e-48ac-98a4-6055dadc2ea1"},"vehicle_type_id":"4","last_reported":1701893280,"current_range_meters":6800,"station_id":"ce4bhf92rcd13ifvqf50","pricing_plan_id":"free"},{"bike_id":"a36d07c9-a586-4d46-800d-a957693a38a5","system_id":"levelo_inurba_marseille","lat":43.28702,"lon":5.39983,"is_reserved":false,"is_disabled":false,"rental_uris":{"android":"levelo://app?vid=a36d07c9-a586-4d46-800d-a957693a38a5","ios":"levelo://app?vid=a36d07c9-a586-4d46-800d-a957693a38a5"},"vehicle_type_id":"4","last_reported":1701893280,"current_range_meters":8000,"station_id":"ce4bho92rcd13ifvqh3g","pricing_plan_id":"free"},{"bike_id":"27c6c473-ba45-43ce-9603-f1ba3a030f6a","system_id":"levelo_inurba_marseille","lat":43.287154,"lon":5.399979,"is_reserved":false,"is_disabled":false,"rental_uris":{"android":"levelo://app?vid=27c6c473-ba45-43ce-9603-f1ba3a030f6a","ios":"levelo://app?vid=27c6c473-ba45-43ce-9603-f1ba3a030f6a"},"vehicle_type_id":"4","last_reported":1701893280,"current_range_meters":25600,"station_id":"ce4bho92rcd13ifvqh3g","pricing_plan_id":"free"},{"bike_id":"9627cd81-489b-45b1-8f06-cdad1494f1e2","system_id":"levelo_inurba_marseille","lat":43.281705,"lon":5.396185,"is_reserved":false,"is_disabled":false,"rental_uris":{"android":"levelo://app?vid=9627cd81-489b-45b1-8f06-cdad1494f1e2","ios":"levelo://app?vid=9627cd81-489b-45b1-8f06-cdad1494f1e2"},"vehicle_type_id":"4","last_reported":1701893280,"current_range_meters":5200,"station_id":"","pricing_plan_id":"free"},{"bike_id":"293d069b-5156-4efb-8473-dd0ae12fdf19","system_id":"levelo_inurba_marseille","lat":43.303837,"lon":5.418724,"is_reserved":false,"is_disabled":false,"rental_uris":{"android":"levelo://app?vid=293d069b-5156-4efb-8473-dd0ae12fdf19","ios":"levelo://app?vid=293d069b-5156-4efb-8473-dd0ae12fdf19"},"vehicle_type_id":"4","last_reported":1701893280,"current_range_meters":23600,"station_id":"ce4bhop2rcd13ifvqh7g","pricing_plan_id":"free"},{"bike_id":"ab7ba4d6-aaf9-43b8-9353-41b267b27cd4","system_id":"levelo_inurba_marseille","lat":43.278401,"lon":5.392152,"is_reserved":false,"is_disabled":false,"rental_uris":{"android":"levelo://app?vid=ab7ba4d6-aaf9-43b8-9353-41b267b27cd4","ios":"levelo://app?vid=ab7ba4d6-aaf9-43b8-9353-41b267b27cd4"},"vehicle_type_id":"4","last_reported":1701893280,"current_range_meters":3200,"station_id":"ce4bhjp2rcd13ifvqga0","pricing_plan_id":"free"},{"bike_id":"92320086-c9b7-4918-8149-0bb9e9d8e904","system_id":"levelo_inurba_marseille","lat":43.278401,"lon":5.392152,"is_reserved":false,"is_disabled":false,"rental_uris":{"android":"levelo://app?vid=92320086-c9b7-4918-8149-0bb9e9d8e904","ios":"levelo://app?vid=92320086-c9b7-4918-8149-0bb9e9d8e904"},"vehicle_type_id":"4","last_reported":1701893280,"current_range_meters":3600,"station_id":"ce4bhjp2rcd13ifvqga0","pricing_plan_id":"free"},{"bike_id":"bf4b62e2-8feb-41d2-bf26-cc6c3cdc453e","system_id":"levelo_inurba_marseille","lat":43.275625,"lon":5.384392,"is_reserved":false,"is_disabled":false,"rental_uris":{"android":"levelo://app?vid=bf4b62e2-8feb-41d2-bf26-cc6c3cdc453e","ios":"levelo://app?vid=bf4b62e2-8feb-41d2-bf26-cc6c3cdc453e"},"vehicle_type_id":"4","last_reported":1701893280,"current_range_meters":22000,"station_id":"ce4bhh92rcd13ifvqfi0","pricing_plan_id":"free"},{"bike_id":"f7b3208c-c067-48d0-a4b0-4b6608889349","system_id":"levelo_inurba_marseille","lat":43.275665,"lon":5.384195,"is_reserved":false,"is_disabled":false,"rental_uris":{"android":"levelo://app?vid=f7b3208c-c067-48d0-a4b0-4b6608889349","ios":"levelo://app?vid=f7b3208c-c067-48d0-a4b0-4b6608889349"},"vehicle_type_id":"4","last_reported":1701893280,"current_range_meters":5600,"station_id":"ce4bhh92rcd13ifvqfi0","pricing_plan_id":"free"},{"bike_id":"b4848969-d474-47ed-8aae-aebabe32d224","system_id":"levelo_inurba_marseille","lat":43.278401,"lon":5.392152,"is_reserved":false,"is_disabled":false,"rental_uris":{"android":"levelo://app?vid=b4848969-d474-47ed-8aae-aebabe32d224","ios":"levelo://app?vid=b4848969-d474-47ed-8aae-aebabe32d224"},"vehicle_type_id":"4","last_reported":1701893280,"current_range_meters":22800,"station_id":"ce4bhjp2rcd13ifvqga0","pricing_plan_id":"free"},{"bike_id":"5e801468-5412-4bca-a271-fb5358ebcf80","system_id":"levelo_inurba_marseille","lat":43.278689,"lon":5.394949,"is_reserved":false,"is_disabled":false,"rental_uris":{"android":"levelo://app?vid=5e801468-5412-4bca-a271-fb5358ebcf80","ios":"levelo://app?vid=5e801468-5412-4bca-a271-fb5358ebcf80"},"vehicle_type_id":"4","last_reported":1701893280,"current_range_meters":16000,"station_id":"","pricing_plan_id":"free"},{"bike_id":"11766578-84ad-4bf2-bc0b-c635373c5eff","system_id":"levelo_inurba_marseille","lat":43.279975,"lon":5.40009,"is_reserved":false,"is_disabled":false,"rental_uris":{"android":"levelo://app?vid=11766578-84ad-4bf2-bc0b-c635373c5eff","ios":"levelo://app?vid=11766578-84ad-4bf2-bc0b-c635373c5eff"},"vehicle_type_id":"4","last_reported":1701893280,"current_range_meters":6800,"station_id":"ce4bho92rcd13ifvqh4g","pricing_plan_id":"free"},{"bike_id":"4e2d97bd-6d74-440f-96b3-e5e997c95a87","system_id":"levelo_inurba_marseille","lat":43.279952,"lon":5.400085,"is_reserved":false,"is_disabled":false,"rental_uris":{"android":"levelo://app?vid=4e2d97bd-6d74-440f-96b3-e5e997c95a87","ios":"levelo://app?vid=4e2d97bd-6d74-440f-96b3-e5e997c95a87"},"vehicle_type_id":"4","last_reported":1701893280,"current_range_meters":21600,"station_id":"ce4bho92rcd13ifvqh4g","pricing_plan_id":"free"},{"bike_id":"5e431912-eba0-4e2e-9e98-69bb07d8d8f3","system_id":"levelo_inurba_marseille","lat":43.273125,"lon":5.390731,"is_reserved":false,"is_disabled":false,"rental_uris":{"android":"levelo://app?vid=5e431912-eba0-4e2e-9e98-69bb07d8d8f3","ios":"levelo://app?vid=5e431912-eba0-4e2e-9e98-69bb07d8d8f3"},"vehicle_type_id":"4","last_reported":1701893280,"current_range_meters":8000,"station_id":"ce4bhgp2rcd13ifvqfe0","pricing_plan_id":"free"},{"bike_id":"6601d418-0b40-46aa-b2f0-f29d581e2a50","system_id":"levelo_inurba_marseille","lat":43.317121,"lon":5.423936,"is_reserved":false,"is_disabled":false,"rental_uris":{"android":"levelo://app?vid=6601d418-0b40-46aa-b2f0-f29d581e2a50","ios":"levelo://app?vid=6601d418-0b40-46aa-b2f0-f29d581e2a50"},"vehicle_type_id":"4","last_reported":1701893280,"current_range_meters":27600,"station_id":"ce4bhp92rcd13ifvqhbg","pricing_plan_id":"free"},{"bike_id":"283b1518-47c4-4c7a-aece-e76435d9d17e","system_id":"levelo_inurba_marseille","lat":43.27622,"lon":5.39483,"is_reserved":false,"is_disabled":false,"rental_uris":{"android":"levelo://app?vid=283b1518-47c4-4c7a-aece-e76435d9d17e","ios":"levelo://app?vid=283b1518-47c4-4c7a-aece-e76435d9d17e"},"vehicle_type_id":"4","last_reported":1701893280,"current_range_meters":7600,"station_id":"","pricing_plan_id":"free"},{"bike_id":"190902f7-f909-4443-935c-67694baf0dd9","system_id":"levelo_inurba_marseille","lat":43.340804,"lon":5.410219,"is_reserved":false,"is_disabled":false,"rental_uris":{"android":"levelo://app?vid=190902f7-f909-4443-935c-67694baf0dd9","ios":"levelo://app?vid=190902f7-f909-4443-935c-67694baf0dd9"},"vehicle_type_id":"4","last_reported":1701893280,"current_range_meters":23200,"station_id":"ce4bhqh2rcd13ifvqhlg","pricing_plan_id":"free"},{"bike_id":"a697de4c-97e9-42e8-9ad0-c2ed93f5698f","system_id":"levelo_inurba_marseille","lat":43.273125,"lon":5.390731,"is_reserved":false,"is_disabled":false,"rental_uris":{"android":"levelo://app?vid=a697de4c-97e9-42e8-9ad0-c2ed93f5698f","ios":"levelo://app?vid=a697de4c-97e9-42e8-9ad0-c2ed93f5698f"},"vehicle_type_id":"4","last_reported":1701893280,"current_range_meters":13200,"station_id":"ce4bhgp2rcd13ifvqfe0","pricing_plan_id":"free"},{"bike_id":"99fb940d-c038-4f7d-a526-00415e34b4eb","system_id":"levelo_inurba_marseille","lat":43.274099,"lon":5.394019,"is_reserved":false,"is_disabled":false,"rental_uris":{"android":"levelo://app?vid=99fb940d-c038-4f7d-a526-00415e34b4eb","ios":"levelo://app?vid=99fb940d-c038-4f7d-a526-00415e34b4eb"},"vehicle_type_id":"4","last_reported":1701893280,"current_range_meters":26800,"station_id":"ce4bhdp2rcd13ifvqf20","pricing_plan_id":"free"},{"bike_id":"e2c3dce3-5fd2-4ab6-adf0-904651572c76","system_id":"levelo_inurba_marseille","lat":43.274103,"lon":5.394016,"is_reserved":false,"is_disabled":false,"rental_uris":{"android":"levelo://app?vid=e2c3dce3-5fd2-4ab6-adf0-904651572c76","ios":"levelo://app?vid=e2c3dce3-5fd2-4ab6-adf0-904651572c76"},"vehicle_type_id":"4","last_reported":1701893280,"current_range_meters":3600,"station_id":"ce4bhdp2rcd13ifvqf20","pricing_plan_id":"free"},{"bike_id":"4df8d475-3c93-4353-a0a3-15dbd2a95c64","system_id":"levelo_inurba_marseille","lat":43.274099,"lon":5.394019,"is_reserved":false,"is_disabled":false,"rental_uris":{"android":"levelo://app?vid=4df8d475-3c93-4353-a0a3-15dbd2a95c64","ios":"levelo://app?vid=4df8d475-3c93-4353-a0a3-15dbd2a95c64"},"vehicle_type_id":"4","last_reported":1701893280,"current_range_meters":11200,"station_id":"ce4bhdp2rcd13ifvqf20","pricing_plan_id":"free"},{"bike_id":"d47aa0ec-bf66-481f-adf3-4a24ac8e52c9","system_id":"levelo_inurba_marseille","lat":43.274099,"lon":5.394019,"is_reserved":false,"is_disabled":false,"rental_uris":{"android":"levelo://app?vid=d47aa0ec-bf66-481f-adf3-4a24ac8e52c9","ios":"levelo://app?vid=d47aa0ec-bf66-481f-adf3-4a24ac8e52c9"},"vehicle_type_id":"4","last_reported":1701893280,"current_range_meters":26400,"station_id":"ce4bhdp2rcd13ifvqf20","pricing_plan_id":"free"},{"bike_id":"0d7723f3-3df8-4cf9-b4cb-f95b056dff49","system_id":"levelo_inurba_marseille","lat":43.27206,"lon":5.39173,"is_reserved":false,"is_disabled":false,"rental_uris":{"android":"levelo://app?vid=0d7723f3-3df8-4cf9-b4cb-f95b056dff49","ios":"levelo://app?vid=0d7723f3-3df8-4cf9-b4cb-f95b056dff49"},"vehicle_type_id":"4","last_reported":1701893280,"current_range_meters":400,"station_id":"ce4bhhp2rcd13ifvqfm0","pricing_plan_id":"free"},{"bike_id":"6ec896be-acd2-447a-850a-0119aff8b35a","system_id":"levelo_inurba_marseille","lat":43.272116,"lon":5.391747,"is_reserved":false,"is_disabled":false,"rental_uris":{"android":"levelo://app?vid=6ec896be-acd2-447a-850a-0119aff8b35a","ios":"levelo://app?vid=6ec896be-acd2-447a-850a-0119aff8b35a"},"vehicle_type_id":"4","last_reported":1701893280,"current_range_meters":5600,"station_id":"ce4bhhp2rcd13ifvqfm0","pricing_plan_id":"free"},{"bike_id":"716a02a6-e472-4d52-93a5-8be9b22dbfb2","system_id":"levelo_inurba_marseille","lat":43.272116,"lon":5.391747,"is_reserved":false,"is_disabled":false,"rental_uris":{"android":"levelo://app?vid=716a02a6-e472-4d52-93a5-8be9b22dbfb2","ios":"levelo://app?vid=716a02a6-e472-4d52-93a5-8be9b22dbfb2"},"vehicle_type_id":"4","last_reported":1701893280,"current_range_meters":6000,"station_id":"ce4bhhp2rcd13ifvqfm0","pricing_plan_id":"free"},{"bike_id":"f447e44d-57ee-44c4-bbbb-7d1046259c99","system_id":"levelo_inurba_marseille","lat":43.272116,"lon":5.391747,"is_reserved":false,"is_disabled":false,"rental_uris":{"android":"levelo://app?vid=f447e44d-57ee-44c4-bbbb-7d1046259c99","ios":"levelo://app?vid=f447e44d-57ee-44c4-bbbb-7d1046259c99"},"vehicle_type_id":"4","last_reported":1701893280,"current_range_meters":0,"station_id":"ce4bhhp2rcd13ifvqfm0","pricing_plan_id":"free"},{"bike_id":"77e2df1b-d75a-48fe-a6ad-744dfbe91f1d","system_id":"levelo_inurba_marseille","lat":43.27214,"lon":5.3925,"is_reserved":false,"is_disabled":false,"rental_uris":{"android":"levelo://app?vid=77e2df1b-d75a-48fe-a6ad-744dfbe91f1d","ios":"levelo://app?vid=77e2df1b-d75a-48fe-a6ad-744dfbe91f1d"},"vehicle_type_id":"4","last_reported":1701893280,"current_range_meters":12000,"station_id":"","pricing_plan_id":"free"},{"bike_id":"f4ca9bad-97af-42f9-9861-96437cb5aa0f","system_id":"levelo_inurba_marseille","lat":43.265714,"lon":5.372891,"is_reserved":false,"is_disabled":false,"rental_uris":{"android":"levelo://app?vid=f4ca9bad-97af-42f9-9861-96437cb5aa0f","ios":"levelo://app?vid=f4ca9bad-97af-42f9-9861-96437cb5aa0f"},"vehicle_type_id":"4","last_reported":1701893280,"current_range_meters":11600,"station_id":"ce4bhg12rcd13ifvqf70","pricing_plan_id":"free"},{"bike_id":"09a019f6-c885-4169-998f-c7e142021bb4","system_id":"levelo_inurba_marseille","lat":43.265569,"lon":5.390047,"is_reserved":false,"is_disabled":false,"rental_uris":{"android":"levelo://app?vid=09a019f6-c885-4169-998f-c7e142021bb4","ios":"levelo://app?vid=09a019f6-c885-4169-998f-c7e142021bb4"},"vehicle_type_id":"4","last_reported":1701893280,"current_range_meters":0,"station_id":"ce4bhe12rcd13ifvqf30","pricing_plan_id":"free"},{"bike_id":"c73e4cdf-0b7b-49e3-bc03-d55e4a2378f9","system_id":"levelo_inurba_marseille","lat":43.265714,"lon":5.372891,"is_reserved":false,"is_disabled":false,"rental_uris":{"android":"levelo://app?vid=c73e4cdf-0b7b-49e3-bc03-d55e4a2378f9","ios":"levelo://app?vid=c73e4cdf-0b7b-49e3-bc03-d55e4a2378f9"},"vehicle_type_id":"4","last_reported":1701893280,"current_range_meters":9600,"station_id":"ce4bhg12rcd13ifvqf70","pricing_plan_id":"free"},{"bike_id":"5c62f0fe-2a68-4f0e-8c5e-1c3be35b64ff","system_id":"levelo_inurba_marseille","lat":43.292727,"lon":5.428463,"is_reserved":false,"is_disabled":false,"rental_uris":{"android":"levelo://app?vid=5c62f0fe-2a68-4f0e-8c5e-1c3be35b64ff","ios":"levelo://app?vid=5c62f0fe-2a68-4f0e-8c5e-1c3be35b64ff"},"vehicle_type_id":"4","last_reported":1701893280,"current_range_meters":18800,"station_id":"","pricing_plan_id":"free"},{"bike_id":"cf06911b-8136-45b7-a2cf-bec98f971479","system_id":"levelo_inurba_marseille","lat":43.267966,"lon":5.393976,"is_reserved":false,"is_disabled":false,"rental_uris":{"android":"levelo://app?vid=cf06911b-8136-45b7-a2cf-bec98f971479","ios":"levelo://app?vid=cf06911b-8136-45b7-a2cf-bec98f971479"},"vehicle_type_id":"4","last_reported":1701893280,"current_range_meters":6400,"station_id":"ce4bhh12rcd13ifvqfg0","pricing_plan_id":"free"},{"bike_id":"50c2e1ff-a4de-491f-9bde-9bd5b8802b47","system_id":"levelo_inurba_marseille","lat":43.272625,"lon":5.40756,"is_reserved":false,"is_disabled":false,"rental_uris":{"android":"levelo://app?vid=50c2e1ff-a4de-491f-9bde-9bd5b8802b47","ios":"levelo://app?vid=50c2e1ff-a4de-491f-9bde-9bd5b8802b47"},"vehicle_type_id":"4","last_reported":1701893280,"current_range_meters":8400,"station_id":"cjm6bp8fraef2m0cb0m0","pricing_plan_id":"free"},{"bike_id":"7f82b34e-74cc-4090-bf83-24ab1e5f05c7","system_id":"levelo_inurba_marseille","lat":43.26947,"lon":5.40246,"is_reserved":false,"is_disabled":false,"rental_uris":{"android":"levelo://app?vid=7f82b34e-74cc-4090-bf83-24ab1e5f05c7","ios":"levelo://app?vid=7f82b34e-74cc-4090-bf83-24ab1e5f05c7"},"vehicle_type_id":"4","last_reported":1701893280,"current_range_meters":28000,"station_id":"cjm6bp8fraef2m0cb0m0","pricing_plan_id":"free"},{"bike_id":"fa359f3d-d3a9-4585-93d5-6ed1d7dd9735","system_id":"levelo_inurba_marseille","lat":43.26947,"lon":5.40248,"is_reserved":false,"is_disabled":false,"rental_uris":{"android":"levelo://app?vid=fa359f3d-d3a9-4585-93d5-6ed1d7dd9735","ios":"levelo://app?vid=fa359f3d-d3a9-4585-93d5-6ed1d7dd9735"},"vehicle_type_id":"4","last_reported":1701893280,"current_range_meters":22400,"station_id":"cjm6bp8fraef2m0cb0m0","pricing_plan_id":"free"},{"bike_id":"e584986a-09c7-4808-95f7-49ef46dcfea3","system_id":"levelo_inurba_marseille","lat":43.26941,"lon":5.40236,"is_reserved":false,"is_disabled":false,"rental_uris":{"android":"levelo://app?vid=e584986a-09c7-4808-95f7-49ef46dcfea3","ios":"levelo://app?vid=e584986a-09c7-4808-95f7-49ef46dcfea3"},"vehicle_type_id":"4","last_reported":1701893280,"current_range_meters":23600,"station_id":"cjm6bp8fraef2m0cb0m0","pricing_plan_id":"free"},{"bike_id":"effef46c-4e40-4598-bcc3-9b381cd91539","system_id":"levelo_inurba_marseille","lat":43.26947,"lon":5.40254,"is_reserved":false,"is_disabled":false,"rental_uris":{"android":"levelo://app?vid=effef46c-4e40-4598-bcc3-9b381cd91539","ios":"levelo://app?vid=effef46c-4e40-4598-bcc3-9b381cd91539"},"vehicle_type_id":"4","last_reported":1701893280,"current_range_meters":11600,"station_id":"cjm6bp8fraef2m0cb0m0","pricing_plan_id":"free"},{"bike_id":"98545b70-9dcf-416c-ad8d-27c399537706","system_id":"levelo_inurba_marseille","lat":43.26942,"lon":5.40245,"is_reserved":false,"is_disabled":false,"rental_uris":{"android":"levelo://app?vid=98545b70-9dcf-416c-ad8d-27c399537706","ios":"levelo://app?vid=98545b70-9dcf-416c-ad8d-27c399537706"},"vehicle_type_id":"4","last_reported":1701893280,"current_range_meters":10400,"station_id":"cjm6bp8fraef2m0cb0m0","pricing_plan_id":"free"},{"bike_id":"c8c04924-7d04-4cc5-ab2d-cc6abc6c8a84","system_id":"levelo_inurba_marseille","lat":43.26945,"lon":5.40257,"is_reserved":false,"is_disabled":false,"rental_uris":{"android":"levelo://app?vid=c8c04924-7d04-4cc5-ab2d-cc6abc6c8a84","ios":"levelo://app?vid=c8c04924-7d04-4cc5-ab2d-cc6abc6c8a84"},"vehicle_type_id":"4","last_reported":1701893280,"current_range_meters":0,"station_id":"cjm6bp8fraef2m0cb0m0","pricing_plan_id":"free"},{"bike_id":"ddf4d84d-3026-4182-a846-8b2ea751c9b7","system_id":"levelo_inurba_marseille","lat":43.26949,"lon":5.40262,"is_reserved":false,"is_disabled":false,"rental_uris":{"android":"levelo://app?vid=ddf4d84d-3026-4182-a846-8b2ea751c9b7","ios":"levelo://app?vid=ddf4d84d-3026-4182-a846-8b2ea751c9b7"},"vehicle_type_id":"4","last_reported":1701893280,"current_range_meters":17200,"station_id":"cjm6bp8fraef2m0cb0m0","pricing_plan_id":"free"},{"bike_id":"43f7d13d-9b8b-45de-bb96-08dc7d998e38","system_id":"levelo_inurba_marseille","lat":43.2694,"lon":5.40253,"is_reserved":false,"is_disabled":false,"rental_uris":{"android":"levelo://app?vid=43f7d13d-9b8b-45de-bb96-08dc7d998e38","ios":"levelo://app?vid=43f7d13d-9b8b-45de-bb96-08dc7d998e38"},"vehicle_type_id":"4","last_reported":1701893280,"current_range_meters":12000,"station_id":"cjm6bp8fraef2m0cb0m0","pricing_plan_id":"free"},{"bike_id":"78a07588-a40a-4102-8bbb-5a015de04c4b","system_id":"levelo_inurba_marseille","lat":43.26938,"lon":5.40253,"is_reserved":false,"is_disabled":false,"rental_uris":{"android":"levelo://app?vid=78a07588-a40a-4102-8bbb-5a015de04c4b","ios":"levelo://app?vid=78a07588-a40a-4102-8bbb-5a015de04c4b"},"vehicle_type_id":"4","last_reported":1701893280,"current_range_meters":6400,"station_id":"cjm6bp8fraef2m0cb0m0","pricing_plan_id":"free"},{"bike_id":"ea508a52-a6f3-4742-aec1-84f2602a7dcd","system_id":"levelo_inurba_marseille","lat":43.26937,"lon":5.40255,"is_reserved":false,"is_disabled":false,"rental_uris":{"android":"levelo://app?vid=ea508a52-a6f3-4742-aec1-84f2602a7dcd","ios":"levelo://app?vid=ea508a52-a6f3-4742-aec1-84f2602a7dcd"},"vehicle_type_id":"4","last_reported":1701893280,"current_range_meters":2800,"station_id":"cjm6bp8fraef2m0cb0m0","pricing_plan_id":"free"},{"bike_id":"3393b6b0-ec3c-45c0-9a5c-f1379e36efed","system_id":"levelo_inurba_marseille","lat":43.26949,"lon":5.40262,"is_reserved":false,"is_disabled":false,"rental_uris":{"android":"levelo://app?vid=3393b6b0-ec3c-45c0-9a5c-f1379e36efed","ios":"levelo://app?vid=3393b6b0-ec3c-45c0-9a5c-f1379e36efed"},"vehicle_type_id":"4","last_reported":1701893280,"current_range_meters":4800,"station_id":"cjm6bp8fraef2m0cb0m0","pricing_plan_id":"free"},{"bike_id":"44d8c043-ce7f-45eb-9268-5e1c33b78569","system_id":"levelo_inurba_marseille","lat":43.26949,"lon":5.40262,"is_reserved":false,"is_disabled":false,"rental_uris":{"android":"levelo://app?vid=44d8c043-ce7f-45eb-9268-5e1c33b78569","ios":"levelo://app?vid=44d8c043-ce7f-45eb-9268-5e1c33b78569"},"vehicle_type_id":"4","last_reported":1701893280,"current_range_meters":0,"station_id":"cjm6bp8fraef2m0cb0m0","pricing_plan_id":"free"},{"bike_id":"750b89e8-81fc-443e-9c77-7c4e308bfc5b","system_id":"levelo_inurba_marseille","lat":43.317104,"lon":5.436818,"is_reserved":false,"is_disabled":false,"rental_uris":{"android":"levelo://app?vid=750b89e8-81fc-443e-9c77-7c4e308bfc5b","ios":"levelo://app?vid=750b89e8-81fc-443e-9c77-7c4e308bfc5b"},"vehicle_type_id":"4","last_reported":1701893280,"current_range_meters":4400,"station_id":"ce4bhp92rcd13ifvqhcg","pricing_plan_id":"free"},{"bike_id":"bf58fee8-dca1-4d87-bbbb-9a3f7035f1b0","system_id":"levelo_inurba_marseille","lat":43.317104,"lon":5.436818,"is_reserved":false,"is_disabled":false,"rental_uris":{"android":"levelo://app?vid=bf58fee8-dca1-4d87-bbbb-9a3f7035f1b0","ios":"levelo://app?vid=bf58fee8-dca1-4d87-bbbb-9a3f7035f1b0"},"vehicle_type_id":"4","last_reported":1701893280,"current_range_meters":32000,"station_id":"ce4bhp92rcd13ifvqhcg","pricing_plan_id":"free"},{"bike_id":"6fdf9bc6-0abc-4e03-bd67-4978093fb4f7","system_id":"levelo_inurba_marseille","lat":43.26202,"lon":5.379299,"is_reserved":false,"is_disabled":false,"rental_uris":{"android":"levelo://app?vid=6fdf9bc6-0abc-4e03-bd67-4978093fb4f7","ios":"levelo://app?vid=6fdf9bc6-0abc-4e03-bd67-4978093fb4f7"},"vehicle_type_id":"4","last_reported":1701893280,"current_range_meters":16800,"station_id":"ce4bhjp2rcd13ifvqg90","pricing_plan_id":"free"},{"bike_id":"5ba7fe10-fefe-413e-a368-ac2e4d2c686f","system_id":"levelo_inurba_marseille","lat":43.271368,"lon":5.40928,"is_reserved":false,"is_disabled":false,"rental_uris":{"android":"levelo://app?vid=5ba7fe10-fefe-413e-a368-ac2e4d2c686f","ios":"levelo://app?vid=5ba7fe10-fefe-413e-a368-ac2e4d2c686f"},"vehicle_type_id":"4","last_reported":1701893280,"current_range_meters":22400,"station_id":"ce4bhl12rcd13ifvqgf0","pricing_plan_id":"free"},{"bike_id":"46cba32d-5d40-4e2a-b183-6fda3ffc72c3","system_id":"levelo_inurba_marseille","lat":43.26809,"lon":5.40258,"is_reserved":false,"is_disabled":false,"rental_uris":{"android":"levelo://app?vid=46cba32d-5d40-4e2a-b183-6fda3ffc72c3","ios":"levelo://app?vid=46cba32d-5d40-4e2a-b183-6fda3ffc72c3"},"vehicle_type_id":"4","last_reported":1701893280,"current_range_meters":400,"station_id":"ce501612rcd8frsf0b60","pricing_plan_id":"free"},{"bike_id":"53c84d6e-7859-436e-804b-28036747b15f","system_id":"levelo_inurba_marseille","lat":43.26804,"lon":5.40256,"is_reserved":false,"is_disabled":false,"rental_uris":{"android":"levelo://app?vid=53c84d6e-7859-436e-804b-28036747b15f","ios":"levelo://app?vid=53c84d6e-7859-436e-804b-28036747b15f"},"vehicle_type_id":"4","last_reported":1701893280,"current_range_meters":22800,"station_id":"ce501612rcd8frsf0b60","pricing_plan_id":"free"},{"bike_id":"d6af9c01-da10-44da-ac0b-63536753b737","system_id":"levelo_inurba_marseille","lat":43.26801,"lon":5.40251,"is_reserved":false,"is_disabled":false,"rental_uris":{"android":"levelo://app?vid=d6af9c01-da10-44da-ac0b-63536753b737","ios":"levelo://app?vid=d6af9c01-da10-44da-ac0b-63536753b737"},"vehicle_type_id":"4","last_reported":1701893280,"current_range_meters":4000,"station_id":"ce501612rcd8frsf0b60","pricing_plan_id":"free"},{"bike_id":"9b6122c5-213d-434f-ae2a-0e2e5becdac0","system_id":"levelo_inurba_marseille","lat":43.26806,"lon":5.40268,"is_reserved":false,"is_disabled":false,"rental_uris":{"android":"levelo://app?vid=9b6122c5-213d-434f-ae2a-0e2e5becdac0","ios":"levelo://app?vid=9b6122c5-213d-434f-ae2a-0e2e5becdac0"},"vehicle_type_id":"4","last_reported":1701893280,"current_range_meters":15600,"station_id":"ce501612rcd8frsf0b60","pricing_plan_id":"free"},{"bike_id":"f1325ba5-dc73-4ec8-885e-e7ffa8b59a96","system_id":"levelo_inurba_marseille","lat":43.26804,"lon":5.4027,"is_reserved":false,"is_disabled":false,"rental_uris":{"android":"levelo://app?vid=f1325ba5-dc73-4ec8-885e-e7ffa8b59a96","ios":"levelo://app?vid=f1325ba5-dc73-4ec8-885e-e7ffa8b59a96"},"vehicle_type_id":"4","last_reported":1701893280,"current_range_meters":10000,"station_id":"ce501612rcd8frsf0b60","pricing_plan_id":"free"},{"bike_id":"dc0e9be2-f92e-4a39-b01e-e787ec0cf754","system_id":"levelo_inurba_marseille","lat":43.268007,"lon":5.402623,"is_reserved":false,"is_disabled":false,"rental_uris":{"android":"levelo://app?vid=dc0e9be2-f92e-4a39-b01e-e787ec0cf754","ios":"levelo://app?vid=dc0e9be2-f92e-4a39-b01e-e787ec0cf754"},"vehicle_type_id":"4","last_reported":1701893280,"current_range_meters":13600,"station_id":"ce501612rcd8frsf0b60","pricing_plan_id":"free"},{"bike_id":"f5680d4a-642d-4311-a0c0-695f83410cda","system_id":"levelo_inurba_marseille","lat":43.26801,"lon":5.40268,"is_reserved":false,"is_disabled":false,"rental_uris":{"android":"levelo://app?vid=f5680d4a-642d-4311-a0c0-695f83410cda","ios":"levelo://app?vid=f5680d4a-642d-4311-a0c0-695f83410cda"},"vehicle_type_id":"4","last_reported":1701893280,"current_range_meters":13600,"station_id":"ce501612rcd8frsf0b60","pricing_plan_id":"free"},{"bike_id":"4f68f183-a711-4386-a731-e8ea8e2f115e","system_id":"levelo_inurba_marseille","lat":43.298768,"lon":5.43643,"is_reserved":false,"is_disabled":false,"rental_uris":{"android":"levelo://app?vid=4f68f183-a711-4386-a731-e8ea8e2f115e","ios":"levelo://app?vid=4f68f183-a711-4386-a731-e8ea8e2f115e"},"vehicle_type_id":"4","last_reported":1701893280,"current_range_meters":26400,"station_id":"ce4bhpp2rcd13ifvqhfg","pricing_plan_id":"free"},{"bike_id":"8c066ef0-8e33-4692-81e9-53a96288cf19","system_id":"levelo_inurba_marseille","lat":43.298768,"lon":5.43643,"is_reserved":false,"is_disabled":false,"rental_uris":{"android":"levelo://app?vid=8c066ef0-8e33-4692-81e9-53a96288cf19","ios":"levelo://app?vid=8c066ef0-8e33-4692-81e9-53a96288cf19"},"vehicle_type_id":"4","last_reported":1701893280,"current_range_meters":30400,"station_id":"ce4bhpp2rcd13ifvqhfg","pricing_plan_id":"free"},{"bike_id":"cc53e053-2fc1-4ae8-8959-712d1077eaa7","system_id":"levelo_inurba_marseille","lat":43.281548,"lon":5.42643,"is_reserved":false,"is_disabled":false,"rental_uris":{"android":"levelo://app?vid=cc53e053-2fc1-4ae8-8959-712d1077eaa7","ios":"levelo://app?vid=cc53e053-2fc1-4ae8-8959-712d1077eaa7"},"vehicle_type_id":"4","last_reported":1701893280,"current_range_meters":16800,"station_id":"ce4bhnh2rcd13ifvqgug","pricing_plan_id":"free"},{"bike_id":"b4b7be89-ccbd-44ed-bc96-438fe4c9f46a","system_id":"levelo_inurba_marseille","lat":43.25829,"lon":5.39435,"is_reserved":false,"is_disabled":false,"rental_uris":{"android":"levelo://app?vid=b4b7be89-ccbd-44ed-bc96-438fe4c9f46a","ios":"levelo://app?vid=b4b7be89-ccbd-44ed-bc96-438fe4c9f46a"},"vehicle_type_id":"4","last_reported":1701893280,"current_range_meters":3600,"station_id":"ce4bhip2rcd13ifvqft0","pricing_plan_id":"free"},{"bike_id":"44ef2fe9-8da5-4814-bc28-744b4683f2b4","system_id":"levelo_inurba_marseille","lat":43.25578,"lon":5.38235,"is_reserved":false,"is_disabled":false,"rental_uris":{"android":"levelo://app?vid=44ef2fe9-8da5-4814-bc28-744b4683f2b4","ios":"levelo://app?vid=44ef2fe9-8da5-4814-bc28-744b4683f2b4"},"vehicle_type_id":"4","last_reported":1701893280,"current_range_meters":3200,"station_id":"ce4bhih2rcd13ifvqfs0","pricing_plan_id":"free"},{"bike_id":"2928ee9a-8561-4c4b-8ea4-dbd8c15aacab","system_id":"levelo_inurba_marseille","lat":43.25576,"lon":5.38228,"is_reserved":false,"is_disabled":false,"rental_uris":{"android":"levelo://app?vid=2928ee9a-8561-4c4b-8ea4-dbd8c15aacab","ios":"levelo://app?vid=2928ee9a-8561-4c4b-8ea4-dbd8c15aacab"},"vehicle_type_id":"4","last_reported":1701893280,"current_range_meters":0,"station_id":"ce4bhih2rcd13ifvqfs0","pricing_plan_id":"free"},{"bike_id":"f3eb9834-b6d4-492e-8c00-fba97d10d721","system_id":"levelo_inurba_marseille","lat":43.254947,"lon":5.376454,"is_reserved":false,"is_disabled":false,"rental_uris":{"android":"levelo://app?vid=f3eb9834-b6d4-492e-8c00-fba97d10d721","ios":"levelo://app?vid=f3eb9834-b6d4-492e-8c00-fba97d10d721"},"vehicle_type_id":"4","last_reported":1701893280,"current_range_meters":17600,"station_id":"ce4bhh12rcd13ifvqff0","pricing_plan_id":"free"},{"bike_id":"92351523-5da1-44da-b46c-ccdfa2958641","system_id":"levelo_inurba_marseille","lat":43.254933,"lon":5.376464,"is_reserved":false,"is_disabled":false,"rental_uris":{"android":"levelo://app?vid=92351523-5da1-44da-b46c-ccdfa2958641","ios":"levelo://app?vid=92351523-5da1-44da-b46c-ccdfa2958641"},"vehicle_type_id":"4","last_reported":1701893280,"current_range_meters":29600,"station_id":"ce4bhh12rcd13ifvqff0","pricing_plan_id":"free"},{"bike_id":"df19f8ce-a63c-44d7-949a-ae58af8f4993","system_id":"levelo_inurba_marseille","lat":43.270721,"lon":5.422764,"is_reserved":false,"is_disabled":false,"rental_uris":{"android":"levelo://app?vid=df19f8ce-a63c-44d7-949a-ae58af8f4993","ios":"levelo://app?vid=df19f8ce-a63c-44d7-949a-ae58af8f4993"},"vehicle_type_id":"4","last_reported":1701893280,"current_range_meters":25600,"station_id":"ce4bhk92rcd13ifvqgb0","pricing_plan_id":"free"},{"bike_id":"00f46b74-f70a-4815-b152-6bf5cc0ef103","system_id":"levelo_inurba_marseille","lat":43.270721,"lon":5.422764,"is_reserved":false,"is_disabled":false,"rental_uris":{"android":"levelo://app?vid=00f46b74-f70a-4815-b152-6bf5cc0ef103","ios":"levelo://app?vid=00f46b74-f70a-4815-b152-6bf5cc0ef103"},"vehicle_type_id":"4","last_reported":1701893280,"current_range_meters":24400,"station_id":"ce4bhk92rcd13ifvqgb0","pricing_plan_id":"free"},{"bike_id":"09e8ad53-b855-42aa-b15a-73bb022c429a","system_id":"levelo_inurba_marseille","lat":43.258658,"lon":5.398935,"is_reserved":false,"is_disabled":false,"rental_uris":{"android":"levelo://app?vid=09e8ad53-b855-42aa-b15a-73bb022c429a","ios":"levelo://app?vid=09e8ad53-b855-42aa-b15a-73bb022c429a"},"vehicle_type_id":"4","last_reported":1701893280,"current_range_meters":20800,"station_id":"ce4bhl92rcd13ifvqghg","pricing_plan_id":"free"},{"bike_id":"e6b338fc-0654-4eb1-9eb4-c94072dd874c","system_id":"levelo_inurba_marseille","lat":43.25933,"lon":5.4091,"is_reserved":false,"is_disabled":false,"rental_uris":{"android":"levelo://app?vid=e6b338fc-0654-4eb1-9eb4-c94072dd874c","ios":"levelo://app?vid=e6b338fc-0654-4eb1-9eb4-c94072dd874c"},"vehicle_type_id":"4","last_reported":1701893280,"current_range_meters":19200,"station_id":"ce4bhm92rcd13ifvqglg","pricing_plan_id":"free"},{"bike_id":"a74a30c0-3c62-4d5c-bd50-80c35ef7eb2f","system_id":"levelo_inurba_marseille","lat":43.257079,"lon":5.411051,"is_reserved":false,"is_disabled":false,"rental_uris":{"android":"levelo://app?vid=a74a30c0-3c62-4d5c-bd50-80c35ef7eb2f","ios":"levelo://app?vid=a74a30c0-3c62-4d5c-bd50-80c35ef7eb2f"},"vehicle_type_id":"4","last_reported":1701893280,"current_range_meters":12000,"station_id":"ce4bhkp2rcd13ifvqgd0","pricing_plan_id":"free"},{"bike_id":"beadb13e-80b5-46d8-b310-e6facf21a411","system_id":"levelo_inurba_marseille","lat":43.25723,"lon":5.41115,"is_reserved":false,"is_disabled":false,"rental_uris":{"android":"levelo://app?vid=beadb13e-80b5-46d8-b310-e6facf21a411","ios":"levelo://app?vid=beadb13e-80b5-46d8-b310-e6facf21a411"},"vehicle_type_id":"4","last_reported":1701893280,"current_range_meters":4400,"station_id":"ce4bhkp2rcd13ifvqgd0","pricing_plan_id":"free"},{"bike_id":"e1602fb7-dbb0-489c-961b-9627ea130fc4","system_id":"levelo_inurba_marseille","lat":43.25719,"lon":5.41111,"is_reserved":false,"is_disabled":false,"rental_uris":{"android":"levelo://app?vid=e1602fb7-dbb0-489c-961b-9627ea130fc4","ios":"levelo://app?vid=e1602fb7-dbb0-489c-961b-9627ea130fc4"},"vehicle_type_id":"4","last_reported":1701893280,"current_range_meters":4800,"station_id":"ce4bhkp2rcd13ifvqgd0","pricing_plan_id":"free"},{"bike_id":"46c122df-37ab-4053-ad9f-fdecd031d3be","system_id":"levelo_inurba_marseille","lat":43.250009,"lon":5.389195,"is_reserved":false,"is_disabled":false,"rental_uris":{"android":"levelo://app?vid=46c122df-37ab-4053-ad9f-fdecd031d3be","ios":"levelo://app?vid=46c122df-37ab-4053-ad9f-fdecd031d3be"},"vehicle_type_id":"4","last_reported":1701893280,"current_range_meters":22400,"station_id":"ce4bhgp2rcd13ifvqfd0","pricing_plan_id":"free"},{"bike_id":"ec242633-97f8-4b74-9c0b-ddae6f32910c","system_id":"levelo_inurba_marseille","lat":43.250966,"lon":5.395186,"is_reserved":false,"is_disabled":false,"rental_uris":{"android":"levelo://app?vid=ec242633-97f8-4b74-9c0b-ddae6f32910c","ios":"levelo://app?vid=ec242633-97f8-4b74-9c0b-ddae6f32910c"},"vehicle_type_id":"4","last_reported":1701893280,"current_range_meters":20800,"station_id":"ce4bhm12rcd13ifvqgkg","pricing_plan_id":"free"},{"bike_id":"db11096c-b1d2-4210-baf2-f4812df6a1c7","system_id":"levelo_inurba_marseille","lat":43.250966,"lon":5.395186,"is_reserved":false,"is_disabled":false,"rental_uris":{"android":"levelo://app?vid=db11096c-b1d2-4210-baf2-f4812df6a1c7","ios":"levelo://app?vid=db11096c-b1d2-4210-baf2-f4812df6a1c7"},"vehicle_type_id":"4","last_reported":1701893280,"current_range_meters":22800,"station_id":"ce4bhm12rcd13ifvqgkg","pricing_plan_id":"free"},{"bike_id":"dac08fbe-f5eb-45e9-9365-a64cc571a130","system_id":"levelo_inurba_marseille","lat":43.250966,"lon":5.395186,"is_reserved":false,"is_disabled":false,"rental_uris":{"android":"levelo://app?vid=dac08fbe-f5eb-45e9-9365-a64cc571a130","ios":"levelo://app?vid=dac08fbe-f5eb-45e9-9365-a64cc571a130"},"vehicle_type_id":"4","last_reported":1701893280,"current_range_meters":7200,"station_id":"ce4bhm12rcd13ifvqgkg","pricing_plan_id":"free"},{"bike_id":"ad60c98b-1966-4e4d-a4f8-6b3eb9eb0eec","system_id":"levelo_inurba_marseille","lat":43.24693,"lon":5.382096,"is_reserved":false,"is_disabled":false,"rental_uris":{"android":"levelo://app?vid=ad60c98b-1966-4e4d-a4f8-6b3eb9eb0eec","ios":"levelo://app?vid=ad60c98b-1966-4e4d-a4f8-6b3eb9eb0eec"},"vehicle_type_id":"4","last_reported":1701893280,"current_range_meters":7200,"station_id":"ce4bhih2rcd13ifvqfr0","pricing_plan_id":"free"},{"bike_id":"8dbd72b1-00b6-48ce-8048-535bbb38f720","system_id":"levelo_inurba_marseille","lat":43.24693,"lon":5.382096,"is_reserved":false,"is_disabled":false,"rental_uris":{"android":"levelo://app?vid=8dbd72b1-00b6-48ce-8048-535bbb38f720","ios":"levelo://app?vid=8dbd72b1-00b6-48ce-8048-535bbb38f720"},"vehicle_type_id":"4","last_reported":1701893280,"current_range_meters":4000,"station_id":"ce4bhih2rcd13ifvqfr0","pricing_plan_id":"free"},{"bike_id":"10e777b0-f261-4e7d-9915-12318d0b9125","system_id":"levelo_inurba_marseille","lat":43.25102,"lon":5.403214,"is_reserved":false,"is_disabled":false,"rental_uris":{"android":"levelo://app?vid=10e777b0-f261-4e7d-9915-12318d0b9125","ios":"levelo://app?vid=10e777b0-f261-4e7d-9915-12318d0b9125"},"vehicle_type_id":"4","last_reported":1701893280,"current_range_meters":5600,"station_id":"ce4bhlh2rcd13ifvqgig","pricing_plan_id":"free"},{"bike_id":"156df1de-80b4-4f1b-956b-3556b42e545b","system_id":"levelo_inurba_marseille","lat":43.25102,"lon":5.403214,"is_reserved":false,"is_disabled":false,"rental_uris":{"android":"levelo://app?vid=156df1de-80b4-4f1b-956b-3556b42e545b","ios":"levelo://app?vid=156df1de-80b4-4f1b-956b-3556b42e545b"},"vehicle_type_id":"4","last_reported":1701893280,"current_range_meters":1200,"station_id":"ce4bhlh2rcd13ifvqgig","pricing_plan_id":"free"},{"bike_id":"7cc8fff6-c544-48e7-af6b-2c0b360f8163","system_id":"levelo_inurba_marseille","lat":43.246461,"lon":5.389014,"is_reserved":false,"is_disabled":false,"rental_uris":{"android":"levelo://app?vid=7cc8fff6-c544-48e7-af6b-2c0b360f8163","ios":"levelo://app?vid=7cc8fff6-c544-48e7-af6b-2c0b360f8163"},"vehicle_type_id":"4","last_reported":1701893280,"current_range_meters":18400,"station_id":"ce4bhg12rcd13ifvqf60","pricing_plan_id":"free"},{"bike_id":"d47fcf05-fb6d-4f20-91d1-cedca7e2eec3","system_id":"levelo_inurba_marseille","lat":43.246467,"lon":5.388984,"is_reserved":false,"is_disabled":false,"rental_uris":{"android":"levelo://app?vid=d47fcf05-fb6d-4f20-91d1-cedca7e2eec3","ios":"levelo://app?vid=d47fcf05-fb6d-4f20-91d1-cedca7e2eec3"},"vehicle_type_id":"4","last_reported":1701893280,"current_range_meters":13200,"station_id":"ce4bhg12rcd13ifvqf60","pricing_plan_id":"free"},{"bike_id":"57e11f93-757d-4afe-8ec8-7ec2944178b2","system_id":"levelo_inurba_marseille","lat":43.243884,"lon":5.370737,"is_reserved":false,"is_disabled":false,"rental_uris":{"android":"levelo://app?vid=57e11f93-757d-4afe-8ec8-7ec2944178b2","ios":"levelo://app?vid=57e11f93-757d-4afe-8ec8-7ec2944178b2"},"vehicle_type_id":"4","last_reported":1701893280,"current_range_meters":28000,"station_id":"ce4bhhh2rcd13ifvqfk0","pricing_plan_id":"free"},{"bike_id":"cc9a7c1b-5b42-4665-b29b-4c33fa547673","system_id":"levelo_inurba_marseille","lat":43.24547,"lon":5.39521,"is_reserved":false,"is_disabled":false,"rental_uris":{"android":"levelo://app?vid=cc9a7c1b-5b42-4665-b29b-4c33fa547673","ios":"levelo://app?vid=cc9a7c1b-5b42-4665-b29b-4c33fa547673"},"vehicle_type_id":"4","last_reported":1701893280,"current_range_meters":2800,"station_id":"ce4bhlp2rcd13ifvqgjg","pricing_plan_id":"free"},{"bike_id":"d4237222-081d-41b2-b4d2-ea6186465fce","system_id":"levelo_inurba_marseille","lat":43.24543,"lon":5.39522,"is_reserved":false,"is_disabled":false,"rental_uris":{"android":"levelo://app?vid=d4237222-081d-41b2-b4d2-ea6186465fce","ios":"levelo://app?vid=d4237222-081d-41b2-b4d2-ea6186465fce"},"vehicle_type_id":"4","last_reported":1701893280,"current_range_meters":3200,"station_id":"ce4bhlp2rcd13ifvqgjg","pricing_plan_id":"free"},{"bike_id":"356b32b3-0b93-4f2f-b6f8-7a0dfba25754","system_id":"levelo_inurba_marseille","lat":43.240623,"lon":5.377642,"is_reserved":false,"is_disabled":false,"rental_uris":{"android":"levelo://app?vid=356b32b3-0b93-4f2f-b6f8-7a0dfba25754","ios":"levelo://app?vid=356b32b3-0b93-4f2f-b6f8-7a0dfba25754"},"vehicle_type_id":"4","last_reported":1701893280,"current_range_meters":18800,"station_id":"ce4bhnp2rcd13ifvqgvg","pricing_plan_id":"free"},{"bike_id":"ddf485ef-b41b-43b3-91b7-f44393bd0332","system_id":"levelo_inurba_marseille","lat":43.240623,"lon":5.377642,"is_reserved":false,"is_disabled":false,"rental_uris":{"android":"levelo://app?vid=ddf485ef-b41b-43b3-91b7-f44393bd0332","ios":"levelo://app?vid=ddf485ef-b41b-43b3-91b7-f44393bd0332"},"vehicle_type_id":"4","last_reported":1701893280,"current_range_meters":26800,"station_id":"ce4bhnp2rcd13ifvqgvg","pricing_plan_id":"free"},{"bike_id":"eaa278ad-09c3-4f75-9832-35635dbae429","system_id":"levelo_inurba_marseille","lat":43.240623,"lon":5.377642,"is_reserved":false,"is_disabled":false,"rental_uris":{"android":"levelo://app?vid=eaa278ad-09c3-4f75-9832-35635dbae429","ios":"levelo://app?vid=eaa278ad-09c3-4f75-9832-35635dbae429"},"vehicle_type_id":"4","last_reported":1701893280,"current_range_meters":6000,"station_id":"ce4bhnp2rcd13ifvqgvg","pricing_plan_id":"free"},{"bike_id":"cb96efd0-e7c3-401d-b6c3-706d1d2ec2bc","system_id":"levelo_inurba_marseille","lat":43.23966,"lon":5.36631,"is_reserved":false,"is_disabled":false,"rental_uris":{"android":"levelo://app?vid=cb96efd0-e7c3-401d-b6c3-706d1d2ec2bc","ios":"levelo://app?vid=cb96efd0-e7c3-401d-b6c3-706d1d2ec2bc"},"vehicle_type_id":"4","last_reported":1701893280,"current_range_meters":800,"station_id":"ce4bhi12rcd13ifvqfp0","pricing_plan_id":"free"},{"bike_id":"56feb6c9-b775-4a96-84cb-01e20c4e7de6","system_id":"levelo_inurba_marseille","lat":43.239588,"lon":5.366238,"is_reserved":false,"is_disabled":false,"rental_uris":{"android":"levelo://app?vid=56feb6c9-b775-4a96-84cb-01e20c4e7de6","ios":"levelo://app?vid=56feb6c9-b775-4a96-84cb-01e20c4e7de6"},"vehicle_type_id":"4","last_reported":1701893280,"current_range_meters":7600,"station_id":"ce4bhi12rcd13ifvqfp0","pricing_plan_id":"free"},{"bike_id":"b95bd059-db79-4290-bca3-5a38eb6a8b00","system_id":"levelo_inurba_marseille","lat":43.23185,"lon":5.39981,"is_reserved":false,"is_disabled":false,"rental_uris":{"android":"levelo://app?vid=b95bd059-db79-4290-bca3-5a38eb6a8b00","ios":"levelo://app?vid=b95bd059-db79-4290-bca3-5a38eb6a8b00"},"vehicle_type_id":"4","last_reported":1701893280,"current_range_meters":16000,"station_id":"ce4bhn12rcd13ifvqgqg","pricing_plan_id":"free"},{"bike_id":"2a73e8fa-c92c-487d-afb8-ed18138423a5","system_id":"levelo_inurba_marseille","lat":43.231794,"lon":5.400052,"is_reserved":false,"is_disabled":false,"rental_uris":{"android":"levelo://app?vid=2a73e8fa-c92c-487d-afb8-ed18138423a5","ios":"levelo://app?vid=2a73e8fa-c92c-487d-afb8-ed18138423a5"},"vehicle_type_id":"4","last_reported":1701893280,"current_range_meters":30400,"station_id":"ce4bhn12rcd13ifvqgqg","pricing_plan_id":"free"},{"bike_id":"bf500768-3452-4ed8-986e-9bf0ce06cb33","system_id":"levelo_inurba_marseille","lat":43.23181,"lon":5.39984,"is_reserved":false,"is_disabled":false,"rental_uris":{"android":"levelo://app?vid=bf500768-3452-4ed8-986e-9bf0ce06cb33","ios":"levelo://app?vid=bf500768-3452-4ed8-986e-9bf0ce06cb33"},"vehicle_type_id":"4","last_reported":1701893280,"current_range_meters":9600,"station_id":"ce4bhn12rcd13ifvqgqg","pricing_plan_id":"free"},{"bike_id":"7bdcb459-e307-4c9a-a048-89c84ffd93f4","system_id":"levelo_inurba_marseille","lat":43.24441,"lon":5.43785,"is_reserved":false,"is_disabled":false,"rental_uris":{"android":"levelo://app?vid=7bdcb459-e307-4c9a-a048-89c84ffd93f4","ios":"levelo://app?vid=7bdcb459-e307-4c9a-a048-89c84ffd93f4"},"vehicle_type_id":"4","last_reported":1701893280,"current_range_meters":0,"station_id":"","pricing_plan_id":"free"},{"bike_id":"58123e06-d55b-449c-a2fc-e1b20834e853","system_id":"levelo_inurba_marseille","lat":43.23154,"lon":5.43711,"is_reserved":false,"is_disabled":false,"rental_uris":{"android":"levelo://app?vid=58123e06-d55b-449c-a2fc-e1b20834e853","ios":"levelo://app?vid=58123e06-d55b-449c-a2fc-e1b20834e853"},"vehicle_type_id":"4","last_reported":1701893280,"current_range_meters":2400,"station_id":"ce4bhmp2rcd13ifvqgog","pricing_plan_id":"free"},{"bike_id":"32b30606-14b9-41e6-a49f-da3543c8206c","system_id":"levelo_inurba_marseille","lat":43.231562,"lon":5.436933,"is_reserved":false,"is_disabled":false,"rental_uris":{"android":"levelo://app?vid=32b30606-14b9-41e6-a49f-da3543c8206c","ios":"levelo://app?vid=32b30606-14b9-41e6-a49f-da3543c8206c"},"vehicle_type_id":"4","last_reported":1701893280,"current_range_meters":11200,"station_id":"ce4bhmp2rcd13ifvqgog","pricing_plan_id":"free"}]}}