{"last_updated":1741864099,"ttl":60,"version":"2.2","data":{"bikes":[{"bike_id":"6ff04b42-99cc-41c7-aa70-9ebeb43d1af6","system_id":"levelo_inurba_marseille","lat":43.28714,"lon":5.39986,"is_reserved":false,"is_disabled":true,"rental_uris":{"android":"levelo://app?vid=6ff04b42-99cc-41c7-aa70-9ebeb43d1af6","ios":"levelo://app?vid=6ff04b42-99cc-41c7-aa70-9ebeb43d1af6"},"vehicle_type_id":"4","last_reported":1741864099,"current_range_meters":2800,"station_id":"ce4bho92rcd13ifvqh3g","pricing_plan_id":"cebpf4jnsgd1na2vs0mg"},{"bike_id":"677b3943-71db-4779-9605-656fae49d7d1","system_id":"levelo_inurba_marseille","lat":43.31352,"lon":5.37922,"is_reserved":false,"is_disabled":false,"rental_uris":{"android":"levelo://app?vid=677b3943-71db-4779-9605-656fae49d7d1","ios":"levelo://app?vid=677b3943-71db-4779-9605-656fae49d7d1"},"vehicle_type_id":"4","last_reported":1741864099,"current_range_meters":2800,"station_id":"","pricing_plan_id":"cebpf4jnsgd1na2vs0mg"},{"bike_id":"0e176cd4-8989-4161-99be-de1eb6693b67","system_id":"levelo_inurba_marseille","lat":43.26676,"lon":5.38257,"is_reserved":false,"is_disabled":false,"rental_uris":{"android":"levelo://app?vid=0e176cd4-8989-4161-99be-de1eb6693b67","ios":"levelo://app?vid=0e176cd4-8989-4161-99be-de1eb6693b67"},"vehicle_type_id":"4","last_reported":1741864099,"current_range_meters":3200,"station_id":"ce4bhg92rcd13ifvqf90","pricing_plan_id":"cebpf4jnsgd1na2vs0mg"},{"bike_id":"c547cbc8-9ca4-42a3-bd53-e3ea875c1045","system_id":"levelo_inurba_marseille","lat":43.2682,"lon":5.40272,"is_reserved":false,"is_disabled":false,"rental_uris":{"android":"levelo://app?vid=c547cbc8-9ca4-42a3-bd53-e3ea875c1045","ios":"levelo://app?vid=c547cbc8-9ca4-42a3-bd53-e3ea875c1045"},"vehicle_type_id":"4","last_reported":1741864099,"current_range_meters":3200,"station_id":"ce501612rcd8frsf0b60","pricing_plan_id":"cebpf4jnsgd1na2vs0mg"},{"bike_id":"ced63c04-0ecc-4d77-a241-a8b7e1150631","system_id":"levelo_inurba_marseille","lat":43.27057,"lon":5.40261,"is_reserved":false,"is_disabled":false,"rental_uris":{"android":"levelo://app?vid=ced63c04-0ecc-4d77-a241-a8b7e1150631","ios":"levelo://app?vid=ced63c04-0ecc-4d77-a241-a8b7e1150631"},"vehicle_type_id":"4","last_reported":1741864099,"current_range_meters":3200,"station_id":"ce4bhk92rcd13ifvqgc0","pricing_plan_id":"cebpf4jnsgd1na2vs0mg"},{"bike_id":"414e662b-1fe8-4419-9a63-a52bb3d03519","system_id":"levelo_inurba_marseille","lat":43.30629,"lon":5.40095,"is_reserved":false,"is_disabled":false,"rental_uris":{"android":"levelo://app?vid=414e662b-1fe8-4419-9a63-a52bb3d03519","ios":"levelo://app?vid=414e662b-1fe8-4419-9a63-a52bb3d03519"},"vehicle_type_id":"4","last_reported":1741864099,"current_range_meters":2800,"station_id":"ce4bh112rcd13ifvqda0","pricing_plan_id":"cebpf4jnsgd1na2vs0mg"},{"bike_id":"a3262b42-4e68-45c2-be39-bcef7caf2a1a","system_id":"levelo_inurba_marseille","lat":43.295905,"lon":5.381221,"is_reserved":false,"is_disabled":false,"rental_uris":{"android":"levelo://app?vid=a3262b42-4e68-45c2-be39-bcef7caf2a1a","ios":"levelo://app?vid=a3262b42-4e68-45c2-be39-bcef7caf2a1a"},"vehicle_type_id":"4","last_reported":1741864099,"current_range_meters":3600,"station_id":"ce4bgt12rcd13ifvqcd0","pricing_plan_id":"cebpf4jnsgd1na2vs0mg"},{"bike_id":"386ff9d2-85b9-4dfc-a07a-c5aebd7da834","system_id":"levelo_inurba_marseille","lat":43.31756,"lon":5.390358,"is_reserved":false,"is_disabled":false,"rental_uris":{"android":"levelo://app?vid=386ff9d2-85b9-4dfc-a07a-c5aebd7da834","ios":"levelo://app?vid=386ff9d2-85b9-4dfc-a07a-c5aebd7da834"},"vehicle_type_id":"4","last_reported":1741864099,"current_range_meters":3600,"station_id":"ce4bhqp2rcd13ifvqhng","pricing_plan_id":"cebpf4jnsgd1na2vs0mg"},{"bike_id":"c29dc4a6-5df7-4d4e-879a-59bdb58cd207","system_id":"levelo_inurba_marseille","lat":43.33345,"lon":5.39644,"is_reserved":false,"is_disabled":false,"rental_uris":{"android":"levelo://app?vid=c29dc4a6-5df7-4d4e-879a-59bdb58cd207","ios":"levelo://app?vid=c29dc4a6-5df7-4d4e-879a-59bdb58cd207"},"vehicle_type_id":"4","last_reported":1741864099,"current_range_meters":4000,"station_id":"","pricing_plan_id":"cebpf4jnsgd1na2vs0mg"},{"bike_id":"576be9c8-7369-4bbc-a5e1-94a77fea1a2c","system_id":"levelo_inurba_marseille","lat":43.2595,"lon":5.40887,"is_reserved":false,"is_disabled":false,"rental_uris":{"android":"levelo://app?vid=576be9c8-7369-4bbc-a5e1-94a77fea1a2c","ios":"levelo://app?vid=576be9c8-7369-4bbc-a5e1-94a77fea1a2c"},"vehicle_type_id":"4","last_reported":1741864099,"current_range_meters":4000,"station_id":"ce4bhm92rcd13ifvqglg","pricing_plan_id":"cebpf4jnsgd1na2vs0mg"},{"bike_id":"633bf53e-2a6a-4ff4-97ac-9439a3dedc92","system_id":"levelo_inurba_marseille","lat":43.28047,"lon":5.36946,"is_reserved":false,"is_disabled":false,"rental_uris":{"android":"levelo://app?vid=633bf53e-2a6a-4ff4-97ac-9439a3dedc92","ios":"levelo://app?vid=633bf53e-2a6a-4ff4-97ac-9439a3dedc92"},"vehicle_type_id":"4","last_reported":1741864099,"current_range_meters":3600,"station_id":"ce4bha12rcd13ifvqef0","pricing_plan_id":"cebpf4jnsgd1na2vs0mg"},{"bike_id":"51b06c31-39c4-4206-b625-3e84b0e425a2","system_id":"levelo_inurba_marseille","lat":43.31331,"lon":5.39687,"is_reserved":false,"is_disabled":false,"rental_uris":{"android":"levelo://app?vid=51b06c31-39c4-4206-b625-3e84b0e425a2","ios":"levelo://app?vid=51b06c31-39c4-4206-b625-3e84b0e425a2"},"vehicle_type_id":"4","last_reported":1741864099,"current_range_meters":3600,"station_id":"ce4bgvp2rcd13ifvqcu0","pricing_plan_id":"cebpf4jnsgd1na2vs0mg"},{"bike_id":"692a1f7f-5141-4501-b2c9-c560f452d261","system_id":"levelo_inurba_marseille","lat":43.29025,"lon":5.38611,"is_reserved":false,"is_disabled":false,"rental_uris":{"android":"levelo://app?vid=692a1f7f-5141-4501-b2c9-c560f452d261","ios":"levelo://app?vid=692a1f7f-5141-4501-b2c9-c560f452d261"},"vehicle_type_id":"4","last_reported":1741864099,"current_range_meters":4000,"station_id":"ce4bh4p2rcd13ifvqe0g","pricing_plan_id":"cebpf4jnsgd1na2vs0mg"},{"bike_id":"673486fb-2361-436f-9971-f491febe8e13","system_id":"levelo_inurba_marseille","lat":43.24556,"lon":5.39496,"is_reserved":false,"is_disabled":false,"rental_uris":{"android":"levelo://app?vid=673486fb-2361-436f-9971-f491febe8e13","ios":"levelo://app?vid=673486fb-2361-436f-9971-f491febe8e13"},"vehicle_type_id":"4","last_reported":1741864099,"current_range_meters":4800,"station_id":"ce4bhlp2rcd13ifvqgjg","pricing_plan_id":"cebpf4jnsgd1na2vs0mg"},{"bike_id":"b8f9d267-d48f-48cb-8919-9af992e0f1f5","system_id":"levelo_inurba_marseille","lat":43.33172,"lon":5.394614,"is_reserved":false,"is_disabled":false,"rental_uris":{"android":"levelo://app?vid=b8f9d267-d48f-48cb-8919-9af992e0f1f5","ios":"levelo://app?vid=b8f9d267-d48f-48cb-8919-9af992e0f1f5"},"vehicle_type_id":"4","last_reported":1741864099,"current_range_meters":4800,"station_id":"","pricing_plan_id":"cebpf4jnsgd1na2vs0mg"},{"bike_id":"9466847e-5136-4aae-868c-6597a1773c7f","system_id":"levelo_inurba_marseille","lat":43.28634,"lon":5.35094,"is_reserved":false,"is_disabled":false,"rental_uris":{"android":"levelo://app?vid=9466847e-5136-4aae-868c-6597a1773c7f","ios":"levelo://app?vid=9466847e-5136-4aae-868c-6597a1773c7f"},"vehicle_type_id":"4","last_reported":1741864099,"current_range_meters":4800,"station_id":"ce4bhch2rcd13ifvqeug","pricing_plan_id":"cebpf4jnsgd1na2vs0mg"},{"bike_id":"d15bdb65-4977-489c-beba-670823ddefe8","system_id":"levelo_inurba_marseille","lat":43.26063,"lon":5.39396,"is_reserved":false,"is_disabled":false,"rental_uris":{"android":"levelo://app?vid=d15bdb65-4977-489c-beba-670823ddefe8","ios":"levelo://app?vid=d15bdb65-4977-489c-beba-670823ddefe8"},"vehicle_type_id":"4","last_reported":1741864099,"current_range_meters":4800,"station_id":"ce4bhh92rcd13ifvqfj0","pricing_plan_id":"cebpf4jnsgd1na2vs0mg"},{"bike_id":"27fcc4a9-62a3-4e5b-9ff7-1c02cb0f85e3","system_id":"levelo_inurba_marseille","lat":43.29093,"lon":5.38116,"is_reserved":false,"is_disabled":false,"rental_uris":{"android":"levelo://app?vid=27fcc4a9-62a3-4e5b-9ff7-1c02cb0f85e3","ios":"levelo://app?vid=27fcc4a9-62a3-4e5b-9ff7-1c02cb0f85e3"},"vehicle_type_id":"4","last_reported":1741864099,"current_range_meters":4800,"station_id":"ce4bh512rcd13ifvqe2g","pricing_plan_id":"cebpf4jnsgd1na2vs0mg"},{"bike_id":"6e3fe187-e764-4eae-9010-e17a2730acd6","system_id":"levelo_inurba_marseille","lat":43.31369,"lon":5.36736,"is_reserved":false,"is_disabled":false,"rental_uris":{"android":"levelo://app?vid=6e3fe187-e764-4eae-9010-e17a2730acd6","ios":"levelo://app?vid=6e3fe187-e764-4eae-9010-e17a2730acd6"},"vehicle_type_id":"4","last_reported":1741864099,"current_range_meters":5600,"station_id":"ce4bgr92rcd13ifvqc6g","pricing_plan_id":"cebpf4jnsgd1na2vs0mg"},{"bike_id":"ee50a542-2bd9-4608-b916-1115a5e50110","system_id":"levelo_inurba_marseille","lat":43.32461,"lon":5.36576,"is_reserved":false,"is_disabled":false,"rental_uris":{"android":"levelo://app?vid=ee50a542-2bd9-4608-b916-1115a5e50110","ios":"levelo://app?vid=ee50a542-2bd9-4608-b916-1115a5e50110"},"vehicle_type_id":"4","last_reported":1741864099,"current_range_meters":5600,"station_id":"ce4bhs12rcd13ifvqhvg","pricing_plan_id":"cebpf4jnsgd1na2vs0mg"},{"bike_id":"58c5e8c6-6e3e-4bac-b702-9219905970c2","system_id":"levelo_inurba_marseille","lat":43.23194,"lon":5.35557,"is_reserved":false,"is_disabled":false,"rental_uris":{"android":"levelo://app?vid=58c5e8c6-6e3e-4bac-b702-9219905970c2","ios":"levelo://app?vid=58c5e8c6-6e3e-4bac-b702-9219905970c2"},"vehicle_type_id":"4","last_reported":1741864099,"current_range_meters":5600,"station_id":"ce4bhu92rcd13ifvqi70","pricing_plan_id":"cebpf4jnsgd1na2vs0mg"},{"bike_id":"f2ba4ec8-e4ea-4e26-9719-f91071aae9ee","system_id":"levelo_inurba_marseille","lat":43.27226,"lon":5.39193,"is_reserved":false,"is_disabled":false,"rental_uris":{"android":"levelo://app?vid=f2ba4ec8-e4ea-4e26-9719-f91071aae9ee","ios":"levelo://app?vid=f2ba4ec8-e4ea-4e26-9719-f91071aae9ee"},"vehicle_type_id":"4","last_reported":1741864099,"current_range_meters":5600,"station_id":"ce4bhhp2rcd13ifvqfm0","pricing_plan_id":"cebpf4jnsgd1na2vs0mg"},{"bike_id":"a2b12afe-92da-4b79-9f8c-a895f7da449c","system_id":"levelo_inurba_marseille","lat":43.27494,"lon":5.42466,"is_reserved":false,"is_disabled":false,"rental_uris":{"android":"levelo://app?vid=a2b12afe-92da-4b79-9f8c-a895f7da449c","ios":"levelo://app?vid=a2b12afe-92da-4b79-9f8c-a895f7da449c"},"vehicle_type_id":"4","last_reported":1741864099,"current_range_meters":5600,"station_id":"ce4bhn92rcd13ifvqgrg","pricing_plan_id":"cebpf4jnsgd1na2vs0mg"},{"bike_id":"91919df0-a609-4174-9c4e-96f0a7ea657d","system_id":"levelo_inurba_marseille","lat":43.26573,"lon":5.39011,"is_reserved":false,"is_disabled":false,"rental_uris":{"android":"levelo://app?vid=91919df0-a609-4174-9c4e-96f0a7ea657d","ios":"levelo://app?vid=91919df0-a609-4174-9c4e-96f0a7ea657d"},"vehicle_type_id":"4","last_reported":1741864099,"current_range_meters":6000,"station_id":"ce4bhe12rcd13ifvqf30","pricing_plan_id":"cebpf4jnsgd1na2vs0mg"},{"bike_id":"f9db333d-d67d-4b3d-8646-34263c710a49","system_id":"levelo_inurba_marseille","lat":43.28479,"lon":5.35888,"is_reserved":false,"is_disabled":false,"rental_uris":{"android":"levelo://app?vid=f9db333d-d67d-4b3d-8646-34263c710a49","ios":"levelo://app?vid=f9db333d-d67d-4b3d-8646-34263c710a49"},"vehicle_type_id":"4","last_reported":1741864099,"current_range_meters":6000,"station_id":"ce4bhah2rcd13ifvqei0","pricing_plan_id":"cebpf4jnsgd1na2vs0mg"},{"bike_id":"55f1d69c-fe3d-45bd-909b-0d4884af206e","system_id":"levelo_inurba_marseille","lat":43.26227,"lon":5.40457,"is_reserved":false,"is_disabled":true,"rental_uris":{"android":"levelo://app?vid=55f1d69c-fe3d-45bd-909b-0d4884af206e","ios":"levelo://app?vid=55f1d69c-fe3d-45bd-909b-0d4884af206e"},"vehicle_type_id":"4","last_reported":1741864099,"current_range_meters":6000,"station_id":"","pricing_plan_id":"cebpf4jnsgd1na2vs0mg"},{"bike_id":"cd1b2bd0-9def-4cf2-b1b0-e8760a810e20","system_id":"levelo_inurba_marseille","lat":43.3096,"lon":5.39033,"is_reserved":false,"is_disabled":false,"rental_uris":{"android":"levelo://app?vid=cd1b2bd0-9def-4cf2-b1b0-e8760a810e20","ios":"levelo://app?vid=cd1b2bd0-9def-4cf2-b1b0-e8760a810e20"},"vehicle_type_id":"4","last_reported":1741864099,"current_range_meters":6000,"station_id":"ce4bgup2rcd13ifvqco0","pricing_plan_id":"cebpf4jnsgd1na2vs0mg"},{"bike_id":"47e9bee4-4cff-4040-9023-fb1c0aa900b4","system_id":"levelo_inurba_marseille","lat":43.25961,"lon":5.40898,"is_reserved":false,"is_disabled":false,"rental_uris":{"android":"levelo://app?vid=47e9bee4-4cff-4040-9023-fb1c0aa900b4","ios":"levelo://app?vid=47e9bee4-4cff-4040-9023-fb1c0aa900b4"},"vehicle_type_id":"4","last_reported":1741864099,"current_range_meters":6000,"station_id":"ce4bhm92rcd13ifvqglg","pricing_plan_id":"cebpf4jnsgd1na2vs0mg"},{"bike_id":"e8f489b7-d4f0-43fb-8e13-066a797660fd","system_id":"levelo_inurba_marseille","lat":43.32358,"lon":5.36764,"is_reserved":false,"is_disabled":false,"rental_uris":{"android":"levelo://app?vid=e8f489b7-d4f0-43fb-8e13-066a797660fd","ios":"levelo://app?vid=e8f489b7-d4f0-43fb-8e13-066a797660fd"},"vehicle_type_id":"4","last_reported":1741864099,"current_range_meters":6000,"station_id":"ce4bhsh2rcd13ifvqi2g","pricing_plan_id":"cebpf4jnsgd1na2vs0mg"},{"bike_id":"a72e572d-3312-4d59-b252-a55d5bdca9b5","system_id":"levelo_inurba_marseille","lat":43.29816,"lon":5.37352,"is_reserved":false,"is_disabled":true,"rental_uris":{"android":"levelo://app?vid=a72e572d-3312-4d59-b252-a55d5bdca9b5","ios":"levelo://app?vid=a72e572d-3312-4d59-b252-a55d5bdca9b5"},"vehicle_type_id":"4","last_reported":1741864099,"current_range_meters":6400,"station_id":"","pricing_plan_id":"cebpf4jnsgd1na2vs0mg"},{"bike_id":"12152c75-c194-42e1-9957-d5ffda9ab370","system_id":"levelo_inurba_marseille","lat":43.24525,"lon":5.37353,"is_reserved":false,"is_disabled":false,"rental_uris":{"android":"levelo://app?vid=12152c75-c194-42e1-9957-d5ffda9ab370","ios":"levelo://app?vid=12152c75-c194-42e1-9957-d5ffda9ab370"},"vehicle_type_id":"4","last_reported":1741864099,"current_range_meters":6400,"station_id":"","pricing_plan_id":"cebpf4jnsgd1na2vs0mg"},{"bike_id":"19a73930-d58b-4b9e-aca2-82ebc26a4146","system_id":"levelo_inurba_marseille","lat":43.30164,"lon":5.38086,"is_reserved":false,"is_disabled":false,"rental_uris":{"android":"levelo://app?vid=19a73930-d58b-4b9e-aca2-82ebc26a4146","ios":"levelo://app?vid=19a73930-d58b-4b9e-aca2-82ebc26a4146"},"vehicle_type_id":"4","last_reported":1741864099,"current_range_meters":6400,"station_id":"ce4bgjp2rcd13ifvqbh0","pricing_plan_id":"cebpf4jnsgd1na2vs0mg"},{"bike_id":"11966888-f710-48ec-9ba9-bde5189997bf","system_id":"levelo_inurba_marseille","lat":43.27206,"lon":5.39176,"is_reserved":false,"is_disabled":false,"rental_uris":{"android":"levelo://app?vid=11966888-f710-48ec-9ba9-bde5189997bf","ios":"levelo://app?vid=11966888-f710-48ec-9ba9-bde5189997bf"},"vehicle_type_id":"4","last_reported":1741864099,"current_range_meters":6400,"station_id":"ce4bhhp2rcd13ifvqfm0","pricing_plan_id":"cebpf4jnsgd1na2vs0mg"},{"bike_id":"9b19940f-6715-4ea7-9987-5bad98a0ecfb","system_id":"levelo_inurba_marseille","lat":43.30551,"lon":5.38429,"is_reserved":false,"is_disabled":false,"rental_uris":{"android":"levelo://app?vid=9b19940f-6715-4ea7-9987-5bad98a0ecfb","ios":"levelo://app?vid=9b19940f-6715-4ea7-9987-5bad98a0ecfb"},"vehicle_type_id":"4","last_reported":1741864099,"current_range_meters":6400,"station_id":"ce4bgg92rcd13ifvqb30","pricing_plan_id":"cebpf4jnsgd1na2vs0mg"},{"bike_id":"e65f842e-69b2-436a-a201-83a06add3a55","system_id":"levelo_inurba_marseille","lat":43.25014,"lon":5.38918,"is_reserved":false,"is_disabled":false,"rental_uris":{"android":"levelo://app?vid=e65f842e-69b2-436a-a201-83a06add3a55","ios":"levelo://app?vid=e65f842e-69b2-436a-a201-83a06add3a55"},"vehicle_type_id":"4","last_reported":1741864099,"current_range_meters":6400,"station_id":"ce4bhgp2rcd13ifvqfd0","pricing_plan_id":"cebpf4jnsgd1na2vs0mg"},{"bike_id":"4f22fe17-a417-41ba-bcf4-f26309487b11","system_id":"levelo_inurba_marseille","lat":43.334323,"lon":5.400626,"is_reserved":false,"is_disabled":false,"rental_uris":{"android":"levelo://app?vid=4f22fe17-a417-41ba-bcf4-f26309487b11","ios":"levelo://app?vid=4f22fe17-a417-41ba-bcf4-f26309487b11"},"vehicle_type_id":"4","last_reported":1741864099,"current_range_meters":6400,"station_id":"","pricing_plan_id":"cebpf4jnsgd1na2vs0mg"},{"bike_id":"6404805e-6b7d-4c5f-8f1c-6e92d554af70","system_id":"levelo_inurba_marseille","lat":43.3113,"lon":5.37767,"is_reserved":false,"is_disabled":false,"rental_uris":{"android":"levelo://app?vid=6404805e-6b7d-4c5f-8f1c-6e92d554af70","ios":"levelo://app?vid=6404805e-6b7d-4c5f-8f1c-6e92d554af70"},"vehicle_type_id":"4","last_reported":1741864099,"current_range_meters":6800,"station_id":"ce4bgt92rcd13ifvqcg0","pricing_plan_id":"cebpf4jnsgd1na2vs0mg"},{"bike_id":"dc804c71-a744-4844-af3b-67393c6a15ad","system_id":"levelo_inurba_marseille","lat":43.32367,"lon":5.36759,"is_reserved":false,"is_disabled":false,"rental_uris":{"android":"levelo://app?vid=dc804c71-a744-4844-af3b-67393c6a15ad","ios":"levelo://app?vid=dc804c71-a744-4844-af3b-67393c6a15ad"},"vehicle_type_id":"4","last_reported":1741864099,"current_range_meters":6800,"station_id":"ce4bhsh2rcd13ifvqi2g","pricing_plan_id":"cebpf4jnsgd1na2vs0mg"},{"bike_id":"0e1454f0-c501-449b-b78c-ddfc8f4d9aab","system_id":"levelo_inurba_marseille","lat":43.337444,"lon":5.374475,"is_reserved":false,"is_disabled":false,"rental_uris":{"android":"levelo://app?vid=0e1454f0-c501-449b-b78c-ddfc8f4d9aab","ios":"levelo://app?vid=0e1454f0-c501-449b-b78c-ddfc8f4d9aab"},"vehicle_type_id":"4","last_reported":1741864099,"current_range_meters":6800,"station_id":"","pricing_plan_id":"cebpf4jnsgd1na2vs0mg"},{"bike_id":"80d84ba3-d5eb-494d-a4b8-350d3354f7fd","system_id":"levelo_inurba_marseille","lat":43.2969,"lon":5.37294,"is_reserved":false,"is_disabled":false,"rental_uris":{"android":"levelo://app?vid=80d84ba3-d5eb-494d-a4b8-350d3354f7fd","ios":"levelo://app?vid=80d84ba3-d5eb-494d-a4b8-350d3354f7fd"},"vehicle_type_id":"4","last_reported":1741864099,"current_range_meters":6800,"station_id":"ce4bgk12rcd13ifvqbj0","pricing_plan_id":"cebpf4jnsgd1na2vs0mg"},{"bike_id":"eeac798f-2ea8-4dbf-86ee-c41b772bc3c7","system_id":"levelo_inurba_marseille","lat":43.25948,"lon":5.40876,"is_reserved":false,"is_disabled":false,"rental_uris":{"android":"levelo://app?vid=eeac798f-2ea8-4dbf-86ee-c41b772bc3c7","ios":"levelo://app?vid=eeac798f-2ea8-4dbf-86ee-c41b772bc3c7"},"vehicle_type_id":"4","last_reported":1741864099,"current_range_meters":6800,"station_id":"ce4bhm92rcd13ifvqglg","pricing_plan_id":"cebpf4jnsgd1na2vs0mg"},{"bike_id":"5f5ac37b-b646-463f-88d9-3d742cc1fc54","system_id":"levelo_inurba_marseille","lat":43.27485,"lon":5.42463,"is_reserved":false,"is_disabled":false,"rental_uris":{"android":"levelo://app?vid=5f5ac37b-b646-463f-88d9-3d742cc1fc54","ios":"levelo://app?vid=5f5ac37b-b646-463f-88d9-3d742cc1fc54"},"vehicle_type_id":"4","last_reported":1741864099,"current_range_meters":6800,"station_id":"ce4bhn92rcd13ifvqgrg","pricing_plan_id":"cebpf4jnsgd1na2vs0mg"},{"bike_id":"d5d27681-4cf0-4f00-9849-e320d119461c","system_id":"levelo_inurba_marseille","lat":43.28006,"lon":5.38805,"is_reserved":false,"is_disabled":false,"rental_uris":{"android":"levelo://app?vid=d5d27681-4cf0-4f00-9849-e320d119461c","ios":"levelo://app?vid=d5d27681-4cf0-4f00-9849-e320d119461c"},"vehicle_type_id":"4","last_reported":1741864099,"current_range_meters":6800,"station_id":"ce4bhg12rcd13ifvqf80","pricing_plan_id":"cebpf4jnsgd1na2vs0mg"},{"bike_id":"f1257e26-70bf-4c2f-b7e2-fbe7bec01512","system_id":"levelo_inurba_marseille","lat":43.31712,"lon":5.40485,"is_reserved":false,"is_disabled":false,"rental_uris":{"android":"levelo://app?vid=f1257e26-70bf-4c2f-b7e2-fbe7bec01512","ios":"levelo://app?vid=f1257e26-70bf-4c2f-b7e2-fbe7bec01512"},"vehicle_type_id":"4","last_reported":1741864099,"current_range_meters":6800,"station_id":"ce4bh012rcd13ifvqd00","pricing_plan_id":"cebpf4jnsgd1na2vs0mg"},{"bike_id":"5f35c94c-b104-45ab-bf17-33eb5c692dda","system_id":"levelo_inurba_marseille","lat":43.2573,"lon":5.41107,"is_reserved":false,"is_disabled":false,"rental_uris":{"android":"levelo://app?vid=5f35c94c-b104-45ab-bf17-33eb5c692dda","ios":"levelo://app?vid=5f35c94c-b104-45ab-bf17-33eb5c692dda"},"vehicle_type_id":"4","last_reported":1741864099,"current_range_meters":6400,"station_id":"ce4bhkp2rcd13ifvqgd0","pricing_plan_id":"cebpf4jnsgd1na2vs0mg"},{"bike_id":"13d800fc-e529-4950-99a1-abc8ba12edb9","system_id":"levelo_inurba_marseille","lat":43.30544,"lon":5.38428,"is_reserved":false,"is_disabled":false,"rental_uris":{"android":"levelo://app?vid=13d800fc-e529-4950-99a1-abc8ba12edb9","ios":"levelo://app?vid=13d800fc-e529-4950-99a1-abc8ba12edb9"},"vehicle_type_id":"4","last_reported":1741864099,"current_range_meters":7200,"station_id":"ce4bgg92rcd13ifvqb30","pricing_plan_id":"cebpf4jnsgd1na2vs0mg"},{"bike_id":"57dd54e3-4a62-4d62-a03b-5320a176e579","system_id":"levelo_inurba_marseille","lat":43.241718,"lon":5.364036,"is_reserved":false,"is_disabled":false,"rental_uris":{"android":"levelo://app?vid=57dd54e3-4a62-4d62-a03b-5320a176e579","ios":"levelo://app?vid=57dd54e3-4a62-4d62-a03b-5320a176e579"},"vehicle_type_id":"4","last_reported":1741864099,"current_range_meters":7200,"station_id":"cpo36qri1sfpv3e86is0","pricing_plan_id":"cebpf4jnsgd1na2vs0mg"},{"bike_id":"fb03e9b9-f1d4-4d2f-8575-deaaf2914ec9","system_id":"levelo_inurba_marseille","lat":43.24076,"lon":5.37718,"is_reserved":false,"is_disabled":false,"rental_uris":{"android":"levelo://app?vid=fb03e9b9-f1d4-4d2f-8575-deaaf2914ec9","ios":"levelo://app?vid=fb03e9b9-f1d4-4d2f-8575-deaaf2914ec9"},"vehicle_type_id":"4","last_reported":1741864099,"current_range_meters":7200,"station_id":"ce4bhnp2rcd13ifvqgvg","pricing_plan_id":"cebpf4jnsgd1na2vs0mg"},{"bike_id":"616a435f-89dc-43cc-870e-cd4d9550de2e","system_id":"levelo_inurba_marseille","lat":43.31415,"lon":5.3763,"is_reserved":false,"is_disabled":false,"rental_uris":{"android":"levelo://app?vid=616a435f-89dc-43cc-870e-cd4d9550de2e","ios":"levelo://app?vid=616a435f-89dc-43cc-870e-cd4d9550de2e"},"vehicle_type_id":"4","last_reported":1741864099,"current_range_meters":7200,"station_id":"","pricing_plan_id":"cebpf4jnsgd1na2vs0mg"},{"bike_id":"7fe04cda-7188-4220-9b13-4ad5518802f5","system_id":"levelo_inurba_marseille","lat":43.24033,"lon":5.37805,"is_reserved":false,"is_disabled":false,"rental_uris":{"android":"levelo://app?vid=7fe04cda-7188-4220-9b13-4ad5518802f5","ios":"levelo://app?vid=7fe04cda-7188-4220-9b13-4ad5518802f5"},"vehicle_type_id":"4","last_reported":1741864099,"current_range_meters":7200,"station_id":"ce4bhnp2rcd13ifvqgvg","pricing_plan_id":"cebpf4jnsgd1na2vs0mg"},{"bike_id":"5a056908-3264-4ee7-839b-df782ee47d2a","system_id":"levelo_inurba_marseille","lat":43.23201,"lon":5.39991,"is_reserved":false,"is_disabled":false,"rental_uris":{"android":"levelo://app?vid=5a056908-3264-4ee7-839b-df782ee47d2a","ios":"levelo://app?vid=5a056908-3264-4ee7-839b-df782ee47d2a"},"vehicle_type_id":"4","last_reported":1741864099,"current_range_meters":7200,"station_id":"ce4bhn12rcd13ifvqgqg","pricing_plan_id":"cebpf4jnsgd1na2vs0mg"},{"bike_id":"2a69e639-a0be-4da5-b497-a75be2f56c13","system_id":"levelo_inurba_marseille","lat":43.25092,"lon":5.39516,"is_reserved":false,"is_disabled":false,"rental_uris":{"android":"levelo://app?vid=2a69e639-a0be-4da5-b497-a75be2f56c13","ios":"levelo://app?vid=2a69e639-a0be-4da5-b497-a75be2f56c13"},"vehicle_type_id":"4","last_reported":1741864099,"current_range_meters":7200,"station_id":"ce4bhm12rcd13ifvqgkg","pricing_plan_id":"cebpf4jnsgd1na2vs0mg"},{"bike_id":"c63e6a38-10f3-49ac-a8c4-de98b9ce1a9b","system_id":"levelo_inurba_marseille","lat":43.315,"lon":5.37284,"is_reserved":false,"is_disabled":false,"rental_uris":{"android":"levelo://app?vid=c63e6a38-10f3-49ac-a8c4-de98b9ce1a9b","ios":"levelo://app?vid=c63e6a38-10f3-49ac-a8c4-de98b9ce1a9b"},"vehicle_type_id":"4","last_reported":1741864099,"current_range_meters":7200,"station_id":"ce4bgt12rcd13ifvqcd0","pricing_plan_id":"cebpf4jnsgd1na2vs0mg"},{"bike_id":"2053d644-c7c1-4a84-85e5-e0d75fa3de3a","system_id":"levelo_inurba_marseille","lat":43.26224,"lon":5.40459,"is_reserved":false,"is_disabled":false,"rental_uris":{"android":"levelo://app?vid=2053d644-c7c1-4a84-85e5-e0d75fa3de3a","ios":"levelo://app?vid=2053d644-c7c1-4a84-85e5-e0d75fa3de3a"},"vehicle_type_id":"4","last_reported":1741864099,"current_range_meters":7200,"station_id":"ce4bhmh2rcd13ifvqgmg","pricing_plan_id":"cebpf4jnsgd1na2vs0mg"},{"bike_id":"27223692-b90d-4c8a-a3dc-e8aa35950285","system_id":"levelo_inurba_marseille","lat":43.28465,"lon":5.3589,"is_reserved":false,"is_disabled":false,"rental_uris":{"android":"levelo://app?vid=27223692-b90d-4c8a-a3dc-e8aa35950285","ios":"levelo://app?vid=27223692-b90d-4c8a-a3dc-e8aa35950285"},"vehicle_type_id":"4","last_reported":1741864099,"current_range_meters":7200,"station_id":"ce4bhah2rcd13ifvqei0","pricing_plan_id":"cebpf4jnsgd1na2vs0mg"},{"bike_id":"a7e6f772-81d6-41c4-968a-92188ce7fc3e","system_id":"levelo_inurba_marseille","lat":43.282613,"lon":5.350613,"is_reserved":false,"is_disabled":false,"rental_uris":{"android":"levelo://app?vid=a7e6f772-81d6-41c4-968a-92188ce7fc3e","ios":"levelo://app?vid=a7e6f772-81d6-41c4-968a-92188ce7fc3e"},"vehicle_type_id":"4","last_reported":1741864099,"current_range_meters":7200,"station_id":"ce4bha92rcd13ifvqeg0","pricing_plan_id":"cebpf4jnsgd1na2vs0mg"},{"bike_id":"b84dac74-01e4-4f3f-a0da-141881f97a2a","system_id":"levelo_inurba_marseille","lat":43.3136,"lon":5.36719,"is_reserved":false,"is_disabled":false,"rental_uris":{"android":"levelo://app?vid=b84dac74-01e4-4f3f-a0da-141881f97a2a","ios":"levelo://app?vid=b84dac74-01e4-4f3f-a0da-141881f97a2a"},"vehicle_type_id":"4","last_reported":1741864099,"current_range_meters":8000,"station_id":"ce4bgr92rcd13ifvqc6g","pricing_plan_id":"cebpf4jnsgd1na2vs0mg"},{"bike_id":"38294457-b8fd-4730-b5aa-3748c651b319","system_id":"levelo_inurba_marseille","lat":43.23163,"lon":5.4372,"is_reserved":false,"is_disabled":false,"rental_uris":{"android":"levelo://app?vid=38294457-b8fd-4730-b5aa-3748c651b319","ios":"levelo://app?vid=38294457-b8fd-4730-b5aa-3748c651b319"},"vehicle_type_id":"4","last_reported":1741864099,"current_range_meters":8000,"station_id":"ce4bhmp2rcd13ifvqgog","pricing_plan_id":"cebpf4jnsgd1na2vs0mg"},{"bike_id":"7f97dab3-6641-4c6a-9b12-3940cae11793","system_id":"levelo_inurba_marseille","lat":43.24999,"lon":5.38953,"is_reserved":false,"is_disabled":false,"rental_uris":{"android":"levelo://app?vid=7f97dab3-6641-4c6a-9b12-3940cae11793","ios":"levelo://app?vid=7f97dab3-6641-4c6a-9b12-3940cae11793"},"vehicle_type_id":"4","last_reported":1741864099,"current_range_meters":8000,"station_id":"ce4bhgp2rcd13ifvqfd0","pricing_plan_id":"cebpf4jnsgd1na2vs0mg"},{"bike_id":"32aebc3a-14c2-412a-9dd1-139c73270c7f","system_id":"levelo_inurba_marseille","lat":43.25003,"lon":5.38972,"is_reserved":false,"is_disabled":false,"rental_uris":{"android":"levelo://app?vid=32aebc3a-14c2-412a-9dd1-139c73270c7f","ios":"levelo://app?vid=32aebc3a-14c2-412a-9dd1-139c73270c7f"},"vehicle_type_id":"4","last_reported":1741864099,"current_range_meters":8000,"station_id":"ce4bhgp2rcd13ifvqfd0","pricing_plan_id":"cebpf4jnsgd1na2vs0mg"},{"bike_id":"ab6d6861-48d8-42bd-95f9-118e01e69c4b","system_id":"levelo_inurba_marseille","lat":43.24649,"lon":5.389,"is_reserved":false,"is_disabled":false,"rental_uris":{"android":"levelo://app?vid=ab6d6861-48d8-42bd-95f9-118e01e69c4b","ios":"levelo://app?vid=ab6d6861-48d8-42bd-95f9-118e01e69c4b"},"vehicle_type_id":"4","last_reported":1741864099,"current_range_meters":8000,"station_id":"ce4bhg12rcd13ifvqf60","pricing_plan_id":"cebpf4jnsgd1na2vs0mg"},{"bike_id":"2fe54254-5b11-4939-bb74-6fb31c1295ea","system_id":"levelo_inurba_marseille","lat":43.229311,"lon":5.353938,"is_reserved":false,"is_disabled":false,"rental_uris":{"android":"levelo://app?vid=2fe54254-5b11-4939-bb74-6fb31c1295ea","ios":"levelo://app?vid=2fe54254-5b11-4939-bb74-6fb31c1295ea"},"vehicle_type_id":"4","last_reported":1741864099,"current_range_meters":8000,"station_id":"cpo3532slgdg3j2ikp40","pricing_plan_id":"cebpf4jnsgd1na2vs0mg"},{"bike_id":"a0edde44-5826-4367-aba9-26d9a4e058c9","system_id":"levelo_inurba_marseille","lat":43.2397,"lon":5.36633,"is_reserved":false,"is_disabled":false,"rental_uris":{"android":"levelo://app?vid=a0edde44-5826-4367-aba9-26d9a4e058c9","ios":"levelo://app?vid=a0edde44-5826-4367-aba9-26d9a4e058c9"},"vehicle_type_id":"4","last_reported":1741864099,"current_range_meters":8000,"station_id":"ce4bhi12rcd13ifvqfp0","pricing_plan_id":"cebpf4jnsgd1na2vs0mg"},{"bike_id":"b3fce0c8-fda3-4e92-af9e-de845afbb99c","system_id":"levelo_inurba_marseille","lat":43.29943,"lon":5.36518,"is_reserved":false,"is_disabled":false,"rental_uris":{"android":"levelo://app?vid=b3fce0c8-fda3-4e92-af9e-de845afbb99c","ios":"levelo://app?vid=b3fce0c8-fda3-4e92-af9e-de845afbb99c"},"vehicle_type_id":"4","last_reported":1741864099,"current_range_meters":8000,"station_id":"ce4bgm92rcd13ifvqbr0","pricing_plan_id":"cebpf4jnsgd1na2vs0mg"},{"bike_id":"d1cda104-9061-4ed9-83e3-f6212beabb69","system_id":"levelo_inurba_marseille","lat":43.33725,"lon":5.39191,"is_reserved":false,"is_disabled":false,"rental_uris":{"android":"levelo://app?vid=d1cda104-9061-4ed9-83e3-f6212beabb69","ios":"levelo://app?vid=d1cda104-9061-4ed9-83e3-f6212beabb69"},"vehicle_type_id":"4","last_reported":1741864099,"current_range_meters":8000,"station_id":"ce4bhr92rcd13ifvqhsg","pricing_plan_id":"cebpf4jnsgd1na2vs0mg"},{"bike_id":"9182940f-c570-4583-b99a-b35f1afe2ef6","system_id":"levelo_inurba_marseille","lat":43.30531,"lon":5.36535,"is_reserved":false,"is_disabled":false,"rental_uris":{"android":"levelo://app?vid=9182940f-c570-4583-b99a-b35f1afe2ef6","ios":"levelo://app?vid=9182940f-c570-4583-b99a-b35f1afe2ef6"},"vehicle_type_id":"4","last_reported":1741864099,"current_range_meters":8000,"station_id":"ce4bgs12rcd13ifvqcag","pricing_plan_id":"cebpf4jnsgd1na2vs0mg"},{"bike_id":"2235e810-807a-413f-b25d-7a3c4b6658c9","system_id":"levelo_inurba_marseille","lat":43.31174,"lon":5.38722,"is_reserved":false,"is_disabled":false,"rental_uris":{"android":"levelo://app?vid=2235e810-807a-413f-b25d-7a3c4b6658c9","ios":"levelo://app?vid=2235e810-807a-413f-b25d-7a3c4b6658c9"},"vehicle_type_id":"4","last_reported":1741864099,"current_range_meters":8000,"station_id":"ce4bgv12rcd13ifvqcp0","pricing_plan_id":"cebpf4jnsgd1na2vs0mg"},{"bike_id":"cb567277-cc92-473f-ba27-13f9d7cbb613","system_id":"levelo_inurba_marseille","lat":43.2502,"lon":5.38919,"is_reserved":false,"is_disabled":false,"rental_uris":{"android":"levelo://app?vid=cb567277-cc92-473f-ba27-13f9d7cbb613","ios":"levelo://app?vid=cb567277-cc92-473f-ba27-13f9d7cbb613"},"vehicle_type_id":"4","last_reported":1741864099,"current_range_meters":8000,"station_id":"ce4bhgp2rcd13ifvqfd0","pricing_plan_id":"cebpf4jnsgd1na2vs0mg"},{"bike_id":"fa7555f1-8880-4a76-87e6-a0b5a86c8a9d","system_id":"levelo_inurba_marseille","lat":43.29012,"lon":5.3561,"is_reserved":false,"is_disabled":false,"rental_uris":{"android":"levelo://app?vid=fa7555f1-8880-4a76-87e6-a0b5a86c8a9d","ios":"levelo://app?vid=fa7555f1-8880-4a76-87e6-a0b5a86c8a9d"},"vehicle_type_id":"4","last_reported":1741864099,"current_range_meters":8000,"station_id":"ce4bhb92rcd13ifvqen0","pricing_plan_id":"cebpf4jnsgd1na2vs0mg"},{"bike_id":"d5ae4600-476e-4c8a-b248-76c73ec9f040","system_id":"levelo_inurba_marseille","lat":43.250099,"lon":5.389183,"is_reserved":false,"is_disabled":false,"rental_uris":{"android":"levelo://app?vid=d5ae4600-476e-4c8a-b248-76c73ec9f040","ios":"levelo://app?vid=d5ae4600-476e-4c8a-b248-76c73ec9f040"},"vehicle_type_id":"4","last_reported":1741864099,"current_range_meters":8400,"station_id":"ce4bhgp2rcd13ifvqfd0","pricing_plan_id":"cebpf4jnsgd1na2vs0mg"},{"bike_id":"46021c47-a2d7-4a36-91d1-ce3d739f0f32","system_id":"levelo_inurba_marseille","lat":43.303,"lon":5.37709,"is_reserved":false,"is_disabled":false,"rental_uris":{"android":"levelo://app?vid=46021c47-a2d7-4a36-91d1-ce3d739f0f32","ios":"levelo://app?vid=46021c47-a2d7-4a36-91d1-ce3d739f0f32"},"vehicle_type_id":"4","last_reported":1741864099,"current_range_meters":8400,"station_id":"ce4bguh2rcd13ifvqcj0","pricing_plan_id":"cebpf4jnsgd1na2vs0mg"},{"bike_id":"3ed7e0f0-fc61-46f9-8a1c-ebce6cf6f922","system_id":"levelo_inurba_marseille","lat":43.29922,"lon":5.38149,"is_reserved":false,"is_disabled":false,"rental_uris":{"android":"levelo://app?vid=3ed7e0f0-fc61-46f9-8a1c-ebce6cf6f922","ios":"levelo://app?vid=3ed7e0f0-fc61-46f9-8a1c-ebce6cf6f922"},"vehicle_type_id":"4","last_reported":1741864099,"current_range_meters":8400,"station_id":"ce4bgj12rcd13ifvqbc0","pricing_plan_id":"cebpf4jnsgd1na2vs0mg"},{"bike_id":"ce9250ff-4229-4ccb-a37a-4b380950241a","system_id":"levelo_inurba_marseille","lat":43.291061,"lon":5.378801,"is_reserved":false,"is_disabled":false,"rental_uris":{"android":"levelo://app?vid=ce9250ff-4229-4ccb-a37a-4b380950241a","ios":"levelo://app?vid=ce9250ff-4229-4ccb-a37a-4b380950241a"},"vehicle_type_id":"4","last_reported":1741864099,"current_range_meters":8400,"station_id":"ce4bhih2rcd13ifvqfr0","pricing_plan_id":"cebpf4jnsgd1na2vs0mg"},{"bike_id":"61b9ad25-9195-424f-875c-94c04a329ec9","system_id":"levelo_inurba_marseille","lat":43.3303,"lon":5.39045,"is_reserved":false,"is_disabled":false,"rental_uris":{"android":"levelo://app?vid=61b9ad25-9195-424f-875c-94c04a329ec9","ios":"levelo://app?vid=61b9ad25-9195-424f-875c-94c04a329ec9"},"vehicle_type_id":"4","last_reported":1741864099,"current_range_meters":8400,"station_id":"ce4bhr92rcd13ifvqhrg","pricing_plan_id":"cebpf4jnsgd1na2vs0mg"},{"bike_id":"d7cf3da4-03cf-4eae-b183-47670a6b872f","system_id":"levelo_inurba_marseille","lat":43.23188,"lon":5.35551,"is_reserved":false,"is_disabled":false,"rental_uris":{"android":"levelo://app?vid=d7cf3da4-03cf-4eae-b183-47670a6b872f","ios":"levelo://app?vid=d7cf3da4-03cf-4eae-b183-47670a6b872f"},"vehicle_type_id":"4","last_reported":1741864099,"current_range_meters":8400,"station_id":"ce4bhu92rcd13ifvqi70","pricing_plan_id":"cebpf4jnsgd1na2vs0mg"},{"bike_id":"6edb934c-f9d5-43ae-8b43-f27b70dab8d2","system_id":"levelo_inurba_marseille","lat":43.29254,"lon":5.37613,"is_reserved":false,"is_disabled":false,"rental_uris":{"android":"levelo://app?vid=6edb934c-f9d5-43ae-8b43-f27b70dab8d2","ios":"levelo://app?vid=6edb934c-f9d5-43ae-8b43-f27b70dab8d2"},"vehicle_type_id":"4","last_reported":1741864099,"current_range_meters":8400,"station_id":"ce4bgi12rcd13ifvqb80","pricing_plan_id":"cebpf4jnsgd1na2vs0mg"},{"bike_id":"29e9cbeb-2bbe-43b9-a366-3475bb544287","system_id":"levelo_inurba_marseille","lat":43.30156,"lon":5.37414,"is_reserved":false,"is_disabled":false,"rental_uris":{"android":"levelo://app?vid=29e9cbeb-2bbe-43b9-a366-3475bb544287","ios":"levelo://app?vid=29e9cbeb-2bbe-43b9-a366-3475bb544287"},"vehicle_type_id":"4","last_reported":1741864099,"current_range_meters":8400,"station_id":"ce4bgs92rcd13ifvqcc0","pricing_plan_id":"cebpf4jnsgd1na2vs0mg"},{"bike_id":"b945d8d0-7f7e-44e7-a580-44ad2dfbe250","system_id":"levelo_inurba_marseille","lat":43.25912,"lon":5.40855,"is_reserved":false,"is_disabled":false,"rental_uris":{"android":"levelo://app?vid=b945d8d0-7f7e-44e7-a580-44ad2dfbe250","ios":"levelo://app?vid=b945d8d0-7f7e-44e7-a580-44ad2dfbe250"},"vehicle_type_id":"4","last_reported":1741864099,"current_range_meters":8400,"station_id":"ce4bhm92rcd13ifvqglg","pricing_plan_id":"cebpf4jnsgd1na2vs0mg"},{"bike_id":"1bcce178-7e11-4c71-8837-7b1748cf932f","system_id":"levelo_inurba_marseille","lat":43.30377,"lon":5.42489,"is_reserved":false,"is_disabled":false,"rental_uris":{"android":"levelo://app?vid=1bcce178-7e11-4c71-8837-7b1748cf932f","ios":"levelo://app?vid=1bcce178-7e11-4c71-8837-7b1748cf932f"},"vehicle_type_id":"4","last_reported":1741864099,"current_range_meters":8400,"station_id":"ce4bghh2rcd13ifvqb60","pricing_plan_id":"cebpf4jnsgd1na2vs0mg"},{"bike_id":"7534fd57-2f73-402a-939e-490397703aff","system_id":"levelo_inurba_marseille","lat":43.27497,"lon":5.42469,"is_reserved":false,"is_disabled":false,"rental_uris":{"android":"levelo://app?vid=7534fd57-2f73-402a-939e-490397703aff","ios":"levelo://app?vid=7534fd57-2f73-402a-939e-490397703aff"},"vehicle_type_id":"4","last_reported":1741864099,"current_range_meters":8400,"station_id":"ce4bhn92rcd13ifvqgrg","pricing_plan_id":"cebpf4jnsgd1na2vs0mg"},{"bike_id":"5b7dcee6-e15c-472e-a498-5a10b2578633","system_id":"levelo_inurba_marseille","lat":43.303763,"lon":5.424933,"is_reserved":false,"is_disabled":false,"rental_uris":{"android":"levelo://app?vid=5b7dcee6-e15c-472e-a498-5a10b2578633","ios":"levelo://app?vid=5b7dcee6-e15c-472e-a498-5a10b2578633"},"vehicle_type_id":"4","last_reported":1741864099,"current_range_meters":8400,"station_id":"ce4bghh2rcd13ifvqb60","pricing_plan_id":"cebpf4jnsgd1na2vs0mg"},{"bike_id":"0eca3237-559a-4a5d-907b-7fedec0a31aa","system_id":"levelo_inurba_marseille","lat":43.25927,"lon":5.40903,"is_reserved":false,"is_disabled":false,"rental_uris":{"android":"levelo://app?vid=0eca3237-559a-4a5d-907b-7fedec0a31aa","ios":"levelo://app?vid=0eca3237-559a-4a5d-907b-7fedec0a31aa"},"vehicle_type_id":"4","last_reported":1741864099,"current_range_meters":8400,"station_id":"ce4bhm92rcd13ifvqglg","pricing_plan_id":"cebpf4jnsgd1na2vs0mg"},{"bike_id":"931a65f6-98be-4189-b167-a49aeaf4dc43","system_id":"levelo_inurba_marseille","lat":43.25012,"lon":5.38892,"is_reserved":false,"is_disabled":false,"rental_uris":{"android":"levelo://app?vid=931a65f6-98be-4189-b167-a49aeaf4dc43","ios":"levelo://app?vid=931a65f6-98be-4189-b167-a49aeaf4dc43"},"vehicle_type_id":"4","last_reported":1741864099,"current_range_meters":8400,"station_id":"ce4bhgp2rcd13ifvqfd0","pricing_plan_id":"cebpf4jnsgd1na2vs0mg"},{"bike_id":"a1d5c912-c4fd-4f7b-831c-fa99a6489895","system_id":"levelo_inurba_marseille","lat":43.27374,"lon":5.36265,"is_reserved":false,"is_disabled":false,"rental_uris":{"android":"levelo://app?vid=a1d5c912-c4fd-4f7b-831c-fa99a6489895","ios":"levelo://app?vid=a1d5c912-c4fd-4f7b-831c-fa99a6489895"},"vehicle_type_id":"4","last_reported":1741864099,"current_range_meters":8800,"station_id":"ce4bhbh2rcd13ifvqeo0","pricing_plan_id":"cebpf4jnsgd1na2vs0mg"},{"bike_id":"d84bd22e-28b1-45d7-a74f-fbd938c36381","system_id":"levelo_inurba_marseille","lat":43.3052,"lon":5.36693,"is_reserved":false,"is_disabled":false,"rental_uris":{"android":"levelo://app?vid=d84bd22e-28b1-45d7-a74f-fbd938c36381","ios":"levelo://app?vid=d84bd22e-28b1-45d7-a74f-fbd938c36381"},"vehicle_type_id":"4","last_reported":1741864099,"current_range_meters":8800,"station_id":"ce4bgrp2rcd13ifvqc9g","pricing_plan_id":"cebpf4jnsgd1na2vs0mg"},{"bike_id":"ccde3be1-4144-427e-acc2-fed605e4915f","system_id":"levelo_inurba_marseille","lat":43.280994,"lon":5.398524,"is_reserved":false,"is_disabled":false,"rental_uris":{"android":"levelo://app?vid=ccde3be1-4144-427e-acc2-fed605e4915f","ios":"levelo://app?vid=ccde3be1-4144-427e-acc2-fed605e4915f"},"vehicle_type_id":"4","last_reported":1741864099,"current_range_meters":8800,"station_id":"","pricing_plan_id":"cebpf4jnsgd1na2vs0mg"},{"bike_id":"1a753146-0e79-4e11-8bd2-348fa407bfac","system_id":"levelo_inurba_marseille","lat":43.24081,"lon":5.37737,"is_reserved":false,"is_disabled":false,"rental_uris":{"android":"levelo://app?vid=1a753146-0e79-4e11-8bd2-348fa407bfac","ios":"levelo://app?vid=1a753146-0e79-4e11-8bd2-348fa407bfac"},"vehicle_type_id":"4","last_reported":1741864099,"current_range_meters":8800,"station_id":"ce4bhnp2rcd13ifvqgvg","pricing_plan_id":"cebpf4jnsgd1na2vs0mg"},{"bike_id":"353d870c-183f-4e5a-888a-3a494195ee55","system_id":"levelo_inurba_marseille","lat":43.24073,"lon":5.37761,"is_reserved":false,"is_disabled":false,"rental_uris":{"android":"levelo://app?vid=353d870c-183f-4e5a-888a-3a494195ee55","ios":"levelo://app?vid=353d870c-183f-4e5a-888a-3a494195ee55"},"vehicle_type_id":"4","last_reported":1741864099,"current_range_meters":8800,"station_id":"ce4bhnp2rcd13ifvqgvg","pricing_plan_id":"cebpf4jnsgd1na2vs0mg"},{"bike_id":"4a9c9b97-dfdf-4679-85c2-aacc3c399c23","system_id":"levelo_inurba_marseille","lat":43.3134,"lon":5.36719,"is_reserved":false,"is_disabled":false,"rental_uris":{"android":"levelo://app?vid=4a9c9b97-dfdf-4679-85c2-aacc3c399c23","ios":"levelo://app?vid=4a9c9b97-dfdf-4679-85c2-aacc3c399c23"},"vehicle_type_id":"4","last_reported":1741864099,"current_range_meters":9200,"station_id":"ce4bgr92rcd13ifvqc6g","pricing_plan_id":"cebpf4jnsgd1na2vs0mg"},{"bike_id":"cb0010b3-6b0d-4a52-aa6c-5ab3253bc58b","system_id":"levelo_inurba_marseille","lat":43.2957,"lon":5.37535,"is_reserved":false,"is_disabled":false,"rental_uris":{"android":"levelo://app?vid=cb0010b3-6b0d-4a52-aa6c-5ab3253bc58b","ios":"levelo://app?vid=cb0010b3-6b0d-4a52-aa6c-5ab3253bc58b"},"vehicle_type_id":"4","last_reported":1741864099,"current_range_meters":9200,"station_id":"ce4bgh92rcd13ifvqb50","pricing_plan_id":"cebpf4jnsgd1na2vs0mg"},{"bike_id":"6c84e3db-57ac-4804-b690-580aeab948a8","system_id":"levelo_inurba_marseille","lat":43.31235,"lon":5.36866,"is_reserved":false,"is_disabled":false,"rental_uris":{"android":"levelo://app?vid=6c84e3db-57ac-4804-b690-580aeab948a8","ios":"levelo://app?vid=6c84e3db-57ac-4804-b690-580aeab948a8"},"vehicle_type_id":"4","last_reported":1741864099,"current_range_meters":9200,"station_id":"ce4bgl92rcd13ifvqbq0","pricing_plan_id":"cebpf4jnsgd1na2vs0mg"},{"bike_id":"b2cb97ae-062f-4bf1-8c4b-5c6a42f3d589","system_id":"levelo_inurba_marseille","lat":43.24084,"lon":5.37755,"is_reserved":false,"is_disabled":false,"rental_uris":{"android":"levelo://app?vid=b2cb97ae-062f-4bf1-8c4b-5c6a42f3d589","ios":"levelo://app?vid=b2cb97ae-062f-4bf1-8c4b-5c6a42f3d589"},"vehicle_type_id":"4","last_reported":1741864099,"current_range_meters":9200,"station_id":"ce4bhnp2rcd13ifvqgvg","pricing_plan_id":"cebpf4jnsgd1na2vs0mg"},{"bike_id":"da92525d-691b-4e51-989f-b5c466d8ec4c","system_id":"levelo_inurba_marseille","lat":43.229324,"lon":5.35385,"is_reserved":false,"is_disabled":false,"rental_uris":{"android":"levelo://app?vid=da92525d-691b-4e51-989f-b5c466d8ec4c","ios":"levelo://app?vid=da92525d-691b-4e51-989f-b5c466d8ec4c"},"vehicle_type_id":"4","last_reported":1741864099,"current_range_meters":9200,"station_id":"cpo3532slgdg3j2ikp40","pricing_plan_id":"cebpf4jnsgd1na2vs0mg"},{"bike_id":"d1f3c72d-fa51-4bb3-b098-7283c00982b8","system_id":"levelo_inurba_marseille","lat":43.24686,"lon":5.38126,"is_reserved":false,"is_disabled":false,"rental_uris":{"android":"levelo://app?vid=d1f3c72d-fa51-4bb3-b098-7283c00982b8","ios":"levelo://app?vid=d1f3c72d-fa51-4bb3-b098-7283c00982b8"},"vehicle_type_id":"4","last_reported":1741864099,"current_range_meters":9200,"station_id":"ce4bhih2rcd13ifvqfr0","pricing_plan_id":"cebpf4jnsgd1na2vs0mg"},{"bike_id":"02856e9e-87a0-4db1-8d36-2f035a3cb82d","system_id":"levelo_inurba_marseille","lat":43.25937,"lon":5.40897,"is_reserved":false,"is_disabled":false,"rental_uris":{"android":"levelo://app?vid=02856e9e-87a0-4db1-8d36-2f035a3cb82d","ios":"levelo://app?vid=02856e9e-87a0-4db1-8d36-2f035a3cb82d"},"vehicle_type_id":"4","last_reported":1741864099,"current_range_meters":9200,"station_id":"ce4bhm92rcd13ifvqglg","pricing_plan_id":"cebpf4jnsgd1na2vs0mg"},{"bike_id":"a83fe8e8-0f27-4fb1-a9cc-1989a59425b3","system_id":"levelo_inurba_marseille","lat":43.27501,"lon":5.4246,"is_reserved":false,"is_disabled":false,"rental_uris":{"android":"levelo://app?vid=a83fe8e8-0f27-4fb1-a9cc-1989a59425b3","ios":"levelo://app?vid=a83fe8e8-0f27-4fb1-a9cc-1989a59425b3"},"vehicle_type_id":"4","last_reported":1741864099,"current_range_meters":9600,"station_id":"ce4bhn92rcd13ifvqgrg","pricing_plan_id":"cebpf4jnsgd1na2vs0mg"},{"bike_id":"f2c701da-25aa-4ea6-81fd-1a9ae898ac6d","system_id":"levelo_inurba_marseille","lat":43.31227,"lon":5.36849,"is_reserved":false,"is_disabled":false,"rental_uris":{"android":"levelo://app?vid=f2c701da-25aa-4ea6-81fd-1a9ae898ac6d","ios":"levelo://app?vid=f2c701da-25aa-4ea6-81fd-1a9ae898ac6d"},"vehicle_type_id":"4","last_reported":1741864099,"current_range_meters":9600,"station_id":"ce4bgl92rcd13ifvqbq0","pricing_plan_id":"cebpf4jnsgd1na2vs0mg"},{"bike_id":"097b290e-bbf9-4c4b-b3f2-542c2279cfde","system_id":"levelo_inurba_marseille","lat":43.301492,"lon":5.37415,"is_reserved":false,"is_disabled":false,"rental_uris":{"android":"levelo://app?vid=097b290e-bbf9-4c4b-b3f2-542c2279cfde","ios":"levelo://app?vid=097b290e-bbf9-4c4b-b3f2-542c2279cfde"},"vehicle_type_id":"4","last_reported":1741864099,"current_range_meters":9600,"station_id":"ce4bgs92rcd13ifvqcc0","pricing_plan_id":"cebpf4jnsgd1na2vs0mg"},{"bike_id":"441d2ddc-39dd-48e4-898d-eee7c497f120","system_id":"levelo_inurba_marseille","lat":43.30545,"lon":5.36531,"is_reserved":false,"is_disabled":false,"rental_uris":{"android":"levelo://app?vid=441d2ddc-39dd-48e4-898d-eee7c497f120","ios":"levelo://app?vid=441d2ddc-39dd-48e4-898d-eee7c497f120"},"vehicle_type_id":"4","last_reported":1741864099,"current_range_meters":9600,"station_id":"ce4bgs12rcd13ifvqcag","pricing_plan_id":"cebpf4jnsgd1na2vs0mg"},{"bike_id":"ffceb2f3-9942-41c3-82da-fce06ef1b319","system_id":"levelo_inurba_marseille","lat":43.28796,"lon":5.38421,"is_reserved":false,"is_disabled":false,"rental_uris":{"android":"levelo://app?vid=ffceb2f3-9942-41c3-82da-fce06ef1b319","ios":"levelo://app?vid=ffceb2f3-9942-41c3-82da-fce06ef1b319"},"vehicle_type_id":"4","last_reported":1741864099,"current_range_meters":9600,"station_id":"","pricing_plan_id":"cebpf4jnsgd1na2vs0mg"},{"bike_id":"3b9c6f83-01fa-42cd-a820-4517e3548c17","system_id":"levelo_inurba_marseille","lat":43.2408,"lon":5.37737,"is_reserved":false,"is_disabled":false,"rental_uris":{"android":"levelo://app?vid=3b9c6f83-01fa-42cd-a820-4517e3548c17","ios":"levelo://app?vid=3b9c6f83-01fa-42cd-a820-4517e3548c17"},"vehicle_type_id":"4","last_reported":1741864099,"current_range_meters":9600,"station_id":"ce4bhnp2rcd13ifvqgvg","pricing_plan_id":"cebpf4jnsgd1na2vs0mg"},{"bike_id":"890c2d5d-b12d-47d6-8a94-cae66ce99feb","system_id":"levelo_inurba_marseille","lat":43.26496,"lon":5.39553,"is_reserved":false,"is_disabled":false,"rental_uris":{"android":"levelo://app?vid=890c2d5d-b12d-47d6-8a94-cae66ce99feb","ios":"levelo://app?vid=890c2d5d-b12d-47d6-8a94-cae66ce99feb"},"vehicle_type_id":"4","last_reported":1741864099,"current_range_meters":9600,"station_id":"ce4bhi12rcd13ifvqfq0","pricing_plan_id":"cebpf4jnsgd1na2vs0mg"},{"bike_id":"f801e238-4a7a-44ad-ae66-78c7e73b76a5","system_id":"levelo_inurba_marseille","lat":43.31076,"lon":5.38339,"is_reserved":false,"is_disabled":false,"rental_uris":{"android":"levelo://app?vid=f801e238-4a7a-44ad-ae66-78c7e73b76a5","ios":"levelo://app?vid=f801e238-4a7a-44ad-ae66-78c7e73b76a5"},"vehicle_type_id":"4","last_reported":1741864099,"current_range_meters":9600,"station_id":"ce4bgv92rcd13ifvqcr0","pricing_plan_id":"cebpf4jnsgd1na2vs0mg"},{"bike_id":"e1e9577a-e2e4-493e-a85b-a3a8b94f5bfa","system_id":"levelo_inurba_marseille","lat":43.30167,"lon":5.38086,"is_reserved":false,"is_disabled":false,"rental_uris":{"android":"levelo://app?vid=e1e9577a-e2e4-493e-a85b-a3a8b94f5bfa","ios":"levelo://app?vid=e1e9577a-e2e4-493e-a85b-a3a8b94f5bfa"},"vehicle_type_id":"4","last_reported":1741864099,"current_range_meters":9600,"station_id":"ce4bgjp2rcd13ifvqbh0","pricing_plan_id":"cebpf4jnsgd1na2vs0mg"},{"bike_id":"fe2dbfad-2b3c-45be-b26a-7ab6c0dcbc97","system_id":"levelo_inurba_marseille","lat":43.301518,"lon":5.376889,"is_reserved":false,"is_disabled":false,"rental_uris":{"android":"levelo://app?vid=fe2dbfad-2b3c-45be-b26a-7ab6c0dcbc97","ios":"levelo://app?vid=fe2dbfad-2b3c-45be-b26a-7ab6c0dcbc97"},"vehicle_type_id":"4","last_reported":1741864099,"current_range_meters":9600,"station_id":"","pricing_plan_id":"cebpf4jnsgd1na2vs0mg"},{"bike_id":"b3fead73-4c4c-401e-81a0-a7fad437c748","system_id":"levelo_inurba_marseille","lat":43.25001,"lon":5.38871,"is_reserved":false,"is_disabled":false,"rental_uris":{"android":"levelo://app?vid=b3fead73-4c4c-401e-81a0-a7fad437c748","ios":"levelo://app?vid=b3fead73-4c4c-401e-81a0-a7fad437c748"},"vehicle_type_id":"4","last_reported":1741864099,"current_range_meters":9600,"station_id":"ce4bhgp2rcd13ifvqfd0","pricing_plan_id":"cebpf4jnsgd1na2vs0mg"},{"bike_id":"fa56676f-b26b-4634-8826-2c6ace574137","system_id":"levelo_inurba_marseille","lat":43.292766,"lon":5.401312,"is_reserved":false,"is_disabled":false,"rental_uris":{"android":"levelo://app?vid=fa56676f-b26b-4634-8826-2c6ace574137","ios":"levelo://app?vid=fa56676f-b26b-4634-8826-2c6ace574137"},"vehicle_type_id":"4","last_reported":1741864099,"current_range_meters":10000,"station_id":"ce4bh312rcd13ifvqdk0","pricing_plan_id":"cebpf4jnsgd1na2vs0mg"},{"bike_id":"532bd0d2-17be-446b-b45c-c828131e3b43","system_id":"levelo_inurba_marseille","lat":43.29201,"lon":5.37559,"is_reserved":false,"is_disabled":false,"rental_uris":{"android":"levelo://app?vid=532bd0d2-17be-446b-b45c-c828131e3b43","ios":"levelo://app?vid=532bd0d2-17be-446b-b45c-c828131e3b43"},"vehicle_type_id":"4","last_reported":1741864099,"current_range_meters":10000,"station_id":"","pricing_plan_id":"cebpf4jnsgd1na2vs0mg"},{"bike_id":"e0e774d2-2fac-4d55-8a8c-84fc36d8aeaa","system_id":"levelo_inurba_marseille","lat":43.30199,"lon":5.38071,"is_reserved":false,"is_disabled":false,"rental_uris":{"android":"levelo://app?vid=e0e774d2-2fac-4d55-8a8c-84fc36d8aeaa","ios":"levelo://app?vid=e0e774d2-2fac-4d55-8a8c-84fc36d8aeaa"},"vehicle_type_id":"4","last_reported":1741864099,"current_range_meters":10000,"station_id":"","pricing_plan_id":"cebpf4jnsgd1na2vs0mg"},{"bike_id":"20d6dfe3-862c-4f74-86b0-6cfe47be5f81","system_id":"levelo_inurba_marseille","lat":43.28472,"lon":5.35899,"is_reserved":false,"is_disabled":false,"rental_uris":{"android":"levelo://app?vid=20d6dfe3-862c-4f74-86b0-6cfe47be5f81","ios":"levelo://app?vid=20d6dfe3-862c-4f74-86b0-6cfe47be5f81"},"vehicle_type_id":"4","last_reported":1741864099,"current_range_meters":10000,"station_id":"ce4bhah2rcd13ifvqei0","pricing_plan_id":"cebpf4jnsgd1na2vs0mg"},{"bike_id":"fc583768-af5e-4c7f-a16f-d258a7e253e2","system_id":"levelo_inurba_marseille","lat":43.30156,"lon":5.38061,"is_reserved":false,"is_disabled":false,"rental_uris":{"android":"levelo://app?vid=fc583768-af5e-4c7f-a16f-d258a7e253e2","ios":"levelo://app?vid=fc583768-af5e-4c7f-a16f-d258a7e253e2"},"vehicle_type_id":"4","last_reported":1741864099,"current_range_meters":10000,"station_id":"ce4bgjp2rcd13ifvqbh0","pricing_plan_id":"cebpf4jnsgd1na2vs0mg"},{"bike_id":"987dc339-bae3-4e86-97d3-4816065b1a6a","system_id":"levelo_inurba_marseille","lat":43.26569,"lon":5.38997,"is_reserved":false,"is_disabled":false,"rental_uris":{"android":"levelo://app?vid=987dc339-bae3-4e86-97d3-4816065b1a6a","ios":"levelo://app?vid=987dc339-bae3-4e86-97d3-4816065b1a6a"},"vehicle_type_id":"4","last_reported":1741864099,"current_range_meters":10000,"station_id":"ce4bhe12rcd13ifvqf30","pricing_plan_id":"cebpf4jnsgd1na2vs0mg"},{"bike_id":"d8ce54ae-b76d-481a-be6c-d7033addb787","system_id":"levelo_inurba_marseille","lat":43.30548,"lon":5.38421,"is_reserved":false,"is_disabled":false,"rental_uris":{"android":"levelo://app?vid=d8ce54ae-b76d-481a-be6c-d7033addb787","ios":"levelo://app?vid=d8ce54ae-b76d-481a-be6c-d7033addb787"},"vehicle_type_id":"4","last_reported":1741864099,"current_range_meters":10000,"station_id":"ce4bgg92rcd13ifvqb30","pricing_plan_id":"cebpf4jnsgd1na2vs0mg"},{"bike_id":"4771ed56-4ee8-47d0-b0e2-c2ea31b37b11","system_id":"levelo_inurba_marseille","lat":43.29053,"lon":5.40006,"is_reserved":false,"is_disabled":false,"rental_uris":{"android":"levelo://app?vid=4771ed56-4ee8-47d0-b0e2-c2ea31b37b11","ios":"levelo://app?vid=4771ed56-4ee8-47d0-b0e2-c2ea31b37b11"},"vehicle_type_id":"4","last_reported":1741864099,"current_range_meters":10000,"station_id":"ce4bh392rcd13ifvqdm0","pricing_plan_id":"cebpf4jnsgd1na2vs0mg"},{"bike_id":"b110487e-dbd0-4f44-b628-19ce89fa8001","system_id":"levelo_inurba_marseille","lat":43.26658,"lon":5.38291,"is_reserved":false,"is_disabled":false,"rental_uris":{"android":"levelo://app?vid=b110487e-dbd0-4f44-b628-19ce89fa8001","ios":"levelo://app?vid=b110487e-dbd0-4f44-b628-19ce89fa8001"},"vehicle_type_id":"4","last_reported":1741864099,"current_range_meters":10000,"station_id":"ce4bhg92rcd13ifvqf90","pricing_plan_id":"cebpf4jnsgd1na2vs0mg"},{"bike_id":"89004dda-964d-4678-9c27-1132b38aea9e","system_id":"levelo_inurba_marseille","lat":43.29309,"lon":5.37411,"is_reserved":false,"is_disabled":false,"rental_uris":{"android":"levelo://app?vid=89004dda-964d-4678-9c27-1132b38aea9e","ios":"levelo://app?vid=89004dda-964d-4678-9c27-1132b38aea9e"},"vehicle_type_id":"4","last_reported":1741864099,"current_range_meters":10800,"station_id":"ce4bgi12rcd13ifvqb70","pricing_plan_id":"cebpf4jnsgd1na2vs0mg"},{"bike_id":"1463e26d-2eaf-4bb7-a8d5-af893c000dc7","system_id":"levelo_inurba_marseille","lat":43.30535,"lon":5.36541,"is_reserved":false,"is_disabled":false,"rental_uris":{"android":"levelo://app?vid=1463e26d-2eaf-4bb7-a8d5-af893c000dc7","ios":"levelo://app?vid=1463e26d-2eaf-4bb7-a8d5-af893c000dc7"},"vehicle_type_id":"4","last_reported":1741864099,"current_range_meters":10800,"station_id":"ce4bgs12rcd13ifvqcag","pricing_plan_id":"cebpf4jnsgd1na2vs0mg"},{"bike_id":"7121d818-13e2-43ed-b445-7134fefdd64f","system_id":"levelo_inurba_marseille","lat":43.23196,"lon":5.35551,"is_reserved":false,"is_disabled":false,"rental_uris":{"android":"levelo://app?vid=7121d818-13e2-43ed-b445-7134fefdd64f","ios":"levelo://app?vid=7121d818-13e2-43ed-b445-7134fefdd64f"},"vehicle_type_id":"4","last_reported":1741864099,"current_range_meters":13600,"station_id":"ce4bhu92rcd13ifvqi70","pricing_plan_id":"cebpf4jnsgd1na2vs0mg"},{"bike_id":"00b489e6-2d1b-4399-99f8-fb9c65f26ebb","system_id":"levelo_inurba_marseille","lat":43.2406,"lon":5.37756,"is_reserved":false,"is_disabled":false,"rental_uris":{"android":"levelo://app?vid=00b489e6-2d1b-4399-99f8-fb9c65f26ebb","ios":"levelo://app?vid=00b489e6-2d1b-4399-99f8-fb9c65f26ebb"},"vehicle_type_id":"4","last_reported":1741864099,"current_range_meters":10800,"station_id":"ce4bhnp2rcd13ifvqgvg","pricing_plan_id":"cebpf4jnsgd1na2vs0mg"},{"bike_id":"a2700207-e47d-4273-8901-cf86d647c953","system_id":"levelo_inurba_marseille","lat":43.24085,"lon":5.37733,"is_reserved":false,"is_disabled":false,"rental_uris":{"android":"levelo://app?vid=a2700207-e47d-4273-8901-cf86d647c953","ios":"levelo://app?vid=a2700207-e47d-4273-8901-cf86d647c953"},"vehicle_type_id":"4","last_reported":1741864099,"current_range_meters":10800,"station_id":"ce4bhnp2rcd13ifvqgvg","pricing_plan_id":"cebpf4jnsgd1na2vs0mg"},{"bike_id":"cbd13c1a-41c4-48e3-8dca-4c7a80b7d222","system_id":"levelo_inurba_marseille","lat":43.27221,"lon":5.39183,"is_reserved":false,"is_disabled":false,"rental_uris":{"android":"levelo://app?vid=cbd13c1a-41c4-48e3-8dca-4c7a80b7d222","ios":"levelo://app?vid=cbd13c1a-41c4-48e3-8dca-4c7a80b7d222"},"vehicle_type_id":"4","last_reported":1741864099,"current_range_meters":10800,"station_id":"ce4bhhp2rcd13ifvqfm0","pricing_plan_id":"cebpf4jnsgd1na2vs0mg"},{"bike_id":"1cbeb49c-8d51-46f2-ad03-8af78ea79d9a","system_id":"levelo_inurba_marseille","lat":43.24195,"lon":5.39754,"is_reserved":false,"is_disabled":false,"rental_uris":{"android":"levelo://app?vid=1cbeb49c-8d51-46f2-ad03-8af78ea79d9a","ios":"levelo://app?vid=1cbeb49c-8d51-46f2-ad03-8af78ea79d9a"},"vehicle_type_id":"4","last_reported":1741864099,"current_range_meters":10800,"station_id":"ce4bhn12rcd13ifvqgpg","pricing_plan_id":"cebpf4jnsgd1na2vs0mg"},{"bike_id":"d0be61ee-8c6c-4bf7-99b6-f099a281a656","system_id":"levelo_inurba_marseille","lat":43.25012,"lon":5.38944,"is_reserved":false,"is_disabled":false,"rental_uris":{"android":"levelo://app?vid=d0be61ee-8c6c-4bf7-99b6-f099a281a656","ios":"levelo://app?vid=d0be61ee-8c6c-4bf7-99b6-f099a281a656"},"vehicle_type_id":"4","last_reported":1741864099,"current_range_meters":10800,"station_id":"ce4bhgp2rcd13ifvqfd0","pricing_plan_id":"cebpf4jnsgd1na2vs0mg"},{"bike_id":"11e9c3f6-ae05-4eeb-b2d2-4edcd1072251","system_id":"levelo_inurba_marseille","lat":43.24173,"lon":5.39722,"is_reserved":false,"is_disabled":false,"rental_uris":{"android":"levelo://app?vid=11e9c3f6-ae05-4eeb-b2d2-4edcd1072251","ios":"levelo://app?vid=11e9c3f6-ae05-4eeb-b2d2-4edcd1072251"},"vehicle_type_id":"4","last_reported":1741864099,"current_range_meters":10800,"station_id":"ce4bhn12rcd13ifvqgpg","pricing_plan_id":"cebpf4jnsgd1na2vs0mg"},{"bike_id":"2e56e232-92e0-48ba-9425-dffd66db3ac5","system_id":"levelo_inurba_marseille","lat":43.30555,"lon":5.36711,"is_reserved":false,"is_disabled":false,"rental_uris":{"android":"levelo://app?vid=2e56e232-92e0-48ba-9425-dffd66db3ac5","ios":"levelo://app?vid=2e56e232-92e0-48ba-9425-dffd66db3ac5"},"vehicle_type_id":"4","last_reported":1741864099,"current_range_meters":10800,"station_id":"ce4bgrp2rcd13ifvqc9g","pricing_plan_id":"cebpf4jnsgd1na2vs0mg"},{"bike_id":"3662366c-1ef4-4632-99ba-02436ee1b1d8","system_id":"levelo_inurba_marseille","lat":43.23968,"lon":5.36633,"is_reserved":false,"is_disabled":false,"rental_uris":{"android":"levelo://app?vid=3662366c-1ef4-4632-99ba-02436ee1b1d8","ios":"levelo://app?vid=3662366c-1ef4-4632-99ba-02436ee1b1d8"},"vehicle_type_id":"4","last_reported":1741864099,"current_range_meters":10000,"station_id":"ce4bhi12rcd13ifvqfp0","pricing_plan_id":"cebpf4jnsgd1na2vs0mg"},{"bike_id":"5a0002da-b687-4872-932d-20fcc86b0c9d","system_id":"levelo_inurba_marseille","lat":43.250107,"lon":5.389206,"is_reserved":false,"is_disabled":false,"rental_uris":{"android":"levelo://app?vid=5a0002da-b687-4872-932d-20fcc86b0c9d","ios":"levelo://app?vid=5a0002da-b687-4872-932d-20fcc86b0c9d"},"vehicle_type_id":"4","last_reported":1741864099,"current_range_meters":11200,"station_id":"ce4bhgp2rcd13ifvqfd0","pricing_plan_id":"cebpf4jnsgd1na2vs0mg"},{"bike_id":"d041a7b5-732c-474f-b556-c0142a8f7b8d","system_id":"levelo_inurba_marseille","lat":43.31175,"lon":5.36883,"is_reserved":false,"is_disabled":false,"rental_uris":{"android":"levelo://app?vid=d041a7b5-732c-474f-b556-c0142a8f7b8d","ios":"levelo://app?vid=d041a7b5-732c-474f-b556-c0142a8f7b8d"},"vehicle_type_id":"4","last_reported":1741864099,"current_range_meters":11200,"station_id":"ce4bgl92rcd13ifvqbq0","pricing_plan_id":"cebpf4jnsgd1na2vs0mg"},{"bike_id":"4be2cbb2-7c5e-4b7f-8401-6f1518bf2984","system_id":"levelo_inurba_marseille","lat":43.3321,"lon":5.39583,"is_reserved":false,"is_disabled":false,"rental_uris":{"android":"levelo://app?vid=4be2cbb2-7c5e-4b7f-8401-6f1518bf2984","ios":"levelo://app?vid=4be2cbb2-7c5e-4b7f-8401-6f1518bf2984"},"vehicle_type_id":"4","last_reported":1741864099,"current_range_meters":11200,"station_id":"","pricing_plan_id":"cebpf4jnsgd1na2vs0mg"},{"bike_id":"65ce217d-7cfe-4d8b-a750-2c70d901aa0d","system_id":"levelo_inurba_marseille","lat":43.290457,"lon":5.359072,"is_reserved":false,"is_disabled":false,"rental_uris":{"android":"levelo://app?vid=65ce217d-7cfe-4d8b-a750-2c70d901aa0d","ios":"levelo://app?vid=65ce217d-7cfe-4d8b-a750-2c70d901aa0d"},"vehicle_type_id":"4","last_reported":1741864099,"current_range_meters":11200,"station_id":"","pricing_plan_id":"cebpf4jnsgd1na2vs0mg"},{"bike_id":"a5685bee-9f0c-4f66-9b7f-9b64f37b16ba","system_id":"levelo_inurba_marseille","lat":43.25738,"lon":5.41103,"is_reserved":false,"is_disabled":false,"rental_uris":{"android":"levelo://app?vid=a5685bee-9f0c-4f66-9b7f-9b64f37b16ba","ios":"levelo://app?vid=a5685bee-9f0c-4f66-9b7f-9b64f37b16ba"},"vehicle_type_id":"4","last_reported":1741864099,"current_range_meters":11200,"station_id":"ce4bhkp2rcd13ifvqgd0","pricing_plan_id":"cebpf4jnsgd1na2vs0mg"},{"bike_id":"1179ea35-4831-4438-984a-d67269a5255b","system_id":"levelo_inurba_marseille","lat":43.23205,"lon":5.35546,"is_reserved":false,"is_disabled":false,"rental_uris":{"android":"levelo://app?vid=1179ea35-4831-4438-984a-d67269a5255b","ios":"levelo://app?vid=1179ea35-4831-4438-984a-d67269a5255b"},"vehicle_type_id":"4","last_reported":1741864099,"current_range_meters":11200,"station_id":"ce4bhu92rcd13ifvqi70","pricing_plan_id":"cebpf4jnsgd1na2vs0mg"},{"bike_id":"dc3cb603-4895-4aa4-bbbd-9668e3f26bc4","system_id":"levelo_inurba_marseille","lat":43.33132,"lon":5.3821,"is_reserved":false,"is_disabled":false,"rental_uris":{"android":"levelo://app?vid=dc3cb603-4895-4aa4-bbbd-9668e3f26bc4","ios":"levelo://app?vid=dc3cb603-4895-4aa4-bbbd-9668e3f26bc4"},"vehicle_type_id":"4","last_reported":1741864099,"current_range_meters":11200,"station_id":"","pricing_plan_id":"cebpf4jnsgd1na2vs0mg"},{"bike_id":"154d0f4a-7cf1-4b4a-8919-807104d462e1","system_id":"levelo_inurba_marseille","lat":43.266562,"lon":5.38615,"is_reserved":false,"is_disabled":false,"rental_uris":{"android":"levelo://app?vid=154d0f4a-7cf1-4b4a-8919-807104d462e1","ios":"levelo://app?vid=154d0f4a-7cf1-4b4a-8919-807104d462e1"},"vehicle_type_id":"4","last_reported":1741864099,"current_range_meters":11200,"station_id":"","pricing_plan_id":"cebpf4jnsgd1na2vs0mg"},{"bike_id":"079f3adc-4b20-4152-b0b0-dabdb04df937","system_id":"levelo_inurba_marseille","lat":43.298431,"lon":5.362697,"is_reserved":false,"is_disabled":false,"rental_uris":{"android":"levelo://app?vid=079f3adc-4b20-4152-b0b0-dabdb04df937","ios":"levelo://app?vid=079f3adc-4b20-4152-b0b0-dabdb04df937"},"vehicle_type_id":"4","last_reported":1741864099,"current_range_meters":11200,"station_id":"ce4bgpp2rcd13ifvqc3g","pricing_plan_id":"cebpf4jnsgd1na2vs0mg"},{"bike_id":"2acd96e5-a440-4686-b0fa-3c6f19d31c6e","system_id":"levelo_inurba_marseille","lat":43.30005,"lon":5.37174,"is_reserved":false,"is_disabled":false,"rental_uris":{"android":"levelo://app?vid=2acd96e5-a440-4686-b0fa-3c6f19d31c6e","ios":"levelo://app?vid=2acd96e5-a440-4686-b0fa-3c6f19d31c6e"},"vehicle_type_id":"4","last_reported":1741864099,"current_range_meters":11600,"station_id":"ce4bgkh2rcd13ifvqbl0","pricing_plan_id":"cebpf4jnsgd1na2vs0mg"},{"bike_id":"4cb8eb35-1233-44c4-9064-3af8f8ba5953","system_id":"levelo_inurba_marseille","lat":43.27516,"lon":5.42445,"is_reserved":false,"is_disabled":false,"rental_uris":{"android":"levelo://app?vid=4cb8eb35-1233-44c4-9064-3af8f8ba5953","ios":"levelo://app?vid=4cb8eb35-1233-44c4-9064-3af8f8ba5953"},"vehicle_type_id":"4","last_reported":1741864099,"current_range_meters":11600,"station_id":"ce4bhn92rcd13ifvqgrg","pricing_plan_id":"cebpf4jnsgd1na2vs0mg"},{"bike_id":"b25a82dc-e62c-4613-bda4-8e0e6feb5f28","system_id":"levelo_inurba_marseille","lat":43.299267,"lon":5.365468,"is_reserved":false,"is_disabled":false,"rental_uris":{"android":"levelo://app?vid=b25a82dc-e62c-4613-bda4-8e0e6feb5f28","ios":"levelo://app?vid=b25a82dc-e62c-4613-bda4-8e0e6feb5f28"},"vehicle_type_id":"4","last_reported":1741864099,"current_range_meters":11600,"station_id":"ce4bgm92rcd13ifvqbr0","pricing_plan_id":"cebpf4jnsgd1na2vs0mg"},{"bike_id":"98491ef2-cb1b-4c41-86b1-1d443d1cb36f","system_id":"levelo_inurba_marseille","lat":43.2572,"lon":5.41114,"is_reserved":false,"is_disabled":false,"rental_uris":{"android":"levelo://app?vid=98491ef2-cb1b-4c41-86b1-1d443d1cb36f","ios":"levelo://app?vid=98491ef2-cb1b-4c41-86b1-1d443d1cb36f"},"vehicle_type_id":"4","last_reported":1741864099,"current_range_meters":11600,"station_id":"ce4bhkp2rcd13ifvqgd0","pricing_plan_id":"cebpf4jnsgd1na2vs0mg"},{"bike_id":"07e008d3-74e8-45ac-870c-0c68abac74bd","system_id":"levelo_inurba_marseille","lat":43.24185,"lon":5.39735,"is_reserved":false,"is_disabled":false,"rental_uris":{"android":"levelo://app?vid=07e008d3-74e8-45ac-870c-0c68abac74bd","ios":"levelo://app?vid=07e008d3-74e8-45ac-870c-0c68abac74bd"},"vehicle_type_id":"4","last_reported":1741864099,"current_range_meters":12000,"station_id":"ce4bhn12rcd13ifvqgpg","pricing_plan_id":"cebpf4jnsgd1na2vs0mg"},{"bike_id":"74ff3638-3040-4b46-976a-c16816bb1c9a","system_id":"levelo_inurba_marseille","lat":43.29035,"lon":5.35917,"is_reserved":false,"is_disabled":false,"rental_uris":{"android":"levelo://app?vid=74ff3638-3040-4b46-976a-c16816bb1c9a","ios":"levelo://app?vid=74ff3638-3040-4b46-976a-c16816bb1c9a"},"vehicle_type_id":"4","last_reported":1741864099,"current_range_meters":12000,"station_id":"ce4bha92rcd13ifvqeg0","pricing_plan_id":"cebpf4jnsgd1na2vs0mg"},{"bike_id":"d0d6e947-c053-478d-afc5-64391f59a970","system_id":"levelo_inurba_marseille","lat":43.29079,"lon":5.37149,"is_reserved":false,"is_disabled":false,"rental_uris":{"android":"levelo://app?vid=d0d6e947-c053-478d-afc5-64391f59a970","ios":"levelo://app?vid=d0d6e947-c053-478d-afc5-64391f59a970"},"vehicle_type_id":"4","last_reported":1741864099,"current_range_meters":12000,"station_id":"ce4bh5p2rcd13ifvqe4g","pricing_plan_id":"cebpf4jnsgd1na2vs0mg"},{"bike_id":"28f6fbf2-1977-47f0-a0bc-ce7d9bd0f390","system_id":"levelo_inurba_marseille","lat":43.2606,"lon":5.39403,"is_reserved":false,"is_disabled":false,"rental_uris":{"android":"levelo://app?vid=28f6fbf2-1977-47f0-a0bc-ce7d9bd0f390","ios":"levelo://app?vid=28f6fbf2-1977-47f0-a0bc-ce7d9bd0f390"},"vehicle_type_id":"4","last_reported":1741864099,"current_range_meters":12000,"station_id":"ce4bhh92rcd13ifvqfj0","pricing_plan_id":"cebpf4jnsgd1na2vs0mg"},{"bike_id":"5233e443-1736-449b-bfef-634509c8ee4b","system_id":"levelo_inurba_marseille","lat":43.294922,"lon":5.386572,"is_reserved":false,"is_disabled":false,"rental_uris":{"android":"levelo://app?vid=5233e443-1736-449b-bfef-634509c8ee4b","ios":"levelo://app?vid=5233e443-1736-449b-bfef-634509c8ee4b"},"vehicle_type_id":"4","last_reported":1741864099,"current_range_meters":12000,"station_id":"","pricing_plan_id":"cebpf4jnsgd1na2vs0mg"},{"bike_id":"376897db-4388-4f7b-b133-98cf0505fad6","system_id":"levelo_inurba_marseille","lat":43.30538,"lon":5.38421,"is_reserved":false,"is_disabled":false,"rental_uris":{"android":"levelo://app?vid=376897db-4388-4f7b-b133-98cf0505fad6","ios":"levelo://app?vid=376897db-4388-4f7b-b133-98cf0505fad6"},"vehicle_type_id":"4","last_reported":1741864099,"current_range_meters":12000,"station_id":"ce4bgg92rcd13ifvqb30","pricing_plan_id":"cebpf4jnsgd1na2vs0mg"},{"bike_id":"95f6bccd-52da-4c1e-b208-b8e282624c79","system_id":"levelo_inurba_marseille","lat":43.29042,"lon":5.37561,"is_reserved":false,"is_disabled":false,"rental_uris":{"android":"levelo://app?vid=95f6bccd-52da-4c1e-b208-b8e282624c79","ios":"levelo://app?vid=95f6bccd-52da-4c1e-b208-b8e282624c79"},"vehicle_type_id":"4","last_reported":1741864099,"current_range_meters":12000,"station_id":"ce4bh692rcd13ifvqe90","pricing_plan_id":"cebpf4jnsgd1na2vs0mg"},{"bike_id":"77b33e8b-e44c-425b-8acd-14c7f4c83027","system_id":"levelo_inurba_marseille","lat":43.299147,"lon":5.398647,"is_reserved":false,"is_disabled":false,"rental_uris":{"android":"levelo://app?vid=77b33e8b-e44c-425b-8acd-14c7f4c83027","ios":"levelo://app?vid=77b33e8b-e44c-425b-8acd-14c7f4c83027"},"vehicle_type_id":"4","last_reported":1741864099,"current_range_meters":12800,"station_id":"ce4bh3h2rcd13ifvqdo0","pricing_plan_id":"cebpf4jnsgd1na2vs0mg"},{"bike_id":"5cce8c68-ab9c-4191-af50-cc1d03765c2b","system_id":"levelo_inurba_marseille","lat":43.2597,"lon":5.40905,"is_reserved":false,"is_disabled":false,"rental_uris":{"android":"levelo://app?vid=5cce8c68-ab9c-4191-af50-cc1d03765c2b","ios":"levelo://app?vid=5cce8c68-ab9c-4191-af50-cc1d03765c2b"},"vehicle_type_id":"4","last_reported":1741864099,"current_range_meters":12400,"station_id":"ce4bhm92rcd13ifvqglg","pricing_plan_id":"cebpf4jnsgd1na2vs0mg"},{"bike_id":"01043a41-304c-43ad-967f-4c9f82acd2d7","system_id":"levelo_inurba_marseille","lat":43.31505,"lon":5.37307,"is_reserved":false,"is_disabled":false,"rental_uris":{"android":"levelo://app?vid=01043a41-304c-43ad-967f-4c9f82acd2d7","ios":"levelo://app?vid=01043a41-304c-43ad-967f-4c9f82acd2d7"},"vehicle_type_id":"4","last_reported":1741864099,"current_range_meters":12400,"station_id":"ce4bgt12rcd13ifvqcd0","pricing_plan_id":"cebpf4jnsgd1na2vs0mg"},{"bike_id":"20c987e1-a30a-4a4e-9684-d449fc75a71a","system_id":"levelo_inurba_marseille","lat":43.29274,"lon":5.36837,"is_reserved":false,"is_disabled":false,"rental_uris":{"android":"levelo://app?vid=20c987e1-a30a-4a4e-9684-d449fc75a71a","ios":"levelo://app?vid=20c987e1-a30a-4a4e-9684-d449fc75a71a"},"vehicle_type_id":"4","last_reported":1741864099,"current_range_meters":12400,"station_id":"ce4bhbp2rcd13ifvqesg","pricing_plan_id":"cebpf4jnsgd1na2vs0mg"},{"bike_id":"079525c9-aa01-454d-bbc8-8a156287b56f","system_id":"levelo_inurba_marseille","lat":43.27807,"lon":5.40726,"is_reserved":false,"is_disabled":true,"rental_uris":{"android":"levelo://app?vid=079525c9-aa01-454d-bbc8-8a156287b56f","ios":"levelo://app?vid=079525c9-aa01-454d-bbc8-8a156287b56f"},"vehicle_type_id":"4","last_reported":1741864099,"current_range_meters":12400,"station_id":"ce4bhnh2rcd13ifvqgtg","pricing_plan_id":"cebpf4jnsgd1na2vs0mg"},{"bike_id":"298df28f-15a1-41e5-bd60-c377e8c7a377","system_id":"levelo_inurba_marseille","lat":43.30153,"lon":5.38088,"is_reserved":false,"is_disabled":false,"rental_uris":{"android":"levelo://app?vid=298df28f-15a1-41e5-bd60-c377e8c7a377","ios":"levelo://app?vid=298df28f-15a1-41e5-bd60-c377e8c7a377"},"vehicle_type_id":"4","last_reported":1741864099,"current_range_meters":12400,"station_id":"ce4bgjp2rcd13ifvqbh0","pricing_plan_id":"cebpf4jnsgd1na2vs0mg"},{"bike_id":"c58476c2-0c3f-4803-b15e-284a7afb2e64","system_id":"levelo_inurba_marseille","lat":43.27812,"lon":5.40715,"is_reserved":false,"is_disabled":false,"rental_uris":{"android":"levelo://app?vid=c58476c2-0c3f-4803-b15e-284a7afb2e64","ios":"levelo://app?vid=c58476c2-0c3f-4803-b15e-284a7afb2e64"},"vehicle_type_id":"4","last_reported":1741864099,"current_range_meters":12000,"station_id":"ce4bhnh2rcd13ifvqgtg","pricing_plan_id":"cebpf4jnsgd1na2vs0mg"},{"bike_id":"00e9cc9b-4e9f-4f02-aa23-0b824e0e7a79","system_id":"levelo_inurba_marseille","lat":43.24169,"lon":5.39688,"is_reserved":false,"is_disabled":false,"rental_uris":{"android":"levelo://app?vid=00e9cc9b-4e9f-4f02-aa23-0b824e0e7a79","ios":"levelo://app?vid=00e9cc9b-4e9f-4f02-aa23-0b824e0e7a79"},"vehicle_type_id":"4","last_reported":1741864099,"current_range_meters":12400,"station_id":"ce4bhn12rcd13ifvqgpg","pricing_plan_id":"cebpf4jnsgd1na2vs0mg"},{"bike_id":"414a87d8-0320-4da5-94cb-1c2e9eb2c2e2","system_id":"levelo_inurba_marseille","lat":43.25818,"lon":5.39437,"is_reserved":false,"is_disabled":false,"rental_uris":{"android":"levelo://app?vid=414a87d8-0320-4da5-94cb-1c2e9eb2c2e2","ios":"levelo://app?vid=414a87d8-0320-4da5-94cb-1c2e9eb2c2e2"},"vehicle_type_id":"4","last_reported":1741864099,"current_range_meters":12800,"station_id":"ce4bhip2rcd13ifvqft0","pricing_plan_id":"cebpf4jnsgd1na2vs0mg"},{"bike_id":"461969f7-0900-4c8d-a8c5-8d37a95e521b","system_id":"levelo_inurba_marseille","lat":43.28045,"lon":5.36946,"is_reserved":false,"is_disabled":false,"rental_uris":{"android":"levelo://app?vid=461969f7-0900-4c8d-a8c5-8d37a95e521b","ios":"levelo://app?vid=461969f7-0900-4c8d-a8c5-8d37a95e521b"},"vehicle_type_id":"4","last_reported":1741864099,"current_range_meters":12800,"station_id":"ce4bha12rcd13ifvqef0","pricing_plan_id":"cebpf4jnsgd1na2vs0mg"},{"bike_id":"45cb3d3c-3e02-444c-82e5-7c3ba8a72e4c","system_id":"levelo_inurba_marseille","lat":43.296997,"lon":5.366179,"is_reserved":false,"is_disabled":false,"rental_uris":{"android":"levelo://app?vid=45cb3d3c-3e02-444c-82e5-7c3ba8a72e4c","ios":"levelo://app?vid=45cb3d3c-3e02-444c-82e5-7c3ba8a72e4c"},"vehicle_type_id":"4","last_reported":1741864099,"current_range_meters":12800,"station_id":"ce4bhb12rcd13ifvqel0","pricing_plan_id":"cebpf4jnsgd1na2vs0mg"},{"bike_id":"68763194-3abe-48a1-8910-fd98d41f5ed0","system_id":"levelo_inurba_marseille","lat":43.24095,"lon":5.37779,"is_reserved":false,"is_disabled":false,"rental_uris":{"android":"levelo://app?vid=68763194-3abe-48a1-8910-fd98d41f5ed0","ios":"levelo://app?vid=68763194-3abe-48a1-8910-fd98d41f5ed0"},"vehicle_type_id":"4","last_reported":1741864099,"current_range_meters":12800,"station_id":"ce4bhnp2rcd13ifvqgvg","pricing_plan_id":"cebpf4jnsgd1na2vs0mg"},{"bike_id":"6944bb06-8a8c-4cf4-86a1-ca9561cf4ee4","system_id":"levelo_inurba_marseille","lat":43.23071,"lon":5.35498,"is_reserved":false,"is_disabled":false,"rental_uris":{"android":"levelo://app?vid=6944bb06-8a8c-4cf4-86a1-ca9561cf4ee4","ios":"levelo://app?vid=6944bb06-8a8c-4cf4-86a1-ca9561cf4ee4"},"vehicle_type_id":"4","last_reported":1741864099,"current_range_meters":12800,"station_id":"cpo3342slgdg3j2ifvpg","pricing_plan_id":"cebpf4jnsgd1na2vs0mg"},{"bike_id":"e460accb-5f4b-4b37-aef2-fd7ad3a652ed","system_id":"levelo_inurba_marseille","lat":43.26558,"lon":5.37281,"is_reserved":false,"is_disabled":false,"rental_uris":{"android":"levelo://app?vid=e460accb-5f4b-4b37-aef2-fd7ad3a652ed","ios":"levelo://app?vid=e460accb-5f4b-4b37-aef2-fd7ad3a652ed"},"vehicle_type_id":"4","last_reported":1741864099,"current_range_meters":13600,"station_id":"ce4bhg12rcd13ifvqf70","pricing_plan_id":"cebpf4jnsgd1na2vs0mg"},{"bike_id":"f0e7ac7d-95bc-4008-88c4-77bc0f1e3203","system_id":"levelo_inurba_marseille","lat":43.30139,"lon":5.37429,"is_reserved":false,"is_disabled":false,"rental_uris":{"android":"levelo://app?vid=f0e7ac7d-95bc-4008-88c4-77bc0f1e3203","ios":"levelo://app?vid=f0e7ac7d-95bc-4008-88c4-77bc0f1e3203"},"vehicle_type_id":"4","last_reported":1741864099,"current_range_meters":13600,"station_id":"ce4bgs92rcd13ifvqcc0","pricing_plan_id":"cebpf4jnsgd1na2vs0mg"},{"bike_id":"e1adcd7f-a12c-4ea8-b2b7-62abdaa9a049","system_id":"levelo_inurba_marseille","lat":43.29253,"lon":5.40908,"is_reserved":false,"is_disabled":false,"rental_uris":{"android":"levelo://app?vid=e1adcd7f-a12c-4ea8-b2b7-62abdaa9a049","ios":"levelo://app?vid=e1adcd7f-a12c-4ea8-b2b7-62abdaa9a049"},"vehicle_type_id":"4","last_reported":1741864099,"current_range_meters":13600,"station_id":"ce4bh192rcd13ifvqdc0","pricing_plan_id":"cebpf4jnsgd1na2vs0mg"},{"bike_id":"6ccf86ef-1ad0-4d0b-b9b3-a132559461d3","system_id":"levelo_inurba_marseille","lat":43.34147,"lon":5.40907,"is_reserved":false,"is_disabled":false,"rental_uris":{"android":"levelo://app?vid=6ccf86ef-1ad0-4d0b-b9b3-a132559461d3","ios":"levelo://app?vid=6ccf86ef-1ad0-4d0b-b9b3-a132559461d3"},"vehicle_type_id":"4","last_reported":1741864099,"current_range_meters":13600,"station_id":"ce4bhqh2rcd13ifvqhlg","pricing_plan_id":"cebpf4jnsgd1na2vs0mg"},{"bike_id":"d7a8da47-49b4-4832-962b-dcb93e987c89","system_id":"levelo_inurba_marseille","lat":43.30158,"lon":5.39868,"is_reserved":false,"is_disabled":false,"rental_uris":{"android":"levelo://app?vid=d7a8da47-49b4-4832-962b-dcb93e987c89","ios":"levelo://app?vid=d7a8da47-49b4-4832-962b-dcb93e987c89"},"vehicle_type_id":"4","last_reported":1741864099,"current_range_meters":12800,"station_id":"ce4bh0h2rcd13ifvqd40","pricing_plan_id":"cebpf4jnsgd1na2vs0mg"},{"bike_id":"41404971-8a00-4e9f-960f-3da0974a46d4","system_id":"levelo_inurba_marseille","lat":43.250032,"lon":5.389337,"is_reserved":false,"is_disabled":false,"rental_uris":{"android":"levelo://app?vid=41404971-8a00-4e9f-960f-3da0974a46d4","ios":"levelo://app?vid=41404971-8a00-4e9f-960f-3da0974a46d4"},"vehicle_type_id":"4","last_reported":1741864099,"current_range_meters":13600,"station_id":"ce4bhgp2rcd13ifvqfd0","pricing_plan_id":"cebpf4jnsgd1na2vs0mg"},{"bike_id":"4e376f55-e98a-4bf1-8d5f-c79209c93ec1","system_id":"levelo_inurba_marseille","lat":43.30544,"lon":5.36547,"is_reserved":false,"is_disabled":false,"rental_uris":{"android":"levelo://app?vid=4e376f55-e98a-4bf1-8d5f-c79209c93ec1","ios":"levelo://app?vid=4e376f55-e98a-4bf1-8d5f-c79209c93ec1"},"vehicle_type_id":"4","last_reported":1741864099,"current_range_meters":14000,"station_id":"ce4bgs12rcd13ifvqcag","pricing_plan_id":"cebpf4jnsgd1na2vs0mg"},{"bike_id":"97a99c0e-ca85-42ee-92b6-0d72a882e38d","system_id":"levelo_inurba_marseille","lat":43.29795,"lon":5.39339,"is_reserved":false,"is_disabled":false,"rental_uris":{"android":"levelo://app?vid=97a99c0e-ca85-42ee-92b6-0d72a882e38d","ios":"levelo://app?vid=97a99c0e-ca85-42ee-92b6-0d72a882e38d"},"vehicle_type_id":"4","last_reported":1741864099,"current_range_meters":14000,"station_id":"chh1huq6cuj3fo74tm60","pricing_plan_id":"cebpf4jnsgd1na2vs0mg"},{"bike_id":"9db5f361-402f-483a-bcdc-9e6d2c49648d","system_id":"levelo_inurba_marseille","lat":43.28119,"lon":5.37807,"is_reserved":false,"is_disabled":false,"rental_uris":{"android":"levelo://app?vid=9db5f361-402f-483a-bcdc-9e6d2c49648d","ios":"levelo://app?vid=9db5f361-402f-483a-bcdc-9e6d2c49648d"},"vehicle_type_id":"4","last_reported":1741864099,"current_range_meters":14000,"station_id":"ce4bha12rcd13ifvqee0","pricing_plan_id":"cebpf4jnsgd1na2vs0mg"},{"bike_id":"9b750467-87e2-4fdb-93d7-edcb536818eb","system_id":"levelo_inurba_marseille","lat":43.30562,"lon":5.36709,"is_reserved":false,"is_disabled":false,"rental_uris":{"android":"levelo://app?vid=9b750467-87e2-4fdb-93d7-edcb536818eb","ios":"levelo://app?vid=9b750467-87e2-4fdb-93d7-edcb536818eb"},"vehicle_type_id":"4","last_reported":1741864099,"current_range_meters":14400,"station_id":"ce4bgrp2rcd13ifvqc9g","pricing_plan_id":"cebpf4jnsgd1na2vs0mg"},{"bike_id":"89684e70-27be-4b05-8e38-1e7db89b3cad","system_id":"levelo_inurba_marseille","lat":43.2621,"lon":5.37443,"is_reserved":false,"is_disabled":false,"rental_uris":{"android":"levelo://app?vid=89684e70-27be-4b05-8e38-1e7db89b3cad","ios":"levelo://app?vid=89684e70-27be-4b05-8e38-1e7db89b3cad"},"vehicle_type_id":"4","last_reported":1741864099,"current_range_meters":14000,"station_id":"ce4bhgp2rcd13ifvqfc0","pricing_plan_id":"cebpf4jnsgd1na2vs0mg"},{"bike_id":"abb4d827-d99d-447a-b69c-566f9402f115","system_id":"levelo_inurba_marseille","lat":43.25926,"lon":5.40911,"is_reserved":false,"is_disabled":false,"rental_uris":{"android":"levelo://app?vid=abb4d827-d99d-447a-b69c-566f9402f115","ios":"levelo://app?vid=abb4d827-d99d-447a-b69c-566f9402f115"},"vehicle_type_id":"4","last_reported":1741864099,"current_range_meters":14000,"station_id":"ce4bhm92rcd13ifvqglg","pricing_plan_id":"cebpf4jnsgd1na2vs0mg"},{"bike_id":"d1f434e2-8b16-4ff6-bfc9-86b4f2e5c40a","system_id":"levelo_inurba_marseille","lat":43.26492,"lon":5.39555,"is_reserved":false,"is_disabled":false,"rental_uris":{"android":"levelo://app?vid=d1f434e2-8b16-4ff6-bfc9-86b4f2e5c40a","ios":"levelo://app?vid=d1f434e2-8b16-4ff6-bfc9-86b4f2e5c40a"},"vehicle_type_id":"4","last_reported":1741864099,"current_range_meters":14000,"station_id":"ce4bhi12rcd13ifvqfq0","pricing_plan_id":"cebpf4jnsgd1na2vs0mg"},{"bike_id":"b6e4fd20-9e75-44a6-9c0c-0ae94a411f52","system_id":"levelo_inurba_marseille","lat":43.25109,"lon":5.40325,"is_reserved":false,"is_disabled":false,"rental_uris":{"android":"levelo://app?vid=b6e4fd20-9e75-44a6-9c0c-0ae94a411f52","ios":"levelo://app?vid=b6e4fd20-9e75-44a6-9c0c-0ae94a411f52"},"vehicle_type_id":"4","last_reported":1741864099,"current_range_meters":14000,"station_id":"ce4bhlh2rcd13ifvqgig","pricing_plan_id":"cebpf4jnsgd1na2vs0mg"},{"bike_id":"b5cfed75-e7e4-42b0-beb2-31bc68c236d9","system_id":"levelo_inurba_marseille","lat":43.29162,"lon":5.38601,"is_reserved":false,"is_disabled":false,"rental_uris":{"android":"levelo://app?vid=b5cfed75-e7e4-42b0-beb2-31bc68c236d9","ios":"levelo://app?vid=b5cfed75-e7e4-42b0-beb2-31bc68c236d9"},"vehicle_type_id":"4","last_reported":1741864099,"current_range_meters":14000,"station_id":"","pricing_plan_id":"cebpf4jnsgd1na2vs0mg"},{"bike_id":"6bf5c969-b30c-4187-b6ad-580aac3c85a7","system_id":"levelo_inurba_marseille","lat":43.28693,"lon":5.37397,"is_reserved":false,"is_disabled":false,"rental_uris":{"android":"levelo://app?vid=6bf5c969-b30c-4187-b6ad-580aac3c85a7","ios":"levelo://app?vid=6bf5c969-b30c-4187-b6ad-580aac3c85a7"},"vehicle_type_id":"4","last_reported":1741864099,"current_range_meters":13600,"station_id":"ce4bh3p2rcd13ifvqdq0","pricing_plan_id":"cebpf4jnsgd1na2vs0mg"},{"bike_id":"a1fcbf01-446c-4e19-b411-15c149ea7aa3","system_id":"levelo_inurba_marseille","lat":43.2994,"lon":5.41244,"is_reserved":false,"is_disabled":false,"rental_uris":{"android":"levelo://app?vid=a1fcbf01-446c-4e19-b411-15c149ea7aa3","ios":"levelo://app?vid=a1fcbf01-446c-4e19-b411-15c149ea7aa3"},"vehicle_type_id":"4","last_reported":1741864099,"current_range_meters":14000,"station_id":"ce4bhp12rcd13ifvqh9g","pricing_plan_id":"cebpf4jnsgd1na2vs0mg"},{"bike_id":"4e191ed8-4812-41de-8773-982816941bf3","system_id":"levelo_inurba_marseille","lat":43.29316,"lon":5.37405,"is_reserved":false,"is_disabled":false,"rental_uris":{"android":"levelo://app?vid=4e191ed8-4812-41de-8773-982816941bf3","ios":"levelo://app?vid=4e191ed8-4812-41de-8773-982816941bf3"},"vehicle_type_id":"4","last_reported":1741864099,"current_range_meters":14000,"station_id":"ce4bgi12rcd13ifvqb70","pricing_plan_id":"cebpf4jnsgd1na2vs0mg"},{"bike_id":"45f5800a-99c6-4c7e-892e-8047007584fe","system_id":"levelo_inurba_marseille","lat":43.29876,"lon":5.36291,"is_reserved":false,"is_disabled":false,"rental_uris":{"android":"levelo://app?vid=45f5800a-99c6-4c7e-892e-8047007584fe","ios":"levelo://app?vid=45f5800a-99c6-4c7e-892e-8047007584fe"},"vehicle_type_id":"4","last_reported":1741864099,"current_range_meters":14000,"station_id":"ce4bgpp2rcd13ifvqc3g","pricing_plan_id":"cebpf4jnsgd1na2vs0mg"},{"bike_id":"36ec5a15-215b-4367-a3ca-336aadd9a251","system_id":"levelo_inurba_marseille","lat":43.33746,"lon":5.3745,"is_reserved":false,"is_disabled":false,"rental_uris":{"android":"levelo://app?vid=36ec5a15-215b-4367-a3ca-336aadd9a251","ios":"levelo://app?vid=36ec5a15-215b-4367-a3ca-336aadd9a251"},"vehicle_type_id":"4","last_reported":1741864099,"current_range_meters":14000,"station_id":"","pricing_plan_id":"cebpf4jnsgd1na2vs0mg"},{"bike_id":"e239f0ff-160f-439b-af37-3e7d386226c8","system_id":"levelo_inurba_marseille","lat":43.26693,"lon":5.3824,"is_reserved":false,"is_disabled":false,"rental_uris":{"android":"levelo://app?vid=e239f0ff-160f-439b-af37-3e7d386226c8","ios":"levelo://app?vid=e239f0ff-160f-439b-af37-3e7d386226c8"},"vehicle_type_id":"4","last_reported":1741864099,"current_range_meters":14400,"station_id":"ce4bhg92rcd13ifvqf90","pricing_plan_id":"cebpf4jnsgd1na2vs0mg"},{"bike_id":"c21d61f0-bcdb-4f5b-905a-e9e09c25ab8b","system_id":"levelo_inurba_marseille","lat":43.24067,"lon":5.37693,"is_reserved":false,"is_disabled":false,"rental_uris":{"android":"levelo://app?vid=c21d61f0-bcdb-4f5b-905a-e9e09c25ab8b","ios":"levelo://app?vid=c21d61f0-bcdb-4f5b-905a-e9e09c25ab8b"},"vehicle_type_id":"4","last_reported":1741864099,"current_range_meters":14400,"station_id":"","pricing_plan_id":"cebpf4jnsgd1na2vs0mg"},{"bike_id":"f51774df-1706-4fbd-89b4-4fb65fefd338","system_id":"levelo_inurba_marseille","lat":43.24654,"lon":5.38892,"is_reserved":false,"is_disabled":false,"rental_uris":{"android":"levelo://app?vid=f51774df-1706-4fbd-89b4-4fb65fefd338","ios":"levelo://app?vid=f51774df-1706-4fbd-89b4-4fb65fefd338"},"vehicle_type_id":"4","last_reported":1741864099,"current_range_meters":14400,"station_id":"ce4bhg12rcd13ifvqf60","pricing_plan_id":"cebpf4jnsgd1na2vs0mg"},{"bike_id":"3363e5ed-aafd-4c83-9f97-12270e6ffcf4","system_id":"levelo_inurba_marseille","lat":43.24865,"lon":5.40655,"is_reserved":false,"is_disabled":false,"rental_uris":{"android":"levelo://app?vid=3363e5ed-aafd-4c83-9f97-12270e6ffcf4","ios":"levelo://app?vid=3363e5ed-aafd-4c83-9f97-12270e6ffcf4"},"vehicle_type_id":"4","last_reported":1741864099,"current_range_meters":14400,"station_id":"","pricing_plan_id":"cebpf4jnsgd1na2vs0mg"},{"bike_id":"b446f70b-322e-4bcf-a37b-882deb08ebbe","system_id":"levelo_inurba_marseille","lat":43.24649,"lon":5.38898,"is_reserved":false,"is_disabled":false,"rental_uris":{"android":"levelo://app?vid=b446f70b-322e-4bcf-a37b-882deb08ebbe","ios":"levelo://app?vid=b446f70b-322e-4bcf-a37b-882deb08ebbe"},"vehicle_type_id":"4","last_reported":1741864099,"current_range_meters":14400,"station_id":"ce4bhg12rcd13ifvqf60","pricing_plan_id":"cebpf4jnsgd1na2vs0mg"},{"bike_id":"2b1b509a-ae2c-4705-a5bd-2d2a5200b454","system_id":"levelo_inurba_marseille","lat":43.30546,"lon":5.36533,"is_reserved":false,"is_disabled":false,"rental_uris":{"android":"levelo://app?vid=2b1b509a-ae2c-4705-a5bd-2d2a5200b454","ios":"levelo://app?vid=2b1b509a-ae2c-4705-a5bd-2d2a5200b454"},"vehicle_type_id":"4","last_reported":1741864099,"current_range_meters":14400,"station_id":"ce4bgs12rcd13ifvqcag","pricing_plan_id":"cebpf4jnsgd1na2vs0mg"},{"bike_id":"1ae46761-3b9c-427e-a357-916b828ff860","system_id":"levelo_inurba_marseille","lat":43.27076,"lon":5.42282,"is_reserved":false,"is_disabled":false,"rental_uris":{"android":"levelo://app?vid=1ae46761-3b9c-427e-a357-916b828ff860","ios":"levelo://app?vid=1ae46761-3b9c-427e-a357-916b828ff860"},"vehicle_type_id":"4","last_reported":1741864099,"current_range_meters":14800,"station_id":"ce4bhk92rcd13ifvqgb0","pricing_plan_id":"cebpf4jnsgd1na2vs0mg"},{"bike_id":"c8e75bc0-6e9a-41e1-8c1f-a726c74f928d","system_id":"levelo_inurba_marseille","lat":43.27502,"lon":5.42461,"is_reserved":false,"is_disabled":false,"rental_uris":{"android":"levelo://app?vid=c8e75bc0-6e9a-41e1-8c1f-a726c74f928d","ios":"levelo://app?vid=c8e75bc0-6e9a-41e1-8c1f-a726c74f928d"},"vehicle_type_id":"4","last_reported":1741864099,"current_range_meters":15200,"station_id":"ce4bhn92rcd13ifvqgrg","pricing_plan_id":"cebpf4jnsgd1na2vs0mg"},{"bike_id":"150eb9f6-00ce-4445-9372-af18a3426543","system_id":"levelo_inurba_marseille","lat":43.266899,"lon":5.382718,"is_reserved":false,"is_disabled":false,"rental_uris":{"android":"levelo://app?vid=150eb9f6-00ce-4445-9372-af18a3426543","ios":"levelo://app?vid=150eb9f6-00ce-4445-9372-af18a3426543"},"vehicle_type_id":"4","last_reported":1741864099,"current_range_meters":14800,"station_id":"ce4bhg92rcd13ifvqf90","pricing_plan_id":"cebpf4jnsgd1na2vs0mg"},{"bike_id":"8a91d67e-e643-40c3-81c5-f45a2954682e","system_id":"levelo_inurba_marseille","lat":43.274961,"lon":5.424616,"is_reserved":false,"is_disabled":false,"rental_uris":{"android":"levelo://app?vid=8a91d67e-e643-40c3-81c5-f45a2954682e","ios":"levelo://app?vid=8a91d67e-e643-40c3-81c5-f45a2954682e"},"vehicle_type_id":"4","last_reported":1741864099,"current_range_meters":14800,"station_id":"ce4bhn92rcd13ifvqgrg","pricing_plan_id":"cebpf4jnsgd1na2vs0mg"},{"bike_id":"b634fcd7-4303-4fed-a2f8-fcd04ed2a4dd","system_id":"levelo_inurba_marseille","lat":43.2306,"lon":5.354935,"is_reserved":false,"is_disabled":false,"rental_uris":{"android":"levelo://app?vid=b634fcd7-4303-4fed-a2f8-fcd04ed2a4dd","ios":"levelo://app?vid=b634fcd7-4303-4fed-a2f8-fcd04ed2a4dd"},"vehicle_type_id":"4","last_reported":1741864099,"current_range_meters":14800,"station_id":"cpo3342slgdg3j2ifvpg","pricing_plan_id":"cebpf4jnsgd1na2vs0mg"},{"bike_id":"9a719051-5115-4a08-8e7b-ae42f9cbb7fe","system_id":"levelo_inurba_marseille","lat":43.31105,"lon":5.37783,"is_reserved":false,"is_disabled":false,"rental_uris":{"android":"levelo://app?vid=9a719051-5115-4a08-8e7b-ae42f9cbb7fe","ios":"levelo://app?vid=9a719051-5115-4a08-8e7b-ae42f9cbb7fe"},"vehicle_type_id":"4","last_reported":1741864099,"current_range_meters":14800,"station_id":"ce4bgt92rcd13ifvqcg0","pricing_plan_id":"cebpf4jnsgd1na2vs0mg"},{"bike_id":"e4f59c94-c98b-4350-9de1-3ea0397f9325","system_id":"levelo_inurba_marseille","lat":43.24075,"lon":5.3776,"is_reserved":false,"is_disabled":false,"rental_uris":{"android":"levelo://app?vid=e4f59c94-c98b-4350-9de1-3ea0397f9325","ios":"levelo://app?vid=e4f59c94-c98b-4350-9de1-3ea0397f9325"},"vehicle_type_id":"4","last_reported":1741864099,"current_range_meters":14800,"station_id":"ce4bhnp2rcd13ifvqgvg","pricing_plan_id":"cebpf4jnsgd1na2vs0mg"},{"bike_id":"00ee505e-9522-4e7d-87a9-ce46cab6abfa","system_id":"levelo_inurba_marseille","lat":43.31341,"lon":5.36695,"is_reserved":false,"is_disabled":false,"rental_uris":{"android":"levelo://app?vid=00ee505e-9522-4e7d-87a9-ce46cab6abfa","ios":"levelo://app?vid=00ee505e-9522-4e7d-87a9-ce46cab6abfa"},"vehicle_type_id":"4","last_reported":1741864099,"current_range_meters":15200,"station_id":"ce4bgr92rcd13ifvqc6g","pricing_plan_id":"cebpf4jnsgd1na2vs0mg"},{"bike_id":"436bf6fd-98f0-4c70-968c-7fcac8f398a5","system_id":"levelo_inurba_marseille","lat":43.25099,"lon":5.41047,"is_reserved":false,"is_disabled":false,"rental_uris":{"android":"levelo://app?vid=436bf6fd-98f0-4c70-968c-7fcac8f398a5","ios":"levelo://app?vid=436bf6fd-98f0-4c70-968c-7fcac8f398a5"},"vehicle_type_id":"4","last_reported":1741864099,"current_range_meters":15200,"station_id":"","pricing_plan_id":"cebpf4jnsgd1na2vs0mg"},{"bike_id":"ad69ebc7-a58c-46a9-8af5-60f032bd01fc","system_id":"levelo_inurba_marseille","lat":43.2979,"lon":5.39349,"is_reserved":false,"is_disabled":false,"rental_uris":{"android":"levelo://app?vid=ad69ebc7-a58c-46a9-8af5-60f032bd01fc","ios":"levelo://app?vid=ad69ebc7-a58c-46a9-8af5-60f032bd01fc"},"vehicle_type_id":"4","last_reported":1741864099,"current_range_meters":15200,"station_id":"chh1huq6cuj3fo74tm60","pricing_plan_id":"cebpf4jnsgd1na2vs0mg"},{"bike_id":"dab87c97-4c30-498e-808d-10ce3d0ef21f","system_id":"levelo_inurba_marseille","lat":43.29557,"lon":5.42264,"is_reserved":false,"is_disabled":false,"rental_uris":{"android":"levelo://app?vid=dab87c97-4c30-498e-808d-10ce3d0ef21f","ios":"levelo://app?vid=dab87c97-4c30-498e-808d-10ce3d0ef21f"},"vehicle_type_id":"4","last_reported":1741864099,"current_range_meters":15200,"station_id":"ce4bhph2rcd13ifvqhdg","pricing_plan_id":"cebpf4jnsgd1na2vs0mg"},{"bike_id":"42e8652c-00b3-451d-85e8-17f96a47fb4d","system_id":"levelo_inurba_marseille","lat":43.29039,"lon":5.39971,"is_reserved":false,"is_disabled":false,"rental_uris":{"android":"levelo://app?vid=42e8652c-00b3-451d-85e8-17f96a47fb4d","ios":"levelo://app?vid=42e8652c-00b3-451d-85e8-17f96a47fb4d"},"vehicle_type_id":"4","last_reported":1741864099,"current_range_meters":15200,"station_id":"ce4bh392rcd13ifvqdm0","pricing_plan_id":"cebpf4jnsgd1na2vs0mg"},{"bike_id":"7a2528c7-fc51-47b3-b130-bcfcd01c1079","system_id":"levelo_inurba_marseille","lat":43.25936,"lon":5.40871,"is_reserved":false,"is_disabled":false,"rental_uris":{"android":"levelo://app?vid=7a2528c7-fc51-47b3-b130-bcfcd01c1079","ios":"levelo://app?vid=7a2528c7-fc51-47b3-b130-bcfcd01c1079"},"vehicle_type_id":"4","last_reported":1741864099,"current_range_meters":16000,"station_id":"ce4bhm92rcd13ifvqglg","pricing_plan_id":"cebpf4jnsgd1na2vs0mg"},{"bike_id":"0cde2268-f5c0-4f9a-89f8-779fbcd27b0a","system_id":"levelo_inurba_marseille","lat":43.28154,"lon":5.42648,"is_reserved":false,"is_disabled":false,"rental_uris":{"android":"levelo://app?vid=0cde2268-f5c0-4f9a-89f8-779fbcd27b0a","ios":"levelo://app?vid=0cde2268-f5c0-4f9a-89f8-779fbcd27b0a"},"vehicle_type_id":"4","last_reported":1741864099,"current_range_meters":15200,"station_id":"ce4bhnh2rcd13ifvqgug","pricing_plan_id":"cebpf4jnsgd1na2vs0mg"},{"bike_id":"36fa1bfb-4451-41ac-ac56-73ee9f3feeab","system_id":"levelo_inurba_marseille","lat":43.31264,"lon":5.36887,"is_reserved":false,"is_disabled":false,"rental_uris":{"android":"levelo://app?vid=36fa1bfb-4451-41ac-ac56-73ee9f3feeab","ios":"levelo://app?vid=36fa1bfb-4451-41ac-ac56-73ee9f3feeab"},"vehicle_type_id":"4","last_reported":1741864099,"current_range_meters":16000,"station_id":"ce4bgl92rcd13ifvqbq0","pricing_plan_id":"cebpf4jnsgd1na2vs0mg"},{"bike_id":"a5e71948-735a-4229-b2ca-74d55fc62066","system_id":"levelo_inurba_marseille","lat":43.28043,"lon":5.36941,"is_reserved":false,"is_disabled":false,"rental_uris":{"android":"levelo://app?vid=a5e71948-735a-4229-b2ca-74d55fc62066","ios":"levelo://app?vid=a5e71948-735a-4229-b2ca-74d55fc62066"},"vehicle_type_id":"4","last_reported":1741864099,"current_range_meters":16000,"station_id":"ce4bha12rcd13ifvqef0","pricing_plan_id":"cebpf4jnsgd1na2vs0mg"},{"bike_id":"e95d04c2-a36e-4895-96dd-02326100e3c8","system_id":"levelo_inurba_marseille","lat":43.27832,"lon":5.40701,"is_reserved":false,"is_disabled":false,"rental_uris":{"android":"levelo://app?vid=e95d04c2-a36e-4895-96dd-02326100e3c8","ios":"levelo://app?vid=e95d04c2-a36e-4895-96dd-02326100e3c8"},"vehicle_type_id":"4","last_reported":1741864099,"current_range_meters":16000,"station_id":"ce4bhnh2rcd13ifvqgtg","pricing_plan_id":"cebpf4jnsgd1na2vs0mg"},{"bike_id":"069531e2-dac8-4018-8595-917df72d53f5","system_id":"levelo_inurba_marseille","lat":43.27496,"lon":5.42463,"is_reserved":false,"is_disabled":false,"rental_uris":{"android":"levelo://app?vid=069531e2-dac8-4018-8595-917df72d53f5","ios":"levelo://app?vid=069531e2-dac8-4018-8595-917df72d53f5"},"vehicle_type_id":"4","last_reported":1741864099,"current_range_meters":16000,"station_id":"ce4bhn92rcd13ifvqgrg","pricing_plan_id":"cebpf4jnsgd1na2vs0mg"},{"bike_id":"edeff993-7353-413f-b42c-b0f5072095e8","system_id":"levelo_inurba_marseille","lat":43.25927,"lon":5.40877,"is_reserved":false,"is_disabled":false,"rental_uris":{"android":"levelo://app?vid=edeff993-7353-413f-b42c-b0f5072095e8","ios":"levelo://app?vid=edeff993-7353-413f-b42c-b0f5072095e8"},"vehicle_type_id":"4","last_reported":1741864099,"current_range_meters":16000,"station_id":"ce4bhm92rcd13ifvqglg","pricing_plan_id":"cebpf4jnsgd1na2vs0mg"},{"bike_id":"20cf9b1f-595a-46ff-b2c1-133275f66c95","system_id":"levelo_inurba_marseille","lat":43.2316,"lon":5.43709,"is_reserved":false,"is_disabled":false,"rental_uris":{"android":"levelo://app?vid=20cf9b1f-595a-46ff-b2c1-133275f66c95","ios":"levelo://app?vid=20cf9b1f-595a-46ff-b2c1-133275f66c95"},"vehicle_type_id":"4","last_reported":1741864099,"current_range_meters":16400,"station_id":"ce4bhmp2rcd13ifvqgog","pricing_plan_id":"cebpf4jnsgd1na2vs0mg"},{"bike_id":"8af0edff-6988-443e-bfbb-62952732ede6","system_id":"levelo_inurba_marseille","lat":43.30578,"lon":5.3654,"is_reserved":false,"is_disabled":false,"rental_uris":{"android":"levelo://app?vid=8af0edff-6988-443e-bfbb-62952732ede6","ios":"levelo://app?vid=8af0edff-6988-443e-bfbb-62952732ede6"},"vehicle_type_id":"4","last_reported":1741864099,"current_range_meters":16400,"station_id":"ce4bgs12rcd13ifvqcag","pricing_plan_id":"cebpf4jnsgd1na2vs0mg"},{"bike_id":"1d78e059-33ae-48b0-b69f-dd4c5b042eed","system_id":"levelo_inurba_marseille","lat":43.29642,"lon":5.40594,"is_reserved":false,"is_disabled":false,"rental_uris":{"android":"levelo://app?vid=1d78e059-33ae-48b0-b69f-dd4c5b042eed","ios":"levelo://app?vid=1d78e059-33ae-48b0-b69f-dd4c5b042eed"},"vehicle_type_id":"4","last_reported":1741864099,"current_range_meters":16400,"station_id":"ce4bh0h2rcd13ifvqd60","pricing_plan_id":"cebpf4jnsgd1na2vs0mg"},{"bike_id":"e514d185-4131-49cd-8a7c-317241865033","system_id":"levelo_inurba_marseille","lat":43.31514,"lon":5.37302,"is_reserved":false,"is_disabled":false,"rental_uris":{"android":"levelo://app?vid=e514d185-4131-49cd-8a7c-317241865033","ios":"levelo://app?vid=e514d185-4131-49cd-8a7c-317241865033"},"vehicle_type_id":"4","last_reported":1741864099,"current_range_meters":16400,"station_id":"ce4bgt12rcd13ifvqcd0","pricing_plan_id":"cebpf4jnsgd1na2vs0mg"},{"bike_id":"dee11e52-2ff0-4548-aecd-6137f6a2a418","system_id":"levelo_inurba_marseille","lat":43.30496,"lon":5.3791,"is_reserved":false,"is_disabled":false,"rental_uris":{"android":"levelo://app?vid=dee11e52-2ff0-4548-aecd-6137f6a2a418","ios":"levelo://app?vid=dee11e52-2ff0-4548-aecd-6137f6a2a418"},"vehicle_type_id":"4","last_reported":1741864099,"current_range_meters":16400,"station_id":"ce4bgup2rcd13ifvqcn0","pricing_plan_id":"cebpf4jnsgd1na2vs0mg"},{"bike_id":"d832be96-3f22-4fd3-a51f-0c34d6fb17c6","system_id":"levelo_inurba_marseille","lat":43.29905,"lon":5.37465,"is_reserved":false,"is_disabled":false,"rental_uris":{"android":"levelo://app?vid=d832be96-3f22-4fd3-a51f-0c34d6fb17c6","ios":"levelo://app?vid=d832be96-3f22-4fd3-a51f-0c34d6fb17c6"},"vehicle_type_id":"4","last_reported":1741864099,"current_range_meters":16800,"station_id":"ce4bgjh2rcd13ifvqbg0","pricing_plan_id":"cebpf4jnsgd1na2vs0mg"},{"bike_id":"29832e81-b63f-44c3-a8ae-1ccbc505bd58","system_id":"levelo_inurba_marseille","lat":43.27813,"lon":5.40716,"is_reserved":false,"is_disabled":false,"rental_uris":{"android":"levelo://app?vid=29832e81-b63f-44c3-a8ae-1ccbc505bd58","ios":"levelo://app?vid=29832e81-b63f-44c3-a8ae-1ccbc505bd58"},"vehicle_type_id":"4","last_reported":1741864099,"current_range_meters":16800,"station_id":"ce4bhnh2rcd13ifvqgtg","pricing_plan_id":"cebpf4jnsgd1na2vs0mg"},{"bike_id":"0d90be93-9d27-4a0c-8914-d931173864b4","system_id":"levelo_inurba_marseille","lat":43.26933,"lon":5.38928,"is_reserved":false,"is_disabled":false,"rental_uris":{"android":"levelo://app?vid=0d90be93-9d27-4a0c-8914-d931173864b4","ios":"levelo://app?vid=0d90be93-9d27-4a0c-8914-d931173864b4"},"vehicle_type_id":"4","last_reported":1741864099,"current_range_meters":16400,"station_id":"ce4bhhh2rcd13ifvqfl0","pricing_plan_id":"cebpf4jnsgd1na2vs0mg"},{"bike_id":"594a33ea-5c85-49b0-893b-48b1f5e1011a","system_id":"levelo_inurba_marseille","lat":43.30959,"lon":5.40144,"is_reserved":false,"is_disabled":true,"rental_uris":{"android":"levelo://app?vid=594a33ea-5c85-49b0-893b-48b1f5e1011a","ios":"levelo://app?vid=594a33ea-5c85-49b0-893b-48b1f5e1011a"},"vehicle_type_id":"4","last_reported":1741864099,"current_range_meters":16800,"station_id":"ce4bgvp2rcd13ifvqct0","pricing_plan_id":"cebpf4jnsgd1na2vs0mg"},{"bike_id":"55ccb224-acdb-40c0-9250-20b5e51fc613","system_id":"levelo_inurba_marseille","lat":43.31252,"lon":5.36849,"is_reserved":false,"is_disabled":false,"rental_uris":{"android":"levelo://app?vid=55ccb224-acdb-40c0-9250-20b5e51fc613","ios":"levelo://app?vid=55ccb224-acdb-40c0-9250-20b5e51fc613"},"vehicle_type_id":"4","last_reported":1741864099,"current_range_meters":16800,"station_id":"ce4bgl92rcd13ifvqbq0","pricing_plan_id":"cebpf4jnsgd1na2vs0mg"},{"bike_id":"2a5ef00e-c400-47dc-bf9a-4a122a486851","system_id":"levelo_inurba_marseille","lat":43.22953,"lon":5.35371,"is_reserved":false,"is_disabled":false,"rental_uris":{"android":"levelo://app?vid=2a5ef00e-c400-47dc-bf9a-4a122a486851","ios":"levelo://app?vid=2a5ef00e-c400-47dc-bf9a-4a122a486851"},"vehicle_type_id":"4","last_reported":1741864099,"current_range_meters":16800,"station_id":"cpo3532slgdg3j2ikp40","pricing_plan_id":"cebpf4jnsgd1na2vs0mg"},{"bike_id":"1c506af3-16e6-4850-84ea-c167151748a4","system_id":"levelo_inurba_marseille","lat":43.276088,"lon":5.38417,"is_reserved":false,"is_disabled":false,"rental_uris":{"android":"levelo://app?vid=1c506af3-16e6-4850-84ea-c167151748a4","ios":"levelo://app?vid=1c506af3-16e6-4850-84ea-c167151748a4"},"vehicle_type_id":"4","last_reported":1741864099,"current_range_meters":16400,"station_id":"ce4bhh92rcd13ifvqfi0","pricing_plan_id":"cebpf4jnsgd1na2vs0mg"},{"bike_id":"01759a64-793e-4942-92f4-1c75f013d037","system_id":"levelo_inurba_marseille","lat":43.30577,"lon":5.36518,"is_reserved":false,"is_disabled":false,"rental_uris":{"android":"levelo://app?vid=01759a64-793e-4942-92f4-1c75f013d037","ios":"levelo://app?vid=01759a64-793e-4942-92f4-1c75f013d037"},"vehicle_type_id":"4","last_reported":1741864099,"current_range_meters":16800,"station_id":"ce4bgs12rcd13ifvqcag","pricing_plan_id":"cebpf4jnsgd1na2vs0mg"},{"bike_id":"f3efa0e1-bc75-4aaa-9c8e-b710ded92668","system_id":"levelo_inurba_marseille","lat":43.31708,"lon":5.37761,"is_reserved":false,"is_disabled":false,"rental_uris":{"android":"levelo://app?vid=f3efa0e1-bc75-4aaa-9c8e-b710ded92668","ios":"levelo://app?vid=f3efa0e1-bc75-4aaa-9c8e-b710ded92668"},"vehicle_type_id":"4","last_reported":1741864099,"current_range_meters":17200,"station_id":"ce4bgth2rcd13ifvqch0","pricing_plan_id":"cebpf4jnsgd1na2vs0mg"},{"bike_id":"31c7e4d8-cef8-47fb-94db-1051c8675070","system_id":"levelo_inurba_marseille","lat":43.31489,"lon":5.37285,"is_reserved":false,"is_disabled":false,"rental_uris":{"android":"levelo://app?vid=31c7e4d8-cef8-47fb-94db-1051c8675070","ios":"levelo://app?vid=31c7e4d8-cef8-47fb-94db-1051c8675070"},"vehicle_type_id":"4","last_reported":1741864099,"current_range_meters":17200,"station_id":"ce4bgt12rcd13ifvqcd0","pricing_plan_id":"cebpf4jnsgd1na2vs0mg"},{"bike_id":"bfd7251c-c331-4754-9846-0683c64847ed","system_id":"levelo_inurba_marseille","lat":43.29789,"lon":5.39346,"is_reserved":false,"is_disabled":false,"rental_uris":{"android":"levelo://app?vid=bfd7251c-c331-4754-9846-0683c64847ed","ios":"levelo://app?vid=bfd7251c-c331-4754-9846-0683c64847ed"},