{"last_updated":1713138937,"ttl":30,"version":"2.2","data":{"bikes":[{"bike_id":"8298515f-7768-4a82-b007-f2241231905f","system_id":"levelo_inurba_marseille","lat":43.312239,"lon":5.368562,"is_reserved":false,"is_disabled":false,"rental_uris":{"android":"levelo://app?vid=8298515f-7768-4a82-b007-f2241231905f","ios":"levelo://app?vid=8298515f-7768-4a82-b007-f2241231905f"},"vehicle_type_id":"4","last_reported":1713138937,"current_range_meters":24400,"station_id":"ce4bgl92rcd13ifvqbq0","pricing_plan_id":"cebpf4jnsgd1na2vs0mg"},{"bike_id":"3226bb2c-491b-43c4-9b43-ba477b559276","system_id":"levelo_inurba_marseille","lat":43.312239,"lon":5.368562,"is_reserved":false,"is_disabled":false,"rental_uris":{"android":"levelo://app?vid=3226bb2c-491b-43c4-9b43-ba477b559276","ios":"levelo://app?vid=3226bb2c-491b-43c4-9b43-ba477b559276"},"vehicle_type_id":"4","last_reported":1713138937,"current_range_meters":28000,"station_id":"ce4bgl92rcd13ifvqbq0","pricing_plan_id":"cebpf4jnsgd1na2vs0mg"},{"bike_id":"25a9c464-a7db-45b5-a455-02ffb8d5e0b7","system_id":"levelo_inurba_marseille","lat":43.312239,"lon":5.368562,"is_reserved":false,"is_disabled":false,"rental_uris":{"android":"levelo://app?vid=25a9c464-a7db-45b5-a455-02ffb8d5e0b7","ios":"levelo://app?vid=25a9c464-a7db-45b5-a455-02ffb8d5e0b7"},"vehicle_type_id":"4","last_reported":1713138937,"current_range_meters":29200,"station_id":"ce4bgl92rcd13ifvqbq0","pricing_plan_id":"cebpf4jnsgd1na2vs0mg"},{"bike_id":"e7c20e29-76ca-4ea1-8dbd-7b3d828bb5fd","system_id":"levelo_inurba_marseille","lat":43.312239,"lon":5.368562,"is_reserved":false,"is_disabled":false,"rental_uris":{"android":"levelo://app?vid=e7c20e29-76ca-4ea1-8dbd-7b3d828bb5fd","ios":"levelo://app?vid=e7c20e29-76ca-4ea1-8dbd-7b3d828bb5fd"},"vehicle_type_id":"4","last_reported":1713138937,"current_range_meters":0,"station_id":"ce4bgl92rcd13ifvqbq0","pricing_plan_id":"cebpf4jnsgd1na2vs0mg"},{"bike_id":"28b7c5dd-f913-4dbf-b06a-322ebd1d4644","system_id":"levelo_inurba_marseille","lat":43.312239,"lon":5.368562,"is_reserved":false,"is_disabled":false,"rental_uris":{"android":"levelo://app?vid=28b7c5dd-f913-4dbf-b06a-322ebd1d4644","ios":"levelo://app?vid=28b7c5dd-f913-4dbf-b06a-322ebd1d4644"},"vehicle_type_id":"4","last_reported":1713138937,"current_range_meters":31200,"station_id":"ce4bgl92rcd13ifvqbq0","pricing_plan_id":"cebpf4jnsgd1na2vs0mg"},{"bike_id":"0401cdb1-f1e4-4f41-a9f3-2e9ff814922e","system_id":"levelo_inurba_marseille","lat":43.312239,"lon":5.368562,"is_reserved":false,"is_disabled":false,"rental_uris":{"android":"levelo://app?vid=0401cdb1-f1e4-4f41-a9f3-2e9ff814922e","ios":"levelo://app?vid=0401cdb1-f1e4-4f41-a9f3-2e9ff814922e"},"vehicle_type_id":"4","last_reported":1713138937,"current_range_meters":9200,"station_id":"ce4bgl92rcd13ifvqbq0","pricing_plan_id":"cebpf4jnsgd1na2vs0mg"},{"bike_id":"213b4123-68c1-44b7-b315-3afa42dec3a5","system_id":"levelo_inurba_marseille","lat":43.309076,"lon":5.368465,"is_reserved":false,"is_disabled":false,"rental_uris":{"android":"levelo://app?vid=213b4123-68c1-44b7-b315-3afa42dec3a5","ios":"levelo://app?vid=213b4123-68c1-44b7-b315-3afa42dec3a5"},"vehicle_type_id":"4","last_reported":1713138937,"current_range_meters":27200,"station_id":"ce4bgn92rcd13ifvqbvg","pricing_plan_id":"cebpf4jnsgd1na2vs0mg"},{"bike_id":"858700f9-cc67-4995-b686-114a4e816714","system_id":"levelo_inurba_marseille","lat":43.309076,"lon":5.368465,"is_reserved":false,"is_disabled":false,"rental_uris":{"android":"levelo://app?vid=858700f9-cc67-4995-b686-114a4e816714","ios":"levelo://app?vid=858700f9-cc67-4995-b686-114a4e816714"},"vehicle_type_id":"4","last_reported":1713138937,"current_range_meters":26000,"station_id":"ce4bgn92rcd13ifvqbvg","pricing_plan_id":"cebpf4jnsgd1na2vs0mg"},{"bike_id":"ff05ef07-bba0-4671-a97b-168e93a2f975","system_id":"levelo_inurba_marseille","lat":43.314811,"lon":5.373103,"is_reserved":false,"is_disabled":false,"rental_uris":{"android":"levelo://app?vid=ff05ef07-bba0-4671-a97b-168e93a2f975","ios":"levelo://app?vid=ff05ef07-bba0-4671-a97b-168e93a2f975"},"vehicle_type_id":"4","last_reported":1713138937,"current_range_meters":13200,"station_id":"ce4bgt12rcd13ifvqcd0","pricing_plan_id":"cebpf4jnsgd1na2vs0mg"},{"bike_id":"6c9f3643-f972-4c27-858a-4a37821a524b","system_id":"levelo_inurba_marseille","lat":43.314811,"lon":5.373103,"is_reserved":false,"is_disabled":false,"rental_uris":{"android":"levelo://app?vid=6c9f3643-f972-4c27-858a-4a37821a524b","ios":"levelo://app?vid=6c9f3643-f972-4c27-858a-4a37821a524b"},"vehicle_type_id":"4","last_reported":1713138937,"current_range_meters":22400,"station_id":"ce4bgt12rcd13ifvqcd0","pricing_plan_id":"cebpf4jnsgd1na2vs0mg"},{"bike_id":"8330e7a7-7c5b-4541-8c78-0429481e8bff","system_id":"levelo_inurba_marseille","lat":43.314811,"lon":5.373103,"is_reserved":false,"is_disabled":false,"rental_uris":{"android":"levelo://app?vid=8330e7a7-7c5b-4541-8c78-0429481e8bff","ios":"levelo://app?vid=8330e7a7-7c5b-4541-8c78-0429481e8bff"},"vehicle_type_id":"4","last_reported":1713138937,"current_range_meters":6800,"station_id":"ce4bgt12rcd13ifvqcd0","pricing_plan_id":"cebpf4jnsgd1na2vs0mg"},{"bike_id":"c0c4b0de-710d-4d24-9bc3-9ff08f4d7b59","system_id":"levelo_inurba_marseille","lat":43.314811,"lon":5.373103,"is_reserved":false,"is_disabled":false,"rental_uris":{"android":"levelo://app?vid=c0c4b0de-710d-4d24-9bc3-9ff08f4d7b59","ios":"levelo://app?vid=c0c4b0de-710d-4d24-9bc3-9ff08f4d7b59"},"vehicle_type_id":"4","last_reported":1713138937,"current_range_meters":0,"station_id":"ce4bgt12rcd13ifvqcd0","pricing_plan_id":"cebpf4jnsgd1na2vs0mg"},{"bike_id":"3ce637b3-02ca-4b99-8429-f5d314a0dd2d","system_id":"levelo_inurba_marseille","lat":43.314811,"lon":5.373103,"is_reserved":false,"is_disabled":false,"rental_uris":{"android":"levelo://app?vid=3ce637b3-02ca-4b99-8429-f5d314a0dd2d","ios":"levelo://app?vid=3ce637b3-02ca-4b99-8429-f5d314a0dd2d"},"vehicle_type_id":"4","last_reported":1713138937,"current_range_meters":8800,"station_id":"ce4bgt12rcd13ifvqcd0","pricing_plan_id":"cebpf4jnsgd1na2vs0mg"},{"bike_id":"8948debf-1d60-41b0-88f4-143e29d2c8ca","system_id":"levelo_inurba_marseille","lat":43.314811,"lon":5.373103,"is_reserved":false,"is_disabled":false,"rental_uris":{"android":"levelo://app?vid=8948debf-1d60-41b0-88f4-143e29d2c8ca","ios":"levelo://app?vid=8948debf-1d60-41b0-88f4-143e29d2c8ca"},"vehicle_type_id":"4","last_reported":1713138937,"current_range_meters":25200,"station_id":"ce4bgt12rcd13ifvqcd0","pricing_plan_id":"cebpf4jnsgd1na2vs0mg"},{"bike_id":"7f5185b2-a24b-46a7-9433-dfdc74ac15d3","system_id":"levelo_inurba_marseille","lat":43.314811,"lon":5.373103,"is_reserved":false,"is_disabled":false,"rental_uris":{"android":"levelo://app?vid=7f5185b2-a24b-46a7-9433-dfdc74ac15d3","ios":"levelo://app?vid=7f5185b2-a24b-46a7-9433-dfdc74ac15d3"},"vehicle_type_id":"4","last_reported":1713138937,"current_range_meters":29200,"station_id":"ce4bgt12rcd13ifvqcd0","pricing_plan_id":"cebpf4jnsgd1na2vs0mg"},{"bike_id":"f329939a-24bb-40af-b789-06ca543cd84c","system_id":"levelo_inurba_marseille","lat":43.309039,"lon":5.371797,"is_reserved":false,"is_disabled":false,"rental_uris":{"android":"levelo://app?vid=f329939a-24bb-40af-b789-06ca543cd84c","ios":"levelo://app?vid=f329939a-24bb-40af-b789-06ca543cd84c"},"vehicle_type_id":"4","last_reported":1713138937,"current_range_meters":14800,"station_id":"ce4bguh2rcd13ifvqckg","pricing_plan_id":"cebpf4jnsgd1na2vs0mg"},{"bike_id":"5fd290ad-28ce-4b74-9d1d-edcd8ce37beb","system_id":"levelo_inurba_marseille","lat":43.309039,"lon":5.371797,"is_reserved":false,"is_disabled":false,"rental_uris":{"android":"levelo://app?vid=5fd290ad-28ce-4b74-9d1d-edcd8ce37beb","ios":"levelo://app?vid=5fd290ad-28ce-4b74-9d1d-edcd8ce37beb"},"vehicle_type_id":"4","last_reported":1713138937,"current_range_meters":31600,"station_id":"ce4bguh2rcd13ifvqckg","pricing_plan_id":"cebpf4jnsgd1na2vs0mg"},{"bike_id":"9fad8614-1ead-4651-9e58-eddebf7675bd","system_id":"levelo_inurba_marseille","lat":43.30598,"lon":5.37216,"is_reserved":false,"is_disabled":false,"rental_uris":{"android":"levelo://app?vid=9fad8614-1ead-4651-9e58-eddebf7675bd","ios":"levelo://app?vid=9fad8614-1ead-4651-9e58-eddebf7675bd"},"vehicle_type_id":"4","last_reported":1713138937,"current_range_meters":0,"station_id":"ce4bgqh2rcd13ifvqc4g","pricing_plan_id":"cebpf4jnsgd1na2vs0mg"},{"bike_id":"427d749e-48a3-40f1-999f-b1f82efa3bdd","system_id":"levelo_inurba_marseille","lat":43.305989,"lon":5.37225,"is_reserved":false,"is_disabled":false,"rental_uris":{"android":"levelo://app?vid=427d749e-48a3-40f1-999f-b1f82efa3bdd","ios":"levelo://app?vid=427d749e-48a3-40f1-999f-b1f82efa3bdd"},"vehicle_type_id":"4","last_reported":1713138937,"current_range_meters":16800,"station_id":"ce4bgqh2rcd13ifvqc4g","pricing_plan_id":"cebpf4jnsgd1na2vs0mg"},{"bike_id":"f17467a2-ba98-4907-bb0b-408ab381cec0","system_id":"levelo_inurba_marseille","lat":43.311175,"lon":5.377621,"is_reserved":false,"is_disabled":false,"rental_uris":{"android":"levelo://app?vid=f17467a2-ba98-4907-bb0b-408ab381cec0","ios":"levelo://app?vid=f17467a2-ba98-4907-bb0b-408ab381cec0"},"vehicle_type_id":"4","last_reported":1713138937,"current_range_meters":0,"station_id":"ce4bgt92rcd13ifvqcg0","pricing_plan_id":"cebpf4jnsgd1na2vs0mg"},{"bike_id":"01776c57-9d03-4392-90b8-411003d530d7","system_id":"levelo_inurba_marseille","lat":43.311125,"lon":5.377624,"is_reserved":false,"is_disabled":false,"rental_uris":{"android":"levelo://app?vid=01776c57-9d03-4392-90b8-411003d530d7","ios":"levelo://app?vid=01776c57-9d03-4392-90b8-411003d530d7"},"vehicle_type_id":"4","last_reported":1713138937,"current_range_meters":9600,"station_id":"ce4bgt92rcd13ifvqcg0","pricing_plan_id":"cebpf4jnsgd1na2vs0mg"},{"bike_id":"3b498bd7-e5f5-473c-8929-cbef1bd0cd28","system_id":"levelo_inurba_marseille","lat":43.311125,"lon":5.377624,"is_reserved":false,"is_disabled":false,"rental_uris":{"android":"levelo://app?vid=3b498bd7-e5f5-473c-8929-cbef1bd0cd28","ios":"levelo://app?vid=3b498bd7-e5f5-473c-8929-cbef1bd0cd28"},"vehicle_type_id":"4","last_reported":1713138937,"current_range_meters":12400,"station_id":"ce4bgt92rcd13ifvqcg0","pricing_plan_id":"cebpf4jnsgd1na2vs0mg"},{"bike_id":"81ea1be4-6a92-4bfd-8c5d-046f19213d34","system_id":"levelo_inurba_marseille","lat":43.311131,"lon":5.377651,"is_reserved":false,"is_disabled":false,"rental_uris":{"android":"levelo://app?vid=81ea1be4-6a92-4bfd-8c5d-046f19213d34","ios":"levelo://app?vid=81ea1be4-6a92-4bfd-8c5d-046f19213d34"},"vehicle_type_id":"4","last_reported":1713138937,"current_range_meters":9600,"station_id":"ce4bgt92rcd13ifvqcg0","pricing_plan_id":"cebpf4jnsgd1na2vs0mg"},{"bike_id":"7b4ef505-e7b4-49bf-9533-362565f68d2c","system_id":"levelo_inurba_marseille","lat":43.311125,"lon":5.377624,"is_reserved":false,"is_disabled":false,"rental_uris":{"android":"levelo://app?vid=7b4ef505-e7b4-49bf-9533-362565f68d2c","ios":"levelo://app?vid=7b4ef505-e7b4-49bf-9533-362565f68d2c"},"vehicle_type_id":"4","last_reported":1713138937,"current_range_meters":15600,"station_id":"ce4bgt92rcd13ifvqcg0","pricing_plan_id":"cebpf4jnsgd1na2vs0mg"},{"bike_id":"1754d673-bd27-40b6-aadc-f0b7a59f3000","system_id":"levelo_inurba_marseille","lat":43.307945,"lon":5.376487,"is_reserved":false,"is_disabled":false,"rental_uris":{"android":"levelo://app?vid=1754d673-bd27-40b6-aadc-f0b7a59f3000","ios":"levelo://app?vid=1754d673-bd27-40b6-aadc-f0b7a59f3000"},"vehicle_type_id":"4","last_reported":1713138937,"current_range_meters":14400,"station_id":"ce4bgv92rcd13ifvqcq0","pricing_plan_id":"cebpf4jnsgd1na2vs0mg"},{"bike_id":"80ad7444-3e0f-4c2b-a1e7-477d0edeffde","system_id":"levelo_inurba_marseille","lat":43.30788,"lon":5.37649,"is_reserved":false,"is_disabled":false,"rental_uris":{"android":"levelo://app?vid=80ad7444-3e0f-4c2b-a1e7-477d0edeffde","ios":"levelo://app?vid=80ad7444-3e0f-4c2b-a1e7-477d0edeffde"},"vehicle_type_id":"4","last_reported":1713138937,"current_range_meters":2800,"station_id":"ce4bgv92rcd13ifvqcq0","pricing_plan_id":"cebpf4jnsgd1na2vs0mg"},{"bike_id":"3d8ef5da-9b33-4cc7-8530-f424d53b9f63","system_id":"levelo_inurba_marseille","lat":43.307945,"lon":5.376487,"is_reserved":false,"is_disabled":false,"rental_uris":{"android":"levelo://app?vid=3d8ef5da-9b33-4cc7-8530-f424d53b9f63","ios":"levelo://app?vid=3d8ef5da-9b33-4cc7-8530-f424d53b9f63"},"vehicle_type_id":"4","last_reported":1713138937,"current_range_meters":30000,"station_id":"ce4bgv92rcd13ifvqcq0","pricing_plan_id":"cebpf4jnsgd1na2vs0mg"},{"bike_id":"75168ffd-32ad-4466-b8fc-9339987a6662","system_id":"levelo_inurba_marseille","lat":43.307945,"lon":5.376487,"is_reserved":false,"is_disabled":false,"rental_uris":{"android":"levelo://app?vid=75168ffd-32ad-4466-b8fc-9339987a6662","ios":"levelo://app?vid=75168ffd-32ad-4466-b8fc-9339987a6662"},"vehicle_type_id":"4","last_reported":1713138937,"current_range_meters":28400,"station_id":"ce4bgv92rcd13ifvqcq0","pricing_plan_id":"cebpf4jnsgd1na2vs0mg"},{"bike_id":"eaa51540-b9eb-433f-a560-fdff0ff5680b","system_id":"levelo_inurba_marseille","lat":43.307945,"lon":5.376487,"is_reserved":false,"is_disabled":false,"rental_uris":{"android":"levelo://app?vid=eaa51540-b9eb-433f-a560-fdff0ff5680b","ios":"levelo://app?vid=eaa51540-b9eb-433f-a560-fdff0ff5680b"},"vehicle_type_id":"4","last_reported":1713138937,"current_range_meters":14000,"station_id":"ce4bgv92rcd13ifvqcq0","pricing_plan_id":"cebpf4jnsgd1na2vs0mg"},{"bike_id":"185371c7-1d02-4bb3-ad1a-f86cd7c41642","system_id":"levelo_inurba_marseille","lat":43.30781,"lon":5.37654,"is_reserved":false,"is_disabled":false,"rental_uris":{"android":"levelo://app?vid=185371c7-1d02-4bb3-ad1a-f86cd7c41642","ios":"levelo://app?vid=185371c7-1d02-4bb3-ad1a-f86cd7c41642"},"vehicle_type_id":"4","last_reported":1713138937,"current_range_meters":26800,"station_id":"ce4bgv92rcd13ifvqcq0","pricing_plan_id":"cebpf4jnsgd1na2vs0mg"},{"bike_id":"a7451491-3b14-4025-9681-107f53f309a5","system_id":"levelo_inurba_marseille","lat":43.307945,"lon":5.376487,"is_reserved":false,"is_disabled":false,"rental_uris":{"android":"levelo://app?vid=a7451491-3b14-4025-9681-107f53f309a5","ios":"levelo://app?vid=a7451491-3b14-4025-9681-107f53f309a5"},"vehicle_type_id":"4","last_reported":1713138937,"current_range_meters":19600,"station_id":"ce4bgv92rcd13ifvqcq0","pricing_plan_id":"cebpf4jnsgd1na2vs0mg"},{"bike_id":"efc1dc9d-e44c-4443-9029-4f581175be28","system_id":"levelo_inurba_marseille","lat":43.30779,"lon":5.37658,"is_reserved":false,"is_disabled":false,"rental_uris":{"android":"levelo://app?vid=efc1dc9d-e44c-4443-9029-4f581175be28","ios":"levelo://app?vid=efc1dc9d-e44c-4443-9029-4f581175be28"},"vehicle_type_id":"4","last_reported":1713138937,"current_range_meters":19600,"station_id":"ce4bgv92rcd13ifvqcq0","pricing_plan_id":"cebpf4jnsgd1na2vs0mg"},{"bike_id":"aadbccef-222d-4f5b-92fe-1cd6886eb4a0","system_id":"levelo_inurba_marseille","lat":43.317242,"lon":5.377362,"is_reserved":false,"is_disabled":false,"rental_uris":{"android":"levelo://app?vid=aadbccef-222d-4f5b-92fe-1cd6886eb4a0","ios":"levelo://app?vid=aadbccef-222d-4f5b-92fe-1cd6886eb4a0"},"vehicle_type_id":"4","last_reported":1713138937,"current_range_meters":10400,"station_id":"ce4bgth2rcd13ifvqch0","pricing_plan_id":"cebpf4jnsgd1na2vs0mg"},{"bike_id":"07b467df-e767-4512-a1ea-657bf0965d8b","system_id":"levelo_inurba_marseille","lat":43.317052,"lon":5.377541,"is_reserved":false,"is_disabled":false,"rental_uris":{"android":"levelo://app?vid=07b467df-e767-4512-a1ea-657bf0965d8b","ios":"levelo://app?vid=07b467df-e767-4512-a1ea-657bf0965d8b"},"vehicle_type_id":"4","last_reported":1713138937,"current_range_meters":0,"station_id":"ce4bgth2rcd13ifvqch0","pricing_plan_id":"cebpf4jnsgd1na2vs0mg"},{"bike_id":"9080f4ad-4368-415f-8710-3f478d17e7fa","system_id":"levelo_inurba_marseille","lat":43.317075,"lon":5.377367,"is_reserved":false,"is_disabled":false,"rental_uris":{"android":"levelo://app?vid=9080f4ad-4368-415f-8710-3f478d17e7fa","ios":"levelo://app?vid=9080f4ad-4368-415f-8710-3f478d17e7fa"},"vehicle_type_id":"4","last_reported":1713138937,"current_range_meters":26000,"station_id":"ce4bgth2rcd13ifvqch0","pricing_plan_id":"cebpf4jnsgd1na2vs0mg"},{"bike_id":"cec882d6-b32e-42df-a255-22db5de8c76c","system_id":"levelo_inurba_marseille","lat":43.303046,"lon":5.368981,"is_reserved":false,"is_disabled":false,"rental_uris":{"android":"levelo://app?vid=cec882d6-b32e-42df-a255-22db5de8c76c","ios":"levelo://app?vid=cec882d6-b32e-42df-a255-22db5de8c76c"},"vehicle_type_id":"4","last_reported":1713138937,"current_range_meters":19200,"station_id":"ce4bgqh2rcd13ifvqc5g","pricing_plan_id":"cebpf4jnsgd1na2vs0mg"},{"bike_id":"05d2fe34-6cb1-413b-bf95-97c9c32a0d86","system_id":"levelo_inurba_marseille","lat":43.303046,"lon":5.368981,"is_reserved":false,"is_disabled":false,"rental_uris":{"android":"levelo://app?vid=05d2fe34-6cb1-413b-bf95-97c9c32a0d86","ios":"levelo://app?vid=05d2fe34-6cb1-413b-bf95-97c9c32a0d86"},"vehicle_type_id":"4","last_reported":1713138937,"current_range_meters":4000,"station_id":"ce4bgqh2rcd13ifvqc5g","pricing_plan_id":"cebpf4jnsgd1na2vs0mg"},{"bike_id":"904de407-5b94-4e4c-b270-01855584c371","system_id":"levelo_inurba_marseille","lat":43.303046,"lon":5.368981,"is_reserved":false,"is_disabled":false,"rental_uris":{"android":"levelo://app?vid=904de407-5b94-4e4c-b270-01855584c371","ios":"levelo://app?vid=904de407-5b94-4e4c-b270-01855584c371"},"vehicle_type_id":"4","last_reported":1713138937,"current_range_meters":26000,"station_id":"ce4bgqh2rcd13ifvqc5g","pricing_plan_id":"cebpf4jnsgd1na2vs0mg"},{"bike_id":"e52b5482-3e34-4baa-81f3-a98766bd1939","system_id":"levelo_inurba_marseille","lat":43.303046,"lon":5.368981,"is_reserved":false,"is_disabled":false,"rental_uris":{"android":"levelo://app?vid=e52b5482-3e34-4baa-81f3-a98766bd1939","ios":"levelo://app?vid=e52b5482-3e34-4baa-81f3-a98766bd1939"},"vehicle_type_id":"4","last_reported":1713138937,"current_range_meters":30400,"station_id":"ce4bgqh2rcd13ifvqc5g","pricing_plan_id":"cebpf4jnsgd1na2vs0mg"},{"bike_id":"59ac25bf-4af7-4ab7-971f-8fe1cdbf01e5","system_id":"levelo_inurba_marseille","lat":43.303046,"lon":5.368981,"is_reserved":false,"is_disabled":false,"rental_uris":{"android":"levelo://app?vid=59ac25bf-4af7-4ab7-971f-8fe1cdbf01e5","ios":"levelo://app?vid=59ac25bf-4af7-4ab7-971f-8fe1cdbf01e5"},"vehicle_type_id":"4","last_reported":1713138937,"current_range_meters":29600,"station_id":"ce4bgqh2rcd13ifvqc5g","pricing_plan_id":"cebpf4jnsgd1na2vs0mg"},{"bike_id":"c3264234-984b-415b-90d0-b2e6b0b7c1a7","system_id":"levelo_inurba_marseille","lat":43.303046,"lon":5.368981,"is_reserved":false,"is_disabled":false,"rental_uris":{"android":"levelo://app?vid=c3264234-984b-415b-90d0-b2e6b0b7c1a7","ios":"levelo://app?vid=c3264234-984b-415b-90d0-b2e6b0b7c1a7"},"vehicle_type_id":"4","last_reported":1713138937,"current_range_meters":28800,"station_id":"ce4bgqh2rcd13ifvqc5g","pricing_plan_id":"cebpf4jnsgd1na2vs0mg"},{"bike_id":"ef58c0af-6bfc-46a5-a688-f228b8d18a5c","system_id":"levelo_inurba_marseille","lat":43.303046,"lon":5.368981,"is_reserved":false,"is_disabled":false,"rental_uris":{"android":"levelo://app?vid=ef58c0af-6bfc-46a5-a688-f228b8d18a5c","ios":"levelo://app?vid=ef58c0af-6bfc-46a5-a688-f228b8d18a5c"},"vehicle_type_id":"4","last_reported":1713138937,"current_range_meters":24000,"station_id":"ce4bgqh2rcd13ifvqc5g","pricing_plan_id":"cebpf4jnsgd1na2vs0mg"},{"bike_id":"f85d2b13-13a8-4876-a724-7a9dc27ba459","system_id":"levelo_inurba_marseille","lat":43.315289,"lon":5.380349,"is_reserved":false,"is_disabled":false,"rental_uris":{"android":"levelo://app?vid=f85d2b13-13a8-4876-a724-7a9dc27ba459","ios":"levelo://app?vid=f85d2b13-13a8-4876-a724-7a9dc27ba459"},"vehicle_type_id":"4","last_reported":1713138937,"current_range_meters":0,"station_id":"ce4bhsp2rcd13ifvqi50","pricing_plan_id":"cebpf4jnsgd1na2vs0mg"},{"bike_id":"e7dd73c6-9055-4f6f-8851-9bff8120175a","system_id":"levelo_inurba_marseille","lat":43.31531,"lon":5.38029,"is_reserved":false,"is_disabled":false,"rental_uris":{"android":"levelo://app?vid=e7dd73c6-9055-4f6f-8851-9bff8120175a","ios":"levelo://app?vid=e7dd73c6-9055-4f6f-8851-9bff8120175a"},"vehicle_type_id":"4","last_reported":1713138937,"current_range_meters":14800,"station_id":"ce4bhsp2rcd13ifvqi50","pricing_plan_id":"cebpf4jnsgd1na2vs0mg"},{"bike_id":"31e2ca05-661e-430d-b4a5-6b01d58f3561","system_id":"levelo_inurba_marseille","lat":43.315279,"lon":5.380309,"is_reserved":false,"is_disabled":false,"rental_uris":{"android":"levelo://app?vid=31e2ca05-661e-430d-b4a5-6b01d58f3561","ios":"levelo://app?vid=31e2ca05-661e-430d-b4a5-6b01d58f3561"},"vehicle_type_id":"4","last_reported":1713138937,"current_range_meters":24800,"station_id":"ce4bhsp2rcd13ifvqi50","pricing_plan_id":"cebpf4jnsgd1na2vs0mg"},{"bike_id":"6068685b-008a-459a-80fa-85c36c23efe5","system_id":"levelo_inurba_marseille","lat":43.315293,"lon":5.380349,"is_reserved":false,"is_disabled":false,"rental_uris":{"android":"levelo://app?vid=6068685b-008a-459a-80fa-85c36c23efe5","ios":"levelo://app?vid=6068685b-008a-459a-80fa-85c36c23efe5"},"vehicle_type_id":"4","last_reported":1713138937,"current_range_meters":28400,"station_id":"ce4bhsp2rcd13ifvqi50","pricing_plan_id":"cebpf4jnsgd1na2vs0mg"},{"bike_id":"b19f98f9-9208-44ca-b961-a53c8c09c472","system_id":"levelo_inurba_marseille","lat":43.31531,"lon":5.380331,"is_reserved":false,"is_disabled":false,"rental_uris":{"android":"levelo://app?vid=b19f98f9-9208-44ca-b961-a53c8c09c472","ios":"levelo://app?vid=b19f98f9-9208-44ca-b961-a53c8c09c472"},"vehicle_type_id":"4","last_reported":1713138937,"current_range_meters":24800,"station_id":"ce4bhsp2rcd13ifvqi50","pricing_plan_id":"cebpf4jnsgd1na2vs0mg"},{"bike_id":"14bdbe21-39c0-4d28-a9a3-f3c49736a881","system_id":"levelo_inurba_marseille","lat":43.315293,"lon":5.380349,"is_reserved":false,"is_disabled":false,"rental_uris":{"android":"levelo://app?vid=14bdbe21-39c0-4d28-a9a3-f3c49736a881","ios":"levelo://app?vid=14bdbe21-39c0-4d28-a9a3-f3c49736a881"},"vehicle_type_id":"4","last_reported":1713138937,"current_range_meters":31600,"station_id":"ce4bhsp2rcd13ifvqi50","pricing_plan_id":"cebpf4jnsgd1na2vs0mg"},{"bike_id":"5d5aacc9-7b40-4ba7-bec1-aef7f5043582","system_id":"levelo_inurba_marseille","lat":43.315293,"lon":5.380349,"is_reserved":false,"is_disabled":false,"rental_uris":{"android":"levelo://app?vid=5d5aacc9-7b40-4ba7-bec1-aef7f5043582","ios":"levelo://app?vid=5d5aacc9-7b40-4ba7-bec1-aef7f5043582"},"vehicle_type_id":"4","last_reported":1713138937,"current_range_meters":26400,"station_id":"ce4bhsp2rcd13ifvqi50","pricing_plan_id":"cebpf4jnsgd1na2vs0mg"},{"bike_id":"c973c696-6cf3-4ef6-9922-20142626237f","system_id":"levelo_inurba_marseille","lat":43.30282,"lon":5.37259,"is_reserved":false,"is_disabled":false,"rental_uris":{"android":"levelo://app?vid=c973c696-6cf3-4ef6-9922-20142626237f","ios":"levelo://app?vid=c973c696-6cf3-4ef6-9922-20142626237f"},"vehicle_type_id":"4","last_reported":1713138937,"current_range_meters":9600,"station_id":"","pricing_plan_id":"cebpf4jnsgd1na2vs0mg"},{"bike_id":"4c18619c-17b2-4d41-8d5c-f32e6c33b10f","system_id":"levelo_inurba_marseille","lat":43.301939,"lon":5.366286,"is_reserved":false,"is_disabled":false,"rental_uris":{"android":"levelo://app?vid=4c18619c-17b2-4d41-8d5c-f32e6c33b10f","ios":"levelo://app?vid=4c18619c-17b2-4d41-8d5c-f32e6c33b10f"},"vehicle_type_id":"4","last_reported":1713138937,"current_range_meters":28800,"station_id":"ce4bgrh2rcd13ifvqc8g","pricing_plan_id":"cebpf4jnsgd1na2vs0mg"},{"bike_id":"0ccfee13-3cc6-40b5-9fc4-082407578c89","system_id":"levelo_inurba_marseille","lat":43.308012,"lon":5.381511,"is_reserved":false,"is_disabled":false,"rental_uris":{"android":"levelo://app?vid=0ccfee13-3cc6-40b5-9fc4-082407578c89","ios":"levelo://app?vid=0ccfee13-3cc6-40b5-9fc4-082407578c89"},"vehicle_type_id":"4","last_reported":1713138937,"current_range_meters":20800,"station_id":"ce4bgt12rcd13ifvqce0","pricing_plan_id":"cebpf4jnsgd1na2vs0mg"},{"bike_id":"d8c97fee-6ca0-49f4-b553-86d6ab369210","system_id":"levelo_inurba_marseille","lat":43.308012,"lon":5.381511,"is_reserved":false,"is_disabled":false,"rental_uris":{"android":"levelo://app?vid=d8c97fee-6ca0-49f4-b553-86d6ab369210","ios":"levelo://app?vid=d8c97fee-6ca0-49f4-b553-86d6ab369210"},"vehicle_type_id":"4","last_reported":1713138937,"current_range_meters":21200,"station_id":"ce4bgt12rcd13ifvqce0","pricing_plan_id":"cebpf4jnsgd1na2vs0mg"},{"bike_id":"5fdded2d-9264-49ae-9357-cd52969dd0d4","system_id":"levelo_inurba_marseille","lat":43.308012,"lon":5.381511,"is_reserved":false,"is_disabled":false,"rental_uris":{"android":"levelo://app?vid=5fdded2d-9264-49ae-9357-cd52969dd0d4","ios":"levelo://app?vid=5fdded2d-9264-49ae-9357-cd52969dd0d4"},"vehicle_type_id":"4","last_reported":1713138937,"current_range_meters":22400,"station_id":"ce4bgt12rcd13ifvqce0","pricing_plan_id":"cebpf4jnsgd1na2vs0mg"},{"bike_id":"95458dd7-a0d8-480b-8de3-5369e574698d","system_id":"levelo_inurba_marseille","lat":43.308012,"lon":5.381511,"is_reserved":false,"is_disabled":false,"rental_uris":{"android":"levelo://app?vid=95458dd7-a0d8-480b-8de3-5369e574698d","ios":"levelo://app?vid=95458dd7-a0d8-480b-8de3-5369e574698d"},"vehicle_type_id":"4","last_reported":1713138937,"current_range_meters":29600,"station_id":"ce4bgt12rcd13ifvqce0","pricing_plan_id":"cebpf4jnsgd1na2vs0mg"},{"bike_id":"3661b964-887f-4d76-b1c2-569178bdfa41","system_id":"levelo_inurba_marseille","lat":43.308012,"lon":5.381511,"is_reserved":false,"is_disabled":false,"rental_uris":{"android":"levelo://app?vid=3661b964-887f-4d76-b1c2-569178bdfa41","ios":"levelo://app?vid=3661b964-887f-4d76-b1c2-569178bdfa41"},"vehicle_type_id":"4","last_reported":1713138937,"current_range_meters":16400,"station_id":"ce4bgt12rcd13ifvqce0","pricing_plan_id":"cebpf4jnsgd1na2vs0mg"},{"bike_id":"0d402de5-3f51-4f86-b43d-1f87b91048da","system_id":"levelo_inurba_marseille","lat":43.308012,"lon":5.381511,"is_reserved":false,"is_disabled":false,"rental_uris":{"android":"levelo://app?vid=0d402de5-3f51-4f86-b43d-1f87b91048da","ios":"levelo://app?vid=0d402de5-3f51-4f86-b43d-1f87b91048da"},"vehicle_type_id":"4","last_reported":1713138937,"current_range_meters":31600,"station_id":"ce4bgt12rcd13ifvqce0","pricing_plan_id":"cebpf4jnsgd1na2vs0mg"},{"bike_id":"4f967a15-858a-4535-94db-fbb6a2e80652","system_id":"levelo_inurba_marseille","lat":43.304606,"lon":5.379026,"is_reserved":false,"is_disabled":false,"rental_uris":{"android":"levelo://app?vid=4f967a15-858a-4535-94db-fbb6a2e80652","ios":"levelo://app?vid=4f967a15-858a-4535-94db-fbb6a2e80652"},"vehicle_type_id":"4","last_reported":1713138937,"current_range_meters":25200,"station_id":"ce4bgup2rcd13ifvqcn0","pricing_plan_id":"cebpf4jnsgd1na2vs0mg"},{"bike_id":"3455baf2-64ba-4c27-aeb1-1e29db9e24ca","system_id":"levelo_inurba_marseille","lat":43.310804,"lon":5.38359,"is_reserved":false,"is_disabled":false,"rental_uris":{"android":"levelo://app?vid=3455baf2-64ba-4c27-aeb1-1e29db9e24ca","ios":"levelo://app?vid=3455baf2-64ba-4c27-aeb1-1e29db9e24ca"},"vehicle_type_id":"4","last_reported":1713138937,"current_range_meters":0,"station_id":"ce4bgv92rcd13ifvqcr0","pricing_plan_id":"cebpf4jnsgd1na2vs0mg"},{"bike_id":"1c2e069b-0888-4eec-a82f-0880eac90a1c","system_id":"levelo_inurba_marseille","lat":43.31078,"lon":5.38354,"is_reserved":false,"is_disabled":false,"rental_uris":{"android":"levelo://app?vid=1c2e069b-0888-4eec-a82f-0880eac90a1c","ios":"levelo://app?vid=1c2e069b-0888-4eec-a82f-0880eac90a1c"},"vehicle_type_id":"4","last_reported":1713138937,"current_range_meters":0,"station_id":"ce4bgv92rcd13ifvqcr0","pricing_plan_id":"cebpf4jnsgd1na2vs0mg"},{"bike_id":"41b03823-e898-427c-8c8b-1b4bd35b40e9","system_id":"levelo_inurba_marseille","lat":43.310804,"lon":5.38359,"is_reserved":false,"is_disabled":false,"rental_uris":{"android":"levelo://app?vid=41b03823-e898-427c-8c8b-1b4bd35b40e9","ios":"levelo://app?vid=41b03823-e898-427c-8c8b-1b4bd35b40e9"},"vehicle_type_id":"4","last_reported":1713138937,"current_range_meters":11600,"station_id":"ce4bgv92rcd13ifvqcr0","pricing_plan_id":"cebpf4jnsgd1na2vs0mg"},{"bike_id":"61105261-3143-4aa0-a670-5211d176525e","system_id":"levelo_inurba_marseille","lat":43.310804,"lon":5.38359,"is_reserved":false,"is_disabled":false,"rental_uris":{"android":"levelo://app?vid=61105261-3143-4aa0-a670-5211d176525e","ios":"levelo://app?vid=61105261-3143-4aa0-a670-5211d176525e"},"vehicle_type_id":"4","last_reported":1713138937,"current_range_meters":0,"station_id":"ce4bgv92rcd13ifvqcr0","pricing_plan_id":"cebpf4jnsgd1na2vs0mg"},{"bike_id":"816efb47-a789-4117-8b3c-965208fb7650","system_id":"levelo_inurba_marseille","lat":43.302784,"lon":5.377158,"is_reserved":false,"is_disabled":false,"rental_uris":{"android":"levelo://app?vid=816efb47-a789-4117-8b3c-965208fb7650","ios":"levelo://app?vid=816efb47-a789-4117-8b3c-965208fb7650"},"vehicle_type_id":"4","last_reported":1713138937,"current_range_meters":27600,"station_id":"ce4bguh2rcd13ifvqcj0","pricing_plan_id":"cebpf4jnsgd1na2vs0mg"},{"bike_id":"81a750c4-8c4f-4b36-a88a-e4a31b888231","system_id":"levelo_inurba_marseille","lat":43.310804,"lon":5.38359,"is_reserved":false,"is_disabled":false,"rental_uris":{"android":"levelo://app?vid=81a750c4-8c4f-4b36-a88a-e4a31b888231","ios":"levelo://app?vid=81a750c4-8c4f-4b36-a88a-e4a31b888231"},"vehicle_type_id":"4","last_reported":1713138937,"current_range_meters":6400,"station_id":"ce4bgv92rcd13ifvqcr0","pricing_plan_id":"cebpf4jnsgd1na2vs0mg"},{"bike_id":"b4a3ad4a-1d77-4556-81ff-1816fb09798e","system_id":"levelo_inurba_marseille","lat":43.310804,"lon":5.38359,"is_reserved":false,"is_disabled":false,"rental_uris":{"android":"levelo://app?vid=b4a3ad4a-1d77-4556-81ff-1816fb09798e","ios":"levelo://app?vid=b4a3ad4a-1d77-4556-81ff-1816fb09798e"},"vehicle_type_id":"4","last_reported":1713138937,"current_range_meters":800,"station_id":"ce4bgv92rcd13ifvqcr0","pricing_plan_id":"cebpf4jnsgd1na2vs0mg"},{"bike_id":"9c6bdf96-f97c-4373-8100-7d8f7b4b571d","system_id":"levelo_inurba_marseille","lat":43.310804,"lon":5.38359,"is_reserved":false,"is_disabled":false,"rental_uris":{"android":"levelo://app?vid=9c6bdf96-f97c-4373-8100-7d8f7b4b571d","ios":"levelo://app?vid=9c6bdf96-f97c-4373-8100-7d8f7b4b571d"},"vehicle_type_id":"4","last_reported":1713138937,"current_range_meters":800,"station_id":"ce4bgv92rcd13ifvqcr0","pricing_plan_id":"cebpf4jnsgd1na2vs0mg"},{"bike_id":"a6164093-c998-46cb-b939-9c12ce0ad668","system_id":"levelo_inurba_marseille","lat":43.307945,"lon":5.376487,"is_reserved":false,"is_disabled":false,"rental_uris":{"android":"levelo://app?vid=a6164093-c998-46cb-b939-9c12ce0ad668","ios":"levelo://app?vid=a6164093-c998-46cb-b939-9c12ce0ad668"},"vehicle_type_id":"4","last_reported":1713138937,"current_range_meters":15600,"station_id":"ce4bgv92rcd13ifvqcq0","pricing_plan_id":"cebpf4jnsgd1na2vs0mg"},{"bike_id":"90920179-677b-45f2-9f69-3b9427838b00","system_id":"levelo_inurba_marseille","lat":43.30143,"lon":5.37413,"is_reserved":false,"is_disabled":false,"rental_uris":{"android":"levelo://app?vid=90920179-677b-45f2-9f69-3b9427838b00","ios":"levelo://app?vid=90920179-677b-45f2-9f69-3b9427838b00"},"vehicle_type_id":"4","last_reported":1713138937,"current_range_meters":30000,"station_id":"ce4bgs92rcd13ifvqcc0","pricing_plan_id":"cebpf4jnsgd1na2vs0mg"},{"bike_id":"2261f197-6792-4d3e-a046-a915752d8147","system_id":"levelo_inurba_marseille","lat":43.30143,"lon":5.37413,"is_reserved":false,"is_disabled":false,"rental_uris":{"android":"levelo://app?vid=2261f197-6792-4d3e-a046-a915752d8147","ios":"levelo://app?vid=2261f197-6792-4d3e-a046-a915752d8147"},"vehicle_type_id":"4","last_reported":1713138937,"current_range_meters":21600,"station_id":"ce4bgs92rcd13ifvqcc0","pricing_plan_id":"cebpf4jnsgd1na2vs0mg"},{"bike_id":"0cf24a8a-c01a-4177-9d71-54563165a14b","system_id":"levelo_inurba_marseille","lat":43.301429,"lon":5.37413,"is_reserved":false,"is_disabled":false,"rental_uris":{"android":"levelo://app?vid=0cf24a8a-c01a-4177-9d71-54563165a14b","ios":"levelo://app?vid=0cf24a8a-c01a-4177-9d71-54563165a14b"},"vehicle_type_id":"4","last_reported":1713138937,"current_range_meters":7200,"station_id":"ce4bgs92rcd13ifvqcc0","pricing_plan_id":"cebpf4jnsgd1na2vs0mg"},{"bike_id":"585f85fd-7bad-4e77-8380-d6be6fe7091a","system_id":"levelo_inurba_marseille","lat":43.301429,"lon":5.37413,"is_reserved":false,"is_disabled":false,"rental_uris":{"android":"levelo://app?vid=585f85fd-7bad-4e77-8380-d6be6fe7091a","ios":"levelo://app?vid=585f85fd-7bad-4e77-8380-d6be6fe7091a"},"vehicle_type_id":"4","last_reported":1713138937,"current_range_meters":18000,"station_id":"ce4bgs92rcd13ifvqcc0","pricing_plan_id":"cebpf4jnsgd1na2vs0mg"},{"bike_id":"9ec4616c-37b8-40fb-bd58-07d1211193f0","system_id":"levelo_inurba_marseille","lat":43.314582,"lon":5.384216,"is_reserved":false,"is_disabled":false,"rental_uris":{"android":"levelo://app?vid=9ec4616c-37b8-40fb-bd58-07d1211193f0","ios":"levelo://app?vid=9ec4616c-37b8-40fb-bd58-07d1211193f0"},"vehicle_type_id":"4","last_reported":1713138937,"current_range_meters":2400,"station_id":"","pricing_plan_id":"cebpf4jnsgd1na2vs0mg"},{"bike_id":"5e66f9db-227e-4f3d-b4e6-2cd824e13cf9","system_id":"levelo_inurba_marseille","lat":43.313571,"lon":5.384829,"is_reserved":false,"is_disabled":false,"rental_uris":{"android":"levelo://app?vid=5e66f9db-227e-4f3d-b4e6-2cd824e13cf9","ios":"levelo://app?vid=5e66f9db-227e-4f3d-b4e6-2cd824e13cf9"},"vehicle_type_id":"4","last_reported":1713138937,"current_range_meters":10000,"station_id":"ce4bgt92rcd13ifvqcf0","pricing_plan_id":"cebpf4jnsgd1na2vs0mg"},{"bike_id":"bc4eb506-2d5e-4e32-92b1-ffebcecd8694","system_id":"levelo_inurba_marseille","lat":43.313571,"lon":5.384829,"is_reserved":false,"is_disabled":false,"rental_uris":{"android":"levelo://app?vid=bc4eb506-2d5e-4e32-92b1-ffebcecd8694","ios":"levelo://app?vid=bc4eb506-2d5e-4e32-92b1-ffebcecd8694"},"vehicle_type_id":"4","last_reported":1713138937,"current_range_meters":15200,"station_id":"ce4bgt92rcd13ifvqcf0","pricing_plan_id":"cebpf4jnsgd1na2vs0mg"},{"bike_id":"e84aa937-8643-4547-90a4-2538e8e547d5","system_id":"levelo_inurba_marseille","lat":43.313571,"lon":5.384829,"is_reserved":false,"is_disabled":false,"rental_uris":{"android":"levelo://app?vid=e84aa937-8643-4547-90a4-2538e8e547d5","ios":"levelo://app?vid=e84aa937-8643-4547-90a4-2538e8e547d5"},"vehicle_type_id":"4","last_reported":1713138937,"current_range_meters":22000,"station_id":"ce4bgt92rcd13ifvqcf0","pricing_plan_id":"cebpf4jnsgd1na2vs0mg"},{"bike_id":"f35fe2aa-bbf7-4f91-908a-b8d3aefde6ee","system_id":"levelo_inurba_marseille","lat":43.313571,"lon":5.384829,"is_reserved":false,"is_disabled":false,"rental_uris":{"android":"levelo://app?vid=f35fe2aa-bbf7-4f91-908a-b8d3aefde6ee","ios":"levelo://app?vid=f35fe2aa-bbf7-4f91-908a-b8d3aefde6ee"},"vehicle_type_id":"4","last_reported":1713138937,"current_range_meters":31200,"station_id":"ce4bgt92rcd13ifvqcf0","pricing_plan_id":"cebpf4jnsgd1na2vs0mg"},{"bike_id":"9f4ef263-d185-4d80-9a2e-48e8bbfe3bee","system_id":"levelo_inurba_marseille","lat":43.313571,"lon":5.384829,"is_reserved":false,"is_disabled":false,"rental_uris":{"android":"levelo://app?vid=9f4ef263-d185-4d80-9a2e-48e8bbfe3bee","ios":"levelo://app?vid=9f4ef263-d185-4d80-9a2e-48e8bbfe3bee"},"vehicle_type_id":"4","last_reported":1713138937,"current_range_meters":14000,"station_id":"ce4bgt92rcd13ifvqcf0","pricing_plan_id":"cebpf4jnsgd1na2vs0mg"},{"bike_id":"f29be3a0-5fed-40cd-86cc-89f3e21ecc56","system_id":"levelo_inurba_marseille","lat":43.313571,"lon":5.384829,"is_reserved":false,"is_disabled":false,"rental_uris":{"android":"levelo://app?vid=f29be3a0-5fed-40cd-86cc-89f3e21ecc56","ios":"levelo://app?vid=f29be3a0-5fed-40cd-86cc-89f3e21ecc56"},"vehicle_type_id":"4","last_reported":1713138937,"current_range_meters":31200,"station_id":"ce4bgt92rcd13ifvqcf0","pricing_plan_id":"cebpf4jnsgd1na2vs0mg"},{"bike_id":"fbda7472-fc08-4652-8641-958a7e28590a","system_id":"levelo_inurba_marseille","lat":43.313571,"lon":5.384829,"is_reserved":false,"is_disabled":false,"rental_uris":{"android":"levelo://app?vid=fbda7472-fc08-4652-8641-958a7e28590a","ios":"levelo://app?vid=fbda7472-fc08-4652-8641-958a7e28590a"},"vehicle_type_id":"4","last_reported":1713138937,"current_range_meters":9600,"station_id":"ce4bgt92rcd13ifvqcf0","pricing_plan_id":"cebpf4jnsgd1na2vs0mg"},{"bike_id":"66d1d6c0-faa8-43c1-9094-e6fec949d67b","system_id":"levelo_inurba_marseille","lat":43.313571,"lon":5.384829,"is_reserved":false,"is_disabled":false,"rental_uris":{"android":"levelo://app?vid=66d1d6c0-faa8-43c1-9094-e6fec949d67b","ios":"levelo://app?vid=66d1d6c0-faa8-43c1-9094-e6fec949d67b"},"vehicle_type_id":"4","last_reported":1713138937,"current_range_meters":20800,"station_id":"ce4bgt92rcd13ifvqcf0","pricing_plan_id":"cebpf4jnsgd1na2vs0mg"},{"bike_id":"ee28e1bf-b12c-4149-8f8d-d75a765e0a12","system_id":"levelo_inurba_marseille","lat":43.313571,"lon":5.384829,"is_reserved":false,"is_disabled":false,"rental_uris":{"android":"levelo://app?vid=ee28e1bf-b12c-4149-8f8d-d75a765e0a12","ios":"levelo://app?vid=ee28e1bf-b12c-4149-8f8d-d75a765e0a12"},"vehicle_type_id":"4","last_reported":1713138937,"current_range_meters":20800,"station_id":"ce4bgt92rcd13ifvqcf0","pricing_plan_id":"cebpf4jnsgd1na2vs0mg"},{"bike_id":"f48618da-9954-466d-b3d0-0d354c880ddd","system_id":"levelo_inurba_marseille","lat":43.299222,"lon":5.365554,"is_reserved":false,"is_disabled":false,"rental_uris":{"android":"levelo://app?vid=f48618da-9954-466d-b3d0-0d354c880ddd","ios":"levelo://app?vid=f48618da-9954-466d-b3d0-0d354c880ddd"},"vehicle_type_id":"4","last_reported":1713138937,"current_range_meters":19200,"station_id":"ce4bgm92rcd13ifvqbr0","pricing_plan_id":"cebpf4jnsgd1na2vs0mg"},{"bike_id":"2fa51a56-31a0-4c93-ab72-2e5692ec01da","system_id":"levelo_inurba_marseille","lat":43.299724,"lon":5.371829,"is_reserved":false,"is_disabled":false,"rental_uris":{"android":"levelo://app?vid=2fa51a56-31a0-4c93-ab72-2e5692ec01da","ios":"levelo://app?vid=2fa51a56-31a0-4c93-ab72-2e5692ec01da"},"vehicle_type_id":"4","last_reported":1713138937,"current_range_meters":17200,"station_id":"ce4bgr92rcd13ifvqc7g","pricing_plan_id":"cebpf4jnsgd1na2vs0mg"},{"bike_id":"805d9fcb-0498-4825-af5b-13950d7c7a79","system_id":"levelo_inurba_marseille","lat":43.299222,"lon":5.365554,"is_reserved":false,"is_disabled":false,"rental_uris":{"android":"levelo://app?vid=805d9fcb-0498-4825-af5b-13950d7c7a79","ios":"levelo://app?vid=805d9fcb-0498-4825-af5b-13950d7c7a79"},"vehicle_type_id":"4","last_reported":1713138937,"current_range_meters":22400,"station_id":"ce4bgm92rcd13ifvqbr0","pricing_plan_id":"cebpf4jnsgd1na2vs0mg"},{"bike_id":"21d7f6ec-3750-4af7-b08b-581444ef9bbc","system_id":"levelo_inurba_marseille","lat":43.299222,"lon":5.365554,"is_reserved":false,"is_disabled":false,"rental_uris":{"android":"levelo://app?vid=21d7f6ec-3750-4af7-b08b-581444ef9bbc","ios":"levelo://app?vid=21d7f6ec-3750-4af7-b08b-581444ef9bbc"},"vehicle_type_id":"4","last_reported":1713138937,"current_range_meters":26400,"station_id":"ce4bgm92rcd13ifvqbr0","pricing_plan_id":"cebpf4jnsgd1na2vs0mg"},{"bike_id":"06b9b9c5-87c1-4bb8-87af-ac1a32ced11c","system_id":"levelo_inurba_marseille","lat":43.299222,"lon":5.365554,"is_reserved":false,"is_disabled":false,"rental_uris":{"android":"levelo://app?vid=06b9b9c5-87c1-4bb8-87af-ac1a32ced11c","ios":"levelo://app?vid=06b9b9c5-87c1-4bb8-87af-ac1a32ced11c"},"vehicle_type_id":"4","last_reported":1713138937,"current_range_meters":27200,"station_id":"ce4bgm92rcd13ifvqbr0","pricing_plan_id":"cebpf4jnsgd1na2vs0mg"},{"bike_id":"4805c0d2-f8a3-4bb7-8b30-27b3f00757d4","system_id":"levelo_inurba_marseille","lat":43.299724,"lon":5.371829,"is_reserved":false,"is_disabled":false,"rental_uris":{"android":"levelo://app?vid=4805c0d2-f8a3-4bb7-8b30-27b3f00757d4","ios":"levelo://app?vid=4805c0d2-f8a3-4bb7-8b30-27b3f00757d4"},"vehicle_type_id":"4","last_reported":1713138937,"current_range_meters":17200,"station_id":"ce4bgr92rcd13ifvqc7g","pricing_plan_id":"cebpf4jnsgd1na2vs0mg"},{"bike_id":"b838246a-acd3-432a-96d0-c6cc83f0a861","system_id":"levelo_inurba_marseille","lat":43.29976,"lon":5.37181,"is_reserved":false,"is_disabled":false,"rental_uris":{"android":"levelo://app?vid=b838246a-acd3-432a-96d0-c6cc83f0a861","ios":"levelo://app?vid=b838246a-acd3-432a-96d0-c6cc83f0a861"},"vehicle_type_id":"4","last_reported":1713138937,"current_range_meters":11200,"station_id":"ce4bgr92rcd13ifvqc7g","pricing_plan_id":"cebpf4jnsgd1na2vs0mg"},{"bike_id":"df527d1f-c67e-4c0f-8bd1-ae3db6d43ac9","system_id":"levelo_inurba_marseille","lat":43.299724,"lon":5.371829,"is_reserved":false,"is_disabled":false,"rental_uris":{"android":"levelo://app?vid=df527d1f-c67e-4c0f-8bd1-ae3db6d43ac9","ios":"levelo://app?vid=df527d1f-c67e-4c0f-8bd1-ae3db6d43ac9"},"vehicle_type_id":"4","last_reported":1713138937,"current_range_meters":5600,"station_id":"ce4bgr92rcd13ifvqc7g","pricing_plan_id":"cebpf4jnsgd1na2vs0mg"},{"bike_id":"56346afa-efc5-45c5-875c-4168f5ff7200","system_id":"levelo_inurba_marseille","lat":43.299724,"lon":5.371829,"is_reserved":false,"is_disabled":false,"rental_uris":{"android":"levelo://app?vid=56346afa-efc5-45c5-875c-4168f5ff7200","ios":"levelo://app?vid=56346afa-efc5-45c5-875c-4168f5ff7200"},"vehicle_type_id":"4","last_reported":1713138937,"current_range_meters":31600,"station_id":"ce4bgr92rcd13ifvqc7g","pricing_plan_id":"cebpf4jnsgd1na2vs0mg"},{"bike_id":"534f95f9-8c8a-4a43-9698-1896bb3a2b72","system_id":"levelo_inurba_marseille","lat":43.299222,"lon":5.365554,"is_reserved":false,"is_disabled":false,"rental_uris":{"android":"levelo://app?vid=534f95f9-8c8a-4a43-9698-1896bb3a2b72","ios":"levelo://app?vid=534f95f9-8c8a-4a43-9698-1896bb3a2b72"},"vehicle_type_id":"4","last_reported":1713138937,"current_range_meters":30400,"station_id":"ce4bgm92rcd13ifvqbr0","pricing_plan_id":"cebpf4jnsgd1na2vs0mg"},{"bike_id":"a796592f-b80e-4ad2-8f72-208adbff2df6","system_id":"levelo_inurba_marseille","lat":43.29969,"lon":5.37179,"is_reserved":false,"is_disabled":false,"rental_uris":{"android":"levelo://app?vid=a796592f-b80e-4ad2-8f72-208adbff2df6","ios":"levelo://app?vid=a796592f-b80e-4ad2-8f72-208adbff2df6"},"vehicle_type_id":"4","last_reported":1713138937,"current_range_meters":4400,"station_id":"ce4bgr92rcd13ifvqc7g","pricing_plan_id":"cebpf4jnsgd1na2vs0mg"},{"bike_id":"ba05b4e1-fd18-4fa6-9129-7f123ac11bae","system_id":"levelo_inurba_marseille","lat":43.299724,"lon":5.371829,"is_reserved":false,"is_disabled":false,"rental_uris":{"android":"levelo://app?vid=ba05b4e1-fd18-4fa6-9129-7f123ac11bae","ios":"levelo://app?vid=ba05b4e1-fd18-4fa6-9129-7f123ac11bae"},"vehicle_type_id":"4","last_reported":1713138937,"current_range_meters":11200,"station_id":"ce4bgr92rcd13ifvqc7g","pricing_plan_id":"cebpf4jnsgd1na2vs0mg"},{"bike_id":"1cf3b751-74a4-41f5-be2d-98b5cb1ee5c0","system_id":"levelo_inurba_marseille","lat":43.305364,"lon":5.384119,"is_reserved":false,"is_disabled":false,"rental_uris":{"android":"levelo://app?vid=1cf3b751-74a4-41f5-be2d-98b5cb1ee5c0","ios":"levelo://app?vid=1cf3b751-74a4-41f5-be2d-98b5cb1ee5c0"},"vehicle_type_id":"4","last_reported":1713138937,"current_range_meters":26000,"station_id":"ce4bgg92rcd13ifvqb30","pricing_plan_id":"cebpf4jnsgd1na2vs0mg"},{"bike_id":"64c6ee0a-6134-447c-9341-601573ec9b5e","system_id":"levelo_inurba_marseille","lat":43.29923,"lon":5.37457,"is_reserved":false,"is_disabled":false,"rental_uris":{"android":"levelo://app?vid=64c6ee0a-6134-447c-9341-601573ec9b5e","ios":"levelo://app?vid=64c6ee0a-6134-447c-9341-601573ec9b5e"},"vehicle_type_id":"4","last_reported":1713138937,"current_range_meters":14400,"station_id":"ce4bgjh2rcd13ifvqbg0","pricing_plan_id":"cebpf4jnsgd1na2vs0mg"},{"bike_id":"a71b9ee5-1715-4867-9cb0-36322c21d6cd","system_id":"levelo_inurba_marseille","lat":43.305364,"lon":5.384119,"is_reserved":false,"is_disabled":false,"rental_uris":{"android":"levelo://app?vid=a71b9ee5-1715-4867-9cb0-36322c21d6cd","ios":"levelo://app?vid=a71b9ee5-1715-4867-9cb0-36322c21d6cd"},"vehicle_type_id":"4","last_reported":1713138937,"current_range_meters":8800,"station_id":"ce4bgg92rcd13ifvqb30","pricing_plan_id":"cebpf4jnsgd1na2vs0mg"},{"bike_id":"a77ae9ed-d0a7-4dd8-9f42-834d00a837ee","system_id":"levelo_inurba_marseille","lat":43.305364,"lon":5.384119,"is_reserved":false,"is_disabled":false,"rental_uris":{"android":"levelo://app?vid=a77ae9ed-d0a7-4dd8-9f42-834d00a837ee","ios":"levelo://app?vid=a77ae9ed-d0a7-4dd8-9f42-834d00a837ee"},"vehicle_type_id":"4","last_reported":1713138937,"current_range_meters":24400,"station_id":"ce4bgg92rcd13ifvqb30","pricing_plan_id":"cebpf4jnsgd1na2vs0mg"},{"bike_id":"3a91f5d9-ffee-4b9e-b2be-6edb2e1e57dc","system_id":"levelo_inurba_marseille","lat":43.3118,"lon":5.38709,"is_reserved":false,"is_disabled":false,"rental_uris":{"android":"levelo://app?vid=3a91f5d9-ffee-4b9e-b2be-6edb2e1e57dc","ios":"levelo://app?vid=3a91f5d9-ffee-4b9e-b2be-6edb2e1e57dc"},"vehicle_type_id":"4","last_reported":1713138937,"current_range_meters":23600,"station_id":"ce4bgv12rcd13ifvqcp0","pricing_plan_id":"cebpf4jnsgd1na2vs0mg"},{"bike_id":"181cd1e3-fc5a-4cc1-aec6-d9a150c78d36","system_id":"levelo_inurba_marseille","lat":43.299243,"lon":5.374807,"is_reserved":false,"is_disabled":false,"rental_uris":{"android":"levelo://app?vid=181cd1e3-fc5a-4cc1-aec6-d9a150c78d36","ios":"levelo://app?vid=181cd1e3-fc5a-4cc1-aec6-d9a150c78d36"},"vehicle_type_id":"4","last_reported":1713138937,"current_range_meters":27600,"station_id":"ce4bgjh2rcd13ifvqbg0","pricing_plan_id":"cebpf4jnsgd1na2vs0mg"},{"bike_id":"eff544a3-4fe8-4e65-8ff7-38b520db7117","system_id":"levelo_inurba_marseille","lat":43.311722,"lon":5.387247,"is_reserved":false,"is_disabled":false,"rental_uris":{"android":"levelo://app?vid=eff544a3-4fe8-4e65-8ff7-38b520db7117","ios":"levelo://app?vid=eff544a3-4fe8-4e65-8ff7-38b520db7117"},"vehicle_type_id":"4","last_reported":1713138937,"current_range_meters":25600,"station_id":"ce4bgv12rcd13ifvqcp0","pricing_plan_id":"cebpf4jnsgd1na2vs0mg"},{"bike_id":"981dbd5c-e732-4eb0-92f8-dc3f52b077d2","system_id":"levelo_inurba_marseille","lat":43.299243,"lon":5.374807,"is_reserved":false,"is_disabled":false,"rental_uris":{"android":"levelo://app?vid=981dbd5c-e732-4eb0-92f8-dc3f52b077d2","ios":"levelo://app?vid=981dbd5c-e732-4eb0-92f8-dc3f52b077d2"},"vehicle_type_id":"4","last_reported":1713138937,"current_range_meters":24000,"station_id":"ce4bgjh2rcd13ifvqbg0","pricing_plan_id":"cebpf4jnsgd1na2vs0mg"},{"bike_id":"5b0574a6-3350-4664-9fdb-b45dd9477c7b","system_id":"levelo_inurba_marseille","lat":43.311722,"lon":5.387247,"is_reserved":false,"is_disabled":false,"rental_uris":{"android":"levelo://app?vid=5b0574a6-3350-4664-9fdb-b45dd9477c7b","ios":"levelo://app?vid=5b0574a6-3350-4664-9fdb-b45dd9477c7b"},"vehicle_type_id":"4","last_reported":1713138937,"current_range_meters":20000,"station_id":"ce4bgv12rcd13ifvqcp0","pricing_plan_id":"cebpf4jnsgd1na2vs0mg"},{"bike_id":"2ac9a128-87cf-4922-b964-528e19d301a4","system_id":"levelo_inurba_marseille","lat":43.311722,"lon":5.387247,"is_reserved":false,"is_disabled":false,"rental_uris":{"android":"levelo://app?vid=2ac9a128-87cf-4922-b964-528e19d301a4","ios":"levelo://app?vid=2ac9a128-87cf-4922-b964-528e19d301a4"},"vehicle_type_id":"4","last_reported":1713138937,"current_range_meters":18800,"station_id":"ce4bgv12rcd13ifvqcp0","pricing_plan_id":"cebpf4jnsgd1na2vs0mg"},{"bike_id":"a077ce92-243f-4879-9e77-f20cfbe550ed","system_id":"levelo_inurba_marseille","lat":43.311698,"lon":5.38713,"is_reserved":false,"is_disabled":false,"rental_uris":{"android":"levelo://app?vid=a077ce92-243f-4879-9e77-f20cfbe550ed","ios":"levelo://app?vid=a077ce92-243f-4879-9e77-f20cfbe550ed"},"vehicle_type_id":"4","last_reported":1713138937,"current_range_meters":18000,"station_id":"ce4bgv12rcd13ifvqcp0","pricing_plan_id":"cebpf4jnsgd1na2vs0mg"},{"bike_id":"772299e5-57ea-4b52-a9fe-15ec7e568412","system_id":"levelo_inurba_marseille","lat":43.311722,"lon":5.387247,"is_reserved":false,"is_disabled":false,"rental_uris":{"android":"levelo://app?vid=772299e5-57ea-4b52-a9fe-15ec7e568412","ios":"levelo://app?vid=772299e5-57ea-4b52-a9fe-15ec7e568412"},"vehicle_type_id":"4","last_reported":1713138937,"current_range_meters":28800,"station_id":"ce4bgv12rcd13ifvqcp0","pricing_plan_id":"cebpf4jnsgd1na2vs0mg"},{"bike_id":"e17dd504-1917-49e5-ae50-c1d04005848c","system_id":"levelo_inurba_marseille","lat":43.31165,"lon":5.38715,"is_reserved":false,"is_disabled":false,"rental_uris":{"android":"levelo://app?vid=e17dd504-1917-49e5-ae50-c1d04005848c","ios":"levelo://app?vid=e17dd504-1917-49e5-ae50-c1d04005848c"},"vehicle_type_id":"4","last_reported":1713138937,"current_range_meters":26800,"station_id":"ce4bgv12rcd13ifvqcp0","pricing_plan_id":"cebpf4jnsgd1na2vs0mg"},{"bike_id":"2ca6676e-028f-400c-be34-00967db04351","system_id":"levelo_inurba_marseille","lat":43.311722,"lon":5.387247,"is_reserved":false,"is_disabled":false,"rental_uris":{"android":"levelo://app?vid=2ca6676e-028f-400c-be34-00967db04351","ios":"levelo://app?vid=2ca6676e-028f-400c-be34-00967db04351"},"vehicle_type_id":"4","last_reported":1713138937,"current_range_meters":10000,"station_id":"ce4bgv12rcd13ifvqcp0","pricing_plan_id":"cebpf4jnsgd1na2vs0mg"},{"bike_id":"33bc8ca0-ee2f-4615-858c-a02394e8402c","system_id":"levelo_inurba_marseille","lat":43.311722,"lon":5.387247,"is_reserved":false,"is_disabled":false,"rental_uris":{"android":"levelo://app?vid=33bc8ca0-ee2f-4615-858c-a02394e8402c","ios":"levelo://app?vid=33bc8ca0-ee2f-4615-858c-a02394e8402c"},"vehicle_type_id":"4","last_reported":1713138937,"current_range_meters":20000,"station_id":"ce4bgv12rcd13ifvqcp0","pricing_plan_id":"cebpf4jnsgd1na2vs0mg"},{"bike_id":"8a09a19f-634d-4a69-912a-d2245f65c266","system_id":"levelo_inurba_marseille","lat":43.31167,"lon":5.38717,"is_reserved":false,"is_disabled":false,"rental_uris":{"android":"levelo://app?vid=8a09a19f-634d-4a69-912a-d2245f65c266","ios":"levelo://app?vid=8a09a19f-634d-4a69-912a-d2245f65c266"},"vehicle_type_id":"4","last_reported":1713138937,"current_range_meters":3600,"station_id":"ce4bgv12rcd13ifvqcp0","pricing_plan_id":"cebpf4jnsgd1na2vs0mg"},{"bike_id":"b9ba05fb-dc05-4dbb-8db4-6483691b3005","system_id":"levelo_inurba_marseille","lat":43.311622,"lon":5.387167,"is_reserved":false,"is_disabled":false,"rental_uris":{"android":"levelo://app?vid=b9ba05fb-dc05-4dbb-8db4-6483691b3005","ios":"levelo://app?vid=b9ba05fb-dc05-4dbb-8db4-6483691b3005"},"vehicle_type_id":"4","last_reported":1713138937,"current_range_meters":5200,"station_id":"ce4bgv12rcd13ifvqcp0","pricing_plan_id":"cebpf4jnsgd1na2vs0mg"},{"bike_id":"1817f8aa-f794-4973-906f-feca653f1a56","system_id":"levelo_inurba_marseille","lat":43.299243,"lon":5.37481,"is_reserved":false,"is_disabled":false,"rental_uris":{"android":"levelo://app?vid=1817f8aa-f794-4973-906f-feca653f1a56","ios":"levelo://app?vid=1817f8aa-f794-4973-906f-feca653f1a56"},"vehicle_type_id":"4","last_reported":1713138937,"current_range_meters":28800,"station_id":"ce4bgjh2rcd13ifvqbg0","pricing_plan_id":"cebpf4jnsgd1na2vs0mg"},{"bike_id":"a7302fb1-691b-4ceb-96c4-50a9bf7f6bbf","system_id":"levelo_inurba_marseille","lat":43.31168,"lon":5.38718,"is_reserved":false,"is_disabled":false,"rental_uris":{"android":"levelo://app?vid=a7302fb1-691b-4ceb-96c4-50a9bf7f6bbf","ios":"levelo://app?vid=a7302fb1-691b-4ceb-96c4-50a9bf7f6bbf"},"vehicle_type_id":"4","last_reported":1713138937,"current_range_meters":18000,"station_id":"ce4bgv12rcd13ifvqcp0","pricing_plan_id":"cebpf4jnsgd1na2vs0mg"},{"bike_id":"2e0ea944-6502-4ee0-abc3-093ed4b285b9","system_id":"levelo_inurba_marseille","lat":43.311632,"lon":5.387176,"is_reserved":false,"is_disabled":false,"rental_uris":{"android":"levelo://app?vid=2e0ea944-6502-4ee0-abc3-093ed4b285b9","ios":"levelo://app?vid=2e0ea944-6502-4ee0-abc3-093ed4b285b9"},"vehicle_type_id":"4","last_reported":1713138937,"current_range_meters":5200,"station_id":"ce4bgv12rcd13ifvqcp0","pricing_plan_id":"cebpf4jnsgd1na2vs0mg"},{"bike_id":"e94cbd85-bb56-43a5-82c9-a97ad54f5439","system_id":"levelo_inurba_marseille","lat":43.29909,"lon":5.37471,"is_reserved":false,"is_disabled":false,"rental_uris":{"android":"levelo://app?vid=e94cbd85-bb56-43a5-82c9-a97ad54f5439","ios":"levelo://app?vid=e94cbd85-bb56-43a5-82c9-a97ad54f5439"},"vehicle_type_id":"4","last_reported":1713138937,"current_range_meters":2400,"station_id":"ce4bgjh2rcd13ifvqbg0","pricing_plan_id":"cebpf4jnsgd1na2vs0mg"},{"bike_id":"ff771df0-f982-461a-9ca8-5cf80a51e54e","system_id":"levelo_inurba_marseille","lat":43.311722,"lon":5.387247,"is_reserved":false,"is_disabled":false,"rental_uris":{"android":"levelo://app?vid=ff771df0-f982-461a-9ca8-5cf80a51e54e","ios":"levelo://app?vid=ff771df0-f982-461a-9ca8-5cf80a51e54e"},"vehicle_type_id":"4","last_reported":1713138937,"current_range_meters":12400,"station_id":"ce4bgv12rcd13ifvqcp0","pricing_plan_id":"cebpf4jnsgd1na2vs0mg"},{"bike_id":"07c15ef1-5fd9-4a15-a20b-734d94a92f5d","system_id":"levelo_inurba_marseille","lat":43.297794,"lon":5.370888,"is_reserved":false,"is_disabled":false,"rental_uris":{"android":"levelo://app?vid=07c15ef1-5fd9-4a15-a20b-734d94a92f5d","ios":"levelo://app?vid=07c15ef1-5fd9-4a15-a20b-734d94a92f5d"},"vehicle_type_id":"4","last_reported":1713138937,"current_range_meters":28400,"station_id":"ce4bgop2rcd13ifvqc1g","pricing_plan_id":"cebpf4jnsgd1na2vs0mg"},{"bike_id":"37374a6f-d799-4ead-b525-79731f63f7e4","system_id":"levelo_inurba_marseille","lat":43.297774,"lon":5.370875,"is_reserved":false,"is_disabled":false,"rental_uris":{"android":"levelo://app?vid=37374a6f-d799-4ead-b525-79731f63f7e4","ios":"levelo://app?vid=37374a6f-d799-4ead-b525-79731f63f7e4"},"vehicle_type_id":"4","last_reported":1713138937,"current_range_meters":26800,"station_id":"ce4bgop2rcd13ifvqc1g","pricing_plan_id":"cebpf4jnsgd1na2vs0mg"},{"bike_id":"ecc6ccd1-8f34-4423-9e9e-d97d4253610f","system_id":"levelo_inurba_marseille","lat":43.297774,"lon":5.370875,"is_reserved":false,"is_disabled":false,"rental_uris":{"android":"levelo://app?vid=ecc6ccd1-8f34-4423-9e9e-d97d4253610f","ios":"levelo://app?vid=ecc6ccd1-8f34-4423-9e9e-d97d4253610f"},"vehicle_type_id":"4","last_reported":1713138937,"current_range_meters":26400,"station_id":"ce4bgop2rcd13ifvqc1g","pricing_plan_id":"cebpf4jnsgd1na2vs0mg"},{"bike_id":"2a1d35de-caa4-41fc-acc3-cb5420c3e14c","system_id":"levelo_inurba_marseille","lat":43.297774,"lon":5.370875,"is_reserved":false,"is_disabled":false,"rental_uris":{"android":"levelo://app?vid=2a1d35de-caa4-41fc-acc3-cb5420c3e14c","ios":"levelo://app?vid=2a1d35de-caa4-41fc-acc3-cb5420c3e14c"},"vehicle_type_id":"4","last_reported":1713138937,"current_range_meters":16800,"station_id":"ce4bgop2rcd13ifvqc1g","pricing_plan_id":"cebpf4jnsgd1na2vs0mg"},{"bike_id":"71a8f817-e0fb-48a5-9a14-0e198195c31d","system_id":"levelo_inurba_marseille","lat":43.322872,"lon":5.382756,"is_reserved":false,"is_disabled":false,"rental_uris":{"android":"levelo://app?vid=71a8f817-e0fb-48a5-9a14-0e198195c31d","ios":"levelo://app?vid=71a8f817-e0fb-48a5-9a14-0e198195c31d"},"vehicle_type_id":"4","last_reported":1713138937,"current_range_meters":16000,"station_id":"ce4bhr12rcd13ifvqhqg","pricing_plan_id":"cebpf4jnsgd1na2vs0mg"},{"bike_id":"bcf5b338-808a-4e55-a38c-06f3d89fe0a9","system_id":"levelo_inurba_marseille","lat":43.297163,"lon":5.365866,"is_reserved":false,"is_disabled":false,"rental_uris":{"android":"levelo://app?vid=bcf5b338-808a-4e55-a38c-06f3d89fe0a9","ios":"levelo://app?vid=bcf5b338-808a-4e55-a38c-06f3d89fe0a9"},"vehicle_type_id":"4","last_reported":1713138937,"current_range_meters":19600,"station_id":"ce4bgn12rcd13ifvqbt0","pricing_plan_id":"cebpf4jnsgd1na2vs0mg"},{"bike_id":"a6a74c88-11eb-4055-8ccf-2da59841e42c","system_id":"levelo_inurba_marseille","lat":43.297163,"lon":5.365866,"is_reserved":false,"is_disabled":false,"rental_uris":{"android":"levelo://app?vid=a6a74c88-11eb-4055-8ccf-2da59841e42c","ios":"levelo://app?vid=a6a74c88-11eb-4055-8ccf-2da59841e42c"},"vehicle_type_id":"4","last_reported":1713138937,"current_range_meters":18000,"station_id":"ce4bgn12rcd13ifvqbt0","pricing_plan_id":"cebpf4jnsgd1na2vs0mg"},{"bike_id":"f120ed2a-51b6-4c64-97b4-4557f8545137","system_id":"levelo_inurba_marseille","lat":43.2968,"lon":5.37291,"is_reserved":false,"is_disabled":false,"rental_uris":{"android":"levelo://app?vid=f120ed2a-51b6-4c64-97b4-4557f8545137","ios":"levelo://app?vid=f120ed2a-51b6-4c64-97b4-4557f8545137"},"vehicle_type_id":"4","last_reported":1713138937,"current_range_meters":27600,"station_id":"ce4bgk12rcd13ifvqbj0","pricing_plan_id":"cebpf4jnsgd1na2vs0mg"},{"bike_id":"f0c24fd2-62d9-4381-90cd-c364f6e2db3a","system_id":"levelo_inurba_marseille","lat":43.29573,"lon":5.367355,"is_reserved":false,"is_disabled":false,"rental_uris":{"android":"levelo://app?vid=f0c24fd2-62d9-4381-90cd-c364f6e2db3a","ios":"levelo://app?vid=f0c24fd2-62d9-4381-90cd-c364f6e2db3a"},"vehicle_type_id":"4","last_reported":1713138937,"current_range_meters":22800,"station_id":"ce4bgph2rcd13ifvqc2g","pricing_plan_id":"cebpf4jnsgd1na2vs0mg"},{"bike_id":"3932683f-554e-43d8-8821-e4e3ed983a82","system_id":"levelo_inurba_marseille","lat":43.29573,"lon":5.367355,"is_reserved":false,"is_disabled":false,"rental_uris":{"android":"levelo://app?vid=3932683f-554e-43d8-8821-e4e3ed983a82","ios":"levelo://app?vid=3932683f-554e-43d8-8821-e4e3ed983a82"},"vehicle_type_id":"4","last_reported":1713138937,"current_range_meters":31200,"station_id":"ce4bgph2rcd13ifvqc2g","pricing_plan_id":"cebpf4jnsgd1na2vs0mg"},{"bike_id":"502847dd-dfa7-4d5e-b24e-3fbcf20be143","system_id":"levelo_inurba_marseille","lat":43.30963,"lon":5.39026,"is_reserved":false,"is_disabled":false,"rental_uris":{"android":"levelo://app?vid=502847dd-dfa7-4d5e-b24e-3fbcf20be143","ios":"levelo://app?vid=502847dd-dfa7-4d5e-b24e-3fbcf20be143"},"vehicle_type_id":"4","last_reported":1713138937,"current_range_meters":0,"station_id":"ce4bgup2rcd13ifvqco0","pricing_plan_id":"cebpf4jnsgd1na2vs0mg"},{"bike_id":"ea44ed06-d57a-4156-b056-b99bd645e2e8","system_id":"levelo_inurba_marseille","lat":43.309621,"lon":5.390316,"is_reserved":false,"is_disabled":false,"rental_uris":{"android":"levelo://app?vid=ea44ed06-d57a-4156-b056-b99bd645e2e8","ios":"levelo://app?vid=ea44ed06-d57a-4156-b056-b99bd645e2e8"},"vehicle_type_id":"4","last_reported":1713138937,"current_range_meters":0,"station_id":"ce4bgup2rcd13ifvqco0","pricing_plan_id":"cebpf4jnsgd1na2vs0mg"},{"bike_id":"8cde5769-fbcc-4814-8524-95ad68e24fa9","system_id":"levelo_inurba_marseille","lat":43.309589,"lon":5.390258,"is_reserved":false,"is_disabled":false,"rental_uris":{"android":"levelo://app?vid=8cde5769-fbcc-4814-8524-95ad68e24fa9","ios":"levelo://app?vid=8cde5769-fbcc-4814-8524-95ad68e24fa9"},"vehicle_type_id":"4","last_reported":1713138937,"current_range_meters":6000,"station_id":"ce4bgup2rcd13ifvqco0","pricing_plan_id":"cebpf4jnsgd1na2vs0mg"},{"bike_id":"22ff7161-2bdf-4de4-9c9a-63661b6bd333","system_id":"levelo_inurba_marseille","lat":43.309589,"lon":5.390258,"is_reserved":false,"is_disabled":false,"rental_uris":{"android":"levelo://app?vid=22ff7161-2bdf-4de4-9c9a-63661b6bd333","ios":"levelo://app?vid=22ff7161-2bdf-4de4-9c9a-63661b6bd333"},"vehicle_type_id":"4","last_reported":1713138937,"current_range_meters":26000,"station_id":"ce4bgup2rcd13ifvqco0","pricing_plan_id":"cebpf4jnsgd1na2vs0mg"},{"bike_id":"66b805e1-11d2-4ed7-806c-bc584024d844","system_id":"levelo_inurba_marseille","lat":43.309589,"lon":5.390258,"is_reserved":false,"is_disabled":false,"rental_uris":{"android":"levelo://app?vid=66b805e1-11d2-4ed7-806c-bc584024d844","ios":"levelo://app?vid=66b805e1-11d2-4ed7-806c-bc584024d844"},"vehicle_type_id":"4","last_reported":1713138937,"current_range_meters":26800,"station_id":"ce4bgup2rcd13ifvqco0","pricing_plan_id":"cebpf4jnsgd1na2vs0mg"},{"bike_id":"77e89de6-5533-4c8e-bfef-8475095192d2","system_id":"levelo_inurba_marseille","lat":43.309589,"lon":5.390258,"is_reserved":false,"is_disabled":false,"rental_uris":{"android":"levelo://app?vid=77e89de6-5533-4c8e-bfef-8475095192d2","ios":"levelo://app?vid=77e89de6-5533-4c8e-bfef-8475095192d2"},"vehicle_type_id":"4","last_reported":1713138937,"current_range_meters":9200,"station_id":"ce4bgup2rcd13ifvqco0","pricing_plan_id":"cebpf4jnsgd1na2vs0mg"},{"bike_id":"a50b4aaa-ca03-4482-96b6-f28d152d3f84","system_id":"levelo_inurba_marseille","lat":43.309589,"lon":5.390258,"is_reserved":false,"is_disabled":false,"rental_uris":{"android":"levelo://app?vid=a50b4aaa-ca03-4482-96b6-f28d152d3f84","ios":"levelo://app?vid=a50b4aaa-ca03-4482-96b6-f28d152d3f84"},"vehicle_type_id":"4","last_reported":1713138937,"current_range_meters":2400,"station_id":"ce4bgup2rcd13ifvqco0","pricing_plan_id":"cebpf4jnsgd1na2vs0mg"},{"bike_id":"04b0efb8-dd13-45af-8548-d7891d247a90","system_id":"levelo_inurba_marseille","lat":43.309589,"lon":5.390258,"is_reserved":false,"is_disabled":false,"rental_uris":{"android":"levelo://app?vid=04b0efb8-dd13-45af-8548-d7891d247a90","ios":"levelo://app?vid=04b0efb8-dd13-45af-8548-d7891d247a90"},"vehicle_type_id":"4","last_reported":1713138937,"current_range_meters":19600,"station_id":"ce4bgup2rcd13ifvqco0","pricing_plan_id":"cebpf4jnsgd1na2vs0mg"},{"bike_id":"e5aaa6c5-a9ba-4017-bfb4-d05eeac5a97c","system_id":"levelo_inurba_marseille","lat":43.317557,"lon":5.390173,"is_reserved":false,"is_disabled":false,"rental_uris":{"android":"levelo://app?vid=e5aaa6c5-a9ba-4017-bfb4-d05eeac5a97c","ios":"levelo://app?vid=e5aaa6c5-a9ba-4017-bfb4-d05eeac5a97c"},"vehicle_type_id":"4","last_reported":1713138937,"current_range_meters":14400,"station_id":"ce4bhqp2rcd13ifvqhng","pricing_plan_id":"cebpf4jnsgd1na2vs0mg"},{"bike_id":"e58410ab-e309-47dd-a791-b35f6deaef8e","system_id":"levelo_inurba_marseille","lat":43.317557,"lon":5.390173,"is_reserved":false,"is_disabled":false,"rental_uris":{"android":"levelo://app?vid=e58410ab-e309-47dd-a791-b35f6deaef8e","ios":"levelo://app?vid=e58410ab-e309-47dd-a791-b35f6deaef8e"},"vehicle_type_id":"4","last_reported":1713138937,"current_range_meters":31600,"station_id":"ce4bhqp2rcd13ifvqhng","pricing_plan_id":"cebpf4jnsgd1na2vs0mg"},{"bike_id":"97a315f8-e864-4110-9d87-3964624409cf","system_id":"levelo_inurba_marseille","lat":43.317557,"lon":5.390173,"is_reserved":false,"is_disabled":false,"rental_uris":{"android":"levelo://app?vid=97a315f8-e864-4110-9d87-3964624409cf","ios":"levelo://app?vid=97a315f8-e864-4110-9d87-3964624409cf"},"vehicle_type_id":"4","last_reported":1713138937,"current_range_meters":8800,"station_id":"ce4bhqp2rcd13ifvqhng","pricing_plan_id":"cebpf4jnsgd1na2vs0mg"},{"bike_id":"c61efe73-da24-4d90-9f80-9623e4fbd0e0","system_id":"levelo_inurba_marseille","lat":43.317557,"lon":5.390173,"is_reserved":false,"is_disabled":false,"rental_uris":{"android":"levelo://app?vid=c61efe73-da24-4d90-9f80-9623e4fbd0e0","ios":"levelo://app?vid=c61efe73-da24-4d90-9f80-9623e4fbd0e0"},"vehicle_type_id":"4","last_reported":1713138937,"current_range_meters":20000,"station_id":"ce4bhqp2rcd13ifvqhng","pricing_plan_id":"cebpf4jnsgd1na2vs0mg"},{"bike_id":"74a3910d-e733-4da8-8267-42789b347498","system_id":"levelo_inurba_marseille","lat":43.317557,"lon":5.390173,"is_reserved":false,"is_disabled":false,"rental_uris":{"android":"levelo://app?vid=74a3910d-e733-4da8-8267-42789b347498","ios":"levelo://app?vid=74a3910d-e733-4da8-8267-42789b347498"},"vehicle_type_id":"4","last_reported":1713138937,"current_range_meters":2400,"station_id":"ce4bhqp2rcd13ifvqhng","pricing_plan_id":"cebpf4jnsgd1na2vs0mg"},{"bike_id":"e3eb7341-11bc-4583-b6c8-1484fa87c179","system_id":"levelo_inurba_marseille","lat":43.317557,"lon":5.390173,"is_reserved":false,"is_disabled":false,"rental_uris":{"android":"levelo://app?vid=e3eb7341-11bc-4583-b6c8-1484fa87c179","ios":"levelo://app?vid=e3eb7341-11bc-4583-b6c8-1484fa87c179"},"vehicle_type_id":"4","last_reported":1713138937,"current_range_meters":0,"station_id":"ce4bhqp2rcd13ifvqhng","pricing_plan_id":"cebpf4jnsgd1na2vs0mg"},{"bike_id":"f9f61d7e-7994-4973-8aa0-e24cc2662ee7","system_id":"levelo_inurba_marseille","lat":43.317557,"lon":5.390173,"is_reserved":false,"is_disabled":false,"rental_uris":{"android":"levelo://app?vid=f9f61d7e-7994-4973-8aa0-e24cc2662ee7","ios":"levelo://app?vid=f9f61d7e-7994-4973-8aa0-e24cc2662ee7"},"vehicle_type_id":"4","last_reported":1713138937,"current_range_meters":0,"station_id":"ce4bhqp2rcd13ifvqhng","pricing_plan_id":"cebpf4jnsgd1na2vs0mg"},{"bike_id":"fa1a9215-f56e-4b72-88a9-5289a9d9e7a5","system_id":"levelo_inurba_marseille","lat":43.317557,"lon":5.390173,"is_reserved":false,"is_disabled":false,"rental_uris":{"android":"levelo://app?vid=fa1a9215-f56e-4b72-88a9-5289a9d9e7a5","ios":"levelo://app?vid=fa1a9215-f56e-4b72-88a9-5289a9d9e7a5"},"vehicle_type_id":"4","last_reported":1713138937,"current_range_meters":1200,"station_id":"ce4bhqp2rcd13ifvqhng","pricing_plan_id":"cebpf4jnsgd1na2vs0mg"},{"bike_id":"cfb60390-792d-44f3-991d-fca0b4648271","system_id":"levelo_inurba_marseille","lat":43.317557,"lon":5.390173,"is_reserved":false,"is_disabled":false,"rental_uris":{"android":"levelo://app?vid=cfb60390-792d-44f3-991d-fca0b4648271","ios":"levelo://app?vid=cfb60390-792d-44f3-991d-fca0b4648271"},"vehicle_type_id":"4","last_reported":1713138937,"current_range_meters":31600,"station_id":"ce4bhqp2rcd13ifvqhng","pricing_plan_id":"cebpf4jnsgd1na2vs0mg"},{"bike_id":"666c68c0-1ab9-4dd2-8579-de2fe182829f","system_id":"levelo_inurba_marseille","lat":43.298037,"lon":5.381066,"is_reserved":false,"is_disabled":false,"rental_uris":{"android":"levelo://app?vid=666c68c0-1ab9-4dd2-8579-de2fe182829f","ios":"levelo://app?vid=666c68c0-1ab9-4dd2-8579-de2fe182829f"},"vehicle_type_id":"4","last_reported":1713138937,"current_range_meters":21200,"station_id":"ce4bgip2rcd13ifvqbb0","pricing_plan_id":"cebpf4jnsgd1na2vs0mg"},{"bike_id":"cff82963-f319-4532-b751-efdb2aa96626","system_id":"levelo_inurba_marseille","lat":43.304278,"lon":5.388868,"is_reserved":false,"is_disabled":false,"rental_uris":{"android":"levelo://app?vid=cff82963-f319-4532-b751-efdb2aa96626","ios":"levelo://app?vid=cff82963-f319-4532-b751-efdb2aa96626"},"vehicle_type_id":"4","last_reported":1713138937,"current_range_meters":22400,"station_id":"ce4bgk12rcd13ifvqbi0","pricing_plan_id":"cebpf4jnsgd1na2vs0mg"},{"bike_id":"251bd1fc-f8c7-494b-acb4-e4ceba7a9905","system_id":"levelo_inurba_marseille","lat":43.304274,"lon":5.388873,"is_reserved":false,"is_disabled":false,"rental_uris":{"android":"levelo://app?vid=251bd1fc-f8c7-494b-acb4-e4ceba7a9905","ios":"levelo://app?vid=251bd1fc-f8c7-494b-acb4-e4ceba7a9905"},"vehicle_type_id":"4","last_reported":1713138937,"current_range_meters":30000,"station_id":"ce4bgk12rcd13ifvqbi0","pricing_plan_id":"cebpf4jnsgd1na2vs0mg"},{"bike_id":"0843464e-850d-4de6-88a8-91375272c3b8","system_id":"levelo_inurba_marseille","lat":43.304274,"lon":5.388873,"is_reserved":false,"is_disabled":false,"rental_uris":{"android":"levelo://app?vid=0843464e-850d-4de6-88a8-91375272c3b8","ios":"levelo://app?vid=0843464e-850d-4de6-88a8-91375272c3b8"},"vehicle_type_id":"4","last_reported":1713138937,"current_range_meters":28400,"station_id":"ce4bgk12rcd13ifvqbi0","pricing_plan_id":"cebpf4jnsgd1na2vs0mg"},{"bike_id":"c49d889c-b0dd-4922-820f-a5047b606ba1","system_id":"levelo_inurba_marseille","lat":43.304274,"lon":5.388873,"is_reserved":false,"is_disabled":false,"rental_uris":{"android":"levelo://app?vid=c49d889c-b0dd-4922-820f-a5047b606ba1","ios":"levelo://app?vid=c49d889c-b0dd-4922-820f-a5047b606ba1"},"vehicle_type_id":"4","last_reported":1713138937,"current_range_meters":24000,"station_id":"ce4bgk12rcd13ifvqbi0","pricing_plan_id":"cebpf4jnsgd1na2vs0mg"},{"bike_id":"e4ed30f4-bdb3-4283-ab09-a1ba11c613fa","system_id":"levelo_inurba_marseille","lat":43.304274,"lon":5.388873,"is_reserved":false,"is_disabled":false,"rental_uris":{"android":"levelo://app?vid=e4ed30f4-bdb3-4283-ab09-a1ba11c613fa","ios":"levelo://app?vid=e4ed30f4-bdb3-4283-ab09-a1ba11c613fa"},"vehicle_type_id":"4","last_reported":1713138937,"current_range_meters":23200,"station_id":"ce4bgk12rcd13ifvqbi0","pricing_plan_id":"cebpf4jnsgd1na2vs0mg"},{"bike_id":"aa3f1280-e0f8-4683-98b5-b9a8457daf6a","system_id":"levelo_inurba_marseille","lat":43.304278,"lon":5.388868,"is_reserved":false,"is_disabled":false,"rental_uris":{"android":"levelo://app?vid=aa3f1280-e0f8-4683-98b5-b9a8457daf6a","ios":"levelo://app?vid=aa3f1280-e0f8-4683-98b5-b9a8457daf6a"},"vehicle_type_id":"4","last_reported":1713138937,"current_range_meters":16000,"station_id":"ce4bgk12rcd13ifvqbi0","pricing_plan_id":"cebpf4jnsgd1na2vs0mg"},{"bike_id":"5b0589c3-17d3-4de4-915a-ea7d8f42c422","system_id":"levelo_inurba_marseille","lat":43.299707,"lon":5.384859,"is_reserved":false,"is_disabled":false,"rental_uris":{"android":"levelo://app?vid=5b0589c3-17d3-4de4-915a-ea7d8f42c422","ios":"levelo://app?vid=5b0589c3-17d3-4de4-915a-ea7d8f42c422"},"vehicle_type_id":"4","last_reported":1713138937,"current_range_meters":28400,"station_id":"ce4bgj92rcd13ifvqbd0","pricing_plan_id":"cebpf4jnsgd1na2vs0mg"},{"bike_id":"83aa9fb4-59f9-4a52-b1fa-4f20b6b523e7","system_id":"levelo_inurba_marseille","lat":43.295279,"lon":5.375048,"is_reserved":false,"is_disabled":false,"rental_uris":{"android":"levelo://app?vid=83aa9fb4-59f9-4a52-b1fa-4f20b6b523e7","ios":"levelo://app?vid=83aa9fb4-59f9-4a52-b1fa-4f20b6b523e7"},"vehicle_type_id":"4","last_reported":1713138937,"current_range_meters":21600,"station_id":"ce4bgkp2rcd13ifvqbmg","pricing_plan_id":"cebpf4jnsgd1na2vs0mg"},{"bike_id":"a6da98a2-8852-4d72-90d6-fbc42fbaacb0","system_id":"levelo_inurba_marseille","lat":43.32361,"lon":5.38875,"is_reserved":false,"is_disabled":false,"rental_uris":{"android":"levelo://app?vid=a6da98a2-8852-4d72-90d6-fbc42fbaacb0","ios":"levelo://app?vid=a6da98a2-8852-4d72-90d6-fbc42fbaacb0"},"vehicle_type_id":"4","last_reported":1713138937,"current_range_meters":7200,"station_id":"ce4bhqp2rcd13ifvqhog","pricing_plan_id":"cebpf4jnsgd1na2vs0mg"},{"bike_id":"5e0b0670-5cb6-45d3-a88a-cf4fff80bdca","system_id":"levelo_inurba_marseille","lat":43.32364,"lon":5.38883,"is_reserved":false,"is_disabled":false,"rental_uris":{"android":"levelo://app?vid=5e0b0670-5cb6-45d3-a88a-cf4fff80bdca","ios":"levelo://app?vid=5e0b0670-5cb6-45d3-a88a-cf4fff80bdca"},"vehicle_type_id":"4","last_reported":1713138937,"current_range_meters":400,"station_id":"ce4bhqp2rcd13ifvqhog","pricing_plan_id":"cebpf4jnsgd1na2vs0mg"},{"bike_id":"3971af31-91a7-4b11-95cf-24237bfe8e3d","system_id":"levelo_inurba_marseille","lat":43.3237,"lon":5.388805,"is_reserved":false,"is_disabled":false,"rental_uris":{"android":"levelo://app?vid=3971af31-91a7-4b11-95cf-24237bfe8e3d","ios":"levelo://app?vid=3971af31-91a7-4b11-95cf-24237bfe8e3d"},"vehicle_type_id":"4","last_reported":1713138937,"current_range_meters":1200,"station_id":"ce4bhqp2rcd13ifvqhog","pricing_plan_id":"cebpf4jnsgd1na2vs0mg"},{"bike_id":"c2ddccc3-2dd5-4cba-8df1-0a7d75b8e274","system_id":"levelo_inurba_marseille","lat":43.32367,"lon":5.38886,"is_reserved":false,"is_disabled":false,"rental_uris":{"android":"levelo://app?vid=c2ddccc3-2dd5-4cba-8df1-0a7d75b8e274","ios":"levelo://app?vid=c2ddccc3-2dd5-4cba-8df1-0a7d75b8e274"},"vehicle_type_id":"4","last_reported":1713138937,"current_range_meters":24400,"station_id":"ce4bhqp2rcd13ifvqhog","pricing_plan_id":"cebpf4jnsgd1na2vs0mg"},{"bike_id":"f4517bb6-92e9-47ce-8196-70d1f6358991","system_id":"levelo_inurba_marseille","lat":43.32366,"lon":5.38887,"is_reserved":false,"is_disabled":false,"rental_uris":{"android":"levelo://app?vid=f4517bb6-92e9-47ce-8196-70d1f6358991","ios":"levelo://app?vid=f4517bb6-92e9-47ce-8196-70d1f6358991"},"vehicle_type_id":"4","last_reported":1713138937,"current_range_meters":0,"station_id":"ce4bhqp2rcd13ifvqhog","pricing_plan_id":"cebpf4jnsgd1na2vs0mg"},{"bike_id":"1597fe90-ddbe-4714-8f1f-050864abc540","system_id":"levelo_inurba_marseille","lat":43.323693,"lon":5.388843,"is_reserved":false,"is_disabled":false,"rental_uris":{"android":"levelo://app?vid=1597fe90-ddbe-4714-8f1f-050864abc540","ios":"levelo://app?vid=1597fe90-ddbe-4714-8f1f-050864abc540"},"vehicle_type_id":"4","last_reported":1713138937,"current_range_meters":18000,"station_id":"ce4bhqp2rcd13ifvqhog","pricing_plan_id":"cebpf4jnsgd1na2vs0mg"},{"bike_id":"52c8d14c-7ace-43df-9f72-95cf3e26c293","system_id":"levelo_inurba_marseille","lat":43.323689,"lon":5.388866,"is_reserved":false,"is_disabled":false,"rental_uris":{"android":"levelo://app?vid=52c8d14c-7ace-43df-9f72-95cf3e26c293","ios":"levelo://app?vid=52c8d14c-7ace-43df-9f72-95cf3e26c293"},"vehicle_type_id":"4","last_reported":1713138937,"current_range_meters":6400,"station_id":"ce4bhqp2rcd13ifvqhog","pricing_plan_id":"cebpf4jnsgd1na2vs0mg"},{"bike_id":"7abdb8bf-ffae-4e5f-911d-ad41a3d8ea44","system_id":"levelo_inurba_marseille","lat":43.29602,"lon":5.381084,"is_reserved":false,"is_disabled":false,"rental_uris":{"android":"levelo://app?vid=7abdb8bf-ffae-4e5f-911d-ad41a3d8ea44","ios":"levelo://app?vid=7abdb8bf-ffae-4e5f-911d-ad41a3d8ea44"},"vehicle_type_id":"4","last_reported":1713138937,"current_range_meters":7200,"station_id":"ce4bgl12rcd13ifvqbo0","pricing_plan_id":"cebpf4jnsgd1na2vs0mg"},{"bike_id":"604fe6f6-6d6b-4df2-b7bb-b1cf5dc3c39f","system_id":"levelo_inurba_marseille","lat":43.292749,"lon":5.368398,"is_reserved":false,"is_disabled":false,"rental_uris":{"android":"levelo://app?vid=604fe6f6-6d6b-4df2-b7bb-b1cf5dc3c39f","ios":"levelo://app?vid=604fe6f6-6d6b-4df2-b7bb-b1cf5dc3c39f"},"vehicle_type_id":"4","last_reported":1713138937,"current_range_meters":25200,"station_id":"ce4bhbp2rcd13ifvqesg","pricing_plan_id":"cebpf4jnsgd1na2vs0mg"},{"bike_id":"18fee8b4-bf21-4256-8103-417575839011","system_id":"levelo_inurba_marseille","lat":43.305994,"lon":5.393687,"is_reserved":false,"is_disabled":false,"rental_uris":{"android":"levelo://app?vid=18fee8b4-bf21-4256-8103-417575839011","ios":"levelo://app?vid=18fee8b4-bf21-4256-8103-417575839011"},"vehicle_type_id":"4","last_reported":1713138937,"current_range_meters":28000,"station_id":"ce4bh0p2rcd13ifvqd80","pricing_plan_id":"cebpf4jnsgd1na2vs0mg"},{"bike_id":"db571428-3e2c-4b4b-8159-1029d2c61aec","system_id":"levelo_inurba_marseille","lat":43.305994,"lon":5.393687,"is_reserved":false,"is_disabled":false,"rental_uris":{"android":"levelo://app?vid=db571428-3e2c-4b4b-8159-1029d2c61aec","ios":"levelo://app?vid=db571428-3e2c-4b4b-8159-1029d2c61aec"},"vehicle_type_id":"4","last_reported":1713138937,"current_range_meters":20800,"station_id":"ce4bh0p2rcd13ifvqd80","pricing_plan_id":"cebpf4jnsgd1na2vs0mg"},{"bike_id":"3cd5c281-37aa-4c8d-8760-44e877925bce","system_id":"levelo_inurba_marseille","lat":43.302992,"lon":5.391719,"is_reserved":false,"is_disabled":false,"rental_uris":{"android":"levelo://app?vid=3cd5c281-37aa-4c8d-8760-44e877925bce","ios":"levelo://app?vid=3cd5c281-37aa-4c8d-8760-44e877925bce"},"vehicle_type_id":"4","last_reported":1713138937,"current_range_meters":28000,"station_id":"ce4bgkh2rcd13ifvqbk0","pricing_plan_id":"cebpf4jnsgd1na2vs0mg"},{"bike_id":"5ebe4c27-0a7c-4bb9-996b-a44ae3478bf0","system_id":"levelo_inurba_marseille","lat":43.30304,"lon":5.39204,"is_reserved":false,"is_disabled":false,"rental_uris":{"android":"levelo://app?vid=5ebe4c27-0a7c-4bb9-996b-a44ae3478bf0","ios":"levelo://app?vid=5ebe4c27-0a7c-4bb9-996b-a44ae3478bf0"},"vehicle_type_id":"4","last_reported":1713138937,"current_range_meters":31200,"station_id":"ce4bgkh2rcd13ifvqbk0","pricing_plan_id":"cebpf4jnsgd1na2vs0mg"},{"bike_id":"9a5114b5-cebb-441a-93ff-103bc19ec0e7","system_id":"levelo_inurba_marseille","lat":43.302992,"lon":5.392136,"is_reserved":false,"is_disabled":false,"rental_uris":{"android":"levelo://app?vid=9a5114b5-cebb-441a-93ff-103bc19ec0e7","ios":"levelo://app?vid=9a5114b5-cebb-441a-93ff-103bc19ec0e7"},"vehicle_type_id":"4","last_reported":1713138937,"current_range_meters":18400,"station_id":"ce4bgkh2rcd13ifvqbk0","pricing_plan_id":"cebpf4jnsgd1na2vs0mg"},{"bike_id":"721f82fe-4326-431a-af8d-4007be527327","system_id":"levelo_inurba_marseille","lat":43.302992,"lon":5.392136,"is_reserved":false,"is_disabled":false,"rental_uris":{"android":"levelo://app?vid=721f82fe-4326-431a-af8d-4007be527327","ios":"levelo://app?vid=721f82fe-4326-431a-af8d-4007be527327"},"vehicle_type_id":"4","last_reported":1713138937,"current_range_meters":20400,"station_id":"ce4bgkh2rcd13ifvqbk0","pricing_plan_id":"cebpf4jnsgd1na2vs0mg"},{"bike_id":"f51abbda-48cd-47d2-9295-659493530f4b","system_id":"levelo_inurba_marseille","lat":43.303002,"lon":5.392142,"is_reserved":false,"is_disabled":false,"rental_uris":{"android":"levelo://app?vid=f51abbda-48cd-47d2-9295-659493530f4b","ios":"levelo://app?vid=f51abbda-48cd-47d2-9295-659493530f4b"},"vehicle_type_id":"4","last_reported":1713138937,"current_range_meters":31200,"station_id":"ce4bgkh2rcd13ifvqbk0","pricing_plan_id":"cebpf4jnsgd1na2vs0mg"},{"bike_id":"a5b579b9-2dc5-4cf8-96a6-4857a9c921b6","system_id":"levelo_inurba_marseille","lat":43.303002,"lon":5.392142,"is_reserved":false,"is_disabled":false,"rental_uris":{"android":"levelo://app?vid=a5b579b9-2dc5-4cf8-96a6-4857a9c921b6","ios":"levelo://app?vid=a5b579b9-2dc5-4cf8-96a6-4857a9c921b6"},"vehicle_type_id":"4","last_reported":1713138937,"current_range_meters":29600,"station_id":"ce4bgkh2rcd13ifvqbk0","pricing_plan_id":"cebpf4jnsgd1na2vs0mg"},{"bike_id":"2e39f074-e0a5-4af2-adc0-b3da872877fe","system_id":"levelo_inurba_marseille","lat":43.302992,"lon":5.392136,"is_reserved":false,"is_disabled":false,"rental_uris":{"android":"levelo://app?vid=2e39f074-e0a5-4af2-adc0-b3da872877fe","ios":"levelo://app?vid=2e39f074-e0a5-4af2-adc0-b3da872877fe"},"vehicle_type_id":"4","last_reported":1713138937,"current_range_meters":12400,"station_id":"ce4bgkh2rcd13ifvqbk0","pricing_plan_id":"cebpf4jnsgd1na2vs0mg"},{"bike_id":"835f19b4-3afd-4586-9388-ef4eb2f3babb","system_id":"levelo_inurba_marseille","lat":43.302992,"lon":5.392136,"is_reserved":false,"is_disabled":false,"rental_uris":{"android":"levelo://app?vid=835f19b4-3afd-4586-9388-ef4eb2f3babb","ios":"levelo://app?vid=835f19b4-3afd-4586-9388-ef4eb2f3babb"},"vehicle_type_id":"4","last_reported":1713138937,"current_range_meters":26000,"station_id":"ce4bgkh2rcd13ifvqbk0","pricing_plan_id":"cebpf4jnsgd1na2vs0mg"},{"bike_id":"51a470a1-84a4-464e-b01a-d52bddaea6d2","system_id":"levelo_inurba_marseille","lat":43.2936,"lon":5.37835,"is_reserved":false,"is_disabled":false,"rental_uris":{"android":"levelo://app?vid=51a470a1-84a4-464e-b01a-d52bddaea6d2","ios":"levelo://app?vid=51a470a1-84a4-464e-b01a-d52bddaea6d2"},"vehicle_type_id":"4","last_reported":1713138937,"current_range_meters":21600,"station_id":"ce4bgjh2rcd13ifvqbf0","pricing_plan_id":"cebpf4jnsgd1na2vs0mg"},{"bike_id":"fba347dc-8142-49b8-9037-c84de139b45d","system_id":"levelo_inurba_marseille","lat":43.302992,"lon":5.392136,"is_reserved":false,"is_disabled":false,"rental_uris":{"android":"levelo://app?vid=fba347dc-8142-49b8-9037-c84de139b45d","ios":"levelo://app?vid=fba347dc-8142-49b8-9037-c84de139b45d"},"vehicle_type_id":"4","last_reported":1713138937,"current_range_meters":30400,"station_id":"ce4bgkh2rcd13ifvqbk0","pricing_plan_id":"cebpf4jnsgd1na2vs0mg"},{"bike_id":"044976c0-2f28-46c2-9db0-80603a9673b4","system_id":"levelo_inurba_marseille","lat":43.279742,"lon":5.38744,"is_reserved":false,"is_disabled":false,"rental_uris":{"android":"levelo://app?vid=044976c0-2f28-46c2-9db0-80603a9673b4","ios":"levelo://app?vid=044976c0-2f28-46c2-9db0-80603a9673b4"},"vehicle_type_id":"4","last_reported":1713138937,"current_range_meters":17600,"station_id":"ce4bhg12rcd13ifvqf80","pricing_plan_id":"cebpf4jnsgd1na2vs0mg"},{"bike_id":"46afbdd8-2322-4100-ba5f-7d7560f73ff4","system_id":"levelo_inurba_marseille","lat":43.30085,"lon":5.390856,"is_reserved":false,"is_disabled":false,"rental_uris":{"android":"levelo://app?vid=46afbdd8-2322-4100-ba5f-7d7560f73ff4","ios":"levelo://app?vid=46afbdd8-2322-4100-ba5f-7d7560f73ff4"},"vehicle_type_id":"4","last_reported":1713138937,"current_range_meters":29200,"station_id":"ce4bh192rcd13ifvqdb0","pricing_plan_id":"cebpf4jnsgd1na2vs0mg"},{"bike_id":"bdc9e5d5-530f-4650-a5cc-3743a714c82f","system_id":"levelo_inurba_marseille","lat":43.30085,"lon":5.390856,"is_reserved":false,"is_disabled":false,"rental_uris":{"android":"levelo://app?vid=bdc9e5d5-530f-4650-a5cc-3743a714c82f","ios":"levelo://app?vid=bdc9e5d5-530f-4650-a5cc-3743a714c82f"},"vehicle_type_id":"4","last_reported":1713138937,"current_range_meters":10800,"station_id":"ce4bh192rcd13ifvqdb0","pricing_plan_id":"cebpf4jnsgd1na2vs0mg"},{"bike_id":"99b8783e-8899-4ea9-8227-a8782fec4f33","system_id":"levelo_inurba_marseille","lat":43.300899,"lon":5.390729,"is_reserved":false,"is_disabled":false,"rental_uris":{"android":"levelo://app?vid=99b8783e-8899-4ea9-8227-a8782fec4f33","ios":"levelo://app?vid=99b8783e-8899-4ea9-8227-a8782fec4f33"},"vehicle_type_id":"4","last_reported":1713138937,"current_range_meters":31200,"station_id":"ce4bh192rcd13ifvqdb0","pricing_plan_id":"cebpf4jnsgd1na2vs0mg"},{"bike_id":"41c2afd2-aedb-48ed-8be8-bc582f9ac0eb","system_id":"levelo_inurba_marseille","lat":43.292311,"lon":5.360731,"is_reserved":false,"is_disabled":false,"rental_uris":{"android":"levelo://app?vid=41c2afd2-aedb-48ed-8be8-bc582f9ac0eb","ios":"levelo://app?vid=41c2afd2-aedb-48ed-8be8-bc582f9ac0eb"},"vehicle_type_id":"4","last_reported":1713138937,"current_range_meters":30800,"station_id":"ce4bhbh2rcd13ifvqeqg","pricing_plan_id":"cebpf4jnsgd1na2vs0mg"},{"bike_id":"68d445fa-ab4f-4b1e-a763-89809fbabf98","system_id":"levelo_inurba_marseille","lat":43.292311,"lon":5.360731,"is_reserved":false,"is_disabled":false,"rental_uris":{"android":"levelo://app?vid=68d445fa-ab4f-4b1e-a763-89809fbabf98","ios":"levelo://app?vid=68d445fa-ab4f-4b1e-a763-89809fbabf98"},"vehicle_type_id":"4","last_reported":1713138937,"current_range_meters":30800,"station_id":"ce4bhbh2rcd13ifvqeqg","pricing_plan_id":"cebpf4jnsgd1na2vs0mg"},{"bike_id":"bd093004-7f89-4344-b848-687bba789aaa","system_id":"levelo_inurba_marseille","lat":43.292311,"lon":5.360731,"is_reserved":false,"is_disabled":false,"rental_uris":{"android":"levelo://app?vid=bd093004-7f89-4344-b848-687bba789aaa","ios":"levelo://app?vid=bd093004-7f89-4344-b848-687bba789aaa"},"vehicle_type_id":"4","last_reported":1713138937,"current_range_meters":1200,"station_id":"ce4bhbh2rcd13ifvqeqg","pricing_plan_id":"cebpf4jnsgd1na2vs0mg"},{"bike_id":"05dcd484-4339-4e1a-a4da-ccfbe34a0e13","system_id":"levelo_inurba_marseille","lat":43.300953,"lon":5.390793,"is_reserved":false,"is_disabled":false,"rental_uris":{"android":"levelo://app?vid=05dcd484-4339-4e1a-a4da-ccfbe34a0e13","ios":"levelo://app?vid=05dcd484-4339-4e1a-a4da-ccfbe34a0e13"},"vehicle_type_id":"4","last_reported":1713138937,"current_range_meters":31200,"station_id":"ce4bh192rcd13ifvqdb0","pricing_plan_id":"cebpf4jnsgd1na2vs0mg"},{"bike_id":"853eea62-17bc-4ab3-86e1-b85790f9e653","system_id":"levelo_inurba_marseille","lat":43.30085,"lon":5.390856,"is_reserved":false,"is_disabled":false,"rental_uris":{"android":"levelo://app?vid=853eea62-17bc-4ab3-86e1-b85790f9e653","ios":"levelo://app?vid=853eea62-17bc-4ab3-86e1-b85790f9e653"},"vehicle_type_id":"4","last_reported":1713138937,"current_range_meters":6400,"station_id":"ce4bh192rcd13ifvqdb0","pricing_plan_id":"cebpf4jnsgd1na2vs0mg"},{"bike_id":"cf5b2705-7ba1-4d3a-8e12-4fc000730ea0","system_id":"levelo_inurba_marseille","lat":43.30085,"lon":5.390856,"is_reserved":false,"is_disabled":false,"rental_uris":{"android":"levelo://app?vid=cf5b2705-7ba1-4d3a-8e12-4fc000730ea0","ios":"levelo://app?vid=cf5b2705-7ba1-4d3a-8e12-4fc000730ea0"},"vehicle_type_id":"4","last_reported":1713138937,"current_range_meters":31600,"station_id":"ce4bh192rcd13ifvqdb0","pricing_plan_id":"cebpf4jnsgd1na2vs0mg"},{"bike_id":"d4846c7c-6bcf-4794-9cd2-d0cb5214aee9","system_id":"levelo_inurba_marseille","lat":43.300907,"lon":5.390767,"is_reserved":false,"is_disabled":false,"rental_uris":{"android":"levelo://app?vid=d4846c7c-6bcf-4794-9cd2-d0cb5214aee9","ios":"levelo://app?vid=d4846c7c-6bcf-4794-9cd2-d0cb5214aee9"},"vehicle_type_id":"4","last_reported":1713138937,"current_range_meters":30000,"station_id":"ce4bh192rcd13ifvqdb0","pricing_plan_id":"cebpf4jnsgd1na2vs0mg"},{"bike_id":"6ee40191-15f1-45d4-b7e4-a70460db6032","system_id":"levelo_inurba_marseille","lat":43.30076,"lon":5.39071,"is_reserved":false,"is_disabled":false,"rental_uris":{"android":"levelo://app?vid=6ee40191-15f1-45d4-b7e4-a70460db6032","ios":"levelo://app?vid=6ee40191-15f1-45d4-b7e4-a70460db6032"},"vehicle_type_id":"4","last_reported":1713138937,"current_range_meters":16400,"station_id":"ce4bh192rcd13ifvqdb0","pricing_plan_id":"cebpf4jnsgd1na2vs0mg"},{"bike_id":"c1ff4f24-fde6-4c4f-9575-ed0868121bff","system_id":"levelo_inurba_marseille","lat":43.30085,"lon":5.390856,"is_reserved":false,"is_disabled":false,"rental_uris":{"android":"levelo://app?vid=c1ff4f24-fde6-4c4f-9575-ed0868121bff","ios":"levelo://app?vid=c1ff4f24-fde6-4c4f-9575-ed0868121bff"},"vehicle_type_id":"4","last_reported":1713138937,"current_range_meters":23200,"station_id":"ce4bh192rcd13ifvqdb0","pricing_plan_id":"cebpf4jnsgd1na2vs0mg"},{"bike_id":"f24c31f8-17c8-4b7a-9acc-08cb7c8ba761","system_id":"levelo_inurba_marseille","lat":43.300947,"lon":5.390907,"is_reserved":false,"is_disabled":false,"rental_uris":{"android":"levelo://app?vid=f24c31f8-17c8-4b7a-9acc-08cb7c8ba761","ios":"levelo://app?vid=f24c31f8-17c8-4b7a-9acc-08cb7c8ba761"},"vehicle_type_id":"4","last_reported":1713138937,"current_range_meters":0,"station_id":"","pricing_plan_id":"cebpf4jnsgd1na2vs0mg"},{"bike_id":"3b81cb62-7d42-4da3-807a-cc561372695c","system_id":"levelo_inurba_marseille","lat":43.298764,"lon":5.388973,"is_reserved":false,"is_disabled":false,"rental_uris":{"android":"levelo://app?vid=3b81cb62-7d42-4da3-807a-cc561372695c","ios":"levelo://app?vid=3b81cb62-7d42-4da3-807a-cc561372695c"},"vehicle_type_id":"4","last_reported":1713138937,"current_range_meters":0,"station_id":"ce4bh392rcd13ifvqdl0","pricing_plan_id":"cebpf4jnsgd1na2vs0mg"},{"bike_id":"4e920ada-1b88-4e9c-85c7-a94edb8a53a8","system_id":"levelo_inurba_marseille","lat":43.298764,"lon":5.388973,"is_reserved":false,"is_disabled":false,"rental_uris":{"android":"levelo://app?vid=4e920ada-1b88-4e9c-85c7-a94edb8a53a8","ios":"levelo://app?vid=4e920ada-1b88-4e9c-85c7-a94edb8a53a8"},"vehicle_type_id":"4","last_reported":1713138937,"current_range_meters":9600,"station_id":"ce4bh392rcd13ifvqdl0","pricing_plan_id":"cebpf4jnsgd1na2vs0mg"},{"bike_id":"1ffc8301-da95-4cf7-8589-7c99ba8dc27c","system_id":"levelo_inurba_marseille","lat":43.291671,"lon":5.371575,"is_reserved":false,"is_disabled":false,"rental_uris":{"android":"levelo://app?vid=1ffc8301-da95-4cf7-8589-7c99ba8dc27c","ios":"levelo://app?vid=1ffc8301-da95-4cf7-8589-7c99ba8dc27c"},"vehicle_type_id":"4","last_reported":1713138937,"current_range_meters":25600,"station_id":"ce4bha92rcd13ifvqeh0","pricing_plan_id":"cebpf4jnsgd1na2vs0mg"},{"bike_id":"4500a8dc-8460-4515-9850-9543344e2a86","system_id":"levelo_inurba_marseille","lat":43.292005,"lon":5.357875,"is_reserved":false,"is_disabled":false,"rental_uris":{"android":"levelo://app?vid=4500a8dc-8460-4515-9850-9543344e2a86","ios":"levelo://app?vid=4500a8dc-8460-4515-9850-9543344e2a86"},"vehicle_type_id":"4","last_reported":1713138937,"current_range_meters":22000,"station_id":"ce4bhb12rcd13ifvqel0","pricing_plan_id":"cebpf4jnsgd1na2vs0mg"},{"bike_id":"25fdf228-348a-4ff3-a192-cb4977b94cfb","system_id":"levelo_inurba_marseille","lat":43.309047,"lon":5.396551,"is_reserved":false,"is_disabled":false,"rental_uris":{"android":"levelo://app?vid=25fdf228-348a-4ff3-a192-cb4977b94cfb","ios":"levelo://app?vid=25fdf228-348a-4ff3-a192-cb4977b94cfb"},"vehicle_type_id":"4","last_reported":1713138937,"current_range_meters":24000,"station_id":"ce4bh012rcd13ifvqcv0","pricing_plan_id":"cebpf4jnsgd1na2vs0mg"},{"bike_id":"fb1624d7-7904-4352-a932-5ec918433e7f","system_id":"levelo_inurba_marseille","lat":43.313291,"lon":5.396838,"is_reserved":false,"is_disabled":false,"rental_uris":{"android":"levelo://app?vid=fb1624d7-7904-4352-a932-5ec918433e7f","ios":"levelo://app?vid=fb1624d7-7904-4352-a932-5ec918433e7f"},"vehicle_type_id":"4","last_reported":1713138937,"current_range_meters":22800,"station_id":"ce4bgvp2rcd13ifvqcu0","pricing_plan_id":"cebpf4jnsgd1na2vs0mg"},{"bike_id":"eba79728-697d-4100-8971-62cc601a0b5e","system_id":"levelo_inurba_marseille","lat":43.313291,"lon":5.396838,"is_reserved":false,"is_disabled":false,"rental_uris":{"android":"levelo://app?vid=eba79728-697d-4100-8971-62cc601a0b5e","ios":"levelo://app?vid=eba79728-697d-4100-8971-62cc601a0b5e"},"vehicle_type_id":"4","last_reported":1713138937,"current_range_meters":17600,"station_id":"ce4bgvp2rcd13ifvqcu0","pricing_plan_id":"cebpf4jnsgd1na2vs0mg"},{"bike_id":"f348a281-39ab-4db7-84f7-72ae9f1f40ce","system_id":"levelo_inurba_marseille","lat":43.313291,"lon":5.396838,"is_reserved":false,"is_disabled":false,"rental_uris":{"android":"levelo://app?vid=f348a281-39ab-4db7-84f7-72ae9f1f40ce","ios":"levelo://app?vid=f348a281-39ab-4db7-84f7-72ae9f1f40ce"},"vehicle_type_id":"4","last_reported":1713138937,"current_range_meters":15600,"station_id":"ce4bgvp2rcd13ifvqcu0","pricing_plan_id":"cebpf4jnsgd1na2vs0mg"},{"bike_id":"4865b631-6c18-4769-acf7-a555a30ec1ae","system_id":"levelo_inurba_marseille","lat":43.313291,"lon":5.396838,"is_reserved":false,"is_disabled":false,"rental_uris":{"android":"levelo://app?vid=4865b631-6c18-4769-acf7-a555a30ec1ae","ios":"levelo://app?vid=4865b631-6c18-4769-acf7-a555a30ec1ae"},"vehicle_type_id":"4","last_reported":1713138937,"current_range_meters":23200,"station_id":"ce4bgvp2rcd13ifvqcu0","pricing_plan_id":"cebpf4jnsgd1na2vs0mg"},{"bike_id":"b87fd7ab-4938-4a41-972b-6a51dc5dd023","system_id":"levelo_inurba_marseille","lat":43.291994,"lon":5.357886,"is_reserved":false,"is_disabled":false,"rental_uris":{"android":"levelo://app?vid=b87fd7ab-4938-4a41-972b-6a51dc5dd023","ios":"levelo://app?vid=b87fd7ab-4938-4a41-972b-6a51dc5dd023"},"vehicle_type_id":"4","last_reported":1713138937,"current_range_meters":28800,"station_id":"ce4bhb12rcd13ifvqel0","pricing_plan_id":"cebpf4jnsgd1na2vs0mg"},{"bike_id":"bbf8c5fa-6dd2-4f5f-bdb7-02502b1a524a","system_id":"levelo_inurba_marseille","lat":43.313291,"lon":5.396838,"is_reserved":false,"is_disabled":false,"rental_uris":{"android":"levelo://app?vid=bbf8c5fa-6dd2-4f5f-bdb7-02502b1a524a","ios":"levelo://app?vid=bbf8c5fa-6dd2-4f5f-bdb7-02502b1a524a"},"vehicle_type_id":"4","last_reported":1713138937,"current_range_meters":8000,"station_id":"ce4bgvp2rcd13ifvqcu0","pricing_plan_id":"cebpf4jnsgd1na2vs0mg"},{"bike_id":"6c7bff43-af75-4525-8739-7535e45145f3","system_id":"levelo_inurba_marseille","lat":43.292005,"lon":5.357875,"is_reserved":false,"is_disabled":false,"rental_uris":{"android":"levelo://app?vid=6c7bff43-af75-4525-8739-7535e45145f3","ios":"levelo://app?vid=6c7bff43-af75-4525-8739-7535e45145f3"},"vehicle_type_id":"4","last_reported":1713138937,"current_range_meters":16800,"station_id":"ce4bhb12rcd13ifvqel0","pricing_plan_id":"cebpf4jnsgd1na2vs0mg"},{"bike_id":"39f2bd32-3df9-47a4-b0c0-f22273cc886e","system_id":"levelo_inurba_marseille","lat":43.309038,"lon":5.396546,"is_reserved":false,"is_disabled":false,"rental_uris":{"android":"levelo://app?vid=39f2bd32-3df9-47a4-b0c0-f22273cc886e","ios":"levelo://app?vid=39f2bd32-3df9-47a4-b0c0-f22273cc886e"},"vehicle_type_id":"4","last_reported":1713138937,"current_range_meters":24400,"station_id":"ce4bh012rcd13ifvqcv0","pricing_plan_id":"cebpf4jnsgd1na2vs0mg"},{"bike_id":"2d7c02c5-8649-4676-a7bc-3a87c234308a","system_id":"levelo_inurba_marseille","lat":43.309038,"lon":5.396546,"is_reserved":false,"is_disabled":false,"rental_uris":{"android":"levelo://app?vid=2d7c02c5-8649-4676-a7bc-3a87c234308a","ios":"levelo://app?vid=2d7c02c5-8649-4676-a7bc-3a87c234308a"},"vehicle_type_id":"4","last_reported":1713138937,"current_range_meters":19600,"station_id":"ce4bh012rcd13ifvqcv0","pricing_plan_id":"cebpf4jnsgd1na2vs0mg"},{"bike_id":"65636599-b679-4e7a-8450-92a6e4b80e01","system_id":"levelo_inurba_marseille","lat":43.313291,"lon":5.396838,"is_reserved":false,"is_disabled":false,"rental_uris":{"android":"levelo://app?vid=65636599-b679-4e7a-8450-92a6e4b80e01","ios":"levelo://app?vid=65636599-b679-4e7a-8450-92a6e4b80e01"},"vehicle_type_id":"4","last_reported":1713138937,"current_range_meters":18800,"station_id":"ce4bgvp2rcd13ifvqcu0","pricing_plan_id":"cebpf4jnsgd1na2vs0mg"},{"bike_id":"1db6c5a3-6ff7-4be3-ad00-1cd8b25de0da","system_id":"levelo_inurba_marseille","lat":43.313291,"lon":5.396838,"is_reserved":false,"is_disabled":false,"rental_uris":{"android":"levelo://app?vid=1db6c5a3-6ff7-4be3-ad00-1cd8b25de0da","ios":"levelo://app?vid=1db6c5a3-6ff7-4be3-ad00-1cd8b25de0da"},"vehicle_type_id":"4","last_reported":1713138937,"current_range_meters":4400,"station_id":"ce4bgvp2rcd13ifvqcu0","pricing_plan_id":"cebpf4jnsgd1na2vs0mg"},{"bike_id":"06baaa92-0cdc-4452-9dc5-92271c64a33c","system_id":"levelo_inurba_marseille","lat":43.313291,"lon":5.396838,"is_reserved":false,"is_disabled":false,"rental_uris":{"android":"levelo://app?vid=06baaa92-0cdc-4452-9dc5-92271c64a33c","ios":"levelo://app?vid=06baaa92-0cdc-4452-9dc5-92271c64a33c"},"vehicle_type_id":"4","last_reported":1713138937,"current_range_meters":22800,"station_id":"ce4bgvp2rcd13ifvqcu0","pricing_plan_id":"cebpf4jnsgd1na2vs0mg"},{"bike_id":"a39ea604-ed2d-45bd-b626-8758011b0c8b","system_id":"levelo_inurba_marseille","lat":43.313291,"lon":5.396838,"is_reserved":false,"is_disabled":false,"rental_uris":{"android":"levelo://app?vid=a39ea604-ed2d-45bd-b626-8758011b0c8b","ios":"levelo://app?vid=a39ea604-ed2d-45bd-b626-8758011b0c8b"},"vehicle_type_id":"4","last_reported":1713138937,"current_range_meters":31600,"station_id":"ce4bgvp2rcd13ifvqcu0","pricing_plan_id":"cebpf4jnsgd1na2vs0mg"},{"bike_id":"056acafa-203f-469d-9d2a-1af6a7394d57","system_id":"levelo_inurba_marseille","lat":43.309038,"lon":5.396546,"is_reserved":false,"is_disabled":false,"rental_uris":{"android":"levelo://app?vid=056acafa-203f-469d-9d2a-1af6a7394d57","ios":"levelo://app?vid=056acafa-203f-469d-9d2a-1af6a7394d57"},"vehicle_type_id":"4","last_reported":1713138937,"current_range_meters":17200,"station_id":"ce4bh012rcd13ifvqcv0","pricing_plan_id":"cebpf4jnsgd1na2vs0mg"},{"bike_id":"cf52a3e2-002a-4775-8365-63e0cec156c0","system_id":"levelo_inurba_marseille","lat":43.309038,"lon":5.396546,"is_reserved":false,"is_disabled":false,"rental_uris":{"android":"levelo://app?vid=cf52a3e2-002a-4775-8365-63e0cec156c0","ios":"levelo://app?vid=cf52a3e2-002a-4775-8365-63e0cec156c0"},"vehicle_type_id":"4","last_reported":1713138937,"current_range_meters":800,"station_id":"ce4bh012rcd13ifvqcv0","pricing_plan_id":"cebpf4jnsgd1na2vs0mg"},{"bike_id":"cfd40ac5-ebaa-4f90-8db9-d2c1ffa22488","system_id":"levelo_inurba_marseille","lat":43.309371,"lon":5.401449,"is_reserved":false,"is_disabled":false,"rental_uris":{"android":"levelo://app?vid=cfd40ac5-ebaa-4f90-8db9-d2c1ffa22488","ios":"levelo://app?vid=cfd40ac5-ebaa-4f90-8db9-d2c1ffa22488"},"vehicle_type_id":"4","last_reported":1713138937,"current_range_meters":11200,"station_id":"ce4bgvp2rcd13ifvqct0","pricing_plan_id":"cebpf4jnsgd1na2vs0mg"},{"bike_id":"091eb237-b98a-4763-86a9-e74091e7e418","system_id":"levelo_inurba_marseille","lat":43.302008,"lon":5.394694,"is_reserved":false,"is_disabled":false,"rental_uris":{"android":"levelo://app?vid=091eb237-b98a-4763-86a9-e74091e7e418","ios":"levelo://app?vid=091eb237-b98a-4763-86a9-e74091e7e418"},"vehicle_type_id":"4","last_reported":1713138937,"current_range_meters":25200,"station_id":"ce4bh0p2rcd13ifvqd70","pricing_plan_id":"cebpf4jnsgd1na2vs0mg"},{"bike_id":"cdc14cba-6922-4bf8-9bff-086c7b8276a2","system_id":"levelo_inurba_marseille","lat":43.302008,"lon":5.394694,"is_reserved":false,"is_disabled":false,"rental_uris":{"android":"levelo://app?vid=cdc14cba-6922-4bf8-9bff-086c7b8276a2","ios":"levelo://app?vid=cdc14cba-6922-4bf8-9bff-086c7b8276a2"},"vehicle_type_id":"4","last_reported":1713138937,"current_range_meters":22000,"station_id":"ce4bh0p2rcd13ifvqd70","pricing_plan_id":"cebpf4jnsgd1na2vs0mg"},{"bike_id":"66e6dc95-569a-4305-8552-8d0eec7439f1","system_id":"levelo_inurba_marseille","lat":43.302008,"lon":5.394694,"is_reserved":false,"is_disabled":false,"rental_uris":{"android":"levelo://app?vid=66e6dc95-569a-4305-8552-8d0eec7439f1","ios":"levelo://app?vid=66e6dc95-569a-4305-8552-8d0eec7439f1"},"vehicle_type_id":"4","last_reported":1713138937,"current_range_meters":28400,"station_id":"ce4bh0p2rcd13ifvqd70","pricing_plan_id":"cebpf4jnsgd1na2vs0mg"},{"bike_id":"7ea787b1-d079-4b44-a545-c1ad90309148","system_id":"levelo_inurba_marseille","lat":43.290624,"lon":5.359245,"is_reserved":false,"is_disabled":false,"rental_uris":{"android":"levelo://app?vid=7ea787b1-d079-4b44-a545-c1ad90309148","ios":"levelo://app?vid=7ea787b1-d079-4b44-a545-c1ad90309148"},"vehicle_type_id":"4","last_reported":1713138937,"current_range_meters":20400,"station_id":"ce4bha92rcd13ifvqeg0","pricing_plan_id":"cebpf4jnsgd1na2vs0mg"},{"bike_id":"d03cf6b9-d3ab-4ca7-ab6f-35749d89a140","system_id":"levelo_inurba_marseille","lat":43.290624,"lon":5.359245,"is_reserved":false,"is_disabled":false,"rental_uris":{"android":"levelo://app?vid=d03cf6b9-d3ab-4ca7-ab6f-35749d89a140","ios":"levelo://app?vid=d03cf6b9-d3ab-4ca7-ab6f-35749d89a140"},"vehicle_type_id":"4","last_reported":1713138937,"current_range_meters":24800,"station_id":"ce4bha92rcd13ifvqeg0","pricing_plan_id":"cebpf4jnsgd1na2vs0mg"},{"bike_id":"6d469fc5-5a9e-4809-8a56-69ae4e9955c7","system_id":"levelo_inurba_marseille","lat":43.290319,"lon":5.375732,"is_reserved":false,"is_disabled":false,"rental_uris":{"android":"levelo://app?vid=6d469fc5-5a9e-4809-8a56-69ae4e9955c7","ios":"levelo://app?vid=6d469fc5-5a9e-4809-8a56-69ae4e9955c7"},"vehicle_type_id":"4","last_reported":1713138937,"current_range_meters":22400,"station_id":"ce4bh692rcd13ifvqe90","pricing_plan_id":"cebpf4jnsgd1na2vs0mg"},{"bike_id":"11cd246f-93e8-4d07-bbb2-2f306003c2a4","system_id":"levelo_inurba_marseille","lat":43.294172,"lon":5.3862,"is_reserved":false,"is_disabled":false,"rental_uris":{"android":"levelo://app?vid=11cd246f-93e8-4d07-bbb2-2f306003c2a4","ios":"levelo://app?vid=11cd246f-93e8-4d07-bbb2-2f306003c2a4"},"vehicle_type_id":"4","last_reported":1713138937,"current_range_meters":17600,"station_id":"ce4bh2h2rcd13ifvqdh0","pricing_plan_id":"cebpf4jnsgd1na2vs0mg"},{"bike_id":"c64c2259-a66c-4f22-a86a-8ce5e50be74e","system_id":"levelo_inurba_marseille","lat":43.294162,"lon":5.386292,"is_reserved":false,"is_disabled":false,"rental_uris":{"android":"levelo://app?vid=c64c2259-a66c-4f22-a86a-8ce5e50be74e","ios":"levelo://app?vid=c64c2259-a66c-4f22-a86a-8ce5e50be74e"},"vehicle_type_id":"4","last_reported":1713138937,"current_range_meters":16800,"station_id":"ce4bh2h2rcd13ifvqdh0","pricing_plan_id":"cebpf4jnsgd1na2vs0mg"},{"bike_id":"227aee08-50f4-4ec1-b153-6009f7628182","system_id":"levelo_inurba_marseille","lat":43.289184,"lon":5.366408,"is_reserved":false,"is_disabled":false,"rental_uris":{"android":"levelo://app?vid=227aee08-50f4-4ec1-b153-6009f7628182","ios":"levelo://app?vid=227aee08-50f4-4ec1-b153-6009f7628182"},"vehicle_type_id":"4","last_reported":1713138937,"current_range_meters":27600,"station_id":"ce4bhap2rcd13ifvqek0","pricing_plan_id":"cebpf4jnsgd1na2vs0mg"},{"bike_id":"c95c47ea-eb36-483d-810b-58cb7bb9deab","system_id":"levelo_inurba_marseille","lat":43.304274,"lon":5.397513,"is_reserved":false,"is_disabled":false,"rental_uris":{"android":"levelo://app?vid=c95c47ea-eb36-483d-810b-58cb7bb9deab","ios":"levelo://app?vid=c95c47ea-eb36-483d-810b-58cb7bb9deab"},"vehicle_type_id":"4","last_reported":1713138937,"current_range_meters":20000,"station_id":"ce4bh092rcd13ifvqd20","pricing_plan_id":"cebpf4jnsgd1na2vs0mg"},{"bike_id":"db26eabc-c9ca-4b1c-a24f-90e4a2a1330a","system_id":"levelo_inurba_marseille","lat":43.30424,"lon":5.39752,"is_reserved":false,"is_disabled":false,"rental_uris":{"android":"levelo://app?vid=db26eabc-c9ca-4b1c-a24f-90e4a2a1330a","ios":"levelo://app?vid=db26eabc-c9ca-4b1c-a24f-90e4a2a1330a"},"vehicle_type_id":"4","last_reported":1713138937,"current_range_meters":22400,"station_id":"ce4bh092rcd13ifvqd20","pricing_plan_id":"cebpf4jnsgd1na2vs0mg"},