{"last_updated":1729775900,"ttl":60,"version":"2.2","data":{"bikes":[{"bike_id":"633158d0-02b7-4101-af71-3079ef223108","system_id":"levelo_inurba_marseille","lat":43.26198,"lon":5.37917,"is_reserved":false,"is_disabled":false,"rental_uris":{"android":"levelo://app?vid=633158d0-02b7-4101-af71-3079ef223108","ios":"levelo://app?vid=633158d0-02b7-4101-af71-3079ef223108"},"vehicle_type_id":"4","last_reported":1729775900,"current_range_meters":16800,"station_id":"ce4bhjp2rcd13ifvqg90","pricing_plan_id":"cebpf4jnsgd1na2vs0mg"},{"bike_id":"af235180-af0b-4923-8467-7abce2c5ab50","system_id":"levelo_inurba_marseille","lat":43.30419,"lon":5.41282,"is_reserved":false,"is_disabled":false,"rental_uris":{"android":"levelo://app?vid=af235180-af0b-4923-8467-7abce2c5ab50","ios":"levelo://app?vid=af235180-af0b-4923-8467-7abce2c5ab50"},"vehicle_type_id":"4","last_reported":1729775900,"current_range_meters":23200,"station_id":"ce4bhop2rcd13ifvqh8g","pricing_plan_id":"cebpf4jnsgd1na2vs0mg"},{"bike_id":"49941961-79cc-47d1-bedd-37898577a99d","system_id":"levelo_inurba_marseille","lat":43.29517,"lon":5.375,"is_reserved":false,"is_disabled":false,"rental_uris":{"android":"levelo://app?vid=49941961-79cc-47d1-bedd-37898577a99d","ios":"levelo://app?vid=49941961-79cc-47d1-bedd-37898577a99d"},"vehicle_type_id":"4","last_reported":1729775900,"current_range_meters":12400,"station_id":"ce4bgkp2rcd13ifvqbmg","pricing_plan_id":"cebpf4jnsgd1na2vs0mg"},{"bike_id":"4e718520-217c-4986-8e4a-4dbcae9b7210","system_id":"levelo_inurba_marseille","lat":43.27996,"lon":5.41655,"is_reserved":false,"is_disabled":false,"rental_uris":{"android":"levelo://app?vid=4e718520-217c-4986-8e4a-4dbcae9b7210","ios":"levelo://app?vid=4e718520-217c-4986-8e4a-4dbcae9b7210"},"vehicle_type_id":"4","last_reported":1729775900,"current_range_meters":8800,"station_id":"ce4bho12rcd13ifvqh1g","pricing_plan_id":"cebpf4jnsgd1na2vs0mg"},{"bike_id":"354e9765-c4ff-45aa-944e-02822ad71269","system_id":"levelo_inurba_marseille","lat":43.26569,"lon":5.3899,"is_reserved":false,"is_disabled":false,"rental_uris":{"android":"levelo://app?vid=354e9765-c4ff-45aa-944e-02822ad71269","ios":"levelo://app?vid=354e9765-c4ff-45aa-944e-02822ad71269"},"vehicle_type_id":"4","last_reported":1729775900,"current_range_meters":38000,"station_id":"ce4bhe12rcd13ifvqf30","pricing_plan_id":"cebpf4jnsgd1na2vs0mg"},{"bike_id":"bc47a4ad-ae87-4178-b08f-72d36f4975b0","system_id":"levelo_inurba_marseille","lat":43.26807,"lon":5.40256,"is_reserved":false,"is_disabled":false,"rental_uris":{"android":"levelo://app?vid=bc47a4ad-ae87-4178-b08f-72d36f4975b0","ios":"levelo://app?vid=bc47a4ad-ae87-4178-b08f-72d36f4975b0"},"vehicle_type_id":"4","last_reported":1729775900,"current_range_meters":38400,"station_id":"ce501612rcd8frsf0b60","pricing_plan_id":"cebpf4jnsgd1na2vs0mg"},{"bike_id":"cf00bfcd-9f87-4011-81c6-4541ee31d8cd","system_id":"levelo_inurba_marseille","lat":43.31362,"lon":5.36712,"is_reserved":false,"is_disabled":false,"rental_uris":{"android":"levelo://app?vid=cf00bfcd-9f87-4011-81c6-4541ee31d8cd","ios":"levelo://app?vid=cf00bfcd-9f87-4011-81c6-4541ee31d8cd"},"vehicle_type_id":"4","last_reported":1729775900,"current_range_meters":38800,"station_id":"ce4bgr92rcd13ifvqc6g","pricing_plan_id":"cebpf4jnsgd1na2vs0mg"},{"bike_id":"62c3f4e5-aa3a-4c9e-ae92-e05356b4ba94","system_id":"levelo_inurba_marseille","lat":43.28439,"lon":5.39199,"is_reserved":false,"is_disabled":false,"rental_uris":{"android":"levelo://app?vid=62c3f4e5-aa3a-4c9e-ae92-e05356b4ba94","ios":"levelo://app?vid=62c3f4e5-aa3a-4c9e-ae92-e05356b4ba94"},"vehicle_type_id":"4","last_reported":1729775900,"current_range_meters":28000,"station_id":"ce4bhoh2rcd13ifvqh5g","pricing_plan_id":"cebpf4jnsgd1na2vs0mg"},{"bike_id":"ae2abd03-1b06-47cd-b084-eccd0554ec0d","system_id":"levelo_inurba_marseille","lat":43.29709,"lon":5.37711,"is_reserved":false,"is_disabled":false,"rental_uris":{"android":"levelo://app?vid=ae2abd03-1b06-47cd-b084-eccd0554ec0d","ios":"levelo://app?vid=ae2abd03-1b06-47cd-b084-eccd0554ec0d"},"vehicle_type_id":"4","last_reported":1729775900,"current_range_meters":36400,"station_id":"ce4bgkh2rcd13ifvqbl0","pricing_plan_id":"cebpf4jnsgd1na2vs0mg"},{"bike_id":"5d0a5019-a6f4-4628-b405-c6ddf4b5f67b","system_id":"levelo_inurba_marseille","lat":43.284371,"lon":5.39196,"is_reserved":false,"is_disabled":false,"rental_uris":{"android":"levelo://app?vid=5d0a5019-a6f4-4628-b405-c6ddf4b5f67b","ios":"levelo://app?vid=5d0a5019-a6f4-4628-b405-c6ddf4b5f67b"},"vehicle_type_id":"4","last_reported":1729775900,"current_range_meters":33600,"station_id":"ce4bhoh2rcd13ifvqh5g","pricing_plan_id":"cebpf4jnsgd1na2vs0mg"},{"bike_id":"848ada29-7da8-40a5-806b-dbb585911813","system_id":"levelo_inurba_marseille","lat":43.30644,"lon":5.40096,"is_reserved":false,"is_disabled":false,"rental_uris":{"android":"levelo://app?vid=848ada29-7da8-40a5-806b-dbb585911813","ios":"levelo://app?vid=848ada29-7da8-40a5-806b-dbb585911813"},"vehicle_type_id":"4","last_reported":1729775900,"current_range_meters":12800,"station_id":"ce4bh112rcd13ifvqda0","pricing_plan_id":"cebpf4jnsgd1na2vs0mg"},{"bike_id":"9379528d-dc27-4009-8b9a-b522c1a3eceb","system_id":"levelo_inurba_marseille","lat":43.33725,"lon":5.39183,"is_reserved":false,"is_disabled":false,"rental_uris":{"android":"levelo://app?vid=9379528d-dc27-4009-8b9a-b522c1a3eceb","ios":"levelo://app?vid=9379528d-dc27-4009-8b9a-b522c1a3eceb"},"vehicle_type_id":"4","last_reported":1729775900,"current_range_meters":12000,"station_id":"ce4bhr92rcd13ifvqhsg","pricing_plan_id":"cebpf4jnsgd1na2vs0mg"},{"bike_id":"2e844c07-c9fb-48b1-8724-43f5b2356ec9","system_id":"levelo_inurba_marseille","lat":43.33763,"lon":5.37449,"is_reserved":false,"is_disabled":false,"rental_uris":{"android":"levelo://app?vid=2e844c07-c9fb-48b1-8724-43f5b2356ec9","ios":"levelo://app?vid=2e844c07-c9fb-48b1-8724-43f5b2356ec9"},"vehicle_type_id":"4","last_reported":1729775900,"current_range_meters":38400,"station_id":"","pricing_plan_id":"cebpf4jnsgd1na2vs0mg"},{"bike_id":"93b004d5-e088-4995-a4b0-f34bd0d548c5","system_id":"levelo_inurba_marseille","lat":43.33733,"lon":5.39182,"is_reserved":false,"is_disabled":false,"rental_uris":{"android":"levelo://app?vid=93b004d5-e088-4995-a4b0-f34bd0d548c5","ios":"levelo://app?vid=93b004d5-e088-4995-a4b0-f34bd0d548c5"},"vehicle_type_id":"4","last_reported":1729775900,"current_range_meters":27200,"station_id":"ce4bhr92rcd13ifvqhsg","pricing_plan_id":"cebpf4jnsgd1na2vs0mg"},{"bike_id":"3407ace2-a94c-41f8-8299-456633019e91","system_id":"levelo_inurba_marseille","lat":43.28455,"lon":5.3588,"is_reserved":false,"is_disabled":false,"rental_uris":{"android":"levelo://app?vid=3407ace2-a94c-41f8-8299-456633019e91","ios":"levelo://app?vid=3407ace2-a94c-41f8-8299-456633019e91"},"vehicle_type_id":"4","last_reported":1729775900,"current_range_meters":18800,"station_id":"ce4bhah2rcd13ifvqei0","pricing_plan_id":"cebpf4jnsgd1na2vs0mg"},{"bike_id":"7a632fec-0e5c-4d95-9f73-b6a9f3a4cd45","system_id":"levelo_inurba_marseille","lat":43.31998,"lon":5.38156,"is_reserved":false,"is_disabled":false,"rental_uris":{"android":"levelo://app?vid=7a632fec-0e5c-4d95-9f73-b6a9f3a4cd45","ios":"levelo://app?vid=7a632fec-0e5c-4d95-9f73-b6a9f3a4cd45"},"vehicle_type_id":"4","last_reported":1729775900,"current_range_meters":6400,"station_id":"ce4bhr12rcd13ifvqhpg","pricing_plan_id":"cebpf4jnsgd1na2vs0mg"},{"bike_id":"f0237896-5221-424b-9f95-e52d99a2c3e1","system_id":"levelo_inurba_marseille","lat":43.2969,"lon":5.37305,"is_reserved":false,"is_disabled":false,"rental_uris":{"android":"levelo://app?vid=f0237896-5221-424b-9f95-e52d99a2c3e1","ios":"levelo://app?vid=f0237896-5221-424b-9f95-e52d99a2c3e1"},"vehicle_type_id":"4","last_reported":1729775900,"current_range_meters":27600,"station_id":"ce4bgk12rcd13ifvqbj0","pricing_plan_id":"cebpf4jnsgd1na2vs0mg"},{"bike_id":"c4ecd3ae-30b9-4854-b5c2-b3f0e18bd148","system_id":"levelo_inurba_marseille","lat":43.29569,"lon":5.37512,"is_reserved":false,"is_disabled":false,"rental_uris":{"android":"levelo://app?vid=c4ecd3ae-30b9-4854-b5c2-b3f0e18bd148","ios":"levelo://app?vid=c4ecd3ae-30b9-4854-b5c2-b3f0e18bd148"},"vehicle_type_id":"4","last_reported":1729775900,"current_range_meters":11600,"station_id":"ce4bgh92rcd13ifvqb50","pricing_plan_id":"cebpf4jnsgd1na2vs0mg"},{"bike_id":"5d7e855d-d0e4-4cc3-8449-d0b666ee367d","system_id":"levelo_inurba_marseille","lat":43.337444,"lon":5.374475,"is_reserved":false,"is_disabled":false,"rental_uris":{"android":"levelo://app?vid=5d7e855d-d0e4-4cc3-8449-d0b666ee367d","ios":"levelo://app?vid=5d7e855d-d0e4-4cc3-8449-d0b666ee367d"},"vehicle_type_id":"4","last_reported":1729775900,"current_range_meters":3600,"station_id":"","pricing_plan_id":"cebpf4jnsgd1na2vs0mg"},{"bike_id":"3e6dacef-7721-4fd6-908f-05fbf9bc0354","system_id":"levelo_inurba_marseille","lat":43.23197,"lon":5.35559,"is_reserved":false,"is_disabled":false,"rental_uris":{"android":"levelo://app?vid=3e6dacef-7721-4fd6-908f-05fbf9bc0354","ios":"levelo://app?vid=3e6dacef-7721-4fd6-908f-05fbf9bc0354"},"vehicle_type_id":"4","last_reported":1729775900,"current_range_meters":39200,"station_id":"ce4bhu92rcd13ifvqi70","pricing_plan_id":"cebpf4jnsgd1na2vs0mg"},{"bike_id":"ad01a908-f039-43af-8942-9674351c0154","system_id":"levelo_inurba_marseille","lat":43.27994,"lon":5.4001,"is_reserved":false,"is_disabled":false,"rental_uris":{"android":"levelo://app?vid=ad01a908-f039-43af-8942-9674351c0154","ios":"levelo://app?vid=ad01a908-f039-43af-8942-9674351c0154"},"vehicle_type_id":"4","last_reported":1729775900,"current_range_meters":36800,"station_id":"ce4bho92rcd13ifvqh4g","pricing_plan_id":"cebpf4jnsgd1na2vs0mg"},{"bike_id":"c49008ee-e5c4-4d8b-92ba-1850f9301df2","system_id":"levelo_inurba_marseille","lat":43.29582,"lon":5.3674,"is_reserved":false,"is_disabled":false,"rental_uris":{"android":"levelo://app?vid=c49008ee-e5c4-4d8b-92ba-1850f9301df2","ios":"levelo://app?vid=c49008ee-e5c4-4d8b-92ba-1850f9301df2"},"vehicle_type_id":"4","last_reported":1729775900,"current_range_meters":25600,"station_id":"ce4bgph2rcd13ifvqc2g","pricing_plan_id":"cebpf4jnsgd1na2vs0mg"},{"bike_id":"d8636054-5f07-46c8-bf22-174b2f4d5021","system_id":"levelo_inurba_marseille","lat":43.24997,"lon":5.38934,"is_reserved":false,"is_disabled":false,"rental_uris":{"android":"levelo://app?vid=d8636054-5f07-46c8-bf22-174b2f4d5021","ios":"levelo://app?vid=d8636054-5f07-46c8-bf22-174b2f4d5021"},"vehicle_type_id":"4","last_reported":1729775900,"current_range_meters":15200,"station_id":"ce4bhgp2rcd13ifvqfd0","pricing_plan_id":"cebpf4jnsgd1na2vs0mg"},{"bike_id":"97ce6431-cdfe-4c86-8575-534875aed7f5","system_id":"levelo_inurba_marseille","lat":43.3053,"lon":5.36659,"is_reserved":false,"is_disabled":false,"rental_uris":{"android":"levelo://app?vid=97ce6431-cdfe-4c86-8575-534875aed7f5","ios":"levelo://app?vid=97ce6431-cdfe-4c86-8575-534875aed7f5"},"vehicle_type_id":"4","last_reported":1729775900,"current_range_meters":7200,"station_id":"","pricing_plan_id":"cebpf4jnsgd1na2vs0mg"},{"bike_id":"bc4efb73-4734-4293-a1eb-82c722d0ec12","system_id":"levelo_inurba_marseille","lat":43.25503,"lon":5.37649,"is_reserved":false,"is_disabled":false,"rental_uris":{"android":"levelo://app?vid=bc4efb73-4734-4293-a1eb-82c722d0ec12","ios":"levelo://app?vid=bc4efb73-4734-4293-a1eb-82c722d0ec12"},"vehicle_type_id":"4","last_reported":1729775900,"current_range_meters":39200,"station_id":"ce4bhh12rcd13ifvqff0","pricing_plan_id":"cebpf4jnsgd1na2vs0mg"},{"bike_id":"394fca57-6b2f-41e7-9f33-f9746445cac8","system_id":"levelo_inurba_marseille","lat":43.30441,"lon":5.38886,"is_reserved":false,"is_disabled":false,"rental_uris":{"android":"levelo://app?vid=394fca57-6b2f-41e7-9f33-f9746445cac8","ios":"levelo://app?vid=394fca57-6b2f-41e7-9f33-f9746445cac8"},"vehicle_type_id":"4","last_reported":1729775900,"current_range_meters":38800,"station_id":"ce4bgk12rcd13ifvqbi0","pricing_plan_id":"cebpf4jnsgd1na2vs0mg"},{"bike_id":"fdf2e368-5888-47a9-8240-c64be4c5fab6","system_id":"levelo_inurba_marseille","lat":43.29845,"lon":5.36271,"is_reserved":false,"is_disabled":false,"rental_uris":{"android":"levelo://app?vid=fdf2e368-5888-47a9-8240-c64be4c5fab6","ios":"levelo://app?vid=fdf2e368-5888-47a9-8240-c64be4c5fab6"},"vehicle_type_id":"4","last_reported":1729775900,"current_range_meters":36800,"station_id":"ce4bgpp2rcd13ifvqc3g","pricing_plan_id":"cebpf4jnsgd1na2vs0mg"},{"bike_id":"b20aa8c9-4f11-4644-9c66-8cce43a79c83","system_id":"levelo_inurba_marseille","lat":43.25932,"lon":5.40908,"is_reserved":false,"is_disabled":false,"rental_uris":{"android":"levelo://app?vid=b20aa8c9-4f11-4644-9c66-8cce43a79c83","ios":"levelo://app?vid=b20aa8c9-4f11-4644-9c66-8cce43a79c83"},"vehicle_type_id":"4","last_reported":1729775900,"current_range_meters":34000,"station_id":"ce4bhm92rcd13ifvqglg","pricing_plan_id":"cebpf4jnsgd1na2vs0mg"},{"bike_id":"b69d0c64-0724-4563-ab4e-cdb5166b1cd5","system_id":"levelo_inurba_marseille","lat":43.33112,"lon":5.38209,"is_reserved":false,"is_disabled":false,"rental_uris":{"android":"levelo://app?vid=b69d0c64-0724-4563-ab4e-cdb5166b1cd5","ios":"levelo://app?vid=b69d0c64-0724-4563-ab4e-cdb5166b1cd5"},"vehicle_type_id":"4","last_reported":1729775900,"current_range_meters":20000,"station_id":"","pricing_plan_id":"cebpf4jnsgd1na2vs0mg"},{"bike_id":"2edeae9a-edb3-4918-aedd-838866551aa9","system_id":"levelo_inurba_marseille","lat":43.2707,"lon":5.4026,"is_reserved":false,"is_disabled":false,"rental_uris":{"android":"levelo://app?vid=2edeae9a-edb3-4918-aedd-838866551aa9","ios":"levelo://app?vid=2edeae9a-edb3-4918-aedd-838866551aa9"},"vehicle_type_id":"4","last_reported":1729775900,"current_range_meters":24000,"station_id":"ce4bhk92rcd13ifvqgc0","pricing_plan_id":"cebpf4jnsgd1na2vs0mg"},{"bike_id":"e5aeedbc-587a-4d64-b627-0ff85ff30d31","system_id":"levelo_inurba_marseille","lat":43.29974,"lon":5.38496,"is_reserved":false,"is_disabled":false,"rental_uris":{"android":"levelo://app?vid=e5aeedbc-587a-4d64-b627-0ff85ff30d31","ios":"levelo://app?vid=e5aeedbc-587a-4d64-b627-0ff85ff30d31"},"vehicle_type_id":"4","last_reported":1729775900,"current_range_meters":38800,"station_id":"ce4bgj92rcd13ifvqbd0","pricing_plan_id":"cebpf4jnsgd1na2vs0mg"},{"bike_id":"e2699a65-7110-4141-89f4-3eb6cbdcd686","system_id":"levelo_inurba_marseille","lat":43.30541,"lon":5.3842,"is_reserved":false,"is_disabled":false,"rental_uris":{"android":"levelo://app?vid=e2699a65-7110-4141-89f4-3eb6cbdcd686","ios":"levelo://app?vid=e2699a65-7110-4141-89f4-3eb6cbdcd686"},"vehicle_type_id":"4","last_reported":1729775900,"current_range_meters":15200,"station_id":"ce4bgg92rcd13ifvqb30","pricing_plan_id":"cebpf4jnsgd1na2vs0mg"},{"bike_id":"866da92f-eb6c-4428-8396-b0ce1ce7d1d1","system_id":"levelo_inurba_marseille","lat":43.26561,"lon":5.37291,"is_reserved":false,"is_disabled":false,"rental_uris":{"android":"levelo://app?vid=866da92f-eb6c-4428-8396-b0ce1ce7d1d1","ios":"levelo://app?vid=866da92f-eb6c-4428-8396-b0ce1ce7d1d1"},"vehicle_type_id":"4","last_reported":1729775900,"current_range_meters":35600,"station_id":"ce4bhg12rcd13ifvqf70","pricing_plan_id":"cebpf4jnsgd1na2vs0mg"},{"bike_id":"fe035a89-f791-43c7-8de4-e796dae58e56","system_id":"levelo_inurba_marseille","lat":43.29057,"lon":5.35921,"is_reserved":false,"is_disabled":false,"rental_uris":{"android":"levelo://app?vid=fe035a89-f791-43c7-8de4-e796dae58e56","ios":"levelo://app?vid=fe035a89-f791-43c7-8de4-e796dae58e56"},"vehicle_type_id":"4","last_reported":1729775900,"current_range_meters":17200,"station_id":"ce4bha92rcd13ifvqeg0","pricing_plan_id":"cebpf4jnsgd1na2vs0mg"},{"bike_id":"719f18be-1a29-40c1-a88a-fef5e99c1826","system_id":"levelo_inurba_marseille","lat":43.26503,"lon":5.39529,"is_reserved":false,"is_disabled":false,"rental_uris":{"android":"levelo://app?vid=719f18be-1a29-40c1-a88a-fef5e99c1826","ios":"levelo://app?vid=719f18be-1a29-40c1-a88a-fef5e99c1826"},"vehicle_type_id":"4","last_reported":1729775900,"current_range_meters":30000,"station_id":"ce4bhi12rcd13ifvqfq0","pricing_plan_id":"cebpf4jnsgd1na2vs0mg"},{"bike_id":"ff05b0c9-d59f-4e1b-bcd7-d76616ee571a","system_id":"levelo_inurba_marseille","lat":43.24085,"lon":5.3775,"is_reserved":false,"is_disabled":false,"rental_uris":{"android":"levelo://app?vid=ff05b0c9-d59f-4e1b-bcd7-d76616ee571a","ios":"levelo://app?vid=ff05b0c9-d59f-4e1b-bcd7-d76616ee571a"},"vehicle_type_id":"4","last_reported":1729775900,"current_range_meters":24800,"station_id":"ce4bhnp2rcd13ifvqgvg","pricing_plan_id":"cebpf4jnsgd1na2vs0mg"},{"bike_id":"019e84c0-7846-45ba-8d19-cd8784abbf49","system_id":"levelo_inurba_marseille","lat":43.26943,"lon":5.38928,"is_reserved":false,"is_disabled":false,"rental_uris":{"android":"levelo://app?vid=019e84c0-7846-45ba-8d19-cd8784abbf49","ios":"levelo://app?vid=019e84c0-7846-45ba-8d19-cd8784abbf49"},"vehicle_type_id":"4","last_reported":1729775900,"current_range_meters":38800,"station_id":"ce4bhhh2rcd13ifvqfl0","pricing_plan_id":"cebpf4jnsgd1na2vs0mg"},{"bike_id":"abdde8c4-9ec6-4980-9e28-2429b6a237ce","system_id":"levelo_inurba_marseille","lat":43.30598,"lon":5.37218,"is_reserved":false,"is_disabled":false,"rental_uris":{"android":"levelo://app?vid=abdde8c4-9ec6-4980-9e28-2429b6a237ce","ios":"levelo://app?vid=abdde8c4-9ec6-4980-9e28-2429b6a237ce"},"vehicle_type_id":"4","last_reported":1729775900,"current_range_meters":26000,"station_id":"ce4bgqh2rcd13ifvqc4g","pricing_plan_id":"cebpf4jnsgd1na2vs0mg"},{"bike_id":"80d5ffaa-6e51-472e-8854-a8453589c8c6","system_id":"levelo_inurba_marseille","lat":43.2861,"lon":5.37062,"is_reserved":false,"is_disabled":false,"rental_uris":{"android":"levelo://app?vid=80d5ffaa-6e51-472e-8854-a8453589c8c6","ios":"levelo://app?vid=80d5ffaa-6e51-472e-8854-a8453589c8c6"},"vehicle_type_id":"4","last_reported":1729775900,"current_range_meters":25600,"station_id":"ce4bht12rcd13ifvqi60","pricing_plan_id":"cebpf4jnsgd1na2vs0mg"},{"bike_id":"58154a7a-8210-4d6d-a10e-aafc1e66d42f","system_id":"levelo_inurba_marseille","lat":43.29416,"lon":5.38614,"is_reserved":false,"is_disabled":false,"rental_uris":{"android":"levelo://app?vid=58154a7a-8210-4d6d-a10e-aafc1e66d42f","ios":"levelo://app?vid=58154a7a-8210-4d6d-a10e-aafc1e66d42f"},"vehicle_type_id":"4","last_reported":1729775900,"current_range_meters":34000,"station_id":"ce4bh2h2rcd13ifvqdh0","pricing_plan_id":"cebpf4jnsgd1na2vs0mg"},{"bike_id":"d559dc1b-ba63-4390-a50c-92e4adeb1a9d","system_id":"levelo_inurba_marseille","lat":43.25941,"lon":5.40904,"is_reserved":false,"is_disabled":false,"rental_uris":{"android":"levelo://app?vid=d559dc1b-ba63-4390-a50c-92e4adeb1a9d","ios":"levelo://app?vid=d559dc1b-ba63-4390-a50c-92e4adeb1a9d"},"vehicle_type_id":"4","last_reported":1729775900,"current_range_meters":8000,"station_id":"ce4bhm92rcd13ifvqglg","pricing_plan_id":"cebpf4jnsgd1na2vs0mg"},{"bike_id":"427b02da-5663-428f-b5cc-f9092e5a92ff","system_id":"levelo_inurba_marseille","lat":43.29075,"lon":5.37178,"is_reserved":false,"is_disabled":false,"rental_uris":{"android":"levelo://app?vid=427b02da-5663-428f-b5cc-f9092e5a92ff","ios":"levelo://app?vid=427b02da-5663-428f-b5cc-f9092e5a92ff"},"vehicle_type_id":"4","last_reported":1729775900,"current_range_meters":6000,"station_id":"ce4bh5p2rcd13ifvqe4g","pricing_plan_id":"cebpf4jnsgd1na2vs0mg"},{"bike_id":"cce88805-a2c0-4727-b65c-fd54b7fdaba6","system_id":"levelo_inurba_marseille","lat":43.29617,"lon":5.37708,"is_reserved":false,"is_disabled":false,"rental_uris":{"android":"levelo://app?vid=cce88805-a2c0-4727-b65c-fd54b7fdaba6","ios":"levelo://app?vid=cce88805-a2c0-4727-b65c-fd54b7fdaba6"},"vehicle_type_id":"4","last_reported":1729775900,"current_range_meters":37600,"station_id":"ce4bgi92rcd13ifvqb90","pricing_plan_id":"cebpf4jnsgd1na2vs0mg"},{"bike_id":"2d38a287-b00c-4b53-a2ad-7428f22ce0a2","system_id":"levelo_inurba_marseille","lat":43.29576,"lon":5.37519,"is_reserved":false,"is_disabled":false,"rental_uris":{"android":"levelo://app?vid=2d38a287-b00c-4b53-a2ad-7428f22ce0a2","ios":"levelo://app?vid=2d38a287-b00c-4b53-a2ad-7428f22ce0a2"},"vehicle_type_id":"4","last_reported":1729775900,"current_range_meters":34800,"station_id":"ce4bgh92rcd13ifvqb50","pricing_plan_id":"cebpf4jnsgd1na2vs0mg"},{"bike_id":"c235e1fc-2bc9-4f4d-8285-4852865f1bcb","system_id":"levelo_inurba_marseille","lat":43.29618,"lon":5.37149,"is_reserved":false,"is_disabled":false,"rental_uris":{"android":"levelo://app?vid=c235e1fc-2bc9-4f4d-8285-4852865f1bcb","ios":"levelo://app?vid=c235e1fc-2bc9-4f4d-8285-4852865f1bcb"},"vehicle_type_id":"4","last_reported":1729775900,"current_range_meters":38000,"station_id":"ce4bgnh2rcd13ifvqc0g","pricing_plan_id":"cebpf4jnsgd1na2vs0mg"},{"bike_id":"897c021c-26d9-4ce7-b322-63492c54141e","system_id":"levelo_inurba_marseille","lat":43.29899,"lon":5.43657,"is_reserved":false,"is_disabled":false,"rental_uris":{"android":"levelo://app?vid=897c021c-26d9-4ce7-b322-63492c54141e","ios":"levelo://app?vid=897c021c-26d9-4ce7-b322-63492c54141e"},"vehicle_type_id":"4","last_reported":1729775900,"current_range_meters":5600,"station_id":"ce4bhpp2rcd13ifvqhfg","pricing_plan_id":"cebpf4jnsgd1na2vs0mg"},{"bike_id":"c5baeef2-7e03-4e6d-be2d-206456692c98","system_id":"levelo_inurba_marseille","lat":43.32552,"lon":5.41456,"is_reserved":false,"is_disabled":false,"rental_uris":{"android":"levelo://app?vid=c5baeef2-7e03-4e6d-be2d-206456692c98","ios":"levelo://app?vid=c5baeef2-7e03-4e6d-be2d-206456692c98"},"vehicle_type_id":"4","last_reported":1729775900,"current_range_meters":39200,"station_id":"ce4bhq12rcd13ifvqhhg","pricing_plan_id":"cebpf4jnsgd1na2vs0mg"},{"bike_id":"ab6885ea-9951-493c-8466-8c45f4f85ecc","system_id":"levelo_inurba_marseille","lat":43.29571,"lon":5.37512,"is_reserved":false,"is_disabled":false,"rental_uris":{"android":"levelo://app?vid=ab6885ea-9951-493c-8466-8c45f4f85ecc","ios":"levelo://app?vid=ab6885ea-9951-493c-8466-8c45f4f85ecc"},"vehicle_type_id":"4","last_reported":1729775900,"current_range_meters":24400,"station_id":"ce4bgh92rcd13ifvqb50","pricing_plan_id":"cebpf4jnsgd1na2vs0mg"},{"bike_id":"bc45a63d-b524-4916-983c-c451ac1c70a9","system_id":"levelo_inurba_marseille","lat":43.28268,"lon":5.35076,"is_reserved":false,"is_disabled":false,"rental_uris":{"android":"levelo://app?vid=bc45a63d-b524-4916-983c-c451ac1c70a9","ios":"levelo://app?vid=bc45a63d-b524-4916-983c-c451ac1c70a9"},"vehicle_type_id":"4","last_reported":1729775900,"current_range_meters":24400,"station_id":"ce4bhbp2rcd13ifvqerg","pricing_plan_id":"cebpf4jnsgd1na2vs0mg"},{"bike_id":"8c71dfa7-3435-4c76-a9ed-1de183118e5d","system_id":"levelo_inurba_marseille","lat":43.3123,"lon":5.3686,"is_reserved":false,"is_disabled":false,"rental_uris":{"android":"levelo://app?vid=8c71dfa7-3435-4c76-a9ed-1de183118e5d","ios":"levelo://app?vid=8c71dfa7-3435-4c76-a9ed-1de183118e5d"},"vehicle_type_id":"4","last_reported":1729775900,"current_range_meters":26800,"station_id":"ce4bgl92rcd13ifvqbq0","pricing_plan_id":"cebpf4jnsgd1na2vs0mg"},{"bike_id":"d4c96e24-4bae-4c1a-bd3a-5bdabc26251e","system_id":"levelo_inurba_marseille","lat":43.25495,"lon":5.37651,"is_reserved":false,"is_disabled":false,"rental_uris":{"android":"levelo://app?vid=d4c96e24-4bae-4c1a-bd3a-5bdabc26251e","ios":"levelo://app?vid=d4c96e24-4bae-4c1a-bd3a-5bdabc26251e"},"vehicle_type_id":"4","last_reported":1729775900,"current_range_meters":34800,"station_id":"ce4bhh12rcd13ifvqff0","pricing_plan_id":"cebpf4jnsgd1na2vs0mg"},{"bike_id":"e1d66dc3-539b-4056-abb2-ecb6de82b799","system_id":"levelo_inurba_marseille","lat":43.29061,"lon":5.35899,"is_reserved":false,"is_disabled":false,"rental_uris":{"android":"levelo://app?vid=e1d66dc3-539b-4056-abb2-ecb6de82b799","ios":"levelo://app?vid=e1d66dc3-539b-4056-abb2-ecb6de82b799"},"vehicle_type_id":"4","last_reported":1729775900,"current_range_meters":36800,"station_id":"ce4bha92rcd13ifvqeg0","pricing_plan_id":"cebpf4jnsgd1na2vs0mg"},{"bike_id":"8f40f5a1-dff7-42c7-90d7-c956ea526b89","system_id":"levelo_inurba_marseille","lat":43.30143,"lon":5.37414,"is_reserved":false,"is_disabled":false,"rental_uris":{"android":"levelo://app?vid=8f40f5a1-dff7-42c7-90d7-c956ea526b89","ios":"levelo://app?vid=8f40f5a1-dff7-42c7-90d7-c956ea526b89"},"vehicle_type_id":"4","last_reported":1729775900,"current_range_meters":35200,"station_id":"ce4bgs92rcd13ifvqcc0","pricing_plan_id":"cebpf4jnsgd1na2vs0mg"},{"bike_id":"923c8d94-861b-4e34-aab7-f70f713c1bc0","system_id":"levelo_inurba_marseille","lat":43.32478,"lon":5.36568,"is_reserved":false,"is_disabled":false,"rental_uris":{"android":"levelo://app?vid=923c8d94-861b-4e34-aab7-f70f713c1bc0","ios":"levelo://app?vid=923c8d94-861b-4e34-aab7-f70f713c1bc0"},"vehicle_type_id":"4","last_reported":1729775900,"current_range_meters":24400,"station_id":"ce4bhs12rcd13ifvqhvg","pricing_plan_id":"cebpf4jnsgd1na2vs0mg"},{"bike_id":"0d5630ed-ace7-4ecf-9d00-feb376b5d392","system_id":"levelo_inurba_marseille","lat":43.28846,"lon":5.39302,"is_reserved":false,"is_disabled":false,"rental_uris":{"android":"levelo://app?vid=0d5630ed-ace7-4ecf-9d00-feb376b5d392","ios":"levelo://app?vid=0d5630ed-ace7-4ecf-9d00-feb376b5d392"},"vehicle_type_id":"4","last_reported":1729775900,"current_range_meters":35200,"station_id":"ce4bh2p2rcd13ifvqdi0","pricing_plan_id":"cebpf4jnsgd1na2vs0mg"},{"bike_id":"ee2895c0-9a5e-409e-ba79-132a5a797c5e","system_id":"levelo_inurba_marseille","lat":43.30554,"lon":5.36518,"is_reserved":false,"is_disabled":false,"rental_uris":{"android":"levelo://app?vid=ee2895c0-9a5e-409e-ba79-132a5a797c5e","ios":"levelo://app?vid=ee2895c0-9a5e-409e-ba79-132a5a797c5e"},"vehicle_type_id":"4","last_reported":1729775900,"current_range_meters":17200,"station_id":"ce4bgs12rcd13ifvqcag","pricing_plan_id":"cebpf4jnsgd1na2vs0mg"},{"bike_id":"677a26f0-a8b9-43c0-a2aa-8b4d07896f2e","system_id":"levelo_inurba_marseille","lat":43.25086,"lon":5.39519,"is_reserved":false,"is_disabled":false,"rental_uris":{"android":"levelo://app?vid=677a26f0-a8b9-43c0-a2aa-8b4d07896f2e","ios":"levelo://app?vid=677a26f0-a8b9-43c0-a2aa-8b4d07896f2e"},"vehicle_type_id":"4","last_reported":1729775900,"current_range_meters":22000,"station_id":"ce4bhm12rcd13ifvqgkg","pricing_plan_id":"cebpf4jnsgd1na2vs0mg"},{"bike_id":"4dd517db-98c2-4f74-b439-cbf3c49a9a6a","system_id":"levelo_inurba_marseille","lat":43.25498,"lon":5.37648,"is_reserved":false,"is_disabled":false,"rental_uris":{"android":"levelo://app?vid=4dd517db-98c2-4f74-b439-cbf3c49a9a6a","ios":"levelo://app?vid=4dd517db-98c2-4f74-b439-cbf3c49a9a6a"},"vehicle_type_id":"4","last_reported":1729775900,"current_range_meters":36000,"station_id":"ce4bhh12rcd13ifvqff0","pricing_plan_id":"cebpf4jnsgd1na2vs0mg"},{"bike_id":"32745b13-c55b-4aa9-82ac-9fbdcc1e90be","system_id":"levelo_inurba_marseille","lat":43.23673,"lon":5.37768,"is_reserved":false,"is_disabled":false,"rental_uris":{"android":"levelo://app?vid=32745b13-c55b-4aa9-82ac-9fbdcc1e90be","ios":"levelo://app?vid=32745b13-c55b-4aa9-82ac-9fbdcc1e90be"},"vehicle_type_id":"4","last_reported":1729775900,"current_range_meters":20400,"station_id":"","pricing_plan_id":"cebpf4jnsgd1na2vs0mg"},{"bike_id":"b094d4a5-f8e8-4ea5-91a8-7ddf088acd32","system_id":"levelo_inurba_marseille","lat":43.30536,"lon":5.36534,"is_reserved":false,"is_disabled":false,"rental_uris":{"android":"levelo://app?vid=b094d4a5-f8e8-4ea5-91a8-7ddf088acd32","ios":"levelo://app?vid=b094d4a5-f8e8-4ea5-91a8-7ddf088acd32"},"vehicle_type_id":"4","last_reported":1729775900,"current_range_meters":36800,"station_id":"ce4bgs12rcd13ifvqcag","pricing_plan_id":"cebpf4jnsgd1na2vs0mg"},{"bike_id":"a95624cf-2cfe-4360-83bb-93d7c7ccfb31","system_id":"levelo_inurba_marseille","lat":43.293,"lon":5.37169,"is_reserved":false,"is_disabled":false,"rental_uris":{"android":"levelo://app?vid=a95624cf-2cfe-4360-83bb-93d7c7ccfb31","ios":"levelo://app?vid=a95624cf-2cfe-4360-83bb-93d7c7ccfb31"},"vehicle_type_id":"4","last_reported":1729775900,"current_range_meters":38400,"station_id":"ce4bgh92rcd13ifvqb40","pricing_plan_id":"cebpf4jnsgd1na2vs0mg"},{"bike_id":"78568ba3-e558-46e4-aa36-5671f868e825","system_id":"levelo_inurba_marseille","lat":43.32029,"lon":5.41571,"is_reserved":false,"is_disabled":false,"rental_uris":{"android":"levelo://app?vid=78568ba3-e558-46e4-aa36-5671f868e825","ios":"levelo://app?vid=78568ba3-e558-46e4-aa36-5671f868e825"},"vehicle_type_id":"4","last_reported":1729775900,"current_range_meters":17600,"station_id":"ce4bhq92rcd13ifvqhkg","pricing_plan_id":"cebpf4jnsgd1na2vs0mg"},{"bike_id":"452b900a-8bcb-4fcb-a68d-48650a39aad6","system_id":"levelo_inurba_marseille","lat":43.29049,"lon":5.37576,"is_reserved":false,"is_disabled":false,"rental_uris":{"android":"levelo://app?vid=452b900a-8bcb-4fcb-a68d-48650a39aad6","ios":"levelo://app?vid=452b900a-8bcb-4fcb-a68d-48650a39aad6"},"vehicle_type_id":"4","last_reported":1729775900,"current_range_meters":39200,"station_id":"ce4bh692rcd13ifvqe90","pricing_plan_id":"cebpf4jnsgd1na2vs0mg"},{"bike_id":"432b852b-08c0-4e53-90bd-cc44efad338d","system_id":"levelo_inurba_marseille","lat":43.30959,"lon":5.39036,"is_reserved":false,"is_disabled":false,"rental_uris":{"android":"levelo://app?vid=432b852b-08c0-4e53-90bd-cc44efad338d","ios":"levelo://app?vid=432b852b-08c0-4e53-90bd-cc44efad338d"},"vehicle_type_id":"4","last_reported":1729775900,"current_range_meters":33600,"station_id":"ce4bgup2rcd13ifvqco0","pricing_plan_id":"cebpf4jnsgd1na2vs0mg"},{"bike_id":"db69ea4c-1c7d-43a0-b7f1-e0da5b76f2ea","system_id":"levelo_inurba_marseille","lat":43.28423,"lon":5.45936,"is_reserved":false,"is_disabled":false,"rental_uris":{"android":"levelo://app?vid=db69ea4c-1c7d-43a0-b7f1-e0da5b76f2ea","ios":"levelo://app?vid=db69ea4c-1c7d-43a0-b7f1-e0da5b76f2ea"},"vehicle_type_id":"4","last_reported":1729775900,"current_range_meters":8800,"station_id":"","pricing_plan_id":"cebpf4jnsgd1na2vs0mg"},{"bike_id":"7fe1488d-af2f-40a8-b538-adab4aa02879","system_id":"levelo_inurba_marseille","lat":43.29683,"lon":5.37302,"is_reserved":false,"is_disabled":false,"rental_uris":{"android":"levelo://app?vid=7fe1488d-af2f-40a8-b538-adab4aa02879","ios":"levelo://app?vid=7fe1488d-af2f-40a8-b538-adab4aa02879"},"vehicle_type_id":"4","last_reported":1729775900,"current_range_meters":8000,"station_id":"ce4bgk12rcd13ifvqbj0","pricing_plan_id":"cebpf4jnsgd1na2vs0mg"},{"bike_id":"5d88a9b6-ebb6-498a-ba1b-fccdf74c849b","system_id":"levelo_inurba_marseille","lat":43.255,"lon":5.3765,"is_reserved":false,"is_disabled":false,"rental_uris":{"android":"levelo://app?vid=5d88a9b6-ebb6-498a-ba1b-fccdf74c849b","ios":"levelo://app?vid=5d88a9b6-ebb6-498a-ba1b-fccdf74c849b"},"vehicle_type_id":"4","last_reported":1729775900,"current_range_meters":38800,"station_id":"ce4bhh12rcd13ifvqff0","pricing_plan_id":"cebpf4jnsgd1na2vs0mg"},{"bike_id":"c7064cef-c602-4b8b-84f8-cf2781965a80","system_id":"levelo_inurba_marseille","lat":43.30908,"lon":5.36838,"is_reserved":false,"is_disabled":false,"rental_uris":{"android":"levelo://app?vid=c7064cef-c602-4b8b-84f8-cf2781965a80","ios":"levelo://app?vid=c7064cef-c602-4b8b-84f8-cf2781965a80"},"vehicle_type_id":"4","last_reported":1729775900,"current_range_meters":20000,"station_id":"ce4bgn92rcd13ifvqbvg","pricing_plan_id":"cebpf4jnsgd1na2vs0mg"},{"bike_id":"cb3dd918-6355-4d2d-a9bc-aeaf59e0a27b","system_id":"levelo_inurba_marseille","lat":43.25497,"lon":5.37647,"is_reserved":false,"is_disabled":false,"rental_uris":{"android":"levelo://app?vid=cb3dd918-6355-4d2d-a9bc-aeaf59e0a27b","ios":"levelo://app?vid=cb3dd918-6355-4d2d-a9bc-aeaf59e0a27b"},"vehicle_type_id":"4","last_reported":1729775900,"current_range_meters":38800,"station_id":"ce4bhh12rcd13ifvqff0","pricing_plan_id":"cebpf4jnsgd1na2vs0mg"},{"bike_id":"07e52e4f-7621-454d-9dbb-e5afce9e5585","system_id":"levelo_inurba_marseille","lat":43.30315,"lon":5.36908,"is_reserved":false,"is_disabled":false,"rental_uris":{"android":"levelo://app?vid=07e52e4f-7621-454d-9dbb-e5afce9e5585","ios":"levelo://app?vid=07e52e4f-7621-454d-9dbb-e5afce9e5585"},"vehicle_type_id":"4","last_reported":1729775900,"current_range_meters":16800,"station_id":"ce4bgqh2rcd13ifvqc5g","pricing_plan_id":"cebpf4jnsgd1na2vs0mg"},{"bike_id":"26e91605-455f-4c16-b2a3-9aae7c4ea3de","system_id":"levelo_inurba_marseille","lat":43.29711,"lon":5.36601,"is_reserved":false,"is_disabled":false,"rental_uris":{"android":"levelo://app?vid=26e91605-455f-4c16-b2a3-9aae7c4ea3de","ios":"levelo://app?vid=26e91605-455f-4c16-b2a3-9aae7c4ea3de"},"vehicle_type_id":"4","last_reported":1729775900,"current_range_meters":39200,"station_id":"ce4bgn12rcd13ifvqbt0","pricing_plan_id":"cebpf4jnsgd1na2vs0mg"},{"bike_id":"cd4cfe43-3db0-4225-a456-f197ba43227e","system_id":"levelo_inurba_marseille","lat":43.28154,"lon":5.42645,"is_reserved":false,"is_disabled":false,"rental_uris":{"android":"levelo://app?vid=cd4cfe43-3db0-4225-a456-f197ba43227e","ios":"levelo://app?vid=cd4cfe43-3db0-4225-a456-f197ba43227e"},"vehicle_type_id":"4","last_reported":1729775900,"current_range_meters":19600,"station_id":"ce4bhnh2rcd13ifvqgug","pricing_plan_id":"cebpf4jnsgd1na2vs0mg"},{"bike_id":"79fee3fc-1732-40df-aa4d-43302b49e028","system_id":"levelo_inurba_marseille","lat":43.26563,"lon":5.39002,"is_reserved":false,"is_disabled":false,"rental_uris":{"android":"levelo://app?vid=79fee3fc-1732-40df-aa4d-43302b49e028","ios":"levelo://app?vid=79fee3fc-1732-40df-aa4d-43302b49e028"},"vehicle_type_id":"4","last_reported":1729775900,"current_range_meters":38800,"station_id":"ce4bhe12rcd13ifvqf30","pricing_plan_id":"cebpf4jnsgd1na2vs0mg"},{"bike_id":"115538b4-1e53-4806-af5a-345bc6aa6b63","system_id":"levelo_inurba_marseille","lat":43.26214,"lon":5.37448,"is_reserved":false,"is_disabled":false,"rental_uris":{"android":"levelo://app?vid=115538b4-1e53-4806-af5a-345bc6aa6b63","ios":"levelo://app?vid=115538b4-1e53-4806-af5a-345bc6aa6b63"},"vehicle_type_id":"4","last_reported":1729775900,"current_range_meters":6800,"station_id":"ce4bhgp2rcd13ifvqfc0","pricing_plan_id":"cebpf4jnsgd1na2vs0mg"},{"bike_id":"95f70a23-3f9b-4773-a61e-dff0d3b06c5e","system_id":"levelo_inurba_marseille","lat":43.3014,"lon":5.37423,"is_reserved":false,"is_disabled":false,"rental_uris":{"android":"levelo://app?vid=95f70a23-3f9b-4773-a61e-dff0d3b06c5e","ios":"levelo://app?vid=95f70a23-3f9b-4773-a61e-dff0d3b06c5e"},"vehicle_type_id":"4","last_reported":1729775900,"current_range_meters":36400,"station_id":"ce4bgs92rcd13ifvqcc0","pricing_plan_id":"cebpf4jnsgd1na2vs0mg"},{"bike_id":"15461a9d-07bb-47aa-9e20-59ba25871227","system_id":"levelo_inurba_marseille","lat":43.27813,"lon":5.40713,"is_reserved":false,"is_disabled":false,"rental_uris":{"android":"levelo://app?vid=15461a9d-07bb-47aa-9e20-59ba25871227","ios":"levelo://app?vid=15461a9d-07bb-47aa-9e20-59ba25871227"},"vehicle_type_id":"4","last_reported":1729775900,"current_range_meters":36400,"station_id":"ce4bhnh2rcd13ifvqgtg","pricing_plan_id":"cebpf4jnsgd1na2vs0mg"},{"bike_id":"ee56864d-0289-4ab0-b1d9-4e118a6c50f5","system_id":"levelo_inurba_marseille","lat":43.34149,"lon":5.40907,"is_reserved":false,"is_disabled":false,"rental_uris":{"android":"levelo://app?vid=ee56864d-0289-4ab0-b1d9-4e118a6c50f5","ios":"levelo://app?vid=ee56864d-0289-4ab0-b1d9-4e118a6c50f5"},"vehicle_type_id":"4","last_reported":1729775900,"current_range_meters":38800,"station_id":"ce4bhqh2rcd13ifvqhlg","pricing_plan_id":"cebpf4jnsgd1na2vs0mg"},{"bike_id":"1c80993d-7860-4f87-9d2f-010765abd095","system_id":"levelo_inurba_marseille","lat":43.303088,"lon":5.36904,"is_reserved":false,"is_disabled":false,"rental_uris":{"android":"levelo://app?vid=1c80993d-7860-4f87-9d2f-010765abd095","ios":"levelo://app?vid=1c80993d-7860-4f87-9d2f-010765abd095"},"vehicle_type_id":"4","last_reported":1729775900,"current_range_meters":39200,"station_id":"ce4bgqh2rcd13ifvqc5g","pricing_plan_id":"cebpf4jnsgd1na2vs0mg"},{"bike_id":"3da9b360-54de-4f25-8af7-9b3f8004742e","system_id":"levelo_inurba_marseille","lat":43.30145,"lon":5.38081,"is_reserved":false,"is_disabled":false,"rental_uris":{"android":"levelo://app?vid=3da9b360-54de-4f25-8af7-9b3f8004742e","ios":"levelo://app?vid=3da9b360-54de-4f25-8af7-9b3f8004742e"},"vehicle_type_id":"4","last_reported":1729775900,"current_range_meters":35600,"station_id":"ce4bgjp2rcd13ifvqbh0","pricing_plan_id":"cebpf4jnsgd1na2vs0mg"},{"bike_id":"d9447c08-1a7c-4b4b-b968-d6c7901f21e4","system_id":"levelo_inurba_marseille","lat":43.29575,"lon":5.37497,"is_reserved":false,"is_disabled":false,"rental_uris":{"android":"levelo://app?vid=d9447c08-1a7c-4b4b-b968-d6c7901f21e4","ios":"levelo://app?vid=d9447c08-1a7c-4b4b-b968-d6c7901f21e4"},"vehicle_type_id":"4","last_reported":1729775900,"current_range_meters":38000,"station_id":"ce4bgh92rcd13ifvqb50","pricing_plan_id":"cebpf4jnsgd1na2vs0mg"},{"bike_id":"e875f3da-1dda-4b60-9052-fa1b16be0251","system_id":"levelo_inurba_marseille","lat":43.31712,"lon":5.43705,"is_reserved":false,"is_disabled":false,"rental_uris":{"android":"levelo://app?vid=e875f3da-1dda-4b60-9052-fa1b16be0251","ios":"levelo://app?vid=e875f3da-1dda-4b60-9052-fa1b16be0251"},"vehicle_type_id":"4","last_reported":1729775900,"current_range_meters":9600,"station_id":"ce4bhp92rcd13ifvqhcg","pricing_plan_id":"cebpf4jnsgd1na2vs0mg"},{"bike_id":"7fcbf994-2e47-4b65-86cc-9b02be9d0560","system_id":"levelo_inurba_marseille","lat":43.29939,"lon":5.36529,"is_reserved":false,"is_disabled":false,"rental_uris":{"android":"levelo://app?vid=7fcbf994-2e47-4b65-86cc-9b02be9d0560","ios":"levelo://app?vid=7fcbf994-2e47-4b65-86cc-9b02be9d0560"},"vehicle_type_id":"4","last_reported":1729775900,"current_range_meters":23200,"station_id":"ce4bgm92rcd13ifvqbr0","pricing_plan_id":"cebpf4jnsgd1na2vs0mg"},{"bike_id":"f76d7485-5b5d-436f-affc-371a23f7c2c2","system_id":"levelo_inurba_marseille","lat":43.28476,"lon":5.38405,"is_reserved":false,"is_disabled":false,"rental_uris":{"android":"levelo://app?vid=f76d7485-5b5d-436f-affc-371a23f7c2c2","ios":"levelo://app?vid=f76d7485-5b5d-436f-affc-371a23f7c2c2"},"vehicle_type_id":"4","last_reported":1729775900,"current_range_meters":16800,"station_id":"ce4bh512rcd13ifvqe3g","pricing_plan_id":"cebpf4jnsgd1na2vs0mg"},{"bike_id":"c869d18e-e981-4b33-86ff-468fea9e79e3","system_id":"levelo_inurba_marseille","lat":43.24389,"lon":5.37059,"is_reserved":false,"is_disabled":false,"rental_uris":{"android":"levelo://app?vid=c869d18e-e981-4b33-86ff-468fea9e79e3","ios":"levelo://app?vid=c869d18e-e981-4b33-86ff-468fea9e79e3"},"vehicle_type_id":"4","last_reported":1729775900,"current_range_meters":11600,"station_id":"ce4bhhh2rcd13ifvqfk0","pricing_plan_id":"cebpf4jnsgd1na2vs0mg"},{"bike_id":"c53297ed-e762-4e39-ba67-dc471992e661","system_id":"levelo_inurba_marseille","lat":43.28207,"lon":5.38607,"is_reserved":false,"is_disabled":false,"rental_uris":{"android":"levelo://app?vid=c53297ed-e762-4e39-ba67-dc471992e661","ios":"levelo://app?vid=c53297ed-e762-4e39-ba67-dc471992e661"},"vehicle_type_id":"4","last_reported":1729775900,"current_range_meters":19200,"station_id":"ce4bh492rcd13ifvqdvg","pricing_plan_id":"cebpf4jnsgd1na2vs0mg"},{"bike_id":"3a904881-c49f-42f3-ab29-bca1bed304a9","system_id":"levelo_inurba_marseille","lat":43.25938,"lon":5.40899,"is_reserved":false,"is_disabled":false,"rental_uris":{"android":"levelo://app?vid=3a904881-c49f-42f3-ab29-bca1bed304a9","ios":"levelo://app?vid=3a904881-c49f-42f3-ab29-bca1bed304a9"},"vehicle_type_id":"4","last_reported":1729775900,"current_range_meters":27200,"station_id":"ce4bhm92rcd13ifvqglg","pricing_plan_id":"cebpf4jnsgd1na2vs0mg"},{"bike_id":"ba4ad22b-935f-4386-891c-7237609df417","system_id":"levelo_inurba_marseille","lat":43.28722,"lon":5.36091,"is_reserved":false,"is_disabled":false,"rental_uris":{"android":"levelo://app?vid=ba4ad22b-935f-4386-891c-7237609df417","ios":"levelo://app?vid=ba4ad22b-935f-4386-891c-7237609df417"},"vehicle_type_id":"4","last_reported":1729775900,"current_range_meters":10000,"station_id":"cki0cbj6b192h4jlfktg","pricing_plan_id":"cebpf4jnsgd1na2vs0mg"},{"bike_id":"5f120777-a767-4e0d-af7e-e4fc1aeb29f7","system_id":"levelo_inurba_marseille","lat":43.2396,"lon":5.3663,"is_reserved":false,"is_disabled":false,"rental_uris":{"android":"levelo://app?vid=5f120777-a767-4e0d-af7e-e4fc1aeb29f7","ios":"levelo://app?vid=5f120777-a767-4e0d-af7e-e4fc1aeb29f7"},"vehicle_type_id":"4","last_reported":1729775900,"current_range_meters":14400,"station_id":"ce4bhi12rcd13ifvqfp0","pricing_plan_id":"cebpf4jnsgd1na2vs0mg"},{"bike_id":"e3f9c825-bd86-43a7-b78b-c3262f86a9bd","system_id":"levelo_inurba_marseille","lat":43.29612,"lon":5.37723,"is_reserved":false,"is_disabled":false,"rental_uris":{"android":"levelo://app?vid=e3f9c825-bd86-43a7-b78b-c3262f86a9bd","ios":"levelo://app?vid=e3f9c825-bd86-43a7-b78b-c3262f86a9bd"},"vehicle_type_id":"4","last_reported":1729775900,"current_range_meters":24400,"station_id":"ce4bgi92rcd13ifvqb90","pricing_plan_id":"cebpf4jnsgd1na2vs0mg"},{"bike_id":"0c748939-2c73-4103-9080-abf1e4aa7b4d","system_id":"levelo_inurba_marseille","lat":43.3094,"lon":5.40138,"is_reserved":false,"is_disabled":false,"rental_uris":{"android":"levelo://app?vid=0c748939-2c73-4103-9080-abf1e4aa7b4d","ios":"levelo://app?vid=0c748939-2c73-4103-9080-abf1e4aa7b4d"},"vehicle_type_id":"4","last_reported":1729775900,"current_range_meters":10000,"station_id":"ce4bgvp2rcd13ifvqct0","pricing_plan_id":"cebpf4jnsgd1na2vs0mg"},{"bike_id":"91bfa645-9cfa-4568-8072-595cbd3b9c72","system_id":"levelo_inurba_marseille","lat":43.28905,"lon":5.36099,"is_reserved":false,"is_disabled":false,"rental_uris":{"android":"levelo://app?vid=91bfa645-9cfa-4568-8072-595cbd3b9c72","ios":"levelo://app?vid=91bfa645-9cfa-4568-8072-595cbd3b9c72"},"vehicle_type_id":"4","last_reported":1729775900,"current_range_meters":23200,"station_id":"","pricing_plan_id":"cebpf4jnsgd1na2vs0mg"},{"bike_id":"7ac878d5-7464-47b0-8096-73b091a39903","system_id":"levelo_inurba_marseille","lat":43.30527,"lon":5.36525,"is_reserved":false,"is_disabled":false,"rental_uris":{"android":"levelo://app?vid=7ac878d5-7464-47b0-8096-73b091a39903","ios":"levelo://app?vid=7ac878d5-7464-47b0-8096-73b091a39903"},"vehicle_type_id":"4","last_reported":1729775900,"current_range_meters":23200,"station_id":"ce4bgs12rcd13ifvqcag","pricing_plan_id":"cebpf4jnsgd1na2vs0mg"},{"bike_id":"678de949-9c97-4c29-87e5-9f0dabf6b6c1","system_id":"levelo_inurba_marseille","lat":43.25498,"lon":5.3765,"is_reserved":false,"is_disabled":false,"rental_uris":{"android":"levelo://app?vid=678de949-9c97-4c29-87e5-9f0dabf6b6c1","ios":"levelo://app?vid=678de949-9c97-4c29-87e5-9f0dabf6b6c1"},"vehicle_type_id":"4","last_reported":1729775900,"current_range_meters":39200,"station_id":"ce4bhh12rcd13ifvqff0","pricing_plan_id":"cebpf4jnsgd1na2vs0mg"},{"bike_id":"4a969d9a-a2f7-4482-9d72-f6a3a46a8b8b","system_id":"levelo_inurba_marseille","lat":43.30142,"lon":5.37415,"is_reserved":false,"is_disabled":false,"rental_uris":{"android":"levelo://app?vid=4a969d9a-a2f7-4482-9d72-f6a3a46a8b8b","ios":"levelo://app?vid=4a969d9a-a2f7-4482-9d72-f6a3a46a8b8b"},"vehicle_type_id":"4","last_reported":1729775900,"current_range_meters":28800,"station_id":"ce4bgs92rcd13ifvqcc0","pricing_plan_id":"cebpf4jnsgd1na2vs0mg"},{"bike_id":"b48ab188-f6d5-47d9-b0dc-727d13abee05","system_id":"levelo_inurba_marseille","lat":43.24181,"lon":5.39709,"is_reserved":false,"is_disabled":false,"rental_uris":{"android":"levelo://app?vid=b48ab188-f6d5-47d9-b0dc-727d13abee05","ios":"levelo://app?vid=b48ab188-f6d5-47d9-b0dc-727d13abee05"},"vehicle_type_id":"4","last_reported":1729775900,"current_range_meters":36800,"station_id":"ce4bhn12rcd13ifvqgpg","pricing_plan_id":"cebpf4jnsgd1na2vs0mg"},{"bike_id":"ccd14b9e-6afd-43fe-9017-99c7e2191098","system_id":"levelo_inurba_marseille","lat":43.30133,"lon":5.38783,"is_reserved":false,"is_disabled":false,"rental_uris":{"android":"levelo://app?vid=ccd14b9e-6afd-43fe-9017-99c7e2191098","ios":"levelo://app?vid=ccd14b9e-6afd-43fe-9017-99c7e2191098"},"vehicle_type_id":"4","last_reported":1729775900,"current_range_meters":24800,"station_id":"ce4bghh2rcd13ifvqb60","pricing_plan_id":"cebpf4jnsgd1na2vs0mg"},{"bike_id":"09791f05-f8c7-42fb-8044-8e29cc57452f","system_id":"levelo_inurba_marseille","lat":43.30303,"lon":5.39212,"is_reserved":false,"is_disabled":false,"rental_uris":{"android":"levelo://app?vid=09791f05-f8c7-42fb-8044-8e29cc57452f","ios":"levelo://app?vid=09791f05-f8c7-42fb-8044-8e29cc57452f"},"vehicle_type_id":"4","last_reported":1729775900,"current_range_meters":11200,"station_id":"ce4bgkh2rcd13ifvqbk0","pricing_plan_id":"cebpf4jnsgd1na2vs0mg"},{"bike_id":"0300ae8c-d89e-4fc9-94c4-e4571dd93d5f","system_id":"levelo_inurba_marseille","lat":43.25929,"lon":5.40908,"is_reserved":false,"is_disabled":false,"rental_uris":{"android":"levelo://app?vid=0300ae8c-d89e-4fc9-94c4-e4571dd93d5f","ios":"levelo://app?vid=0300ae8c-d89e-4fc9-94c4-e4571dd93d5f"},"vehicle_type_id":"4","last_reported":1729775900,"current_range_meters":30800,"station_id":"ce4bhm92rcd13ifvqglg","pricing_plan_id":"cebpf4jnsgd1na2vs0mg"},{"bike_id":"c9ddcc58-d1ff-4f4b-8a00-261bdb2bdb0a","system_id":"levelo_inurba_marseille","lat":43.30381,"lon":5.40777,"is_reserved":false,"is_disabled":false,"rental_uris":{"android":"levelo://app?vid=c9ddcc58-d1ff-4f4b-8a00-261bdb2bdb0a","ios":"levelo://app?vid=c9ddcc58-d1ff-4f4b-8a00-261bdb2bdb0a"},"vehicle_type_id":"4","last_reported":1729775900,"current_range_meters":8400,"station_id":"","pricing_plan_id":"cebpf4jnsgd1na2vs0mg"},{"bike_id":"8db1c00b-5f9b-4452-8ac2-f17e4ba8c6b0","system_id":"levelo_inurba_marseille","lat":43.26207,"lon":5.37439,"is_reserved":false,"is_disabled":false,"rental_uris":{"android":"levelo://app?vid=8db1c00b-5f9b-4452-8ac2-f17e4ba8c6b0","ios":"levelo://app?vid=8db1c00b-5f9b-4452-8ac2-f17e4ba8c6b0"},"vehicle_type_id":"4","last_reported":1729775900,"current_range_meters":20000,"station_id":"ce4bhgp2rcd13ifvqfc0","pricing_plan_id":"cebpf4jnsgd1na2vs0mg"},{"bike_id":"af31fb74-760f-4b5e-9ceb-795961c2744e","system_id":"levelo_inurba_marseille","lat":43.265,"lon":5.39534,"is_reserved":false,"is_disabled":false,"rental_uris":{"android":"levelo://app?vid=af31fb74-760f-4b5e-9ceb-795961c2744e","ios":"levelo://app?vid=af31fb74-760f-4b5e-9ceb-795961c2744e"},"vehicle_type_id":"4","last_reported":1729775900,"current_range_meters":16800,"station_id":"ce4bhi12rcd13ifvqfq0","pricing_plan_id":"cebpf4jnsgd1na2vs0mg"},{"bike_id":"18310cfa-9c71-402f-ab7e-1213337cd852","system_id":"levelo_inurba_marseille","lat":43.30911,"lon":5.36849,"is_reserved":false,"is_disabled":false,"rental_uris":{"android":"levelo://app?vid=18310cfa-9c71-402f-ab7e-1213337cd852","ios":"levelo://app?vid=18310cfa-9c71-402f-ab7e-1213337cd852"},"vehicle_type_id":"4","last_reported":1729775900,"current_range_meters":10000,"station_id":"ce4bgn92rcd13ifvqbvg","pricing_plan_id":"cebpf4jnsgd1na2vs0mg"},{"bike_id":"cdea4aca-3bdc-43f7-b0f5-c5a3f7e0a307","system_id":"levelo_inurba_marseille","lat":43.29585,"lon":5.36731,"is_reserved":false,"is_disabled":false,"rental_uris":{"android":"levelo://app?vid=cdea4aca-3bdc-43f7-b0f5-c5a3f7e0a307","ios":"levelo://app?vid=cdea4aca-3bdc-43f7-b0f5-c5a3f7e0a307"},"vehicle_type_id":"4","last_reported":1729775900,"current_range_meters":38400,"station_id":"ce4bgph2rcd13ifvqc2g","pricing_plan_id":"cebpf4jnsgd1na2vs0mg"},{"bike_id":"63298a7c-aefd-45e5-b3f1-d13a42ed58ce","system_id":"levelo_inurba_marseille","lat":43.337444,"lon":5.374475,"is_reserved":false,"is_disabled":false,"rental_uris":{"android":"levelo://app?vid=63298a7c-aefd-45e5-b3f1-d13a42ed58ce","ios":"levelo://app?vid=63298a7c-aefd-45e5-b3f1-d13a42ed58ce"},"vehicle_type_id":"4","last_reported":1729775900,"current_range_meters":32000,"station_id":"","pricing_plan_id":"cebpf4jnsgd1na2vs0mg"},{"bike_id":"9c980766-3696-42be-8e1a-d22fb6edb5c5","system_id":"levelo_inurba_marseille","lat":43.30662,"lon":5.38154,"is_reserved":false,"is_disabled":false,"rental_uris":{"android":"levelo://app?vid=9c980766-3696-42be-8e1a-d22fb6edb5c5","ios":"levelo://app?vid=9c980766-3696-42be-8e1a-d22fb6edb5c5"},"vehicle_type_id":"4","last_reported":1729775900,"current_range_meters":28000,"station_id":"","pricing_plan_id":"cebpf4jnsgd1na2vs0mg"},{"bike_id":"3b65ae1b-7a9f-48f9-a271-9dce26f02699","system_id":"levelo_inurba_marseille","lat":43.28422,"lon":5.34989,"is_reserved":false,"is_disabled":false,"rental_uris":{"android":"levelo://app?vid=3b65ae1b-7a9f-48f9-a271-9dce26f02699","ios":"levelo://app?vid=3b65ae1b-7a9f-48f9-a271-9dce26f02699"},"vehicle_type_id":"4","last_reported":1729775900,"current_range_meters":38800,"station_id":"ce4bhbh2rcd13ifvqepg","pricing_plan_id":"cebpf4jnsgd1na2vs0mg"},{"bike_id":"d8655792-5834-4f3c-af3f-18edc8c1f2a6","system_id":"levelo_inurba_marseille","lat":43.28281,"lon":5.35078,"is_reserved":false,"is_disabled":false,"rental_uris":{"android":"levelo://app?vid=d8655792-5834-4f3c-af3f-18edc8c1f2a6","ios":"levelo://app?vid=d8655792-5834-4f3c-af3f-18edc8c1f2a6"},"vehicle_type_id":"4","last_reported":1729775900,"current_range_meters":20400,"station_id":"ce4bhbp2rcd13ifvqerg","pricing_plan_id":"cebpf4jnsgd1na2vs0mg"},{"bike_id":"3010ef2f-2433-4cfb-a0ef-5760fa4584d2","system_id":"levelo_inurba_marseille","lat":43.30798,"lon":5.38151,"is_reserved":false,"is_disabled":false,"rental_uris":{"android":"levelo://app?vid=3010ef2f-2433-4cfb-a0ef-5760fa4584d2","ios":"levelo://app?vid=3010ef2f-2433-4cfb-a0ef-5760fa4584d2"},"vehicle_type_id":"4","last_reported":1729775900,"current_range_meters":35600,"station_id":"ce4bgt12rcd13ifvqce0","pricing_plan_id":"cebpf4jnsgd1na2vs0mg"},{"bike_id":"0cdbb134-96fa-4d9b-af27-8018256ef8c7","system_id":"levelo_inurba_marseille","lat":43.23182,"lon":5.39978,"is_reserved":false,"is_disabled":false,"rental_uris":{"android":"levelo://app?vid=0cdbb134-96fa-4d9b-af27-8018256ef8c7","ios":"levelo://app?vid=0cdbb134-96fa-4d9b-af27-8018256ef8c7"},"vehicle_type_id":"4","last_reported":1729775900,"current_range_meters":22800,"station_id":"ce4bhn12rcd13ifvqgqg","pricing_plan_id":"cebpf4jnsgd1na2vs0mg"},{"bike_id":"624fe77a-eea3-45c5-8705-7034c073ec0f","system_id":"levelo_inurba_marseille","lat":43.3053,"lon":5.36527,"is_reserved":false,"is_disabled":false,"rental_uris":{"android":"levelo://app?vid=624fe77a-eea3-45c5-8705-7034c073ec0f","ios":"levelo://app?vid=624fe77a-eea3-45c5-8705-7034c073ec0f"},"vehicle_type_id":"4","last_reported":1729775900,"current_range_meters":16000,"station_id":"ce4bgs12rcd13ifvqcag","pricing_plan_id":"cebpf4jnsgd1na2vs0mg"},{"bike_id":"5c94f4f0-f0cd-4179-8b32-cf5ce3cee721","system_id":"levelo_inurba_marseille","lat":43.27375,"lon":5.36251,"is_reserved":false,"is_disabled":false,"rental_uris":{"android":"levelo://app?vid=5c94f4f0-f0cd-4179-8b32-cf5ce3cee721","ios":"levelo://app?vid=5c94f4f0-f0cd-4179-8b32-cf5ce3cee721"},"vehicle_type_id":"4","last_reported":1729775900,"current_range_meters":7200,"station_id":"ce4bhbh2rcd13ifvqeo0","pricing_plan_id":"cebpf4jnsgd1na2vs0mg"},{"bike_id":"05fafca5-b07f-46bd-936e-6dd4c612c493","system_id":"levelo_inurba_marseille","lat":43.2958,"lon":5.3752,"is_reserved":false,"is_disabled":false,"rental_uris":{"android":"levelo://app?vid=05fafca5-b07f-46bd-936e-6dd4c612c493","ios":"levelo://app?vid=05fafca5-b07f-46bd-936e-6dd4c612c493"},"vehicle_type_id":"4","last_reported":1729775900,"current_range_meters":16400,"station_id":"ce4bgh92rcd13ifvqb50","pricing_plan_id":"cebpf4jnsgd1na2vs0mg"},{"bike_id":"79566339-3756-47e0-ab72-85e0d3e3abb1","system_id":"levelo_inurba_marseille","lat":43.29929,"lon":5.36513,"is_reserved":false,"is_disabled":false,"rental_uris":{"android":"levelo://app?vid=79566339-3756-47e0-ab72-85e0d3e3abb1","ios":"levelo://app?vid=79566339-3756-47e0-ab72-85e0d3e3abb1"},"vehicle_type_id":"4","last_reported":1729775900,"current_range_meters":27600,"station_id":"ce4bgm92rcd13ifvqbr0","pricing_plan_id":"cebpf4jnsgd1na2vs0mg"},{"bike_id":"3fa4e7fe-c8c6-44bd-ac1e-792642cbde06","system_id":"levelo_inurba_marseille","lat":43.29621,"lon":5.37164,"is_reserved":false,"is_disabled":false,"rental_uris":{"android":"levelo://app?vid=3fa4e7fe-c8c6-44bd-ac1e-792642cbde06","ios":"levelo://app?vid=3fa4e7fe-c8c6-44bd-ac1e-792642cbde06"},"vehicle_type_id":"4","last_reported":1729775900,"current_range_meters":28000,"station_id":"ce4bgnh2rcd13ifvqc0g","pricing_plan_id":"cebpf4jnsgd1na2vs0mg"},{"bike_id":"c13558fe-ad75-44ec-bc34-c48789579e68","system_id":"levelo_inurba_marseille","lat":43.29097,"lon":5.38155,"is_reserved":false,"is_disabled":false,"rental_uris":{"android":"levelo://app?vid=c13558fe-ad75-44ec-bc34-c48789579e68","ios":"levelo://app?vid=c13558fe-ad75-44ec-bc34-c48789579e68"},"vehicle_type_id":"4","last_reported":1729775900,"current_range_meters":8400,"station_id":"ce4bh512rcd13ifvqe2g","pricing_plan_id":"cebpf4jnsgd1na2vs0mg"},{"bike_id":"99f02ae0-4c7a-46f0-8c32-64c0fd18fc9d","system_id":"levelo_inurba_marseille","lat":43.24804,"lon":5.37465,"is_reserved":false,"is_disabled":false,"rental_uris":{"android":"levelo://app?vid=99f02ae0-4c7a-46f0-8c32-64c0fd18fc9d","ios":"levelo://app?vid=99f02ae0-4c7a-46f0-8c32-64c0fd18fc9d"},"vehicle_type_id":"4","last_reported":1729775900,"current_range_meters":25200,"station_id":"ce4bhgh2rcd13ifvqfb0","pricing_plan_id":"cebpf4jnsgd1na2vs0mg"},{"bike_id":"c2b8fc8d-6a44-466e-90bc-54774ef00a3d","system_id":"levelo_inurba_marseille","lat":43.299689,"lon":5.384855,"is_reserved":false,"is_disabled":false,"rental_uris":{"android":"levelo://app?vid=c2b8fc8d-6a44-466e-90bc-54774ef00a3d","ios":"levelo://app?vid=c2b8fc8d-6a44-466e-90bc-54774ef00a3d"},"vehicle_type_id":"4","last_reported":1729775900,"current_range_meters":36000,"station_id":"ce4bgvp2rcd13ifvqcu0","pricing_plan_id":"cebpf4jnsgd1na2vs0mg"},{"bike_id":"b61613ac-0748-4108-8037-3d7940c77f58","system_id":"levelo_inurba_marseille","lat":43.26797,"lon":5.40256,"is_reserved":false,"is_disabled":false,"rental_uris":{"android":"levelo://app?vid=b61613ac-0748-4108-8037-3d7940c77f58","ios":"levelo://app?vid=b61613ac-0748-4108-8037-3d7940c77f58"},"vehicle_type_id":"4","last_reported":1729775900,"current_range_meters":39200,"station_id":"ce501612rcd8frsf0b60","pricing_plan_id":"cebpf4jnsgd1na2vs0mg"},{"bike_id":"3329b6da-e063-482c-9774-f6250ffbb190","system_id":"levelo_inurba_marseille","lat":43.26678,"lon":5.38268,"is_reserved":false,"is_disabled":false,"rental_uris":{"android":"levelo://app?vid=3329b6da-e063-482c-9774-f6250ffbb190","ios":"levelo://app?vid=3329b6da-e063-482c-9774-f6250ffbb190"},"vehicle_type_id":"4","last_reported":1729775900,"current_range_meters":26000,"station_id":"ce4bhg92rcd13ifvqf90","pricing_plan_id":"cebpf4jnsgd1na2vs0mg"},{"bike_id":"9c013dbd-faae-4966-8fd8-4bc8e911b92b","system_id":"levelo_inurba_marseille","lat":43.28615,"lon":5.35098,"is_reserved":false,"is_disabled":false,"rental_uris":{"android":"levelo://app?vid=9c013dbd-faae-4966-8fd8-4bc8e911b92b","ios":"levelo://app?vid=9c013dbd-faae-4966-8fd8-4bc8e911b92b"},"vehicle_type_id":"4","last_reported":1729775900,"current_range_meters":15200,"station_id":"ce4bhch2rcd13ifvqeug","pricing_plan_id":"cebpf4jnsgd1na2vs0mg"},{"bike_id":"d1b42cfa-1c25-4cb0-97a5-e058593983bc","system_id":"levelo_inurba_marseille","lat":43.29615,"lon":5.37732,"is_reserved":false,"is_disabled":false,"rental_uris":{"android":"levelo://app?vid=d1b42cfa-1c25-4cb0-97a5-e058593983bc","ios":"levelo://app?vid=d1b42cfa-1c25-4cb0-97a5-e058593983bc"},"vehicle_type_id":"4","last_reported":1729775900,"current_range_meters":8000,"station_id":"ce4bgi92rcd13ifvqb90","pricing_plan_id":"cebpf4jnsgd1na2vs0mg"},{"bike_id":"fe49b109-5237-4d52-9287-99955a4df71f","system_id":"levelo_inurba_marseille","lat":43.33601,"lon":5.41023,"is_reserved":false,"is_disabled":false,"rental_uris":{"android":"levelo://app?vid=fe49b109-5237-4d52-9287-99955a4df71f","ios":"levelo://app?vid=fe49b109-5237-4d52-9287-99955a4df71f"},"vehicle_type_id":"4","last_reported":1729775900,"current_range_meters":8400,"station_id":"ce4bhqh2rcd13ifvqhmg","pricing_plan_id":"cebpf4jnsgd1na2vs0mg"},{"bike_id":"e9bdaff6-12a7-4812-90dc-5cca723480d4","system_id":"levelo_inurba_marseille","lat":43.30532,"lon":5.36528,"is_reserved":false,"is_disabled":false,"rental_uris":{"android":"levelo://app?vid=e9bdaff6-12a7-4812-90dc-5cca723480d4","ios":"levelo://app?vid=e9bdaff6-12a7-4812-90dc-5cca723480d4"},"vehicle_type_id":"4","last_reported":1729775900,"current_range_meters":36800,"station_id":"ce4bgs12rcd13ifvqcag","pricing_plan_id":"cebpf4jnsgd1na2vs0mg"},{"bike_id":"2153b9a3-3e83-4fb8-83ae-97bf66eced1e","system_id":"levelo_inurba_marseille","lat":43.32044,"lon":5.41538,"is_reserved":false,"is_disabled":false,"rental_uris":{"android":"levelo://app?vid=2153b9a3-3e83-4fb8-83ae-97bf66eced1e","ios":"levelo://app?vid=2153b9a3-3e83-4fb8-83ae-97bf66eced1e"},"vehicle_type_id":"4","last_reported":1729775900,"current_range_meters":36000,"station_id":"ce4bhq92rcd13ifvqhkg","pricing_plan_id":"cebpf4jnsgd1na2vs0mg"},{"bike_id":"1240219d-7ee6-4033-a46a-b8f3b5db57d1","system_id":"levelo_inurba_marseille","lat":43.29097,"lon":5.38137,"is_reserved":false,"is_disabled":false,"rental_uris":{"android":"levelo://app?vid=1240219d-7ee6-4033-a46a-b8f3b5db57d1","ios":"levelo://app?vid=1240219d-7ee6-4033-a46a-b8f3b5db57d1"},"vehicle_type_id":"4","last_reported":1729775900,"current_range_meters":10800,"station_id":"ce4bh512rcd13ifvqe2g","pricing_plan_id":"cebpf4jnsgd1na2vs0mg"},{"bike_id":"ae6117f6-24f8-4939-8561-592474de13e6","system_id":"levelo_inurba_marseille","lat":43.31996,"lon":5.38142,"is_reserved":false,"is_disabled":false,"rental_uris":{"android":"levelo://app?vid=ae6117f6-24f8-4939-8561-592474de13e6","ios":"levelo://app?vid=ae6117f6-24f8-4939-8561-592474de13e6"},"vehicle_type_id":"4","last_reported":1729775900,"current_range_meters":17200,"station_id":"ce4bhr12rcd13ifvqhpg","pricing_plan_id":"cebpf4jnsgd1na2vs0mg"},{"bike_id":"652f300b-d91b-436e-951b-0b6b38daa228","system_id":"levelo_inurba_marseille","lat":43.31358,"lon":5.38487,"is_reserved":false,"is_disabled":false,"rental_uris":{"android":"levelo://app?vid=652f300b-d91b-436e-951b-0b6b38daa228","ios":"levelo://app?vid=652f300b-d91b-436e-951b-0b6b38daa228"},"vehicle_type_id":"4","last_reported":1729775900,"current_range_meters":27600,"station_id":"ce4bgt92rcd13ifvqcf0","pricing_plan_id":"cebpf4jnsgd1na2vs0mg"},{"bike_id":"63c14708-8b68-4da2-ac6b-8c257628956a","system_id":"levelo_inurba_marseille","lat":43.28375,"lon":5.38644,"is_reserved":false,"is_disabled":false,"rental_uris":{"android":"levelo://app?vid=63c14708-8b68-4da2-ac6b-8c257628956a","ios":"levelo://app?vid=63c14708-8b68-4da2-ac6b-8c257628956a"},"vehicle_type_id":"4","last_reported":1729775900,"current_range_meters":38800,"station_id":"ce4bh492rcd13ifvqdvg","pricing_plan_id":"cebpf4jnsgd1na2vs0mg"},{"bike_id":"00a8bd9d-eef3-42e3-9e17-61a6e620d1f8","system_id":"levelo_inurba_marseille","lat":43.33025,"lon":5.39046,"is_reserved":false,"is_disabled":false,"rental_uris":{"android":"levelo://app?vid=00a8bd9d-eef3-42e3-9e17-61a6e620d1f8","ios":"levelo://app?vid=00a8bd9d-eef3-42e3-9e17-61a6e620d1f8"},"vehicle_type_id":"4","last_reported":1729775900,"current_range_meters":38800,"station_id":"ce4bhr92rcd13ifvqhrg","pricing_plan_id":"cebpf4jnsgd1na2vs0mg"},{"bike_id":"c9b0dcb8-fce8-4a14-8ed6-90abd944a394","system_id":"levelo_inurba_marseille","lat":43.29705,"lon":5.37694,"is_reserved":false,"is_disabled":false,"rental_uris":{"android":"levelo://app?vid=c9b0dcb8-fce8-4a14-8ed6-90abd944a394","ios":"levelo://app?vid=c9b0dcb8-fce8-4a14-8ed6-90abd944a394"},"vehicle_type_id":"4","last_reported":1729775900,"current_range_meters":14000,"station_id":"ce4bgkh2rcd13ifvqbl0","pricing_plan_id":"cebpf4jnsgd1na2vs0mg"},{"bike_id":"e8c8b23a-92e0-4dfc-9e4f-0b6534c5a26f","system_id":"levelo_inurba_marseille","lat":43.30597,"lon":5.39359,"is_reserved":false,"is_disabled":false,"rental_uris":{"android":"levelo://app?vid=e8c8b23a-92e0-4dfc-9e4f-0b6534c5a26f","ios":"levelo://app?vid=e8c8b23a-92e0-4dfc-9e4f-0b6534c5a26f"},"vehicle_type_id":"4","last_reported":1729775900,"current_range_meters":19200,"station_id":"ce4bh0p2rcd13ifvqd80","pricing_plan_id":"cebpf4jnsgd1na2vs0mg"},{"bike_id":"9680cf0e-a8ad-4710-a8b9-c5a17ffb3a48","system_id":"levelo_inurba_marseille","lat":43.31234,"lon":5.3686,"is_reserved":false,"is_disabled":false,"rental_uris":{"android":"levelo://app?vid=9680cf0e-a8ad-4710-a8b9-c5a17ffb3a48","ios":"levelo://app?vid=9680cf0e-a8ad-4710-a8b9-c5a17ffb3a48"},"vehicle_type_id":"4","last_reported":1729775900,"current_range_meters":30000,"station_id":"ce4bgl92rcd13ifvqbq0","pricing_plan_id":"cebpf4jnsgd1na2vs0mg"},{"bike_id":"a2631dc1-1827-4cf3-86b8-dce52abe8879","system_id":"levelo_inurba_marseille","lat":43.29095,"lon":5.38148,"is_reserved":false,"is_disabled":false,"rental_uris":{"android":"levelo://app?vid=a2631dc1-1827-4cf3-86b8-dce52abe8879","ios":"levelo://app?vid=a2631dc1-1827-4cf3-86b8-dce52abe8879"},"vehicle_type_id":"4","last_reported":1729775900,"current_range_meters":10000,"station_id":"ce4bh512rcd13ifvqe2g","pricing_plan_id":"cebpf4jnsgd1na2vs0mg"},{"bike_id":"f3bc4577-f987-4844-92b7-6cca971ffa02","system_id":"levelo_inurba_marseille","lat":43.30555,"lon":5.3653,"is_reserved":false,"is_disabled":false,"rental_uris":{"android":"levelo://app?vid=f3bc4577-f987-4844-92b7-6cca971ffa02","ios":"levelo://app?vid=f3bc4577-f987-4844-92b7-6cca971ffa02"},"vehicle_type_id":"4","last_reported":1729775900,"current_range_meters":38000,"station_id":"ce4bgs12rcd13ifvqcag","pricing_plan_id":"cebpf4jnsgd1na2vs0mg"},{"bike_id":"c39a91c5-40ba-4f6d-8f82-3eb9c204bd2b","system_id":"levelo_inurba_marseille","lat":43.29036,"lon":5.38653,"is_reserved":false,"is_disabled":false,"rental_uris":{"android":"levelo://app?vid=c39a91c5-40ba-4f6d-8f82-3eb9c204bd2b","ios":"levelo://app?vid=c39a91c5-40ba-4f6d-8f82-3eb9c204bd2b"},"vehicle_type_id":"4","last_reported":1729775900,"current_range_meters":21600,"station_id":"ce4bh4p2rcd13ifvqe0g","pricing_plan_id":"cebpf4jnsgd1na2vs0mg"},{"bike_id":"228c2a65-a88a-474e-baae-39029ce20359","system_id":"levelo_inurba_marseille","lat":43.24076,"lon":5.37743,"is_reserved":false,"is_disabled":false,"rental_uris":{"android":"levelo://app?vid=228c2a65-a88a-474e-baae-39029ce20359","ios":"levelo://app?vid=228c2a65-a88a-474e-baae-39029ce20359"},"vehicle_type_id":"4","last_reported":1729775900,"current_range_meters":19600,"station_id":"ce4bhnp2rcd13ifvqgvg","pricing_plan_id":"cebpf4jnsgd1na2vs0mg"},{"bike_id":"ac1f2afe-f721-4f4e-978a-8924046a0505","system_id":"levelo_inurba_marseille","lat":43.28456,"lon":5.35895,"is_reserved":false,"is_disabled":false,"rental_uris":{"android":"levelo://app?vid=ac1f2afe-f721-4f4e-978a-8924046a0505","ios":"levelo://app?vid=ac1f2afe-f721-4f4e-978a-8924046a0505"},"vehicle_type_id":"4","last_reported":1729775900,"current_range_meters":8000,"station_id":"ce4bhah2rcd13ifvqei0","pricing_plan_id":"cebpf4jnsgd1na2vs0mg"},{"bike_id":"6e5b04dd-7605-4664-93fa-296435ba11b2","system_id":"levelo_inurba_marseille","lat":43.31236,"lon":5.36857,"is_reserved":false,"is_disabled":false,"rental_uris":{"android":"levelo://app?vid=6e5b04dd-7605-4664-93fa-296435ba11b2","ios":"levelo://app?vid=6e5b04dd-7605-4664-93fa-296435ba11b2"},"vehicle_type_id":"4","last_reported":1729775900,"current_range_meters":36800,"station_id":"ce4bgl92rcd13ifvqbq0","pricing_plan_id":"cebpf4jnsgd1na2vs0mg"},{"bike_id":"4a6df651-d777-43d3-86b7-7fa1c99ff793","system_id":"levelo_inurba_marseille","lat":43.30892,"lon":5.37194,"is_reserved":false,"is_disabled":false,"rental_uris":{"android":"levelo://app?vid=4a6df651-d777-43d3-86b7-7fa1c99ff793","ios":"levelo://app?vid=4a6df651-d777-43d3-86b7-7fa1c99ff793"},"vehicle_type_id":"4","last_reported":1729775900,"current_range_meters":15200,"station_id":"ce4bguh2rcd13ifvqckg","pricing_plan_id":"cebpf4jnsgd1na2vs0mg"},{"bike_id":"4b6769f0-9d52-4427-92eb-85214df0463d","system_id":"levelo_inurba_marseille","lat":43.23192,"lon":5.35552,"is_reserved":false,"is_disabled":false,"rental_uris":{"android":"levelo://app?vid=4b6769f0-9d52-4427-92eb-85214df0463d","ios":"levelo://app?vid=4b6769f0-9d52-4427-92eb-85214df0463d"},"vehicle_type_id":"4","last_reported":1729775900,"current_range_meters":30000,"station_id":"ce4bhu92rcd13ifvqi70","pricing_plan_id":"cebpf4jnsgd1na2vs0mg"},{"bike_id":"4ec25af9-2c50-4187-b3b7-1dc66bf6c68a","system_id":"levelo_inurba_marseille","lat":43.28293,"lon":5.40837,"is_reserved":false,"is_disabled":false,"rental_uris":{"android":"levelo://app?vid=4ec25af9-2c50-4187-b3b7-1dc66bf6c68a","ios":"levelo://app?vid=4ec25af9-2c50-4187-b3b7-1dc66bf6c68a"},"vehicle_type_id":"4","last_reported":1729775900,"current_range_meters":8000,"station_id":"","pricing_plan_id":"cebpf4jnsgd1na2vs0mg"},{"bike_id":"1161a43b-b3ab-498e-ad25-bfd702b07c0b","system_id":"levelo_inurba_marseille","lat":43.28436,"lon":5.39185,"is_reserved":false,"is_disabled":false,"rental_uris":{"android":"levelo://app?vid=1161a43b-b3ab-498e-ad25-bfd702b07c0b","ios":"levelo://app?vid=1161a43b-b3ab-498e-ad25-bfd702b07c0b"},"vehicle_type_id":"4","last_reported":1729775900,"current_range_meters":38000,"station_id":"ce4bhoh2rcd13ifvqh5g","pricing_plan_id":"cebpf4jnsgd1na2vs0mg"},{"bike_id":"e360ce09-236a-4b01-8d2b-2451a5894b4b","system_id":"levelo_inurba_marseille","lat":43.33022,"lon":5.39047,"is_reserved":false,"is_disabled":false,"rental_uris":{"android":"levelo://app?vid=e360ce09-236a-4b01-8d2b-2451a5894b4b","ios":"levelo://app?vid=e360ce09-236a-4b01-8d2b-2451a5894b4b"},"vehicle_type_id":"4","last_reported":1729775900,"current_range_meters":38800,"station_id":"ce4bhr92rcd13ifvqhrg","pricing_plan_id":"cebpf4jnsgd1na2vs0mg"},{"bike_id":"6e61c137-feee-4997-a796-11964e059225","system_id":"levelo_inurba_marseille","lat":43.29718,"lon":5.37711,"is_reserved":false,"is_disabled":false,"rental_uris":{"android":"levelo://app?vid=6e61c137-feee-4997-a796-11964e059225","ios":"levelo://app?vid=6e61c137-feee-4997-a796-11964e059225"},"vehicle_type_id":"4","last_reported":1729775900,"current_range_meters":27600,"station_id":"ce4bgkh2rcd13ifvqbl0","pricing_plan_id":"cebpf4jnsgd1na2vs0mg"},{"bike_id":"3cc67649-4dba-4045-a968-cbfed94079b5","system_id":"levelo_inurba_marseille","lat":43.29964,"lon":5.38495,"is_reserved":false,"is_disabled":false,"rental_uris":{"android":"levelo://app?vid=3cc67649-4dba-4045-a968-cbfed94079b5","ios":"levelo://app?vid=3cc67649-4dba-4045-a968-cbfed94079b5"},"vehicle_type_id":"4","last_reported":1729775900,"current_range_meters":38000,"station_id":"ce4bgj92rcd13ifvqbd0","pricing_plan_id":"cebpf4jnsgd1na2vs0mg"},{"bike_id":"eb098abf-7816-4ec9-ba59-3967db2af13f","system_id":"levelo_inurba_marseille","lat":43.27176,"lon":5.40992,"is_reserved":false,"is_disabled":false,"rental_uris":{"android":"levelo://app?vid=eb098abf-7816-4ec9-ba59-3967db2af13f","ios":"levelo://app?vid=eb098abf-7816-4ec9-ba59-3967db2af13f"},"vehicle_type_id":"4","last_reported":1729775900,"current_range_meters":27200,"station_id":"ce4bhl12rcd13ifvqgf0","pricing_plan_id":"cebpf4jnsgd1na2vs0mg"},{"bike_id":"103ed008-6f4b-4142-8ae0-e6b210d9a427","system_id":"levelo_inurba_marseille","lat":43.22928,"lon":5.35374,"is_reserved":false,"is_disabled":false,"rental_uris":{"android":"levelo://app?vid=103ed008-6f4b-4142-8ae0-e6b210d9a427","ios":"levelo://app?vid=103ed008-6f4b-4142-8ae0-e6b210d9a427"},"vehicle_type_id":"4","last_reported":1729775900,"current_range_meters":10800,"station_id":"cpo3532slgdg3j2ikp40","pricing_plan_id":"cebpf4jnsgd1na2vs0mg"},{"bike_id":"0b902d65-9b8b-4ea7-b0d2-f706e6d88c4c","system_id":"levelo_inurba_marseille","lat":43.32476,"lon":5.36574,"is_reserved":false,"is_disabled":false,"rental_uris":{"android":"levelo://app?vid=0b902d65-9b8b-4ea7-b0d2-f706e6d88c4c","ios":"levelo://app?vid=0b902d65-9b8b-4ea7-b0d2-f706e6d88c4c"},"vehicle_type_id":"4","last_reported":1729775900,"current_range_meters":2000,"station_id":"ce4bhs12rcd13ifvqhvg","pricing_plan_id":"cebpf4jnsgd1na2vs0mg"},{"bike_id":"7e73b9fe-8d8a-405e-8b61-b15e157ea877","system_id":"levelo_inurba_marseille","lat":43.25867,"lon":5.39896,"is_reserved":false,"is_disabled":false,"rental_uris":{"android":"levelo://app?vid=7e73b9fe-8d8a-405e-8b61-b15e157ea877","ios":"levelo://app?vid=7e73b9fe-8d8a-405e-8b61-b15e157ea877"},"vehicle_type_id":"4","last_reported":1729775900,"current_range_meters":3200,"station_id":"ce4bhl92rcd13ifvqghg","pricing_plan_id":"cebpf4jnsgd1na2vs0mg"},{"bike_id":"e93d0849-6889-4c3b-b756-5d2c77aee686","system_id":"levelo_inurba_marseille","lat":43.2799,"lon":5.41654,"is_reserved":false,"is_disabled":false,"rental_uris":{"android":"levelo://app?vid=e93d0849-6889-4c3b-b756-5d2c77aee686","ios":"levelo://app?vid=e93d0849-6889-4c3b-b756-5d2c77aee686"},"vehicle_type_id":"4","last_reported":1729775900,"current_range_meters":38000,"station_id":"ce4bho12rcd13ifvqh1g","pricing_plan_id":"cebpf4jnsgd1na2vs0mg"},{"bike_id":"0c71b09d-f36f-42c9-9687-1f488a06f7fc","system_id":"levelo_inurba_marseille","lat":43.26208,"lon":5.37441,"is_reserved":false,"is_disabled":false,"rental_uris":{"android":"levelo://app?vid=0c71b09d-f36f-42c9-9687-1f488a06f7fc","ios":"levelo://app?vid=0c71b09d-f36f-42c9-9687-1f488a06f7fc"},"vehicle_type_id":"4","last_reported":1729775900,"current_range_meters":22800,"station_id":"ce4bhgp2rcd13ifvqfc0","pricing_plan_id":"cebpf4jnsgd1na2vs0mg"},{"bike_id":"8b03d398-8900-4cbd-8f0d-e268b1b9f483","system_id":"levelo_inurba_marseille","lat":43.25726,"lon":5.41107,"is_reserved":false,"is_disabled":false,"rental_uris":{"android":"levelo://app?vid=8b03d398-8900-4cbd-8f0d-e268b1b9f483","ios":"levelo://app?vid=8b03d398-8900-4cbd-8f0d-e268b1b9f483"},"vehicle_type_id":"4","last_reported":1729775900,"current_range_meters":37600,"station_id":"ce4bhkp2rcd13ifvqgd0","pricing_plan_id":"cebpf4jnsgd1na2vs0mg"},{"bike_id":"a79aa38e-c6dd-4b24-a5e2-c07b3bb614b5","system_id":"levelo_inurba_marseille","lat":43.31686,"lon":5.40457,"is_reserved":false,"is_disabled":false,"rental_uris":{"android":"levelo://app?vid=a79aa38e-c6dd-4b24-a5e2-c07b3bb614b5","ios":"levelo://app?vid=a79aa38e-c6dd-4b24-a5e2-c07b3bb614b5"},"vehicle_type_id":"4","last_reported":1729775900,"current_range_meters":5600,"station_id":"ce4bh012rcd13ifvqd00","pricing_plan_id":"cebpf4jnsgd1na2vs0mg"},{"bike_id":"dc9a765b-b0a7-4ba4-b3d9-747e3f62e985","system_id":"levelo_inurba_marseille","lat":43.30258,"lon":5.39675,"is_reserved":false,"is_disabled":false,"rental_uris":{"android":"levelo://app?vid=dc9a765b-b0a7-4ba4-b3d9-747e3f62e985","ios":"levelo://app?vid=dc9a765b-b0a7-4ba4-b3d9-747e3f62e985"},"vehicle_type_id":"4","last_reported":1729775900,"current_range_meters":10000,"station_id":"","pricing_plan_id":"cebpf4jnsgd1na2vs0mg"},{"bike_id":"4f3fba6e-f09a-4699-b865-3917317555cd","system_id":"levelo_inurba_marseille","lat":43.26203,"lon":5.37933,"is_reserved":false,"is_disabled":false,"rental_uris":{"android":"levelo://app?vid=4f3fba6e-f09a-4699-b865-3917317555cd","ios":"levelo://app?vid=4f3fba6e-f09a-4699-b865-3917317555cd"},"vehicle_type_id":"4","last_reported":1729775900,"current_range_meters":38000,"station_id":"ce4bhjp2rcd13ifvqg90","pricing_plan_id":"cebpf4jnsgd1na2vs0mg"},{"bike_id":"0bc90dc2-cf8c-457e-a6aa-9b91de95f992","system_id":"levelo_inurba_marseille","lat":43.22788,"lon":5.4156,"is_reserved":false,"is_disabled":false,"rental_uris":{"android":"levelo://app?vid=0bc90dc2-cf8c-457e-a6aa-9b91de95f992","ios":"levelo://app?vid=0bc90dc2-cf8c-457e-a6aa-9b91de95f992"},"vehicle_type_id":"4","last_reported":1729775900,"current_range_meters":32800,"station_id":"","pricing_plan_id":"cebpf4jnsgd1na2vs0mg"},{"bike_id":"e5180d85-1676-42ee-877e-be6dd78d14c4","system_id":"levelo_inurba_marseille","lat":43.31235,"lon":5.36857,"is_reserved":false,"is_disabled":false,"rental_uris":{"android":"levelo://app?vid=e5180d85-1676-42ee-877e-be6dd78d14c4","ios":"levelo://app?vid=e5180d85-1676-42ee-877e-be6dd78d14c4"},"vehicle_type_id":"4","last_reported":1729775900,"current_range_meters":8800,"station_id":"ce4bgl92rcd13ifvqbq0","pricing_plan_id":"cebpf4jnsgd1na2vs0mg"},{"bike_id":"92428bfe-b964-47e2-8d2f-a0617955464e","system_id":"levelo_inurba_marseille","lat":43.31497,"lon":5.37309,"is_reserved":false,"is_disabled":false,"rental_uris":{"android":"levelo://app?vid=92428bfe-b964-47e2-8d2f-a0617955464e","ios":"levelo://app?vid=92428bfe-b964-47e2-8d2f-a0617955464e"},"vehicle_type_id":"4","last_reported":1729775900,"current_range_meters":27600,"station_id":"ce4bgt12rcd13ifvqcd0","pricing_plan_id":"cebpf4jnsgd1na2vs0mg"},{"bike_id":"bb2a666e-d4fd-434c-9930-bd52d9e92c1d","system_id":"levelo_inurba_marseille","lat":43.2594,"lon":5.40904,"is_reserved":false,"is_disabled":false,"rental_uris":{"android":"levelo://app?vid=bb2a666e-d4fd-434c-9930-bd52d9e92c1d","ios":"levelo://app?vid=bb2a666e-d4fd-434c-9930-bd52d9e92c1d"},"vehicle_type_id":"4","last_reported":1729775900,"current_range_meters":36800,"station_id":"ce4bhm92rcd13ifvqglg","pricing_plan_id":"cebpf4jnsgd1na2vs0mg"},{"bike_id":"6c25b8c8-6fca-4958-8da6-f8a4c7e4ec36","system_id":"levelo_inurba_marseille","lat":43.29579,"lon":5.37516,"is_reserved":false,"is_disabled":false,"rental_uris":{"android":"levelo://app?vid=6c25b8c8-6fca-4958-8da6-f8a4c7e4ec36","ios":"levelo://app?vid=6c25b8c8-6fca-4958-8da6-f8a4c7e4ec36"},"vehicle_type_id":"4","last_reported":1729775900,"current_range_meters":38800,"station_id":"ce4bgh92rcd13ifvqb50","pricing_plan_id":"cebpf4jnsgd1na2vs0mg"},{"bike_id":"9050aa27-210e-4a00-99a6-53ce385deffc","system_id":"levelo_inurba_marseille","lat":43.29624,"lon":5.37151,"is_reserved":false,"is_disabled":false,"rental_uris":{"android":"levelo://app?vid=9050aa27-210e-4a00-99a6-53ce385deffc","ios":"levelo://app?vid=9050aa27-210e-4a00-99a6-53ce385deffc"},"vehicle_type_id":"4","last_reported":1729775900,"current_range_meters":39200,"station_id":"ce4bgnh2rcd13ifvqc0g","pricing_plan_id":"cebpf4jnsgd1na2vs0mg"},{"bike_id":"0e8a1013-9b15-4c2a-a32b-394e95a5a198","system_id":"levelo_inurba_marseille","lat":43.26811,"lon":5.40268,"is_reserved":false,"is_disabled":false,"rental_uris":{"android":"levelo://app?vid=0e8a1013-9b15-4c2a-a32b-394e95a5a198","ios":"levelo://app?vid=0e8a1013-9b15-4c2a-a32b-394e95a5a198"},"vehicle_type_id":"4","last_reported":1729775900,"current_range_meters":4800,"station_id":"ce501612rcd8frsf0b60","pricing_plan_id":"cebpf4jnsgd1na2vs0mg"},{"bike_id":"3a5434f0-436d-4022-b83d-0f54fd6611f1","system_id":"levelo_inurba_marseille","lat":43.30542,"lon":5.36516,"is_reserved":false,"is_disabled":false,"rental_uris":{"android":"levelo://app?vid=3a5434f0-436d-4022-b83d-0f54fd6611f1","ios":"levelo://app?vid=3a5434f0-436d-4022-b83d-0f54fd6611f1"},"vehicle_type_id":"4","last_reported":1729775900,"current_range_meters":30400,"station_id":"ce4bgs12rcd13ifvqcag","pricing_plan_id":"cebpf4jnsgd1na2vs0mg"},{"bike_id":"56a2b9b3-d26a-4191-aaa0-705759c50012","system_id":"levelo_inurba_marseille","lat":43.32368,"lon":5.3888,"is_reserved":false,"is_disabled":false,"rental_uris":{"android":"levelo://app?vid=56a2b9b3-d26a-4191-aaa0-705759c50012","ios":"levelo://app?vid=56a2b9b3-d26a-4191-aaa0-705759c50012"},"vehicle_type_id":"4","last_reported":1729775900,"current_range_meters":34800,"station_id":"ce4bhqp2rcd13ifvqhog","pricing_plan_id":"cebpf4jnsgd1na2vs0mg"},{"bike_id":"9cc86360-5eab-45ae-a458-952e8a91e43e","system_id":"levelo_inurba_marseille","lat":43.22933,"lon":5.35379,"is_reserved":false,"is_disabled":false,"rental_uris":{"android":"levelo://app?vid=9cc86360-5eab-45ae-a458-952e8a91e43e","ios":"levelo://app?vid=9cc86360-5eab-45ae-a458-952e8a91e43e"},"vehicle_type_id":"4","last_reported":1729775900,"current_range_meters":16400,"station_id":"cpo3532slgdg3j2ikp40","pricing_plan_id":"cebpf4jnsgd1na2vs0mg"},{"bike_id":"f7a0de5f-0ab0-462c-9f8c-f233935f432b","system_id":"levelo_inurba_marseille","lat":43.23192,"lon":5.35551,"is_reserved":false,"is_disabled":false,"rental_uris":{"android":"levelo://app?vid=f7a0de5f-0ab0-462c-9f8c-f233935f432b","ios":"levelo://app?vid=f7a0de5f-0ab0-462c-9f8c-f233935f432b"},"vehicle_type_id":"4","last_reported":1729775900,"current_range_meters":34800,"station_id":"ce4bhu92rcd13ifvqi70","pricing_plan_id":"cebpf4jnsgd1na2vs0mg"},{"bike_id":"78ecf39d-b6fa-488a-9650-26219243c887","system_id":"levelo_inurba_marseille","lat":43.30128,"lon":5.39886,"is_reserved":false,"is_disabled":false,"rental_uris":{"android":"levelo://app?vid=78ecf39d-b6fa-488a-9650-26219243c887","ios":"levelo://app?vid=78ecf39d-b6fa-488a-9650-26219243c887"},"vehicle_type_id":"4","last_reported":1729775900,"current_range_meters":28000,"station_id":"ce4bh0h2rcd13ifvqd40","pricing_plan_id":"cebpf4jnsgd1na2vs0mg"},{"bike_id":"7b01ac9b-e92e-491d-ac31-4b5a9b8216e6","system_id":"levelo_inurba_marseille","lat":43.28373,"lon":5.38626,"is_reserved":false,"is_disabled":false,"rental_uris":{"android":"levelo://app?vid=7b01ac9b-e92e-491d-ac31-4b5a9b8216e6","ios":"levelo://app?vid=7b01ac9b-e92e-491d-ac31-4b5a9b8216e6"},"vehicle_type_id":"4","last_reported":1729775900,"current_range_meters":38800,"station_id":"ce4bh492rcd13ifvqdvg","pricing_plan_id":"cebpf4jnsgd1na2vs0mg"},{"bike_id":"5e6ac9f1-ad63-45d4-989d-6452a3cad704","system_id":"levelo_inurba_marseille","lat":43.2668,"lon":5.38263,"is_reserved":false,"is_disabled":false,"rental_uris":{"android":"levelo://app?vid=5e6ac9f1-ad63-45d4-989d-6452a3cad704","ios":"levelo://app?vid=5e6ac9f1-ad63-45d4-989d-6452a3cad704"},"vehicle_type_id":"4","last_reported":1729775900,"current_range_meters":13600,"station_id":"ce4bhg92rcd13ifvqf90","pricing_plan_id":"cebpf4jnsgd1na2vs0mg"},{"bike_id":"4f207004-e5ce-4e07-b9eb-2fb97efdbc05","system_id":"levelo_inurba_marseille","lat":43.2758,"lon":5.38411,"is_reserved":false,"is_disabled":false,"rental_uris":{"android":"levelo://app?vid=4f207004-e5ce-4e07-b9eb-2fb97efdbc05","ios":"levelo://app?vid=4f207004-e5ce-4e07-b9eb-2fb97efdbc05"},"vehicle_type_id":"4","last_reported":1729775900,"current_range_meters":18800,"station_id":"ce4bhh92rcd13ifvqfi0","pricing_plan_id":"cebpf4jnsgd1na2vs0mg"},{"bike_id":"5d31b3c2-4a5f-4845-935d-d77e0f811a28","system_id":"levelo_inurba_marseille","lat":43.30559,"lon":5.36523,"is_reserved":false,"is_disabled":false,"rental_uris":{"android":"levelo://app?vid=5d31b3c2-4a5f-4845-935d-d77e0f811a28","ios":"levelo://app?vid=5d31b3c2-4a5f-4845-935d-d77e0f811a28"},"vehicle_type_id":"4","last_reported":1729775900,"current_range_meters":16800,"station_id":"ce4bgs12rcd13ifvqcag","pricing_plan_id":"cebpf4jnsgd1na2vs0mg"},{"bike_id":"111d2d8e-f90a-41f9-8803-d1893f60f2ae","system_id":"levelo_inurba_marseille","lat":43.32653,"lon":5.40996,"is_reserved":false,"is_disabled":false,"rental_uris":{"android":"levelo://app?vid=111d2d8e-f90a-41f9-8803-d1893f60f2ae","ios":"levelo://app?vid=111d2d8e-f90a-41f9-8803-d1893f60f2ae"},"vehicle_type_id":"4","last_reported":1729775900,"current_range_meters":33600,"station_id":"ce4bhpp2rcd13ifvqhgg","pricing_plan_id":"cebpf4jnsgd1na2vs0mg"},{"bike_id":"342992a7-7107-480e-bc6d-8f93e231a2c9","system_id":"levelo_inurba_marseille","lat":43.299866,"lon":5.400892,"is_reserved":false,"is_disabled":false,"rental_uris":{"android":"levelo://app?vid=342992a7-7107-480e-bc6d-8f93e231a2c9","ios":"levelo://app?vid=342992a7-7107-480e-bc6d-8f93e231a2c9"},"vehicle_type_id":"4","last_reported":1729775900,"current_range_meters":33600,"station_id":"ce4bgv92rcd13ifvqcq0","pricing_plan_id":"cebpf4jnsgd1na2vs0mg"},{"bike_id":"cfcebfa7-3f59-4d32-a8f1-45e59f6e2f26","system_id":"levelo_inurba_marseille","lat":43.22932,"lon":5.35378,"is_reserved":false,"is_disabled":false,"rental_uris":{"android":"levelo://app?vid=cfcebfa7-3f59-4d32-a8f1-45e59f6e2f26","ios":"levelo://app?vid=cfcebfa7-3f59-4d32-a8f1-45e59f6e2f26"},"vehicle_type_id":"4","last_reported":1729775900,"current_range_meters":30800,"station_id":"cpo3532slgdg3j2ikp40","pricing_plan_id":"cebpf4jnsgd1na2vs0mg"},{"bike_id":"b8ec400a-2808-43cc-95a6-dea8cd5a18ba","system_id":"levelo_inurba_marseille","lat":43.32117,"lon":5.36773,"is_reserved":false,"is_disabled":false,"rental_uris":{"android":"levelo://app?vid=b8ec400a-2808-43cc-95a6-dea8cd5a18ba","ios":"levelo://app?vid=b8ec400a-2808-43cc-95a6-dea8cd5a18ba"},"vehicle_type_id":"4","last_reported":1729775900,"current_range_meters":18000,"station_id":"ce4bhrh2rcd13ifvqhug","pricing_plan_id":"cebpf4jnsgd1na2vs0mg"},{"bike_id":"3e381e9b-65a4-436a-a571-b4ba1ee13663","system_id":"levelo_inurba_marseille","lat":43.32485,"lon":5.36556,"is_reserved":false,"is_disabled":false,"rental_uris":{"android":"levelo://app?vid=3e381e9b-65a4-436a-a571-b4ba1ee13663","ios":"levelo://app?vid=3e381e9b-65a4-436a-a571-b4ba1ee13663"},"vehicle_type_id":"4","last_reported":1729775900,"current_range_meters":16800,"station_id":"ce4bhs12rcd13ifvqhvg","pricing_plan_id":"cebpf4jnsgd1na2vs0mg"},{"bike_id":"2c334947-53b9-4d45-8417-d2edabcd0a1d","system_id":"levelo_inurba_marseille","lat":43.27493,"lon":5.42454,"is_reserved":false,"is_disabled":false,"rental_uris":{"android":"levelo://app?vid=2c334947-53b9-4d45-8417-d2edabcd0a1d","ios":"levelo://app?vid=2c334947-53b9-4d45-8417-d2edabcd0a1d"},"vehicle_type_id":"4","last_reported":1729775900,"current_range_meters":38800,"station_id":"ce4bhn92rcd13ifvqgrg","pricing_plan_id":"cebpf4jnsgd1na2vs0mg"},{"bike_id":"3a526fc6-5f14-429c-8829-287dc38ef285","system_id":"levelo_inurba_marseille","lat":43.22931,"lon":5.35374,"is_reserved":false,"is_disabled":false,"rental_uris":{"android":"levelo://app?vid=3a526fc6-5f14-429c-8829-287dc38ef285","ios":"levelo://app?vid=3a526fc6-5f14-429c-8829-287dc38ef285"},"vehicle_type_id":"4","last_reported":1729775900,"current_range_meters":31200,"station_id":"cpo3532slgdg3j2ikp40","pricing_plan_id":"cebpf4jnsgd1na2vs0mg"},{"bike_id":"589bc915-2d01-4b10-923a-94d1db32cc58","system_id":"levelo_inurba_marseille","lat":43.25088,"lon":5.3952,"is_reserved":false,"is_disabled":false,"rental_uris":{"android":"levelo://app?vid=589bc915-2d01-4b10-923a-94d1db32cc58","ios":"levelo://app?vid=589bc915-2d01-4b10-923a-94d1db32cc58"},"vehicle_type_id":"4","last_reported":1729775900,"current_range_meters":8400,"station_id":"ce4bhm12rcd13ifvqgkg","pricing_plan_id":"cebpf4jnsgd1na2vs0mg"},{"bike_id":"5c5fedb6-5a4f-4881-ad56-c5bac3af94b4","system_id":"levelo_inurba_marseille","lat":43.26946,"lon":5.40251,"is_reserved":false,"is_disabled":false,"rental_uris":{"android":"levelo://app?vid=5c5fedb6-5a4f-4881-ad56-c5bac3af94b4","ios":"levelo://app?vid=5c5fedb6-5a4f-4881-ad56-c5bac3af94b4"},"vehicle_type_id":"4","last_reported":1729775900,"current_range_meters":9600,"station_id":"cjm6bp8fraef2m0cb0m0","pricing_plan_id":"cebpf4jnsgd1na2vs0mg"},{"bike_id":"365a5e76-e012-4983-b8a9-1a07480bde83","system_id":"levelo_inurba_marseille","lat":43.23192,"lon":5.35547,"is_reserved":false,"is_disabled":false,"rental_uris":{"android":"levelo://app?vid=365a5e76-e012-4983-b8a9-1a07480bde83","ios":"levelo://app?vid=365a5e76-e012-4983-b8a9-1a07480bde83"},"vehicle_type_id":"4","last_reported":1729775900,"current_range_meters":38800,"station_id":"ce4bhu92rcd13ifvqi70","pricing_plan_id":"cebpf4jnsgd1na2vs0mg"},{"bike_id":"1ad7f701-094e-42e8-ae74-9698b435f7cc","system_id":"levelo_inurba_marseille","lat":43.29716,"lon":5.36604,"is_reserved":false,"is_disabled":false,"rental_uris":{"android":"levelo://app?vid=1ad7f701-094e-42e8-ae74-9698b435f7cc","ios":"levelo://app?vid=1ad7f701-094e-42e8-ae74-9698b435f7cc"},"vehicle_type_id":"4","last_reported":1729775900,"current_range_meters":34000,"station_id":"ce4bgn12rcd13ifvqbt0","pricing_plan_id":"cebpf4jnsgd1na2vs0mg"},{"bike_id":"876e1fab-e0bb-4b8f-be0a-ef18a590c7b8","system_id":"levelo_inurba_marseille","lat":43.337444,"lon":5.374475,"is_reserved":false,"is_disabled":false,"rental_uris":{"android":"levelo://app?vid=876e1fab-e0bb-4b8f-be0a-ef18a590c7b8","ios":"levelo://app?vid=876e1fab-e0bb-4b8f-be0a-ef18a590c7b8"},"vehicle_type_id":"4","last_reported":1729775900,"current_range_meters":38800,"station_id":"ce4bh092rcd13ifvqd20","pricing_plan_id":"cebpf4jnsgd1na2vs0mg"},{"bike_id":"c0a2c481-fabb-4e11-a000-2c2c1e1749fa","system_id":"levelo_inurba_marseille","lat":43.22929,"lon":5.35375,"is_reserved":false,"is_disabled":false,"rental_uris":{"android":"levelo://app?vid=c0a2c481-fabb-4e11-a000-2c2c1e1749fa","ios":"levelo://app?vid=c0a2c481-fabb-4e11-a000-2c2c1e1749fa"},"vehicle_type_id":"4","last_reported":1729775900,"current_range_meters":18000,"station_id":"cpo3532slgdg3j2ikp40","pricing_plan_id":"cebpf4jnsgd1na2vs0mg"},{"bike_id":"b951287b-79a5-43e9-98a7-93fc7cf3a819","system_id":"levelo_inurba_marseille","lat":43.2997,"lon":5.38492,"is_reserved":false,"is_disabled":false,"rental_uris":{"android":"levelo://app?vid=b951287b-79a5-43e9-98a7-93fc7cf3a819","ios":"levelo://app?vid=b951287b-79a5-43e9-98a7-93fc7cf3a819"},"vehicle_type_id":"4","last_reported":1729775900,"current_range_meters":29600,"station_id":"ce4bgj92rcd13ifvqbd0","pricing_plan_id":"cebpf4jnsgd1na2vs0mg"},{"bike_id":"d83f8c4d-e4bf-462e-986b-f815e798b27a","system_id":"levelo_inurba_marseille","lat":43.30551,"lon":5.36521,"is_reserved":false,"is_disabled":false,"rental_uris":{"android":"levelo://app?vid=d83f8c4d-e4bf-462e-986b-f815e798b27a","ios":"levelo://app?vid=d83f8c4d-e4bf-462e-986b-f815e798b27a"},"vehicle_type_id":"4","last_reported":1729775900,"current_range_meters":29600,"station_id":"ce4bgs12rcd13ifvqcag","pricing_plan_id":"cebpf4jnsgd1na2vs0mg"},{"bike_id":"3dc2eb7e-15a4-47fb-81be-d850bbd51ccf","system_id":"levelo_inurba_marseille","lat":43.33767,"lon":5.37425,"is_reserved":false,"is_disabled":false,"rental_uris":{"android":"levelo://app?vid=3dc2eb7e-15a4-47fb-81be-d850bbd51ccf","ios":"levelo://app?vid=3dc2eb7e-15a4-47fb-81be-d850bbd51ccf"},"vehicle_type_id":"4","last_reported":1729775900,"current_range_meters":35600,"station_id":"","pricing_plan_id":"cebpf4jnsgd1na2vs0mg"},{"bike_id":"bafae436-90b0-4672-b165-ea45f818fefa","system_id":"levelo_inurba_marseille","lat":43.29736,"lon":5.37696,"is_reserved":false,"is_disabled":false,"rental_uris":{"android":"levelo://app?vid=bafae436-90b0-4672-b165-ea45f818fefa","ios":"levelo://app?vid=bafae436-90b0-4672-b165-ea45f818fefa"},"vehicle_type_id":"4","last_reported":1729775900,"current_range_meters":37600,"station_id":"ce4bgkh2rcd13ifvqbl0","pricing_plan_id":"cebpf4jnsgd1na2vs0mg"},{"bike_id":"8f20c90d-ac36-40d0-bb2f-f170a888d7d0","system_id":"levelo_inurba_marseille","lat":43.29895,"lon":5.4365,"is_reserved":false,"is_disabled":false,"rental_uris":{"android":"levelo://app?vid=8f20c90d-ac36-40d0-bb2f-f170a888d7d0","ios":"levelo://app?vid=8f20c90d-ac36-40d0-bb2f-f170a888d7d0"},"vehicle_type_id":"4","last_reported":1729775900,"current_range_meters":38800,"station_id":"ce4bhpp2rcd13ifvqhfg","pricing_plan_id":"cebpf4jnsgd1na2vs0mg"},{"bike_id":"03e8e373-dc03-4cdb-8279-5a04c155655f","system_id":"levelo_inurba_marseille","lat":43.2417,"lon":5.36393,"is_reserved":false,"is_disabled":false,"rental_uris":{"android":"levelo://app?vid=03e8e373-dc03-4cdb-8279-5a04c155655f","ios":"levelo://app?vid=03e8e373-dc03-4cdb-8279-5a04c155655f"},"vehicle_type_id":"4","last_reported":1729775900,"current_range_meters":28400,"station_id":"cpo36qri1sfpv3e86is0","pricing_plan_id":"cebpf4jnsgd1na2vs0mg"},{"bike_id":"083e85e5-f525-4b67-b0a2-01866a170551","system_id":"levelo_inurba_marseille","lat":43.29094,"lon":5.38133,"is_reserved":false,"is_disabled":false,"rental_uris":{"android":"levelo://app?vid=083e85e5-f525-4b67-b0a2-01866a170551","ios":"levelo://app?vid=083e85e5-f525-4b67-b0a2-01866a170551"},"vehicle_type_id":"4","last_reported":1729775900,"current_range_meters":28800,"station_id":"ce4bh512rcd13ifvqe2g","pricing_plan_id":"cebpf4jnsgd1na2vs0mg"},{"bike_id":"6ae03549-5478-4731-b9e3-9ceeba8b2934","system_id":"levelo_inurba_marseille","lat":43.32365,"lon":5.38878,"is_reserved":false,"is_disabled":false,"rental_uris":{"android":"levelo://app?vid=6ae03549-5478-4731-b9e3-9ceeba8b2934","ios":"levelo://app?vid=6ae03549-5478-4731-b9e3-9ceeba8b2934"},"vehicle_type_id":"4","last_reported":1729775900,"current_range_meters":17600,"station_id":"ce4bhqp2rcd13ifvqhog","pricing_plan_id":"cebpf4jnsgd1na2vs0mg"},{"bike_id":"49e1ce75-cbc0-40d8-b38b-24a6cbca7aba","system_id":"levelo_inurba_marseille","lat":43.29934,"lon":5.36525,"is_reserved":false,"is_disabled":false,"rental_uris":{"android":"levelo://app?vid=49e1ce75-cbc0-40d8-b38b-24a6cbca7aba","ios":"levelo://app?vid=49e1ce75-cbc0-40d8-b38b-24a6cbca7aba"},"vehicle_type_id":"4","last_reported":1729775900,"current_range_meters":25200,"station_id":"ce4bgm92rcd13ifvqbr0","pricing_plan_id":"cebpf4jnsgd1na2vs0mg"},{"bike_id":"a0b3968f-e125-4ee8-97d3-b5a37c262c3e","system_id":"levelo_inurba_marseille","lat":43.297046,"lon":5.376946,"is_reserved":false,"is_disabled":false,"rental_uris":{"android":"levelo://app?vid=a0b3968f-e125-4ee8-97d3-b5a37c262c3e","ios":"levelo://app?vid=a0b3968f-e125-4ee8-97d3-b5a37c262c3e"},"vehicle_type_id":"4","last_reported":1729775900,"current_range_meters":4000,"station_id":"ce4bgkh2rcd13ifvqbl0","pricing_plan_id":"cebpf4jnsgd1na2vs0mg"},{"bike_id":"09cbc056-7ac4-4b3b-8b0f-811e84ea4022","system_id":"levelo_inurba_marseille","lat":43.30689,"lon":5.37021,"is_reserved":false,"is_disabled":false,"rental_uris":{"android":"levelo://app?vid=09cbc056-7ac4-4b3b-8b0f-811e84ea4022","ios":"levelo://app?vid=09cbc056-7ac4-4b3b-8b0f-811e84ea4022"},"vehicle_type_id":"4","last_reported":1729775900,"current_range_meters":38800,"station_id":"","pricing_plan_id":"cebpf4jnsgd1na2vs0mg"},{"bike_id":"1d180020-2774-494a-9712-55fe63b19d77","system_id":"levelo_inurba_marseille","lat":43.25937,"lon":5.40897,"is_reserved":false,"is_disabled":false,"rental_uris":{"android":"levelo://app?vid=1d180020-2774-494a-9712-55fe63b19d77","ios":"levelo://app?vid=1d180020-2774-494a-9712-55fe63b19d77"},"vehicle_type_id":"4","last_reported":1729775900,"current_range_meters":12000,"station_id":"ce4bhm92rcd13ifvqglg","pricing_plan_id":"cebpf4jnsgd1na2vs0mg"},{"bike_id":"f7049507-45c2-41d7-9262-0fb171be7c82","system_id":"levelo_inurba_marseille","lat":43.32477,"lon":5.36568,"is_reserved":false,"is_disabled":false,"rental_uris":{"android":"levelo://app?vid=f7049507-45c2-41d7-9262-0fb171be7c82","ios":"levelo://app?vid=f7049507-45c2-41d7-9262-0fb171be7c82"},"vehicle_type_id":"4","last_reported":1729775900,"current_range_meters":6800,"station_id":"ce4bhs12rcd13ifvqhvg","pricing_plan_id":"cebpf4jnsgd1na2vs0mg"},{"bike_id":"bef1f06b-12df-46cc-ab59-a6fed6408ed9","system_id":"levelo_inurba_marseille","lat":43.3255,"lon":5.41446,"is_reserved":false,"is_disabled":false,"rental_uris":{"android":"levelo://app?vid=bef1f06b-12df-46cc-ab59-a6fed6408ed9","ios":"levelo://app?vid=bef1f06b-12df-46cc-ab59-a6fed6408ed9"},"vehicle_type_id":"4","last_reported":1729775900,"current_range_meters":39200,"station_id":"ce4bhq12rcd13ifvqhhg","pricing_plan_id":"cebpf4jnsgd1na2vs0mg"},{"bike_id":"179c6cc6-aaf8-42ab-acaa-be93a9b07368","system_id":"levelo_inurba_marseille","lat":43.29036,"lon":5.37571,"is_reserved":false,"is_disabled":false,"rental_uris":{"android":"levelo://app?vid=179c6cc6-aaf8-42ab-acaa-be93a9b07368","ios":"levelo://app?vid=179c6cc6-aaf8-42ab-acaa-be93a9b07368"},"vehicle_type_id":"4","last_reported":1729775900,"current_range_meters":6000,"station_id":"ce4bh692rcd13ifvqe90","pricing_plan_id":"cebpf4jnsgd1na2vs0mg"},{"bike_id":"f380d3a4-3abc-4845-b60c-c424cba3f1ba","system_id":"levelo_inurba_marseille","lat":43.299807,"lon":5.371704,"is_reserved":false,"is_disabled":false,"rental_uris":{"android":"levelo://app?vid=f380d3a4-3abc-4845-b60c-c424cba3f1ba","ios":"levelo://app?vid=f380d3a4-3abc-4845-b60c-c424cba3f1ba"},"vehicle_type_id":"4","last_reported":1729775900,"current_range_meters":38400,"station_id":"ce4bgr92rcd13ifvqc7g","pricing_plan_id":"cebpf4jnsgd1na2vs0mg"},{"bike_id":"2dcc1e35-5ea4-4aeb-82c4-4f3e4e4e009d","system_id":"levelo_inurba_marseille","lat":43.31075,"lon":5.38361,"is_reserved":false,"is_disabled":false,"rental_uris":{"android":"levelo://app?vid=2dcc1e35-5ea4-4aeb-82c4-4f3e4e4e009d","ios":"levelo://app?vid=2dcc1e35-5ea4-4aeb-82c4-4f3e4e4e009d"},"vehicle_type_id":"4","last_reported":1729775900,"current_range_meters":38800,"station_id":"ce4bgv92rcd13ifvqcr0","pricing_plan_id":"cebpf4jnsgd1na2vs0mg"},{"bike_id":"75a18189-a72a-495d-be2a-f7a36392c1c3","system_id":"levelo_inurba_marseille","lat":43.26539,"lon":5.37308,"is_reserved":false,"is_disabled":false,"rental_uris":{"android":"levelo://app?vid=75a18189-a72a-495d-be2a-f7a36392c1c3","ios":"levelo://app?vid=75a18189-a72a-495d-be2a-f7a36392c1c3"},"vehicle_type_id":"4","last_reported":1729775900,"current_range_meters":12000,"station_id":"ce4bhg12rcd13ifvqf70","pricing_plan_id":"cebpf4jnsgd1na2vs0mg"},{"bike_id":"bf5f6e55-ff8e-4af5-987b-45289bfd2b9f","system_id":"levelo_inurba_marseille","lat":43.28351,"lon":5.38098,"is_reserved":false,"is_disabled":false,"rental_uris":{"android":"levelo://app?vid=bf5f6e55-ff8e-4af5-987b-45289bfd2b9f","ios":"levelo://app?vid=bf5f6e55-ff8e-4af5-987b-45289bfd2b9f"},"vehicle_type_id":"4","last_reported":1729775900,"current_range_meters":13600,"station_id":"ce4bh412rcd13ifvqdr0","pricing_plan_id":"cebpf4jnsgd1na2vs0mg"},{"bike_id":"2c4a684a-b69b-4a59-9f8f-3e61716fa58f","system_id":"levelo_inurba_marseille","lat":43.30547,"lon":5.36531,"is_reserved":false,"is_disabled":false,"rental_uris":{"android":"levelo://app?vid=2c4a684a-b69b-4a59-9f8f-3e61716fa58f","ios":"levelo://app?vid=2c4a684a-b69b-4a59-9f8f-3e61716fa58f"},"vehicle_type_id":"4","last_reported":1729775900,"current_range_meters":39200,"station_id":"ce4bgs12rcd13ifvqcag","pricing_plan_id":"cebpf4jnsgd1na2vs0mg"},{"bike_id":"94793ec5-0c57-43f9-95e3-1718656b8f3f","system_id":"levelo_inurba_marseille","lat":43.29587,"lon":5.3674,"is_reserved":false,"is_disabled":false,"rental_uris":{"android":"levelo://app?vid=94793ec5-0c57-43f9-95e3-1718656b8f3f","ios":"levelo://app?vid=94793ec5-0c57-43f9-95e3-1718656b8f3f"},"vehicle_type_id":"4","last_reported":1729775900,"current_range_meters":29600,"station_id":"ce4bgph2rcd13ifvqc2g","pricing_plan_id":"cebpf4jnsgd1na2vs0mg"},{"bike_id":"d911ca52-a80d-4e89-9e3f-0149b14c23de","system_id":"levelo_inurba_marseille","lat":43.28574,"lon":5.39493,"is_reserved":false,"is_disabled":false,"rental_uris":{"android":"levelo://app?vid=d911ca52-a80d-4e89-9e3f-0149b14c23de","ios":"levelo://app?vid=d911ca52-a80d-4e89-9e3f-0149b14c23de"},"vehicle_type_id":"4","last_reported":1729775900,"current_range_meters":26000,"station_id":"ce4bh292rcd13ifvqdg0","pricing_plan_id":"cebpf4jnsgd1na2vs0mg"},{"bike_id":"64b170f8-2500-48ef-96a3-25f7c0707542","system_id":"levelo_inurba_marseille","lat":43.337444,"lon":5.374475,"is_reserved":false,"is_disabled":false,"rental_uris":{"android":"levelo://app?vid=64b170f8-2500-48ef-96a3-25f7c0707542","ios":"levelo://app?vid=64b170f8-2500-48ef-96a3-25f7c0707542"},"vehicle_type_id":"4","last_reported":1729775900,"current_range_meters":6800,"station_id":"","pricing_plan_id":"cebpf4jnsgd1na2vs0mg"},{"bike_id":"dbc0088b-c79e-481c-8c85-d6399b4b31ac","system_id":"levelo_inurba_marseille","lat":43.30642,"lon":5.4007,"is_reserved":false,"is_disabled":false,"rental_uris":{"android":"levelo://app?vid=dbc0088b-c79e-481c-8c85-d6399b4b31ac","ios":"levelo://app?vid=dbc0088b-c79e-481c-8c85-d6399b4b31ac"},"vehicle_type_id":"4","last_reported":1729775900,"current_range_meters":36400,"station_id":"ce4bh112rcd13ifvqda0","pricing_plan_id":"cebpf4jnsgd1na2vs0mg"},{"bike_id":"4f409860-e0f7-4877-99ee-a24fed7f0e97","system_id":"levelo_inurba_marseille","lat":43.2781,"lon":5.40718,"is_reserved":false,"is_disabled":false,"rental_uris":{"android":"levelo://app?vid=4f409860-e0f7-4877-99ee-a24fed7f0e97","ios":"levelo://app?vid=4f409860-e0f7-4877-99ee-a24fed7f0e97"},"vehicle_type_id":"4","last_reported":1729775900,"current_range_meters":36800,"station_id":"ce4bhnh2rcd13ifvqgtg","pricing_plan_id":"cebpf4jnsgd1na2vs0mg"},{"bike_id":"2fcdd798-e778-4442-9a04-c4ae9c6da565","system_id":"levelo_inurba_marseille","lat":43.29261,"lon":5.40921,"is_reserved":false,"is_disabled":false,"rental_uris":{"android":"levelo://app?vid=2fcdd798-e778-4442-9a04-c4ae9c6da565","ios":"levelo://app?vid=2fcdd798-e778-4442-9a04-c4ae9c6da565"},"vehicle_type_id":"4","last_reported":1729775900,"current_range_meters":19600,"station_id":"ce4bh192rcd13ifvqdc0","pricing_plan_id":"cebpf4jnsgd1na2vs0mg"},{"bike_id":"cadf4426-0f49-47cd-b2de-e7ad40afc3e9","system_id":"levelo_inurba_marseille","lat":43.29277,"lon":5.368,"is_reserved":false,"is_disabled":false,"rental_uris":{"android":"levelo://app?vid=cadf4426-0f49-47cd-b2de-e7ad40afc3e9","ios":"levelo://app?vid=cadf4426-0f49-47cd-b2de-e7ad40afc3e9"},"vehicle_type_id":"4","last_reported":1729775900,"current_range_meters":30400,"station_id":"ce4bhbp2rcd13ifvqesg","pricing_plan_id":"cebpf4jnsgd1na2vs0mg"},{"bike_id":"d8b58bf5-4f14-4f2a-9c9d-8813ef66d50d","system_id":"levelo_inurba_marseille","lat":43.25002,"lon":5.3892,"is_reserved":false,"is_disabled":false,"rental_uris":{"android":"levelo://app?vid=d8b58bf5-4f14-4f2a-9c9d-8813ef66d50d","ios":"levelo://app?vid=d8b58bf5-4f14-4f2a-9c9d-8813ef66d50d"},"vehicle_type_id":"4","last_reported":1729775900,"current_range_meters":38800,"station_id":"ce4bhgp2rcd13ifvqfd0","pricing_plan_id":"cebpf4jnsgd1na2vs0mg"},{"bike_id":"5c61fa31-2f6b-4794-9d44-e315b4a0f902","system_id":"levelo_inurba_marseille","lat":43.28459,"lon":5.35884,"is_reserved":false,"is_disabled":false,"rental_uris":{"android":"levelo://app?vid=5c61fa31-2f6b-4794-9d44-e315b4a0f902","ios":"levelo://app?vid=5c61fa31-2f6b-4794-9d44-e315b4a0f902"},"vehicle_type_id":"4","last_reported":1729775900,"current_range_meters":18800,"station_id":"ce4bhah2rcd13ifvqei0","pricing_plan_id":"cebpf4jnsgd1na2vs0mg"},{"bike_id":"20de94ea-21fd-43e9-8b0d-789a6c52c27a","system_id":"levelo_inurba_marseille","lat":43.32549,"lon":5.41449,"is_reserved":false,"is_disabled":false,"rental_uris":{"android":"levelo://app?vid=20de94ea-21fd-43e9-8b0d-789a6c52c27a","ios":"levelo://app?vid=20de94ea-21fd-43e9-8b0d-789a6c52c27a"},"vehicle_type_id":"4","last_reported":1729775900,"current_range_meters":8400,"station_id":"ce4bhq12rcd13ifvqhhg","pricing_plan_id":"cebpf4jnsgd1na2vs0mg"},{"bike_id":"819187f0-88cf-491c-8ca9-15061b90b94e","system_id":"levelo_inurba_marseille","lat":43.289948,"lon":5.356244,"is_reserved":false,"is_disabled":false,"rental_uris":{"android":"levelo://app?vid=819187f0-88cf-491c-8ca9-15061b90b94e","ios":"levelo://app?vid=819187f0-88cf-491c-8ca9-15061b90b94e"},"vehicle_type_id":"4","last_reported":1729775900,"current_range_meters":34800,"station_id":"ce4bhb92rcd13ifvqen0","pricing_plan_id":"cebpf4jnsgd1na2vs0mg"},{"bike_id":"728b199d-69de-4c69-80e5-78d920e9a129","system_id":"levelo_inurba_marseille","lat":43.286102,"lon":5.351022,"is_reserved":false,"is_disabled":false,"rental_uris":{"android":"levelo://app?vid=728b199d-69de-4c69-80e5-78d920e9a129","ios":"levelo://app?vid=728b199d-69de-4c69-80e5-78d920e9a129"},"vehicle_type_id":"4","last_reported":1729775900,"current_range_meters":26800,"station_id":"ce4bhch2rcd13ifvqeug","pricing_plan_id":"cebpf4jnsgd1na2vs0mg"},{"bike_id":"b4e6ddf4-e94c-4cf2-9931-296d9ca0f55e","system_id":"levelo_inurba_marseille","lat":43.25943,"lon":5.40906,"is_reserved":false,"is_disabled":false,"rental_uris":{"android":"levelo://app?vid=b4e6ddf4-e94c-4cf2-9931-296d9ca0f55e","ios":"levelo://app?vid=b4e6ddf4-e94c-4cf2-9931-296d9ca0f55e"},"vehicle_type_id":"4","last_reported":1729775900,"current_range_meters":12400,"station_id":"ce4bhm92rcd13ifvqglg","pricing_plan_id":"cebpf4jnsgd1na2vs0mg"},{"bike_id":"7c8d4baa-c23c-4e68-acb6-a017e364ec0d","system_id":"levelo_inurba_marseille","lat":43.337444,"lon":5.374475,"is_reserved":false,"is_disabled":false,"rental_uris":{"android":"levelo://app?vid=7c8d4baa-c23c-4e68-acb6-a017e364ec0d","ios":"levelo://app?vid=7c8d4baa-c23c-4e68-acb6-a017e364ec0d"},"vehicle_type_id":"4","last_reported":1729775900,"current_range_meters":38400,"station_id":"ce4bh092rcd13ifvqd20","pricing_plan_id":"cebpf4jnsgd1na2vs0mg"},{"bike_id":"873de0bc-1d8c-4f5d-8e73-3da5cfb3eacf","system_id":"levelo_inurba_marseille","lat":43.31992,"lon":5.38143,"is_reserved":false,"is_disabled":false,"rental_uris":{"android":"levelo://app?vid=873de0bc-1d8c-4f5d-8e73-3da5cfb3eacf","ios":"levelo://app?vid=873de0bc-1d8c-4f5d-8e73-3da5cfb3eacf"},"vehicle_type_id":"4","last_reported":1729775900,"current_range_meters":8000,"station_id":"ce4bhr12rcd13ifvqhpg","pricing_plan_id":"cebpf4jnsgd1na2vs0mg"},