{"last_updated":1741939958,"ttl":60,"version":"2.2","data":{"bikes":[{"bike_id":"48e1902a-0baf-4692-86ca-834c5d290b26","system_id":"levelo_inurba_marseille","lat":43.26688,"lon":5.38276,"is_reserved":false,"is_disabled":false,"rental_uris":{"android":"levelo://app?vid=48e1902a-0baf-4692-86ca-834c5d290b26","ios":"levelo://app?vid=48e1902a-0baf-4692-86ca-834c5d290b26"},"vehicle_type_id":"4","last_reported":1741939958,"current_range_meters":2800,"station_id":"ce4bhg92rcd13ifvqf90","pricing_plan_id":"cebpf4jnsgd1na2vs0mg"},{"bike_id":"72686fe0-7bde-4b97-ad68-501d33ae8f5a","system_id":"levelo_inurba_marseille","lat":43.30605,"lon":5.39354,"is_reserved":false,"is_disabled":false,"rental_uris":{"android":"levelo://app?vid=72686fe0-7bde-4b97-ad68-501d33ae8f5a","ios":"levelo://app?vid=72686fe0-7bde-4b97-ad68-501d33ae8f5a"},"vehicle_type_id":"4","last_reported":1741939958,"current_range_meters":2800,"station_id":"ce4bh0p2rcd13ifvqd80","pricing_plan_id":"cebpf4jnsgd1na2vs0mg"},{"bike_id":"a46b39a3-c1f7-40ac-820d-0d100abcee68","system_id":"levelo_inurba_marseille","lat":43.31762,"lon":5.39025,"is_reserved":false,"is_disabled":false,"rental_uris":{"android":"levelo://app?vid=a46b39a3-c1f7-40ac-820d-0d100abcee68","ios":"levelo://app?vid=a46b39a3-c1f7-40ac-820d-0d100abcee68"},"vehicle_type_id":"4","last_reported":1741939958,"current_range_meters":2800,"station_id":"ce4bhqp2rcd13ifvqhng","pricing_plan_id":"cebpf4jnsgd1na2vs0mg"},{"bike_id":"cfcbfe05-b3db-4492-abd2-14d2ed017510","system_id":"levelo_inurba_marseille","lat":43.27072,"lon":5.42283,"is_reserved":false,"is_disabled":false,"rental_uris":{"android":"levelo://app?vid=cfcbfe05-b3db-4492-abd2-14d2ed017510","ios":"levelo://app?vid=cfcbfe05-b3db-4492-abd2-14d2ed017510"},"vehicle_type_id":"4","last_reported":1741939958,"current_range_meters":2800,"station_id":"ce4bhk92rcd13ifvqgb0","pricing_plan_id":"cebpf4jnsgd1na2vs0mg"},{"bike_id":"e3433a29-4d63-4030-abbc-447f8c6dd520","system_id":"levelo_inurba_marseille","lat":43.26629,"lon":5.39024,"is_reserved":false,"is_disabled":false,"rental_uris":{"android":"levelo://app?vid=e3433a29-4d63-4030-abbc-447f8c6dd520","ios":"levelo://app?vid=e3433a29-4d63-4030-abbc-447f8c6dd520"},"vehicle_type_id":"4","last_reported":1741939958,"current_range_meters":3200,"station_id":"","pricing_plan_id":"cebpf4jnsgd1na2vs0mg"},{"bike_id":"0e1454f0-c501-449b-b78c-ddfc8f4d9aab","system_id":"levelo_inurba_marseille","lat":43.33768,"lon":5.3749,"is_reserved":false,"is_disabled":false,"rental_uris":{"android":"levelo://app?vid=0e1454f0-c501-449b-b78c-ddfc8f4d9aab","ios":"levelo://app?vid=0e1454f0-c501-449b-b78c-ddfc8f4d9aab"},"vehicle_type_id":"4","last_reported":1741939958,"current_range_meters":3200,"station_id":"","pricing_plan_id":"cebpf4jnsgd1na2vs0mg"},{"bike_id":"88d4df4a-f3a5-4d5e-b24a-d6802c72f1bf","system_id":"levelo_inurba_marseille","lat":43.2695,"lon":5.38636,"is_reserved":false,"is_disabled":false,"rental_uris":{"android":"levelo://app?vid=88d4df4a-f3a5-4d5e-b24a-d6802c72f1bf","ios":"levelo://app?vid=88d4df4a-f3a5-4d5e-b24a-d6802c72f1bf"},"vehicle_type_id":"4","last_reported":1741939958,"current_range_meters":3200,"station_id":"ce4bhh92rcd13ifvqfh0","pricing_plan_id":"cebpf4jnsgd1na2vs0mg"},{"bike_id":"c657942b-b392-4617-aa45-301763793485","system_id":"levelo_inurba_marseille","lat":43.258,"lon":5.41031,"is_reserved":false,"is_disabled":false,"rental_uris":{"android":"levelo://app?vid=c657942b-b392-4617-aa45-301763793485","ios":"levelo://app?vid=c657942b-b392-4617-aa45-301763793485"},"vehicle_type_id":"4","last_reported":1741939958,"current_range_meters":3600,"station_id":"ce4bhkp2rcd13ifvqgd0","pricing_plan_id":"cebpf4jnsgd1na2vs0mg"},{"bike_id":"362d710b-ed2f-41b2-825a-4f9b62b2a69a","system_id":"levelo_inurba_marseille","lat":43.27812,"lon":5.40716,"is_reserved":false,"is_disabled":false,"rental_uris":{"android":"levelo://app?vid=362d710b-ed2f-41b2-825a-4f9b62b2a69a","ios":"levelo://app?vid=362d710b-ed2f-41b2-825a-4f9b62b2a69a"},"vehicle_type_id":"4","last_reported":1741939958,"current_range_meters":3600,"station_id":"ce4bhnh2rcd13ifvqgtg","pricing_plan_id":"cebpf4jnsgd1na2vs0mg"},{"bike_id":"7f97dab3-6641-4c6a-9b12-3940cae11793","system_id":"levelo_inurba_marseille","lat":43.24991,"lon":5.38933,"is_reserved":false,"is_disabled":false,"rental_uris":{"android":"levelo://app?vid=7f97dab3-6641-4c6a-9b12-3940cae11793","ios":"levelo://app?vid=7f97dab3-6641-4c6a-9b12-3940cae11793"},"vehicle_type_id":"4","last_reported":1741939958,"current_range_meters":4000,"station_id":"ce4bhgp2rcd13ifvqfd0","pricing_plan_id":"cebpf4jnsgd1na2vs0mg"},{"bike_id":"2fe54254-5b11-4939-bb74-6fb31c1295ea","system_id":"levelo_inurba_marseille","lat":43.22957,"lon":5.35376,"is_reserved":false,"is_disabled":false,"rental_uris":{"android":"levelo://app?vid=2fe54254-5b11-4939-bb74-6fb31c1295ea","ios":"levelo://app?vid=2fe54254-5b11-4939-bb74-6fb31c1295ea"},"vehicle_type_id":"4","last_reported":1741939958,"current_range_meters":4000,"station_id":"cpo3532slgdg3j2ikp40","pricing_plan_id":"cebpf4jnsgd1na2vs0mg"},{"bike_id":"8e4be1d5-323f-4dba-ae0d-d32e6ec88265","system_id":"levelo_inurba_marseille","lat":43.27497,"lon":5.4246,"is_reserved":false,"is_disabled":false,"rental_uris":{"android":"levelo://app?vid=8e4be1d5-323f-4dba-ae0d-d32e6ec88265","ios":"levelo://app?vid=8e4be1d5-323f-4dba-ae0d-d32e6ec88265"},"vehicle_type_id":"4","last_reported":1741939958,"current_range_meters":4000,"station_id":"ce4bhn92rcd13ifvqgrg","pricing_plan_id":"cebpf4jnsgd1na2vs0mg"},{"bike_id":"8ca720cf-8cc7-4201-a29c-e07b0ffda00a","system_id":"levelo_inurba_marseille","lat":43.232,"lon":5.39998,"is_reserved":false,"is_disabled":false,"rental_uris":{"android":"levelo://app?vid=8ca720cf-8cc7-4201-a29c-e07b0ffda00a","ios":"levelo://app?vid=8ca720cf-8cc7-4201-a29c-e07b0ffda00a"},"vehicle_type_id":"4","last_reported":1741939958,"current_range_meters":4000,"station_id":"ce4bhn12rcd13ifvqgqg","pricing_plan_id":"cebpf4jnsgd1na2vs0mg"},{"bike_id":"7aecbf4d-fb78-4da0-b6f1-4aa15c5c1266","system_id":"levelo_inurba_marseille","lat":43.24183,"lon":5.39727,"is_reserved":false,"is_disabled":false,"rental_uris":{"android":"levelo://app?vid=7aecbf4d-fb78-4da0-b6f1-4aa15c5c1266","ios":"levelo://app?vid=7aecbf4d-fb78-4da0-b6f1-4aa15c5c1266"},"vehicle_type_id":"4","last_reported":1741939958,"current_range_meters":4400,"station_id":"ce4bhn12rcd13ifvqgpg","pricing_plan_id":"cebpf4jnsgd1na2vs0mg"},{"bike_id":"d5ae4600-476e-4c8a-b248-76c73ec9f040","system_id":"levelo_inurba_marseille","lat":43.25014,"lon":5.38923,"is_reserved":false,"is_disabled":false,"rental_uris":{"android":"levelo://app?vid=d5ae4600-476e-4c8a-b248-76c73ec9f040","ios":"levelo://app?vid=d5ae4600-476e-4c8a-b248-76c73ec9f040"},"vehicle_type_id":"4","last_reported":1741939958,"current_range_meters":4400,"station_id":"ce4bhgp2rcd13ifvqfd0","pricing_plan_id":"cebpf4jnsgd1na2vs0mg"},{"bike_id":"7e2efce6-2abc-47be-8e98-d015769ebdaa","system_id":"levelo_inurba_marseille","lat":43.27431,"lon":5.41879,"is_reserved":false,"is_disabled":true,"rental_uris":{"android":"levelo://app?vid=7e2efce6-2abc-47be-8e98-d015769ebdaa","ios":"levelo://app?vid=7e2efce6-2abc-47be-8e98-d015769ebdaa"},"vehicle_type_id":"4","last_reported":1741939958,"current_range_meters":4400,"station_id":"","pricing_plan_id":"cebpf4jnsgd1na2vs0mg"},{"bike_id":"f5549963-bfea-4d20-86b1-45ff0c35fbdb","system_id":"levelo_inurba_marseille","lat":43.28467,"lon":5.35888,"is_reserved":false,"is_disabled":false,"rental_uris":{"android":"levelo://app?vid=f5549963-bfea-4d20-86b1-45ff0c35fbdb","ios":"levelo://app?vid=f5549963-bfea-4d20-86b1-45ff0c35fbdb"},"vehicle_type_id":"4","last_reported":1741939958,"current_range_meters":4400,"station_id":"ce4bhah2rcd13ifvqei0","pricing_plan_id":"cebpf4jnsgd1na2vs0mg"},{"bike_id":"4921cd21-bb02-4c73-b020-cef32f79e567","system_id":"levelo_inurba_marseille","lat":43.30954,"lon":5.39037,"is_reserved":false,"is_disabled":false,"rental_uris":{"android":"levelo://app?vid=4921cd21-bb02-4c73-b020-cef32f79e567","ios":"levelo://app?vid=4921cd21-bb02-4c73-b020-cef32f79e567"},"vehicle_type_id":"4","last_reported":1741939958,"current_range_meters":4400,"station_id":"ce4bgup2rcd13ifvqco0","pricing_plan_id":"cebpf4jnsgd1na2vs0mg"},{"bike_id":"3b63f7df-3c13-4495-87eb-56d542712e0c","system_id":"levelo_inurba_marseille","lat":43.26575,"lon":5.39023,"is_reserved":false,"is_disabled":false,"rental_uris":{"android":"levelo://app?vid=3b63f7df-3c13-4495-87eb-56d542712e0c","ios":"levelo://app?vid=3b63f7df-3c13-4495-87eb-56d542712e0c"},"vehicle_type_id":"4","last_reported":1741939958,"current_range_meters":4800,"station_id":"ce4bhe12rcd13ifvqf30","pricing_plan_id":"cebpf4jnsgd1na2vs0mg"},{"bike_id":"5d88e474-c8cb-4713-8024-ffd4f08ae893","system_id":"levelo_inurba_marseille","lat":43.29181,"lon":5.3606,"is_reserved":false,"is_disabled":false,"rental_uris":{"android":"levelo://app?vid=5d88e474-c8cb-4713-8024-ffd4f08ae893","ios":"levelo://app?vid=5d88e474-c8cb-4713-8024-ffd4f08ae893"},"vehicle_type_id":"4","last_reported":1741939958,"current_range_meters":4800,"station_id":"","pricing_plan_id":"cebpf4jnsgd1na2vs0mg"},{"bike_id":"6ab36640-1c77-4e21-87b9-28fd3f490061","system_id":"levelo_inurba_marseille","lat":43.31221,"lon":5.36856,"is_reserved":false,"is_disabled":false,"rental_uris":{"android":"levelo://app?vid=6ab36640-1c77-4e21-87b9-28fd3f490061","ios":"levelo://app?vid=6ab36640-1c77-4e21-87b9-28fd3f490061"},"vehicle_type_id":"4","last_reported":1741939958,"current_range_meters":4800,"station_id":"ce4bgl92rcd13ifvqbq0","pricing_plan_id":"cebpf4jnsgd1na2vs0mg"},{"bike_id":"d7cf3da4-03cf-4eae-b183-47670a6b872f","system_id":"levelo_inurba_marseille","lat":43.232,"lon":5.35552,"is_reserved":false,"is_disabled":false,"rental_uris":{"android":"levelo://app?vid=d7cf3da4-03cf-4eae-b183-47670a6b872f","ios":"levelo://app?vid=d7cf3da4-03cf-4eae-b183-47670a6b872f"},"vehicle_type_id":"4","last_reported":1741939958,"current_range_meters":5600,"station_id":"ce4bhu92rcd13ifvqi70","pricing_plan_id":"cebpf4jnsgd1na2vs0mg"},{"bike_id":"6236a2e1-b6a6-449f-89d9-a554037a40cf","system_id":"levelo_inurba_marseille","lat":43.303438,"lon":5.3783,"is_reserved":false,"is_disabled":false,"rental_uris":{"android":"levelo://app?vid=6236a2e1-b6a6-449f-89d9-a554037a40cf","ios":"levelo://app?vid=6236a2e1-b6a6-449f-89d9-a554037a40cf"},"vehicle_type_id":"4","last_reported":1741939958,"current_range_meters":5600,"station_id":"","pricing_plan_id":"cebpf4jnsgd1na2vs0mg"},{"bike_id":"bbe3b04a-4a72-4f38-8422-b6f8f79a7093","system_id":"levelo_inurba_marseille","lat":43.32557,"lon":5.41026,"is_reserved":false,"is_disabled":false,"rental_uris":{"android":"levelo://app?vid=bbe3b04a-4a72-4f38-8422-b6f8f79a7093","ios":"levelo://app?vid=bbe3b04a-4a72-4f38-8422-b6f8f79a7093"},"vehicle_type_id":"4","last_reported":1741939958,"current_range_meters":6000,"station_id":"","pricing_plan_id":"cebpf4jnsgd1na2vs0mg"},{"bike_id":"f55bafc7-af14-42c7-a588-b061f614454e","system_id":"levelo_inurba_marseille","lat":43.28157,"lon":5.42648,"is_reserved":false,"is_disabled":false,"rental_uris":{"android":"levelo://app?vid=f55bafc7-af14-42c7-a588-b061f614454e","ios":"levelo://app?vid=f55bafc7-af14-42c7-a588-b061f614454e"},"vehicle_type_id":"4","last_reported":1741939958,"current_range_meters":6000,"station_id":"ce4bhnh2rcd13ifvqgug","pricing_plan_id":"cebpf4jnsgd1na2vs0mg"},{"bike_id":"a4acc583-7b24-4665-929d-fada161a91f7","system_id":"levelo_inurba_marseille","lat":43.295,"lon":5.44448,"is_reserved":false,"is_disabled":false,"rental_uris":{"android":"levelo://app?vid=a4acc583-7b24-4665-929d-fada161a91f7","ios":"levelo://app?vid=a4acc583-7b24-4665-929d-fada161a91f7"},"vehicle_type_id":"4","last_reported":1741939958,"current_range_meters":6000,"station_id":"","pricing_plan_id":"cebpf4jnsgd1na2vs0mg"},{"bike_id":"db7198b7-4986-487c-848f-b6fa2eea4556","system_id":"levelo_inurba_marseille","lat":43.31996,"lon":5.38145,"is_reserved":false,"is_disabled":false,"rental_uris":{"android":"levelo://app?vid=db7198b7-4986-487c-848f-b6fa2eea4556","ios":"levelo://app?vid=db7198b7-4986-487c-848f-b6fa2eea4556"},"vehicle_type_id":"4","last_reported":1741939958,"current_range_meters":6000,"station_id":"ce4bhr12rcd13ifvqhpg","pricing_plan_id":"cebpf4jnsgd1na2vs0mg"},{"bike_id":"931a65f6-98be-4189-b167-a49aeaf4dc43","system_id":"levelo_inurba_marseille","lat":43.25017,"lon":5.38915,"is_reserved":false,"is_disabled":false,"rental_uris":{"android":"levelo://app?vid=931a65f6-98be-4189-b167-a49aeaf4dc43","ios":"levelo://app?vid=931a65f6-98be-4189-b167-a49aeaf4dc43"},"vehicle_type_id":"4","last_reported":1741939958,"current_range_meters":6000,"station_id":"ce4bhgp2rcd13ifvqfd0","pricing_plan_id":"cebpf4jnsgd1na2vs0mg"},{"bike_id":"3e052f78-610f-4c3b-8bb7-3204cf1ee4e4","system_id":"levelo_inurba_marseille","lat":43.3133,"lon":5.36716,"is_reserved":false,"is_disabled":false,"rental_uris":{"android":"levelo://app?vid=3e052f78-610f-4c3b-8bb7-3204cf1ee4e4","ios":"levelo://app?vid=3e052f78-610f-4c3b-8bb7-3204cf1ee4e4"},"vehicle_type_id":"4","last_reported":1741939958,"current_range_meters":6000,"station_id":"ce4bgr92rcd13ifvqc6g","pricing_plan_id":"cebpf4jnsgd1na2vs0mg"},{"bike_id":"6abe6a67-ac01-4ffe-a9fb-f7b5de19c74d","system_id":"levelo_inurba_marseille","lat":43.32534,"lon":5.41479,"is_reserved":false,"is_disabled":false,"rental_uris":{"android":"levelo://app?vid=6abe6a67-ac01-4ffe-a9fb-f7b5de19c74d","ios":"levelo://app?vid=6abe6a67-ac01-4ffe-a9fb-f7b5de19c74d"},"vehicle_type_id":"4","last_reported":1741939958,"current_range_meters":6400,"station_id":"ce4bhq12rcd13ifvqhhg","pricing_plan_id":"cebpf4jnsgd1na2vs0mg"},{"bike_id":"3fa0acdf-373a-43e5-9700-7a52c117afa2","system_id":"levelo_inurba_marseille","lat":43.25578,"lon":5.3824,"is_reserved":false,"is_disabled":false,"rental_uris":{"android":"levelo://app?vid=3fa0acdf-373a-43e5-9700-7a52c117afa2","ios":"levelo://app?vid=3fa0acdf-373a-43e5-9700-7a52c117afa2"},"vehicle_type_id":"4","last_reported":1741939958,"current_range_meters":6400,"station_id":"ce4bhih2rcd13ifvqfs0","pricing_plan_id":"cebpf4jnsgd1na2vs0mg"},{"bike_id":"d61eb76a-b74c-4071-bda2-19ab080b3601","system_id":"levelo_inurba_marseille","lat":43.27989,"lon":5.38735,"is_reserved":false,"is_disabled":false,"rental_uris":{"android":"levelo://app?vid=d61eb76a-b74c-4071-bda2-19ab080b3601","ios":"levelo://app?vid=d61eb76a-b74c-4071-bda2-19ab080b3601"},"vehicle_type_id":"4","last_reported":1741939958,"current_range_meters":6400,"station_id":"ce4bhg12rcd13ifvqf80","pricing_plan_id":"cebpf4jnsgd1na2vs0mg"},{"bike_id":"ba217c55-c3b6-4155-8257-f0b33becfeb3","system_id":"levelo_inurba_marseille","lat":43.28088,"lon":5.37844,"is_reserved":false,"is_disabled":false,"rental_uris":{"android":"levelo://app?vid=ba217c55-c3b6-4155-8257-f0b33becfeb3","ios":"levelo://app?vid=ba217c55-c3b6-4155-8257-f0b33becfeb3"},"vehicle_type_id":"4","last_reported":1741939958,"current_range_meters":6400,"station_id":"ce4bha12rcd13ifvqee0","pricing_plan_id":"cebpf4jnsgd1na2vs0mg"},{"bike_id":"8078b5c0-adff-4cbf-8295-2664d0c525bc","system_id":"levelo_inurba_marseille","lat":43.30155,"lon":5.38091,"is_reserved":false,"is_disabled":false,"rental_uris":{"android":"levelo://app?vid=8078b5c0-adff-4cbf-8295-2664d0c525bc","ios":"levelo://app?vid=8078b5c0-adff-4cbf-8295-2664d0c525bc"},"vehicle_type_id":"4","last_reported":1741939958,"current_range_meters":6400,"station_id":"ce4bgjp2rcd13ifvqbh0","pricing_plan_id":"cebpf4jnsgd1na2vs0mg"},{"bike_id":"26e07f4d-8d48-44a1-acfd-e818a83daf8d","system_id":"levelo_inurba_marseille","lat":43.26953,"lon":5.38632,"is_reserved":false,"is_disabled":false,"rental_uris":{"android":"levelo://app?vid=26e07f4d-8d48-44a1-acfd-e818a83daf8d","ios":"levelo://app?vid=26e07f4d-8d48-44a1-acfd-e818a83daf8d"},"vehicle_type_id":"4","last_reported":1741939958,"current_range_meters":6400,"station_id":"ce4bhh92rcd13ifvqfh0","pricing_plan_id":"cebpf4jnsgd1na2vs0mg"},{"bike_id":"ef0676ee-ec00-49d2-889d-44742eb36379","system_id":"levelo_inurba_marseille","lat":43.27428,"lon":5.39415,"is_reserved":false,"is_disabled":false,"rental_uris":{"android":"levelo://app?vid=ef0676ee-ec00-49d2-889d-44742eb36379","ios":"levelo://app?vid=ef0676ee-ec00-49d2-889d-44742eb36379"},"vehicle_type_id":"4","last_reported":1741939958,"current_range_meters":6400,"station_id":"ce4bhdp2rcd13ifvqf20","pricing_plan_id":"cebpf4jnsgd1na2vs0mg"},{"bike_id":"a8b66f40-db3d-4f78-a225-a21a93c72fff","system_id":"levelo_inurba_marseille","lat":43.30951,"lon":5.39025,"is_reserved":false,"is_disabled":false,"rental_uris":{"android":"levelo://app?vid=a8b66f40-db3d-4f78-a225-a21a93c72fff","ios":"levelo://app?vid=a8b66f40-db3d-4f78-a225-a21a93c72fff"},"vehicle_type_id":"4","last_reported":1741939958,"current_range_meters":6400,"station_id":"ce4bgup2rcd13ifvqco0","pricing_plan_id":"cebpf4jnsgd1na2vs0mg"},{"bike_id":"89127bd3-34dd-4963-8870-41e81663fc3c","system_id":"levelo_inurba_marseille","lat":43.26952,"lon":5.38637,"is_reserved":false,"is_disabled":false,"rental_uris":{"android":"levelo://app?vid=89127bd3-34dd-4963-8870-41e81663fc3c","ios":"levelo://app?vid=89127bd3-34dd-4963-8870-41e81663fc3c"},"vehicle_type_id":"4","last_reported":1741939958,"current_range_meters":6400,"station_id":"ce4bhh92rcd13ifvqfh0","pricing_plan_id":"cebpf4jnsgd1na2vs0mg"},{"bike_id":"7106f76c-9450-433f-b6ee-8e5c587e83df","system_id":"levelo_inurba_marseille","lat":43.30949,"lon":5.39029,"is_reserved":false,"is_disabled":false,"rental_uris":{"android":"levelo://app?vid=7106f76c-9450-433f-b6ee-8e5c587e83df","ios":"levelo://app?vid=7106f76c-9450-433f-b6ee-8e5c587e83df"},"vehicle_type_id":"4","last_reported":1741939958,"current_range_meters":6400,"station_id":"ce4bgup2rcd13ifvqco0","pricing_plan_id":"cebpf4jnsgd1na2vs0mg"},{"bike_id":"35a9e4f1-17ac-47cf-84ad-97a570c36f72","system_id":"levelo_inurba_marseille","lat":43.3148,"lon":5.37299,"is_reserved":false,"is_disabled":false,"rental_uris":{"android":"levelo://app?vid=35a9e4f1-17ac-47cf-84ad-97a570c36f72","ios":"levelo://app?vid=35a9e4f1-17ac-47cf-84ad-97a570c36f72"},"vehicle_type_id":"4","last_reported":1741939958,"current_range_meters":6800,"station_id":"ce4bgt12rcd13ifvqcd0","pricing_plan_id":"cebpf4jnsgd1na2vs0mg"},{"bike_id":"55892c13-2d68-4412-a807-3986b02b98db","system_id":"levelo_inurba_marseille","lat":43.30547,"lon":5.38439,"is_reserved":false,"is_disabled":false,"rental_uris":{"android":"levelo://app?vid=55892c13-2d68-4412-a807-3986b02b98db","ios":"levelo://app?vid=55892c13-2d68-4412-a807-3986b02b98db"},"vehicle_type_id":"4","last_reported":1741939958,"current_range_meters":6800,"station_id":"ce4bgg92rcd13ifvqb30","pricing_plan_id":"cebpf4jnsgd1na2vs0mg"},{"bike_id":"67414d52-13ce-4025-b386-e9b3544f5ad5","system_id":"levelo_inurba_marseille","lat":43.26693,"lon":5.38274,"is_reserved":false,"is_disabled":false,"rental_uris":{"android":"levelo://app?vid=67414d52-13ce-4025-b386-e9b3544f5ad5","ios":"levelo://app?vid=67414d52-13ce-4025-b386-e9b3544f5ad5"},"vehicle_type_id":"4","last_reported":1741939958,"current_range_meters":6800,"station_id":"ce4bhg92rcd13ifvqf90","pricing_plan_id":"cebpf4jnsgd1na2vs0mg"},{"bike_id":"cd62f0b0-e712-4ed8-b222-8e7cb2c87e1b","system_id":"levelo_inurba_marseille","lat":43.23593,"lon":5.40305,"is_reserved":false,"is_disabled":false,"rental_uris":{"android":"levelo://app?vid=cd62f0b0-e712-4ed8-b222-8e7cb2c87e1b","ios":"levelo://app?vid=cd62f0b0-e712-4ed8-b222-8e7cb2c87e1b"},"vehicle_type_id":"4","last_reported":1741939958,"current_range_meters":6800,"station_id":"","pricing_plan_id":"cebpf4jnsgd1na2vs0mg"},{"bike_id":"7f98ccb6-4bbb-4e57-9655-89c934541670","system_id":"levelo_inurba_marseille","lat":43.3043,"lon":5.39752,"is_reserved":false,"is_disabled":false,"rental_uris":{"android":"levelo://app?vid=7f98ccb6-4bbb-4e57-9655-89c934541670","ios":"levelo://app?vid=7f98ccb6-4bbb-4e57-9655-89c934541670"},"vehicle_type_id":"4","last_reported":1741939958,"current_range_meters":6800,"station_id":"ce4bh092rcd13ifvqd20","pricing_plan_id":"cebpf4jnsgd1na2vs0mg"},{"bike_id":"67ea6c0a-5f2c-4315-84ac-8373b7b697c2","system_id":"levelo_inurba_marseille","lat":43.28374,"lon":5.38105,"is_reserved":false,"is_disabled":false,"rental_uris":{"android":"levelo://app?vid=67ea6c0a-5f2c-4315-84ac-8373b7b697c2","ios":"levelo://app?vid=67ea6c0a-5f2c-4315-84ac-8373b7b697c2"},"vehicle_type_id":"4","last_reported":1741939958,"current_range_meters":6800,"station_id":"ce4bh412rcd13ifvqdr0","pricing_plan_id":"cebpf4jnsgd1na2vs0mg"},{"bike_id":"cfd026fb-9d90-4ef1-a02d-1d21c9d24ee9","system_id":"levelo_inurba_marseille","lat":43.30145,"lon":5.38127,"is_reserved":false,"is_disabled":false,"rental_uris":{"android":"levelo://app?vid=cfd026fb-9d90-4ef1-a02d-1d21c9d24ee9","ios":"levelo://app?vid=cfd026fb-9d90-4ef1-a02d-1d21c9d24ee9"},"vehicle_type_id":"4","last_reported":1741939958,"current_range_meters":6800,"station_id":"ce4bgjp2rcd13ifvqbh0","pricing_plan_id":"cebpf4jnsgd1na2vs0mg"},{"bike_id":"3ca5c889-01d2-4a5a-b5e7-01815d766f63","system_id":"levelo_inurba_marseille","lat":43.29575,"lon":5.39959,"is_reserved":false,"is_disabled":false,"rental_uris":{"android":"levelo://app?vid=3ca5c889-01d2-4a5a-b5e7-01815d766f63","ios":"levelo://app?vid=3ca5c889-01d2-4a5a-b5e7-01815d766f63"},"vehicle_type_id":"4","last_reported":1741939958,"current_range_meters":6800,"station_id":"ce4bh312rcd13ifvqdj0","pricing_plan_id":"cebpf4jnsgd1na2vs0mg"},{"bike_id":"fe2dbfad-2b3c-45be-b26a-7ab6c0dcbc97","system_id":"levelo_inurba_marseille","lat":43.30134,"lon":5.37686,"is_reserved":false,"is_disabled":false,"rental_uris":{"android":"levelo://app?vid=fe2dbfad-2b3c-45be-b26a-7ab6c0dcbc97","ios":"levelo://app?vid=fe2dbfad-2b3c-45be-b26a-7ab6c0dcbc97"},"vehicle_type_id":"4","last_reported":1741939958,"current_range_meters":6800,"station_id":"","pricing_plan_id":"cebpf4jnsgd1na2vs0mg"},{"bike_id":"29c167e7-f543-4956-bde0-273e9178e2cf","system_id":"levelo_inurba_marseille","lat":43.32363,"lon":5.36771,"is_reserved":false,"is_disabled":true,"rental_uris":{"android":"levelo://app?vid=29c167e7-f543-4956-bde0-273e9178e2cf","ios":"levelo://app?vid=29c167e7-f543-4956-bde0-273e9178e2cf"},"vehicle_type_id":"4","last_reported":1741939958,"current_range_meters":6800,"station_id":"ce4bhsh2rcd13ifvqi2g","pricing_plan_id":"cebpf4jnsgd1na2vs0mg"},{"bike_id":"3d14a88b-feb8-43c0-aea7-9de0a24fefab","system_id":"levelo_inurba_marseille","lat":43.29041,"lon":5.39961,"is_reserved":false,"is_disabled":false,"rental_uris":{"android":"levelo://app?vid=3d14a88b-feb8-43c0-aea7-9de0a24fefab","ios":"levelo://app?vid=3d14a88b-feb8-43c0-aea7-9de0a24fefab"},"vehicle_type_id":"4","last_reported":1741939958,"current_range_meters":7200,"station_id":"ce4bh392rcd13ifvqdm0","pricing_plan_id":"cebpf4jnsgd1na2vs0mg"},{"bike_id":"155c7165-40f9-4638-84a1-91e91cddb9e0","system_id":"levelo_inurba_marseille","lat":43.30798,"lon":5.37375,"is_reserved":false,"is_disabled":false,"rental_uris":{"android":"levelo://app?vid=155c7165-40f9-4638-84a1-91e91cddb9e0","ios":"levelo://app?vid=155c7165-40f9-4638-84a1-91e91cddb9e0"},"vehicle_type_id":"4","last_reported":1741939958,"current_range_meters":7200,"station_id":"","pricing_plan_id":"cebpf4jnsgd1na2vs0mg"},{"bike_id":"27a9a62b-6368-4179-8f2c-f6dd6040539e","system_id":"levelo_inurba_marseille","lat":43.26211,"lon":5.3744,"is_reserved":false,"is_disabled":false,"rental_uris":{"android":"levelo://app?vid=27a9a62b-6368-4179-8f2c-f6dd6040539e","ios":"levelo://app?vid=27a9a62b-6368-4179-8f2c-f6dd6040539e"},"vehicle_type_id":"4","last_reported":1741939958,"current_range_meters":7200,"station_id":"ce4bhgp2rcd13ifvqfc0","pricing_plan_id":"cebpf4jnsgd1na2vs0mg"},{"bike_id":"1ab4d6f2-e4da-4707-985c-a25d51be281d","system_id":"levelo_inurba_marseille","lat":43.24095,"lon":5.37746,"is_reserved":false,"is_disabled":false,"rental_uris":{"android":"levelo://app?vid=1ab4d6f2-e4da-4707-985c-a25d51be281d","ios":"levelo://app?vid=1ab4d6f2-e4da-4707-985c-a25d51be281d"},"vehicle_type_id":"4","last_reported":1741939958,"current_range_meters":7200,"station_id":"ce4bhnp2rcd13ifvqgvg","pricing_plan_id":"cebpf4jnsgd1na2vs0mg"},{"bike_id":"06fea768-af17-4c84-b29c-92effa7c5e88","system_id":"levelo_inurba_marseille","lat":43.31351,"lon":5.36712,"is_reserved":false,"is_disabled":false,"rental_uris":{"android":"levelo://app?vid=06fea768-af17-4c84-b29c-92effa7c5e88","ios":"levelo://app?vid=06fea768-af17-4c84-b29c-92effa7c5e88"},"vehicle_type_id":"4","last_reported":1741939958,"current_range_meters":7200,"station_id":"ce4bgr92rcd13ifvqc6g","pricing_plan_id":"cebpf4jnsgd1na2vs0mg"},{"bike_id":"b363f8b8-2518-47c4-9880-4e754d1b57c8","system_id":"levelo_inurba_marseille","lat":43.30909,"lon":5.40193,"is_reserved":false,"is_disabled":false,"rental_uris":{"android":"levelo://app?vid=b363f8b8-2518-47c4-9880-4e754d1b57c8","ios":"levelo://app?vid=b363f8b8-2518-47c4-9880-4e754d1b57c8"},"vehicle_type_id":"4","last_reported":1741939958,"current_range_meters":7200,"station_id":"ce4bgvp2rcd13ifvqct0","pricing_plan_id":"cebpf4jnsgd1na2vs0mg"},{"bike_id":"154d0f4a-7cf1-4b4a-8919-807104d462e1","system_id":"levelo_inurba_marseille","lat":43.26674,"lon":5.38617,"is_reserved":false,"is_disabled":false,"rental_uris":{"android":"levelo://app?vid=154d0f4a-7cf1-4b4a-8919-807104d462e1","ios":"levelo://app?vid=154d0f4a-7cf1-4b4a-8919-807104d462e1"},"vehicle_type_id":"4","last_reported":1741939958,"current_range_meters":7200,"station_id":"","pricing_plan_id":"cebpf4jnsgd1na2vs0mg"},{"bike_id":"36ebfc17-b6ab-4767-a5e0-c94c11aba8a2","system_id":"levelo_inurba_marseille","lat":43.32374,"lon":5.38885,"is_reserved":false,"is_disabled":false,"rental_uris":{"android":"levelo://app?vid=36ebfc17-b6ab-4767-a5e0-c94c11aba8a2","ios":"levelo://app?vid=36ebfc17-b6ab-4767-a5e0-c94c11aba8a2"},"vehicle_type_id":"4","last_reported":1741939958,"current_range_meters":7200,"station_id":"ce4bhqp2rcd13ifvqhog","pricing_plan_id":"cebpf4jnsgd1na2vs0mg"},{"bike_id":"d0be61ee-8c6c-4bf7-99b6-f099a281a656","system_id":"levelo_inurba_marseille","lat":43.25036,"lon":5.38986,"is_reserved":false,"is_disabled":false,"rental_uris":{"android":"levelo://app?vid=d0be61ee-8c6c-4bf7-99b6-f099a281a656","ios":"levelo://app?vid=d0be61ee-8c6c-4bf7-99b6-f099a281a656"},"vehicle_type_id":"4","last_reported":1741939958,"current_range_meters":7200,"station_id":"","pricing_plan_id":"cebpf4jnsgd1na2vs0mg"},{"bike_id":"b3fead73-4c4c-401e-81a0-a7fad437c748","system_id":"levelo_inurba_marseille","lat":43.25012,"lon":5.389191,"is_reserved":false,"is_disabled":false,"rental_uris":{"android":"levelo://app?vid=b3fead73-4c4c-401e-81a0-a7fad437c748","ios":"levelo://app?vid=b3fead73-4c4c-401e-81a0-a7fad437c748"},"vehicle_type_id":"4","last_reported":1741939958,"current_range_meters":7200,"station_id":"ce4bhgp2rcd13ifvqfd0","pricing_plan_id":"cebpf4jnsgd1na2vs0mg"},{"bike_id":"e350ce66-a995-469c-b4d1-ba6658fe49e2","system_id":"levelo_inurba_marseille","lat":43.278147,"lon":5.407117,"is_reserved":false,"is_disabled":false,"rental_uris":{"android":"levelo://app?vid=e350ce66-a995-469c-b4d1-ba6658fe49e2","ios":"levelo://app?vid=e350ce66-a995-469c-b4d1-ba6658fe49e2"},"vehicle_type_id":"4","last_reported":1741939958,"current_range_meters":7200,"station_id":"ce4bhnh2rcd13ifvqgtg","pricing_plan_id":"cebpf4jnsgd1na2vs0mg"},{"bike_id":"39df283f-35a5-4c44-9f0d-6dd6923a19a4","system_id":"levelo_inurba_marseille","lat":43.32099,"lon":5.36777,"is_reserved":false,"is_disabled":false,"rental_uris":{"android":"levelo://app?vid=39df283f-35a5-4c44-9f0d-6dd6923a19a4","ios":"levelo://app?vid=39df283f-35a5-4c44-9f0d-6dd6923a19a4"},"vehicle_type_id":"4","last_reported":1741939958,"current_range_meters":7200,"station_id":"ce4bhrh2rcd13ifvqhug","pricing_plan_id":"cebpf4jnsgd1na2vs0mg"},{"bike_id":"814c8ec0-7f86-43ef-a1aa-fb2c579e864f","system_id":"levelo_inurba_marseille","lat":43.304664,"lon":5.382141,"is_reserved":false,"is_disabled":false,"rental_uris":{"android":"levelo://app?vid=814c8ec0-7f86-43ef-a1aa-fb2c579e864f","ios":"levelo://app?vid=814c8ec0-7f86-43ef-a1aa-fb2c579e864f"},"vehicle_type_id":"4","last_reported":1741939958,"current_range_meters":8000,"station_id":"","pricing_plan_id":"cebpf4jnsgd1na2vs0mg"},{"bike_id":"d4f28dc4-1355-4c42-a706-3679bbd67020","system_id":"levelo_inurba_marseille","lat":43.30651,"lon":5.40126,"is_reserved":false,"is_disabled":false,"rental_uris":{"android":"levelo://app?vid=d4f28dc4-1355-4c42-a706-3679bbd67020","ios":"levelo://app?vid=d4f28dc4-1355-4c42-a706-3679bbd67020"},"vehicle_type_id":"4","last_reported":1741939958,"current_range_meters":8000,"station_id":"ce4bh112rcd13ifvqda0","pricing_plan_id":"cebpf4jnsgd1na2vs0mg"},{"bike_id":"5a2e24c6-934c-488f-8fae-9ff6009d818d","system_id":"levelo_inurba_marseille","lat":43.30972,"lon":5.39032,"is_reserved":false,"is_disabled":false,"rental_uris":{"android":"levelo://app?vid=5a2e24c6-934c-488f-8fae-9ff6009d818d","ios":"levelo://app?vid=5a2e24c6-934c-488f-8fae-9ff6009d818d"},"vehicle_type_id":"4","last_reported":1741939958,"current_range_meters":8000,"station_id":"ce4bgup2rcd13ifvqco0","pricing_plan_id":"cebpf4jnsgd1na2vs0mg"},{"bike_id":"83aa7ab2-d352-459f-bd36-67e70fb4a7aa","system_id":"levelo_inurba_marseille","lat":43.25943,"lon":5.40899,"is_reserved":false,"is_disabled":false,"rental_uris":{"android":"levelo://app?vid=83aa7ab2-d352-459f-bd36-67e70fb4a7aa","ios":"levelo://app?vid=83aa7ab2-d352-459f-bd36-67e70fb4a7aa"},"vehicle_type_id":"4","last_reported":1741939958,"current_range_meters":8000,"station_id":"ce4bhm92rcd13ifvqglg","pricing_plan_id":"cebpf4jnsgd1na2vs0mg"},{"bike_id":"7a929da8-d7c2-45d5-ab28-fc8769c898c2","system_id":"levelo_inurba_marseille","lat":43.283473,"lon":5.38111,"is_reserved":false,"is_disabled":false,"rental_uris":{"android":"levelo://app?vid=7a929da8-d7c2-45d5-ab28-fc8769c898c2","ios":"levelo://app?vid=7a929da8-d7c2-45d5-ab28-fc8769c898c2"},"vehicle_type_id":"4","last_reported":1741939958,"current_range_meters":8000,"station_id":"ce4bh412rcd13ifvqdr0","pricing_plan_id":"cebpf4jnsgd1na2vs0mg"},{"bike_id":"4f2ddad8-944b-4f7f-88fd-24992043188c","system_id":"levelo_inurba_marseille","lat":43.30952,"lon":5.40139,"is_reserved":false,"is_disabled":false,"rental_uris":{"android":"levelo://app?vid=4f2ddad8-944b-4f7f-88fd-24992043188c","ios":"levelo://app?vid=4f2ddad8-944b-4f7f-88fd-24992043188c"},"vehicle_type_id":"4","last_reported":1741939958,"current_range_meters":8000,"station_id":"ce4bgvp2rcd13ifvqct0","pricing_plan_id":"cebpf4jnsgd1na2vs0mg"},{"bike_id":"150b3b69-cce0-417e-b078-1fb5ce62bcdb","system_id":"levelo_inurba_marseille","lat":43.2407,"lon":5.37749,"is_reserved":false,"is_disabled":false,"rental_uris":{"android":"levelo://app?vid=150b3b69-cce0-417e-b078-1fb5ce62bcdb","ios":"levelo://app?vid=150b3b69-cce0-417e-b078-1fb5ce62bcdb"},"vehicle_type_id":"4","last_reported":1741939958,"current_range_meters":8000,"station_id":"ce4bhnp2rcd13ifvqgvg","pricing_plan_id":"cebpf4jnsgd1na2vs0mg"},{"bike_id":"b78c10b7-b880-4638-b672-f8fc61bd3c48","system_id":"levelo_inurba_marseille","lat":43.24092,"lon":5.37739,"is_reserved":false,"is_disabled":false,"rental_uris":{"android":"levelo://app?vid=b78c10b7-b880-4638-b672-f8fc61bd3c48","ios":"levelo://app?vid=b78c10b7-b880-4638-b672-f8fc61bd3c48"},"vehicle_type_id":"4","last_reported":1741939958,"current_range_meters":8000,"station_id":"ce4bhnp2rcd13ifvqgvg","pricing_plan_id":"cebpf4jnsgd1na2vs0mg"},{"bike_id":"1cbeb49c-8d51-46f2-ad03-8af78ea79d9a","system_id":"levelo_inurba_marseille","lat":43.24182,"lon":5.39723,"is_reserved":false,"is_disabled":false,"rental_uris":{"android":"levelo://app?vid=1cbeb49c-8d51-46f2-ad03-8af78ea79d9a","ios":"levelo://app?vid=1cbeb49c-8d51-46f2-ad03-8af78ea79d9a"},"vehicle_type_id":"4","last_reported":1741939958,"current_range_meters":8000,"station_id":"ce4bhn12rcd13ifvqgpg","pricing_plan_id":"cebpf4jnsgd1na2vs0mg"},{"bike_id":"8c81821e-1f53-47a6-97d2-f4348c01f291","system_id":"levelo_inurba_marseille","lat":43.27518,"lon":5.42457,"is_reserved":false,"is_disabled":false,"rental_uris":{"android":"levelo://app?vid=8c81821e-1f53-47a6-97d2-f4348c01f291","ios":"levelo://app?vid=8c81821e-1f53-47a6-97d2-f4348c01f291"},"vehicle_type_id":"4","last_reported":1741939958,"current_range_meters":8000,"station_id":"ce4bhn92rcd13ifvqgrg","pricing_plan_id":"cebpf4jnsgd1na2vs0mg"},{"bike_id":"6307ec30-142e-4380-a1b4-79305fa6f44a","system_id":"levelo_inurba_marseille","lat":43.25741,"lon":5.41113,"is_reserved":false,"is_disabled":true,"rental_uris":{"android":"levelo://app?vid=6307ec30-142e-4380-a1b4-79305fa6f44a","ios":"levelo://app?vid=6307ec30-142e-4380-a1b4-79305fa6f44a"},"vehicle_type_id":"4","last_reported":1741939958,"current_range_meters":8000,"station_id":"ce4bhkp2rcd13ifvqgd0","pricing_plan_id":"cebpf4jnsgd1na2vs0mg"},{"bike_id":"54bf63aa-0a8b-42b0-93c1-c2256fbfeabf","system_id":"levelo_inurba_marseille","lat":43.26567,"lon":5.38998,"is_reserved":false,"is_disabled":false,"rental_uris":{"android":"levelo://app?vid=54bf63aa-0a8b-42b0-93c1-c2256fbfeabf","ios":"levelo://app?vid=54bf63aa-0a8b-42b0-93c1-c2256fbfeabf"},"vehicle_type_id":"4","last_reported":1741939958,"current_range_meters":8400,"station_id":"ce4bhe12rcd13ifvqf30","pricing_plan_id":"cebpf4jnsgd1na2vs0mg"},{"bike_id":"46bece52-8859-43a4-ad82-813be44fa8ec","system_id":"levelo_inurba_marseille","lat":43.25935,"lon":5.40913,"is_reserved":false,"is_disabled":true,"rental_uris":{"android":"levelo://app?vid=46bece52-8859-43a4-ad82-813be44fa8ec","ios":"levelo://app?vid=46bece52-8859-43a4-ad82-813be44fa8ec"},"vehicle_type_id":"4","last_reported":1741939958,"current_range_meters":8400,"station_id":"ce4bhm92rcd13ifvqglg","pricing_plan_id":"cebpf4jnsgd1na2vs0mg"},{"bike_id":"6e9131d6-530f-404e-88ef-490fae00f6c8","system_id":"levelo_inurba_marseille","lat":43.31533,"lon":5.38035,"is_reserved":false,"is_disabled":false,"rental_uris":{"android":"levelo://app?vid=6e9131d6-530f-404e-88ef-490fae00f6c8","ios":"levelo://app?vid=6e9131d6-530f-404e-88ef-490fae00f6c8"},"vehicle_type_id":"4","last_reported":1741939958,"current_range_meters":8400,"station_id":"ce4bhsp2rcd13ifvqi50","pricing_plan_id":"cebpf4jnsgd1na2vs0mg"},{"bike_id":"c2100bd3-57ec-4820-992d-70841c2f886a","system_id":"levelo_inurba_marseille","lat":43.32104,"lon":5.3678,"is_reserved":false,"is_disabled":true,"rental_uris":{"android":"levelo://app?vid=c2100bd3-57ec-4820-992d-70841c2f886a","ios":"levelo://app?vid=c2100bd3-57ec-4820-992d-70841c2f886a"},"vehicle_type_id":"4","last_reported":1741939958,"current_range_meters":8400,"station_id":"ce4bhrh2rcd13ifvqhug","pricing_plan_id":"cebpf4jnsgd1na2vs0mg"},{"bike_id":"1179ea35-4831-4438-984a-d67269a5255b","system_id":"levelo_inurba_marseille","lat":43.23206,"lon":5.35548,"is_reserved":false,"is_disabled":false,"rental_uris":{"android":"levelo://app?vid=1179ea35-4831-4438-984a-d67269a5255b","ios":"levelo://app?vid=1179ea35-4831-4438-984a-d67269a5255b"},"vehicle_type_id":"4","last_reported":1741939958,"current_range_meters":8400,"station_id":"ce4bhu92rcd13ifvqi70","pricing_plan_id":"cebpf4jnsgd1na2vs0mg"},{"bike_id":"af5df027-9916-41a5-8ab7-db2182f63a1a","system_id":"levelo_inurba_marseille","lat":43.293138,"lon":5.376357,"is_reserved":false,"is_disabled":false,"rental_uris":{"android":"levelo://app?vid=af5df027-9916-41a5-8ab7-db2182f63a1a","ios":"levelo://app?vid=af5df027-9916-41a5-8ab7-db2182f63a1a"},"vehicle_type_id":"4","last_reported":1741939958,"current_range_meters":8400,"station_id":"ce4bgi12rcd13ifvqb70","pricing_plan_id":"cebpf4jnsgd1na2vs0mg"},{"bike_id":"f926aefb-e54c-4c8f-8cea-ce3de9732eba","system_id":"levelo_inurba_marseille","lat":43.33594,"lon":5.40946,"is_reserved":false,"is_disabled":false,"rental_uris":{"android":"levelo://app?vid=f926aefb-e54c-4c8f-8cea-ce3de9732eba","ios":"levelo://app?vid=f926aefb-e54c-4c8f-8cea-ce3de9732eba"},"vehicle_type_id":"4","last_reported":1741939958,"current_range_meters":8400,"station_id":"","pricing_plan_id":"cebpf4jnsgd1na2vs0mg"},{"bike_id":"53cbc3b8-73f7-4525-88f8-5bf9f8c70134","system_id":"levelo_inurba_marseille","lat":43.28406,"lon":5.37541,"is_reserved":false,"is_disabled":true,"rental_uris":{"android":"levelo://app?vid=53cbc3b8-73f7-4525-88f8-5bf9f8c70134","ios":"levelo://app?vid=53cbc3b8-73f7-4525-88f8-5bf9f8c70134"},"vehicle_type_id":"4","last_reported":1741939958,"current_range_meters":8400,"station_id":"ce4bh412rcd13ifvqds0","pricing_plan_id":"cebpf4jnsgd1na2vs0mg"},{"bike_id":"8939fbba-2fc8-450a-9027-04db4f4e697a","system_id":"levelo_inurba_marseille","lat":43.31358,"lon":5.40579,"is_reserved":false,"is_disabled":false,"rental_uris":{"android":"levelo://app?vid=8939fbba-2fc8-450a-9027-04db4f4e697a","ios":"levelo://app?vid=8939fbba-2fc8-450a-9027-04db4f4e697a"},"vehicle_type_id":"4","last_reported":1741939958,"current_range_meters":8800,"station_id":"","pricing_plan_id":"cebpf4jnsgd1na2vs0mg"},{"bike_id":"744a4668-cf4f-455a-84ca-8a867be4c050","system_id":"levelo_inurba_marseille","lat":43.32477,"lon":5.36562,"is_reserved":false,"is_disabled":false,"rental_uris":{"android":"levelo://app?vid=744a4668-cf4f-455a-84ca-8a867be4c050","ios":"levelo://app?vid=744a4668-cf4f-455a-84ca-8a867be4c050"},"vehicle_type_id":"4","last_reported":1741939958,"current_range_meters":8800,"station_id":"ce4bhs12rcd13ifvqhvg","pricing_plan_id":"cebpf4jnsgd1na2vs0mg"},{"bike_id":"e43c81c0-67a0-4c25-9297-ec248fcfb8d5","system_id":"levelo_inurba_marseille","lat":43.24094,"lon":5.37748,"is_reserved":false,"is_disabled":false,"rental_uris":{"android":"levelo://app?vid=e43c81c0-67a0-4c25-9297-ec248fcfb8d5","ios":"levelo://app?vid=e43c81c0-67a0-4c25-9297-ec248fcfb8d5"},"vehicle_type_id":"4","last_reported":1741939958,"current_range_meters":8800,"station_id":"ce4bhnp2rcd13ifvqgvg","pricing_plan_id":"cebpf4jnsgd1na2vs0mg"},{"bike_id":"a797352f-b2da-44d3-be2d-2db52baafb02","system_id":"levelo_inurba_marseille","lat":43.30214,"lon":5.39475,"is_reserved":false,"is_disabled":false,"rental_uris":{"android":"levelo://app?vid=a797352f-b2da-44d3-be2d-2db52baafb02","ios":"levelo://app?vid=a797352f-b2da-44d3-be2d-2db52baafb02"},"vehicle_type_id":"4","last_reported":1741939958,"current_range_meters":8800,"station_id":"ce4bh0p2rcd13ifvqd70","pricing_plan_id":"cebpf4jnsgd1na2vs0mg"},{"bike_id":"fd0b94d0-5000-40fe-9251-aeb5428fb301","system_id":"levelo_inurba_marseille","lat":43.27188,"lon":5.40999,"is_reserved":false,"is_disabled":false,"rental_uris":{"android":"levelo://app?vid=fd0b94d0-5000-40fe-9251-aeb5428fb301","ios":"levelo://app?vid=fd0b94d0-5000-40fe-9251-aeb5428fb301"},"vehicle_type_id":"4","last_reported":1741939958,"current_range_meters":8800,"station_id":"ce4bhl12rcd13ifvqgf0","pricing_plan_id":"cebpf4jnsgd1na2vs0mg"},{"bike_id":"00e93e9d-3927-43c0-baf1-1a5ca0ea472b","system_id":"levelo_inurba_marseille","lat":43.24085,"lon":5.37744,"is_reserved":false,"is_disabled":true,"rental_uris":{"android":"levelo://app?vid=00e93e9d-3927-43c0-baf1-1a5ca0ea472b","ios":"levelo://app?vid=00e93e9d-3927-43c0-baf1-1a5ca0ea472b"},"vehicle_type_id":"4","last_reported":1741939958,"current_range_meters":8800,"station_id":"","pricing_plan_id":"cebpf4jnsgd1na2vs0mg"},{"bike_id":"bc91d99e-09e9-413c-af98-3b347c81a160","system_id":"levelo_inurba_marseille","lat":43.30529,"lon":5.36561,"is_reserved":false,"is_disabled":false,"rental_uris":{"android":"levelo://app?vid=bc91d99e-09e9-413c-af98-3b347c81a160","ios":"levelo://app?vid=bc91d99e-09e9-413c-af98-3b347c81a160"},"vehicle_type_id":"4","last_reported":1741939958,"current_range_meters":8800,"station_id":"ce4bgs12rcd13ifvqcag","pricing_plan_id":"cebpf4jnsgd1na2vs0mg"},{"bike_id":"fe3c040d-320c-464f-9744-5e42fa5023fd","system_id":"levelo_inurba_marseille","lat":43.30164,"lon":5.3809,"is_reserved":false,"is_disabled":false,"rental_uris":{"android":"levelo://app?vid=fe3c040d-320c-464f-9744-5e42fa5023fd","ios":"levelo://app?vid=fe3c040d-320c-464f-9744-5e42fa5023fd"},"vehicle_type_id":"4","last_reported":1741939958,"current_range_meters":8800,"station_id":"ce4bgjp2rcd13ifvqbh0","pricing_plan_id":"cebpf4jnsgd1na2vs0mg"},{"bike_id":"320564be-2867-4ab5-80ba-99ed9100fc63","system_id":"levelo_inurba_marseille","lat":43.25839,"lon":5.39435,"is_reserved":false,"is_disabled":false,"rental_uris":{"android":"levelo://app?vid=320564be-2867-4ab5-80ba-99ed9100fc63","ios":"levelo://app?vid=320564be-2867-4ab5-80ba-99ed9100fc63"},"vehicle_type_id":"4","last_reported":1741939958,"current_range_meters":8800,"station_id":"","pricing_plan_id":"cebpf4jnsgd1na2vs0mg"},{"bike_id":"85febf70-eab1-4f30-96f1-2b4d2195db5c","system_id":"levelo_inurba_marseille","lat":43.2923,"lon":5.38231,"is_reserved":false,"is_disabled":false,"rental_uris":{"android":"levelo://app?vid=85febf70-eab1-4f30-96f1-2b4d2195db5c","ios":"levelo://app?vid=85febf70-eab1-4f30-96f1-2b4d2195db5c"},"vehicle_type_id":"4","last_reported":1741939958,"current_range_meters":8800,"station_id":"","pricing_plan_id":"cebpf4jnsgd1na2vs0mg"},{"bike_id":"70af94d1-6fd1-4b48-807f-3d28ddfae0af","system_id":"levelo_inurba_marseille","lat":43.28348,"lon":5.38119,"is_reserved":false,"is_disabled":false,"rental_uris":{"android":"levelo://app?vid=70af94d1-6fd1-4b48-807f-3d28ddfae0af","ios":"levelo://app?vid=70af94d1-6fd1-4b48-807f-3d28ddfae0af"},"vehicle_type_id":"4","last_reported":1741939958,"current_range_meters":8800,"station_id":"ce4bh412rcd13ifvqdr0","pricing_plan_id":"cebpf4jnsgd1na2vs0mg"},{"bike_id":"01e25889-3bfd-4c2b-b309-d66c58f42e18","system_id":"levelo_inurba_marseille","lat":43.31704,"lon":5.40448,"is_reserved":false,"is_disabled":false,"rental_uris":{"android":"levelo://app?vid=01e25889-3bfd-4c2b-b309-d66c58f42e18","ios":"levelo://app?vid=01e25889-3bfd-4c2b-b309-d66c58f42e18"},"vehicle_type_id":"4","last_reported":1741939958,"current_range_meters":8800,"station_id":"ce4bh012rcd13ifvqd00","pricing_plan_id":"cebpf4jnsgd1na2vs0mg"},{"bike_id":"6944bb06-8a8c-4cf4-86a1-ca9561cf4ee4","system_id":"levelo_inurba_marseille","lat":43.23067,"lon":5.35508,"is_reserved":false,"is_disabled":false,"rental_uris":{"android":"levelo://app?vid=6944bb06-8a8c-4cf4-86a1-ca9561cf4ee4","ios":"levelo://app?vid=6944bb06-8a8c-4cf4-86a1-ca9561cf4ee4"},"vehicle_type_id":"4","last_reported":1741939958,"current_range_meters":8800,"station_id":"cpo3342slgdg3j2ifvpg","pricing_plan_id":"cebpf4jnsgd1na2vs0mg"},{"bike_id":"4e8266db-fea8-4f52-a1d1-5a55e63c1890","system_id":"levelo_inurba_marseille","lat":43.27976,"lon":5.38745,"is_reserved":false,"is_disabled":false,"rental_uris":{"android":"levelo://app?vid=4e8266db-fea8-4f52-a1d1-5a55e63c1890","ios":"levelo://app?vid=4e8266db-fea8-4f52-a1d1-5a55e63c1890"},"vehicle_type_id":"4","last_reported":1741939958,"current_range_meters":8800,"station_id":"ce4bhg12rcd13ifvqf80","pricing_plan_id":"cebpf4jnsgd1na2vs0mg"},{"bike_id":"d2c1304d-c6de-4e19-a363-2c0c4bdd9fb1","system_id":"levelo_inurba_marseille","lat":43.24643,"lon":5.38909,"is_reserved":false,"is_disabled":false,"rental_uris":{"android":"levelo://app?vid=d2c1304d-c6de-4e19-a363-2c0c4bdd9fb1","ios":"levelo://app?vid=d2c1304d-c6de-4e19-a363-2c0c4bdd9fb1"},"vehicle_type_id":"4","last_reported":1741939958,"current_range_meters":8800,"station_id":"ce4bhg12rcd13ifvqf60","pricing_plan_id":"cebpf4jnsgd1na2vs0mg"},{"bike_id":"96bae133-2c88-4f4f-a72b-a62518ed1b8a","system_id":"levelo_inurba_marseille","lat":43.27501,"lon":5.42452,"is_reserved":false,"is_disabled":false,"rental_uris":{"android":"levelo://app?vid=96bae133-2c88-4f4f-a72b-a62518ed1b8a","ios":"levelo://app?vid=96bae133-2c88-4f4f-a72b-a62518ed1b8a"},"vehicle_type_id":"4","last_reported":1741939958,"current_range_meters":8800,"station_id":"ce4bhn92rcd13ifvqgrg","pricing_plan_id":"cebpf4jnsgd1na2vs0mg"},{"bike_id":"414a87d8-0320-4da5-94cb-1c2e9eb2c2e2","system_id":"levelo_inurba_marseille","lat":43.25821,"lon":5.394365,"is_reserved":false,"is_disabled":false,"rental_uris":{"android":"levelo://app?vid=414a87d8-0320-4da5-94cb-1c2e9eb2c2e2","ios":"levelo://app?vid=414a87d8-0320-4da5-94cb-1c2e9eb2c2e2"},"vehicle_type_id":"4","last_reported":1741939958,"current_range_meters":9200,"station_id":"ce4bhip2rcd13ifvqft0","pricing_plan_id":"cebpf4jnsgd1na2vs0mg"},{"bike_id":"58953ad0-ae88-4a58-9ac6-f797dd69f44e","system_id":"levelo_inurba_marseille","lat":43.25007,"lon":5.38927,"is_reserved":false,"is_disabled":false,"rental_uris":{"android":"levelo://app?vid=58953ad0-ae88-4a58-9ac6-f797dd69f44e","ios":"levelo://app?vid=58953ad0-ae88-4a58-9ac6-f797dd69f44e"},"vehicle_type_id":"4","last_reported":1741939958,"current_range_meters":9200,"station_id":"ce4bhgp2rcd13ifvqfd0","pricing_plan_id":"cebpf4jnsgd1na2vs0mg"},{"bike_id":"15a2b974-d751-49d5-a666-bbd556eb13fe","system_id":"levelo_inurba_marseille","lat":43.3138,"lon":5.36699,"is_reserved":false,"is_disabled":false,"rental_uris":{"android":"levelo://app?vid=15a2b974-d751-49d5-a666-bbd556eb13fe","ios":"levelo://app?vid=15a2b974-d751-49d5-a666-bbd556eb13fe"},"vehicle_type_id":"4","last_reported":1741939958,"current_range_meters":9200,"station_id":"ce4bgr92rcd13ifvqc6g","pricing_plan_id":"cebpf4jnsgd1na2vs0mg"},{"bike_id":"6cec560f-8635-4801-8462-637e6f2c72c5","system_id":"levelo_inurba_marseille","lat":43.2319,"lon":5.35556,"is_reserved":false,"is_disabled":false,"rental_uris":{"android":"levelo://app?vid=6cec560f-8635-4801-8462-637e6f2c72c5","ios":"levelo://app?vid=6cec560f-8635-4801-8462-637e6f2c72c5"},"vehicle_type_id":"4","last_reported":1741939958,"current_range_meters":9200,"station_id":"ce4bhu92rcd13ifvqi70","pricing_plan_id":"cebpf4jnsgd1na2vs0mg"},{"bike_id":"97a3342f-3ca5-439d-8886-7bbabf5b6c98","system_id":"levelo_inurba_marseille","lat":43.321086,"lon":5.367836,"is_reserved":false,"is_disabled":false,"rental_uris":{"android":"levelo://app?vid=97a3342f-3ca5-439d-8886-7bbabf5b6c98","ios":"levelo://app?vid=97a3342f-3ca5-439d-8886-7bbabf5b6c98"},"vehicle_type_id":"4","last_reported":1741939958,"current_range_meters":9200,"station_id":"ce4bhrh2rcd13ifvqhug","pricing_plan_id":"cebpf4jnsgd1na2vs0mg"},{"bike_id":"46f0e966-3988-47b7-866e-7937a9340847","system_id":"levelo_inurba_marseille","lat":43.29107,"lon":5.3723,"is_reserved":false,"is_disabled":false,"rental_uris":{"android":"levelo://app?vid=46f0e966-3988-47b7-866e-7937a9340847","ios":"levelo://app?vid=46f0e966-3988-47b7-866e-7937a9340847"},"vehicle_type_id":"4","last_reported":1741939958,"current_range_meters":9200,"station_id":"ce4bh5p2rcd13ifvqe4g","pricing_plan_id":"cebpf4jnsgd1na2vs0mg"},{"bike_id":"5560735e-1976-44b7-869f-dc24e944867f","system_id":"levelo_inurba_marseille","lat":43.28449,"lon":5.39211,"is_reserved":false,"is_disabled":false,"rental_uris":{"android":"levelo://app?vid=5560735e-1976-44b7-869f-dc24e944867f","ios":"levelo://app?vid=5560735e-1976-44b7-869f-dc24e944867f"},"vehicle_type_id":"4","last_reported":1741939958,"current_range_meters":9200,"station_id":"ce4bhoh2rcd13ifvqh5g","pricing_plan_id":"cebpf4jnsgd1na2vs0mg"},{"bike_id":"8a7d6fbc-9324-4554-9abc-ceeffff483c4","system_id":"levelo_inurba_marseille","lat":43.32346,"lon":5.38856,"is_reserved":false,"is_disabled":false,"rental_uris":{"android":"levelo://app?vid=8a7d6fbc-9324-4554-9abc-ceeffff483c4","ios":"levelo://app?vid=8a7d6fbc-9324-4554-9abc-ceeffff483c4"},"vehicle_type_id":"4","last_reported":1741939958,"current_range_meters":9200,"station_id":"ce4bhqp2rcd13ifvqhog","pricing_plan_id":"cebpf4jnsgd1na2vs0mg"},{"bike_id":"22eef8e9-28d0-4055-9740-16ced5bd43fc","system_id":"levelo_inurba_marseille","lat":43.2468,"lon":5.38164,"is_reserved":false,"is_disabled":false,"rental_uris":{"android":"levelo://app?vid=22eef8e9-28d0-4055-9740-16ced5bd43fc","ios":"levelo://app?vid=22eef8e9-28d0-4055-9740-16ced5bd43fc"},"vehicle_type_id":"4","last_reported":1741939958,"current_range_meters":9200,"station_id":"ce4bhih2rcd13ifvqfr0","pricing_plan_id":"cebpf4jnsgd1na2vs0mg"},{"bike_id":"6c8e51ee-2a45-4efe-a6ea-eb0013dedd61","system_id":"levelo_inurba_marseille","lat":43.24075,"lon":5.37765,"is_reserved":false,"is_disabled":false,"rental_uris":{"android":"levelo://app?vid=6c8e51ee-2a45-4efe-a6ea-eb0013dedd61","ios":"levelo://app?vid=6c8e51ee-2a45-4efe-a6ea-eb0013dedd61"},"vehicle_type_id":"4","last_reported":1741939958,"current_range_meters":9200,"station_id":"ce4bhnp2rcd13ifvqgvg","pricing_plan_id":"cebpf4jnsgd1na2vs0mg"},{"bike_id":"212ecb67-f48b-4f97-95a0-2d158947945a","system_id":"levelo_inurba_marseille","lat":43.303038,"lon":5.400907,"is_reserved":false,"is_disabled":false,"rental_uris":{"android":"levelo://app?vid=212ecb67-f48b-4f97-95a0-2d158947945a","ios":"levelo://app?vid=212ecb67-f48b-4f97-95a0-2d158947945a"},"vehicle_type_id":"4","last_reported":1741939958,"current_range_meters":9200,"station_id":"ce4bhqh2rcd13ifvqhmg","pricing_plan_id":"cebpf4jnsgd1na2vs0mg"},{"bike_id":"7121d818-13e2-43ed-b445-7134fefdd64f","system_id":"levelo_inurba_marseille","lat":43.23221,"lon":5.35551,"is_reserved":false,"is_disabled":false,"rental_uris":{"android":"levelo://app?vid=7121d818-13e2-43ed-b445-7134fefdd64f","ios":"levelo://app?vid=7121d818-13e2-43ed-b445-7134fefdd64f"},"vehicle_type_id":"4","last_reported":1741939958,"current_range_meters":9600,"station_id":"ce4bhu92rcd13ifvqi70","pricing_plan_id":"cebpf4jnsgd1na2vs0mg"},{"bike_id":"50e78bbb-43ba-4850-9be2-b27899b7572a","system_id":"levelo_inurba_marseille","lat":43.23157,"lon":5.43723,"is_reserved":false,"is_disabled":false,"rental_uris":{"android":"levelo://app?vid=50e78bbb-43ba-4850-9be2-b27899b7572a","ios":"levelo://app?vid=50e78bbb-43ba-4850-9be2-b27899b7572a"},"vehicle_type_id":"4","last_reported":1741939958,"current_range_meters":9600,"station_id":"ce4bhmp2rcd13ifvqgog","pricing_plan_id":"cebpf4jnsgd1na2vs0mg"},{"bike_id":"c118cc19-7f0e-4e54-b921-f1faa9246911","system_id":"levelo_inurba_marseille","lat":43.24048,"lon":5.37748,"is_reserved":false,"is_disabled":false,"rental_uris":{"android":"levelo://app?vid=c118cc19-7f0e-4e54-b921-f1faa9246911","ios":"levelo://app?vid=c118cc19-7f0e-4e54-b921-f1faa9246911"},"vehicle_type_id":"4","last_reported":1741939958,"current_range_meters":9600,"station_id":"ce4bhnp2rcd13ifvqgvg","pricing_plan_id":"cebpf4jnsgd1na2vs0mg"},{"bike_id":"a681fac3-7e01-4333-acd8-f44f401175dd","system_id":"levelo_inurba_marseille","lat":43.301459,"lon":5.380772,"is_reserved":false,"is_disabled":false,"rental_uris":{"android":"levelo://app?vid=a681fac3-7e01-4333-acd8-f44f401175dd","ios":"levelo://app?vid=a681fac3-7e01-4333-acd8-f44f401175dd"},"vehicle_type_id":"4","last_reported":1741939958,"current_range_meters":9600,"station_id":"ce4bguh2rcd13ifvqckg","pricing_plan_id":"cebpf4jnsgd1na2vs0mg"},{"bike_id":"b634fcd7-4303-4fed-a2f8-fcd04ed2a4dd","system_id":"levelo_inurba_marseille","lat":43.23064,"lon":5.35499,"is_reserved":false,"is_disabled":false,"rental_uris":{"android":"levelo://app?vid=b634fcd7-4303-4fed-a2f8-fcd04ed2a4dd","ios":"levelo://app?vid=b634fcd7-4303-4fed-a2f8-fcd04ed2a4dd"},"vehicle_type_id":"4","last_reported":1741939958,"current_range_meters":9600,"station_id":"cpo3342slgdg3j2ifvpg","pricing_plan_id":"cebpf4jnsgd1na2vs0mg"},{"bike_id":"3363e5ed-aafd-4c83-9f97-12270e6ffcf4","system_id":"levelo_inurba_marseille","lat":43.248626,"lon":5.406456,"is_reserved":false,"is_disabled":false,"rental_uris":{"android":"levelo://app?vid=3363e5ed-aafd-4c83-9f97-12270e6ffcf4","ios":"levelo://app?vid=3363e5ed-aafd-4c83-9f97-12270e6ffcf4"},"vehicle_type_id":"4","last_reported":1741939958,"current_range_meters":9600,"station_id":"","pricing_plan_id":"cebpf4jnsgd1na2vs0mg"},{"bike_id":"f6975236-1909-4591-9ec1-290c425d99ce","system_id":"levelo_inurba_marseille","lat":43.26571,"lon":5.39008,"is_reserved":false,"is_disabled":false,"rental_uris":{"android":"levelo://app?vid=f6975236-1909-4591-9ec1-290c425d99ce","ios":"levelo://app?vid=f6975236-1909-4591-9ec1-290c425d99ce"},"vehicle_type_id":"4","last_reported":1741939958,"current_range_meters":9600,"station_id":"ce4bhe12rcd13ifvqf30","pricing_plan_id":"cebpf4jnsgd1na2vs0mg"},{"bike_id":"44955c2d-9f77-4c68-a644-ccac7e2ec6e1","system_id":"levelo_inurba_marseille","lat":43.29113,"lon":5.40082,"is_reserved":false,"is_disabled":false,"rental_uris":{"android":"levelo://app?vid=44955c2d-9f77-4c68-a644-ccac7e2ec6e1","ios":"levelo://app?vid=44955c2d-9f77-4c68-a644-ccac7e2ec6e1"},"vehicle_type_id":"4","last_reported":1741939958,"current_range_meters":9600,"station_id":"ce4bh392rcd13ifvqdm0","pricing_plan_id":"cebpf4jnsgd1na2vs0mg"},{"bike_id":"36ec5a15-215b-4367-a3ca-336aadd9a251","system_id":"levelo_inurba_marseille","lat":43.33746,"lon":5.3745,"is_reserved":false,"is_disabled":false,"rental_uris":{"android":"levelo://app?vid=36ec5a15-215b-4367-a3ca-336aadd9a251","ios":"levelo://app?vid=36ec5a15-215b-4367-a3ca-336aadd9a251"},"vehicle_type_id":"4","last_reported":1741939958,"current_range_meters":9600,"station_id":"","pricing_plan_id":"cebpf4jnsgd1na2vs0mg"},{"bike_id":"436bf6fd-98f0-4c70-968c-7fcac8f398a5","system_id":"levelo_inurba_marseille","lat":43.25092,"lon":5.41073,"is_reserved":false,"is_disabled":false,"rental_uris":{"android":"levelo://app?vid=436bf6fd-98f0-4c70-968c-7fcac8f398a5","ios":"levelo://app?vid=436bf6fd-98f0-4c70-968c-7fcac8f398a5"},"vehicle_type_id":"4","last_reported":1741939958,"current_range_meters":10000,"station_id":"","pricing_plan_id":"cebpf4jnsgd1na2vs0mg"},{"bike_id":"ca598f68-b6b9-45e1-965d-1b8b7b53ae47","system_id":"levelo_inurba_marseille","lat":43.284103,"lon":5.375103,"is_reserved":false,"is_disabled":false,"rental_uris":{"android":"levelo://app?vid=ca598f68-b6b9-45e1-965d-1b8b7b53ae47","ios":"levelo://app?vid=ca598f68-b6b9-45e1-965d-1b8b7b53ae47"},"vehicle_type_id":"4","last_reported":1741939958,"current_range_meters":10000,"station_id":"ce4bhah2rcd13ifvqej0","pricing_plan_id":"cebpf4jnsgd1na2vs0mg"},{"bike_id":"2fbb5f81-9d4d-41fd-a632-3ee50cb60abb","system_id":"levelo_inurba_marseille","lat":43.30417,"lon":5.39755,"is_reserved":false,"is_disabled":false,"rental_uris":{"android":"levelo://app?vid=2fbb5f81-9d4d-41fd-a632-3ee50cb60abb","ios":"levelo://app?vid=2fbb5f81-9d4d-41fd-a632-3ee50cb60abb"},"vehicle_type_id":"4","last_reported":1741939958,"current_range_meters":10000,"station_id":"ce4bh092rcd13ifvqd20","pricing_plan_id":"cebpf4jnsgd1na2vs0mg"},{"bike_id":"b645a629-6062-4471-a4c9-b7b97793707e","system_id":"levelo_inurba_marseille","lat":43.31359,"lon":5.3672,"is_reserved":false,"is_disabled":false,"rental_uris":{"android":"levelo://app?vid=b645a629-6062-4471-a4c9-b7b97793707e","ios":"levelo://app?vid=b645a629-6062-4471-a4c9-b7b97793707e"},"vehicle_type_id":"4","last_reported":1741939958,"current_range_meters":10000,"station_id":"ce4bgr92rcd13ifvqc6g","pricing_plan_id":"cebpf4jnsgd1na2vs0mg"},{"bike_id":"6d69bcb3-9f1f-47de-bcf3-40d0e4d7bc71","system_id":"levelo_inurba_marseille","lat":43.27884,"lon":5.40708,"is_reserved":false,"is_disabled":false,"rental_uris":{"android":"levelo://app?vid=6d69bcb3-9f1f-47de-bcf3-40d0e4d7bc71","ios":"levelo://app?vid=6d69bcb3-9f1f-47de-bcf3-40d0e4d7bc71"},"vehicle_type_id":"4","last_reported":1741939958,"current_range_meters":10000,"station_id":"","pricing_plan_id":"cebpf4jnsgd1na2vs0mg"},{"bike_id":"205861f1-c8e8-437b-8921-43664245ec7b","system_id":"levelo_inurba_marseille","lat":43.30998,"lon":5.38474,"is_reserved":false,"is_disabled":false,"rental_uris":{"android":"levelo://app?vid=205861f1-c8e8-437b-8921-43664245ec7b","ios":"levelo://app?vid=205861f1-c8e8-437b-8921-43664245ec7b"},"vehicle_type_id":"4","last_reported":1741939958,"current_range_meters":10000,"station_id":"","pricing_plan_id":"cebpf4jnsgd1na2vs0mg"},{"bike_id":"e2727374-34d9-4ed2-aa20-488384cb60b6","system_id":"levelo_inurba_marseille","lat":43.30465,"lon":5.37912,"is_reserved":false,"is_disabled":false,"rental_uris":{"android":"levelo://app?vid=e2727374-34d9-4ed2-aa20-488384cb60b6","ios":"levelo://app?vid=e2727374-34d9-4ed2-aa20-488384cb60b6"},"vehicle_type_id":"4","last_reported":1741939958,"current_range_meters":10000,"station_id":"ce4bgup2rcd13ifvqcn0","pricing_plan_id":"cebpf4jnsgd1na2vs0mg"},{"bike_id":"6930fada-694e-4a8f-a5d2-ce077b44389b","system_id":"levelo_inurba_marseille","lat":43.284867,"lon":5.385586,"is_reserved":false,"is_disabled":false,"rental_uris":{"android":"levelo://app?vid=6930fada-694e-4a8f-a5d2-ce077b44389b","ios":"levelo://app?vid=6930fada-694e-4a8f-a5d2-ce077b44389b"},"vehicle_type_id":"4","last_reported":1741939958,"current_range_meters":9600,"station_id":"ce4bgt92rcd13ifvqcf0","pricing_plan_id":"cebpf4jnsgd1na2vs0mg"},{"bike_id":"4a3685f3-e2ce-4ad8-8bde-8a0ec2e78324","system_id":"levelo_inurba_marseille","lat":43.30163,"lon":5.38107,"is_reserved":false,"is_disabled":false,"rental_uris":{"android":"levelo://app?vid=4a3685f3-e2ce-4ad8-8bde-8a0ec2e78324","ios":"levelo://app?vid=4a3685f3-e2ce-4ad8-8bde-8a0ec2e78324"},"vehicle_type_id":"4","last_reported":1741939958,"current_range_meters":10000,"station_id":"ce4bgjp2rcd13ifvqbh0","pricing_plan_id":"cebpf4jnsgd1na2vs0mg"},{"bike_id":"02757fb8-8293-4514-b994-62c44c21925e","system_id":"levelo_inurba_marseille","lat":43.28721,"lon":5.36126,"is_reserved":false,"is_disabled":false,"rental_uris":{"android":"levelo://app?vid=02757fb8-8293-4514-b994-62c44c21925e","ios":"levelo://app?vid=02757fb8-8293-4514-b994-62c44c21925e"},"vehicle_type_id":"4","last_reported":1741939958,"current_range_meters":10000,"station_id":"cki0cbj6b192h4jlfktg","pricing_plan_id":"cebpf4jnsgd1na2vs0mg"},{"bike_id":"40ba87ab-b9bf-4314-ba6e-9bc2ce38b306","system_id":"levelo_inurba_marseille","lat":43.27851,"lon":5.39218,"is_reserved":false,"is_disabled":false,"rental_uris":{"android":"levelo://app?vid=40ba87ab-b9bf-4314-ba6e-9bc2ce38b306","ios":"levelo://app?vid=40ba87ab-b9bf-4314-ba6e-9bc2ce38b306"},"vehicle_type_id":"4","last_reported":1741939958,"current_range_meters":10000,"station_id":"ce4bhjp2rcd13ifvqga0","pricing_plan_id":"cebpf4jnsgd1na2vs0mg"},{"bike_id":"78dce6e6-36eb-4d6b-a861-292dc7c9e479","system_id":"levelo_inurba_marseille","lat":43.25014,"lon":5.38928,"is_reserved":false,"is_disabled":false,"rental_uris":{"android":"levelo://app?vid=78dce6e6-36eb-4d6b-a861-292dc7c9e479","ios":"levelo://app?vid=78dce6e6-36eb-4d6b-a861-292dc7c9e479"},"vehicle_type_id":"4","last_reported":1741939958,"current_range_meters":10800,"station_id":"ce4bhgp2rcd13ifvqfd0","pricing_plan_id":"cebpf4jnsgd1na2vs0mg"},{"bike_id":"a5e71948-735a-4229-b2ca-74d55fc62066","system_id":"levelo_inurba_marseille","lat":43.280371,"lon":5.369414,"is_reserved":false,"is_disabled":false,"rental_uris":{"android":"levelo://app?vid=a5e71948-735a-4229-b2ca-74d55fc62066","ios":"levelo://app?vid=a5e71948-735a-4229-b2ca-74d55fc62066"},"vehicle_type_id":"4","last_reported":1741939958,"current_range_meters":10800,"station_id":"ce4bha12rcd13ifvqef0","pricing_plan_id":"cebpf4jnsgd1na2vs0mg"},{"bike_id":"594a33ea-5c85-49b0-893b-48b1f5e1011a","system_id":"levelo_inurba_marseille","lat":43.309196,"lon":5.401446,"is_reserved":false,"is_disabled":true,"rental_uris":{"android":"levelo://app?vid=594a33ea-5c85-49b0-893b-48b1f5e1011a","ios":"levelo://app?vid=594a33ea-5c85-49b0-893b-48b1f5e1011a"},"vehicle_type_id":"4","last_reported":1741939958,"current_range_meters":10800,"station_id":"ce4bgvp2rcd13ifvqct0","pricing_plan_id":"cebpf4jnsgd1na2vs0mg"},{"bike_id":"98befa5c-f449-457b-b6dd-787d678fbfe6","system_id":"levelo_inurba_marseille","lat":43.29704,"lon":5.37904,"is_reserved":false,"is_disabled":false,"rental_uris":{"android":"levelo://app?vid=98befa5c-f449-457b-b6dd-787d678fbfe6","ios":"levelo://app?vid=98befa5c-f449-457b-b6dd-787d678fbfe6"},"vehicle_type_id":"4","last_reported":1741939958,"current_range_meters":10800,"station_id":"","pricing_plan_id":"cebpf4jnsgd1na2vs0mg"},{"bike_id":"4964d787-8ed6-4547-acc5-166e17a1c793","system_id":"levelo_inurba_marseille","lat":43.31362,"lon":5.36728,"is_reserved":false,"is_disabled":false,"rental_uris":{"android":"levelo://app?vid=4964d787-8ed6-4547-acc5-166e17a1c793","ios":"levelo://app?vid=4964d787-8ed6-4547-acc5-166e17a1c793"},"vehicle_type_id":"4","last_reported":1741939958,"current_range_meters":11200,"station_id":"ce4bgr92rcd13ifvqc6g","pricing_plan_id":"cebpf4jnsgd1na2vs0mg"},{"bike_id":"889681a1-60a6-4100-8a71-85f35d1d3e3b","system_id":"levelo_inurba_marseille","lat":43.276135,"lon":5.36119,"is_reserved":false,"is_disabled":false,"rental_uris":{"android":"levelo://app?vid=889681a1-60a6-4100-8a71-85f35d1d3e3b","ios":"levelo://app?vid=889681a1-60a6-4100-8a71-85f35d1d3e3b"},"vehicle_type_id":"4","last_reported":1741939958,"current_range_meters":11200,"station_id":"ce4bgj92rcd13ifvqbe0","pricing_plan_id":"cebpf4jnsgd1na2vs0mg"},{"bike_id":"68a34e8f-540a-4fe3-a5ff-deaa13caa845","system_id":"levelo_inurba_marseille","lat":43.29786,"lon":5.44749,"is_reserved":false,"is_disabled":false,"rental_uris":{"android":"levelo://app?vid=68a34e8f-540a-4fe3-a5ff-deaa13caa845","ios":"levelo://app?vid=68a34e8f-540a-4fe3-a5ff-deaa13caa845"},"vehicle_type_id":"4","last_reported":1741939958,"current_range_meters":11200,"station_id":"","pricing_plan_id":"cebpf4jnsgd1na2vs0mg"},{"bike_id":"1ccba09a-030c-4f03-8cb9-142b3443ab59","system_id":"levelo_inurba_marseille","lat":43.30884,"lon":5.39659,"is_reserved":false,"is_disabled":false,"rental_uris":{"android":"levelo://app?vid=1ccba09a-030c-4f03-8cb9-142b3443ab59","ios":"levelo://app?vid=1ccba09a-030c-4f03-8cb9-142b3443ab59"},"vehicle_type_id":"4","last_reported":1741939958,"current_range_meters":11600,"station_id":"ce4bh012rcd13ifvqcv0","pricing_plan_id":"cebpf4jnsgd1na2vs0mg"},{"bike_id":"5bbbcc9c-c390-411b-9d62-74fb6404d435","system_id":"levelo_inurba_marseille","lat":43.24083,"lon":5.37782,"is_reserved":false,"is_disabled":false,"rental_uris":{"android":"levelo://app?vid=5bbbcc9c-c390-411b-9d62-74fb6404d435","ios":"levelo://app?vid=5bbbcc9c-c390-411b-9d62-74fb6404d435"},"vehicle_type_id":"4","last_reported":1741939958,"current_range_meters":11600,"station_id":"ce4bhnp2rcd13ifvqgvg","pricing_plan_id":"cebpf4jnsgd1na2vs0mg"},{"bike_id":"f343766f-49da-4f76-a86a-75fb4098e58b","system_id":"levelo_inurba_marseille","lat":43.2678,"lon":5.39416,"is_reserved":false,"is_disabled":false,"rental_uris":{"android":"levelo://app?vid=f343766f-49da-4f76-a86a-75fb4098e58b","ios":"levelo://app?vid=f343766f-49da-4f76-a86a-75fb4098e58b"},"vehicle_type_id":"4","last_reported":1741939958,"current_range_meters":11600,"station_id":"ce4bhh12rcd13ifvqfg0","pricing_plan_id":"cebpf4jnsgd1na2vs0mg"},{"bike_id":"fe3a294a-a524-496f-b5a5-906fa9afd461","system_id":"levelo_inurba_marseille","lat":43.30971,"lon":5.39023,"is_reserved":false,"is_disabled":false,"rental_uris":{"android":"levelo://app?vid=fe3a294a-a524-496f-b5a5-906fa9afd461","ios":"levelo://app?vid=fe3a294a-a524-496f-b5a5-906fa9afd461"},"vehicle_type_id":"4","last_reported":1741939958,"current_range_meters":11600,"station_id":"ce4bgup2rcd13ifvqco0","pricing_plan_id":"cebpf4jnsgd1na2vs0mg"},{"bike_id":"3959c750-cc5b-4501-a9c1-aa26389cb4a3","system_id":"levelo_inurba_marseille","lat":43.29274,"lon":5.38445,"is_reserved":false,"is_disabled":true,"rental_uris":{"android":"levelo://app?vid=3959c750-cc5b-4501-a9c1-aa26389cb4a3","ios":"levelo://app?vid=3959c750-cc5b-4501-a9c1-aa26389cb4a3"},"vehicle_type_id":"4","last_reported":1741939958,"current_range_meters":12000,"station_id":"ce4bh692rcd13ifvqea0","pricing_plan_id":"cebpf4jnsgd1na2vs0mg"},{"bike_id":"c6f9c2cc-8d82-4ef0-9c96-3fa68372f355","system_id":"levelo_inurba_marseille","lat":43.2501,"lon":5.38935,"is_reserved":false,"is_disabled":false,"rental_uris":{"android":"levelo://app?vid=c6f9c2cc-8d82-4ef0-9c96-3fa68372f355","ios":"levelo://app?vid=c6f9c2cc-8d82-4ef0-9c96-3fa68372f355"},"vehicle_type_id":"4","last_reported":1741939958,"current_range_meters":12000,"station_id":"ce4bhgp2rcd13ifvqfd0","pricing_plan_id":"cebpf4jnsgd1na2vs0mg"},{"bike_id":"dc2dc920-7061-4611-9ad3-02d4898aaa15","system_id":"levelo_inurba_marseille","lat":43.23189,"lon":5.39986,"is_reserved":false,"is_disabled":false,"rental_uris":{"android":"levelo://app?vid=dc2dc920-7061-4611-9ad3-02d4898aaa15","ios":"levelo://app?vid=dc2dc920-7061-4611-9ad3-02d4898aaa15"},"vehicle_type_id":"4","last_reported":1741939958,"current_range_meters":12000,"station_id":"ce4bhn12rcd13ifvqgqg","pricing_plan_id":"cebpf4jnsgd1na2vs0mg"},{"bike_id":"48f3a40e-658c-443b-8908-cf181e5627b0","system_id":"levelo_inurba_marseille","lat":43.30157,"lon":5.37415,"is_reserved":false,"is_disabled":false,"rental_uris":{"android":"levelo://app?vid=48f3a40e-658c-443b-8908-cf181e5627b0","ios":"levelo://app?vid=48f3a40e-658c-443b-8908-cf181e5627b0"},"vehicle_type_id":"4","last_reported":1741939958,"current_range_meters":12000,"station_id":"ce4bgs92rcd13ifvqcc0","pricing_plan_id":"cebpf4jnsgd1na2vs0mg"},{"bike_id":"3088c5ea-896c-4e8b-a042-8ce2526ff2ea","system_id":"levelo_inurba_marseille","lat":43.30926,"lon":5.36849,"is_reserved":false,"is_disabled":false,"rental_uris":{"android":"levelo://app?vid=3088c5ea-896c-4e8b-a042-8ce2526ff2ea","ios":"levelo://app?vid=3088c5ea-896c-4e8b-a042-8ce2526ff2ea"},"vehicle_type_id":"4","last_reported":1741939958,"current_range_meters":11600,"station_id":"ce4bgn92rcd13ifvqbvg","pricing_plan_id":"cebpf4jnsgd1na2vs0mg"},{"bike_id":"9b1f1c98-f2ff-4c92-ab3d-7f080a05bbc1","system_id":"levelo_inurba_marseille","lat":43.31693,"lon":5.4047,"is_reserved":false,"is_disabled":false,"rental_uris":{"android":"levelo://app?vid=9b1f1c98-f2ff-4c92-ab3d-7f080a05bbc1","ios":"levelo://app?vid=9b1f1c98-f2ff-4c92-ab3d-7f080a05bbc1"},"vehicle_type_id":"4","last_reported":1741939958,"current_range_meters":11200,"station_id":"ce4bh012rcd13ifvqd00","pricing_plan_id":"cebpf4jnsgd1na2vs0mg"},{"bike_id":"05579cf8-619e-40fd-9191-b2bb2808e59a","system_id":"levelo_inurba_marseille","lat":43.26236,"lon":5.393293,"is_reserved":false,"is_disabled":false,"rental_uris":{"android":"levelo://app?vid=05579cf8-619e-40fd-9191-b2bb2808e59a","ios":"levelo://app?vid=05579cf8-619e-40fd-9191-b2bb2808e59a"},"vehicle_type_id":"4","last_reported":1741939958,"current_range_meters":12400,"station_id":"ce4bhh92rcd13ifvqfj0","pricing_plan_id":"cebpf4jnsgd1na2vs0mg"},{"bike_id":"59222430-0127-4c56-9dea-cdaec9b93f62","system_id":"levelo_inurba_marseille","lat":43.30912,"lon":5.36843,"is_reserved":false,"is_disabled":false,"rental_uris":{"android":"levelo://app?vid=59222430-0127-4c56-9dea-cdaec9b93f62","ios":"levelo://app?vid=59222430-0127-4c56-9dea-cdaec9b93f62"},"vehicle_type_id":"4","last_reported":1741939958,"current_range_meters":12400,"station_id":"ce4bgn92rcd13ifvqbvg","pricing_plan_id":"cebpf4jnsgd1na2vs0mg"},{"bike_id":"9ecae47e-d45b-4492-a9e7-6bcc06f21741","system_id":"levelo_inurba_marseille","lat":43.28942,"lon":5.39633,"is_reserved":false,"is_disabled":false,"rental_uris":{"android":"levelo://app?vid=9ecae47e-d45b-4492-a9e7-6bcc06f21741","ios":"levelo://app?vid=9ecae47e-d45b-4492-a9e7-6bcc06f21741"},"vehicle_type_id":"4","last_reported":1741939958,"current_range_meters":12400,"station_id":"ce4bh3h2rcd13ifvqdn0","pricing_plan_id":"cebpf4jnsgd1na2vs0mg"},{"bike_id":"2fcdbd2d-52b8-4841-9569-2b04b6707abc","system_id":"levelo_inurba_marseille","lat":43.23175,"lon":5.40008,"is_reserved":false,"is_disabled":false,"rental_uris":{"android":"levelo://app?vid=2fcdbd2d-52b8-4841-9569-2b04b6707abc","ios":"levelo://app?vid=2fcdbd2d-52b8-4841-9569-2b04b6707abc"},"vehicle_type_id":"4","last_reported":1741939958,"current_range_meters":12800,"station_id":"ce4bhn12rcd13ifvqgqg","pricing_plan_id":"cebpf4jnsgd1na2vs0mg"},{"bike_id":"df72bfbc-6126-496b-ad8c-192fc3c1c12f","system_id":"levelo_inurba_marseille","lat":43.31401,"lon":5.36743,"is_reserved":false,"is_disabled":false,"rental_uris":{"android":"levelo://app?vid=df72bfbc-6126-496b-ad8c-192fc3c1c12f","ios":"levelo://app?vid=df72bfbc-6126-496b-ad8c-192fc3c1c12f"},"vehicle_type_id":"4","last_reported":1741939958,"current_range_meters":12800,"station_id":"","pricing_plan_id":"cebpf4jnsgd1na2vs0mg"},{"bike_id":"e82f7229-a322-4a4d-95f0-fe6d440c979f","system_id":"levelo_inurba_marseille","lat":43.30148,"lon":5.37427,"is_reserved":false,"is_disabled":false,"rental_uris":{"android":"levelo://app?vid=e82f7229-a322-4a4d-95f0-fe6d440c979f","ios":"levelo://app?vid=e82f7229-a322-4a4d-95f0-fe6d440c979f"},"vehicle_type_id":"4","last_reported":1741939958,"current_range_meters":12400,"station_id":"ce4bgs92rcd13ifvqcc0","pricing_plan_id":"cebpf4jnsgd1na2vs0mg"},{"bike_id":"c00de636-fb2c-49b9-8c19-0ce088140454","system_id":"levelo_inurba_marseille","lat":43.25942,"lon":5.40905,"is_reserved":false,"is_disabled":false,"rental_uris":{"android":"levelo://app?vid=c00de636-fb2c-49b9-8c19-0ce088140454","ios":"levelo://app?vid=c00de636-fb2c-49b9-8c19-0ce088140454"},"vehicle_type_id":"4","last_reported":1741939958,"current_range_meters":12800,"station_id":"ce4bhm92rcd13ifvqglg","pricing_plan_id":"cebpf4jnsgd1na2vs0mg"},{"bike_id":"771248cc-49fa-49c9-9943-f1819eaa592f","system_id":"levelo_inurba_marseille","lat":43.28423,"lon":5.35006,"is_reserved":false,"is_disabled":false,"rental_uris":{"android":"levelo://app?vid=771248cc-49fa-49c9-9943-f1819eaa592f","ios":"levelo://app?vid=771248cc-49fa-49c9-9943-f1819eaa592f"},"vehicle_type_id":"4","last_reported":1741939958,"current_range_meters":12800,"station_id":"ce4bhbh2rcd13ifvqepg","pricing_plan_id":"cebpf4jnsgd1na2vs0mg"},{"bike_id":"59822710-2d10-4517-868b-42cfab329759","system_id":"levelo_inurba_marseille","lat":43.23192,"lon":5.35548,"is_reserved":false,"is_disabled":false,"rental_uris":{"android":"levelo://app?vid=59822710-2d10-4517-868b-42cfab329759","ios":"levelo://app?vid=59822710-2d10-4517-868b-42cfab329759"},"vehicle_type_id":"4","last_reported":1741939958,"current_range_meters":12800,"station_id":"ce4bhu92rcd13ifvqi70","pricing_plan_id":"cebpf4jnsgd1na2vs0mg"},{"bike_id":"ac9829db-5826-4bcf-b26b-4776553d00ba","system_id":"levelo_inurba_marseille","lat":43.31715,"lon":5.40451,"is_reserved":false,"is_disabled":false,"rental_uris":{"android":"levelo://app?vid=ac9829db-5826-4bcf-b26b-4776553d00ba","ios":"levelo://app?vid=ac9829db-5826-4bcf-b26b-4776553d00ba"},"vehicle_type_id":"4","last_reported":1741939958,"current_range_meters":12800,"station_id":"ce4bh012rcd13ifvqd00","pricing_plan_id":"cebpf4jnsgd1na2vs0mg"},{"bike_id":"bd7fb638-a561-41df-90ca-f32685780427","system_id":"levelo_inurba_marseille","lat":43.22921,"lon":5.35374,"is_reserved":false,"is_disabled":false,"rental_uris":{"android":"levelo://app?vid=bd7fb638-a561-41df-90ca-f32685780427","ios":"levelo://app?vid=bd7fb638-a561-41df-90ca-f32685780427"},"vehicle_type_id":"4","last_reported":1741939958,"current_range_meters":12800,"station_id":"cpo3532slgdg3j2ikp40","pricing_plan_id":"cebpf4jnsgd1na2vs0mg"},{"bike_id":"145571bb-0005-45f7-bd9a-fb928813afdc","system_id":"levelo_inurba_marseille","lat":43.3044,"lon":5.39748,"is_reserved":false,"is_disabled":false,"rental_uris":{"android":"levelo://app?vid=145571bb-0005-45f7-bd9a-fb928813afdc","ios":"levelo://app?vid=145571bb-0005-45f7-bd9a-fb928813afdc"},"vehicle_type_id":"4","last_reported":1741939958,"current_range_meters":12800,"station_id":"ce4bh092rcd13ifvqd20","pricing_plan_id":"cebpf4jnsgd1na2vs0mg"},{"bike_id":"b75863a4-b69c-4f29-a038-229d5b4d1415","system_id":"levelo_inurba_marseille","lat":43.290353,"lon":5.37556,"is_reserved":false,"is_disabled":true,"rental_uris":{"android":"levelo://app?vid=b75863a4-b69c-4f29-a038-229d5b4d1415","ios":"levelo://app?vid=b75863a4-b69c-4f29-a038-229d5b4d1415"},"vehicle_type_id":"4","last_reported":1741939958,"current_range_meters":12800,"station_id":"ce4bh692rcd13ifvqe90","pricing_plan_id":"cebpf4jnsgd1na2vs0mg"},{"bike_id":"b9d69da2-e55f-4d25-97f9-d2527e94e31d","system_id":"levelo_inurba_marseille","lat":43.30955,"lon":5.39026,"is_reserved":false,"is_disabled":false,"rental_uris":{"android":"levelo://app?vid=b9d69da2-e55f-4d25-97f9-d2527e94e31d","ios":"levelo://app?vid=b9d69da2-e55f-4d25-97f9-d2527e94e31d"},"vehicle_type_id":"4","last_reported":1741939958,"current_range_meters":12800,"station_id":"ce4bgup2rcd13ifvqco0","pricing_plan_id":"cebpf4jnsgd1na2vs0mg"},{"bike_id":"0586fe5e-5e7d-4654-a1ea-a40b8879c6f2","system_id":"levelo_inurba_marseille","lat":43.27314,"lon":5.39075,"is_reserved":false,"is_disabled":false,"rental_uris":{"android":"levelo://app?vid=0586fe5e-5e7d-4654-a1ea-a40b8879c6f2","ios":"levelo://app?vid=0586fe5e-5e7d-4654-a1ea-a40b8879c6f2"},"vehicle_type_id":"4","last_reported":1741939958,"current_range_meters":13600,"station_id":"ce4bhgp2rcd13ifvqfe0","pricing_plan_id":"cebpf4jnsgd1na2vs0mg"},{"bike_id":"e67041a3-a8bf-4682-816d-4ea08389fd2d","system_id":"levelo_inurba_marseille","lat":43.24097,"lon":5.37752,"is_reserved":false,"is_disabled":false,"rental_uris":{"android":"levelo://app?vid=e67041a3-a8bf-4682-816d-4ea08389fd2d","ios":"levelo://app?vid=e67041a3-a8bf-4682-816d-4ea08389fd2d"},"vehicle_type_id":"4","last_reported":1741939958,"current_range_meters":13600,"station_id":"ce4bhnp2rcd13ifvqgvg","pricing_plan_id":"cebpf4jnsgd1na2vs0mg"},{"bike_id":"4a2cee19-8473-4500-89c5-93a9dfe951b7","system_id":"levelo_inurba_marseille","lat":43.27437,"lon":5.3943,"is_reserved":false,"is_disabled":false,"rental_uris":{"android":"levelo://app?vid=4a2cee19-8473-4500-89c5-93a9dfe951b7","ios":"levelo://app?vid=4a2cee19-8473-4500-89c5-93a9dfe951b7"},"vehicle_type_id":"4","last_reported":1741939958,"current_range_meters":13600,"station_id":"ce4bhdp2rcd13ifvqf20","pricing_plan_id":"cebpf4jnsgd1na2vs0mg"},{"bike_id":"af474046-e400-4ac9-a0d2-80fc69b95ff7","system_id":"levelo_inurba_marseille","lat":43.30539,"lon":5.36544,"is_reserved":false,"is_disabled":false,"rental_uris":{"android":"levelo://app?vid=af474046-e400-4ac9-a0d2-80fc69b95ff7","ios":"levelo://app?vid=af474046-e400-4ac9-a0d2-80fc69b95ff7"},"vehicle_type_id":"4","last_reported":1741939958,"current_range_meters":13600,"station_id":"ce4bgs12rcd13ifvqcag","pricing_plan_id":"cebpf4jnsgd1na2vs0mg"},{"bike_id":"cb256735-523d-45d3-9c1c-b9c7b6320183","system_id":"levelo_inurba_marseille","lat":43.31522,"lon":5.40355,"is_reserved":false,"is_disabled":false,"rental_uris":{"android":"levelo://app?vid=cb256735-523d-45d3-9c1c-b9c7b6320183","ios":"levelo://app?vid=cb256735-523d-45d3-9c1c-b9c7b6320183"},"vehicle_type_id":"4","last_reported":1741939958,"current_range_meters":13600,"station_id":"","pricing_plan_id":"cebpf4jnsgd1na2vs0mg"},{"bike_id":"31c8862d-1f7d-4f69-a37f-93c25c9ce4d5","system_id":"levelo_inurba_marseille","lat":43.2502,"lon":5.38953,"is_reserved":false,"is_disabled":false,"rental_uris":{"android":"levelo://app?vid=31c8862d-1f7d-4f69-a37f-93c25c9ce4d5","ios":"levelo://app?vid=31c8862d-1f7d-4f69-a37f-93c25c9ce4d5"},"vehicle_type_id":"4","last_reported":1741939958,"current_range_meters":13600,"station_id":"ce4bhgp2rcd13ifvqfd0","pricing_plan_id":"cebpf4jnsgd1na2vs0mg"},{"bike_id":"d98e5f37-4f71-4a36-9b3b-496f87de0d61","system_id":"levelo_inurba_marseille","lat":43.31109,"lon":5.37576,"is_reserved":false,"is_disabled":false,"rental_uris":{"android":"levelo://app?vid=d98e5f37-4f71-4a36-9b3b-496f87de0d61","ios":"levelo://app?vid=d98e5f37-4f71-4a36-9b3b-496f87de0d61"},"vehicle_type_id":"4","last_reported":1741939958,"current_range_meters":13600,"station_id":"","pricing_plan_id":"cebpf4jnsgd1na2vs0mg"},{"bike_id":"3d915018-0dee-4e75-9e7f-5cbc2a1e9639","system_id":"levelo_inurba_marseille","lat":43.33026,"lon":5.39044,"is_reserved":false,"is_disabled":false,"rental_uris":{"android":"levelo://app?vid=3d915018-0dee-4e75-9e7f-5cbc2a1e9639","ios":"levelo://app?vid=3d915018-0dee-4e75-9e7f-5cbc2a1e9639"},"vehicle_type_id":"4","last_reported":1741939958,"current_range_meters":12800,"station_id":"ce4bhr92rcd13ifvqhrg","pricing_plan_id":"cebpf4jnsgd1na2vs0mg"},{"bike_id":"d3a72f17-3d87-4118-a476-92222029a616","system_id":"levelo_inurba_marseille","lat":43.30461,"lon":5.37906,"is_reserved":false,"is_disabled":false,"rental_uris":{"android":"levelo://app?vid=d3a72f17-3d87-4118-a476-92222029a616","ios":"levelo://app?vid=d3a72f17-3d87-4118-a476-92222029a616"},"vehicle_type_id":"4","last_reported":1741939958,"current_range_meters":13600,"station_id":"ce4bgup2rcd13ifvqcn0","pricing_plan_id":"cebpf4jnsgd1na2vs0mg"},{"bike_id":"7d08f145-ab0b-4d05-a132-a57722a9fdb7","system_id":"levelo_inurba_marseille","lat":43.29075,"lon":5.37176,"is_reserved":false,"is_disabled":false,"rental_uris":{"android":"levelo://app?vid=7d08f145-ab0b-4d05-a132-a57722a9fdb7","ios":"levelo://app?vid=7d08f145-ab0b-4d05-a132-a57722a9fdb7"},"vehicle_type_id":"4","last_reported":1741939958,"current_range_meters":13600,"station_id":"ce4bh5p2rcd13ifvqe4g","pricing_plan_id":"cebpf4jnsgd1na2vs0mg"},{"bike_id":"71e80157-4ef4-4e3e-8058-1f3fbd36ccdb","system_id":"levelo_inurba_marseille","lat":43.28941,"lon":5.39616,"is_reserved":false,"is_disabled":false,"rental_uris":{"android":"levelo://app?vid=71e80157-4ef4-4e3e-8058-1f3fbd36ccdb","ios":"levelo://app?vid=71e80157-4ef4-4e3e-8058-1f3fbd36ccdb"},"vehicle_type_id":"4","last_reported":1741939958,"current_range_meters":13600,"station_id":"ce4bh3h2rcd13ifvqdn0","pricing_plan_id":"cebpf4jnsgd1na2vs0mg"},{"bike_id":"679747b7-bbd6-46be-9dde-bd8bad65aa17","system_id":"levelo_inurba_marseille","lat":43.30465,"lon":5.37907,"is_reserved":false,"is_disabled":false,"rental_uris":{"android":"levelo://app?vid=679747b7-bbd6-46be-9dde-bd8bad65aa17","ios":"levelo://app?vid=679747b7-bbd6-46be-9dde-bd8bad65aa17"},"vehicle_type_id":"4","last_reported":1741939958,"current_range_meters":14000,"station_id":"ce4bgup2rcd13ifvqcn0","pricing_plan_id":"cebpf4jnsgd1na2vs0mg"},{"bike_id":"0fd7d866-7255-4d16-9d72-52657ca3633f","system_id":"levelo_inurba_marseille","lat":43.30948,"lon":5.39022,"is_reserved":false,"is_disabled":false,"rental_uris":{"android":"levelo://app?vid=0fd7d866-7255-4d16-9d72-52657ca3633f","ios":"levelo://app?vid=0fd7d866-7255-4d16-9d72-52657ca3633f"},"vehicle_type_id":"4","last_reported":1741939958,"current_range_meters":14000,"station_id":"ce4bgup2rcd13ifvqco0","pricing_plan_id":"cebpf4jnsgd1na2vs0mg"},{"bike_id":"f8e9787d-4c7f-4b26-a202-4ff55b4e451b","system_id":"levelo_inurba_marseille","lat":43.29919,"lon":5.37478,"is_reserved":false,"is_disabled":false,"rental_uris":{"android":"levelo://app?vid=f8e9787d-4c7f-4b26-a202-4ff55b4e451b","ios":"levelo://app?vid=f8e9787d-4c7f-4b26-a202-4ff55b4e451b"},"vehicle_type_id":"4","last_reported":1741939958,"current_range_meters":14000,"station_id":"ce4bgjh2rcd13ifvqbg0","pricing_plan_id":"cebpf4jnsgd1na2vs0mg"},{"bike_id":"7afbb10b-29e2-408a-bf9a-c9b594f91f98","system_id":"levelo_inurba_marseille","lat":43.26246,"lon":5.40446,"is_reserved":false,"is_disabled":true,"rental_uris":{"android":"levelo://app?vid=7afbb10b-29e2-408a-bf9a-c9b594f91f98","ios":"levelo://app?vid=7afbb10b-29e2-408a-bf9a-c9b594f91f98"},"vehicle_type_id":"4","last_reported":1741939958,"current_range_meters":14000,"station_id":"ce4bhmh2rcd13ifvqgmg","pricing_plan_id":"cebpf4jnsgd1na2vs0mg"},{"bike_id":"47bf8666-8072-4f5c-bdfd-6f1a8864ba44","system_id":"levelo_inurba_marseille","lat":43.26682,"lon":5.38271,"is_reserved":false,"is_disabled":false,"rental_uris":{"android":"levelo://app?vid=47bf8666-8072-4f5c-bdfd-6f1a8864ba44","ios":"levelo://app?vid=47bf8666-8072-4f5c-bdfd-6f1a8864ba44"},"vehicle_type_id":"4","last_reported":1741939958,"current_range_meters":14400,"station_id":"ce4bhg92rcd13ifvqf90","pricing_plan_id":"cebpf4jnsgd1na2vs0mg"},{"bike_id":"6cd6e618-217f-4894-90e4-311a526392df","system_id":"levelo_inurba_marseille","lat":43.30467,"lon":5.37913,"is_reserved":false,"is_disabled":false,"rental_uris":{"android":"levelo://app?vid=6cd6e618-217f-4894-90e4-311a526392df","ios":"levelo://app?vid=6cd6e618-217f-4894-90e4-311a526392df"},"vehicle_type_id":"4","last_reported":1741939958,"current_range_meters":14400,"station_id":"ce4bgup2rcd13ifvqcn0","pricing_plan_id":"cebpf4jnsgd1na2vs0mg"},{"bike_id":"07c72146-04d2-40c0-8674-54cd753f78e1","system_id":"levelo_inurba_marseille","lat":43.25023,"lon":5.38926,"is_reserved":false,"is_disabled":false,"rental_uris":{"android":"levelo://app?vid=07c72146-04d2-40c0-8674-54cd753f78e1","ios":"levelo://app?vid=07c72146-04d2-40c0-8674-54cd753f78e1"},"vehicle_type_id":"4","last_reported":1741939958,"current_range_meters":14400,"station_id":"ce4bhgp2rcd13ifvqfd0","pricing_plan_id":"cebpf4jnsgd1na2vs0mg"},{"bike_id":"3728795a-1d01-4385-9289-b13d0dba6671","system_id":"levelo_inurba_marseille","lat":43.3199,"lon":5.3816,"is_reserved":false,"is_disabled":false,"rental_uris":{"android":"levelo://app?vid=3728795a-1d01-4385-9289-b13d0dba6671","ios":"levelo://app?vid=3728795a-1d01-4385-9289-b13d0dba6671"},"vehicle_type_id":"4","last_reported":1741939958,"current_range_meters":14400,"station_id":"ce4bhr12rcd13ifvqhpg","pricing_plan_id":"cebpf4jnsgd1na2vs0mg"},{"bike_id":"04f149c6-a120-4218-b435-a952d9eb67d0","system_id":"levelo_inurba_marseille","lat":43.24871,"lon":5.40633,"is_reserved":false,"is_disabled":false,"rental_uris":{"android":"levelo://app?vid=04f149c6-a120-4218-b435-a952d9eb67d0","ios":"levelo://app?vid=04f149c6-a120-4218-b435-a952d9eb67d0"},"vehicle_type_id":"4","last_reported":1741939958,"current_range_meters":14400,"station_id":"","pricing_plan_id":"cebpf4jnsgd1na2vs0mg"},{"bike_id":"a4f9e59c-bd14-47eb-b967-315b08b151a8","system_id":"levelo_inurba_marseille","lat":43.30153,"lon":5.38098,"is_reserved":false,"is_disabled":false,"rental_uris":{"android":"levelo://app?vid=a4f9e59c-bd14-47eb-b967-315b08b151a8","ios":"levelo://app?vid=a4f9e59c-bd14-47eb-b967-315b08b151a8"},"vehicle_type_id":"4","last_reported":1741939958,"current_range_meters":14400,"station_id":"ce4bgjp2rcd13ifvqbh0","pricing_plan_id":"cebpf4jnsgd1na2vs0mg"},{"bike_id":"4bab271d-6e4f-47b1-89bb-ad9a8c565b42","system_id":"levelo_inurba_marseille","lat":43.30318,"lon":5.40432,"is_reserved":false,"is_disabled":false,"rental_uris":{"android":"levelo://app?vid=4bab271d-6e4f-47b1-89bb-ad9a8c565b42","ios":"levelo://app?vid=4bab271d-6e4f-47b1-89bb-ad9a8c565b42"},"vehicle_type_id":"4","last_reported":1741939958,"current_range_meters":14400,"station_id":"ce4bh012rcd13ifvqd10","pricing_plan_id":"cebpf4jnsgd1na2vs0mg"},{"bike_id":"853f87d7-f6ef-43fc-9517-58162364c8e1","system_id":"levelo_inurba_marseille","lat":43.26589,"lon":5.39012,"is_reserved":false,"is_disabled":false,"rental_uris":{"android":"levelo://app?vid=853f87d7-f6ef-43fc-9517-58162364c8e1","ios":"levelo://app?vid=853f87d7-f6ef-43fc-9517-58162364c8e1"},"vehicle_type_id":"4","last_reported":1741939958,"current_range_meters":14400,"station_id":"ce4bhe12rcd13ifvqf30","pricing_plan_id":"cebpf4jnsgd1na2vs0mg"},{"bike_id":"51b71709-66e2-4c83-8ce6-a5ca4256e6ff","system_id":"levelo_inurba_marseille","lat":43.23153,"lon":5.43718,"is_reserved":false,"is_disabled":false,"rental_uris":{"android":"levelo://app?vid=51b71709-66e2-4c83-8ce6-a5ca4256e6ff","ios":"levelo://app?vid=51b71709-66e2-4c83-8ce6-a5ca4256e6ff"},"vehicle_type_id":"4","last_reported":1741939958,"current_range_meters":14800,"station_id":"ce4bhmp2rcd13ifvqgog","pricing_plan_id":"cebpf4jnsgd1na2vs0mg"},{"bike_id":"0dd86546-8c6f-4ab9-ab85-d8ae3fac840d","system_id":"levelo_inurba_marseille","lat":43.26964,"lon":5.38613,"is_reserved":false,"is_disabled":false,"rental_uris":{"android":"levelo://app?vid=0dd86546-8c6f-4ab9-ab85-d8ae3fac840d","ios":"levelo://app?vid=0dd86546-8c6f-4ab9-ab85-d8ae3fac840d"},"vehicle_type_id":"4","last_reported":1741939958,"current_range_meters":14400,"station_id":"ce4bhh92rcd13ifvqfh0","pricing_plan_id":"cebpf4jnsgd1na2vs0mg"},{"bike_id":"96f75d47-903c-45ac-ab93-3d63872bfcc8","system_id":"levelo_inurba_marseille","lat":43.27883,"lon":5.38001,"is_reserved":false,"is_disabled":false,"rental_uris":{"android":"levelo://app?vid=96f75d47-903c-45ac-ab93-3d63872bfcc8","ios":"levelo://app?vid=96f75d47-903c-45ac-ab93-3d63872bfcc8"},"vehicle_type_id":"4","last_reported":1741939958,"current_range_meters":14800,"station_id":"ce4bhf92rcd13ifvqf50","pricing_plan_id":"cebpf4jnsgd1na2vs0mg"},{"bike_id":"36e46900-5d64-46db-b770-40186dda1cd7","system_id":"levelo_inurba_marseille","lat":43.29159,"lon":5.37171,"is_reserved":false,"is_disabled":false,"rental_uris":{"android":"levelo://app?vid=36e46900-5d64-46db-b770-40186dda1cd7","ios":"levelo://app?vid=36e46900-5d64-46db-b770-40186dda1cd7"},"vehicle_type_id":"4","last_reported":1741939958,"current_range_meters":14800,"station_id":"ce4bha92rcd13ifvqeh0","pricing_plan_id":"cebpf4jnsgd1na2vs0mg"},{"bike_id":"8eb1a957-a48f-4ea1-9a87-c9ca711e52f4","system_id":"levelo_inurba_marseille","lat":43.31492,"lon":5.37299,"is_reserved":false,"is_disabled":false,"rental_uris":{"android":"levelo://app?vid=8eb1a957-a48f-4ea1-9a87-c9ca711e52f4","ios":"levelo://app?vid=8eb1a957-a48f-4ea1-9a87-c9ca711e52f4"},"vehicle_type_id":"4","last_reported":1741939958,"current_range_meters":14800,"station_id":"ce4bgt12rcd13ifvqcd0","pricing_plan_id":"cebpf4jnsgd1na2vs0mg"},{"bike_id":"676e66c6-8e50-404c-b512-5f94c7d6a8fc","system_id":"levelo_inurba_marseille","lat":43.24161,"lon":5.36402,"is_reserved":false,"is_disabled":false,"rental_uris":{"android":"levelo://app?vid=676e66c6-8e50-404c-b512-5f94c7d6a8fc","ios":"levelo://app?vid=676e66c6-8e50-404c-b512-5f94c7d6a8fc"},"vehicle_type_id":"4","last_reported":1741939958,"current_range_meters":15200,"station_id":"cpo36qri1sfpv3e86is0","pricing_plan_id":"cebpf4jnsgd1na2vs0mg"},{"bike_id":"adb482da-38d1-4356-bb46-d4c16919ef20","system_id":"levelo_inurba_marseille","lat":43.29291,"lon":5.37453,"is_reserved":false,"is_disabled":true,"rental_uris":{"android":"levelo://app?vid=adb482da-38d1-4356-bb46-d4c16919ef20","ios":"levelo://app?vid=adb482da-38d1-4356-bb46-d4c16919ef20"},"vehicle_type_id":"4","last_reported":1741939958,"current_range_meters":15200,"station_id":"ce4bgi12rcd13ifvqb70","pricing_plan_id":"cebpf4jnsgd1na2vs0mg"},{"bike_id":"becda54e-4c9f-47d0-a4d3-7b06ca7ac310","system_id":"levelo_inurba_marseille","lat":43.30953,"lon":5.39036,"is_reserved":false,"is_disabled":false,"rental_uris":{"android":"levelo://app?vid=becda54e-4c9f-47d0-a4d3-7b06ca7ac310","ios":"levelo://app?vid=becda54e-4c9f-47d0-a4d3-7b06ca7ac310"},"vehicle_type_id":"4","last_reported":1741939958,"current_range_meters":15200,"station_id":"ce4bgup2rcd13ifvqco0","pricing_plan_id":"cebpf4jnsgd1na2vs0mg"},{"bike_id":"e0f00ea1-5190-455d-8f01-943045ce62ae","system_id":"levelo_inurba_marseille","lat":43.31168,"lon":5.37736,"is_reserved":false,"is_disabled":false,"rental_uris":{"android":"levelo://app?vid=e0f00ea1-5190-455d-8f01-943045ce62ae","ios":"levelo://app?vid=e0f00ea1-5190-455d-8f01-943045ce62ae"},"vehicle_type_id":"4","last_reported":1741939958,"current_range_meters":15200,"station_id":"","pricing_plan_id":"cebpf4jnsgd1na2vs0mg"},{"bike_id":"ae28b20e-d2e0-4f94-8d48-765b7d930c74","system_id":"levelo_inurba_marseille","lat":43.30154,"lon":5.38077,"is_reserved":false,"is_disabled":false,"rental_uris":{"android":"levelo://app?vid=ae28b20e-d2e0-4f94-8d48-765b7d930c74","ios":"levelo://app?vid=ae28b20e-d2e0-4f94-8d48-765b7d930c74"},"vehicle_type_id":"4","last_reported":1741939958,"current_range_meters":15200,"station_id":"ce4bgjp2rcd13ifvqbh0","pricing_plan_id":"cebpf4jnsgd1na2vs0mg"},{"bike_id":"ed1b1b33-b211-461c-85a7-9bb4731a1d68","system_id":"levelo_inurba_marseille","lat":43.3091,"lon":5.3684,"is_reserved":false,"is_disabled":false,"rental_uris":{"android":"levelo://app?vid=ed1b1b33-b211-461c-85a7-9bb4731a1d68","ios":"levelo://app?vid=ed1b1b33-b211-461c-85a7-9bb4731a1d68"},"vehicle_type_id":"4","last_reported":1741939958,"current_range_meters":16000,"station_id":"ce4bgn92rcd13ifvqbvg","pricing_plan_id":"cebpf4jnsgd1na2vs0mg"},{"bike_id":"772eac88-84d7-4028-b5b2-fd3791ca4bd2","system_id":"levelo_inurba_marseille","lat":43.30476,"lon":5.37906,"is_reserved":false,"is_disabled":false,"rental_uris":{"android":"levelo://app?vid=772eac88-84d7-4028-b5b2-fd3791ca4bd2","ios":"levelo://app?vid=772eac88-84d7-4028-b5b2-fd3791ca4bd2"},"vehicle_type_id":"4","last_reported":1741939958,"current_range_meters":16000,"station_id":"ce4bgup2rcd13ifvqcn0","pricing_plan_id":"cebpf4jnsgd1na2vs0mg"},{"bike_id":"d2c932c3-3291-4f1b-b581-cc3164c2738d","system_id":"levelo_inurba_marseille","lat":43.30466,"lon":5.37901,"is_reserved":false,"is_disabled":false,"rental_uris":{"android":"levelo://app?vid=d2c932c3-3291-4f1b-b581-cc3164c2738d","ios":"levelo://app?vid=d2c932c3-3291-4f1b-b581-cc3164c2738d"},"vehicle_type_id":"4","last_reported":1741939958,"current_range_meters":16000,"station_id":"ce4bgup2rcd13ifvqcn0","pricing_plan_id":"cebpf4jnsgd1na2vs0mg"},{"bike_id":"361374e3-2852-4816-ac88-8f2b426ac655","system_id":"levelo_inurba_marseille","lat":43.30361,"lon":5.38629,"is_reserved":false,"is_disabled":false,"rental_uris":{"android":"levelo://app?vid=361374e3-2852-4816-ac88-8f2b426ac655","ios":"levelo://app?vid=361374e3-2852-4816-ac88-8f2b426ac655"},"vehicle_type_id":"4","last_reported":1741939958,"current_range_meters":16000,"station_id":"ce4bgk12rcd13ifvqbi0","pricing_plan_id":"cebpf4jnsgd1na2vs0mg"},{"bike_id":"7ac836fc-8bfb-4f6d-9ed8-aaa4df0bd855","system_id":"levelo_inurba_marseille","lat":43.323602,"lon":5.388881,"is_reserved":false,"is_disabled":false,"rental_uris":{"android":"levelo://app?vid=7ac836fc-8bfb-4f6d-9ed8-aaa4df0bd855","ios":"levelo://app?vid=7ac836fc-8bfb-4f6d-9ed8-aaa4df0bd855"},"vehicle_type_id":"4","last_reported":1741939958,"current_range_meters":16000,"station_id":"ce4bhqp2rcd13ifvqhog","pricing_plan_id":"cebpf4jnsgd1na2vs0mg"},{"bike_id":"76f8def4-e176-4f99-b97e-8aedc4896c04","system_id":"levelo_inurba_marseille","lat":43.25923,"lon":5.40911,"is_reserved":false,"is_disabled":true,"rental_uris":{"android":"levelo://app?vid=76f8def4-e176-4f99-b97e-8aedc4896c04","ios":"levelo://app?vid=76f8def4-e176-4f99-b97e-8aedc4896c04"},"vehicle_type_id":"4","last_reported":1741939958,"current_range_meters":16000,"station_id":"ce4bhm92rcd13ifvqglg","pricing_plan_id":"cebpf4jnsgd1na2vs0mg"},{"bike_id":"eafd3f63-187d-411c-9ed0-c71a5a92b179","system_id":"levelo_inurba_marseille","lat":43.295837,"lon":5.399784,"is_reserved":false,"is_disabled":false,"rental_uris":{"android":"levelo://app?vid=eafd3f63-187d-411c-9ed0-c71a5a92b179","ios":"levelo://app?vid=eafd3f63-187d-411c-9ed0-c71a5a92b179"},"vehicle_type_id":"4","last_reported":1741939958,"current_range_meters":16000,"station_id":"ce4bhi12rcd13ifvqfp0","pricing_plan_id":"cebpf4jnsgd1na2vs0mg"},{"bike_id":"cef6793a-a9f0-4fc9-a278-b244fe4073b8","system_id":"levelo_inurba_marseille","lat":43.31278,"lon":5.40175,"is_reserved":false,"is_disabled":false,"rental_uris":{"android":"levelo://app?vid=cef6793a-a9f0-4fc9-a278-b244fe4073b8","ios":"levelo://app?vid=cef6793a-a9f0-4fc9-a278-b244fe4073b8"},"vehicle_type_id":"4","last_reported":1741939958,"current_range_meters":16000,"station_id":"ce4bh092rcd13ifvqd30","pricing_plan_id":"cebpf4jnsgd1na2vs0mg"},{"bike_id":"385ae15c-2c3c-4490-a507-5eb20fb883a5","system_id":"levelo_inurba_marseille","lat":43.25937,"lon":5.40898,"is_reserved":false,"is_disabled":false,"rental_uris":{"android":"levelo://app?vid=385ae15c-2c3c-4490-a507-5eb20fb883a5","ios":"levelo://app?vid=385ae15c-2c3c-4490-a507-5eb20fb883a5"},"vehicle_type_id":"4","last_reported":1741939958,"current_range_meters":16000,"station_id":"ce4bhm92rcd13ifvqglg","pricing_plan_id":"cebpf4jnsgd1na2vs0mg"},{"bike_id":"af2b5855-f21f-4585-9d1d-7c002cf2b81c","system_id":"levelo_inurba_marseille","lat":43.27817,"lon":5.40698,"is_reserved":false,"is_disabled":false,"rental_uris":{"android":"levelo://app?vid=af2b5855-f21f-4585-9d1d-7c002cf2b81c","ios":"levelo://app?vid=af2b5855-f21f-4585-9d1d-7c002cf2b81c"},"vehicle_type_id":"4","last_reported":1741939958,"current_range_meters":16000,"station_id":"ce4bhnh2rcd13ifvqgtg","pricing_plan_id":"cebpf4jnsgd1na2vs0mg"},{"bike_id":"6de26fe8-e601-41a4-95fb-a0c7b8125e02","system_id":"levelo_inurba_marseille","lat":43.24072,"lon":5.37741,"is_reserved":false,"is_disabled":false,"rental_uris":{"android":"levelo://app?vid=6de26fe8-e601-41a4-95fb-a0c7b8125e02","ios":"levelo://app?vid=6de26fe8-e601-41a4-95fb-a0c7b8125e02"},"vehicle_type_id":"4","last_reported":1741939958,"current_range_meters":16000,"station_id":"ce4bhnp2rcd13ifvqgvg","pricing_plan_id":"cebpf4jnsgd1na2vs0mg"},{"bike_id":"4f40e8b1-1d2d-4b41-8fb4-f7f4b3a308bc","system_id":"levelo_inurba_marseille","lat":43.283516,"lon":5.381181,"is_reserved":false,"is_disabled":false,"rental_uris":{"android":"levelo://app?vid=4f40e8b1-1d2d-4b41-8fb4-f7f4b3a308bc","ios":"levelo://app?vid=4f40e8b1-1d2d-4b41-8fb4-f7f4b3a308bc"},"vehicle_type_id":"4","last_reported":1741939958,"current_range_meters":16400,"station_id":"ce4bhmp2rcd13ifvqgog","pricing_plan_id":"cebpf4jnsgd1na2vs0mg"},{"bike_id":"cabd3d2d-330e-43b2-8d0b-3e86699f79e1","system_id":"levelo_inurba_marseille","lat":43.24176,"lon":5.36383,"is_reserved":false,"is_disabled":false,"rental_uris":{"android":"levelo://app?vid=cabd3d2d-330e-43b2-8d0b-3e86699f79e1","ios":"levelo://app?vid=cabd3d2d-330e-43b2-8d0b-3e86699f79e1"},"vehicle_type_id":"4","last_reported":1741939958,"current_range_meters":16400,"station_id":"cpo36qri1sfpv3e86is0","pricing_plan_id":"cebpf4jnsgd1na2vs0mg"},{"bike_id":"4180b4fe-21df-4fcb-8ea6-aab5cd961e69","system_id":"levelo_inurba_marseille","lat":43.318998,"lon":5.407486,"is_reserved":false,"is_disabled":true,"rental_uris":{"android":"levelo://app?vid=4180b4fe-21df-4fcb-8ea6-aab5cd961e69","ios":"levelo://app?vid=4180b4fe-21df-4fcb-8ea6-aab5cd961e69"},"vehicle_type_id":"4","last_reported":1741939958,"current_range_meters":16400,"station_id":"ce4bhq12rcd13ifvqhig","pricing_plan_id":"cebpf4jnsgd1na2vs0mg"},{"bike_id":"26f57566-8401-47cb-a532-eb0f8aad38bc","system_id":"levelo_inurba_marseille","lat":43.231934,"lon":5.399806,"is_reserved":false,"is_disabled":false,"rental_uris":{"android":"levelo://app?vid=26f57566-8401-47cb-a532-eb0f8aad38bc","ios":"levelo://app?vid=26f57566-8401-47cb-a532-eb0f8aad38bc"},"vehicle_type_id":"4","last_reported":1741939958,"current_range_meters":16400,"station_id":"ce4bhn12rcd13ifvqgqg","pricing_plan_id":"cebpf4jnsgd1na2vs0mg"},{"bike_id":"c7510278-6244-4acd-aa16-c6914ff86d93","system_id":"levelo_inurba_marseille","lat":43.292,"lon":5.3581,"is_reserved":false,"is_disabled":false,"rental_uris":{"android":"levelo://app?vid=c7510278-6244-4acd-aa16-c6914ff86d93","ios":"levelo://app?vid=c7510278-6244-4acd-aa16-c6914ff86d93"},"vehicle_type_id":"4","last_reported":1741939958,"current_range_meters":16400,"station_id":"ce4bhb12rcd13ifvqel0","pricing_plan_id":"cebpf4jnsgd1na2vs0mg"},{"bike_id":"4baa00c6-39f5-41fe-9e27-1da0334edd88","system_id":"levelo_inurba_marseille","lat":43.304657,"lon":5.388973,"is_reserved":false,"is_disabled":false,"rental_uris":{"android":"levelo://app?vid=4baa00c6-39f5-41fe-9e27-1da0334edd88","ios":"levelo://app?vid=4baa00c6-39f5-41fe-9e27-1da0334edd88"},"vehicle_type_id":"4","last_reported":1741939958,"current_range_meters":16400,"station_id":"ce4bgs92rcd13ifvqcc0","pricing_plan_id":"cebpf4jnsgd1na2vs0mg"},{"bike_id":"6a777f4e-94b4-413f-bd66-4de0a954a7b8","system_id":"levelo_inurba_marseille","lat":43.24123,"lon":5.37852,"is_reserved":false,"is_disabled":false,"rental_uris":{"android":"levelo://app?vid=6a777f4e-94b4-413f-bd66-4de0a954a7b8","ios":"levelo://app?vid=6a777f4e-94b4-413f-bd66-4de0a954a7b8"},"vehicle_type_id":"4","last_reported":1741939958,"current_range_meters":16400,"station_id":"ce4bhnp2rcd13ifvqgvg","pricing_plan_id":"cebpf4jnsgd1na2vs0mg"},{"bike_id":"c6d4f76d-e0ee-4bb4-8c0f-28735d655542","system_id":"levelo_inurba_marseille","lat":43.34142,"lon":5.40899,"is_reserved":false,"is_disabled":false,"rental_uris":{"android":"levelo://app?vid=c6d4f76d-e0ee-4bb4-8c0f-28735d655542","ios":"levelo://app?vid=c6d4f76d-e0ee-4bb4-8c0f-28735d655542"},"vehicle_type_id":"4","last_reported":1741939958,"current_range_meters":16400,"station_id":"ce4bhqh2rcd13ifvqhlg","pricing_plan_id":"cebpf4jnsgd1na2vs0mg"},{"bike_id":"76b5d343-6624-4366-8e6e-f702d50ae492","system_id":"levelo_inurba_marseille","lat":43.2319,"lon":5.35548,"is_reserved":false,"is_disabled":false,"rental_uris":{"android":"levelo://app?vid=76b5d343-6624-4366-8e6e-f702d50ae492","ios":"levelo://app?vid=76b5d343-6624-4366-8e6e-f702d50ae492"},"vehicle_type_id":"4","last_reported":1741939958,"current_range_meters":16800,"station_id":"ce4bhu92rcd13ifvqi70","pricing_plan_id":"cebpf4jnsgd1na2vs0mg"},{"bike_id":"0b7bfdb8-fd03-4687-9225-8085184f929c","system_id":"levelo_inurba_marseille","lat":43.32366,"lon":5.36773,"is_reserved":false,"is_disabled":false,"rental_uris":{"android":"levelo://app?vid=0b7bfdb8-fd03-4687-9225-8085184f929c","ios":"levelo://app?vid=0b7bfdb8-fd03-4687-9225-8085184f929c"},"vehicle_type_id":"4","last_reported":1741939958,"current_range_meters":16800,"station_id":"ce4bhsh2rcd13ifvqi2g","pricing_plan_id":"cebpf4jnsgd1na2vs0mg"},{"bike_id":"df679232-bb09-4b08-9d6d-df3072658bdb","system_id":"levelo_inurba_marseille","lat":43.23154,"lon":5.43706,"is_reserved":false,"is_disabled":false,"rental_uris":{"android":"levelo://app?vid=df679232-bb09-4b08-9d6d-df3072658bdb","ios":"levelo://app?vid=df679232-bb09-4b08-9d6d-df3072658bdb"},"vehicle_type_id":"4","last_reported":1741939958,"current_range_meters":16800,"station_id":"ce4bhmp2rcd13ifvqgog","pricing_plan_id":"cebpf4jnsgd1na2vs0mg"},{"bike_id":"b3345873-10cb-4f31-90b9-d390f8899ddb","system_id":"levelo_inurba_marseille","lat":43.27311,"lon":5.39102,"is_reserved":false,"is_disabled":false,"rental_uris":{"android":"levelo://app?vid=b3345873-10cb-4f31-90b9-d390f8899ddb","ios":"levelo://app?vid=b3345873-10cb-4f31-90b9-d390f8899ddb"},"vehicle_type_id":"4","last_reported":1741939958,"current_range_meters":16800,"station_id":"ce4bhgp2rcd13ifvqfe0","pricing_plan_id":"cebpf4jnsgd1na2vs0mg"},{"bike_id":"96322367-3243-4108-937c-fe7f8df333b5","system_id":"levelo_inurba_marseille","lat":43.26195,"lon":5.37448,"is_reserved":false,"is_disabled":false,"rental_uris":{"android":"levelo://app?vid=96322367-3243-4108-937c-fe7f8df333b5","ios":"levelo://app?vid=96322367-3243-4108-937c-fe7f8df333b5"},"vehicle_type_id":"4","last_reported":1741939958,"current_range_meters":16800,"station_id":"","pricing_plan_id":"cebpf4jnsgd1na2vs0mg"},{"bike_id":"70e74811-5755-462b-971a-5a64a80bde0b","system_id":"levelo_inurba_marseille","lat":43.31097,"lon":5.42455,"is_reserved":false,"is_disabled":false,"rental_uris":{"android":"levelo://app?vid=70e74811-5755-462b-971a-5a64a80bde0b","ios":"levelo://app?vid=70e74811-5755-462b-971a-5a64a80bde0b"},"vehicle_type_id":"4","last_reported":1741939958,"current_range_meters":16800,"station_id":"ce4bhp92rcd13ifvqhag","pricing_plan_id":"cebpf4jnsgd1na2vs0mg"},{"bike_id":"64986549-2c9e-4b9f-8464-f74cc2571bf2","system_id":"levelo_inurba_marseille","lat":43.24053,"lon":5.37669,"is_reserved":false,"is_disabled":false,"rental_uris":{"android":"levelo://app?vid=64986549-2c9e-4b9f-8464-f74cc2571bf2","ios":"levelo://app?vid=64986549-2c9e-4b9f-8464-f74cc2571bf2"},"vehicle_type_id":"4","last_reported":1741939958,"current_range_meters":16800,"station_id":"ce4bhnp2rcd13ifvqgvg","pricing_plan_id":"cebpf4jnsgd1na2vs0mg"},{"bike_id":"0d02d0a4-c250-43cb-9a33-d9e42ea8ad0e","system_id":"levelo_inurba_marseille","lat":43.30544,"lon":5.36716,"is_reserved":false,"is_disabled":false,"rental_uris":{"android":"levelo://app?vid=0d02d0a4-c250-43cb-9a33-d9e42ea8ad0e","ios":"levelo://app?vid=0d02d0a4-c250-43cb-9a33-d9e42ea8ad0e"},"vehicle_type_id":"4","last_reported":1741939958,"current_range_meters":16800,"station_id":"ce4bgrp2rcd13ifvqc9g","pricing_plan_id":"cebpf4jnsgd1na2vs0mg"},{"bike_id":"3fbdbed3-81eb-4ebd-99e8-fe7ae5272906","system_id":"levelo_inurba_marseille","lat":43.258181,"lon":5.394438,"is_reserved":false,"is_disabled":false,"rental_uris":{"android":"levelo://app?vid=3fbdbed3-81eb-4ebd-99e8-fe7ae5272906","ios":"levelo://app?vid=3fbdbed3-81eb-4ebd-99e8-fe7ae5272906"},"vehicle_type_id":"4","last_reported":1741939958,"current_range_meters":16800,"station_id":"ce4bhip2rcd13ifvqft0","pricing_plan_id":"cebpf4jnsgd1na2vs0mg"},{"bike_id":"a5754c81-27ee-47e9-be63-a995b35825b5","system_id":"levelo_inurba_marseille","lat":43.298729,"lon":5.389151,"is_reserved":false,"is_disabled":true,"rental_uris":{"android":"levelo://app?vid=a5754c81-27ee-47e9-be63-a995b35825b5","ios":"levelo://app?vid=a5754c81-27ee-47e9-be63-a995b35825b5"},"vehicle_type_id":"4","last_reported":1741939958,"current_range_meters":17200,"station_id":"ce4bh392rcd13ifvqdl0","pricing_plan_id":"cebpf4jnsgd1na2vs0mg"},