{"last_updated":1687468028,"ttl":30,"version":"2.2","data":{"bikes":[{"bike_id":"5dc666bf-f148-4c4d-ae39-69fe1328a441","system_id":"levelo_inurba_marseille","lat":43.31341,"lon":5.367098,"is_reserved":false,"is_disabled":false,"rental_uris":{"android":"levelo://app?vid=5dc666bf-f148-4c4d-ae39-69fe1328a441","ios":"levelo://app?vid=5dc666bf-f148-4c4d-ae39-69fe1328a441"},"vehicle_type_id":"4","last_reported":1687468029,"current_range_meters":30400,"station_id":"ce4bgr92rcd13ifvqc6g","pricing_plan_id":"free"},{"bike_id":"4953f328-3844-4770-9687-adbaf569325c","system_id":"levelo_inurba_marseille","lat":43.31341,"lon":5.367098,"is_reserved":false,"is_disabled":false,"rental_uris":{"android":"levelo://app?vid=4953f328-3844-4770-9687-adbaf569325c","ios":"levelo://app?vid=4953f328-3844-4770-9687-adbaf569325c"},"vehicle_type_id":"4","last_reported":1687468029,"current_range_meters":30000,"station_id":"ce4bgr92rcd13ifvqc6g","pricing_plan_id":"free"},{"bike_id":"15c62054-955a-4820-982e-5c2322ea45bf","system_id":"levelo_inurba_marseille","lat":43.313391,"lon":5.36706,"is_reserved":false,"is_disabled":false,"rental_uris":{"android":"levelo://app?vid=15c62054-955a-4820-982e-5c2322ea45bf","ios":"levelo://app?vid=15c62054-955a-4820-982e-5c2322ea45bf"},"vehicle_type_id":"4","last_reported":1687468029,"current_range_meters":20400,"station_id":"ce4bgr92rcd13ifvqc6g","pricing_plan_id":"free"},{"bike_id":"442277db-a1b1-404f-99ca-4e553a79746d","system_id":"levelo_inurba_marseille","lat":43.31341,"lon":5.367098,"is_reserved":false,"is_disabled":false,"rental_uris":{"android":"levelo://app?vid=442277db-a1b1-404f-99ca-4e553a79746d","ios":"levelo://app?vid=442277db-a1b1-404f-99ca-4e553a79746d"},"vehicle_type_id":"4","last_reported":1687468029,"current_range_meters":31200,"station_id":"ce4bgr92rcd13ifvqc6g","pricing_plan_id":"free"},{"bike_id":"d4332dc1-ca7f-47c1-8251-6fc28249a3b4","system_id":"levelo_inurba_marseille","lat":43.313391,"lon":5.36706,"is_reserved":false,"is_disabled":false,"rental_uris":{"android":"levelo://app?vid=d4332dc1-ca7f-47c1-8251-6fc28249a3b4","ios":"levelo://app?vid=d4332dc1-ca7f-47c1-8251-6fc28249a3b4"},"vehicle_type_id":"4","last_reported":1687468029,"current_range_meters":31600,"station_id":"ce4bgr92rcd13ifvqc6g","pricing_plan_id":"free"},{"bike_id":"6af3ddd3-abe5-4014-930d-8bc2eb738f55","system_id":"levelo_inurba_marseille","lat":43.31341,"lon":5.367098,"is_reserved":false,"is_disabled":false,"rental_uris":{"android":"levelo://app?vid=6af3ddd3-abe5-4014-930d-8bc2eb738f55","ios":"levelo://app?vid=6af3ddd3-abe5-4014-930d-8bc2eb738f55"},"vehicle_type_id":"4","last_reported":1687468029,"current_range_meters":30400,"station_id":"ce4bgr92rcd13ifvqc6g","pricing_plan_id":"free"},{"bike_id":"0550341a-124c-4d98-bbe2-ecab3fc28f99","system_id":"levelo_inurba_marseille","lat":43.313391,"lon":5.36706,"is_reserved":false,"is_disabled":false,"rental_uris":{"android":"levelo://app?vid=0550341a-124c-4d98-bbe2-ecab3fc28f99","ios":"levelo://app?vid=0550341a-124c-4d98-bbe2-ecab3fc28f99"},"vehicle_type_id":"4","last_reported":1687468029,"current_range_meters":31600,"station_id":"ce4bgr92rcd13ifvqc6g","pricing_plan_id":"free"},{"bike_id":"561dae15-b950-41f4-8280-62512ee198df","system_id":"levelo_inurba_marseille","lat":43.313391,"lon":5.36706,"is_reserved":false,"is_disabled":false,"rental_uris":{"android":"levelo://app?vid=561dae15-b950-41f4-8280-62512ee198df","ios":"levelo://app?vid=561dae15-b950-41f4-8280-62512ee198df"},"vehicle_type_id":"4","last_reported":1687468029,"current_range_meters":0,"station_id":"ce4bgr92rcd13ifvqc6g","pricing_plan_id":"free"},{"bike_id":"d1610b45-a14f-49af-89b4-fed81ad1391e","system_id":"levelo_inurba_marseille","lat":43.313391,"lon":5.36706,"is_reserved":false,"is_disabled":false,"rental_uris":{"android":"levelo://app?vid=d1610b45-a14f-49af-89b4-fed81ad1391e","ios":"levelo://app?vid=d1610b45-a14f-49af-89b4-fed81ad1391e"},"vehicle_type_id":"4","last_reported":1687468029,"current_range_meters":29200,"station_id":"ce4bgr92rcd13ifvqc6g","pricing_plan_id":"free"},{"bike_id":"e174d5f0-b6c8-4dda-a820-d2e61e69de13","system_id":"levelo_inurba_marseille","lat":43.31341,"lon":5.367098,"is_reserved":false,"is_disabled":false,"rental_uris":{"android":"levelo://app?vid=e174d5f0-b6c8-4dda-a820-d2e61e69de13","ios":"levelo://app?vid=e174d5f0-b6c8-4dda-a820-d2e61e69de13"},"vehicle_type_id":"4","last_reported":1687468029,"current_range_meters":30400,"station_id":"ce4bgr92rcd13ifvqc6g","pricing_plan_id":"free"},{"bike_id":"da440e86-19a8-4aa4-8fb4-b80d05faee49","system_id":"levelo_inurba_marseille","lat":43.312239,"lon":5.368562,"is_reserved":false,"is_disabled":false,"rental_uris":{"android":"levelo://app?vid=da440e86-19a8-4aa4-8fb4-b80d05faee49","ios":"levelo://app?vid=da440e86-19a8-4aa4-8fb4-b80d05faee49"},"vehicle_type_id":"4","last_reported":1687468029,"current_range_meters":28000,"station_id":"ce4bgl92rcd13ifvqbq0","pricing_plan_id":"free"},{"bike_id":"d6f08658-bbc0-4d43-bd05-7a2d426a4583","system_id":"levelo_inurba_marseille","lat":43.312239,"lon":5.368562,"is_reserved":false,"is_disabled":false,"rental_uris":{"android":"levelo://app?vid=d6f08658-bbc0-4d43-bd05-7a2d426a4583","ios":"levelo://app?vid=d6f08658-bbc0-4d43-bd05-7a2d426a4583"},"vehicle_type_id":"4","last_reported":1687468029,"current_range_meters":10000,"station_id":"ce4bgl92rcd13ifvqbq0","pricing_plan_id":"free"},{"bike_id":"5a82247f-0294-41bb-baa7-39331108a748","system_id":"levelo_inurba_marseille","lat":43.312239,"lon":5.368562,"is_reserved":false,"is_disabled":false,"rental_uris":{"android":"levelo://app?vid=5a82247f-0294-41bb-baa7-39331108a748","ios":"levelo://app?vid=5a82247f-0294-41bb-baa7-39331108a748"},"vehicle_type_id":"4","last_reported":1687468029,"current_range_meters":4400,"station_id":"ce4bgl92rcd13ifvqbq0","pricing_plan_id":"free"},{"bike_id":"0a42b7db-1647-4394-9f58-098e8d692d66","system_id":"levelo_inurba_marseille","lat":43.312239,"lon":5.368562,"is_reserved":false,"is_disabled":false,"rental_uris":{"android":"levelo://app?vid=0a42b7db-1647-4394-9f58-098e8d692d66","ios":"levelo://app?vid=0a42b7db-1647-4394-9f58-098e8d692d66"},"vehicle_type_id":"4","last_reported":1687468029,"current_range_meters":30000,"station_id":"ce4bgl92rcd13ifvqbq0","pricing_plan_id":"free"},{"bike_id":"6077385d-d5e9-40fb-b969-818a094a8c18","system_id":"levelo_inurba_marseille","lat":43.312239,"lon":5.368562,"is_reserved":false,"is_disabled":false,"rental_uris":{"android":"levelo://app?vid=6077385d-d5e9-40fb-b969-818a094a8c18","ios":"levelo://app?vid=6077385d-d5e9-40fb-b969-818a094a8c18"},"vehicle_type_id":"4","last_reported":1687468029,"current_range_meters":30400,"station_id":"ce4bgl92rcd13ifvqbq0","pricing_plan_id":"free"},{"bike_id":"23b94c24-41f9-4a4a-94e9-9681cfeef2a0","system_id":"levelo_inurba_marseille","lat":43.309076,"lon":5.368465,"is_reserved":false,"is_disabled":false,"rental_uris":{"android":"levelo://app?vid=23b94c24-41f9-4a4a-94e9-9681cfeef2a0","ios":"levelo://app?vid=23b94c24-41f9-4a4a-94e9-9681cfeef2a0"},"vehicle_type_id":"4","last_reported":1687468029,"current_range_meters":26400,"station_id":"ce4bgn92rcd13ifvqbvg","pricing_plan_id":"free"},{"bike_id":"426efe8d-d974-40ba-9a46-234f7ca01b29","system_id":"levelo_inurba_marseille","lat":43.309076,"lon":5.368465,"is_reserved":false,"is_disabled":false,"rental_uris":{"android":"levelo://app?vid=426efe8d-d974-40ba-9a46-234f7ca01b29","ios":"levelo://app?vid=426efe8d-d974-40ba-9a46-234f7ca01b29"},"vehicle_type_id":"4","last_reported":1687468029,"current_range_meters":22000,"station_id":"ce4bgn92rcd13ifvqbvg","pricing_plan_id":"free"},{"bike_id":"58bf4e49-fe0f-4728-9bc4-9434ec6d9fd3","system_id":"levelo_inurba_marseille","lat":43.314811,"lon":5.373103,"is_reserved":false,"is_disabled":false,"rental_uris":{"android":"levelo://app?vid=58bf4e49-fe0f-4728-9bc4-9434ec6d9fd3","ios":"levelo://app?vid=58bf4e49-fe0f-4728-9bc4-9434ec6d9fd3"},"vehicle_type_id":"4","last_reported":1687468029,"current_range_meters":1600,"station_id":"ce4bgt12rcd13ifvqcd0","pricing_plan_id":"free"},{"bike_id":"bf5e2e61-6eb6-4b20-af42-e284a7be0669","system_id":"levelo_inurba_marseille","lat":43.314811,"lon":5.373103,"is_reserved":false,"is_disabled":false,"rental_uris":{"android":"levelo://app?vid=bf5e2e61-6eb6-4b20-af42-e284a7be0669","ios":"levelo://app?vid=bf5e2e61-6eb6-4b20-af42-e284a7be0669"},"vehicle_type_id":"4","last_reported":1687468029,"current_range_meters":18800,"station_id":"ce4bgt12rcd13ifvqcd0","pricing_plan_id":"free"},{"bike_id":"57494120-9713-440a-909d-3abd8629cdf9","system_id":"levelo_inurba_marseille","lat":43.314811,"lon":5.373104,"is_reserved":false,"is_disabled":false,"rental_uris":{"android":"levelo://app?vid=57494120-9713-440a-909d-3abd8629cdf9","ios":"levelo://app?vid=57494120-9713-440a-909d-3abd8629cdf9"},"vehicle_type_id":"4","last_reported":1687468029,"current_range_meters":13600,"station_id":"ce4bgt12rcd13ifvqcd0","pricing_plan_id":"free"},{"bike_id":"077012c0-327a-41b7-a149-1df98069d09b","system_id":"levelo_inurba_marseille","lat":43.31529,"lon":5.37304,"is_reserved":false,"is_disabled":false,"rental_uris":{"android":"levelo://app?vid=077012c0-327a-41b7-a149-1df98069d09b","ios":"levelo://app?vid=077012c0-327a-41b7-a149-1df98069d09b"},"vehicle_type_id":"4","last_reported":1687468029,"current_range_meters":30000,"station_id":"","pricing_plan_id":"free"},{"bike_id":"ab32dd18-283b-4cae-8e2d-e2ced9b6f62c","system_id":"levelo_inurba_marseille","lat":43.308606,"lon":5.372099,"is_reserved":false,"is_disabled":false,"rental_uris":{"android":"levelo://app?vid=ab32dd18-283b-4cae-8e2d-e2ced9b6f62c","ios":"levelo://app?vid=ab32dd18-283b-4cae-8e2d-e2ced9b6f62c"},"vehicle_type_id":"4","last_reported":1687468029,"current_range_meters":12400,"station_id":"ce4bguh2rcd13ifvqckg","pricing_plan_id":"free"},{"bike_id":"e9c4accd-8d38-4929-8890-93bc25cdc726","system_id":"levelo_inurba_marseille","lat":43.308606,"lon":5.372099,"is_reserved":false,"is_disabled":false,"rental_uris":{"android":"levelo://app?vid=e9c4accd-8d38-4929-8890-93bc25cdc726","ios":"levelo://app?vid=e9c4accd-8d38-4929-8890-93bc25cdc726"},"vehicle_type_id":"4","last_reported":1687468029,"current_range_meters":4800,"station_id":"ce4bguh2rcd13ifvqckg","pricing_plan_id":"free"},{"bike_id":"af02ffe4-83be-4055-b1c3-8ac53b1a8109","system_id":"levelo_inurba_marseille","lat":43.308606,"lon":5.372099,"is_reserved":false,"is_disabled":false,"rental_uris":{"android":"levelo://app?vid=af02ffe4-83be-4055-b1c3-8ac53b1a8109","ios":"levelo://app?vid=af02ffe4-83be-4055-b1c3-8ac53b1a8109"},"vehicle_type_id":"4","last_reported":1687468029,"current_range_meters":30400,"station_id":"ce4bguh2rcd13ifvqckg","pricing_plan_id":"free"},{"bike_id":"c3610902-2320-4ea2-8400-93e1886aff54","system_id":"levelo_inurba_marseille","lat":43.305368,"lon":5.367343,"is_reserved":false,"is_disabled":false,"rental_uris":{"android":"levelo://app?vid=c3610902-2320-4ea2-8400-93e1886aff54","ios":"levelo://app?vid=c3610902-2320-4ea2-8400-93e1886aff54"},"vehicle_type_id":"4","last_reported":1687468029,"current_range_meters":4000,"station_id":"ce4bgrp2rcd13ifvqc9g","pricing_plan_id":"free"},{"bike_id":"282f2da9-7c43-445e-ab23-0da4b5ea2d52","system_id":"levelo_inurba_marseille","lat":43.305368,"lon":5.367343,"is_reserved":false,"is_disabled":false,"rental_uris":{"android":"levelo://app?vid=282f2da9-7c43-445e-ab23-0da4b5ea2d52","ios":"levelo://app?vid=282f2da9-7c43-445e-ab23-0da4b5ea2d52"},"vehicle_type_id":"4","last_reported":1687468029,"current_range_meters":31200,"station_id":"ce4bgrp2rcd13ifvqc9g","pricing_plan_id":"free"},{"bike_id":"84da25e6-bd5a-403e-be3d-7f56957e7cf4","system_id":"levelo_inurba_marseille","lat":43.305714,"lon":5.365633,"is_reserved":false,"is_disabled":false,"rental_uris":{"android":"levelo://app?vid=84da25e6-bd5a-403e-be3d-7f56957e7cf4","ios":"levelo://app?vid=84da25e6-bd5a-403e-be3d-7f56957e7cf4"},"vehicle_type_id":"4","last_reported":1687468029,"current_range_meters":30400,"station_id":"ce4bgs12rcd13ifvqcag","pricing_plan_id":"free"},{"bike_id":"beff9f62-57af-43b2-8e4c-9107d21f339b","system_id":"levelo_inurba_marseille","lat":43.305714,"lon":5.365633,"is_reserved":false,"is_disabled":false,"rental_uris":{"android":"levelo://app?vid=beff9f62-57af-43b2-8e4c-9107d21f339b","ios":"levelo://app?vid=beff9f62-57af-43b2-8e4c-9107d21f339b"},"vehicle_type_id":"4","last_reported":1687468029,"current_range_meters":31200,"station_id":"ce4bgs12rcd13ifvqcag","pricing_plan_id":"free"},{"bike_id":"e287c519-f7ff-4216-8699-08af7b3f2ebb","system_id":"levelo_inurba_marseille","lat":43.305714,"lon":5.365633,"is_reserved":false,"is_disabled":false,"rental_uris":{"android":"levelo://app?vid=e287c519-f7ff-4216-8699-08af7b3f2ebb","ios":"levelo://app?vid=e287c519-f7ff-4216-8699-08af7b3f2ebb"},"vehicle_type_id":"4","last_reported":1687468029,"current_range_meters":26400,"station_id":"ce4bgs12rcd13ifvqcag","pricing_plan_id":"free"},{"bike_id":"aa530678-7b8c-4961-aec3-11e6ec677b01","system_id":"levelo_inurba_marseille","lat":43.305714,"lon":5.365633,"is_reserved":false,"is_disabled":false,"rental_uris":{"android":"levelo://app?vid=aa530678-7b8c-4961-aec3-11e6ec677b01","ios":"levelo://app?vid=aa530678-7b8c-4961-aec3-11e6ec677b01"},"vehicle_type_id":"4","last_reported":1687468029,"current_range_meters":31200,"station_id":"ce4bgs12rcd13ifvqcag","pricing_plan_id":"free"},{"bike_id":"dacd09ba-bfc8-4199-9dd8-1d0bc0d56fb6","system_id":"levelo_inurba_marseille","lat":43.305989,"lon":5.37225,"is_reserved":false,"is_disabled":false,"rental_uris":{"android":"levelo://app?vid=dacd09ba-bfc8-4199-9dd8-1d0bc0d56fb6","ios":"levelo://app?vid=dacd09ba-bfc8-4199-9dd8-1d0bc0d56fb6"},"vehicle_type_id":"4","last_reported":1687468029,"current_range_meters":0,"station_id":"ce4bgqh2rcd13ifvqc4g","pricing_plan_id":"free"},{"bike_id":"f9ade24b-5b28-4af0-a297-c736b45fa53e","system_id":"levelo_inurba_marseille","lat":43.305989,"lon":5.37225,"is_reserved":false,"is_disabled":false,"rental_uris":{"android":"levelo://app?vid=f9ade24b-5b28-4af0-a297-c736b45fa53e","ios":"levelo://app?vid=f9ade24b-5b28-4af0-a297-c736b45fa53e"},"vehicle_type_id":"4","last_reported":1687468029,"current_range_meters":28800,"station_id":"ce4bgqh2rcd13ifvqc4g","pricing_plan_id":"free"},{"bike_id":"f42ddf2e-d90d-4c70-a070-796e1be0311f","system_id":"levelo_inurba_marseille","lat":43.305989,"lon":5.37225,"is_reserved":false,"is_disabled":false,"rental_uris":{"android":"levelo://app?vid=f42ddf2e-d90d-4c70-a070-796e1be0311f","ios":"levelo://app?vid=f42ddf2e-d90d-4c70-a070-796e1be0311f"},"vehicle_type_id":"4","last_reported":1687468029,"current_range_meters":4000,"station_id":"ce4bgqh2rcd13ifvqc4g","pricing_plan_id":"free"},{"bike_id":"2fec8dab-bb3e-4ac7-8b3c-4025e1ebff09","system_id":"levelo_inurba_marseille","lat":43.305989,"lon":5.37225,"is_reserved":false,"is_disabled":false,"rental_uris":{"android":"levelo://app?vid=2fec8dab-bb3e-4ac7-8b3c-4025e1ebff09","ios":"levelo://app?vid=2fec8dab-bb3e-4ac7-8b3c-4025e1ebff09"},"vehicle_type_id":"4","last_reported":1687468029,"current_range_meters":0,"station_id":"ce4bgqh2rcd13ifvqc4g","pricing_plan_id":"free"},{"bike_id":"819a209d-9422-467b-9c78-f4d3dd027db9","system_id":"levelo_inurba_marseille","lat":43.305989,"lon":5.37225,"is_reserved":false,"is_disabled":false,"rental_uris":{"android":"levelo://app?vid=819a209d-9422-467b-9c78-f4d3dd027db9","ios":"levelo://app?vid=819a209d-9422-467b-9c78-f4d3dd027db9"},"vehicle_type_id":"4","last_reported":1687468029,"current_range_meters":31200,"station_id":"ce4bgqh2rcd13ifvqc4g","pricing_plan_id":"free"},{"bike_id":"afa7e078-0434-4921-8119-206a4f656a19","system_id":"levelo_inurba_marseille","lat":43.305989,"lon":5.37225,"is_reserved":false,"is_disabled":false,"rental_uris":{"android":"levelo://app?vid=afa7e078-0434-4921-8119-206a4f656a19","ios":"levelo://app?vid=afa7e078-0434-4921-8119-206a4f656a19"},"vehicle_type_id":"4","last_reported":1687468029,"current_range_meters":24400,"station_id":"ce4bgqh2rcd13ifvqc4g","pricing_plan_id":"free"},{"bike_id":"65ad55ff-f341-4a01-adb0-5a3db0e7822b","system_id":"levelo_inurba_marseille","lat":43.311131,"lon":5.377651,"is_reserved":false,"is_disabled":false,"rental_uris":{"android":"levelo://app?vid=65ad55ff-f341-4a01-adb0-5a3db0e7822b","ios":"levelo://app?vid=65ad55ff-f341-4a01-adb0-5a3db0e7822b"},"vehicle_type_id":"4","last_reported":1687468029,"current_range_meters":4800,"station_id":"ce4bgt92rcd13ifvqcg0","pricing_plan_id":"free"},{"bike_id":"68169c14-9892-436a-bf67-597550e3fa01","system_id":"levelo_inurba_marseille","lat":43.311125,"lon":5.377624,"is_reserved":false,"is_disabled":false,"rental_uris":{"android":"levelo://app?vid=68169c14-9892-436a-bf67-597550e3fa01","ios":"levelo://app?vid=68169c14-9892-436a-bf67-597550e3fa01"},"vehicle_type_id":"4","last_reported":1687468029,"current_range_meters":28000,"station_id":"ce4bgt92rcd13ifvqcg0","pricing_plan_id":"free"},{"bike_id":"4e58f1fe-62c3-4f4c-b07c-8d7375f42843","system_id":"levelo_inurba_marseille","lat":43.317075,"lon":5.377367,"is_reserved":false,"is_disabled":false,"rental_uris":{"android":"levelo://app?vid=4e58f1fe-62c3-4f4c-b07c-8d7375f42843","ios":"levelo://app?vid=4e58f1fe-62c3-4f4c-b07c-8d7375f42843"},"vehicle_type_id":"4","last_reported":1687468029,"current_range_meters":19600,"station_id":"ce4bgth2rcd13ifvqch0","pricing_plan_id":"free"},{"bike_id":"ff62f17a-b33a-4386-8011-c3471a978524","system_id":"levelo_inurba_marseille","lat":43.31077,"lon":5.37854,"is_reserved":false,"is_disabled":false,"rental_uris":{"android":"levelo://app?vid=ff62f17a-b33a-4386-8011-c3471a978524","ios":"levelo://app?vid=ff62f17a-b33a-4386-8011-c3471a978524"},"vehicle_type_id":"4","last_reported":1687468029,"current_range_meters":26400,"station_id":"","pricing_plan_id":"free"},{"bike_id":"2cebafeb-12a0-4cb6-83ce-4e34dcefc158","system_id":"levelo_inurba_marseille","lat":43.317075,"lon":5.377367,"is_reserved":false,"is_disabled":false,"rental_uris":{"android":"levelo://app?vid=2cebafeb-12a0-4cb6-83ce-4e34dcefc158","ios":"levelo://app?vid=2cebafeb-12a0-4cb6-83ce-4e34dcefc158"},"vehicle_type_id":"4","last_reported":1687468029,"current_range_meters":31600,"station_id":"ce4bgth2rcd13ifvqch0","pricing_plan_id":"free"},{"bike_id":"ff10af4e-ed79-41b9-a171-372351c144ba","system_id":"levelo_inurba_marseille","lat":43.317075,"lon":5.377367,"is_reserved":false,"is_disabled":false,"rental_uris":{"android":"levelo://app?vid=ff10af4e-ed79-41b9-a171-372351c144ba","ios":"levelo://app?vid=ff10af4e-ed79-41b9-a171-372351c144ba"},"vehicle_type_id":"4","last_reported":1687468029,"current_range_meters":31200,"station_id":"ce4bgth2rcd13ifvqch0","pricing_plan_id":"free"},{"bike_id":"5a2c5773-c111-40a7-b11c-7ea18ddce7e4","system_id":"levelo_inurba_marseille","lat":43.309226,"lon":5.378421,"is_reserved":false,"is_disabled":false,"rental_uris":{"android":"levelo://app?vid=5a2c5773-c111-40a7-b11c-7ea18ddce7e4","ios":"levelo://app?vid=5a2c5773-c111-40a7-b11c-7ea18ddce7e4"},"vehicle_type_id":"4","last_reported":1687468029,"current_range_meters":18800,"station_id":"","pricing_plan_id":"free"},{"bike_id":"939ece2c-d2dd-4871-858d-d2e049a86546","system_id":"levelo_inurba_marseille","lat":43.303046,"lon":5.368981,"is_reserved":false,"is_disabled":false,"rental_uris":{"android":"levelo://app?vid=939ece2c-d2dd-4871-858d-d2e049a86546","ios":"levelo://app?vid=939ece2c-d2dd-4871-858d-d2e049a86546"},"vehicle_type_id":"4","last_reported":1687468029,"current_range_meters":26400,"station_id":"ce4bgqh2rcd13ifvqc5g","pricing_plan_id":"free"},{"bike_id":"85b3b48e-405e-4119-a899-0a31f2d7a38a","system_id":"levelo_inurba_marseille","lat":43.303046,"lon":5.368981,"is_reserved":false,"is_disabled":false,"rental_uris":{"android":"levelo://app?vid=85b3b48e-405e-4119-a899-0a31f2d7a38a","ios":"levelo://app?vid=85b3b48e-405e-4119-a899-0a31f2d7a38a"},"vehicle_type_id":"4","last_reported":1687468029,"current_range_meters":9600,"station_id":"ce4bgqh2rcd13ifvqc5g","pricing_plan_id":"free"},{"bike_id":"676544c1-d089-4ff3-ac82-440502e7e765","system_id":"levelo_inurba_marseille","lat":43.31533,"lon":5.3802,"is_reserved":false,"is_disabled":false,"rental_uris":{"android":"levelo://app?vid=676544c1-d089-4ff3-ac82-440502e7e765","ios":"levelo://app?vid=676544c1-d089-4ff3-ac82-440502e7e765"},"vehicle_type_id":"4","last_reported":1687468029,"current_range_meters":27600,"station_id":"ce4bhsp2rcd13ifvqi50","pricing_plan_id":"free"},{"bike_id":"0c447397-0460-4150-bc9f-74212cbe845b","system_id":"levelo_inurba_marseille","lat":43.301939,"lon":5.366286,"is_reserved":false,"is_disabled":false,"rental_uris":{"android":"levelo://app?vid=0c447397-0460-4150-bc9f-74212cbe845b","ios":"levelo://app?vid=0c447397-0460-4150-bc9f-74212cbe845b"},"vehicle_type_id":"4","last_reported":1687468029,"current_range_meters":16000,"station_id":"ce4bgrh2rcd13ifvqc8g","pricing_plan_id":"free"},{"bike_id":"0c7a4e54-f929-4a78-b3e7-2db32b1a6ff4","system_id":"levelo_inurba_marseille","lat":43.301939,"lon":5.366286,"is_reserved":false,"is_disabled":false,"rental_uris":{"android":"levelo://app?vid=0c7a4e54-f929-4a78-b3e7-2db32b1a6ff4","ios":"levelo://app?vid=0c7a4e54-f929-4a78-b3e7-2db32b1a6ff4"},"vehicle_type_id":"4","last_reported":1687468029,"current_range_meters":0,"station_id":"ce4bgrh2rcd13ifvqc8g","pricing_plan_id":"free"},{"bike_id":"3fa4d885-48c6-4e27-a7d2-dcae5aacd676","system_id":"levelo_inurba_marseille","lat":43.301939,"lon":5.366286,"is_reserved":false,"is_disabled":false,"rental_uris":{"android":"levelo://app?vid=3fa4d885-48c6-4e27-a7d2-dcae5aacd676","ios":"levelo://app?vid=3fa4d885-48c6-4e27-a7d2-dcae5aacd676"},"vehicle_type_id":"4","last_reported":1687468029,"current_range_meters":12000,"station_id":"ce4bgrh2rcd13ifvqc8g","pricing_plan_id":"free"},{"bike_id":"c98c824a-5a21-41d7-a2b3-cfad705b7985","system_id":"levelo_inurba_marseille","lat":43.292642,"lon":5.384254,"is_reserved":false,"is_disabled":false,"rental_uris":{"android":"levelo://app?vid=c98c824a-5a21-41d7-a2b3-cfad705b7985","ios":"levelo://app?vid=c98c824a-5a21-41d7-a2b3-cfad705b7985"},"vehicle_type_id":"4","last_reported":1687468029,"current_range_meters":1200,"station_id":"ce4bh692rcd13ifvqea0","pricing_plan_id":"free"},{"bike_id":"8f878ab0-0082-40de-8efa-9ade1601c819","system_id":"levelo_inurba_marseille","lat":43.30795,"lon":5.38163,"is_reserved":false,"is_disabled":false,"rental_uris":{"android":"levelo://app?vid=8f878ab0-0082-40de-8efa-9ade1601c819","ios":"levelo://app?vid=8f878ab0-0082-40de-8efa-9ade1601c819"},"vehicle_type_id":"4","last_reported":1687468029,"current_range_meters":29200,"station_id":"","pricing_plan_id":"free"},{"bike_id":"993e3749-285a-40f8-abd1-49b8d5a086d7","system_id":"levelo_inurba_marseille","lat":43.308012,"lon":5.381511,"is_reserved":false,"is_disabled":false,"rental_uris":{"android":"levelo://app?vid=993e3749-285a-40f8-abd1-49b8d5a086d7","ios":"levelo://app?vid=993e3749-285a-40f8-abd1-49b8d5a086d7"},"vehicle_type_id":"4","last_reported":1687468029,"current_range_meters":15600,"station_id":"ce4bgt12rcd13ifvqce0","pricing_plan_id":"free"},{"bike_id":"43fc693e-f2a9-4aec-8fd9-d094bb02cb70","system_id":"levelo_inurba_marseille","lat":43.304606,"lon":5.379026,"is_reserved":false,"is_disabled":false,"rental_uris":{"android":"levelo://app?vid=43fc693e-f2a9-4aec-8fd9-d094bb02cb70","ios":"levelo://app?vid=43fc693e-f2a9-4aec-8fd9-d094bb02cb70"},"vehicle_type_id":"4","last_reported":1687468029,"current_range_meters":800,"station_id":"ce4bgup2rcd13ifvqcn0","pricing_plan_id":"free"},{"bike_id":"b9dfd7af-7f58-47b5-b3ea-8b8102cc9aa9","system_id":"levelo_inurba_marseille","lat":43.30144,"lon":5.37407,"is_reserved":false,"is_disabled":false,"rental_uris":{"android":"levelo://app?vid=b9dfd7af-7f58-47b5-b3ea-8b8102cc9aa9","ios":"levelo://app?vid=b9dfd7af-7f58-47b5-b3ea-8b8102cc9aa9"},"vehicle_type_id":"4","last_reported":1687468029,"current_range_meters":17200,"station_id":"ce4bgs92rcd13ifvqcc0","pricing_plan_id":"free"},{"bike_id":"33d3b4c6-bdb5-451c-a7e1-c3fc1a80becf","system_id":"levelo_inurba_marseille","lat":43.30143,"lon":5.37411,"is_reserved":false,"is_disabled":false,"rental_uris":{"android":"levelo://app?vid=33d3b4c6-bdb5-451c-a7e1-c3fc1a80becf","ios":"levelo://app?vid=33d3b4c6-bdb5-451c-a7e1-c3fc1a80becf"},"vehicle_type_id":"4","last_reported":1687468029,"current_range_meters":8000,"station_id":"ce4bgs92rcd13ifvqcc0","pricing_plan_id":"free"},{"bike_id":"13f6eef6-3c61-436a-ae50-d70483983bba","system_id":"levelo_inurba_marseille","lat":43.30141,"lon":5.37417,"is_reserved":false,"is_disabled":false,"rental_uris":{"android":"levelo://app?vid=13f6eef6-3c61-436a-ae50-d70483983bba","ios":"levelo://app?vid=13f6eef6-3c61-436a-ae50-d70483983bba"},"vehicle_type_id":"4","last_reported":1687468029,"current_range_meters":24800,"station_id":"ce4bgs92rcd13ifvqcc0","pricing_plan_id":"free"},{"bike_id":"7deee56c-9315-446d-9bb0-655b3a7b2977","system_id":"levelo_inurba_marseille","lat":43.319935,"lon":5.381699,"is_reserved":false,"is_disabled":false,"rental_uris":{"android":"levelo://app?vid=7deee56c-9315-446d-9bb0-655b3a7b2977","ios":"levelo://app?vid=7deee56c-9315-446d-9bb0-655b3a7b2977"},"vehicle_type_id":"4","last_reported":1687468029,"current_range_meters":3200,"station_id":"ce4bhr12rcd13ifvqhpg","pricing_plan_id":"free"},{"bike_id":"dd0223fc-e3b2-4277-9a36-68031be99e8b","system_id":"levelo_inurba_marseille","lat":43.319935,"lon":5.381699,"is_reserved":false,"is_disabled":false,"rental_uris":{"android":"levelo://app?vid=dd0223fc-e3b2-4277-9a36-68031be99e8b","ios":"levelo://app?vid=dd0223fc-e3b2-4277-9a36-68031be99e8b"},"vehicle_type_id":"4","last_reported":1687468029,"current_range_meters":12400,"station_id":"ce4bhr12rcd13ifvqhpg","pricing_plan_id":"free"},{"bike_id":"2b477804-59d6-4ed2-b858-3f9e3c0f0764","system_id":"levelo_inurba_marseille","lat":43.319935,"lon":5.381699,"is_reserved":false,"is_disabled":false,"rental_uris":{"android":"levelo://app?vid=2b477804-59d6-4ed2-b858-3f9e3c0f0764","ios":"levelo://app?vid=2b477804-59d6-4ed2-b858-3f9e3c0f0764"},"vehicle_type_id":"4","last_reported":1687468029,"current_range_meters":2000,"station_id":"ce4bhr12rcd13ifvqhpg","pricing_plan_id":"free"},{"bike_id":"fc36b020-a0fa-4ea1-b73a-1b3b927113fc","system_id":"levelo_inurba_marseille","lat":43.319935,"lon":5.381699,"is_reserved":false,"is_disabled":false,"rental_uris":{"android":"levelo://app?vid=fc36b020-a0fa-4ea1-b73a-1b3b927113fc","ios":"levelo://app?vid=fc36b020-a0fa-4ea1-b73a-1b3b927113fc"},"vehicle_type_id":"4","last_reported":1687468029,"current_range_meters":22400,"station_id":"ce4bhr12rcd13ifvqhpg","pricing_plan_id":"free"},{"bike_id":"b6ec6e00-31ec-471f-ae4a-d9f92b742295","system_id":"levelo_inurba_marseille","lat":43.319935,"lon":5.381699,"is_reserved":false,"is_disabled":false,"rental_uris":{"android":"levelo://app?vid=b6ec6e00-31ec-471f-ae4a-d9f92b742295","ios":"levelo://app?vid=b6ec6e00-31ec-471f-ae4a-d9f92b742295"},"vehicle_type_id":"4","last_reported":1687468029,"current_range_meters":1600,"station_id":"ce4bhr12rcd13ifvqhpg","pricing_plan_id":"free"},{"bike_id":"cc7ccaed-aeac-4fb6-a249-e3eec1cb8751","system_id":"levelo_inurba_marseille","lat":43.32225,"lon":5.37898,"is_reserved":false,"is_disabled":false,"rental_uris":{"android":"levelo://app?vid=cc7ccaed-aeac-4fb6-a249-e3eec1cb8751","ios":"levelo://app?vid=cc7ccaed-aeac-4fb6-a249-e3eec1cb8751"},"vehicle_type_id":"4","last_reported":1687468029,"current_range_meters":30000,"station_id":"","pricing_plan_id":"free"},{"bike_id":"00fd2e73-d1e2-4f2a-9fc3-1cc7f19c9ac9","system_id":"levelo_inurba_marseille","lat":43.313571,"lon":5.384829,"is_reserved":false,"is_disabled":false,"rental_uris":{"android":"levelo://app?vid=00fd2e73-d1e2-4f2a-9fc3-1cc7f19c9ac9","ios":"levelo://app?vid=00fd2e73-d1e2-4f2a-9fc3-1cc7f19c9ac9"},"vehicle_type_id":"4","last_reported":1687468029,"current_range_meters":26800,"station_id":"ce4bgt92rcd13ifvqcf0","pricing_plan_id":"free"},{"bike_id":"8ecb6b67-7958-4b1c-8338-57612b6b574f","system_id":"levelo_inurba_marseille","lat":43.32653,"lon":5.3673,"is_reserved":false,"is_disabled":false,"rental_uris":{"android":"levelo://app?vid=8ecb6b67-7958-4b1c-8338-57612b6b574f","ios":"levelo://app?vid=8ecb6b67-7958-4b1c-8338-57612b6b574f"},"vehicle_type_id":"4","last_reported":1687468029,"current_range_meters":2400,"station_id":"","pricing_plan_id":"free"},{"bike_id":"e373733f-18af-4b84-8e3a-0e89a2f881ca","system_id":"levelo_inurba_marseille","lat":43.305364,"lon":5.384119,"is_reserved":false,"is_disabled":false,"rental_uris":{"android":"levelo://app?vid=e373733f-18af-4b84-8e3a-0e89a2f881ca","ios":"levelo://app?vid=e373733f-18af-4b84-8e3a-0e89a2f881ca"},"vehicle_type_id":"4","last_reported":1687468029,"current_range_meters":28800,"station_id":"ce4bgg92rcd13ifvqb30","pricing_plan_id":"free"},{"bike_id":"1db9f711-ba60-4af0-8da3-7af86d254b5d","system_id":"levelo_inurba_marseille","lat":43.299243,"lon":5.37481,"is_reserved":false,"is_disabled":false,"rental_uris":{"android":"levelo://app?vid=1db9f711-ba60-4af0-8da3-7af86d254b5d","ios":"levelo://app?vid=1db9f711-ba60-4af0-8da3-7af86d254b5d"},"vehicle_type_id":"4","last_reported":1687468029,"current_range_meters":15600,"station_id":"ce4bgjh2rcd13ifvqbg0","pricing_plan_id":"free"},{"bike_id":"e6ea61d5-da20-4ad2-b344-94c2975133fa","system_id":"levelo_inurba_marseille","lat":43.32285,"lon":5.38177,"is_reserved":false,"is_disabled":false,"rental_uris":{"android":"levelo://app?vid=e6ea61d5-da20-4ad2-b344-94c2975133fa","ios":"levelo://app?vid=e6ea61d5-da20-4ad2-b344-94c2975133fa"},"vehicle_type_id":"4","last_reported":1687468029,"current_range_meters":0,"station_id":"","pricing_plan_id":"free"},{"bike_id":"e4b54fcd-0ebd-4e75-be50-85b5998280f5","system_id":"levelo_inurba_marseille","lat":43.311722,"lon":5.387247,"is_reserved":false,"is_disabled":false,"rental_uris":{"android":"levelo://app?vid=e4b54fcd-0ebd-4e75-be50-85b5998280f5","ios":"levelo://app?vid=e4b54fcd-0ebd-4e75-be50-85b5998280f5"},"vehicle_type_id":"4","last_reported":1687468029,"current_range_meters":8000,"station_id":"ce4bgv12rcd13ifvqcp0","pricing_plan_id":"free"},{"bike_id":"7ca5923c-e03b-4e30-bd76-7388043d9b05","system_id":"levelo_inurba_marseille","lat":43.311722,"lon":5.387247,"is_reserved":false,"is_disabled":false,"rental_uris":{"android":"levelo://app?vid=7ca5923c-e03b-4e30-bd76-7388043d9b05","ios":"levelo://app?vid=7ca5923c-e03b-4e30-bd76-7388043d9b05"},"vehicle_type_id":"4","last_reported":1687468029,"current_range_meters":28000,"station_id":"ce4bgv12rcd13ifvqcp0","pricing_plan_id":"free"},{"bike_id":"4d872d7b-3c02-4a27-9bef-cb4ab1789c90","system_id":"levelo_inurba_marseille","lat":43.297794,"lon":5.370888,"is_reserved":false,"is_disabled":false,"rental_uris":{"android":"levelo://app?vid=4d872d7b-3c02-4a27-9bef-cb4ab1789c90","ios":"levelo://app?vid=4d872d7b-3c02-4a27-9bef-cb4ab1789c90"},"vehicle_type_id":"4","last_reported":1687468029,"current_range_meters":25600,"station_id":"ce4bgop2rcd13ifvqc1g","pricing_plan_id":"free"},{"bike_id":"9cd1fc04-ef65-4a6c-aa46-7c1d193cf613","system_id":"levelo_inurba_marseille","lat":43.328371,"lon":5.366912,"is_reserved":false,"is_disabled":false,"rental_uris":{"android":"levelo://app?vid=9cd1fc04-ef65-4a6c-aa46-7c1d193cf613","ios":"levelo://app?vid=9cd1fc04-ef65-4a6c-aa46-7c1d193cf613"},"vehicle_type_id":"4","last_reported":1687468029,"current_range_meters":28400,"station_id":"ce4bhs92rcd13ifvqi0g","pricing_plan_id":"free"},{"bike_id":"29faaac2-e1e9-4020-bb5f-a24184ad773e","system_id":"levelo_inurba_marseille","lat":43.297163,"lon":5.365866,"is_reserved":false,"is_disabled":false,"rental_uris":{"android":"levelo://app?vid=29faaac2-e1e9-4020-bb5f-a24184ad773e","ios":"levelo://app?vid=29faaac2-e1e9-4020-bb5f-a24184ad773e"},"vehicle_type_id":"4","last_reported":1687468029,"current_range_meters":15200,"station_id":"ce4bgn12rcd13ifvqbt0","pricing_plan_id":"free"},{"bike_id":"dbb1c652-606c-4469-a58b-8a456acb80d3","system_id":"levelo_inurba_marseille","lat":43.32834,"lon":5.36692,"is_reserved":false,"is_disabled":false,"rental_uris":{"android":"levelo://app?vid=dbb1c652-606c-4469-a58b-8a456acb80d3","ios":"levelo://app?vid=dbb1c652-606c-4469-a58b-8a456acb80d3"},"vehicle_type_id":"4","last_reported":1687468029,"current_range_meters":6400,"station_id":"ce4bhs92rcd13ifvqi0g","pricing_plan_id":"free"},{"bike_id":"41235149-f42e-4673-9d1a-055ac92c3df6","system_id":"levelo_inurba_marseille","lat":43.32834,"lon":5.36688,"is_reserved":false,"is_disabled":false,"rental_uris":{"android":"levelo://app?vid=41235149-f42e-4673-9d1a-055ac92c3df6","ios":"levelo://app?vid=41235149-f42e-4673-9d1a-055ac92c3df6"},"vehicle_type_id":"4","last_reported":1687468029,"current_range_meters":28400,"station_id":"ce4bhs92rcd13ifvqi0g","pricing_plan_id":"free"},{"bike_id":"84f93f16-bba1-4a3e-8670-d5f5930b6c5b","system_id":"levelo_inurba_marseille","lat":43.297163,"lon":5.365866,"is_reserved":false,"is_disabled":false,"rental_uris":{"android":"levelo://app?vid=84f93f16-bba1-4a3e-8670-d5f5930b6c5b","ios":"levelo://app?vid=84f93f16-bba1-4a3e-8670-d5f5930b6c5b"},"vehicle_type_id":"4","last_reported":1687468029,"current_range_meters":22800,"station_id":"ce4bgn12rcd13ifvqbt0","pricing_plan_id":"free"},{"bike_id":"d6aa4b8f-0fbd-492f-a726-f1b64033634e","system_id":"levelo_inurba_marseille","lat":43.29711,"lon":5.36407,"is_reserved":false,"is_disabled":false,"rental_uris":{"android":"levelo://app?vid=d6aa4b8f-0fbd-492f-a726-f1b64033634e","ios":"levelo://app?vid=d6aa4b8f-0fbd-492f-a726-f1b64033634e"},"vehicle_type_id":"4","last_reported":1687468029,"current_range_meters":14000,"station_id":"","pricing_plan_id":"free"},{"bike_id":"c6b1d67e-9823-4572-ad78-8c7832cd19fe","system_id":"levelo_inurba_marseille","lat":43.296129,"lon":5.370777,"is_reserved":false,"is_disabled":false,"rental_uris":{"android":"levelo://app?vid=c6b1d67e-9823-4572-ad78-8c7832cd19fe","ios":"levelo://app?vid=c6b1d67e-9823-4572-ad78-8c7832cd19fe"},"vehicle_type_id":"4","last_reported":1687468029,"current_range_meters":22400,"station_id":"ce4bgnh2rcd13ifvqc0g","pricing_plan_id":"free"},{"bike_id":"71877a6d-6581-4073-ab63-a1b4c26d2831","system_id":"levelo_inurba_marseille","lat":43.29623,"lon":5.37158,"is_reserved":false,"is_disabled":false,"rental_uris":{"android":"levelo://app?vid=71877a6d-6581-4073-ab63-a1b4c26d2831","ios":"levelo://app?vid=71877a6d-6581-4073-ab63-a1b4c26d2831"},"vehicle_type_id":"4","last_reported":1687468029,"current_range_meters":1600,"station_id":"","pricing_plan_id":"free"},{"bike_id":"189bbd00-934d-4d6c-8420-63411e03677a","system_id":"levelo_inurba_marseille","lat":43.296131,"lon":5.370791,"is_reserved":false,"is_disabled":false,"rental_uris":{"android":"levelo://app?vid=189bbd00-934d-4d6c-8420-63411e03677a","ios":"levelo://app?vid=189bbd00-934d-4d6c-8420-63411e03677a"},"vehicle_type_id":"4","last_reported":1687468029,"current_range_meters":0,"station_id":"ce4bgnh2rcd13ifvqc0g","pricing_plan_id":"free"},{"bike_id":"e74950c3-5963-45ad-bac0-aa53b5dbe5ba","system_id":"levelo_inurba_marseille","lat":43.296131,"lon":5.370773,"is_reserved":false,"is_disabled":false,"rental_uris":{"android":"levelo://app?vid=e74950c3-5963-45ad-bac0-aa53b5dbe5ba","ios":"levelo://app?vid=e74950c3-5963-45ad-bac0-aa53b5dbe5ba"},"vehicle_type_id":"4","last_reported":1687468029,"current_range_meters":16400,"station_id":"ce4bgnh2rcd13ifvqc0g","pricing_plan_id":"free"},{"bike_id":"534c14d8-d7a1-4b11-948b-e38c9ba43f1b","system_id":"levelo_inurba_marseille","lat":43.296131,"lon":5.370773,"is_reserved":false,"is_disabled":false,"rental_uris":{"android":"levelo://app?vid=534c14d8-d7a1-4b11-948b-e38c9ba43f1b","ios":"levelo://app?vid=534c14d8-d7a1-4b11-948b-e38c9ba43f1b"},"vehicle_type_id":"4","last_reported":1687468029,"current_range_meters":30000,"station_id":"ce4bgnh2rcd13ifvqc0g","pricing_plan_id":"free"},{"bike_id":"881cb920-c156-40ce-9de1-cf783cb85650","system_id":"levelo_inurba_marseille","lat":43.296129,"lon":5.370777,"is_reserved":false,"is_disabled":false,"rental_uris":{"android":"levelo://app?vid=881cb920-c156-40ce-9de1-cf783cb85650","ios":"levelo://app?vid=881cb920-c156-40ce-9de1-cf783cb85650"},"vehicle_type_id":"4","last_reported":1687468029,"current_range_meters":30400,"station_id":"ce4bgnh2rcd13ifvqc0g","pricing_plan_id":"free"},{"bike_id":"fd27b074-04a3-4d28-afcd-7d27f38bacd3","system_id":"levelo_inurba_marseille","lat":43.29719,"lon":5.37696,"is_reserved":false,"is_disabled":false,"rental_uris":{"android":"levelo://app?vid=fd27b074-04a3-4d28-afcd-7d27f38bacd3","ios":"levelo://app?vid=fd27b074-04a3-4d28-afcd-7d27f38bacd3"},"vehicle_type_id":"4","last_reported":1687468029,"current_range_meters":12400,"station_id":"","pricing_plan_id":"free"},{"bike_id":"543e52be-ab48-4473-bb4a-105128a24128","system_id":"levelo_inurba_marseille","lat":43.296921,"lon":5.376579,"is_reserved":false,"is_disabled":false,"rental_uris":{"android":"levelo://app?vid=543e52be-ab48-4473-bb4a-105128a24128","ios":"levelo://app?vid=543e52be-ab48-4473-bb4a-105128a24128"},"vehicle_type_id":"4","last_reported":1687468029,"current_range_meters":11600,"station_id":"ce4bgkh2rcd13ifvqbl0","pricing_plan_id":"free"},{"bike_id":"4d4dac5b-1a7a-4594-afe8-ae7618132a45","system_id":"levelo_inurba_marseille","lat":43.29712,"lon":5.37695,"is_reserved":false,"is_disabled":false,"rental_uris":{"android":"levelo://app?vid=4d4dac5b-1a7a-4594-afe8-ae7618132a45","ios":"levelo://app?vid=4d4dac5b-1a7a-4594-afe8-ae7618132a45"},"vehicle_type_id":"4","last_reported":1687468029,"current_range_meters":14400,"station_id":"","pricing_plan_id":"free"},{"bike_id":"041bc147-ef2f-419b-bb81-deca3bdf89e2","system_id":"levelo_inurba_marseille","lat":43.29611,"lon":5.36046,"is_reserved":false,"is_disabled":false,"rental_uris":{"android":"levelo://app?vid=041bc147-ef2f-419b-bb81-deca3bdf89e2","ios":"levelo://app?vid=041bc147-ef2f-419b-bb81-deca3bdf89e2"},"vehicle_type_id":"4","last_reported":1687468029,"current_range_meters":13200,"station_id":"","pricing_plan_id":"free"},{"bike_id":"c0094a37-a440-4989-abda-6f036b19ad76","system_id":"levelo_inurba_marseille","lat":43.317557,"lon":5.390173,"is_reserved":false,"is_disabled":false,"rental_uris":{"android":"levelo://app?vid=c0094a37-a440-4989-abda-6f036b19ad76","ios":"levelo://app?vid=c0094a37-a440-4989-abda-6f036b19ad76"},"vehicle_type_id":"4","last_reported":1687468029,"current_range_meters":29200,"station_id":"ce4bhqp2rcd13ifvqhng","pricing_plan_id":"free"},{"bike_id":"d691d8ba-3939-47fb-807f-a7b191a893ca","system_id":"levelo_inurba_marseille","lat":43.298037,"lon":5.381066,"is_reserved":false,"is_disabled":false,"rental_uris":{"android":"levelo://app?vid=d691d8ba-3939-47fb-807f-a7b191a893ca","ios":"levelo://app?vid=d691d8ba-3939-47fb-807f-a7b191a893ca"},"vehicle_type_id":"4","last_reported":1687468029,"current_range_meters":800,"station_id":"ce4bgip2rcd13ifvqbb0","pricing_plan_id":"free"},{"bike_id":"d23bee67-d34f-4e58-a259-ca0262701a12","system_id":"levelo_inurba_marseille","lat":43.295752,"lon":5.375148,"is_reserved":false,"is_disabled":false,"rental_uris":{"android":"levelo://app?vid=d23bee67-d34f-4e58-a259-ca0262701a12","ios":"levelo://app?vid=d23bee67-d34f-4e58-a259-ca0262701a12"},"vehicle_type_id":"4","last_reported":1687468029,"current_range_meters":400,"station_id":"","pricing_plan_id":"free"},{"bike_id":"229a6bb0-cabb-4214-a422-2b1eb654d77b","system_id":"levelo_inurba_marseille","lat":43.29573,"lon":5.37521,"is_reserved":false,"is_disabled":false,"rental_uris":{"android":"levelo://app?vid=229a6bb0-cabb-4214-a422-2b1eb654d77b","ios":"levelo://app?vid=229a6bb0-cabb-4214-a422-2b1eb654d77b"},"vehicle_type_id":"4","last_reported":1687468029,"current_range_meters":0,"station_id":"ce4bgh92rcd13ifvqb50","pricing_plan_id":"free"},{"bike_id":"af94ac96-b210-4ade-a030-6b89197cb365","system_id":"levelo_inurba_marseille","lat":43.29571,"lon":5.37515,"is_reserved":false,"is_disabled":false,"rental_uris":{"android":"levelo://app?vid=af94ac96-b210-4ade-a030-6b89197cb365","ios":"levelo://app?vid=af94ac96-b210-4ade-a030-6b89197cb365"},"vehicle_type_id":"4","last_reported":1687468029,"current_range_meters":0,"station_id":"ce4bgh92rcd13ifvqb50","pricing_plan_id":"free"},{"bike_id":"d2ab0546-1c04-436f-8a98-8b650091c075","system_id":"levelo_inurba_marseille","lat":43.295722,"lon":5.375303,"is_reserved":false,"is_disabled":false,"rental_uris":{"android":"levelo://app?vid=d2ab0546-1c04-436f-8a98-8b650091c075","ios":"levelo://app?vid=d2ab0546-1c04-436f-8a98-8b650091c075"},"vehicle_type_id":"4","last_reported":1687468029,"current_range_meters":26000,"station_id":"ce4bgkp2rcd13ifvqbmg","pricing_plan_id":"free"},{"bike_id":"d6a79adc-1409-4274-8796-415bd42bbb72","system_id":"levelo_inurba_marseille","lat":43.30437,"lon":5.38898,"is_reserved":false,"is_disabled":false,"rental_uris":{"android":"levelo://app?vid=d6a79adc-1409-4274-8796-415bd42bbb72","ios":"levelo://app?vid=d6a79adc-1409-4274-8796-415bd42bbb72"},"vehicle_type_id":"4","last_reported":1687468029,"current_range_meters":29200,"station_id":"ce4bgk12rcd13ifvqbi0","pricing_plan_id":"free"},{"bike_id":"57ef74e7-dc4c-4c99-8885-e798792eeba1","system_id":"levelo_inurba_marseille","lat":43.30436,"lon":5.38904,"is_reserved":false,"is_disabled":false,"rental_uris":{"android":"levelo://app?vid=57ef74e7-dc4c-4c99-8885-e798792eeba1","ios":"levelo://app?vid=57ef74e7-dc4c-4c99-8885-e798792eeba1"},"vehicle_type_id":"4","last_reported":1687468029,"current_range_meters":31200,"station_id":"ce4bgk12rcd13ifvqbi0","pricing_plan_id":"free"},{"bike_id":"64662981-7513-476f-94ac-37e143c3fe68","system_id":"levelo_inurba_marseille","lat":43.32367,"lon":5.38877,"is_reserved":false,"is_disabled":false,"rental_uris":{"android":"levelo://app?vid=64662981-7513-476f-94ac-37e143c3fe68","ios":"levelo://app?vid=64662981-7513-476f-94ac-37e143c3fe68"},"vehicle_type_id":"4","last_reported":1687468029,"current_range_meters":30400,"station_id":"ce4bhqp2rcd13ifvqhog","pricing_plan_id":"free"},{"bike_id":"a4982143-2425-407a-81e3-fbbbd5897622","system_id":"levelo_inurba_marseille","lat":43.32366,"lon":5.3888,"is_reserved":false,"is_disabled":false,"rental_uris":{"android":"levelo://app?vid=a4982143-2425-407a-81e3-fbbbd5897622","ios":"levelo://app?vid=a4982143-2425-407a-81e3-fbbbd5897622"},"vehicle_type_id":"4","last_reported":1687468029,"current_range_meters":2800,"station_id":"ce4bhqp2rcd13ifvqhog","pricing_plan_id":"free"},{"bike_id":"537904b6-81e9-4163-ada3-bc304b2c5b19","system_id":"levelo_inurba_marseille","lat":43.32366,"lon":5.38885,"is_reserved":false,"is_disabled":false,"rental_uris":{"android":"levelo://app?vid=537904b6-81e9-4163-ada3-bc304b2c5b19","ios":"levelo://app?vid=537904b6-81e9-4163-ada3-bc304b2c5b19"},"vehicle_type_id":"4","last_reported":1687468029,"current_range_meters":14400,"station_id":"ce4bhqp2rcd13ifvqhog","pricing_plan_id":"free"},{"bike_id":"10fe77c1-5e15-42b2-9115-e66cf6b1c4f4","system_id":"levelo_inurba_marseille","lat":43.32367,"lon":5.388836,"is_reserved":false,"is_disabled":false,"rental_uris":{"android":"levelo://app?vid=10fe77c1-5e15-42b2-9115-e66cf6b1c4f4","ios":"levelo://app?vid=10fe77c1-5e15-42b2-9115-e66cf6b1c4f4"},"vehicle_type_id":"4","last_reported":1687468029,"current_range_meters":1600,"station_id":"ce4bhqp2rcd13ifvqhog","pricing_plan_id":"free"},{"bike_id":"ba9bcc13-30a6-41ee-ab87-c9d21de1e9f5","system_id":"levelo_inurba_marseille","lat":43.32367,"lon":5.388836,"is_reserved":false,"is_disabled":false,"rental_uris":{"android":"levelo://app?vid=ba9bcc13-30a6-41ee-ab87-c9d21de1e9f5","ios":"levelo://app?vid=ba9bcc13-30a6-41ee-ab87-c9d21de1e9f5"},"vehicle_type_id":"4","last_reported":1687468029,"current_range_meters":20400,"station_id":"ce4bhqp2rcd13ifvqhog","pricing_plan_id":"free"},{"bike_id":"9eb6839e-6824-4f74-a71e-6f1996b3ff40","system_id":"levelo_inurba_marseille","lat":43.32367,"lon":5.388836,"is_reserved":false,"is_disabled":false,"rental_uris":{"android":"levelo://app?vid=9eb6839e-6824-4f74-a71e-6f1996b3ff40","ios":"levelo://app?vid=9eb6839e-6824-4f74-a71e-6f1996b3ff40"},"vehicle_type_id":"4","last_reported":1687468029,"current_range_meters":24800,"station_id":"ce4bhqp2rcd13ifvqhog","pricing_plan_id":"free"},{"bike_id":"3a8072fb-d95e-4709-a91c-8745f28ce6ef","system_id":"levelo_inurba_marseille","lat":43.29307,"lon":5.37186,"is_reserved":false,"is_disabled":false,"rental_uris":{"android":"levelo://app?vid=3a8072fb-d95e-4709-a91c-8745f28ce6ef","ios":"levelo://app?vid=3a8072fb-d95e-4709-a91c-8745f28ce6ef"},"vehicle_type_id":"4","last_reported":1687468029,"current_range_meters":0,"station_id":"ce4bgh92rcd13ifvqb40","pricing_plan_id":"free"},{"bike_id":"82962bf2-4310-4efb-af0e-e0c2985b458f","system_id":"levelo_inurba_marseille","lat":43.29266,"lon":5.3596,"is_reserved":false,"is_disabled":false,"rental_uris":{"android":"levelo://app?vid=82962bf2-4310-4efb-af0e-e0c2985b458f","ios":"levelo://app?vid=82962bf2-4310-4efb-af0e-e0c2985b458f"},"vehicle_type_id":"4","last_reported":1687468029,"current_range_meters":27600,"station_id":"","pricing_plan_id":"free"},{"bike_id":"39e8e142-0050-482b-bd5d-87a7f1c94d28","system_id":"levelo_inurba_marseille","lat":43.30085,"lon":5.390856,"is_reserved":false,"is_disabled":false,"rental_uris":{"android":"levelo://app?vid=39e8e142-0050-482b-bd5d-87a7f1c94d28","ios":"levelo://app?vid=39e8e142-0050-482b-bd5d-87a7f1c94d28"},"vehicle_type_id":"4","last_reported":1687468029,"current_range_meters":3600,"station_id":"ce4bh192rcd13ifvqdb0","pricing_plan_id":"free"},{"bike_id":"c5a1b2f7-bb14-43b8-873d-d27563880bb7","system_id":"levelo_inurba_marseille","lat":43.300852,"lon":5.390859,"is_reserved":false,"is_disabled":false,"rental_uris":{"android":"levelo://app?vid=c5a1b2f7-bb14-43b8-873d-d27563880bb7","ios":"levelo://app?vid=c5a1b2f7-bb14-43b8-873d-d27563880bb7"},"vehicle_type_id":"4","last_reported":1687468029,"current_range_meters":10000,"station_id":"ce4bh192rcd13ifvqdb0","pricing_plan_id":"free"},{"bike_id":"590caee9-fcc3-4629-8982-9f767607b6d9","system_id":"levelo_inurba_marseille","lat":43.300852,"lon":5.390859,"is_reserved":false,"is_disabled":false,"rental_uris":{"android":"levelo://app?vid=590caee9-fcc3-4629-8982-9f767607b6d9","ios":"levelo://app?vid=590caee9-fcc3-4629-8982-9f767607b6d9"},"vehicle_type_id":"4","last_reported":1687468029,"current_range_meters":1200,"station_id":"ce4bh192rcd13ifvqdb0","pricing_plan_id":"free"},{"bike_id":"529ac4ec-bb35-4696-b00c-ed7b08d692a0","system_id":"levelo_inurba_marseille","lat":43.292311,"lon":5.360731,"is_reserved":false,"is_disabled":false,"rental_uris":{"android":"levelo://app?vid=529ac4ec-bb35-4696-b00c-ed7b08d692a0","ios":"levelo://app?vid=529ac4ec-bb35-4696-b00c-ed7b08d692a0"},"vehicle_type_id":"4","last_reported":1687468029,"current_range_meters":800,"station_id":"ce4bhbh2rcd13ifvqeqg","pricing_plan_id":"free"},{"bike_id":"8fcf2a1a-7e52-47b6-ac6b-c870b7a3c637","system_id":"levelo_inurba_marseille","lat":43.29529,"lon":5.385581,"is_reserved":false,"is_disabled":false,"rental_uris":{"android":"levelo://app?vid=8fcf2a1a-7e52-47b6-ac6b-c870b7a3c637","ios":"levelo://app?vid=8fcf2a1a-7e52-47b6-ac6b-c870b7a3c637"},"vehicle_type_id":"4","last_reported":1687468029,"current_range_meters":14000,"station_id":"ce4bgih2rcd13ifvqba0","pricing_plan_id":"free"},{"bike_id":"51246039-8ffa-4843-bff4-07a1e4ada58e","system_id":"levelo_inurba_marseille","lat":43.298764,"lon":5.388973,"is_reserved":false,"is_disabled":false,"rental_uris":{"android":"levelo://app?vid=51246039-8ffa-4843-bff4-07a1e4ada58e","ios":"levelo://app?vid=51246039-8ffa-4843-bff4-07a1e4ada58e"},"vehicle_type_id":"4","last_reported":1687468029,"current_range_meters":14400,"station_id":"ce4bh392rcd13ifvqdl0","pricing_plan_id":"free"},{"bike_id":"47904e45-4df5-4e51-b120-6cf00d42bfc1","system_id":"levelo_inurba_marseille","lat":43.2988,"lon":5.38902,"is_reserved":false,"is_disabled":false,"rental_uris":{"android":"levelo://app?vid=47904e45-4df5-4e51-b120-6cf00d42bfc1","ios":"levelo://app?vid=47904e45-4df5-4e51-b120-6cf00d42bfc1"},"vehicle_type_id":"4","last_reported":1687468029,"current_range_meters":24000,"station_id":"ce4bh392rcd13ifvqdl0","pricing_plan_id":"free"},{"bike_id":"54fda2f9-7b1a-4838-9b70-087d4101d0ae","system_id":"levelo_inurba_marseille","lat":43.33213,"lon":5.37905,"is_reserved":false,"is_disabled":false,"rental_uris":{"android":"levelo://app?vid=54fda2f9-7b1a-4838-9b70-087d4101d0ae","ios":"levelo://app?vid=54fda2f9-7b1a-4838-9b70-087d4101d0ae"},"vehicle_type_id":"4","last_reported":1687468029,"current_range_meters":16800,"station_id":"","pricing_plan_id":"free"},{"bike_id":"4b5150b5-4796-4e1c-9bd4-79316e6d4556","system_id":"levelo_inurba_marseille","lat":43.298764,"lon":5.388973,"is_reserved":false,"is_disabled":false,"rental_uris":{"android":"levelo://app?vid=4b5150b5-4796-4e1c-9bd4-79316e6d4556","ios":"levelo://app?vid=4b5150b5-4796-4e1c-9bd4-79316e6d4556"},"vehicle_type_id":"4","last_reported":1687468029,"current_range_meters":0,"station_id":"ce4bh392rcd13ifvqdl0","pricing_plan_id":"free"},{"bike_id":"e48b0942-33a9-4656-a11e-9cc6bfd138e3","system_id":"levelo_inurba_marseille","lat":43.298764,"lon":5.388973,"is_reserved":false,"is_disabled":false,"rental_uris":{"android":"levelo://app?vid=e48b0942-33a9-4656-a11e-9cc6bfd138e3","ios":"levelo://app?vid=e48b0942-33a9-4656-a11e-9cc6bfd138e3"},"vehicle_type_id":"4","last_reported":1687468029,"current_range_meters":400,"station_id":"ce4bh392rcd13ifvqdl0","pricing_plan_id":"free"},{"bike_id":"8cacb5d2-13fa-4f30-bf7b-45b673dc085e","system_id":"levelo_inurba_marseille","lat":43.298764,"lon":5.388973,"is_reserved":false,"is_disabled":false,"rental_uris":{"android":"levelo://app?vid=8cacb5d2-13fa-4f30-bf7b-45b673dc085e","ios":"levelo://app?vid=8cacb5d2-13fa-4f30-bf7b-45b673dc085e"},"vehicle_type_id":"4","last_reported":1687468029,"current_range_meters":400,"station_id":"ce4bh392rcd13ifvqdl0","pricing_plan_id":"free"},{"bike_id":"6cbc8851-568c-499d-affd-73f8a3359601","system_id":"levelo_inurba_marseille","lat":43.291675,"lon":5.371583,"is_reserved":false,"is_disabled":false,"rental_uris":{"android":"levelo://app?vid=6cbc8851-568c-499d-affd-73f8a3359601","ios":"levelo://app?vid=6cbc8851-568c-499d-affd-73f8a3359601"},"vehicle_type_id":"4","last_reported":1687468029,"current_range_meters":24800,"station_id":"ce4bha92rcd13ifvqeh0","pricing_plan_id":"free"},{"bike_id":"64e9ce48-8779-49ff-a203-ee4b69940e86","system_id":"levelo_inurba_marseille","lat":43.291671,"lon":5.371575,"is_reserved":false,"is_disabled":false,"rental_uris":{"android":"levelo://app?vid=64e9ce48-8779-49ff-a203-ee4b69940e86","ios":"levelo://app?vid=64e9ce48-8779-49ff-a203-ee4b69940e86"},"vehicle_type_id":"4","last_reported":1687468029,"current_range_meters":30000,"station_id":"ce4bha92rcd13ifvqeh0","pricing_plan_id":"free"},{"bike_id":"f29a7205-f2cc-4d14-9e6e-ba20e6495f15","system_id":"levelo_inurba_marseille","lat":43.313291,"lon":5.396838,"is_reserved":false,"is_disabled":false,"rental_uris":{"android":"levelo://app?vid=f29a7205-f2cc-4d14-9e6e-ba20e6495f15","ios":"levelo://app?vid=f29a7205-f2cc-4d14-9e6e-ba20e6495f15"},"vehicle_type_id":"4","last_reported":1687468029,"current_range_meters":31200,"station_id":"ce4bgvp2rcd13ifvqcu0","pricing_plan_id":"free"},{"bike_id":"90357c3c-abfb-4d6f-a1d0-020c941b8c1b","system_id":"levelo_inurba_marseille","lat":43.29529,"lon":5.385581,"is_reserved":false,"is_disabled":false,"rental_uris":{"android":"levelo://app?vid=90357c3c-abfb-4d6f-a1d0-020c941b8c1b","ios":"levelo://app?vid=90357c3c-abfb-4d6f-a1d0-020c941b8c1b"},"vehicle_type_id":"4","last_reported":1687468029,"current_range_meters":2000,"station_id":"ce4bgih2rcd13ifvqba0","pricing_plan_id":"free"},{"bike_id":"ef863bff-8db1-475f-958d-816d766cb99f","system_id":"levelo_inurba_marseille","lat":43.29529,"lon":5.385581,"is_reserved":false,"is_disabled":false,"rental_uris":{"android":"levelo://app?vid=ef863bff-8db1-475f-958d-816d766cb99f","ios":"levelo://app?vid=ef863bff-8db1-475f-958d-816d766cb99f"},"vehicle_type_id":"4","last_reported":1687468029,"current_range_meters":3600,"station_id":"ce4bgih2rcd13ifvqba0","pricing_plan_id":"free"},{"bike_id":"0e78fb84-de21-4610-aca3-48206004a93f","system_id":"levelo_inurba_marseille","lat":43.29529,"lon":5.385581,"is_reserved":false,"is_disabled":false,"rental_uris":{"android":"levelo://app?vid=0e78fb84-de21-4610-aca3-48206004a93f","ios":"levelo://app?vid=0e78fb84-de21-4610-aca3-48206004a93f"},"vehicle_type_id":"4","last_reported":1687468029,"current_range_meters":20400,"station_id":"ce4bgih2rcd13ifvqba0","pricing_plan_id":"free"},{"bike_id":"2f76561d-a618-4bd1-9b28-6475c97076d2","system_id":"levelo_inurba_marseille","lat":43.29529,"lon":5.385581,"is_reserved":false,"is_disabled":false,"rental_uris":{"android":"levelo://app?vid=2f76561d-a618-4bd1-9b28-6475c97076d2","ios":"levelo://app?vid=2f76561d-a618-4bd1-9b28-6475c97076d2"},"vehicle_type_id":"4","last_reported":1687468029,"current_range_meters":0,"station_id":"ce4bgih2rcd13ifvqba0","pricing_plan_id":"free"},{"bike_id":"3f00c1e7-434f-4b0e-a867-44d087884ece","system_id":"levelo_inurba_marseille","lat":43.29529,"lon":5.385581,"is_reserved":false,"is_disabled":false,"rental_uris":{"android":"levelo://app?vid=3f00c1e7-434f-4b0e-a867-44d087884ece","ios":"levelo://app?vid=3f00c1e7-434f-4b0e-a867-44d087884ece"},"vehicle_type_id":"4","last_reported":1687468029,"current_range_meters":4800,"station_id":"ce4bgih2rcd13ifvqba0","pricing_plan_id":"free"},{"bike_id":"7f289bd8-64d3-46cc-9774-f233709823be","system_id":"levelo_inurba_marseille","lat":43.29529,"lon":5.385581,"is_reserved":false,"is_disabled":false,"rental_uris":{"android":"levelo://app?vid=7f289bd8-64d3-46cc-9774-f233709823be","ios":"levelo://app?vid=7f289bd8-64d3-46cc-9774-f233709823be"},"vehicle_type_id":"4","last_reported":1687468029,"current_range_meters":4000,"station_id":"ce4bgih2rcd13ifvqba0","pricing_plan_id":"free"},{"bike_id":"e41cffd9-ac17-4c19-b2c7-453fcefaf283","system_id":"levelo_inurba_marseille","lat":43.29529,"lon":5.385581,"is_reserved":false,"is_disabled":false,"rental_uris":{"android":"levelo://app?vid=e41cffd9-ac17-4c19-b2c7-453fcefaf283","ios":"levelo://app?vid=e41cffd9-ac17-4c19-b2c7-453fcefaf283"},"vehicle_type_id":"4","last_reported":1687468029,"current_range_meters":2400,"station_id":"ce4bgih2rcd13ifvqba0","pricing_plan_id":"free"},{"bike_id":"634b4d41-0cb8-41c8-818d-72fb0b2a075d","system_id":"levelo_inurba_marseille","lat":43.29529,"lon":5.385581,"is_reserved":false,"is_disabled":false,"rental_uris":{"android":"levelo://app?vid=634b4d41-0cb8-41c8-818d-72fb0b2a075d","ios":"levelo://app?vid=634b4d41-0cb8-41c8-818d-72fb0b2a075d"},"vehicle_type_id":"4","last_reported":1687468029,"current_range_meters":17200,"station_id":"ce4bgih2rcd13ifvqba0","pricing_plan_id":"free"},{"bike_id":"c26ac87f-dcc5-46f4-9e51-24c317f4d5f4","system_id":"levelo_inurba_marseille","lat":43.29529,"lon":5.385581,"is_reserved":false,"is_disabled":false,"rental_uris":{"android":"levelo://app?vid=c26ac87f-dcc5-46f4-9e51-24c317f4d5f4","ios":"levelo://app?vid=c26ac87f-dcc5-46f4-9e51-24c317f4d5f4"},"vehicle_type_id":"4","last_reported":1687468029,"current_range_meters":11600,"station_id":"ce4bgih2rcd13ifvqba0","pricing_plan_id":"free"},{"bike_id":"974cd791-1de0-47f2-9d54-f49b9ece3d5a","system_id":"levelo_inurba_marseille","lat":43.302008,"lon":5.394694,"is_reserved":false,"is_disabled":false,"rental_uris":{"android":"levelo://app?vid=974cd791-1de0-47f2-9d54-f49b9ece3d5a","ios":"levelo://app?vid=974cd791-1de0-47f2-9d54-f49b9ece3d5a"},"vehicle_type_id":"4","last_reported":1687468029,"current_range_meters":30000,"station_id":"ce4bh0p2rcd13ifvqd70","pricing_plan_id":"free"},{"bike_id":"c1b751c5-a1d0-4437-93c4-dd58b343ef31","system_id":"levelo_inurba_marseille","lat":43.290631,"lon":5.359244,"is_reserved":false,"is_disabled":false,"rental_uris":{"android":"levelo://app?vid=c1b751c5-a1d0-4437-93c4-dd58b343ef31","ios":"levelo://app?vid=c1b751c5-a1d0-4437-93c4-dd58b343ef31"},"vehicle_type_id":"4","last_reported":1687468029,"current_range_meters":8000,"station_id":"ce4bha92rcd13ifvqeg0","pricing_plan_id":"free"},{"bike_id":"a731706f-993d-4dcb-9f35-740f769a661c","system_id":"levelo_inurba_marseille","lat":43.294153,"lon":5.386305,"is_reserved":false,"is_disabled":false,"rental_uris":{"android":"levelo://app?vid=a731706f-993d-4dcb-9f35-740f769a661c","ios":"levelo://app?vid=a731706f-993d-4dcb-9f35-740f769a661c"},"vehicle_type_id":"4","last_reported":1687468029,"current_range_meters":12000,"station_id":"ce4bh2h2rcd13ifvqdh0","pricing_plan_id":"free"},{"bike_id":"22d72585-864f-4193-be8a-0e31debc70cb","system_id":"levelo_inurba_marseille","lat":43.294153,"lon":5.386305,"is_reserved":false,"is_disabled":false,"rental_uris":{"android":"levelo://app?vid=22d72585-864f-4193-be8a-0e31debc70cb","ios":"levelo://app?vid=22d72585-864f-4193-be8a-0e31debc70cb"},"vehicle_type_id":"4","last_reported":1687468029,"current_range_meters":7200,"station_id":"ce4bh2h2rcd13ifvqdh0","pricing_plan_id":"free"},{"bike_id":"84909d81-21ca-41dc-9b15-3b3312aafc3b","system_id":"levelo_inurba_marseille","lat":43.294153,"lon":5.386305,"is_reserved":false,"is_disabled":false,"rental_uris":{"android":"levelo://app?vid=84909d81-21ca-41dc-9b15-3b3312aafc3b","ios":"levelo://app?vid=84909d81-21ca-41dc-9b15-3b3312aafc3b"},"vehicle_type_id":"4","last_reported":1687468029,"current_range_meters":5200,"station_id":"ce4bh2h2rcd13ifvqdh0","pricing_plan_id":"free"},{"bike_id":"9dbeab40-971b-44cb-80f0-c1ab9d4d9dea","system_id":"levelo_inurba_marseille","lat":43.294153,"lon":5.386305,"is_reserved":false,"is_disabled":false,"rental_uris":{"android":"levelo://app?vid=9dbeab40-971b-44cb-80f0-c1ab9d4d9dea","ios":"levelo://app?vid=9dbeab40-971b-44cb-80f0-c1ab9d4d9dea"},"vehicle_type_id":"4","last_reported":1687468029,"current_range_meters":26000,"station_id":"ce4bh2h2rcd13ifvqdh0","pricing_plan_id":"free"},{"bike_id":"bd82480f-1f72-43d6-a7d8-1525ce4935d0","system_id":"levelo_inurba_marseille","lat":43.290327,"lon":5.375711,"is_reserved":false,"is_disabled":false,"rental_uris":{"android":"levelo://app?vid=bd82480f-1f72-43d6-a7d8-1525ce4935d0","ios":"levelo://app?vid=bd82480f-1f72-43d6-a7d8-1525ce4935d0"},"vehicle_type_id":"4","last_reported":1687468029,"current_range_meters":7200,"station_id":"ce4bh692rcd13ifvqe90","pricing_plan_id":"free"},{"bike_id":"ab010165-f7e9-4c63-bff5-2af05fac4cfa","system_id":"levelo_inurba_marseille","lat":43.28974,"lon":5.37155,"is_reserved":false,"is_disabled":false,"rental_uris":{"android":"levelo://app?vid=ab010165-f7e9-4c63-bff5-2af05fac4cfa","ios":"levelo://app?vid=ab010165-f7e9-4c63-bff5-2af05fac4cfa"},"vehicle_type_id":"4","last_reported":1687468029,"current_range_meters":30000,"station_id":"","pricing_plan_id":"free"},{"bike_id":"0b52d18a-e253-49cf-9d47-36f22928421c","system_id":"levelo_inurba_marseille","lat":43.294153,"lon":5.386305,"is_reserved":false,"is_disabled":false,"rental_uris":{"android":"levelo://app?vid=0b52d18a-e253-49cf-9d47-36f22928421c","ios":"levelo://app?vid=0b52d18a-e253-49cf-9d47-36f22928421c"},"vehicle_type_id":"4","last_reported":1687468029,"current_range_meters":18400,"station_id":"ce4bh2h2rcd13ifvqdh0","pricing_plan_id":"free"},{"bike_id":"237804ce-6eb3-4b5d-90cd-f9edecf464ab","system_id":"levelo_inurba_marseille","lat":43.294162,"lon":5.386292,"is_reserved":false,"is_disabled":false,"rental_uris":{"android":"levelo://app?vid=237804ce-6eb3-4b5d-90cd-f9edecf464ab","ios":"levelo://app?vid=237804ce-6eb3-4b5d-90cd-f9edecf464ab"},"vehicle_type_id":"4","last_reported":1687468029,"current_range_meters":22000,"station_id":"ce4bh2h2rcd13ifvqdh0","pricing_plan_id":"free"},{"bike_id":"52495b44-9f29-4c43-bf4e-4ade398f8fa0","system_id":"levelo_inurba_marseille","lat":43.294162,"lon":5.386292,"is_reserved":false,"is_disabled":false,"rental_uris":{"android":"levelo://app?vid=52495b44-9f29-4c43-bf4e-4ade398f8fa0","ios":"levelo://app?vid=52495b44-9f29-4c43-bf4e-4ade398f8fa0"},"vehicle_type_id":"4","last_reported":1687468029,"current_range_meters":7600,"station_id":"ce4bh2h2rcd13ifvqdh0","pricing_plan_id":"free"},{"bike_id":"b6484156-5da9-414b-9a8c-d7b4dbe3f1f9","system_id":"levelo_inurba_marseille","lat":43.294162,"lon":5.386292,"is_reserved":false,"is_disabled":false,"rental_uris":{"android":"levelo://app?vid=b6484156-5da9-414b-9a8c-d7b4dbe3f1f9","ios":"levelo://app?vid=b6484156-5da9-414b-9a8c-d7b4dbe3f1f9"},"vehicle_type_id":"4","last_reported":1687468029,"current_range_meters":3600,"station_id":"ce4bh2h2rcd13ifvqdh0","pricing_plan_id":"free"},{"bike_id":"8b11b668-58b2-4573-99ca-c6fcf969fb2a","system_id":"levelo_inurba_marseille","lat":43.294162,"lon":5.386292,"is_reserved":false,"is_disabled":false,"rental_uris":{"android":"levelo://app?vid=8b11b668-58b2-4573-99ca-c6fcf969fb2a","ios":"levelo://app?vid=8b11b668-58b2-4573-99ca-c6fcf969fb2a"},"vehicle_type_id":"4","last_reported":1687468029,"current_range_meters":31200,"station_id":"ce4bh2h2rcd13ifvqdh0","pricing_plan_id":"free"},{"bike_id":"af1c1646-164c-433f-adaf-3ccfd3bdf15c","system_id":"levelo_inurba_marseille","lat":43.294162,"lon":5.386292,"is_reserved":false,"is_disabled":false,"rental_uris":{"android":"levelo://app?vid=af1c1646-164c-433f-adaf-3ccfd3bdf15c","ios":"levelo://app?vid=af1c1646-164c-433f-adaf-3ccfd3bdf15c"},"vehicle_type_id":"4","last_reported":1687468029,"current_range_meters":800,"station_id":"ce4bh2h2rcd13ifvqdh0","pricing_plan_id":"free"},{"bike_id":"e045dc11-9e48-4929-868f-47b28973cdfc","system_id":"levelo_inurba_marseille","lat":43.294153,"lon":5.386305,"is_reserved":false,"is_disabled":false,"rental_uris":{"android":"levelo://app?vid=e045dc11-9e48-4929-868f-47b28973cdfc","ios":"levelo://app?vid=e045dc11-9e48-4929-868f-47b28973cdfc"},"vehicle_type_id":"4","last_reported":1687468029,"current_range_meters":27600,"station_id":"ce4bh2h2rcd13ifvqdh0","pricing_plan_id":"free"},{"bike_id":"faea2e1c-d6d6-43f7-a4c0-47ceeee901ab","system_id":"levelo_inurba_marseille","lat":43.294153,"lon":5.386305,"is_reserved":false,"is_disabled":false,"rental_uris":{"android":"levelo://app?vid=faea2e1c-d6d6-43f7-a4c0-47ceeee901ab","ios":"levelo://app?vid=faea2e1c-d6d6-43f7-a4c0-47ceeee901ab"},"vehicle_type_id":"4","last_reported":1687468029,"current_range_meters":6400,"station_id":"ce4bh2h2rcd13ifvqdh0","pricing_plan_id":"free"},{"bike_id":"20b2702a-2cf1-439f-b7da-41f192fa1a0a","system_id":"levelo_inurba_marseille","lat":43.29411,"lon":5.38614,"is_reserved":false,"is_disabled":false,"rental_uris":{"android":"levelo://app?vid=20b2702a-2cf1-439f-b7da-41f192fa1a0a","ios":"levelo://app?vid=20b2702a-2cf1-439f-b7da-41f192fa1a0a"},"vehicle_type_id":"4","last_reported":1687468029,"current_range_meters":25600,"station_id":"","pricing_plan_id":"free"},{"bike_id":"ab66e46c-ebba-45c3-a687-d862b1b7e936","system_id":"levelo_inurba_marseille","lat":43.294153,"lon":5.386305,"is_reserved":false,"is_disabled":false,"rental_uris":{"android":"levelo://app?vid=ab66e46c-ebba-45c3-a687-d862b1b7e936","ios":"levelo://app?vid=ab66e46c-ebba-45c3-a687-d862b1b7e936"},"vehicle_type_id":"4","last_reported":1687468029,"current_range_meters":800,"station_id":"ce4bh2h2rcd13ifvqdh0","pricing_plan_id":"free"},{"bike_id":"188a323e-4db1-4a3a-9415-19ec17e374fb","system_id":"levelo_inurba_marseille","lat":43.294162,"lon":5.386292,"is_reserved":false,"is_disabled":false,"rental_uris":{"android":"levelo://app?vid=188a323e-4db1-4a3a-9415-19ec17e374fb","ios":"levelo://app?vid=188a323e-4db1-4a3a-9415-19ec17e374fb"},"vehicle_type_id":"4","last_reported":1687468029,"current_range_meters":12800,"station_id":"ce4bh2h2rcd13ifvqdh0","pricing_plan_id":"free"},{"bike_id":"ac7147f8-d445-482d-a45c-28671efccd60","system_id":"levelo_inurba_marseille","lat":43.294162,"lon":5.386292,"is_reserved":false,"is_disabled":false,"rental_uris":{"android":"levelo://app?vid=ac7147f8-d445-482d-a45c-28671efccd60","ios":"levelo://app?vid=ac7147f8-d445-482d-a45c-28671efccd60"},"vehicle_type_id":"4","last_reported":1687468029,"current_range_meters":19600,"station_id":"ce4bh2h2rcd13ifvqdh0","pricing_plan_id":"free"},{"bike_id":"624ff80a-0346-4e32-bb10-5dd43e7f1763","system_id":"levelo_inurba_marseille","lat":43.294162,"lon":5.386292,"is_reserved":false,"is_disabled":false,"rental_uris":{"android":"levelo://app?vid=624ff80a-0346-4e32-bb10-5dd43e7f1763","ios":"levelo://app?vid=624ff80a-0346-4e32-bb10-5dd43e7f1763"},"vehicle_type_id":"4","last_reported":1687468029,"current_range_meters":4800,"station_id":"ce4bh2h2rcd13ifvqdh0","pricing_plan_id":"free"},{"bike_id":"8edf2680-f0e7-4fec-a98c-57d7c3154664","system_id":"levelo_inurba_marseille","lat":43.294162,"lon":5.386292,"is_reserved":false,"is_disabled":false,"rental_uris":{"android":"levelo://app?vid=8edf2680-f0e7-4fec-a98c-57d7c3154664","ios":"levelo://app?vid=8edf2680-f0e7-4fec-a98c-57d7c3154664"},"vehicle_type_id":"4","last_reported":1687468029,"current_range_meters":16800,"station_id":"ce4bh2h2rcd13ifvqdh0","pricing_plan_id":"free"},{"bike_id":"c96d8232-d39e-49d6-96b2-f24f021b2379","system_id":"levelo_inurba_marseille","lat":43.294162,"lon":5.386292,"is_reserved":false,"is_disabled":false,"rental_uris":{"android":"levelo://app?vid=c96d8232-d39e-49d6-96b2-f24f021b2379","ios":"levelo://app?vid=c96d8232-d39e-49d6-96b2-f24f021b2379"},"vehicle_type_id":"4","last_reported":1687468029,"current_range_meters":30400,"station_id":"ce4bh2h2rcd13ifvqdh0","pricing_plan_id":"free"},{"bike_id":"93587a4b-71b8-4367-9d8e-5f2d127d8773","system_id":"levelo_inurba_marseille","lat":43.28935,"lon":5.36401,"is_reserved":false,"is_disabled":false,"rental_uris":{"android":"levelo://app?vid=93587a4b-71b8-4367-9d8e-5f2d127d8773","ios":"levelo://app?vid=93587a4b-71b8-4367-9d8e-5f2d127d8773"},"vehicle_type_id":"4","last_reported":1687468029,"current_range_meters":0,"station_id":"ce4bhc92rcd13ifvqetg","pricing_plan_id":"free"},{"bike_id":"185c4862-3a74-4190-addf-dab17a198617","system_id":"levelo_inurba_marseille","lat":43.292644,"lon":5.384257,"is_reserved":false,"is_disabled":false,"rental_uris":{"android":"levelo://app?vid=185c4862-3a74-4190-addf-dab17a198617","ios":"levelo://app?vid=185c4862-3a74-4190-addf-dab17a198617"},"vehicle_type_id":"4","last_reported":1687468029,"current_range_meters":3600,"station_id":"ce4bh692rcd13ifvqea0","pricing_plan_id":"free"},{"bike_id":"8f39b583-81ef-42f7-8ea4-47d0928c04d2","system_id":"levelo_inurba_marseille","lat":43.292642,"lon":5.384254,"is_reserved":false,"is_disabled":false,"rental_uris":{"android":"levelo://app?vid=8f39b583-81ef-42f7-8ea4-47d0928c04d2","ios":"levelo://app?vid=8f39b583-81ef-42f7-8ea4-47d0928c04d2"},"vehicle_type_id":"4","last_reported":1687468029,"current_range_meters":3600,"station_id":"ce4bh692rcd13ifvqea0","pricing_plan_id":"free"},{"bike_id":"c4f6e0d9-9b37-4211-b5a7-b2eb768762ec","system_id":"levelo_inurba_marseille","lat":43.292642,"lon":5.384254,"is_reserved":false,"is_disabled":false,"rental_uris":{"android":"levelo://app?vid=c4f6e0d9-9b37-4211-b5a7-b2eb768762ec","ios":"levelo://app?vid=c4f6e0d9-9b37-4211-b5a7-b2eb768762ec"},"vehicle_type_id":"4","last_reported":1687468029,"current_range_meters":12400,"station_id":"ce4bh692rcd13ifvqea0","pricing_plan_id":"free"},{"bike_id":"85014f3c-72ed-4330-97d1-c24450407470","system_id":"levelo_inurba_marseille","lat":43.304296,"lon":5.397513,"is_reserved":false,"is_disabled":false,"rental_uris":{"android":"levelo://app?vid=85014f3c-72ed-4330-97d1-c24450407470","ios":"levelo://app?vid=85014f3c-72ed-4330-97d1-c24450407470"},"vehicle_type_id":"4","last_reported":1687468029,"current_range_meters":4800,"station_id":"ce4bh092rcd13ifvqd20","pricing_plan_id":"free"},{"bike_id":"e776f3e7-0541-4f1c-abf5-3f3c8dd8cf7d","system_id":"levelo_inurba_marseille","lat":43.292644,"lon":5.384257,"is_reserved":false,"is_disabled":false,"rental_uris":{"android":"levelo://app?vid=e776f3e7-0541-4f1c-abf5-3f3c8dd8cf7d","ios":"levelo://app?vid=e776f3e7-0541-4f1c-abf5-3f3c8dd8cf7d"},"vehicle_type_id":"4","last_reported":1687468029,"current_range_meters":30000,"station_id":"ce4bh692rcd13ifvqea0","pricing_plan_id":"free"},{"bike_id":"0ac34b4c-0540-44d5-a443-6389768c21b4","system_id":"levelo_inurba_marseille","lat":43.292642,"lon":5.384254,"is_reserved":false,"is_disabled":false,"rental_uris":{"android":"levelo://app?vid=0ac34b4c-0540-44d5-a443-6389768c21b4","ios":"levelo://app?vid=0ac34b4c-0540-44d5-a443-6389768c21b4"},"vehicle_type_id":"4","last_reported":1687468029,"current_range_meters":7600,"station_id":"ce4bh692rcd13ifvqea0","pricing_plan_id":"free"},{"bike_id":"c46930b2-ec52-4387-b443-d8d291b900d9","system_id":"levelo_inurba_marseille","lat":43.292642,"lon":5.384254,"is_reserved":false,"is_disabled":false,"rental_uris":{"android":"levelo://app?vid=c46930b2-ec52-4387-b443-d8d291b900d9","ios":"levelo://app?vid=c46930b2-ec52-4387-b443-d8d291b900d9"},"vehicle_type_id":"4","last_reported":1687468029,"current_range_meters":15600,"station_id":"ce4bh692rcd13ifvqea0","pricing_plan_id":"free"},{"bike_id":"a5ef1b08-6d76-456a-9762-2ed4a662a615","system_id":"levelo_inurba_marseille","lat":43.30465,"lon":5.39786,"is_reserved":false,"is_disabled":false,"rental_uris":{"android":"levelo://app?vid=a5ef1b08-6d76-456a-9762-2ed4a662a615","ios":"levelo://app?vid=a5ef1b08-6d76-456a-9762-2ed4a662a615"},"vehicle_type_id":"4","last_reported":1687468029,"current_range_meters":4800,"station_id":"","pricing_plan_id":"free"},{"bike_id":"dcbeae36-e893-4c53-834e-933ca5889d3f","system_id":"levelo_inurba_marseille","lat":43.33045,"lon":5.38915,"is_reserved":false,"is_disabled":false,"rental_uris":{"android":"levelo://app?vid=dcbeae36-e893-4c53-834e-933ca5889d3f","ios":"levelo://app?vid=dcbeae36-e893-4c53-834e-933ca5889d3f"},"vehicle_type_id":"4","last_reported":1687468029,"current_range_meters":8000,"station_id":"ce4bhr92rcd13ifvqhrg","pricing_plan_id":"free"},{"bike_id":"de4a6415-7cce-4656-89ac-d7d4eaa645b3","system_id":"levelo_inurba_marseille","lat":43.33045,"lon":5.38917,"is_reserved":false,"is_disabled":false,"rental_uris":{"android":"levelo://app?vid=de4a6415-7cce-4656-89ac-d7d4eaa645b3","ios":"levelo://app?vid=de4a6415-7cce-4656-89ac-d7d4eaa645b3"},"vehicle_type_id":"4","last_reported":1687468029,"current_range_meters":18400,"station_id":"ce4bhr92rcd13ifvqhrg","pricing_plan_id":"free"},{"bike_id":"88d6d88f-e764-475b-9e9a-4307077ccd82","system_id":"levelo_inurba_marseille","lat":43.304296,"lon":5.397513,"is_reserved":false,"is_disabled":false,"rental_uris":{"android":"levelo://app?vid=88d6d88f-e764-475b-9e9a-4307077ccd82","ios":"levelo://app?vid=88d6d88f-e764-475b-9e9a-4307077ccd82"},"vehicle_type_id":"4","last_reported":1687468029,"current_range_meters":19200,"station_id":"ce4bh092rcd13ifvqd20","pricing_plan_id":"free"},{"bike_id":"c73d2cc7-61ec-4fd2-a002-ffa050603a67","system_id":"levelo_inurba_marseille","lat":43.33042,"lon":5.38938,"is_reserved":false,"is_disabled":false,"rental_uris":{"android":"levelo://app?vid=c73d2cc7-61ec-4fd2-a002-ffa050603a67","ios":"levelo://app?vid=c73d2cc7-61ec-4fd2-a002-ffa050603a67"},"vehicle_type_id":"4","last_reported":1687468029,"current_range_meters":31200,"station_id":"ce4bhr92rcd13ifvqhrg","pricing_plan_id":"free"},{"bike_id":"0ea80293-4b64-43b3-8f61-a4afab654c1f","system_id":"levelo_inurba_marseille","lat":43.290995,"lon":5.381361,"is_reserved":false,"is_disabled":false,"rental_uris":{"android":"levelo://app?vid=0ea80293-4b64-43b3-8f61-a4afab654c1f","ios":"levelo://app?vid=0ea80293-4b64-43b3-8f61-a4afab654c1f"},"vehicle_type_id":"4","last_reported":1687468029,"current_range_meters":25600,"station_id":"ce4bh512rcd13ifvqe2g","pricing_plan_id":"free"},{"bike_id":"17ea1c23-d099-4924-b8d0-835a36270769","system_id":"levelo_inurba_marseille","lat":43.290995,"lon":5.381361,"is_reserved":false,"is_disabled":false,"rental_uris":{"android":"levelo://app?vid=17ea1c23-d099-4924-b8d0-835a36270769","ios":"levelo://app?vid=17ea1c23-d099-4924-b8d0-835a36270769"},"vehicle_type_id":"4","last_reported":1687468029,"current_range_meters":31200,"station_id":"ce4bh512rcd13ifvqe2g","pricing_plan_id":"free"},{"bike_id":"7e08ddfa-a15f-474a-a33f-66cbfc43af23","system_id":"levelo_inurba_marseille","lat":43.290864,"lon":5.381259,"is_reserved":false,"is_disabled":false,"rental_uris":{"android":"levelo://app?vid=7e08ddfa-a15f-474a-a33f-66cbfc43af23","ios":"levelo://app?vid=7e08ddfa-a15f-474a-a33f-66cbfc43af23"},"vehicle_type_id":"4","last_reported":1687468029,"current_range_meters":31200,"station_id":"","pricing_plan_id":"free"},{"bike_id":"ced6fac3-1e84-4143-a050-583d2b22384b","system_id":"levelo_inurba_marseille","lat":43.290995,"lon":5.381361,"is_reserved":false,"is_disabled":false,"rental_uris":{"android":"levelo://app?vid=ced6fac3-1e84-4143-a050-583d2b22384b","ios":"levelo://app?vid=ced6fac3-1e84-4143-a050-583d2b22384b"},"vehicle_type_id":"4","last_reported":1687468029,"current_range_meters":31200,"station_id":"ce4bh512rcd13ifvqe2g","pricing_plan_id":"free"},{"bike_id":"52f9ecbf-c2c6-4653-aa7d-2925527bb9ee","system_id":"levelo_inurba_marseille","lat":43.289743,"lon":5.378304,"is_reserved":false,"is_disabled":false,"rental_uris":{"android":"levelo://app?vid=52f9ecbf-c2c6-4653-aa7d-2925527bb9ee","ios":"levelo://app?vid=52f9ecbf-c2c6-4653-aa7d-2925527bb9ee"},"vehicle_type_id":"4","last_reported":1687468029,"current_range_meters":0,"station_id":"ce4bh9p2rcd13ifvqed0","pricing_plan_id":"free"},{"bike_id":"97a6633f-bdb9-42f5-9eaa-d67d8dc811ab","system_id":"levelo_inurba_marseille","lat":43.295169,"lon":5.390426,"is_reserved":false,"is_disabled":false,"rental_uris":{"android":"levelo://app?vid=97a6633f-bdb9-42f5-9eaa-d67d8dc811ab","ios":"levelo://app?vid=97a6633f-bdb9-42f5-9eaa-d67d8dc811ab"},"vehicle_type_id":"4","last_reported":1687468029,"current_range_meters":30400,"station_id":"ce4bh3p2rcd13ifvqdp0","pricing_plan_id":"free"},{"bike_id":"4373f89d-7e65-447e-81c7-4de17209f376","system_id":"levelo_inurba_marseille","lat":43.295169,"lon":5.390426,"is_reserved":false,"is_disabled":false,"rental_uris":{"android":"levelo://app?vid=4373f89d-7e65-447e-81c7-4de17209f376","ios":"levelo://app?vid=4373f89d-7e65-447e-81c7-4de17209f376"},"vehicle_type_id":"4","last_reported":1687468029,"current_range_meters":6400,"station_id":"ce4bh3p2rcd13ifvqdp0","pricing_plan_id":"free"},{"bike_id":"a700147e-8a61-4d65-8260-c2a924444274","system_id":"levelo_inurba_marseille","lat":43.295169,"lon":5.390426,"is_reserved":false,"is_disabled":false,"rental_uris":{"android":"levelo://app?vid=a700147e-8a61-4d65-8260-c2a924444274","ios":"levelo://app?vid=a700147e-8a61-4d65-8260-c2a924444274"},"vehicle_type_id":"4","last_reported":1687468029,"current_range_meters":3600,"station_id":"ce4bh3p2rcd13ifvqdp0","pricing_plan_id":"free"},{"bike_id":"b2b1da20-98ed-4a06-be71-dc4f4ade3ad4","system_id":"levelo_inurba_marseille","lat":43.2901,"lon":5.381269,"is_reserved":false,"is_disabled":false,"rental_uris":{"android":"levelo://app?vid=b2b1da20-98ed-4a06-be71-dc4f4ade3ad4","ios":"levelo://app?vid=b2b1da20-98ed-4a06-be71-dc4f4ade3ad4"},"vehicle_type_id":"4","last_reported":1687468029,"current_range_meters":0,"station_id":"ce4bh4p2rcd13ifvqe1g","pricing_plan_id":"free"},{"bike_id":"0211fa25-ddd8-486f-a34b-c0db21413bcb","system_id":"levelo_inurba_marseille","lat":43.28852,"lon":5.3586,"is_reserved":false,"is_disabled":false,"rental_uris":{"android":"levelo://app?vid=0211fa25-ddd8-486f-a34b-c0db21413bcb","ios":"levelo://app?vid=0211fa25-ddd8-486f-a34b-c0db21413bcb"},"vehicle_type_id":"4","last_reported":1687468029,"current_range_meters":12400,"station_id":"ce4bhb12rcd13ifvqem0","pricing_plan_id":"free"},{"bike_id":"7e302150-a6c0-4cac-9c30-a7128db44e99","system_id":"levelo_inurba_marseille","lat":43.290094,"lon":5.381264,"is_reserved":false,"is_disabled":false,"rental_uris":{"android":"levelo://app?vid=7e302150-a6c0-4cac-9c30-a7128db44e99","ios":"levelo://app?vid=7e302150-a6c0-4cac-9c30-a7128db44e99"},"vehicle_type_id":"4","last_reported":1687468029,"current_range_meters":4800,"station_id":"ce4bh4p2rcd13ifvqe1g","pricing_plan_id":"free"},{"bike_id":"3f8a925a-6a54-4259-a38f-9cf091aab246","system_id":"levelo_inurba_marseille","lat":43.29258,"lon":5.38743,"is_reserved":false,"is_disabled":false,"rental_uris":{"android":"levelo://app?vid=3f8a925a-6a54-4259-a38f-9cf091aab246","ios":"levelo://app?vid=3f8a925a-6a54-4259-a38f-9cf091aab246"},"vehicle_type_id":"4","last_reported":1687468029,"current_range_meters":28400,"station_id":"","pricing_plan_id":"free"},{"bike_id":"e02cd65e-e1e7-48a9-a70f-9ef1b29dd797","system_id":"levelo_inurba_marseille","lat":43.30642,"lon":5.401031,"is_reserved":false,"is_disabled":false,"rental_uris":{"android":"levelo://app?vid=e02cd65e-e1e7-48a9-a70f-9ef1b29dd797","ios":"levelo://app?vid=e02cd65e-e1e7-48a9-a70f-9ef1b29dd797"},"vehicle_type_id":"4","last_reported":1687468029,"current_range_meters":31200,"station_id":"ce4bh112rcd13ifvqda0","pricing_plan_id":"free"},{"bike_id":"a339dc85-f4be-42f7-94da-838d3c3c1703","system_id":"levelo_inurba_marseille","lat":43.309371,"lon":5.401449,"is_reserved":false,"is_disabled":false,"rental_uris":{"android":"levelo://app?vid=a339dc85-f4be-42f7-94da-838d3c3c1703","ios":"levelo://app?vid=a339dc85-f4be-42f7-94da-838d3c3c1703"},"vehicle_type_id":"4","last_reported":1687468029,"current_range_meters":28800,"station_id":"ce4bgvp2rcd13ifvqct0","pricing_plan_id":"free"},{"bike_id":"fc0738ad-f4d1-4d02-bf08-bfd0fcb3fe29","system_id":"levelo_inurba_marseille","lat":43.309371,"lon":5.401449,"is_reserved":false,"is_disabled":false,"rental_uris":{"android":"levelo://app?vid=fc0738ad-f4d1-4d02-bf08-bfd0fcb3fe29","ios":"levelo://app?vid=fc0738ad-f4d1-4d02-bf08-bfd0fcb3fe29"},"vehicle_type_id":"4","last_reported":1687468029,"current_range_meters":13600,"station_id":"ce4bgvp2rcd13ifvqct0","pricing_plan_id":"free"},{"bike_id":"c180ae38-f769-441f-8a55-5a6e4930e6ad","system_id":"levelo_inurba_marseille","lat":43.33752,"lon":5.37439,"is_reserved":false,"is_disabled":false,"rental_uris":{"android":"levelo://app?vid=c180ae38-f769-441f-8a55-5a6e4930e6ad","ios":"levelo://app?vid=c180ae38-f769-441f-8a55-5a6e4930e6ad"},"vehicle_type_id":"4","last_reported":1687468029,"current_range_meters":28000,"station_id":"","pricing_plan_id":"free"},{"bike_id":"b6f3c2c9-ed59-4f47-9064-42e0f659e057","system_id":"levelo_inurba_marseille","lat":43.30677,"lon":5.40081,"is_reserved":false,"is_disabled":false,"rental_uris":{"android":"levelo://app?vid=b6f3c2c9-ed59-4f47-9064-42e0f659e057","ios":"levelo://app?vid=b6f3c2c9-ed59-4f47-9064-42e0f659e057"},"vehicle_type_id":"4","last_reported":1687468029,"current_range_meters":31200,"station_id":"ce4bh112rcd13ifvqda0","pricing_plan_id":"free"},{"bike_id":"d74474a7-d1ea-4940-94c7-db1e07163ef0","system_id":"levelo_inurba_marseille","lat":43.337482,"lon":5.374726,"is_reserved":false,"is_disabled":false,"rental_uris":{"android":"levelo://app?vid=d74474a7-d1ea-4940-94c7-db1e07163ef0","ios":"levelo://app?vid=d74474a7-d1ea-4940-94c7-db1e07163ef0"},"vehicle_type_id":"4","last_reported":1687468029,"current_range_meters":11200,"station_id":"","pricing_plan_id":"free"},{"bike_id":"2cb5841e-cfd4-4329-9d4d-e35d1c08e5e2","system_id":"levelo_inurba_marseille","lat":43.33755,"lon":5.37434,"is_reserved":false,"is_disabled":false,"rental_uris":{"android":"levelo://app?vid=2cb5841e-cfd4-4329-9d4d-e35d1c08e5e2","ios":"levelo://app?vid=2cb5841e-cfd4-4329-9d4d-e35d1c08e5e2"},"vehicle_type_id":"4","last_reported":1687468029,"current_range_meters":28800,"station_id":"","pricing_plan_id":"free"},{"bike_id":"71a50c1f-09f0-47f2-bd28-cfcd0711a6bd","system_id":"levelo_inurba_marseille","lat":43.33755,"lon":5.3745,"is_reserved":false,"is_disabled":false,"rental_uris":{"android":"levelo://app?vid=71a50c1f-09f0-47f2-bd28-cfcd0711a6bd","ios":"levelo://app?vid=71a50c1f-09f0-47f2-bd28-cfcd0711a6bd"},"vehicle_type_id":"4","last_reported":1687468029,"current_range_meters":29200,"station_id":"","pricing_plan_id":"free"},{"bike_id":"b0bd3bcb-bd35-4f75-8285-8f528f09b8d5","system_id":"levelo_inurba_marseille","lat":43.337575,"lon":5.374489,"is_reserved":false,"is_disabled":false,"rental_uris":{"android":"levelo://app?vid=b0bd3bcb-bd35-4f75-8285-8f528f09b8d5","ios":"levelo://app?vid=b0bd3bcb-bd35-4f75-8285-8f528f09b8d5"},"vehicle_type_id":"4","last_reported":1687468029,"current_range_meters":14800,"station_id":"","pricing_plan_id":"free"},{"bike_id":"c217c9eb-a7e6-45cb-9d78-dab7c27fed91","system_id":"levelo_inurba_marseille","lat":43.30642,"lon":5.401031,"is_reserved":false,"is_disabled":false,"rental_uris":{"android":"levelo://app?vid=c217c9eb-a7e6-45cb-9d78-dab7c27fed91","ios":"levelo://app?vid=c217c9eb-a7e6-45cb-9d78-dab7c27fed91"},"vehicle_type_id":"4","last_reported":1687468029,"current_range_meters":31200,"station_id":"ce4bh112rcd13ifvqda0","pricing_plan_id":"free"},{"bike_id":"273b9994-e164-4221-ab69-7a5534a15d8f","system_id":"levelo_inurba_marseille","lat":43.30642,"lon":5.401031,"is_reserved":false,"is_disabled":false,"rental_uris":{"android":"levelo://app?vid=273b9994-e164-4221-ab69-7a5534a15d8f","ios":"levelo://app?vid=273b9994-e164-4221-ab69-7a5534a15d8f"},"vehicle_type_id":"4","last_reported":1687468029,"current_range_meters":26800,"station_id":"ce4bh112rcd13ifvqda0","pricing_plan_id":"free"},{"bike_id":"2a2f078b-7b42-470e-816b-715f2b660f89","system_id":"levelo_inurba_marseille","lat":43.30642,"lon":5.401031,"is_reserved":false,"is_disabled":false,"rental_uris":{"android":"levelo://app?vid=2a2f078b-7b42-470e-816b-715f2b660f89","ios":"levelo://app?vid=2a2f078b-7b42-470e-816b-715f2b660f89"},"vehicle_type_id":"4","last_reported":1687468029,"current_range_meters":8000,"station_id":"ce4bh112rcd13ifvqda0","pricing_plan_id":"free"},{"bike_id":"0f1dd5d4-0798-4f2d-bb93-f5da20e4483b","system_id":"levelo_inurba_marseille","lat":43.30642,"lon":5.401031,"is_reserved":false,"is_disabled":false,"rental_uris":{"android":"levelo://app?vid=0f1dd5d4-0798-4f2d-bb93-f5da20e4483b","ios":"levelo://app?vid=0f1dd5d4-0798-4f2d-bb93-f5da20e4483b"},"vehicle_type_id":"4","last_reported":1687468029,"current_range_meters":31200,"station_id":"ce4bh112rcd13ifvqda0","pricing_plan_id":"free"},{"bike_id":"75beba07-c037-4bb5-9928-8bd8e3ccd825","system_id":"levelo_inurba_marseille","lat":43.30642,"lon":5.401031,"is_reserved":false,"is_disabled":false,"rental_uris":{"android":"levelo://app?vid=75beba07-c037-4bb5-9928-8bd8e3ccd825","ios":"levelo://app?vid=75beba07-c037-4bb5-9928-8bd8e3ccd825"},"vehicle_type_id":"4","last_reported":1687468029,"current_range_meters":26800,"station_id":"ce4bh112rcd13ifvqda0","pricing_plan_id":"free"},{"bike_id":"85da1929-fda2-469e-a85c-7ea6c8b0069b","system_id":"levelo_inurba_marseille","lat":43.30133,"lon":5.39848,"is_reserved":false,"is_disabled":false,"rental_uris":{"android":"levelo://app?vid=85da1929-fda2-469e-a85c-7ea6c8b0069b","ios":"levelo://app?vid=85da1929-fda2-469e-a85c-7ea6c8b0069b"},"vehicle_type_id":"4","last_reported":1687468029,"current_range_meters":16000,"station_id":"","pricing_plan_id":"free"},{"bike_id":"7df3376a-a47c-4484-a7c0-cb9799469218","system_id":"levelo_inurba_marseille","lat":43.30138,"lon":5.39855,"is_reserved":false,"is_disabled":false,"rental_uris":{"android":"levelo://app?vid=7df3376a-a47c-4484-a7c0-cb9799469218","ios":"levelo://app?vid=7df3376a-a47c-4484-a7c0-cb9799469218"},"vehicle_type_id":"4","last_reported":1687468029,"current_range_meters":25600,"station_id":"","pricing_plan_id":"free"},{"bike_id":"087e342f-e792-4712-8410-b6644b06f74d","system_id":"levelo_inurba_marseille","lat":43.301117,"lon":5.398795,"is_reserved":false,"is_disabled":false,"rental_uris":{"android":"levelo://app?vid=087e342f-e792-4712-8410-b6644b06f74d","ios":"levelo://app?vid=087e342f-e792-4712-8410-b6644b06f74d"},"vehicle_type_id":"4","last_reported":1687468029,"current_range_meters":19600,"station_id":"ce4bh0h2rcd13ifvqd40","pricing_plan_id":"free"},{"bike_id":"e178673e-cab5-47d8-ae54-41ca051511f4","system_id":"levelo_inurba_marseille","lat":43.30135,"lon":5.39858,"is_reserved":false,"is_disabled":false,"rental_uris":{"android":"levelo://app?vid=e178673e-cab5-47d8-ae54-41ca051511f4","ios":"levelo://app?vid=e178673e-cab5-47d8-ae54-41ca051511f4"},"vehicle_type_id":"4","last_reported":1687468029,"current_range_meters":25600,"station_id":"","pricing_plan_id":"free"},{"bike_id":"a221af4e-d740-4e5a-b083-bf981d27d508","system_id":"levelo_inurba_marseille","lat":43.30137,"lon":5.3986,"is_reserved":false,"is_disabled":false,"rental_uris":{"android":"levelo://app?vid=a221af4e-d740-4e5a-b083-bf981d27d508","ios":"levelo://app?vid=a221af4e-d740-4e5a-b083-bf981d27d508"},"vehicle_type_id":"4","last_reported":1687468029,"current_range_meters":400,"station_id":"","pricing_plan_id":"free"},{"bike_id":"a21b181b-4bd2-44cc-87e5-eebe31cd7362","system_id":"levelo_inurba_marseille","lat":43.29874,"lon":5.3972,"is_reserved":false,"is_disabled":false,"rental_uris":{"android":"levelo://app?vid=a21b181b-4bd2-44cc-87e5-eebe31cd7362","ios":"levelo://app?vid=a21b181b-4bd2-44cc-87e5-eebe31cd7362"},"vehicle_type_id":"4","last_reported":1687468029,"current_range_meters":24400,"station_id":"ce4bh0h2rcd13ifvqd50","pricing_plan_id":"free"},{"bike_id":"6c2efd22-a652-4a1b-a16a-1771c9dbeba2","system_id":"levelo_inurba_marseille","lat":43.286591,"lon":5.363346,"is_reserved":false,"is_disabled":false,"rental_uris":{"android":"levelo://app?vid=6c2efd22-a652-4a1b-a16a-1771c9dbeba2","ios":"levelo://app?vid=6c2efd22-a652-4a1b-a16a-1771c9dbeba2"},"vehicle_type_id":"4","last_reported":1687468029,"current_range_meters":20400,"station_id":"ce4bhah2rcd13ifvqej0","pricing_plan_id":"free"},{"bike_id":"d8a45eab-c666-47db-977d-39632631e7bb","system_id":"levelo_inurba_marseille","lat":43.286961,"lon":5.373785,"is_reserved":false,"is_disabled":false,"rental_uris":{"android":"levelo://app?vid=d8a45eab-c666-47db-977d-39632631e7bb","ios":"levelo://app?vid=d8a45eab-c666-47db-977d-39632631e7bb"},"vehicle_type_id":"4","last_reported":1687468029,"current_range_meters":6800,"station_id":"ce4bh3p2rcd13ifvqdq0","pricing_plan_id":"free"},{"bike_id":"73bb4652-6e61-4b3e-bd83-ee6f01647d93","system_id":"levelo_inurba_marseille","lat":43.286591,"lon":5.363346,"is_reserved":false,"is_disabled":false,"rental_uris":{"android":"levelo://app?vid=73bb4652-6e61-4b3e-bd83-ee6f01647d93","ios":"levelo://app?vid=73bb4652-6e61-4b3e-bd83-ee6f01647d93"},"vehicle_type_id":"4","last_reported":1687468029,"current_range_meters":31200,"station_id":"ce4bhah2rcd13ifvqej0","pricing_plan_id":"free"},{"bike_id":"5d433380-4afb-4aaf-85f8-1624a47715b4","system_id":"levelo_inurba_marseille","lat":43.286961,"lon":5.373785,"is_reserved":false,"is_disabled":false,"rental_uris":{"android":"levelo://app?vid=5d433380-4afb-4aaf-85f8-1624a47715b4","ios":"levelo://app?vid=5d433380-4afb-4aaf-85f8-1624a47715b4"},"vehicle_type_id":"4","last_reported":1687468029,"current_range_meters":18000,"station_id":"ce4bh3p2rcd13ifvqdq0","pricing_plan_id":"free"},{"bike_id":"65695815-9992-4c58-b585-146bb264d540","system_id":"levelo_inurba_marseille","lat":43.286961,"lon":5.373785,"is_reserved":false,"is_disabled":false,"rental_uris":{"android":"levelo://app?vid=65695815-9992-4c58-b585-146bb264d540","ios":"levelo://app?vid=65695815-9992-4c58-b585-146bb264d540"},"vehicle_type_id":"4","last_reported":1687468029,"current_range_meters":30800,"station_id":"ce4bh3p2rcd13ifvqdq0","pricing_plan_id":"free"},{"bike_id":"31f2e443-b129-4c8b-86ac-1726888adeb4","system_id":"levelo_inurba_marseille","lat":43.302759,"lon":5.400793,"is_reserved":false,"is_disabled":false,"rental_uris":{"android":"levelo://app?vid=31f2e443-b129-4c8b-86ac-1726888adeb4","ios":"levelo://app?vid=31f2e443-b129-4c8b-86ac-1726888adeb4"},"vehicle_type_id":"4","last_reported":1687468029,"current_range_meters":9200,"station_id":"ce4bgvh2rcd13ifvqcs0","pricing_plan_id":"free"},{"bike_id":"f65b24d5-8173-4145-a39c-d0cde875acc5","system_id":"levelo_inurba_marseille","lat":43.29028,"lon":5.3865,"is_reserved":false,"is_disabled":false,"rental_uris":{"android":"levelo://app?vid=f65b24d5-8173-4145-a39c-d0cde875acc5","ios":"levelo://app?vid=f65b24d5-8173-4145-a39c-d0cde875acc5"},"vehicle_type_id":"4","last_reported":1687468029,"current_range_meters":20000,"station_id":"ce4bh4p2rcd13ifvqe0g","pricing_plan_id":"free"},{"bike_id":"3cf44964-6f26-46d7-9bfa-d2bcfd36be4d","system_id":"levelo_inurba_marseille","lat":43.302759,"lon":5.400793,"is_reserved":false,"is_disabled":false,"rental_uris":{"android":"levelo://app?vid=3cf44964-6f26-46d7-9bfa-d2bcfd36be4d","ios":"levelo://app?vid=3cf44964-6f26-46d7-9bfa-d2bcfd36be4d"},"vehicle_type_id":"4","last_reported":1687468029,"current_range_meters":12800,"station_id":"ce4bgvh2rcd13ifvqcs0","pricing_plan_id":"free"},{"bike_id":"6cfb998c-cd6e-4d12-9ad4-ae802e82e516","system_id":"levelo_inurba_marseille","lat":43.287184,"lon":5.37937,"is_reserved":false,"is_disabled":false,"rental_uris":{"android":"levelo://app?vid=6cfb998c-cd6e-4d12-9ad4-ae802e82e516","ios":"levelo://app?vid=6cfb998c-cd6e-4d12-9ad4-ae802e82e516"},"vehicle_type_id":"4","last_reported":1687468029,"current_range_meters":2800,"station_id":"ce4bh9p2rcd13ifvqec0","pricing_plan_id":"free"},{"bike_id":"c2f137d9-9d1d-49c5-bf33-3d38d71c5f0d","system_id":"levelo_inurba_marseille","lat":43.287184,"lon":5.37937,"is_reserved":false,"is_disabled":false,"rental_uris":{"android":"levelo://app?vid=c2f137d9-9d1d-49c5-bf33-3d38d71c5f0d","ios":"levelo://app?vid=c2f137d9-9d1d-49c5-bf33-3d38d71c5f0d"},"vehicle_type_id":"4","last_reported":1687468029,"current_range_meters":31600,"station_id":"ce4bh9p2rcd13ifvqec0","pricing_plan_id":"free"},{"bike_id":"9cb7861b-5771-4e51-85e3-d1b5011929b0","system_id":"levelo_inurba_marseille","lat":43.287184,"lon":5.37937,"is_reserved":false,"is_disabled":false,"rental_uris":{"android":"levelo://app?vid=9cb7861b-5771-4e51-85e3-d1b5011929b0","ios":"levelo://app?vid=9cb7861b-5771-4e51-85e3-d1b5011929b0"},"vehicle_type_id":"4","last_reported":1687468029,"current_range_meters":7600,"station_id":"ce4bh9p2rcd13ifvqec0","pricing_plan_id":"free"},{"bike_id":"85a014c3-b744-41fb-836a-a96f782b522e","system_id":"levelo_inurba_marseille","lat":43.316517,"lon":5.404375,"is_reserved":false,"is_disabled":false,"rental_uris":{"android":"levelo://app?vid=85a014c3-b744-41fb-836a-a96f782b522e","ios":"levelo://app?vid=85a014c3-b744-41fb-836a-a96f782b522e"},"vehicle_type_id":"4","last_reported":1687468029,"current_range_meters":9200,"station_id":"ce4bh012rcd13ifvqd00","pricing_plan_id":"free"},{"bike_id":"c1eb0cd0-5cb4-49cf-85ad-4e7c55adc6f0","system_id":"levelo_inurba_marseille","lat":43.316517,"lon":5.404375,"is_reserved":false,"is_disabled":false,"rental_uris":{"android":"levelo://app?vid=c1eb0cd0-5cb4-49cf-85ad-4e7c55adc6f0","ios":"levelo://app?vid=c1eb0cd0-5cb4-49cf-85ad-4e7c55adc6f0"},"vehicle_type_id":"4","last_reported":1687468029,"current_range_meters":20400,"station_id":"ce4bh012rcd13ifvqd00","pricing_plan_id":"free"},{"bike_id":"035ce08f-468b-47a7-aa5d-3f599321b40a","system_id":"levelo_inurba_marseille","lat":43.316517,"lon":5.404375,"is_reserved":false,"is_disabled":false,"rental_uris":{"android":"levelo://app?vid=035ce08f-468b-47a7-aa5d-3f599321b40a","ios":"levelo://app?vid=035ce08f-468b-47a7-aa5d-3f599321b40a"},"vehicle_type_id":"4","last_reported":1687468029,"current_range_meters":0,"station_id":"ce4bh012rcd13ifvqd00","pricing_plan_id":"free"},{"bike_id":"1178bda5-c19d-426c-bb61-ae5a4ebc66ce","system_id":"levelo_inurba_marseille","lat":43.291994,"lon":5.392907,"is_reserved":false,"is_disabled":false,"rental_uris":{"android":"levelo://app?vid=1178bda5-c19d-426c-bb61-ae5a4ebc66ce","ios":"levelo://app?vid=1178bda5-c19d-426c-bb61-ae5a4ebc66ce"},"vehicle_type_id":"4","last_reported":1687468029,"current_range_meters":21200,"station_id":"ce4bh192rcd13ifvqdd0","pricing_plan_id":"free"},{"bike_id":"fe9980f7-ccfe-41be-adbd-bcb23e63e4ed","system_id":"levelo_inurba_marseille","lat":43.291994,"lon":5.392907,"is_reserved":false,"is_disabled":false,"rental_uris":{"android":"levelo://app?vid=fe9980f7-ccfe-41be-adbd-bcb23e63e4ed","ios":"levelo://app?vid=fe9980f7-ccfe-41be-adbd-bcb23e63e4ed"},"vehicle_type_id":"4","last_reported":1687468029,"current_range_meters":14800,"station_id":"ce4bh192rcd13ifvqdd0","pricing_plan_id":"free"},{"bike_id":"d18b7f6b-cf92-42ba-9c41-092e95ecfc85","system_id":"levelo_inurba_marseille","lat":43.291994,"lon":5.392907,"is_reserved":false,"is_disabled":false,"rental_uris":{"android":"levelo://app?vid=d18b7f6b-cf92-42ba-9c41-092e95ecfc85","ios":"levelo://app?vid=d18b7f6b-cf92-42ba-9c41-092e95ecfc85"},"vehicle_type_id":"4","last_reported":1687468029,"current_range_meters":14800,"station_id":"ce4bh192rcd13ifvqdd0","pricing_plan_id":"free"},{"bike_id":"d1969601-1e7e-4526-b10a-962307664840","system_id":"levelo_inurba_marseille","lat":43.284534,"lon":5.358662,"is_reserved":false,"is_disabled":false,"rental_uris":{"android":"levelo://app?vid=d1969601-1e7e-4526-b10a-962307664840","ios":"levelo://app?vid=d1969601-1e7e-4526-b10a-962307664840"},"vehicle_type_id":"4","last_reported":1687468029,"current_range_meters":3600,"station_id":"ce4bhah2rcd13ifvqei0","pricing_plan_id":"free"},{"bike_id":"e37b1887-a5cb-4d58-8372-19436712dc37","system_id":"levelo_inurba_marseille","lat":43.284534,"lon":5.358662,"is_reserved":false,"is_disabled":false,"rental_uris":{"android":"levelo://app?vid=e37b1887-a5cb-4d58-8372-19436712dc37","ios":"levelo://app?vid=e37b1887-a5cb-4d58-8372-19436712dc37"},"vehicle_type_id":"4","last_reported":1687468029,"current_range_meters":0,"station_id":"ce4bhah2rcd13ifvqei0","pricing_plan_id":"free"},{"bike_id":"57a401c5-9b59-4377-a39c-ba1a9fd163b7","system_id":"levelo_inurba_marseille","lat":43.283998,"lon":5.375062,"is_reserved":false,"is_disabled":false,"rental_uris":{"android":"levelo://app?vid=57a401c5-9b59-4377-a39c-ba1a9fd163b7","ios":"levelo://app?vid=57a401c5-9b59-4377-a39c-ba1a9fd163b7"},"vehicle_type_id":"4","last_reported":1687468029,"current_range_meters":20000,"station_id":"ce4bh412rcd13ifvqds0","pricing_plan_id":"free"},{"bike_id":"277a00a1-90b2-4687-873b-6b81159a9406","system_id":"levelo_inurba_marseille","lat":43.299028,"lon":5.381509,"is_reserved":false,"is_disabled":false,"rental_uris":{"android":"levelo://app?vid=277a00a1-90b2-4687-873b-6b81159a9406","ios":"levelo://app?vid=277a00a1-90b2-4687-873b-6b81159a9406"},"vehicle_type_id":"4","last_reported":1687468029,"current_range_meters":23200,"station_id":"ce4bgj12rcd13ifvqbc0","pricing_plan_id":"free"},{"bike_id":"3e9a79af-27e7-495b-bf1d-9d77bc0f52f3","system_id":"levelo_inurba_marseille","lat":43.28666,"lon":5.38667,"is_reserved":false,"is_disabled":false,"rental_uris":{"android":"levelo://app?vid=3e9a79af-27e7-495b-bf1d-9d77bc0f52f3","ios":"levelo://app?vid=3e9a79af-27e7-495b-bf1d-9d77bc0f52f3"},"vehicle_type_id":"4","last_reported":1687468029,"current_range_meters":31200,"station_id":"ce4bh492rcd13ifvqdug","pricing_plan_id":"free"},{"bike_id":"f6fda2f2-04f1-4377-bae3-2fc212d95c47","system_id":"levelo_inurba_marseille","lat":43.34234,"lon":5.36223,"is_reserved":false,"is_disabled":false,"rental_uris":{"android":"levelo://app?vid=f6fda2f2-04f1-4377-bae3-2fc212d95c47","ios":"levelo://app?vid=f6fda2f2-04f1-4377-bae3-2fc212d95c47"},"vehicle_type_id":"4","last_reported":1687468029,"current_range_meters":0,"station_id":"","pricing_plan_id":"free"},{"bike_id":"61515986-2815-44a8-ad95-b4037b4de41a","system_id":"levelo_inurba_marseille","lat":43.28473,"lon":5.38415,"is_reserved":false,"is_disabled":false,"rental_uris":{"android":"levelo://app?vid=61515986-2815-44a8-ad95-b4037b4de41a","ios":"levelo://app?vid=61515986-2815-44a8-ad95-b4037b4de41a"},"vehicle_type_id":"4","last_reported":1687468029,"current_range_meters":23200,"station_id":"ce4bh512rcd13ifvqe3g","pricing_plan_id":"free"},{"bike_id":"2eee4181-6293-4efb-b6d1-d6382361c054","system_id":"levelo_inurba_marseille","lat":43.283494,"lon":5.380945,"is_reserved":false,"is_disabled":false,"rental_uris":{"android":"levelo://app?vid=2eee4181-6293-4efb-b6d1-d6382361c054","ios":"levelo://app?vid=2eee4181-6293-4efb-b6d1-d6382361c054"},"vehicle_type_id":"4","last_reported":1687468029,"current_range_meters":6800,"station_id":"ce4bh412rcd13ifvqdr0","pricing_plan_id":"free"},{"bike_id":"d55d11bb-1d92-4552-8852-7f3c1db8b826","system_id":"levelo_inurba_marseille","lat":43.284793,"lon":5.384113,"is_reserved":false,"is_disabled":false,"rental_uris":{"android":"levelo://app?vid=d55d11bb-1d92-4552-8852-7f3c1db8b826","ios":"levelo://app?vid=d55d11bb-1d92-4552-8852-7f3c1db8b826"},"vehicle_type_id":"4","last_reported":1687468029,"current_range_meters":2800,"station_id":"ce4bh512rcd13ifvqe3g","pricing_plan_id":"free"},{"bike_id":"6703be06-7a4f-49e7-a546-d3fd6cc15f62","system_id":"levelo_inurba_marseille","lat":43.288501,"lon":5.393087,"is_reserved":false,"is_disabled":false,"rental_uris":{"android":"levelo://app?vid=6703be06-7a4f-49e7-a546-d3fd6cc15f62","ios":"levelo://app?vid=6703be06-7a4f-49e7-a546-d3fd6cc15f62"},"vehicle_type_id":"4","last_reported":1687468029,"current_range_meters":29200,"station_id":"ce4bh2p2rcd13ifvqdi0","pricing_plan_id":"free"},{"bike_id":"ecd28f79-8356-4e81-a119-5bdf87348e9d","system_id":"levelo_inurba_marseille","lat":43.288501,"lon":5.393087,"is_reserved":false,"is_disabled":false,"rental_uris":{"android":"levelo://app?vid=ecd28f79-8356-4e81-a119-5bdf87348e9d","ios":"levelo://app?vid=ecd28f79-8356-4e81-a119-5bdf87348e9d"},"vehicle_type_id":"4","last_reported":1687468029,"current_range_meters":21600,"station_id":"ce4bh2p2rcd13ifvqdi0","pricing_plan_id":"free"},{"bike_id":"2aef2a6d-c60e-42db-bd12-db1e4d91f3c8","system_id":"levelo_inurba_marseille","lat":43.288497,"lon":5.393089,"is_reserved":false,"is_disabled":false,"rental_uris":{"android":"levelo://app?vid=2aef2a6d-c60e-42db-bd12-db1e4d91f3c8","ios":"levelo://app?vid=2aef2a6d-c60e-42db-bd12-db1e4d91f3c8"},"vehicle_type_id":"4","last_reported":1687468029,"current_range_meters":30400,"station_id":"ce4bh2p2rcd13ifvqdi0","pricing_plan_id":"free"},{"bike_id":"b4c950db-352f-4a1a-8e3c-c05101a6dad0","system_id":"levelo_inurba_marseille","lat":43.288497,"lon":5.393089,"is_reserved":false,"is_disabled":false,"rental_uris":{"android":"levelo://app?vid=b4c950db-352f-4a1a-8e3c-c05101a6dad0","ios":"levelo://app?vid=b4c950db-352f-4a1a-8e3c-c05101a6dad0"},"vehicle_type_id":"4","last_reported":1687468029,"current_range_meters":31200,"station_id":"ce4bh2p2rcd13ifvqdi0","pricing_plan_id":"free"},{"bike_id":"65a3839d-097f-4ede-96c3-449a16ffee73","system_id":"levelo_inurba_marseille","lat":43.288501,"lon":5.393087,"is_reserved":false,"is_disabled":false,"rental_uris":{"android":"levelo://app?vid=65a3839d-097f-4ede-96c3-449a16ffee73","ios":"levelo://app?vid=65a3839d-097f-4ede-96c3-449a16ffee73"},"vehicle_type_id":"4","last_reported":1687468029,"current_range_meters":20800,"station_id":"ce4bh2p2rcd13ifvqdi0","pricing_plan_id":"free"},{"bike_id":"0ed91cf0-65b4-485f-bb66-78ee8d9b9ac7","system_id":"levelo_inurba_marseille","lat":43.32387,"lon":5.40647,"is_reserved":false,"is_disabled":false,"rental_uris":{"android":"levelo://app?vid=0ed91cf0-65b4-485f-bb66-78ee8d9b9ac7","ios":"levelo://app?vid=0ed91cf0-65b4-485f-bb66-78ee8d9b9ac7"},"vehicle_type_id":"4","last_reported":1687468029,"current_range_meters":8000,"station_id":"","pricing_plan_id":"free"},{"bike_id":"bd961cde-4b8b-4ff9-b23b-36e9b8ea53da","system_id":"levelo_inurba_marseille","lat":43.283494,"lon":5.380945,"is_reserved":false,"is_disabled":false,"rental_uris":{"android":"levelo://app?vid=bd961cde-4b8b-4ff9-b23b-36e9b8ea53da","ios":"levelo://app?vid=bd961cde-4b8b-4ff9-b23b-36e9b8ea53da"},"vehicle_type_id":"4","last_reported":1687468029,"current_range_meters":26800,"station_id":"ce4bh412rcd13ifvqdr0","pricing_plan_id":"free"},{"bike_id":"d4df8262-9e4d-4103-9d95-2da5c1ac22ff","system_id":"levelo_inurba_marseille","lat":43.28355,"lon":5.38094,"is_reserved":false,"is_disabled":false,"rental_uris":{"android":"levelo://app?vid=d4df8262-9e4d-4103-9d95-2da5c1ac22ff","ios":"levelo://app?vid=d4df8262-9e4d-4103-9d95-2da5c1ac22ff"},"vehicle_type_id":"4","last_reported":1687468029,"current_range_meters":11200,"station_id":"ce4bh412rcd13ifvqdr0","pricing_plan_id":"free"},