{"last_updated":1703970350,"ttl":30,"version":"2.2","data":{"bikes":[{"bike_id":"2bf732d1-cd8c-466f-a8a7-9bd69662d50f","system_id":"levelo_inurba_marseille","lat":43.313391,"lon":5.36706,"is_reserved":false,"is_disabled":false,"rental_uris":{"android":"levelo://app?vid=2bf732d1-cd8c-466f-a8a7-9bd69662d50f","ios":"levelo://app?vid=2bf732d1-cd8c-466f-a8a7-9bd69662d50f"},"vehicle_type_id":"4","last_reported":1703970350,"current_range_meters":17600,"station_id":"ce4bgr92rcd13ifvqc6g","pricing_plan_id":"free"},{"bike_id":"23dd3538-e80b-4e86-9c76-7ee672ddd9fd","system_id":"levelo_inurba_marseille","lat":43.312239,"lon":5.368562,"is_reserved":false,"is_disabled":false,"rental_uris":{"android":"levelo://app?vid=23dd3538-e80b-4e86-9c76-7ee672ddd9fd","ios":"levelo://app?vid=23dd3538-e80b-4e86-9c76-7ee672ddd9fd"},"vehicle_type_id":"4","last_reported":1703970350,"current_range_meters":3200,"station_id":"ce4bgl92rcd13ifvqbq0","pricing_plan_id":"free"},{"bike_id":"eba050a7-04a6-47eb-94d0-9f4ea3deb385","system_id":"levelo_inurba_marseille","lat":43.312239,"lon":5.368562,"is_reserved":false,"is_disabled":false,"rental_uris":{"android":"levelo://app?vid=eba050a7-04a6-47eb-94d0-9f4ea3deb385","ios":"levelo://app?vid=eba050a7-04a6-47eb-94d0-9f4ea3deb385"},"vehicle_type_id":"4","last_reported":1703970350,"current_range_meters":6800,"station_id":"ce4bgl92rcd13ifvqbq0","pricing_plan_id":"free"},{"bike_id":"76c539cf-40a5-44d1-840b-701f4f49f579","system_id":"levelo_inurba_marseille","lat":43.312239,"lon":5.368562,"is_reserved":false,"is_disabled":false,"rental_uris":{"android":"levelo://app?vid=76c539cf-40a5-44d1-840b-701f4f49f579","ios":"levelo://app?vid=76c539cf-40a5-44d1-840b-701f4f49f579"},"vehicle_type_id":"4","last_reported":1703970350,"current_range_meters":18400,"station_id":"ce4bgl92rcd13ifvqbq0","pricing_plan_id":"free"},{"bike_id":"ed337f42-0bfc-4c55-838c-c071afdc6e3e","system_id":"levelo_inurba_marseille","lat":43.312239,"lon":5.368562,"is_reserved":false,"is_disabled":false,"rental_uris":{"android":"levelo://app?vid=ed337f42-0bfc-4c55-838c-c071afdc6e3e","ios":"levelo://app?vid=ed337f42-0bfc-4c55-838c-c071afdc6e3e"},"vehicle_type_id":"4","last_reported":1703970350,"current_range_meters":30400,"station_id":"ce4bgl92rcd13ifvqbq0","pricing_plan_id":"free"},{"bike_id":"7180308b-443d-4039-8862-ed4addd16119","system_id":"levelo_inurba_marseille","lat":43.309076,"lon":5.368465,"is_reserved":false,"is_disabled":false,"rental_uris":{"android":"levelo://app?vid=7180308b-443d-4039-8862-ed4addd16119","ios":"levelo://app?vid=7180308b-443d-4039-8862-ed4addd16119"},"vehicle_type_id":"4","last_reported":1703970350,"current_range_meters":15200,"station_id":"ce4bgn92rcd13ifvqbvg","pricing_plan_id":"free"},{"bike_id":"c1792a81-afad-46e7-9530-06374cc0d7d3","system_id":"levelo_inurba_marseille","lat":43.309076,"lon":5.368465,"is_reserved":false,"is_disabled":false,"rental_uris":{"android":"levelo://app?vid=c1792a81-afad-46e7-9530-06374cc0d7d3","ios":"levelo://app?vid=c1792a81-afad-46e7-9530-06374cc0d7d3"},"vehicle_type_id":"4","last_reported":1703970350,"current_range_meters":31200,"station_id":"ce4bgn92rcd13ifvqbvg","pricing_plan_id":"free"},{"bike_id":"88e2b684-7b24-4ef1-b2c5-7def72ae0b7f","system_id":"levelo_inurba_marseille","lat":43.314811,"lon":5.373103,"is_reserved":false,"is_disabled":false,"rental_uris":{"android":"levelo://app?vid=88e2b684-7b24-4ef1-b2c5-7def72ae0b7f","ios":"levelo://app?vid=88e2b684-7b24-4ef1-b2c5-7def72ae0b7f"},"vehicle_type_id":"4","last_reported":1703970350,"current_range_meters":16800,"station_id":"ce4bgt12rcd13ifvqcd0","pricing_plan_id":"free"},{"bike_id":"52cf0546-df59-46b3-b409-0f0453810fdb","system_id":"levelo_inurba_marseille","lat":43.314811,"lon":5.373103,"is_reserved":false,"is_disabled":false,"rental_uris":{"android":"levelo://app?vid=52cf0546-df59-46b3-b409-0f0453810fdb","ios":"levelo://app?vid=52cf0546-df59-46b3-b409-0f0453810fdb"},"vehicle_type_id":"4","last_reported":1703970350,"current_range_meters":17200,"station_id":"ce4bgt12rcd13ifvqcd0","pricing_plan_id":"free"},{"bike_id":"393d281c-fc34-40cb-9e7a-49bf22cd7cc0","system_id":"levelo_inurba_marseille","lat":43.309039,"lon":5.371797,"is_reserved":false,"is_disabled":false,"rental_uris":{"android":"levelo://app?vid=393d281c-fc34-40cb-9e7a-49bf22cd7cc0","ios":"levelo://app?vid=393d281c-fc34-40cb-9e7a-49bf22cd7cc0"},"vehicle_type_id":"4","last_reported":1703970350,"current_range_meters":7600,"station_id":"ce4bguh2rcd13ifvqckg","pricing_plan_id":"free"},{"bike_id":"2bf1159c-4b34-4bc3-a8b5-156be571c011","system_id":"levelo_inurba_marseille","lat":43.307843,"lon":5.373431,"is_reserved":false,"is_disabled":false,"rental_uris":{"android":"levelo://app?vid=2bf1159c-4b34-4bc3-a8b5-156be571c011","ios":"levelo://app?vid=2bf1159c-4b34-4bc3-a8b5-156be571c011"},"vehicle_type_id":"4","last_reported":1703970350,"current_range_meters":26400,"station_id":"","pricing_plan_id":"free"},{"bike_id":"64a93320-b6f7-4f00-82e1-5c71938933c4","system_id":"levelo_inurba_marseille","lat":43.312892,"lon":5.376652,"is_reserved":false,"is_disabled":false,"rental_uris":{"android":"levelo://app?vid=64a93320-b6f7-4f00-82e1-5c71938933c4","ios":"levelo://app?vid=64a93320-b6f7-4f00-82e1-5c71938933c4"},"vehicle_type_id":"4","last_reported":1703970350,"current_range_meters":22400,"station_id":"","pricing_plan_id":"free"},{"bike_id":"a3c8d623-a85c-45ca-8fac-8710ce7491da","system_id":"levelo_inurba_marseille","lat":43.30646,"lon":5.37202,"is_reserved":false,"is_disabled":false,"rental_uris":{"android":"levelo://app?vid=a3c8d623-a85c-45ca-8fac-8710ce7491da","ios":"levelo://app?vid=a3c8d623-a85c-45ca-8fac-8710ce7491da"},"vehicle_type_id":"4","last_reported":1703970350,"current_range_meters":7200,"station_id":"","pricing_plan_id":"free"},{"bike_id":"ed8d2401-58d4-4308-af8b-a9de9b5d5f8b","system_id":"levelo_inurba_marseille","lat":43.305368,"lon":5.367343,"is_reserved":false,"is_disabled":false,"rental_uris":{"android":"levelo://app?vid=ed8d2401-58d4-4308-af8b-a9de9b5d5f8b","ios":"levelo://app?vid=ed8d2401-58d4-4308-af8b-a9de9b5d5f8b"},"vehicle_type_id":"4","last_reported":1703970350,"current_range_meters":0,"station_id":"ce4bgrp2rcd13ifvqc9g","pricing_plan_id":"free"},{"bike_id":"7206ac5d-e796-41a3-841b-942e23f64401","system_id":"levelo_inurba_marseille","lat":43.30605,"lon":5.37224,"is_reserved":false,"is_disabled":false,"rental_uris":{"android":"levelo://app?vid=7206ac5d-e796-41a3-841b-942e23f64401","ios":"levelo://app?vid=7206ac5d-e796-41a3-841b-942e23f64401"},"vehicle_type_id":"4","last_reported":1703970350,"current_range_meters":4400,"station_id":"ce4bgqh2rcd13ifvqc4g","pricing_plan_id":"free"},{"bike_id":"93d7d131-eb70-4119-8ad5-a93fbd9e9c60","system_id":"levelo_inurba_marseille","lat":43.305989,"lon":5.37225,"is_reserved":false,"is_disabled":false,"rental_uris":{"android":"levelo://app?vid=93d7d131-eb70-4119-8ad5-a93fbd9e9c60","ios":"levelo://app?vid=93d7d131-eb70-4119-8ad5-a93fbd9e9c60"},"vehicle_type_id":"4","last_reported":1703970350,"current_range_meters":15200,"station_id":"ce4bgqh2rcd13ifvqc4g","pricing_plan_id":"free"},{"bike_id":"e8fa1057-27ce-4e49-ba4b-40a8f8a74095","system_id":"levelo_inurba_marseille","lat":43.30597,"lon":5.3722,"is_reserved":false,"is_disabled":false,"rental_uris":{"android":"levelo://app?vid=e8fa1057-27ce-4e49-ba4b-40a8f8a74095","ios":"levelo://app?vid=e8fa1057-27ce-4e49-ba4b-40a8f8a74095"},"vehicle_type_id":"4","last_reported":1703970350,"current_range_meters":14800,"station_id":"ce4bgqh2rcd13ifvqc4g","pricing_plan_id":"free"},{"bike_id":"9b8181e0-de5b-403b-9c0c-0bbb2501e513","system_id":"levelo_inurba_marseille","lat":43.305989,"lon":5.37225,"is_reserved":false,"is_disabled":false,"rental_uris":{"android":"levelo://app?vid=9b8181e0-de5b-403b-9c0c-0bbb2501e513","ios":"levelo://app?vid=9b8181e0-de5b-403b-9c0c-0bbb2501e513"},"vehicle_type_id":"4","last_reported":1703970350,"current_range_meters":19600,"station_id":"ce4bgqh2rcd13ifvqc4g","pricing_plan_id":"free"},{"bike_id":"25af9e1c-886c-4f64-92f2-5ca68e46ae4a","system_id":"levelo_inurba_marseille","lat":43.31722,"lon":5.37668,"is_reserved":false,"is_disabled":false,"rental_uris":{"android":"levelo://app?vid=25af9e1c-886c-4f64-92f2-5ca68e46ae4a","ios":"levelo://app?vid=25af9e1c-886c-4f64-92f2-5ca68e46ae4a"},"vehicle_type_id":"4","last_reported":1703970350,"current_range_meters":24800,"station_id":"","pricing_plan_id":"free"},{"bike_id":"9253fe3f-455b-4aa6-bab9-e1fac26cc6b9","system_id":"levelo_inurba_marseille","lat":43.307945,"lon":5.376487,"is_reserved":false,"is_disabled":false,"rental_uris":{"android":"levelo://app?vid=9253fe3f-455b-4aa6-bab9-e1fac26cc6b9","ios":"levelo://app?vid=9253fe3f-455b-4aa6-bab9-e1fac26cc6b9"},"vehicle_type_id":"4","last_reported":1703970350,"current_range_meters":15200,"station_id":"ce4bgv92rcd13ifvqcq0","pricing_plan_id":"free"},{"bike_id":"43ca8f0e-45c8-46db-88a7-88fa1ac98477","system_id":"levelo_inurba_marseille","lat":43.317075,"lon":5.377367,"is_reserved":false,"is_disabled":false,"rental_uris":{"android":"levelo://app?vid=43ca8f0e-45c8-46db-88a7-88fa1ac98477","ios":"levelo://app?vid=43ca8f0e-45c8-46db-88a7-88fa1ac98477"},"vehicle_type_id":"4","last_reported":1703970350,"current_range_meters":26800,"station_id":"ce4bgth2rcd13ifvqch0","pricing_plan_id":"free"},{"bike_id":"e5cdb6f6-1300-406e-9303-c0f03d781d71","system_id":"levelo_inurba_marseille","lat":43.317075,"lon":5.377367,"is_reserved":false,"is_disabled":false,"rental_uris":{"android":"levelo://app?vid=e5cdb6f6-1300-406e-9303-c0f03d781d71","ios":"levelo://app?vid=e5cdb6f6-1300-406e-9303-c0f03d781d71"},"vehicle_type_id":"4","last_reported":1703970350,"current_range_meters":7600,"station_id":"ce4bgth2rcd13ifvqch0","pricing_plan_id":"free"},{"bike_id":"d2a50887-7fae-4919-a646-1c2f42822421","system_id":"levelo_inurba_marseille","lat":43.303103,"lon":5.36894,"is_reserved":false,"is_disabled":false,"rental_uris":{"android":"levelo://app?vid=d2a50887-7fae-4919-a646-1c2f42822421","ios":"levelo://app?vid=d2a50887-7fae-4919-a646-1c2f42822421"},"vehicle_type_id":"4","last_reported":1703970350,"current_range_meters":0,"station_id":"ce4bgqh2rcd13ifvqc5g","pricing_plan_id":"free"},{"bike_id":"fa42125a-2b48-4e78-9b49-e4925096e263","system_id":"levelo_inurba_marseille","lat":43.315293,"lon":5.380349,"is_reserved":false,"is_disabled":false,"rental_uris":{"android":"levelo://app?vid=fa42125a-2b48-4e78-9b49-e4925096e263","ios":"levelo://app?vid=fa42125a-2b48-4e78-9b49-e4925096e263"},"vehicle_type_id":"4","last_reported":1703970350,"current_range_meters":10800,"station_id":"ce4bhsp2rcd13ifvqi50","pricing_plan_id":"free"},{"bike_id":"61dd09e8-6a2b-47a2-b828-925d650fad59","system_id":"levelo_inurba_marseille","lat":43.31529,"lon":5.38044,"is_reserved":false,"is_disabled":false,"rental_uris":{"android":"levelo://app?vid=61dd09e8-6a2b-47a2-b828-925d650fad59","ios":"levelo://app?vid=61dd09e8-6a2b-47a2-b828-925d650fad59"},"vehicle_type_id":"4","last_reported":1703970350,"current_range_meters":5600,"station_id":"ce4bhsp2rcd13ifvqi50","pricing_plan_id":"free"},{"bike_id":"e4dcb29d-6179-427e-822d-8621bcd08456","system_id":"levelo_inurba_marseille","lat":43.304708,"lon":5.379039,"is_reserved":false,"is_disabled":false,"rental_uris":{"android":"levelo://app?vid=e4dcb29d-6179-427e-822d-8621bcd08456","ios":"levelo://app?vid=e4dcb29d-6179-427e-822d-8621bcd08456"},"vehicle_type_id":"4","last_reported":1703970350,"current_range_meters":21200,"station_id":"","pricing_plan_id":"free"},{"bike_id":"ff974162-bbaa-4135-9463-d01d3c5f32bb","system_id":"levelo_inurba_marseille","lat":43.304606,"lon":5.379026,"is_reserved":false,"is_disabled":false,"rental_uris":{"android":"levelo://app?vid=ff974162-bbaa-4135-9463-d01d3c5f32bb","ios":"levelo://app?vid=ff974162-bbaa-4135-9463-d01d3c5f32bb"},"vehicle_type_id":"4","last_reported":1703970350,"current_range_meters":8800,"station_id":"ce4bgup2rcd13ifvqcn0","pricing_plan_id":"free"},{"bike_id":"ca341ae7-df28-456b-b1c2-455111f76789","system_id":"levelo_inurba_marseille","lat":43.324771,"lon":5.36557,"is_reserved":false,"is_disabled":false,"rental_uris":{"android":"levelo://app?vid=ca341ae7-df28-456b-b1c2-455111f76789","ios":"levelo://app?vid=ca341ae7-df28-456b-b1c2-455111f76789"},"vehicle_type_id":"4","last_reported":1703970350,"current_range_meters":20800,"station_id":"ce4bhs12rcd13ifvqhvg","pricing_plan_id":"free"},{"bike_id":"cf7de832-7671-448c-8926-8c4cffc145a8","system_id":"levelo_inurba_marseille","lat":43.319935,"lon":5.381699,"is_reserved":false,"is_disabled":false,"rental_uris":{"android":"levelo://app?vid=cf7de832-7671-448c-8926-8c4cffc145a8","ios":"levelo://app?vid=cf7de832-7671-448c-8926-8c4cffc145a8"},"vehicle_type_id":"4","last_reported":1703970350,"current_range_meters":8000,"station_id":"ce4bhr12rcd13ifvqhpg","pricing_plan_id":"free"},{"bike_id":"7500c97d-9bf7-42bd-9502-7d8248cf6a90","system_id":"levelo_inurba_marseille","lat":43.313571,"lon":5.384829,"is_reserved":false,"is_disabled":false,"rental_uris":{"android":"levelo://app?vid=7500c97d-9bf7-42bd-9502-7d8248cf6a90","ios":"levelo://app?vid=7500c97d-9bf7-42bd-9502-7d8248cf6a90"},"vehicle_type_id":"4","last_reported":1703970350,"current_range_meters":23600,"station_id":"ce4bgt92rcd13ifvqcf0","pricing_plan_id":"free"},{"bike_id":"a38004ee-721c-4ebf-9263-150d7ec6133c","system_id":"levelo_inurba_marseille","lat":43.313571,"lon":5.384829,"is_reserved":false,"is_disabled":false,"rental_uris":{"android":"levelo://app?vid=a38004ee-721c-4ebf-9263-150d7ec6133c","ios":"levelo://app?vid=a38004ee-721c-4ebf-9263-150d7ec6133c"},"vehicle_type_id":"4","last_reported":1703970350,"current_range_meters":23600,"station_id":"ce4bgt92rcd13ifvqcf0","pricing_plan_id":"free"},{"bike_id":"c05d138a-9eaa-4578-84f8-5eb99c852b0c","system_id":"levelo_inurba_marseille","lat":43.299968,"lon":5.374351,"is_reserved":false,"is_disabled":false,"rental_uris":{"android":"levelo://app?vid=c05d138a-9eaa-4578-84f8-5eb99c852b0c","ios":"levelo://app?vid=c05d138a-9eaa-4578-84f8-5eb99c852b0c"},"vehicle_type_id":"4","last_reported":1703970350,"current_range_meters":6800,"station_id":"","pricing_plan_id":"free"},{"bike_id":"6c2c33fc-0dd3-4683-a70f-669c98f4404b","system_id":"levelo_inurba_marseille","lat":43.305364,"lon":5.384119,"is_reserved":false,"is_disabled":false,"rental_uris":{"android":"levelo://app?vid=6c2c33fc-0dd3-4683-a70f-669c98f4404b","ios":"levelo://app?vid=6c2c33fc-0dd3-4683-a70f-669c98f4404b"},"vehicle_type_id":"4","last_reported":1703970350,"current_range_meters":0,"station_id":"ce4bgg92rcd13ifvqb30","pricing_plan_id":"free"},{"bike_id":"4911eca9-9de5-440b-99c2-f0b5109ca9e7","system_id":"levelo_inurba_marseille","lat":43.311722,"lon":5.387247,"is_reserved":false,"is_disabled":false,"rental_uris":{"android":"levelo://app?vid=4911eca9-9de5-440b-99c2-f0b5109ca9e7","ios":"levelo://app?vid=4911eca9-9de5-440b-99c2-f0b5109ca9e7"},"vehicle_type_id":"4","last_reported":1703970350,"current_range_meters":24000,"station_id":"ce4bgv12rcd13ifvqcp0","pricing_plan_id":"free"},{"bike_id":"c8810852-277f-44f2-a712-d1c79f44e282","system_id":"levelo_inurba_marseille","lat":43.297794,"lon":5.370888,"is_reserved":false,"is_disabled":false,"rental_uris":{"android":"levelo://app?vid=c8810852-277f-44f2-a712-d1c79f44e282","ios":"levelo://app?vid=c8810852-277f-44f2-a712-d1c79f44e282"},"vehicle_type_id":"4","last_reported":1703970350,"current_range_meters":0,"station_id":"ce4bgop2rcd13ifvqc1g","pricing_plan_id":"free"},{"bike_id":"ca51584c-a91c-4d05-9810-714dc007f39c","system_id":"levelo_inurba_marseille","lat":43.297794,"lon":5.370888,"is_reserved":false,"is_disabled":false,"rental_uris":{"android":"levelo://app?vid=ca51584c-a91c-4d05-9810-714dc007f39c","ios":"levelo://app?vid=ca51584c-a91c-4d05-9810-714dc007f39c"},"vehicle_type_id":"4","last_reported":1703970350,"current_range_meters":7200,"station_id":"ce4bgop2rcd13ifvqc1g","pricing_plan_id":"free"},{"bike_id":"2154e13a-10ef-4d79-b4f3-a92c055765e5","system_id":"levelo_inurba_marseille","lat":43.322872,"lon":5.382756,"is_reserved":false,"is_disabled":false,"rental_uris":{"android":"levelo://app?vid=2154e13a-10ef-4d79-b4f3-a92c055765e5","ios":"levelo://app?vid=2154e13a-10ef-4d79-b4f3-a92c055765e5"},"vehicle_type_id":"4","last_reported":1703970350,"current_range_meters":31600,"station_id":"ce4bhr12rcd13ifvqhqg","pricing_plan_id":"free"},{"bike_id":"78b2282b-b46b-4494-bc4d-0783d9b9b106","system_id":"levelo_inurba_marseille","lat":43.322872,"lon":5.382756,"is_reserved":false,"is_disabled":false,"rental_uris":{"android":"levelo://app?vid=78b2282b-b46b-4494-bc4d-0783d9b9b106","ios":"levelo://app?vid=78b2282b-b46b-4494-bc4d-0783d9b9b106"},"vehicle_type_id":"4","last_reported":1703970350,"current_range_meters":8800,"station_id":"ce4bhr12rcd13ifvqhqg","pricing_plan_id":"free"},{"bike_id":"3406ac08-144e-419c-8a8c-9c89910b5b78","system_id":"levelo_inurba_marseille","lat":43.328226,"lon":5.366817,"is_reserved":false,"is_disabled":false,"rental_uris":{"android":"levelo://app?vid=3406ac08-144e-419c-8a8c-9c89910b5b78","ios":"levelo://app?vid=3406ac08-144e-419c-8a8c-9c89910b5b78"},"vehicle_type_id":"4","last_reported":1703970350,"current_range_meters":8800,"station_id":"ce4bhs92rcd13ifvqi0g","pricing_plan_id":"free"},{"bike_id":"7d6d006d-1ffd-499a-b21c-af208ba00600","system_id":"levelo_inurba_marseille","lat":43.32823,"lon":5.366787,"is_reserved":false,"is_disabled":false,"rental_uris":{"android":"levelo://app?vid=7d6d006d-1ffd-499a-b21c-af208ba00600","ios":"levelo://app?vid=7d6d006d-1ffd-499a-b21c-af208ba00600"},"vehicle_type_id":"4","last_reported":1703970350,"current_range_meters":22400,"station_id":"ce4bhs92rcd13ifvqi0g","pricing_plan_id":"free"},{"bike_id":"51714c4a-3132-4951-88ec-80e85fa125e8","system_id":"levelo_inurba_marseille","lat":43.328238,"lon":5.366837,"is_reserved":false,"is_disabled":false,"rental_uris":{"android":"levelo://app?vid=51714c4a-3132-4951-88ec-80e85fa125e8","ios":"levelo://app?vid=51714c4a-3132-4951-88ec-80e85fa125e8"},"vehicle_type_id":"4","last_reported":1703970350,"current_range_meters":8400,"station_id":"ce4bhs92rcd13ifvqi0g","pricing_plan_id":"free"},{"bike_id":"7aa6a530-3ac6-4ec6-a447-a7bf4c489e07","system_id":"levelo_inurba_marseille","lat":43.328246,"lon":5.366866,"is_reserved":false,"is_disabled":false,"rental_uris":{"android":"levelo://app?vid=7aa6a530-3ac6-4ec6-a447-a7bf4c489e07","ios":"levelo://app?vid=7aa6a530-3ac6-4ec6-a447-a7bf4c489e07"},"vehicle_type_id":"4","last_reported":1703970350,"current_range_meters":18800,"station_id":"ce4bhs92rcd13ifvqi0g","pricing_plan_id":"free"},{"bike_id":"b30b3d1b-ef61-4776-bd7b-61c34fd8cc81","system_id":"levelo_inurba_marseille","lat":43.32825,"lon":5.36687,"is_reserved":false,"is_disabled":false,"rental_uris":{"android":"levelo://app?vid=b30b3d1b-ef61-4776-bd7b-61c34fd8cc81","ios":"levelo://app?vid=b30b3d1b-ef61-4776-bd7b-61c34fd8cc81"},"vehicle_type_id":"4","last_reported":1703970350,"current_range_meters":5600,"station_id":"ce4bhs92rcd13ifvqi0g","pricing_plan_id":"free"},{"bike_id":"74ff96ff-c851-4d57-8883-0d7347bd471f","system_id":"levelo_inurba_marseille","lat":43.32826,"lon":5.36682,"is_reserved":false,"is_disabled":false,"rental_uris":{"android":"levelo://app?vid=74ff96ff-c851-4d57-8883-0d7347bd471f","ios":"levelo://app?vid=74ff96ff-c851-4d57-8883-0d7347bd471f"},"vehicle_type_id":"4","last_reported":1703970350,"current_range_meters":29600,"station_id":"ce4bhs92rcd13ifvqi0g","pricing_plan_id":"free"},{"bike_id":"de708f00-7118-4d7c-9021-d7dcbd798473","system_id":"levelo_inurba_marseille","lat":43.328267,"lon":5.366802,"is_reserved":false,"is_disabled":false,"rental_uris":{"android":"levelo://app?vid=de708f00-7118-4d7c-9021-d7dcbd798473","ios":"levelo://app?vid=de708f00-7118-4d7c-9021-d7dcbd798473"},"vehicle_type_id":"4","last_reported":1703970350,"current_range_meters":29600,"station_id":"ce4bhs92rcd13ifvqi0g","pricing_plan_id":"free"},{"bike_id":"a677cd10-a09b-4b2e-bffd-45b05d2c9229","system_id":"levelo_inurba_marseille","lat":43.328268,"lon":5.366779,"is_reserved":false,"is_disabled":false,"rental_uris":{"android":"levelo://app?vid=a677cd10-a09b-4b2e-bffd-45b05d2c9229","ios":"levelo://app?vid=a677cd10-a09b-4b2e-bffd-45b05d2c9229"},"vehicle_type_id":"4","last_reported":1703970350,"current_range_meters":17200,"station_id":"ce4bhs92rcd13ifvqi0g","pricing_plan_id":"free"},{"bike_id":"43517afb-7930-42e8-a305-e900a3000a28","system_id":"levelo_inurba_marseille","lat":43.32827,"lon":5.36677,"is_reserved":false,"is_disabled":false,"rental_uris":{"android":"levelo://app?vid=43517afb-7930-42e8-a305-e900a3000a28","ios":"levelo://app?vid=43517afb-7930-42e8-a305-e900a3000a28"},"vehicle_type_id":"4","last_reported":1703970350,"current_range_meters":18800,"station_id":"ce4bhs92rcd13ifvqi0g","pricing_plan_id":"free"},{"bike_id":"ea7074d7-b7c9-4941-82c2-dff391bae9cb","system_id":"levelo_inurba_marseille","lat":43.32827,"lon":5.366742,"is_reserved":false,"is_disabled":false,"rental_uris":{"android":"levelo://app?vid=ea7074d7-b7c9-4941-82c2-dff391bae9cb","ios":"levelo://app?vid=ea7074d7-b7c9-4941-82c2-dff391bae9cb"},"vehicle_type_id":"4","last_reported":1703970350,"current_range_meters":27600,"station_id":"ce4bhs92rcd13ifvqi0g","pricing_plan_id":"free"},{"bike_id":"5c89eee7-6e83-42b4-bd81-efdcf68f6666","system_id":"levelo_inurba_marseille","lat":43.328275,"lon":5.366818,"is_reserved":false,"is_disabled":false,"rental_uris":{"android":"levelo://app?vid=5c89eee7-6e83-42b4-bd81-efdcf68f6666","ios":"levelo://app?vid=5c89eee7-6e83-42b4-bd81-efdcf68f6666"},"vehicle_type_id":"4","last_reported":1703970350,"current_range_meters":4800,"station_id":"ce4bhs92rcd13ifvqi0g","pricing_plan_id":"free"},{"bike_id":"c99c1421-6c70-45e1-a99f-19afba82ca69","system_id":"levelo_inurba_marseille","lat":43.32828,"lon":5.36676,"is_reserved":false,"is_disabled":false,"rental_uris":{"android":"levelo://app?vid=c99c1421-6c70-45e1-a99f-19afba82ca69","ios":"levelo://app?vid=c99c1421-6c70-45e1-a99f-19afba82ca69"},"vehicle_type_id":"4","last_reported":1703970350,"current_range_meters":24800,"station_id":"ce4bhs92rcd13ifvqi0g","pricing_plan_id":"free"},{"bike_id":"904f83aa-e9ab-401d-84c1-9edfed82b884","system_id":"levelo_inurba_marseille","lat":43.328371,"lon":5.366912,"is_reserved":false,"is_disabled":false,"rental_uris":{"android":"levelo://app?vid=904f83aa-e9ab-401d-84c1-9edfed82b884","ios":"levelo://app?vid=904f83aa-e9ab-401d-84c1-9edfed82b884"},"vehicle_type_id":"4","last_reported":1703970350,"current_range_meters":24800,"station_id":"ce4bhs92rcd13ifvqi0g","pricing_plan_id":"free"},{"bike_id":"9d832f49-b330-492c-bca5-26b211dfab4e","system_id":"levelo_inurba_marseille","lat":43.328297,"lon":5.366832,"is_reserved":false,"is_disabled":false,"rental_uris":{"android":"levelo://app?vid=9d832f49-b330-492c-bca5-26b211dfab4e","ios":"levelo://app?vid=9d832f49-b330-492c-bca5-26b211dfab4e"},"vehicle_type_id":"4","last_reported":1703970350,"current_range_meters":18800,"station_id":"ce4bhs92rcd13ifvqi0g","pricing_plan_id":"free"},{"bike_id":"a448ca86-2b35-41e1-89c4-32a99bab0563","system_id":"levelo_inurba_marseille","lat":43.328371,"lon":5.366912,"is_reserved":false,"is_disabled":false,"rental_uris":{"android":"levelo://app?vid=a448ca86-2b35-41e1-89c4-32a99bab0563","ios":"levelo://app?vid=a448ca86-2b35-41e1-89c4-32a99bab0563"},"vehicle_type_id":"4","last_reported":1703970350,"current_range_meters":13600,"station_id":"ce4bhs92rcd13ifvqi0g","pricing_plan_id":"free"},{"bike_id":"dd3e2261-6fdc-46af-99cc-34605c9d28f5","system_id":"levelo_inurba_marseille","lat":43.328313,"lon":5.366813,"is_reserved":false,"is_disabled":false,"rental_uris":{"android":"levelo://app?vid=dd3e2261-6fdc-46af-99cc-34605c9d28f5","ios":"levelo://app?vid=dd3e2261-6fdc-46af-99cc-34605c9d28f5"},"vehicle_type_id":"4","last_reported":1703970350,"current_range_meters":12400,"station_id":"ce4bhs92rcd13ifvqi0g","pricing_plan_id":"free"},{"bike_id":"70017d6e-6f1a-4af6-baf6-320a119b5691","system_id":"levelo_inurba_marseille","lat":43.32832,"lon":5.36678,"is_reserved":false,"is_disabled":false,"rental_uris":{"android":"levelo://app?vid=70017d6e-6f1a-4af6-baf6-320a119b5691","ios":"levelo://app?vid=70017d6e-6f1a-4af6-baf6-320a119b5691"},"vehicle_type_id":"4","last_reported":1703970350,"current_range_meters":27600,"station_id":"ce4bhs92rcd13ifvqi0g","pricing_plan_id":"free"},{"bike_id":"370cccf7-c9ba-46c2-819b-c8e8cacc4c21","system_id":"levelo_inurba_marseille","lat":43.3277,"lon":5.37458,"is_reserved":false,"is_disabled":false,"rental_uris":{"android":"levelo://app?vid=370cccf7-c9ba-46c2-819b-c8e8cacc4c21","ios":"levelo://app?vid=370cccf7-c9ba-46c2-819b-c8e8cacc4c21"},"vehicle_type_id":"4","last_reported":1703970350,"current_range_meters":13200,"station_id":"","pricing_plan_id":"free"},{"bike_id":"0225229e-d8a4-47f4-8328-f05dd152135f","system_id":"levelo_inurba_marseille","lat":43.2968,"lon":5.37291,"is_reserved":false,"is_disabled":false,"rental_uris":{"android":"levelo://app?vid=0225229e-d8a4-47f4-8328-f05dd152135f","ios":"levelo://app?vid=0225229e-d8a4-47f4-8328-f05dd152135f"},"vehicle_type_id":"4","last_reported":1703970350,"current_range_meters":12800,"station_id":"ce4bgk12rcd13ifvqbj0","pricing_plan_id":"free"},{"bike_id":"c3cca457-155c-4c29-8a0f-ee0cf07c479c","system_id":"levelo_inurba_marseille","lat":43.2968,"lon":5.37291,"is_reserved":false,"is_disabled":false,"rental_uris":{"android":"levelo://app?vid=c3cca457-155c-4c29-8a0f-ee0cf07c479c","ios":"levelo://app?vid=c3cca457-155c-4c29-8a0f-ee0cf07c479c"},"vehicle_type_id":"4","last_reported":1703970350,"current_range_meters":20800,"station_id":"ce4bgk12rcd13ifvqbj0","pricing_plan_id":"free"},{"bike_id":"921b424d-ad0d-4c7a-9d74-66e3a49bfa19","system_id":"levelo_inurba_marseille","lat":43.32934,"lon":5.36612,"is_reserved":false,"is_disabled":false,"rental_uris":{"android":"levelo://app?vid=921b424d-ad0d-4c7a-9d74-66e3a49bfa19","ios":"levelo://app?vid=921b424d-ad0d-4c7a-9d74-66e3a49bfa19"},"vehicle_type_id":"4","last_reported":1703970350,"current_range_meters":4400,"station_id":"","pricing_plan_id":"free"},{"bike_id":"ee5307fe-42e4-4269-ad7c-f7d65c5fc0ca","system_id":"levelo_inurba_marseille","lat":43.296131,"lon":5.370791,"is_reserved":false,"is_disabled":false,"rental_uris":{"android":"levelo://app?vid=ee5307fe-42e4-4269-ad7c-f7d65c5fc0ca","ios":"levelo://app?vid=ee5307fe-42e4-4269-ad7c-f7d65c5fc0ca"},"vehicle_type_id":"4","last_reported":1703970350,"current_range_meters":20400,"station_id":"ce4bgnh2rcd13ifvqc0g","pricing_plan_id":"free"},{"bike_id":"6b663c47-5b4a-4b4d-b327-57f76d4e22e4","system_id":"levelo_inurba_marseille","lat":43.296921,"lon":5.376579,"is_reserved":false,"is_disabled":false,"rental_uris":{"android":"levelo://app?vid=6b663c47-5b4a-4b4d-b327-57f76d4e22e4","ios":"levelo://app?vid=6b663c47-5b4a-4b4d-b327-57f76d4e22e4"},"vehicle_type_id":"4","last_reported":1703970350,"current_range_meters":14000,"station_id":"ce4bgkh2rcd13ifvqbl0","pricing_plan_id":"free"},{"bike_id":"b4191d40-ee19-4f55-bb71-71954e731e1c","system_id":"levelo_inurba_marseille","lat":43.309589,"lon":5.390258,"is_reserved":false,"is_disabled":false,"rental_uris":{"android":"levelo://app?vid=b4191d40-ee19-4f55-bb71-71954e731e1c","ios":"levelo://app?vid=b4191d40-ee19-4f55-bb71-71954e731e1c"},"vehicle_type_id":"4","last_reported":1703970350,"current_range_meters":14800,"station_id":"ce4bgup2rcd13ifvqco0","pricing_plan_id":"free"},{"bike_id":"776fd869-f7c2-4fc9-b795-82bacf0a478c","system_id":"levelo_inurba_marseille","lat":43.317557,"lon":5.390173,"is_reserved":false,"is_disabled":false,"rental_uris":{"android":"levelo://app?vid=776fd869-f7c2-4fc9-b795-82bacf0a478c","ios":"levelo://app?vid=776fd869-f7c2-4fc9-b795-82bacf0a478c"},"vehicle_type_id":"4","last_reported":1703970350,"current_range_meters":20000,"station_id":"ce4bhqp2rcd13ifvqhng","pricing_plan_id":"free"},{"bike_id":"99908e46-37a9-41cf-99cb-dba921b44ce3","system_id":"levelo_inurba_marseille","lat":43.317557,"lon":5.390173,"is_reserved":false,"is_disabled":false,"rental_uris":{"android":"levelo://app?vid=99908e46-37a9-41cf-99cb-dba921b44ce3","ios":"levelo://app?vid=99908e46-37a9-41cf-99cb-dba921b44ce3"},"vehicle_type_id":"4","last_reported":1703970350,"current_range_meters":28800,"station_id":"ce4bhqp2rcd13ifvqhng","pricing_plan_id":"free"},{"bike_id":"cfd2ce3b-94b9-4f17-98dd-bac5ea744b10","system_id":"levelo_inurba_marseille","lat":43.295748,"lon":5.37522,"is_reserved":false,"is_disabled":false,"rental_uris":{"android":"levelo://app?vid=cfd2ce3b-94b9-4f17-98dd-bac5ea744b10","ios":"levelo://app?vid=cfd2ce3b-94b9-4f17-98dd-bac5ea744b10"},"vehicle_type_id":"4","last_reported":1703970350,"current_range_meters":23200,"station_id":"ce4bgh92rcd13ifvqb50","pricing_plan_id":"free"},{"bike_id":"d60802d6-4f47-444a-b234-883690eec05b","system_id":"levelo_inurba_marseille","lat":43.33062,"lon":5.3627,"is_reserved":false,"is_disabled":false,"rental_uris":{"android":"levelo://app?vid=d60802d6-4f47-444a-b234-883690eec05b","ios":"levelo://app?vid=d60802d6-4f47-444a-b234-883690eec05b"},"vehicle_type_id":"4","last_reported":1703970350,"current_range_meters":26000,"station_id":"","pricing_plan_id":"free"},{"bike_id":"c4e46350-aebd-4208-b81a-4c9bf8156c0e","system_id":"levelo_inurba_marseille","lat":43.299707,"lon":5.384859,"is_reserved":false,"is_disabled":false,"rental_uris":{"android":"levelo://app?vid=c4e46350-aebd-4208-b81a-4c9bf8156c0e","ios":"levelo://app?vid=c4e46350-aebd-4208-b81a-4c9bf8156c0e"},"vehicle_type_id":"4","last_reported":1703970350,"current_range_meters":30800,"station_id":"ce4bgj92rcd13ifvqbd0","pricing_plan_id":"free"},{"bike_id":"7119845d-00aa-4d9f-be8c-fc97d41f1380","system_id":"levelo_inurba_marseille","lat":43.297594,"lon":5.381134,"is_reserved":false,"is_disabled":false,"rental_uris":{"android":"levelo://app?vid=7119845d-00aa-4d9f-be8c-fc97d41f1380","ios":"levelo://app?vid=7119845d-00aa-4d9f-be8c-fc97d41f1380"},"vehicle_type_id":"4","last_reported":1703970350,"current_range_meters":14400,"station_id":"ce4bgip2rcd13ifvqbb0","pricing_plan_id":"free"},{"bike_id":"c975ccef-db5b-4954-820a-f7708880149c","system_id":"levelo_inurba_marseille","lat":43.299717,"lon":5.384845,"is_reserved":false,"is_disabled":false,"rental_uris":{"android":"levelo://app?vid=c975ccef-db5b-4954-820a-f7708880149c","ios":"levelo://app?vid=c975ccef-db5b-4954-820a-f7708880149c"},"vehicle_type_id":"4","last_reported":1703970350,"current_range_meters":19600,"station_id":"ce4bgj92rcd13ifvqbd0","pricing_plan_id":"free"},{"bike_id":"122ea523-742e-4de1-aad4-693e2611c6b8","system_id":"levelo_inurba_marseille","lat":43.32367,"lon":5.388836,"is_reserved":false,"is_disabled":false,"rental_uris":{"android":"levelo://app?vid=122ea523-742e-4de1-aad4-693e2611c6b8","ios":"levelo://app?vid=122ea523-742e-4de1-aad4-693e2611c6b8"},"vehicle_type_id":"4","last_reported":1703970350,"current_range_meters":5600,"station_id":"ce4bhqp2rcd13ifvqhog","pricing_plan_id":"free"},{"bike_id":"21c35184-2cff-45c5-a579-0cd18467e694","system_id":"levelo_inurba_marseille","lat":43.32367,"lon":5.388836,"is_reserved":false,"is_disabled":false,"rental_uris":{"android":"levelo://app?vid=21c35184-2cff-45c5-a579-0cd18467e694","ios":"levelo://app?vid=21c35184-2cff-45c5-a579-0cd18467e694"},"vehicle_type_id":"4","last_reported":1703970350,"current_range_meters":8000,"station_id":"ce4bhqp2rcd13ifvqhog","pricing_plan_id":"free"},{"bike_id":"c472997c-8921-4240-9407-9bbb195b44d8","system_id":"levelo_inurba_marseille","lat":43.32367,"lon":5.388836,"is_reserved":false,"is_disabled":false,"rental_uris":{"android":"levelo://app?vid=c472997c-8921-4240-9407-9bbb195b44d8","ios":"levelo://app?vid=c472997c-8921-4240-9407-9bbb195b44d8"},"vehicle_type_id":"4","last_reported":1703970350,"current_range_meters":0,"station_id":"ce4bhqp2rcd13ifvqhog","pricing_plan_id":"free"},{"bike_id":"fdba10d6-6c0f-4aa0-aa2d-a60cd34dc728","system_id":"levelo_inurba_marseille","lat":43.32367,"lon":5.388836,"is_reserved":false,"is_disabled":false,"rental_uris":{"android":"levelo://app?vid=fdba10d6-6c0f-4aa0-aa2d-a60cd34dc728","ios":"levelo://app?vid=fdba10d6-6c0f-4aa0-aa2d-a60cd34dc728"},"vehicle_type_id":"4","last_reported":1703970350,"current_range_meters":14000,"station_id":"ce4bhqp2rcd13ifvqhog","pricing_plan_id":"free"},{"bike_id":"6dc8b67f-7677-4649-90b5-6c004787a94e","system_id":"levelo_inurba_marseille","lat":43.32367,"lon":5.388836,"is_reserved":false,"is_disabled":false,"rental_uris":{"android":"levelo://app?vid=6dc8b67f-7677-4649-90b5-6c004787a94e","ios":"levelo://app?vid=6dc8b67f-7677-4649-90b5-6c004787a94e"},"vehicle_type_id":"4","last_reported":1703970350,"current_range_meters":14400,"station_id":"ce4bhqp2rcd13ifvqhog","pricing_plan_id":"free"},{"bike_id":"612a3c90-fa60-4063-b520-2e328b1dbc9d","system_id":"levelo_inurba_marseille","lat":43.293009,"lon":5.374584,"is_reserved":false,"is_disabled":false,"rental_uris":{"android":"levelo://app?vid=612a3c90-fa60-4063-b520-2e328b1dbc9d","ios":"levelo://app?vid=612a3c90-fa60-4063-b520-2e328b1dbc9d"},"vehicle_type_id":"4","last_reported":1703970350,"current_range_meters":3200,"station_id":"ce4bgi12rcd13ifvqb70","pricing_plan_id":"free"},{"bike_id":"f02a6172-55b3-4252-be09-9abb3aa19526","system_id":"levelo_inurba_marseille","lat":43.30601,"lon":5.39364,"is_reserved":false,"is_disabled":false,"rental_uris":{"android":"levelo://app?vid=f02a6172-55b3-4252-be09-9abb3aa19526","ios":"levelo://app?vid=f02a6172-55b3-4252-be09-9abb3aa19526"},"vehicle_type_id":"4","last_reported":1703970350,"current_range_meters":10800,"station_id":"ce4bh0p2rcd13ifvqd80","pricing_plan_id":"free"},{"bike_id":"3f41d114-2b24-4b63-9a89-294d47102845","system_id":"levelo_inurba_marseille","lat":43.303002,"lon":5.392142,"is_reserved":false,"is_disabled":false,"rental_uris":{"android":"levelo://app?vid=3f41d114-2b24-4b63-9a89-294d47102845","ios":"levelo://app?vid=3f41d114-2b24-4b63-9a89-294d47102845"},"vehicle_type_id":"4","last_reported":1703970350,"current_range_meters":30000,"station_id":"ce4bgkh2rcd13ifvqbk0","pricing_plan_id":"free"},{"bike_id":"a9219357-ca43-481e-be53-cbfb2626f47d","system_id":"levelo_inurba_marseille","lat":43.302992,"lon":5.392136,"is_reserved":false,"is_disabled":false,"rental_uris":{"android":"levelo://app?vid=a9219357-ca43-481e-be53-cbfb2626f47d","ios":"levelo://app?vid=a9219357-ca43-481e-be53-cbfb2626f47d"},"vehicle_type_id":"4","last_reported":1703970350,"current_range_meters":22000,"station_id":"ce4bgkh2rcd13ifvqbk0","pricing_plan_id":"free"},{"bike_id":"25acdb4d-878b-4d4b-95cd-9e77dfd8e2ec","system_id":"levelo_inurba_marseille","lat":43.30085,"lon":5.390856,"is_reserved":false,"is_disabled":false,"rental_uris":{"android":"levelo://app?vid=25acdb4d-878b-4d4b-95cd-9e77dfd8e2ec","ios":"levelo://app?vid=25acdb4d-878b-4d4b-95cd-9e77dfd8e2ec"},"vehicle_type_id":"4","last_reported":1703970350,"current_range_meters":18800,"station_id":"ce4bh192rcd13ifvqdb0","pricing_plan_id":"free"},{"bike_id":"0f5dbb1d-2b65-47a1-a61a-a3ffa33a4d84","system_id":"levelo_inurba_marseille","lat":43.292311,"lon":5.360731,"is_reserved":false,"is_disabled":false,"rental_uris":{"android":"levelo://app?vid=0f5dbb1d-2b65-47a1-a61a-a3ffa33a4d84","ios":"levelo://app?vid=0f5dbb1d-2b65-47a1-a61a-a3ffa33a4d84"},"vehicle_type_id":"4","last_reported":1703970350,"current_range_meters":30000,"station_id":"ce4bhbh2rcd13ifvqeqg","pricing_plan_id":"free"},{"bike_id":"2da1ed21-bb39-467e-b66c-5d6bf4465df8","system_id":"levelo_inurba_marseille","lat":43.298761,"lon":5.389061,"is_reserved":false,"is_disabled":false,"rental_uris":{"android":"levelo://app?vid=2da1ed21-bb39-467e-b66c-5d6bf4465df8","ios":"levelo://app?vid=2da1ed21-bb39-467e-b66c-5d6bf4465df8"},"vehicle_type_id":"4","last_reported":1703970350,"current_range_meters":23600,"station_id":"","pricing_plan_id":"free"},{"bike_id":"d589cea2-e085-43ec-8d08-7b6bdc3f3aa6","system_id":"levelo_inurba_marseille","lat":43.308825,"lon":5.396353,"is_reserved":false,"is_disabled":false,"rental_uris":{"android":"levelo://app?vid=d589cea2-e085-43ec-8d08-7b6bdc3f3aa6","ios":"levelo://app?vid=d589cea2-e085-43ec-8d08-7b6bdc3f3aa6"},"vehicle_type_id":"4","last_reported":1703970350,"current_range_meters":17600,"station_id":"ce4bh012rcd13ifvqcv0","pricing_plan_id":"free"},{"bike_id":"5cf30968-0f7d-4d59-becc-64e3e994078f","system_id":"levelo_inurba_marseille","lat":43.313291,"lon":5.396838,"is_reserved":false,"is_disabled":false,"rental_uris":{"android":"levelo://app?vid=5cf30968-0f7d-4d59-becc-64e3e994078f","ios":"levelo://app?vid=5cf30968-0f7d-4d59-becc-64e3e994078f"},"vehicle_type_id":"4","last_reported":1703970350,"current_range_meters":26400,"station_id":"ce4bgvp2rcd13ifvqcu0","pricing_plan_id":"free"},{"bike_id":"e5bf2622-e41e-4cdd-9e93-6fc6458d1966","system_id":"levelo_inurba_marseille","lat":43.313291,"lon":5.396838,"is_reserved":false,"is_disabled":false,"rental_uris":{"android":"levelo://app?vid=e5bf2622-e41e-4cdd-9e93-6fc6458d1966","ios":"levelo://app?vid=e5bf2622-e41e-4cdd-9e93-6fc6458d1966"},"vehicle_type_id":"4","last_reported":1703970350,"current_range_meters":4000,"station_id":"ce4bgvp2rcd13ifvqcu0","pricing_plan_id":"free"},{"bike_id":"6f0a59e0-d1ec-4ff7-b99f-345de029212c","system_id":"levelo_inurba_marseille","lat":43.313291,"lon":5.396838,"is_reserved":false,"is_disabled":false,"rental_uris":{"android":"levelo://app?vid=6f0a59e0-d1ec-4ff7-b99f-345de029212c","ios":"levelo://app?vid=6f0a59e0-d1ec-4ff7-b99f-345de029212c"},"vehicle_type_id":"4","last_reported":1703970350,"current_range_meters":28800,"station_id":"ce4bgvp2rcd13ifvqcu0","pricing_plan_id":"free"},{"bike_id":"a93f5f1c-34b5-4794-a9a6-baa61b4b0f07","system_id":"levelo_inurba_marseille","lat":43.313291,"lon":5.396838,"is_reserved":false,"is_disabled":false,"rental_uris":{"android":"levelo://app?vid=a93f5f1c-34b5-4794-a9a6-baa61b4b0f07","ios":"levelo://app?vid=a93f5f1c-34b5-4794-a9a6-baa61b4b0f07"},"vehicle_type_id":"4","last_reported":1703970350,"current_range_meters":31600,"station_id":"ce4bgvp2rcd13ifvqcu0","pricing_plan_id":"free"},{"bike_id":"a08d5d7e-1bce-4b74-8609-02c4624afbd1","system_id":"levelo_inurba_marseille","lat":43.313291,"lon":5.396838,"is_reserved":false,"is_disabled":false,"rental_uris":{"android":"levelo://app?vid=a08d5d7e-1bce-4b74-8609-02c4624afbd1","ios":"levelo://app?vid=a08d5d7e-1bce-4b74-8609-02c4624afbd1"},"vehicle_type_id":"4","last_reported":1703970350,"current_range_meters":26800,"station_id":"ce4bgvp2rcd13ifvqcu0","pricing_plan_id":"free"},{"bike_id":"8998fe39-5e42-4288-b877-553da6e7af1e","system_id":"levelo_inurba_marseille","lat":43.29529,"lon":5.385581,"is_reserved":false,"is_disabled":false,"rental_uris":{"android":"levelo://app?vid=8998fe39-5e42-4288-b877-553da6e7af1e","ios":"levelo://app?vid=8998fe39-5e42-4288-b877-553da6e7af1e"},"vehicle_type_id":"4","last_reported":1703970350,"current_range_meters":12000,"station_id":"ce4bgih2rcd13ifvqba0","pricing_plan_id":"free"},{"bike_id":"24846f26-ae09-4daa-a0ac-89f2a09044fe","system_id":"levelo_inurba_marseille","lat":43.294153,"lon":5.386305,"is_reserved":false,"is_disabled":false,"rental_uris":{"android":"levelo://app?vid=24846f26-ae09-4daa-a0ac-89f2a09044fe","ios":"levelo://app?vid=24846f26-ae09-4daa-a0ac-89f2a09044fe"},"vehicle_type_id":"4","last_reported":1703970350,"current_range_meters":20400,"station_id":"ce4bh2h2rcd13ifvqdh0","pricing_plan_id":"free"},{"bike_id":"fa7e7d40-fee9-44be-85fd-faf5b734c827","system_id":"levelo_inurba_marseille","lat":43.294153,"lon":5.386305,"is_reserved":false,"is_disabled":false,"rental_uris":{"android":"levelo://app?vid=fa7e7d40-fee9-44be-85fd-faf5b734c827","ios":"levelo://app?vid=fa7e7d40-fee9-44be-85fd-faf5b734c827"},"vehicle_type_id":"4","last_reported":1703970350,"current_range_meters":12800,"station_id":"ce4bh2h2rcd13ifvqdh0","pricing_plan_id":"free"},{"bike_id":"cc596246-a81a-4230-a8ca-73a6ffdbc506","system_id":"levelo_inurba_marseille","lat":43.294162,"lon":5.386292,"is_reserved":false,"is_disabled":false,"rental_uris":{"android":"levelo://app?vid=cc596246-a81a-4230-a8ca-73a6ffdbc506","ios":"levelo://app?vid=cc596246-a81a-4230-a8ca-73a6ffdbc506"},"vehicle_type_id":"4","last_reported":1703970350,"current_range_meters":13200,"station_id":"ce4bh2h2rcd13ifvqdh0","pricing_plan_id":"free"},{"bike_id":"4ffb64f0-0fe7-4458-a75b-25194827e059","system_id":"levelo_inurba_marseille","lat":43.294162,"lon":5.386292,"is_reserved":false,"is_disabled":false,"rental_uris":{"android":"levelo://app?vid=4ffb64f0-0fe7-4458-a75b-25194827e059","ios":"levelo://app?vid=4ffb64f0-0fe7-4458-a75b-25194827e059"},"vehicle_type_id":"4","last_reported":1703970350,"current_range_meters":14400,"station_id":"ce4bh2h2rcd13ifvqdh0","pricing_plan_id":"free"},{"bike_id":"8c01361a-bf8c-48ad-bf81-3a77ee22a200","system_id":"levelo_inurba_marseille","lat":43.289184,"lon":5.366408,"is_reserved":false,"is_disabled":false,"rental_uris":{"android":"levelo://app?vid=8c01361a-bf8c-48ad-bf81-3a77ee22a200","ios":"levelo://app?vid=8c01361a-bf8c-48ad-bf81-3a77ee22a200"},"vehicle_type_id":"4","last_reported":1703970350,"current_range_meters":22800,"station_id":"ce4bhap2rcd13ifvqek0","pricing_plan_id":"free"},{"bike_id":"d97d373e-b325-44f4-9af1-7eec4c96cd19","system_id":"levelo_inurba_marseille","lat":43.289184,"lon":5.366408,"is_reserved":false,"is_disabled":false,"rental_uris":{"android":"levelo://app?vid=d97d373e-b325-44f4-9af1-7eec4c96cd19","ios":"levelo://app?vid=d97d373e-b325-44f4-9af1-7eec4c96cd19"},"vehicle_type_id":"4","last_reported":1703970350,"current_range_meters":9600,"station_id":"ce4bhap2rcd13ifvqek0","pricing_plan_id":"free"},{"bike_id":"567be46f-5584-400f-bdf7-655785596383","system_id":"levelo_inurba_marseille","lat":43.289468,"lon":5.363719,"is_reserved":false,"is_disabled":false,"rental_uris":{"android":"levelo://app?vid=567be46f-5584-400f-bdf7-655785596383","ios":"levelo://app?vid=567be46f-5584-400f-bdf7-655785596383"},"vehicle_type_id":"4","last_reported":1703970350,"current_range_meters":23200,"station_id":"ce4bhc92rcd13ifvqetg","pricing_plan_id":"free"},{"bike_id":"28a57ae6-1e09-4314-bdaa-f3191af6744e","system_id":"levelo_inurba_marseille","lat":43.289468,"lon":5.363719,"is_reserved":false,"is_disabled":false,"rental_uris":{"android":"levelo://app?vid=28a57ae6-1e09-4314-bdaa-f3191af6744e","ios":"levelo://app?vid=28a57ae6-1e09-4314-bdaa-f3191af6744e"},"vehicle_type_id":"4","last_reported":1703970350,"current_range_meters":8800,"station_id":"ce4bhc92rcd13ifvqetg","pricing_plan_id":"free"},{"bike_id":"304e1936-3d46-4582-b8c8-43436b65d44e","system_id":"levelo_inurba_marseille","lat":43.292644,"lon":5.384257,"is_reserved":false,"is_disabled":false,"rental_uris":{"android":"levelo://app?vid=304e1936-3d46-4582-b8c8-43436b65d44e","ios":"levelo://app?vid=304e1936-3d46-4582-b8c8-43436b65d44e"},"vehicle_type_id":"4","last_reported":1703970350,"current_range_meters":12400,"station_id":"ce4bh692rcd13ifvqea0","pricing_plan_id":"free"},{"bike_id":"5bddafcc-4201-44a8-835f-95987519028d","system_id":"levelo_inurba_marseille","lat":43.292644,"lon":5.384257,"is_reserved":false,"is_disabled":false,"rental_uris":{"android":"levelo://app?vid=5bddafcc-4201-44a8-835f-95987519028d","ios":"levelo://app?vid=5bddafcc-4201-44a8-835f-95987519028d"},"vehicle_type_id":"4","last_reported":1703970350,"current_range_meters":7600,"station_id":"ce4bh692rcd13ifvqea0","pricing_plan_id":"free"},{"bike_id":"b472c80c-4954-4bf1-b8b9-6f8bff832207","system_id":"levelo_inurba_marseille","lat":43.292644,"lon":5.384257,"is_reserved":false,"is_disabled":false,"rental_uris":{"android":"levelo://app?vid=b472c80c-4954-4bf1-b8b9-6f8bff832207","ios":"levelo://app?vid=b472c80c-4954-4bf1-b8b9-6f8bff832207"},"vehicle_type_id":"4","last_reported":1703970350,"current_range_meters":1200,"station_id":"ce4bh692rcd13ifvqea0","pricing_plan_id":"free"},{"bike_id":"7dfd3f57-a344-49eb-90f7-be08f5573935","system_id":"levelo_inurba_marseille","lat":43.292644,"lon":5.384257,"is_reserved":false,"is_disabled":false,"rental_uris":{"android":"levelo://app?vid=7dfd3f57-a344-49eb-90f7-be08f5573935","ios":"levelo://app?vid=7dfd3f57-a344-49eb-90f7-be08f5573935"},"vehicle_type_id":"4","last_reported":1703970350,"current_range_meters":8400,"station_id":"ce4bh692rcd13ifvqea0","pricing_plan_id":"free"},{"bike_id":"a1a9b2c9-2b4f-4920-b70a-172d758f7f08","system_id":"levelo_inurba_marseille","lat":43.304185,"lon":5.397595,"is_reserved":false,"is_disabled":false,"rental_uris":{"android":"levelo://app?vid=a1a9b2c9-2b4f-4920-b70a-172d758f7f08","ios":"levelo://app?vid=a1a9b2c9-2b4f-4920-b70a-172d758f7f08"},"vehicle_type_id":"4","last_reported":1703970350,"current_range_meters":27600,"station_id":"ce4bh092rcd13ifvqd20","pricing_plan_id":"free"},{"bike_id":"f0ea59ca-937b-4192-afdb-9566dce831c6","system_id":"levelo_inurba_marseille","lat":43.295169,"lon":5.390426,"is_reserved":false,"is_disabled":false,"rental_uris":{"android":"levelo://app?vid=f0ea59ca-937b-4192-afdb-9566dce831c6","ios":"levelo://app?vid=f0ea59ca-937b-4192-afdb-9566dce831c6"},"vehicle_type_id":"4","last_reported":1703970350,"current_range_meters":9200,"station_id":"ce4bh3p2rcd13ifvqdp0","pricing_plan_id":"free"},{"bike_id":"495faf64-a935-4c6e-b77f-2b296d14493a","system_id":"levelo_inurba_marseille","lat":43.331017,"lon":5.389194,"is_reserved":false,"is_disabled":false,"rental_uris":{"android":"levelo://app?vid=495faf64-a935-4c6e-b77f-2b296d14493a","ios":"levelo://app?vid=495faf64-a935-4c6e-b77f-2b296d14493a"},"vehicle_type_id":"4","last_reported":1703970350,"current_range_meters":1600,"station_id":"","pricing_plan_id":"free"},{"bike_id":"75443950-2ac4-4d86-b831-241e3121359f","system_id":"levelo_inurba_marseille","lat":43.330442,"lon":5.389148,"is_reserved":false,"is_disabled":false,"rental_uris":{"android":"levelo://app?vid=75443950-2ac4-4d86-b831-241e3121359f","ios":"levelo://app?vid=75443950-2ac4-4d86-b831-241e3121359f"},"vehicle_type_id":"4","last_reported":1703970350,"current_range_meters":0,"station_id":"ce4bhr92rcd13ifvqhrg","pricing_plan_id":"free"},{"bike_id":"139bb083-3316-4723-b403-d0edcde8edb8","system_id":"levelo_inurba_marseille","lat":43.312609,"lon":5.401662,"is_reserved":false,"is_disabled":false,"rental_uris":{"android":"levelo://app?vid=139bb083-3316-4723-b403-d0edcde8edb8","ios":"levelo://app?vid=139bb083-3316-4723-b403-d0edcde8edb8"},"vehicle_type_id":"4","last_reported":1703970350,"current_range_meters":16800,"station_id":"ce4bh092rcd13ifvqd30","pricing_plan_id":"free"},{"bike_id":"d29f7a6c-6eff-46b1-9d51-bbf08faabfa1","system_id":"levelo_inurba_marseille","lat":43.337477,"lon":5.374431,"is_reserved":false,"is_disabled":false,"rental_uris":{"android":"levelo://app?vid=d29f7a6c-6eff-46b1-9d51-bbf08faabfa1","ios":"levelo://app?vid=d29f7a6c-6eff-46b1-9d51-bbf08faabfa1"},"vehicle_type_id":"4","last_reported":1703970350,"current_range_meters":0,"station_id":"","pricing_plan_id":"free"},{"bike_id":"cababbbd-bdea-44dd-a30c-3bd5cdef8812","system_id":"levelo_inurba_marseille","lat":43.312609,"lon":5.401662,"is_reserved":false,"is_disabled":false,"rental_uris":{"android":"levelo://app?vid=cababbbd-bdea-44dd-a30c-3bd5cdef8812","ios":"levelo://app?vid=cababbbd-bdea-44dd-a30c-3bd5cdef8812"},"vehicle_type_id":"4","last_reported":1703970350,"current_range_meters":10400,"station_id":"ce4bh092rcd13ifvqd30","pricing_plan_id":"free"},{"bike_id":"8dc3e41c-081d-4c42-8004-5d7eac1adb8c","system_id":"levelo_inurba_marseille","lat":43.30931,"lon":5.401507,"is_reserved":false,"is_disabled":false,"rental_uris":{"android":"levelo://app?vid=8dc3e41c-081d-4c42-8004-5d7eac1adb8c","ios":"levelo://app?vid=8dc3e41c-081d-4c42-8004-5d7eac1adb8c"},"vehicle_type_id":"4","last_reported":1703970350,"current_range_meters":13600,"station_id":"ce4bgvp2rcd13ifvqct0","pricing_plan_id":"free"},{"bike_id":"3913fc9c-1c8d-419a-af8b-4b4564ea7ec0","system_id":"levelo_inurba_marseille","lat":43.312609,"lon":5.401662,"is_reserved":false,"is_disabled":false,"rental_uris":{"android":"levelo://app?vid=3913fc9c-1c8d-419a-af8b-4b4564ea7ec0","ios":"levelo://app?vid=3913fc9c-1c8d-419a-af8b-4b4564ea7ec0"},"vehicle_type_id":"4","last_reported":1703970350,"current_range_meters":6000,"station_id":"ce4bh092rcd13ifvqd30","pricing_plan_id":"free"},{"bike_id":"edf4253a-c105-4b98-ace4-2261934fd4d3","system_id":"levelo_inurba_marseille","lat":43.306412,"lon":5.401035,"is_reserved":false,"is_disabled":false,"rental_uris":{"android":"levelo://app?vid=edf4253a-c105-4b98-ace4-2261934fd4d3","ios":"levelo://app?vid=edf4253a-c105-4b98-ace4-2261934fd4d3"},"vehicle_type_id":"4","last_reported":1703970350,"current_range_meters":12800,"station_id":"ce4bh112rcd13ifvqda0","pricing_plan_id":"free"},{"bike_id":"c301fb8c-cfe6-441c-8d68-c52db0e2a128","system_id":"levelo_inurba_marseille","lat":43.28727,"lon":5.36078,"is_reserved":false,"is_disabled":false,"rental_uris":{"android":"levelo://app?vid=c301fb8c-cfe6-441c-8d68-c52db0e2a128","ios":"levelo://app?vid=c301fb8c-cfe6-441c-8d68-c52db0e2a128"},"vehicle_type_id":"4","last_reported":1703970350,"current_range_meters":28400,"station_id":"cki0cbj6b192h4jlfktg","pricing_plan_id":"free"},{"bike_id":"b262299b-df41-4c0e-acea-7d1f4a3c6a3b","system_id":"levelo_inurba_marseille","lat":43.28727,"lon":5.36078,"is_reserved":false,"is_disabled":false,"rental_uris":{"android":"levelo://app?vid=b262299b-df41-4c0e-acea-7d1f4a3c6a3b","ios":"levelo://app?vid=b262299b-df41-4c0e-acea-7d1f4a3c6a3b"},"vehicle_type_id":"4","last_reported":1703970350,"current_range_meters":16000,"station_id":"cki0cbj6b192h4jlfktg","pricing_plan_id":"free"},{"bike_id":"d4fe8f65-8122-4378-966c-34cf788d5c8a","system_id":"levelo_inurba_marseille","lat":43.286591,"lon":5.363346,"is_reserved":false,"is_disabled":false,"rental_uris":{"android":"levelo://app?vid=d4fe8f65-8122-4378-966c-34cf788d5c8a","ios":"levelo://app?vid=d4fe8f65-8122-4378-966c-34cf788d5c8a"},"vehicle_type_id":"4","last_reported":1703970350,"current_range_meters":5200,"station_id":"ce4bhah2rcd13ifvqej0","pricing_plan_id":"free"},{"bike_id":"615bcdea-ecc6-4c9a-8905-845f099d9973","system_id":"levelo_inurba_marseille","lat":43.286961,"lon":5.373785,"is_reserved":false,"is_disabled":false,"rental_uris":{"android":"levelo://app?vid=615bcdea-ecc6-4c9a-8905-845f099d9973","ios":"levelo://app?vid=615bcdea-ecc6-4c9a-8905-845f099d9973"},"vehicle_type_id":"4","last_reported":1703970350,"current_range_meters":0,"station_id":"ce4bh3p2rcd13ifvqdq0","pricing_plan_id":"free"},{"bike_id":"ce867626-ed83-4aa0-958a-7975b1fe6eaa","system_id":"levelo_inurba_marseille","lat":43.286591,"lon":5.363346,"is_reserved":false,"is_disabled":false,"rental_uris":{"android":"levelo://app?vid=ce867626-ed83-4aa0-958a-7975b1fe6eaa","ios":"levelo://app?vid=ce867626-ed83-4aa0-958a-7975b1fe6eaa"},"vehicle_type_id":"4","last_reported":1703970350,"current_range_meters":29200,"station_id":"ce4bhah2rcd13ifvqej0","pricing_plan_id":"free"},{"bike_id":"cf44a09d-19d0-4cf9-9104-3c4cb0f1e8b4","system_id":"levelo_inurba_marseille","lat":43.295194,"lon":5.39397,"is_reserved":false,"is_disabled":false,"rental_uris":{"android":"levelo://app?vid=cf44a09d-19d0-4cf9-9104-3c4cb0f1e8b4","ios":"levelo://app?vid=cf44a09d-19d0-4cf9-9104-3c4cb0f1e8b4"},"vehicle_type_id":"4","last_reported":1703970350,"current_range_meters":4800,"station_id":"ce4bh292rcd13ifvqdf0","pricing_plan_id":"free"},{"bike_id":"2e052d3f-46e1-47a6-8817-a9e3a05682f9","system_id":"levelo_inurba_marseille","lat":43.30249,"lon":5.40042,"is_reserved":false,"is_disabled":false,"rental_uris":{"android":"levelo://app?vid=2e052d3f-46e1-47a6-8817-a9e3a05682f9","ios":"levelo://app?vid=2e052d3f-46e1-47a6-8817-a9e3a05682f9"},"vehicle_type_id":"4","last_reported":1703970350,"current_range_meters":0,"station_id":"ce4bgvh2rcd13ifvqcs0","pricing_plan_id":"free"},{"bike_id":"cd657751-be47-48e1-b69f-e29acdece399","system_id":"levelo_inurba_marseille","lat":43.289307,"lon":5.38406,"is_reserved":false,"is_disabled":false,"rental_uris":{"android":"levelo://app?vid=cd657751-be47-48e1-b69f-e29acdece399","ios":"levelo://app?vid=cd657751-be47-48e1-b69f-e29acdece399"},"vehicle_type_id":"4","last_reported":1703970350,"current_range_meters":24800,"station_id":"ce4bh612rcd13ifvqe6g","pricing_plan_id":"free"},{"bike_id":"53b23dd4-5f9a-4ea8-b336-df1551ac4b29","system_id":"levelo_inurba_marseille","lat":43.30259,"lon":5.4006,"is_reserved":false,"is_disabled":false,"rental_uris":{"android":"levelo://app?vid=53b23dd4-5f9a-4ea8-b336-df1551ac4b29","ios":"levelo://app?vid=53b23dd4-5f9a-4ea8-b336-df1551ac4b29"},"vehicle_type_id":"4","last_reported":1703970350,"current_range_meters":6800,"station_id":"ce4bgvh2rcd13ifvqcs0","pricing_plan_id":"free"},{"bike_id":"78726dc6-88b5-44e2-97b8-ecd83141baae","system_id":"levelo_inurba_marseille","lat":43.290336,"lon":5.386425,"is_reserved":false,"is_disabled":false,"rental_uris":{"android":"levelo://app?vid=78726dc6-88b5-44e2-97b8-ecd83141baae","ios":"levelo://app?vid=78726dc6-88b5-44e2-97b8-ecd83141baae"},"vehicle_type_id":"4","last_reported":1703970350,"current_range_meters":6400,"station_id":"ce4bh4p2rcd13ifvqe0g","pricing_plan_id":"free"},{"bike_id":"5c28e87b-40b8-4984-9240-4ac6a465ad25","system_id":"levelo_inurba_marseille","lat":43.286039,"lon":5.370679,"is_reserved":false,"is_disabled":false,"rental_uris":{"android":"levelo://app?vid=5c28e87b-40b8-4984-9240-4ac6a465ad25","ios":"levelo://app?vid=5c28e87b-40b8-4984-9240-4ac6a465ad25"},"vehicle_type_id":"4","last_reported":1703970350,"current_range_meters":25600,"station_id":"ce4bht12rcd13ifvqi60","pricing_plan_id":"free"},{"bike_id":"203cd100-0d9b-455c-9f67-418c2e4291cd","system_id":"levelo_inurba_marseille","lat":43.29875,"lon":5.39953,"is_reserved":false,"is_disabled":false,"rental_uris":{"android":"levelo://app?vid=203cd100-0d9b-455c-9f67-418c2e4291cd","ios":"levelo://app?vid=203cd100-0d9b-455c-9f67-418c2e4291cd"},"vehicle_type_id":"4","last_reported":1703970350,"current_range_meters":2000,"station_id":"","pricing_plan_id":"free"},{"bike_id":"b6759fa3-933c-498c-bd74-724402406415","system_id":"levelo_inurba_marseille","lat":43.316828,"lon":5.404723,"is_reserved":false,"is_disabled":false,"rental_uris":{"android":"levelo://app?vid=b6759fa3-933c-498c-bd74-724402406415","ios":"levelo://app?vid=b6759fa3-933c-498c-bd74-724402406415"},"vehicle_type_id":"4","last_reported":1703970350,"current_range_meters":19600,"station_id":"ce4bh012rcd13ifvqd00","pricing_plan_id":"free"},{"bike_id":"4b70cf11-7ec8-4aea-b02b-4be8c85afbef","system_id":"levelo_inurba_marseille","lat":43.291994,"lon":5.392907,"is_reserved":false,"is_disabled":false,"rental_uris":{"android":"levelo://app?vid=4b70cf11-7ec8-4aea-b02b-4be8c85afbef","ios":"levelo://app?vid=4b70cf11-7ec8-4aea-b02b-4be8c85afbef"},"vehicle_type_id":"4","last_reported":1703970350,"current_range_meters":30800,"station_id":"ce4bh192rcd13ifvqdd0","pricing_plan_id":"free"},{"bike_id":"f051e3b2-f4a0-44d2-a67b-140ed2a7bb98","system_id":"levelo_inurba_marseille","lat":43.284538,"lon":5.358657,"is_reserved":false,"is_disabled":false,"rental_uris":{"android":"levelo://app?vid=f051e3b2-f4a0-44d2-a67b-140ed2a7bb98","ios":"levelo://app?vid=f051e3b2-f4a0-44d2-a67b-140ed2a7bb98"},"vehicle_type_id":"4","last_reported":1703970350,"current_range_meters":26800,"station_id":"ce4bhah2rcd13ifvqei0","pricing_plan_id":"free"},{"bike_id":"ddc3d933-be84-450b-845d-35a7ea264f1f","system_id":"levelo_inurba_marseille","lat":43.28462,"lon":5.35889,"is_reserved":false,"is_disabled":false,"rental_uris":{"android":"levelo://app?vid=ddc3d933-be84-450b-845d-35a7ea264f1f","ios":"levelo://app?vid=ddc3d933-be84-450b-845d-35a7ea264f1f"},"vehicle_type_id":"4","last_reported":1703970350,"current_range_meters":0,"station_id":"ce4bhah2rcd13ifvqei0","pricing_plan_id":"free"},{"bike_id":"ca8b7112-cedf-4076-83a8-de986fe00f6e","system_id":"levelo_inurba_marseille","lat":43.285856,"lon":5.350771,"is_reserved":false,"is_disabled":false,"rental_uris":{"android":"levelo://app?vid=ca8b7112-cedf-4076-83a8-de986fe00f6e","ios":"levelo://app?vid=ca8b7112-cedf-4076-83a8-de986fe00f6e"},"vehicle_type_id":"4","last_reported":1703970350,"current_range_meters":31200,"station_id":"ce4bhch2rcd13ifvqeug","pricing_plan_id":"free"},{"bike_id":"575e71dd-91e2-4d46-848c-ef6a33af0c9e","system_id":"levelo_inurba_marseille","lat":43.285856,"lon":5.350771,"is_reserved":false,"is_disabled":false,"rental_uris":{"android":"levelo://app?vid=575e71dd-91e2-4d46-848c-ef6a33af0c9e","ios":"levelo://app?vid=575e71dd-91e2-4d46-848c-ef6a33af0c9e"},"vehicle_type_id":"4","last_reported":1703970350,"current_range_meters":16800,"station_id":"ce4bhch2rcd13ifvqeug","pricing_plan_id":"free"},{"bike_id":"14ca5765-46ca-4a5c-b5da-1432e789b538","system_id":"levelo_inurba_marseille","lat":43.295713,"lon":5.399639,"is_reserved":false,"is_disabled":false,"rental_uris":{"android":"levelo://app?vid=14ca5765-46ca-4a5c-b5da-1432e789b538","ios":"levelo://app?vid=14ca5765-46ca-4a5c-b5da-1432e789b538"},"vehicle_type_id":"4","last_reported":1703970350,"current_range_meters":17200,"station_id":"ce4bh312rcd13ifvqdj0","pricing_plan_id":"free"},{"bike_id":"a92d92c2-ad08-4ae1-9ba5-34ba6c3835a1","system_id":"levelo_inurba_marseille","lat":43.295713,"lon":5.399639,"is_reserved":false,"is_disabled":false,"rental_uris":{"android":"levelo://app?vid=a92d92c2-ad08-4ae1-9ba5-34ba6c3835a1","ios":"levelo://app?vid=a92d92c2-ad08-4ae1-9ba5-34ba6c3835a1"},"vehicle_type_id":"4","last_reported":1703970350,"current_range_meters":18800,"station_id":"ce4bh312rcd13ifvqdj0","pricing_plan_id":"free"},{"bike_id":"72488151-34fd-436c-a4df-517689f03c40","system_id":"levelo_inurba_marseille","lat":43.284017,"lon":5.375397,"is_reserved":false,"is_disabled":false,"rental_uris":{"android":"levelo://app?vid=72488151-34fd-436c-a4df-517689f03c40","ios":"levelo://app?vid=72488151-34fd-436c-a4df-517689f03c40"},"vehicle_type_id":"4","last_reported":1703970350,"current_range_meters":2400,"station_id":"ce4bh412rcd13ifvqds0","pricing_plan_id":"free"},{"bike_id":"f2617aeb-410e-4d02-b54f-99e225d92359","system_id":"levelo_inurba_marseille","lat":43.286595,"lon":5.386795,"is_reserved":false,"is_disabled":false,"rental_uris":{"android":"levelo://app?vid=f2617aeb-410e-4d02-b54f-99e225d92359","ios":"levelo://app?vid=f2617aeb-410e-4d02-b54f-99e225d92359"},"vehicle_type_id":"4","last_reported":1703970350,"current_range_meters":16000,"station_id":"ce4bh492rcd13ifvqdug","pricing_plan_id":"free"},{"bike_id":"bad863f8-0b58-4229-a0cd-98b29ec04a7f","system_id":"levelo_inurba_marseille","lat":43.286595,"lon":5.386795,"is_reserved":false,"is_disabled":false,"rental_uris":{"android":"levelo://app?vid=bad863f8-0b58-4229-a0cd-98b29ec04a7f","ios":"levelo://app?vid=bad863f8-0b58-4229-a0cd-98b29ec04a7f"},"vehicle_type_id":"4","last_reported":1703970350,"current_range_meters":10800,"station_id":"ce4bh492rcd13ifvqdug","pricing_plan_id":"free"},{"bike_id":"1a0bf041-78c3-4fb0-b111-9190bebdecf2","system_id":"levelo_inurba_marseille","lat":43.286595,"lon":5.386795,"is_reserved":false,"is_disabled":false,"rental_uris":{"android":"levelo://app?vid=1a0bf041-78c3-4fb0-b111-9190bebdecf2","ios":"levelo://app?vid=1a0bf041-78c3-4fb0-b111-9190bebdecf2"},"vehicle_type_id":"4","last_reported":1703970350,"current_range_meters":0,"station_id":"ce4bh492rcd13ifvqdug","pricing_plan_id":"free"},{"bike_id":"4ad566ac-35d2-45f1-93b8-aa3abd61c433","system_id":"levelo_inurba_marseille","lat":43.300989,"lon":5.404724,"is_reserved":false,"is_disabled":false,"rental_uris":{"android":"levelo://app?vid=4ad566ac-35d2-45f1-93b8-aa3abd61c433","ios":"levelo://app?vid=4ad566ac-35d2-45f1-93b8-aa3abd61c433"},"vehicle_type_id":"4","last_reported":1703970350,"current_range_meters":0,"station_id":"","pricing_plan_id":"free"},{"bike_id":"2a34418a-68fc-4df0-a58c-b424089bf812","system_id":"levelo_inurba_marseille","lat":43.33717,"lon":5.391857,"is_reserved":false,"is_disabled":false,"rental_uris":{"android":"levelo://app?vid=2a34418a-68fc-4df0-a58c-b424089bf812","ios":"levelo://app?vid=2a34418a-68fc-4df0-a58c-b424089bf812"},"vehicle_type_id":"4","last_reported":1703970350,"current_range_meters":30800,"station_id":"ce4bhr92rcd13ifvqhsg","pricing_plan_id":"free"},{"bike_id":"81e98546-48f6-4e53-9a96-d12ea8cec360","system_id":"levelo_inurba_marseille","lat":43.323464,"lon":5.406297,"is_reserved":false,"is_disabled":false,"rental_uris":{"android":"levelo://app?vid=81e98546-48f6-4e53-9a96-d12ea8cec360","ios":"levelo://app?vid=81e98546-48f6-4e53-9a96-d12ea8cec360"},"vehicle_type_id":"4","last_reported":1703970350,"current_range_meters":28400,"station_id":"ce4bhq92rcd13ifvqhjg","pricing_plan_id":"free"},{"bike_id":"6f88c66c-95cb-43e7-9ffe-5f0278c685b8","system_id":"levelo_inurba_marseille","lat":43.337168,"lon":5.391825,"is_reserved":false,"is_disabled":false,"rental_uris":{"android":"levelo://app?vid=6f88c66c-95cb-43e7-9ffe-5f0278c685b8","ios":"levelo://app?vid=6f88c66c-95cb-43e7-9ffe-5f0278c685b8"},"vehicle_type_id":"4","last_reported":1703970350,"current_range_meters":27600,"station_id":"ce4bhr92rcd13ifvqhsg","pricing_plan_id":"free"},{"bike_id":"6c5bc307-b9ce-45aa-9e52-0c8fde156495","system_id":"levelo_inurba_marseille","lat":43.284787,"lon":5.384116,"is_reserved":false,"is_disabled":false,"rental_uris":{"android":"levelo://app?vid=6c5bc307-b9ce-45aa-9e52-0c8fde156495","ios":"levelo://app?vid=6c5bc307-b9ce-45aa-9e52-0c8fde156495"},"vehicle_type_id":"4","last_reported":1703970350,"current_range_meters":14000,"station_id":"ce4bh512rcd13ifvqe3g","pricing_plan_id":"free"},{"bike_id":"f49df42b-e9a9-478d-aefc-743bee48b998","system_id":"levelo_inurba_marseille","lat":43.288501,"lon":5.393087,"is_reserved":false,"is_disabled":false,"rental_uris":{"android":"levelo://app?vid=f49df42b-e9a9-478d-aefc-743bee48b998","ios":"levelo://app?vid=f49df42b-e9a9-478d-aefc-743bee48b998"},"vehicle_type_id":"4","last_reported":1703970350,"current_range_meters":21200,"station_id":"ce4bh2p2rcd13ifvqdi0","pricing_plan_id":"free"},{"bike_id":"7658bd4a-bf5c-4e59-a9e4-57ec9d12dba0","system_id":"levelo_inurba_marseille","lat":43.288501,"lon":5.393087,"is_reserved":false,"is_disabled":false,"rental_uris":{"android":"levelo://app?vid=7658bd4a-bf5c-4e59-a9e4-57ec9d12dba0","ios":"levelo://app?vid=7658bd4a-bf5c-4e59-a9e4-57ec9d12dba0"},"vehicle_type_id":"4","last_reported":1703970350,"current_range_meters":10800,"station_id":"ce4bh2p2rcd13ifvqdi0","pricing_plan_id":"free"},{"bike_id":"015475af-6c17-4fcb-8071-25eab9ed80a9","system_id":"levelo_inurba_marseille","lat":43.288501,"lon":5.393087,"is_reserved":false,"is_disabled":false,"rental_uris":{"android":"levelo://app?vid=015475af-6c17-4fcb-8071-25eab9ed80a9","ios":"levelo://app?vid=015475af-6c17-4fcb-8071-25eab9ed80a9"},"vehicle_type_id":"4","last_reported":1703970350,"current_range_meters":16400,"station_id":"ce4bh2p2rcd13ifvqdi0","pricing_plan_id":"free"},{"bike_id":"4088bd45-ff4c-49a2-bea1-7b7e103acdb4","system_id":"levelo_inurba_marseille","lat":43.288501,"lon":5.393087,"is_reserved":false,"is_disabled":false,"rental_uris":{"android":"levelo://app?vid=4088bd45-ff4c-49a2-bea1-7b7e103acdb4","ios":"levelo://app?vid=4088bd45-ff4c-49a2-bea1-7b7e103acdb4"},"vehicle_type_id":"4","last_reported":1703970350,"current_range_meters":14000,"station_id":"ce4bh2p2rcd13ifvqdi0","pricing_plan_id":"free"},{"bike_id":"ff548aa3-08f2-4092-9b6a-1ca529179ae9","system_id":"levelo_inurba_marseille","lat":43.284723,"lon":5.384803,"is_reserved":false,"is_disabled":false,"rental_uris":{"android":"levelo://app?vid=ff548aa3-08f2-4092-9b6a-1ca529179ae9","ios":"levelo://app?vid=ff548aa3-08f2-4092-9b6a-1ca529179ae9"},"vehicle_type_id":"4","last_reported":1703970350,"current_range_meters":18000,"station_id":"","pricing_plan_id":"free"},{"bike_id":"550e14ac-c0b2-4de1-8ea6-33a2ed458c6d","system_id":"levelo_inurba_marseille","lat":43.28349,"lon":5.38098,"is_reserved":false,"is_disabled":false,"rental_uris":{"android":"levelo://app?vid=550e14ac-c0b2-4de1-8ea6-33a2ed458c6d","ios":"levelo://app?vid=550e14ac-c0b2-4de1-8ea6-33a2ed458c6d"},"vehicle_type_id":"4","last_reported":1703970350,"current_range_meters":12800,"station_id":"ce4bh412rcd13ifvqdr0","pricing_plan_id":"free"},{"bike_id":"31c8fad3-04c2-4de8-a1d7-d37c58815360","system_id":"levelo_inurba_marseille","lat":43.284219,"lon":5.3497,"is_reserved":false,"is_disabled":false,"rental_uris":{"android":"levelo://app?vid=31c8fad3-04c2-4de8-a1d7-d37c58815360","ios":"levelo://app?vid=31c8fad3-04c2-4de8-a1d7-d37c58815360"},"vehicle_type_id":"4","last_reported":1703970350,"current_range_meters":24000,"station_id":"ce4bhbh2rcd13ifvqepg","pricing_plan_id":"free"},{"bike_id":"e485450b-2736-4f4c-b94b-0da5a69b88aa","system_id":"levelo_inurba_marseille","lat":43.33385,"lon":5.39822,"is_reserved":false,"is_disabled":false,"rental_uris":{"android":"levelo://app?vid=e485450b-2736-4f4c-b94b-0da5a69b88aa","ios":"levelo://app?vid=e485450b-2736-4f4c-b94b-0da5a69b88aa"},"vehicle_type_id":"4","last_reported":1703970350,"current_range_meters":6000,"station_id":"","pricing_plan_id":"free"},{"bike_id":"041af8db-46e1-4b08-be93-ddac96a527c0","system_id":"levelo_inurba_marseille","lat":43.28339,"lon":5.38106,"is_reserved":false,"is_disabled":false,"rental_uris":{"android":"levelo://app?vid=041af8db-46e1-4b08-be93-ddac96a527c0","ios":"levelo://app?vid=041af8db-46e1-4b08-be93-ddac96a527c0"},"vehicle_type_id":"4","last_reported":1703970350,"current_range_meters":25600,"station_id":"ce4bh412rcd13ifvqdr0","pricing_plan_id":"free"},{"bike_id":"7db49108-9a26-43ce-9f14-d85b6fcc8e06","system_id":"levelo_inurba_marseille","lat":43.289363,"lon":5.396322,"is_reserved":false,"is_disabled":false,"rental_uris":{"android":"levelo://app?vid=7db49108-9a26-43ce-9f14-d85b6fcc8e06","ios":"levelo://app?vid=7db49108-9a26-43ce-9f14-d85b6fcc8e06"},"vehicle_type_id":"4","last_reported":1703970350,"current_range_meters":29200,"station_id":"ce4bh3h2rcd13ifvqdn0","pricing_plan_id":"free"},{"bike_id":"76a1ec55-09c7-4dd3-820f-b0a36b1f5982","system_id":"levelo_inurba_marseille","lat":43.289363,"lon":5.396322,"is_reserved":false,"is_disabled":false,"rental_uris":{"android":"levelo://app?vid=76a1ec55-09c7-4dd3-820f-b0a36b1f5982","ios":"levelo://app?vid=76a1ec55-09c7-4dd3-820f-b0a36b1f5982"},"vehicle_type_id":"4","last_reported":1703970350,"current_range_meters":11600,"station_id":"ce4bh3h2rcd13ifvqdn0","pricing_plan_id":"free"},{"bike_id":"dc81ecfa-55df-4a11-ae10-701ba858cbc4","system_id":"levelo_inurba_marseille","lat":43.292724,"lon":5.401131,"is_reserved":false,"is_disabled":false,"rental_uris":{"android":"levelo://app?vid=dc81ecfa-55df-4a11-ae10-701ba858cbc4","ios":"levelo://app?vid=dc81ecfa-55df-4a11-ae10-701ba858cbc4"},"vehicle_type_id":"4","last_reported":1703970350,"current_range_meters":10400,"station_id":"ce4bh312rcd13ifvqdk0","pricing_plan_id":"free"},{"bike_id":"f3f9e1e7-b2d9-41a6-ad46-dcd5476ca528","system_id":"levelo_inurba_marseille","lat":43.292724,"lon":5.401131,"is_reserved":false,"is_disabled":false,"rental_uris":{"android":"levelo://app?vid=f3f9e1e7-b2d9-41a6-ad46-dcd5476ca528","ios":"levelo://app?vid=f3f9e1e7-b2d9-41a6-ad46-dcd5476ca528"},"vehicle_type_id":"4","last_reported":1703970350,"current_range_meters":28800,"station_id":"ce4bh312rcd13ifvqdk0","pricing_plan_id":"free"},{"bike_id":"d19ed478-0a0e-4941-8074-bdd72dda4ac9","system_id":"levelo_inurba_marseille","lat":43.28039,"lon":5.369297,"is_reserved":false,"is_disabled":false,"rental_uris":{"android":"levelo://app?vid=d19ed478-0a0e-4941-8074-bdd72dda4ac9","ios":"levelo://app?vid=d19ed478-0a0e-4941-8074-bdd72dda4ac9"},"vehicle_type_id":"4","last_reported":1703970350,"current_range_meters":28800,"station_id":"ce4bha12rcd13ifvqef0","pricing_plan_id":"free"},{"bike_id":"bdc49f3f-d5d0-4c5f-9333-5f89cbd0c1f4","system_id":"levelo_inurba_marseille","lat":43.296263,"lon":5.40601,"is_reserved":false,"is_disabled":false,"rental_uris":{"android":"levelo://app?vid=bdc49f3f-d5d0-4c5f-9333-5f89cbd0c1f4","ios":"levelo://app?vid=bdc49f3f-d5d0-4c5f-9333-5f89cbd0c1f4"},"vehicle_type_id":"4","last_reported":1703970350,"current_range_meters":26000,"station_id":"ce4bh0h2rcd13ifvqd60","pricing_plan_id":"free"},{"bike_id":"e1f1c9c3-a1f0-423f-b5f5-fed132db45b0","system_id":"levelo_inurba_marseille","lat":43.284462,"lon":5.392121,"is_reserved":false,"is_disabled":false,"rental_uris":{"android":"levelo://app?vid=e1f1c9c3-a1f0-423f-b5f5-fed132db45b0","ios":"levelo://app?vid=e1f1c9c3-a1f0-423f-b5f5-fed132db45b0"},"vehicle_type_id":"4","last_reported":1703970350,"current_range_meters":25600,"station_id":"ce4bhoh2rcd13ifvqh5g","pricing_plan_id":"free"},{"bike_id":"5c626aba-21a0-477e-9bbd-70f25b311c21","system_id":"levelo_inurba_marseille","lat":43.284462,"lon":5.392121,"is_reserved":false,"is_disabled":false,"rental_uris":{"android":"levelo://app?vid=5c626aba-21a0-477e-9bbd-70f25b311c21","ios":"levelo://app?vid=5c626aba-21a0-477e-9bbd-70f25b311c21"},"vehicle_type_id":"4","last_reported":1703970350,"current_range_meters":5200,"station_id":"ce4bhoh2rcd13ifvqh5g","pricing_plan_id":"free"},{"bike_id":"28568076-0351-4a09-9292-aebf4744976b","system_id":"levelo_inurba_marseille","lat":43.28573,"lon":5.394992,"is_reserved":false,"is_disabled":false,"rental_uris":{"android":"levelo://app?vid=28568076-0351-4a09-9292-aebf4744976b","ios":"levelo://app?vid=28568076-0351-4a09-9292-aebf4744976b"},"vehicle_type_id":"4","last_reported":1703970350,"current_range_meters":29200,"station_id":"ce4bh292rcd13ifvqdg0","pricing_plan_id":"free"},{"bike_id":"fde612f5-b089-4d08-9520-481498d1ddea","system_id":"levelo_inurba_marseille","lat":43.28573,"lon":5.394992,"is_reserved":false,"is_disabled":false,"rental_uris":{"android":"levelo://app?vid=fde612f5-b089-4d08-9520-481498d1ddea","ios":"levelo://app?vid=fde612f5-b089-4d08-9520-481498d1ddea"},"vehicle_type_id":"4","last_reported":1703970350,"current_range_meters":0,"station_id":"ce4bh292rcd13ifvqdg0","pricing_plan_id":"free"},{"bike_id":"ac4a2c54-054c-45c7-bc29-432a2e94ebc6","system_id":"levelo_inurba_marseille","lat":43.326339,"lon":5.410247,"is_reserved":false,"is_disabled":false,"rental_uris":{"android":"levelo://app?vid=ac4a2c54-054c-45c7-bc29-432a2e94ebc6","ios":"levelo://app?vid=ac4a2c54-054c-45c7-bc29-432a2e94ebc6"},"vehicle_type_id":"4","last_reported":1703970350,"current_range_meters":29200,"station_id":"","pricing_plan_id":"free"},{"bike_id":"cfe8d5f0-8a12-4e7c-87a1-f7276043a595","system_id":"levelo_inurba_marseille","lat":43.32654,"lon":5.41061,"is_reserved":false,"is_disabled":false,"rental_uris":{"android":"levelo://app?vid=cfe8d5f0-8a12-4e7c-87a1-f7276043a595","ios":"levelo://app?vid=cfe8d5f0-8a12-4e7c-87a1-f7276043a595"},"vehicle_type_id":"4","last_reported":1703970350,"current_range_meters":24800,"station_id":"","pricing_plan_id":"free"},{"bike_id":"69430b1c-e660-4271-be2c-24a7863b705e","system_id":"levelo_inurba_marseille","lat":43.287154,"lon":5.399979,"is_reserved":false,"is_disabled":false,"rental_uris":{"android":"levelo://app?vid=69430b1c-e660-4271-be2c-24a7863b705e","ios":"levelo://app?vid=69430b1c-e660-4271-be2c-24a7863b705e"},"vehicle_type_id":"4","last_reported":1703970350,"current_range_meters":12400,"station_id":"ce4bho92rcd13ifvqh3g","pricing_plan_id":"free"},{"bike_id":"aae17fcd-d073-4fd2-9159-a76796cc79cd","system_id":"levelo_inurba_marseille","lat":43.287154,"lon":5.399979,"is_reserved":false,"is_disabled":false,"rental_uris":{"android":"levelo://app?vid=aae17fcd-d073-4fd2-9159-a76796cc79cd","ios":"levelo://app?vid=aae17fcd-d073-4fd2-9159-a76796cc79cd"},"vehicle_type_id":"4","last_reported":1703970350,"current_range_meters":1200,"station_id":"ce4bho92rcd13ifvqh3g","pricing_plan_id":"free"},{"bike_id":"6c228c0a-d3f1-495c-b517-1e2aa5787169","system_id":"levelo_inurba_marseille","lat":43.287154,"lon":5.399979,"is_reserved":false,"is_disabled":false,"rental_uris":{"android":"levelo://app?vid=6c228c0a-d3f1-495c-b517-1e2aa5787169","ios":"levelo://app?vid=6c228c0a-d3f1-495c-b517-1e2aa5787169"},"vehicle_type_id":"4","last_reported":1703970350,"current_range_meters":24800,"station_id":"ce4bho92rcd13ifvqh3g","pricing_plan_id":"free"},{"bike_id":"f229875c-7279-4cba-8b23-ffa88d687cf3","system_id":"levelo_inurba_marseille","lat":43.279742,"lon":5.38744,"is_reserved":false,"is_disabled":false,"rental_uris":{"android":"levelo://app?vid=f229875c-7279-4cba-8b23-ffa88d687cf3","ios":"levelo://app?vid=f229875c-7279-4cba-8b23-ffa88d687cf3"},"vehicle_type_id":"4","last_reported":1703970350,"current_range_meters":6400,"station_id":"ce4bhg12rcd13ifvqf80","pricing_plan_id":"free"},{"bike_id":"3a1a72d8-b65c-4abe-852c-357f18cbb3c3","system_id":"levelo_inurba_marseille","lat":43.292569,"lon":5.409107,"is_reserved":false,"is_disabled":false,"rental_uris":{"android":"levelo://app?vid=3a1a72d8-b65c-4abe-852c-357f18cbb3c3","ios":"levelo://app?vid=3a1a72d8-b65c-4abe-852c-357f18cbb3c3"},"vehicle_type_id":"4","last_reported":1703970350,"current_range_meters":23200,"station_id":"ce4bh192rcd13ifvqdc0","pricing_plan_id":"free"},{"bike_id":"e2116b2e-3a5f-4bd8-a1c8-2607f2cb6d00","system_id":"levelo_inurba_marseille","lat":43.325233,"lon":5.414318,"is_reserved":false,"is_disabled":false,"rental_uris":{"android":"levelo://app?vid=e2116b2e-3a5f-4bd8-a1c8-2607f2cb6d00","ios":"levelo://app?vid=e2116b2e-3a5f-4bd8-a1c8-2607f2cb6d00"},"vehicle_type_id":"4","last_reported":1703970350,"current_range_meters":9600,"station_id":"ce4bhq12rcd13ifvqhhg","pricing_plan_id":"free"},{"bike_id":"442e34b6-92de-4f95-a8c2-8af72ec09669","system_id":"levelo_inurba_marseille","lat":43.280784,"lon":5.396622,"is_reserved":false,"is_disabled":false,"rental_uris":{"android":"levelo://app?vid=442e34b6-92de-4f95-a8c2-8af72ec09669","ios":"levelo://app?vid=442e34b6-92de-4f95-a8c2-8af72ec09669"},"vehicle_type_id":"4","last_reported":1703970350,"current_range_meters":31600,"station_id":"ce4bho12rcd13ifvqh2g","pricing_plan_id":"free"},{"bike_id":"3d602464-5bb9-4c22-a863-47505fdc38ad","system_id":"levelo_inurba_marseille","lat":43.280784,"lon":5.396622,"is_reserved":false,"is_disabled":false,"rental_uris":{"android":"levelo://app?vid=3d602464-5bb9-4c22-a863-47505fdc38ad","ios":"levelo://app?vid=3d602464-5bb9-4c22-a863-47505fdc38ad"},"vehicle_type_id":"4","last_reported":1703970350,"current_range_meters":24000,"station_id":"ce4bho12rcd13ifvqh2g","pricing_plan_id":"free"},{"bike_id":"dcfb783e-4af4-4a2c-8b14-23597359d6a5","system_id":"levelo_inurba_marseille","lat":43.303837,"lon":5.418724,"is_reserved":false,"is_disabled":false,"rental_uris":{"android":"levelo://app?vid=dcfb783e-4af4-4a2c-8b14-23597359d6a5","ios":"levelo://app?vid=dcfb783e-4af4-4a2c-8b14-23597359d6a5"},"vehicle_type_id":"4","last_reported":1703970350,"current_range_meters":22800,"station_id":"ce4bhop2rcd13ifvqh7g","pricing_plan_id":"free"},{"bike_id":"4d3d0c8b-6b41-41e4-87c5-57930c62e9fb","system_id":"levelo_inurba_marseille","lat":43.278401,"lon":5.392152,"is_reserved":false,"is_disabled":false,"rental_uris":{"android":"levelo://app?vid=4d3d0c8b-6b41-41e4-87c5-57930c62e9fb","ios":"levelo://app?vid=4d3d0c8b-6b41-41e4-87c5-57930c62e9fb"},"vehicle_type_id":"4","last_reported":1703970350,"current_range_meters":24800,"station_id":"ce4bhjp2rcd13ifvqga0","pricing_plan_id":"free"},{"bike_id":"cbb66c40-c103-4fe1-b15c-e2526bef0177","system_id":"levelo_inurba_marseille","lat":43.273613,"lon":5.362705,"is_reserved":false,"is_disabled":false,"rental_uris":{"android":"levelo://app?vid=cbb66c40-c103-4fe1-b15c-e2526bef0177","ios":"levelo://app?vid=cbb66c40-c103-4fe1-b15c-e2526bef0177"},"vehicle_type_id":"4","last_reported":1703970350,"current_range_meters":0,"station_id":"ce4bhbh2rcd13ifvqeo0","pricing_plan_id":"free"},{"bike_id":"60e3cf50-115a-4056-b489-3fea9c373562","system_id":"levelo_inurba_marseille","lat":43.273613,"lon":5.362705,"is_reserved":false,"is_disabled":false,"rental_uris":{"android":"levelo://app?vid=60e3cf50-115a-4056-b489-3fea9c373562","ios":"levelo://app?vid=60e3cf50-115a-4056-b489-3fea9c373562"},"vehicle_type_id":"4","last_reported":1703970350,"current_range_meters":21200,"station_id":"ce4bhbh2rcd13ifvqeo0","pricing_plan_id":"free"},{"bike_id":"895eb730-d598-4bce-9441-abf58047a2e8","system_id":"levelo_inurba_marseille","lat":43.273613,"lon":5.362705,"is_reserved":false,"is_disabled":false,"rental_uris":{"android":"levelo://app?vid=895eb730-d598-4bce-9441-abf58047a2e8","ios":"levelo://app?vid=895eb730-d598-4bce-9441-abf58047a2e8"},"vehicle_type_id":"4","last_reported":1703970350,"current_range_meters":21200,"station_id":"ce4bhbh2rcd13ifvqeo0","pricing_plan_id":"free"},{"bike_id":"99106b63-21f1-4b49-9691-bc110c59fe67","system_id":"levelo_inurba_marseille","lat":43.275625,"lon":5.384392,"is_reserved":false,"is_disabled":false,"rental_uris":{"android":"levelo://app?vid=99106b63-21f1-4b49-9691-bc110c59fe67","ios":"levelo://app?vid=99106b63-21f1-4b49-9691-bc110c59fe67"},"vehicle_type_id":"4","last_reported":1703970350,"current_range_meters":28400,"station_id":"ce4bhh92rcd13ifvqfi0","pricing_plan_id":"free"},{"bike_id":"c375b325-17b3-4abf-8541-7870ff7b22a8","system_id":"levelo_inurba_marseille","lat":43.275625,"lon":5.384392,"is_reserved":false,"is_disabled":false,"rental_uris":{"android":"levelo://app?vid=c375b325-17b3-4abf-8541-7870ff7b22a8","ios":"levelo://app?vid=c375b325-17b3-4abf-8541-7870ff7b22a8"},"vehicle_type_id":"4","last_reported":1703970350,"current_range_meters":31200,"station_id":"ce4bhh92rcd13ifvqfi0","pricing_plan_id":"free"},{"bike_id":"d74d407a-9d30-44b7-a40c-ac5d7f1ba98b","system_id":"levelo_inurba_marseille","lat":43.275625,"lon":5.384392,"is_reserved":false,"is_disabled":false,"rental_uris":{"android":"levelo://app?vid=d74d407a-9d30-44b7-a40c-ac5d7f1ba98b","ios":"levelo://app?vid=d74d407a-9d30-44b7-a40c-ac5d7f1ba98b"},"vehicle_type_id":"4","last_reported":1703970350,"current_range_meters":6800,"station_id":"ce4bhh92rcd13ifvqfi0","pricing_plan_id":"free"},{"bike_id":"50ca5af9-7c02-414d-852a-b12afc034ad5","system_id":"levelo_inurba_marseille","lat":43.273613,"lon":5.362705,"is_reserved":false,"is_disabled":false,"rental_uris":{"android":"levelo://app?vid=50ca5af9-7c02-414d-852a-b12afc034ad5","ios":"levelo://app?vid=50ca5af9-7c02-414d-852a-b12afc034ad5"},"vehicle_type_id":"4","last_reported":1703970350,"current_range_meters":21600,"station_id":"ce4bhbh2rcd13ifvqeo0","pricing_plan_id":"free"},{"bike_id":"a69f4ca0-c247-4c77-885f-494b2985032d","system_id":"levelo_inurba_marseille","lat":43.336323,"lon":5.410357,"is_reserved":false,"is_disabled":false,"rental_uris":{"android":"levelo://app?vid=a69f4ca0-c247-4c77-885f-494b2985032d","ios":"levelo://app?vid=a69f4ca0-c247-4c77-885f-494b2985032d"},"vehicle_type_id":"4","last_reported":1703970350,"current_range_meters":29600,"station_id":"ce4bhqh2rcd13ifvqhmg","pricing_plan_id":"free"},{"bike_id":"7741a302-3786-4fca-ac4c-6fdf6e1b0aae","system_id":"levelo_inurba_marseille","lat":43.279952,"lon":5.400085,"is_reserved":false,"is_disabled":false,"rental_uris":{"android":"levelo://app?vid=7741a302-3786-4fca-ac4c-6fdf6e1b0aae","ios":"levelo://app?vid=7741a302-3786-4fca-ac4c-6fdf6e1b0aae"},"vehicle_type_id":"4","last_reported":1703970350,"current_range_meters":7200,"station_id":"ce4bho92rcd13ifvqh4g","pricing_plan_id":"free"},{"bike_id":"d888642a-5e21-4f0f-a86f-4770bc6da2c3","system_id":"levelo_inurba_marseille","lat":43.279952,"lon":5.400085,"is_reserved":false,"is_disabled":false,"rental_uris":{"android":"levelo://app?vid=d888642a-5e21-4f0f-a86f-4770bc6da2c3","ios":"levelo://app?vid=d888642a-5e21-4f0f-a86f-4770bc6da2c3"},"vehicle_type_id":"4","last_reported":1703970350,"current_range_meters":19200,"station_id":"ce4bho92rcd13ifvqh4g","pricing_plan_id":"free"},{"bike_id":"72a13852-be33-483c-a47b-6f02f7de9929","system_id":"levelo_inurba_marseille","lat":43.279952,"lon":5.400085,"is_reserved":false,"is_disabled":false,"rental_uris":{"android":"levelo://app?vid=72a13852-be33-483c-a47b-6f02f7de9929","ios":"levelo://app?vid=72a13852-be33-483c-a47b-6f02f7de9929"},"vehicle_type_id":"4","last_reported":1703970350,"current_range_meters":10400,"station_id":"ce4bho92rcd13ifvqh4g","pricing_plan_id":"free"},{"bike_id":"01437af3-b1db-4bcd-baf0-f3046ab99a2b","system_id":"levelo_inurba_marseille","lat":43.279952,"lon":5.400085,"is_reserved":false,"is_disabled":false,"rental_uris":{"android":"levelo://app?vid=01437af3-b1db-4bcd-baf0-f3046ab99a2b","ios":"levelo://app?vid=01437af3-b1db-4bcd-baf0-f3046ab99a2b"},"vehicle_type_id":"4","last_reported":1703970350,"current_range_meters":3600,"station_id":"ce4bho92rcd13ifvqh4g","pricing_plan_id":"free"},{"bike_id":"1c621c41-7024-4927-b6bb-5652521b61a6","system_id":"levelo_inurba_marseille","lat":43.279952,"lon":5.400085,"is_reserved":false,"is_disabled":false,"rental_uris":{"android":"levelo://app?vid=1c621c41-7024-4927-b6bb-5652521b61a6","ios":"levelo://app?vid=1c621c41-7024-4927-b6bb-5652521b61a6"},"vehicle_type_id":"4","last_reported":1703970350,"current_range_meters":800,"station_id":"ce4bho92rcd13ifvqh4g","pricing_plan_id":"free"},{"bike_id":"f5fd5f9b-1579-4e10-b614-92f4ee3d52b5","system_id":"levelo_inurba_marseille","lat":43.279975,"lon":5.40009,"is_reserved":false,"is_disabled":false,"rental_uris":{"android":"levelo://app?vid=f5fd5f9b-1579-4e10-b614-92f4ee3d52b5","ios":"levelo://app?vid=f5fd5f9b-1579-4e10-b614-92f4ee3d52b5"},"vehicle_type_id":"4","last_reported":1703970350,"current_range_meters":28800,"station_id":"ce4bho92rcd13ifvqh4g","pricing_plan_id":"free"},{"bike_id":"1b825d90-2b7b-4b5f-b780-a714f61c61a6","system_id":"levelo_inurba_marseille","lat":43.279952,"lon":5.400085,"is_reserved":false,"is_disabled":false,"rental_uris":{"android":"levelo://app?vid=1b825d90-2b7b-4b5f-b780-a714f61c61a6","ios":"levelo://app?vid=1b825d90-2b7b-4b5f-b780-a714f61c61a6"},"vehicle_type_id":"4","last_reported":1703970350,"current_range_meters":22800,"station_id":"ce4bho92rcd13ifvqh4g","pricing_plan_id":"free"},{"bike_id":"e55eff52-8930-40bf-b7ae-d4dc7e731987","system_id":"levelo_inurba_marseille","lat":43.279952,"lon":5.400085,"is_reserved":false,"is_disabled":false,"rental_uris":{"android":"levelo://app?vid=e55eff52-8930-40bf-b7ae-d4dc7e731987","ios":"levelo://app?vid=e55eff52-8930-40bf-b7ae-d4dc7e731987"},"vehicle_type_id":"4","last_reported":1703970350,"current_range_meters":22800,"station_id":"ce4bho92rcd13ifvqh4g","pricing_plan_id":"free"},{"bike_id":"ceb84a01-7f50-4c3a-9ee6-841d9d98855d","system_id":"levelo_inurba_marseille","lat":43.279952,"lon":5.400085,"is_reserved":false,"is_disabled":false,"rental_uris":{"android":"levelo://app?vid=ceb84a01-7f50-4c3a-9ee6-841d9d98855d","ios":"levelo://app?vid=ceb84a01-7f50-4c3a-9ee6-841d9d98855d"},"vehicle_type_id":"4","last_reported":1703970350,"current_range_meters":4800,"station_id":"ce4bho92rcd13ifvqh4g","pricing_plan_id":"free"},{"bike_id":"383d6cd1-9ced-4fa3-adff-9770f25cc081","system_id":"levelo_inurba_marseille","lat":43.317121,"lon":5.423936,"is_reserved":false,"is_disabled":false,"rental_uris":{"android":"levelo://app?vid=383d6cd1-9ced-4fa3-adff-9770f25cc081","ios":"levelo://app?vid=383d6cd1-9ced-4fa3-adff-9770f25cc081"},"vehicle_type_id":"4","last_reported":1703970350,"current_range_meters":29200,"station_id":"ce4bhp92rcd13ifvqhbg","pricing_plan_id":"free"},{"bike_id":"d9c8318c-3031-4f68-9885-19375abd858f","system_id":"levelo_inurba_marseille","lat":43.31465,"lon":5.42616,"is_reserved":false,"is_disabled":false,"rental_uris":{"android":"levelo://app?vid=d9c8318c-3031-4f68-9885-19375abd858f","ios":"levelo://app?vid=d9c8318c-3031-4f68-9885-19375abd858f"},"vehicle_type_id":"4","last_reported":1703970350,"current_range_meters":5600,"station_id":"","pricing_plan_id":"free"},{"bike_id":"061bb09e-908a-4f76-afb2-44bcfcb6aa80","system_id":"levelo_inurba_marseille","lat":43.295511,"lon":5.422926,"is_reserved":false,"is_disabled":false,"rental_uris":{"android":"levelo://app?vid=061bb09e-908a-4f76-afb2-44bcfcb6aa80","ios":"levelo://app?vid=061bb09e-908a-4f76-afb2-44bcfcb6aa80"},"vehicle_type_id":"4","last_reported":1703970350,"current_range_meters":30400,"station_id":"ce4bhph2rcd13ifvqhdg","pricing_plan_id":"free"},{"bike_id":"1215a881-8c5c-4a50-8eb2-6fc7039f28ce","system_id":"levelo_inurba_marseille","lat":43.295523,"lon":5.422926,"is_reserved":false,"is_disabled":false,"rental_uris":{"android":"levelo://app?vid=1215a881-8c5c-4a50-8eb2-6fc7039f28ce","ios":"levelo://app?vid=1215a881-8c5c-4a50-8eb2-6fc7039f28ce"},"vehicle_type_id":"4","last_reported":1703970350,"current_range_meters":21600,"station_id":"ce4bhph2rcd13ifvqhdg","pricing_plan_id":"free"},{"bike_id":"f469bb82-d41e-4cf7-88b8-44b7c61170d9","system_id":"levelo_inurba_marseille","lat":43.295511,"lon":5.422926,"is_reserved":false,"is_disabled":false,"rental_uris":{"android":"levelo://app?vid=f469bb82-d41e-4cf7-88b8-44b7c61170d9","ios":"levelo://app?vid=f469bb82-d41e-4cf7-88b8-44b7c61170d9"},"vehicle_type_id":"4","last_reported":1703970350,"current_range_meters":18000,"station_id":"ce4bhph2rcd13ifvqhdg","pricing_plan_id":"free"},{"bike_id":"beb93061-85bf-4e20-99aa-79c67497ba42","system_id":"levelo_inurba_marseille","lat":43.295511,"lon":5.422926,"is_reserved":false,"is_disabled":false,"rental_uris":{"android":"levelo://app?vid=beb93061-85bf-4e20-99aa-79c67497ba42","ios":"levelo://app?vid=beb93061-85bf-4e20-99aa-79c67497ba42"},"vehicle_type_id":"4","last_reported":1703970350,"current_range_meters":18000,"station_id":"ce4bhph2rcd13ifvqhdg","pricing_plan_id":"free"},{"bike_id":"d060ee75-2d43-419a-ab7d-06748f433214","system_id":"levelo_inurba_marseille","lat":43.278128,"lon":5.407195,"is_reserved":false,"is_disabled":false,"rental_uris":{"android":"levelo://app?vid=d060ee75-2d43-419a-ab7d-06748f433214","ios":"levelo://app?vid=d060ee75-2d43-419a-ab7d-06748f433214"},"vehicle_type_id":"4","last_reported":1703970350,"current_range_meters":31200,"station_id":"ce4bhnh2rcd13ifvqgtg","pricing_plan_id":"free"},{"bike_id":"a651a69e-ab76-4599-8c57-6bb3630f7058","system_id":"levelo_inurba_marseille","lat":43.269319,"lon":5.389397,"is_reserved":false,"is_disabled":false,"rental_uris":{"android":"levelo://app?vid=a651a69e-ab76-4599-8c57-6bb3630f7058","ios":"levelo://app?vid=a651a69e-ab76-4599-8c57-6bb3630f7058"},"vehicle_type_id":"4","last_reported":1703970350,"current_range_meters":18800,"station_id":"ce4bhhh2rcd13ifvqfl0","pricing_plan_id":"free"},{"bike_id":"4ace0143-54eb-450f-874b-0d5359e906a6","system_id":"levelo_inurba_marseille","lat":43.31299,"lon":5.4309,"is_reserved":false,"is_disabled":false,"rental_uris":{"android":"levelo://app?vid=4ace0143-54eb-450f-874b-0d5359e906a6","ios":"levelo://app?vid=4ace0143-54eb-450f-874b-0d5359e906a6"},"vehicle_type_id":"4","last_reported":1703970350,"current_range_meters":30000,"station_id":"","pricing_plan_id":"free"},{"bike_id":"7a4c5c94-9c70-4738-835b-3564783d3bf0","system_id":"levelo_inurba_marseille","lat":43.26681,"lon":5.382694,"is_reserved":false,"is_disabled":false,"rental_uris":{"android":"levelo://app?vid=7a4c5c94-9c70-4738-835b-3564783d3bf0","ios":"levelo://app?vid=7a4c5c94-9c70-4738-835b-3564783d3bf0"},"vehicle_type_id":"4","last_reported":1703970350,"current_range_meters":30000,"station_id":"ce4bhg92rcd13ifvqf90","pricing_plan_id":"free"},{"bike_id":"a2a75f5b-74ff-4e31-a9ef-f4f63c80277c","system_id":"levelo_inurba_marseille","lat":43.267966,"lon":5.393976,"is_reserved":false,"is_disabled":false,"rental_uris":{"android":"levelo://app?vid=a2a75f5b-74ff-4e31-a9ef-f4f63c80277c","ios":"levelo://app?vid=a2a75f5b-74ff-4e31-a9ef-f4f63c80277c"},"vehicle_type_id":"4","last_reported":1703970350,"current_range_meters":10400,"station_id":"ce4bhh12rcd13ifvqfg0","pricing_plan_id":"free"},{"bike_id":"2569f04e-45a6-4ae1-8672-b39d66a61ea8","system_id":"levelo_inurba_marseille","lat":43.27996,"lon":5.416624,"is_reserved":false,"is_disabled":false,"rental_uris":{"android":"levelo://app?vid=2569f04e-45a6-4ae1-8672-b39d66a61ea8","ios":"levelo://app?vid=2569f04e-45a6-4ae1-8672-b39d66a61ea8"},"vehicle_type_id":"4","last_reported":1703970350,"current_range_meters":16400,"station_id":"ce4bho12rcd13ifvqh1g","pricing_plan_id":"free"},{"bike_id":"40c945d6-0276-4a48-b299-960f10ed7965","system_id":"levelo_inurba_marseille","lat":43.27996,"lon":5.416624,"is_reserved":false,"is_disabled":false,"rental_uris":{"android":"levelo://app?vid=40c945d6-0276-4a48-b299-960f10ed7965","ios":"levelo://app?vid=40c945d6-0276-4a48-b299-960f10ed7965"},"vehicle_type_id":"4","last_reported":1703970350,"current_range_meters":14000,"station_id":"ce4bho12rcd13ifvqh1g","pricing_plan_id":"free"},{"bike_id":"b13eed8c-1a94-4423-b5d6-ede7d4833ea0","system_id":"levelo_inurba_marseille","lat":43.27996,"lon":5.416624,"is_reserved":false,"is_disabled":false,"rental_uris":{"android":"levelo://app?vid=b13eed8c-1a94-4423-b5d6-ede7d4833ea0","ios":"levelo://app?vid=b13eed8c-1a94-4423-b5d6-ede7d4833ea0"},"vehicle_type_id":"4","last_reported":1703970350,"current_range_meters":21200,"station_id":"ce4bho12rcd13ifvqh1g","pricing_plan_id":"free"},{"bike_id":"1c7b2420-34e7-4cda-9b8d-e5551d4017de","system_id":"levelo_inurba_marseille","lat":43.27996,"lon":5.416624,"is_reserved":false,"is_disabled":false,"rental_uris":{"android":"levelo://app?vid=1c7b2420-34e7-4cda-9b8d-e5551d4017de","ios":"levelo://app?vid=1c7b2420-34e7-4cda-9b8d-e5551d4017de"},"vehicle_type_id":"4","last_reported":1703970350,"current_range_meters":21200,"station_id":"ce4bho12rcd13ifvqh1g","pricing_plan_id":"free"},{"bike_id":"267606f5-650f-4b88-939b-5a7bc7045522","system_id":"levelo_inurba_marseille","lat":43.27996,"lon":5.416624,"is_reserved":false,"is_disabled":false,"rental_uris":{"android":"levelo://app?vid=267606f5-650f-4b88-939b-5a7bc7045522","ios":"levelo://app?vid=267606f5-650f-4b88-939b-5a7bc7045522"},"vehicle_type_id":"4","last_reported":1703970350,"current_range_meters":22000,"station_id":"ce4bho12rcd13ifvqh1g","pricing_plan_id":"free"},{"bike_id":"6360d5f3-4af1-46b3-b9af-6b80a26ce6ca","system_id":"levelo_inurba_marseille","lat":43.27996,"lon":5.416624,"is_reserved":false,"is_disabled":false,"rental_uris":{"android":"levelo://app?vid=6360d5f3-4af1-46b3-b9af-6b80a26ce6ca","ios":"levelo://app?vid=6360d5f3-4af1-46b3-b9af-6b80a26ce6ca"},"vehicle_type_id":"4","last_reported":1703970350,"current_range_meters":28400,"station_id":"ce4bho12rcd13ifvqh1g","pricing_plan_id":"free"},{"bike_id":"109313f9-71f8-49b1-a95b-7c7e1a73f29b","system_id":"levelo_inurba_marseille","lat":43.308051,"lon":5.43527,"is_reserved":false,"is_disabled":false,"rental_uris":{"android":"levelo://app?vid=109313f9-71f8-49b1-a95b-7c7e1a73f29b","ios":"levelo://app?vid=109313f9-71f8-49b1-a95b-7c7e1a73f29b"},"vehicle_type_id":"4","last_reported":1703970350,"current_range_meters":16000,"station_id":"ce4bhph2rcd13ifvqheg","pricing_plan_id":"free"},{"bike_id":"9e15925c-33ab-47bd-a788-cbec8b9fb708","system_id":"levelo_inurba_marseille","lat":43.308051,"lon":5.43527,"is_reserved":false,"is_disabled":false,"rental_uris":{"android":"levelo://app?vid=9e15925c-33ab-47bd-a788-cbec8b9fb708","ios":"levelo://app?vid=9e15925c-33ab-47bd-a788-cbec8b9fb708"},"vehicle_type_id":"4","last_reported":1703970350,"current_range_meters":17200,"station_id":"ce4bhph2rcd13ifvqheg","pricing_plan_id":"free"},{"bike_id":"3d6f9101-849e-46ac-aab7-d2b230d90650","system_id":"levelo_inurba_marseille","lat":43.26949,"lon":5.40262,"is_reserved":false,"is_disabled":false,"rental_uris":{"android":"levelo://app?vid=3d6f9101-849e-46ac-aab7-d2b230d90650","ios":"levelo://app?vid=3d6f9101-849e-46ac-aab7-d2b230d90650"},"vehicle_type_id":"4","last_reported":1703970350,"current_range_meters":14400,"station_id":"cjm6bp8fraef2m0cb0m0","pricing_plan_id":"free"},{"bike_id":"d56e49d0-e02c-49d8-a760-917d3d63019f","system_id":"levelo_inurba_marseille","lat":43.26949,"lon":5.40262,"is_reserved":false,"is_disabled":false,"rental_uris":{"android":"levelo://app?vid=d56e49d0-e02c-49d8-a760-917d3d63019f","ios":"levelo://app?vid=d56e49d0-e02c-49d8-a760-917d3d63019f"},"vehicle_type_id":"4","last_reported":1703970350,"current_range_meters":10000,"station_id":"cjm6bp8fraef2m0cb0m0","pricing_plan_id":"free"},{"bike_id":"dac5ea74-92f7-462e-b536-31f322bb01c0","system_id":"levelo_inurba_marseille","lat":43.331893,"lon":5.431791,"is_reserved":false,"is_disabled":false,"rental_uris":{"android":"levelo://app?vid=dac5ea74-92f7-462e-b536-31f322bb01c0","ios":"levelo://app?vid=dac5ea74-92f7-462e-b536-31f322bb01c0"},"vehicle_type_id":"4","last_reported":1703970350,"current_range_meters":14000,"station_id":"","pricing_plan_id":"free"},{"bike_id":"bd9113a0-9afb-442d-a70c-39cac8b9a6a3","system_id":"levelo_inurba_marseille","lat":43.261782,"lon":5.374515,"is_reserved":false,"is_disabled":false,"rental_uris":{"android":"levelo://app?vid=bd9113a0-9afb-442d-a70c-39cac8b9a6a3","ios":"levelo://app?vid=bd9113a0-9afb-442d-a70c-39cac8b9a6a3"},"vehicle_type_id":"4","last_reported":1703970350,"current_range_meters":14400,"station_id":"ce4bhgp2rcd13ifvqfc0","pricing_plan_id":"free"},{"bike_id":"794ab64e-1955-4766-b844-628f1c76e2d8","system_id":"levelo_inurba_marseille","lat":43.271368,"lon":5.40928,"is_reserved":false,"is_disabled":false,"rental_uris":{"android":"levelo://app?vid=794ab64e-1955-4766-b844-628f1c76e2d8","ios":"levelo://app?vid=794ab64e-1955-4766-b844-628f1c76e2d8"},"vehicle_type_id":"4","last_reported":1703970350,"current_range_meters":23600,"station_id":"ce4bhl12rcd13ifvqgf0","pricing_plan_id":"free"},{"bike_id":"8b46248b-ee76-4399-b020-1926290994f4","system_id":"levelo_inurba_marseille","lat":43.26202,"lon":5.379299,"is_reserved":false,"is_disabled":false,"rental_uris":{"android":"levelo://app?vid=8b46248b-ee76-4399-b020-1926290994f4","ios":"levelo://app?vid=8b46248b-ee76-4399-b020-1926290994f4"},"vehicle_type_id":"4","last_reported":1703970350,"current_range_meters":400,"station_id":"ce4bhjp2rcd13ifvqg90","pricing_plan_id":"free"},{"bike_id":"3f8ad699-77c1-4121-bb7e-9993854123bf","system_id":"levelo_inurba_marseille","lat":43.271368,"lon":5.40928,"is_reserved":false,"is_disabled":false,"rental_uris":{"android":"levelo://app?vid=3f8ad699-77c1-4121-bb7e-9993854123bf","ios":"levelo://app?vid=3f8ad699-77c1-4121-bb7e-9993854123bf"},"vehicle_type_id":"4","last_reported":1703970350,"current_range_meters":30800,"station_id":"ce4bhl12rcd13ifvqgf0","pricing_plan_id":"free"},{"bike_id":"67d5e534-bb56-4ed3-96f2-1608e8f50594","system_id":"levelo_inurba_marseille","lat":43.267959,"lon":5.402685,"is_reserved":false,"is_disabled":false,"rental_uris":{"android":"levelo://app?vid=67d5e534-bb56-4ed3-96f2-1608e8f50594","ios":"levelo://app?vid=67d5e534-bb56-4ed3-96f2-1608e8f50594"},"vehicle_type_id":"4","last_reported":1703970350,"current_range_meters":19600,"station_id":"ce501612rcd8frsf0b60","pricing_plan_id":"free"},{"bike_id":"048306d8-69df-4d21-99c9-8745e525e8de","system_id":"levelo_inurba_marseille","lat":43.29896,"lon":5.43657,"is_reserved":false,"is_disabled":false,"rental_uris":{"android":"levelo://app?vid=048306d8-69df-4d21-99c9-8745e525e8de","ios":"levelo://app?vid=048306d8-69df-4d21-99c9-8745e525e8de"},"vehicle_type_id":"4","last_reported":1703970350,"current_range_meters":6000,"station_id":"ce4bhpp2rcd13ifvqhfg","pricing_plan_id":"free"},{"bike_id":"812614fc-f43d-42cd-8379-6bce06a75358","system_id":"levelo_inurba_marseille","lat":43.298768,"lon":5.43643,"is_reserved":false,"is_disabled":false,"rental_uris":{"android":"levelo://app?vid=812614fc-f43d-42cd-8379-6bce06a75358","ios":"levelo://app?vid=812614fc-f43d-42cd-8379-6bce06a75358"},"vehicle_type_id":"4","last_reported":1703970350,"current_range_meters":31600,"station_id":"ce4bhpp2rcd13ifvqhfg","pricing_plan_id":"free"},{"bike_id":"4e011c37-f126-433b-a488-7ed2749557ae","system_id":"levelo_inurba_marseille","lat":43.298768,"lon":5.43643,"is_reserved":false,"is_disabled":false,"rental_uris":{"android":"levelo://app?vid=4e011c37-f126-433b-a488-7ed2749557ae","ios":"levelo://app?vid=4e011c37-f126-433b-a488-7ed2749557ae"},"vehicle_type_id":"4","last_reported":1703970350,"current_range_meters":21600,"station_id":"ce4bhpp2rcd13ifvqhfg","pricing_plan_id":"free"},{"bike_id":"313ca482-e16f-4fa1-aefb-866c09e75d1f","system_id":"levelo_inurba_marseille","lat":43.26035,"lon":5.37555,"is_reserved":false,"is_disabled":false,"rental_uris":{"android":"levelo://app?vid=313ca482-e16f-4fa1-aefb-866c09e75d1f","ios":"levelo://app?vid=313ca482-e16f-4fa1-aefb-866c09e75d1f"},"vehicle_type_id":"4","last_reported":1703970350,"current_range_meters":22000,"station_id":"ce4bhgh2rcd13ifvqfa0","pricing_plan_id":"free"},{"bike_id":"0d574b27-0544-48a4-bf39-ede07ecbf8c3","system_id":"levelo_inurba_marseille","lat":43.281548,"lon":5.42643,"is_reserved":false,"is_disabled":false,"rental_uris":{"android":"levelo://app?vid=0d574b27-0544-48a4-bf39-ede07ecbf8c3","ios":"levelo://app?vid=0d574b27-0544-48a4-bf39-ede07ecbf8c3"},"vehicle_type_id":"4","last_reported":1703970350,"current_range_meters":10800,"station_id":"ce4bhnh2rcd13ifvqgug","pricing_plan_id":"free"},{"bike_id":"554274c1-29da-4e13-9454-6cf149455d56","system_id":"levelo_inurba_marseille","lat":43.281548,"lon":5.42643,"is_reserved":false,"is_disabled":false,"rental_uris":{"android":"levelo://app?vid=554274c1-29da-4e13-9454-6cf149455d56","ios":"levelo://app?vid=554274c1-29da-4e13-9454-6cf149455d56"},"vehicle_type_id":"4","last_reported":1703970350,"current_range_meters":26400,"station_id":"ce4bhnh2rcd13ifvqgug","pricing_plan_id":"free"},{"bike_id":"0c5cb810-16ed-4b8f-9df0-3ac1374db3bf","system_id":"levelo_inurba_marseille","lat":43.28155,"lon":5.42648,"is_reserved":false,"is_disabled":false,"rental_uris":{"android":"levelo://app?vid=0c5cb810-16ed-4b8f-9df0-3ac1374db3bf","ios":"levelo://app?vid=0c5cb810-16ed-4b8f-9df0-3ac1374db3bf"},"vehicle_type_id":"4","last_reported":1703970350,"current_range_meters":26800,"station_id":"ce4bhnh2rcd13ifvqgug","pricing_plan_id":"free"},{"bike_id":"dba94adf-8631-4e52-b14e-ab5df234ae8e","system_id":"levelo_inurba_marseille","lat":43.281548,"lon":5.42643,"is_reserved":false,"is_disabled":false,"rental_uris":{"android":"levelo://app?vid=dba94adf-8631-4e52-b14e-ab5df234ae8e","ios":"levelo://app?vid=dba94adf-8631-4e52-b14e-ab5df234ae8e"},"vehicle_type_id":"4","last_reported":1703970350,"current_range_meters":30000,"station_id":"ce4bhnh2rcd13ifvqgug","pricing_plan_id":"free"},{"bike_id":"65f713de-eaab-4062-a39f-3825259699d7","system_id":"levelo_inurba_marseille","lat":43.255756,"lon":5.382303,"is_reserved":false,"is_disabled":false,"rental_uris":{"android":"levelo://app?vid=65f713de-eaab-4062-a39f-3825259699d7","ios":"levelo://app?vid=65f713de-eaab-4062-a39f-3825259699d7"},"vehicle_type_id":"4","last_reported":1703970350,"current_range_meters":15600,"station_id":"ce4bhih2rcd13ifvqfs0","pricing_plan_id":"free"},{"bike_id":"fb602b6f-f729-41cf-8a05-eadad2ef5bc8","system_id":"levelo_inurba_marseille","lat":43.25579,"lon":5.38229,"is_reserved":false,"is_disabled":false,"rental_uris":{"android":"levelo://app?vid=fb602b6f-f729-41cf-8a05-eadad2ef5bc8","ios":"levelo://app?vid=fb602b6f-f729-41cf-8a05-eadad2ef5bc8"},"vehicle_type_id":"4","last_reported":1703970350,"current_range_meters":1200,"station_id":"ce4bhih2rcd13ifvqfs0","pricing_plan_id":"free"},{"bike_id":"ca9c4ad1-1f51-4205-ae09-010309350867","system_id":"levelo_inurba_marseille","lat":43.254947,"lon":5.376454,"is_reserved":false,"is_disabled":false,"rental_uris":{"android":"levelo://app?vid=ca9c4ad1-1f51-4205-ae09-010309350867","ios":"levelo://app?vid=ca9c4ad1-1f51-4205-ae09-010309350867"},"vehicle_type_id":"4","last_reported":1703970350,"current_range_meters":19200,"station_id":"ce4bhh12rcd13ifvqff0","pricing_plan_id":"free"},{"bike_id":"0a4a8fce-c9c8-44f0-98da-62e6c75907a8","system_id":"levelo_inurba_marseille","lat":43.254947,"lon":5.376454,"is_reserved":false,"is_disabled":false,"rental_uris":{"android":"levelo://app?vid=0a4a8fce-c9c8-44f0-98da-62e6c75907a8","ios":"levelo://app?vid=0a4a8fce-c9c8-44f0-98da-62e6c75907a8"},"vehicle_type_id":"4","last_reported":1703970350,"current_range_meters":22000,"station_id":"ce4bhh12rcd13ifvqff0","pricing_plan_id":"free"},{"bike_id":"d1cda8d7-d86f-4140-be6e-b829c0223e99","system_id":"levelo_inurba_marseille","lat":43.270721,"lon":5.422764,"is_reserved":false,"is_disabled":false,"rental_uris":{"android":"levelo://app?vid=d1cda8d7-d86f-4140-be6e-b829c0223e99","ios":"levelo://app?vid=d1cda8d7-d86f-4140-be6e-b829c0223e99"},"vehicle_type_id":"4","last_reported":1703970350,"current_range_meters":30000,"station_id":"ce4bhk92rcd13ifvqgb0","pricing_plan_id":"free"},