{"last_updated":1767716140,"ttl":60,"version":"2.2","data":{"bikes":[{"bike_id":"931bf855-058d-4d1a-b24b-4b90b45762fb","system_id":"levelo_inurba_marseille","lat":43.23963,"lon":5.36623,"is_reserved":false,"is_disabled":false,"rental_uris":{"android":"levelo://app?vid=931bf855-058d-4d1a-b24b-4b90b45762fb","ios":"levelo://app?vid=931bf855-058d-4d1a-b24b-4b90b45762fb"},"vehicle_type_id":"4","last_reported":1767716140,"current_range_meters":2800,"station_id":"ce4bhi12rcd13ifvqfp0","pricing_plan_id":"cebpf4jnsgd1na2vs0mg"},{"bike_id":"7021d223-1fad-4cfa-9032-11f32093e238","system_id":"levelo_inurba_marseille","lat":43.32547,"lon":5.41438,"is_reserved":false,"is_disabled":false,"rental_uris":{"android":"levelo://app?vid=7021d223-1fad-4cfa-9032-11f32093e238","ios":"levelo://app?vid=7021d223-1fad-4cfa-9032-11f32093e238"},"vehicle_type_id":"4","last_reported":1767716140,"current_range_meters":2800,"station_id":"ce4bhq12rcd13ifvqhhg","pricing_plan_id":"cebpf4jnsgd1na2vs0mg"},{"bike_id":"bba04b6b-2deb-4355-88fe-b68f4ca01145","system_id":"levelo_inurba_marseille","lat":43.28936,"lon":5.36399,"is_reserved":false,"is_disabled":false,"rental_uris":{"android":"levelo://app?vid=bba04b6b-2deb-4355-88fe-b68f4ca01145","ios":"levelo://app?vid=bba04b6b-2deb-4355-88fe-b68f4ca01145"},"vehicle_type_id":"4","last_reported":1767716140,"current_range_meters":2800,"station_id":"ce4bhc92rcd13ifvqetg","pricing_plan_id":"cebpf4jnsgd1na2vs0mg"},{"bike_id":"2e0b3f55-c721-4488-8d75-42edf3c40b40","system_id":"levelo_inurba_marseille","lat":43.28699,"lon":5.39978,"is_reserved":false,"is_disabled":false,"rental_uris":{"android":"levelo://app?vid=2e0b3f55-c721-4488-8d75-42edf3c40b40","ios":"levelo://app?vid=2e0b3f55-c721-4488-8d75-42edf3c40b40"},"vehicle_type_id":"4","last_reported":1767716140,"current_range_meters":2800,"station_id":"ce4bho92rcd13ifvqh3g","pricing_plan_id":"cebpf4jnsgd1na2vs0mg"},{"bike_id":"13e8f57b-8685-4f75-a330-04d43a223660","system_id":"levelo_inurba_marseille","lat":43.266788,"lon":5.382782,"is_reserved":false,"is_disabled":false,"rental_uris":{"android":"levelo://app?vid=13e8f57b-8685-4f75-a330-04d43a223660","ios":"levelo://app?vid=13e8f57b-8685-4f75-a330-04d43a223660"},"vehicle_type_id":"4","last_reported":1767716140,"current_range_meters":2800,"station_id":"ce4bhg92rcd13ifvqf90","pricing_plan_id":"cebpf4jnsgd1na2vs0mg"},{"bike_id":"ab879403-7aaa-4924-8e9e-09193a082159","system_id":"levelo_inurba_marseille","lat":43.284815,"lon":5.48401,"is_reserved":false,"is_disabled":false,"rental_uris":{"android":"levelo://app?vid=ab879403-7aaa-4924-8e9e-09193a082159","ios":"levelo://app?vid=ab879403-7aaa-4924-8e9e-09193a082159"},"vehicle_type_id":"4","last_reported":1767716140,"current_range_meters":2800,"station_id":"","pricing_plan_id":"cebpf4jnsgd1na2vs0mg"},{"bike_id":"3f4936a1-51a0-4cc0-905d-15676dda0b53","system_id":"levelo_inurba_marseille","lat":43.28856,"lon":5.42524,"is_reserved":false,"is_disabled":false,"rental_uris":{"android":"levelo://app?vid=3f4936a1-51a0-4cc0-905d-15676dda0b53","ios":"levelo://app?vid=3f4936a1-51a0-4cc0-905d-15676dda0b53"},"vehicle_type_id":"4","last_reported":1767716140,"current_range_meters":3200,"station_id":"st_d3b462108ojc7389ooeg","pricing_plan_id":"cebpf4jnsgd1na2vs0mg"},{"bike_id":"2299f6f8-489b-427e-9484-81efc5a9abcb","system_id":"levelo_inurba_marseille","lat":43.23155,"lon":5.43694,"is_reserved":false,"is_disabled":false,"rental_uris":{"android":"levelo://app?vid=2299f6f8-489b-427e-9484-81efc5a9abcb","ios":"levelo://app?vid=2299f6f8-489b-427e-9484-81efc5a9abcb"},"vehicle_type_id":"4","last_reported":1767716140,"current_range_meters":3200,"station_id":"ce4bhmp2rcd13ifvqgog","pricing_plan_id":"cebpf4jnsgd1na2vs0mg"},{"bike_id":"1faa2c1c-623d-4c7b-b6d0-30570519c684","system_id":"levelo_inurba_marseille","lat":43.30532,"lon":5.36706,"is_reserved":false,"is_disabled":false,"rental_uris":{"android":"levelo://app?vid=1faa2c1c-623d-4c7b-b6d0-30570519c684","ios":"levelo://app?vid=1faa2c1c-623d-4c7b-b6d0-30570519c684"},"vehicle_type_id":"4","last_reported":1767716140,"current_range_meters":3200,"station_id":"ce4bgrp2rcd13ifvqc9g","pricing_plan_id":"cebpf4jnsgd1na2vs0mg"},{"bike_id":"a9d496c8-5506-4b4f-a998-1de06b457e15","system_id":"levelo_inurba_marseille","lat":43.31335,"lon":5.36745,"is_reserved":false,"is_disabled":false,"rental_uris":{"android":"levelo://app?vid=a9d496c8-5506-4b4f-a998-1de06b457e15","ios":"levelo://app?vid=a9d496c8-5506-4b4f-a998-1de06b457e15"},"vehicle_type_id":"4","last_reported":1767716140,"current_range_meters":3200,"station_id":"ce4bgr92rcd13ifvqc6g","pricing_plan_id":"cebpf4jnsgd1na2vs0mg"},{"bike_id":"6267a52f-a5bf-4d19-84b6-bbf8f92d0b79","system_id":"levelo_inurba_marseille","lat":43.30585,"lon":5.39338,"is_reserved":false,"is_disabled":false,"rental_uris":{"android":"levelo://app?vid=6267a52f-a5bf-4d19-84b6-bbf8f92d0b79","ios":"levelo://app?vid=6267a52f-a5bf-4d19-84b6-bbf8f92d0b79"},"vehicle_type_id":"4","last_reported":1767716140,"current_range_meters":3200,"station_id":"ce4bh0p2rcd13ifvqd80","pricing_plan_id":"cebpf4jnsgd1na2vs0mg"},{"bike_id":"40707d19-1578-4bca-9a90-567e6b76cbbc","system_id":"levelo_inurba_marseille","lat":43.28078,"lon":5.39661,"is_reserved":false,"is_disabled":false,"rental_uris":{"android":"levelo://app?vid=40707d19-1578-4bca-9a90-567e6b76cbbc","ios":"levelo://app?vid=40707d19-1578-4bca-9a90-567e6b76cbbc"},"vehicle_type_id":"4","last_reported":1767716140,"current_range_meters":3200,"station_id":"ce4bho12rcd13ifvqh2g","pricing_plan_id":"cebpf4jnsgd1na2vs0mg"},{"bike_id":"f26ff975-07a0-4c80-ba97-925c8b28de6d","system_id":"levelo_inurba_marseille","lat":43.25946,"lon":5.40861,"is_reserved":false,"is_disabled":true,"rental_uris":{"android":"levelo://app?vid=f26ff975-07a0-4c80-ba97-925c8b28de6d","ios":"levelo://app?vid=f26ff975-07a0-4c80-ba97-925c8b28de6d"},"vehicle_type_id":"4","last_reported":1767716140,"current_range_meters":3200,"station_id":"ce4bhm92rcd13ifvqglg","pricing_plan_id":"cebpf4jnsgd1na2vs0mg"},{"bike_id":"269faeda-f958-4c96-a603-702591889c06","system_id":"levelo_inurba_marseille","lat":43.27069,"lon":5.42278,"is_reserved":false,"is_disabled":false,"rental_uris":{"android":"levelo://app?vid=269faeda-f958-4c96-a603-702591889c06","ios":"levelo://app?vid=269faeda-f958-4c96-a603-702591889c06"},"vehicle_type_id":"4","last_reported":1767716140,"current_range_meters":3200,"station_id":"ce4bhk92rcd13ifvqgb0","pricing_plan_id":"cebpf4jnsgd1na2vs0mg"},{"bike_id":"a79f864e-d065-4c7a-833d-cf14f861d8c8","system_id":"levelo_inurba_marseille","lat":43.258238,"lon":5.394445,"is_reserved":false,"is_disabled":false,"rental_uris":{"android":"levelo://app?vid=a79f864e-d065-4c7a-833d-cf14f861d8c8","ios":"levelo://app?vid=a79f864e-d065-4c7a-833d-cf14f861d8c8"},"vehicle_type_id":"4","last_reported":1767716140,"current_range_meters":3200,"station_id":"ce4bhip2rcd13ifvqft0","pricing_plan_id":"cebpf4jnsgd1na2vs0mg"},{"bike_id":"84de15ae-aa05-4f23-816a-23fa951d377b","system_id":"levelo_inurba_marseille","lat":43.28612,"lon":5.39888,"is_reserved":false,"is_disabled":false,"rental_uris":{"android":"levelo://app?vid=84de15ae-aa05-4f23-816a-23fa951d377b","ios":"levelo://app?vid=84de15ae-aa05-4f23-816a-23fa951d377b"},"vehicle_type_id":"4","last_reported":1767716140,"current_range_meters":3200,"station_id":"st_d4a7ka997mjs738ck50g","pricing_plan_id":"cebpf4jnsgd1na2vs0mg"},{"bike_id":"b803863f-5ac3-4c63-b045-8d317025a1bf","system_id":"levelo_inurba_marseille","lat":43.29929,"lon":5.38002,"is_reserved":false,"is_disabled":false,"rental_uris":{"android":"levelo://app?vid=b803863f-5ac3-4c63-b045-8d317025a1bf","ios":"levelo://app?vid=b803863f-5ac3-4c63-b045-8d317025a1bf"},"vehicle_type_id":"4","last_reported":1767716140,"current_range_meters":3200,"station_id":"","pricing_plan_id":"cebpf4jnsgd1na2vs0mg"},{"bike_id":"438148d1-4441-4c2a-9fb4-0da67b1d1c82","system_id":"levelo_inurba_marseille","lat":43.299071,"lon":5.381458,"is_reserved":false,"is_disabled":false,"rental_uris":{"android":"levelo://app?vid=438148d1-4441-4c2a-9fb4-0da67b1d1c82","ios":"levelo://app?vid=438148d1-4441-4c2a-9fb4-0da67b1d1c82"},"vehicle_type_id":"4","last_reported":1767716140,"current_range_meters":3200,"station_id":"ce4bgj12rcd13ifvqbc0","pricing_plan_id":"cebpf4jnsgd1na2vs0mg"},{"bike_id":"353e7cf9-caeb-4f66-a929-6ba9791edb43","system_id":"levelo_inurba_marseille","lat":43.32103,"lon":5.36785,"is_reserved":false,"is_disabled":false,"rental_uris":{"android":"levelo://app?vid=353e7cf9-caeb-4f66-a929-6ba9791edb43","ios":"levelo://app?vid=353e7cf9-caeb-4f66-a929-6ba9791edb43"},"vehicle_type_id":"4","last_reported":1767716140,"current_range_meters":3200,"station_id":"ce4bhrh2rcd13ifvqhug","pricing_plan_id":"cebpf4jnsgd1na2vs0mg"},{"bike_id":"4b0eb6bf-8d2a-46a3-875c-0677ddbf0536","system_id":"levelo_inurba_marseille","lat":43.22572,"lon":5.41624,"is_reserved":false,"is_disabled":false,"rental_uris":{"android":"levelo://app?vid=4b0eb6bf-8d2a-46a3-875c-0677ddbf0536","ios":"levelo://app?vid=4b0eb6bf-8d2a-46a3-875c-0677ddbf0536"},"vehicle_type_id":"4","last_reported":1767716140,"current_range_meters":3200,"station_id":"st_d2o4gvlbi1j2169b742g","pricing_plan_id":"cebpf4jnsgd1na2vs0mg"},{"bike_id":"ce5f9442-e759-4071-b360-e6e532512d28","system_id":"levelo_inurba_marseille","lat":43.29705,"lon":5.37273,"is_reserved":false,"is_disabled":false,"rental_uris":{"android":"levelo://app?vid=ce5f9442-e759-4071-b360-e6e532512d28","ios":"levelo://app?vid=ce5f9442-e759-4071-b360-e6e532512d28"},"vehicle_type_id":"4","last_reported":1767716140,"current_range_meters":3200,"station_id":"ce4bgk12rcd13ifvqbj0","pricing_plan_id":"cebpf4jnsgd1na2vs0mg"},{"bike_id":"445c0dfb-3931-4cf1-b184-a3eca62d01a2","system_id":"levelo_inurba_marseille","lat":43.29624,"lon":5.37739,"is_reserved":false,"is_disabled":false,"rental_uris":{"android":"levelo://app?vid=445c0dfb-3931-4cf1-b184-a3eca62d01a2","ios":"levelo://app?vid=445c0dfb-3931-4cf1-b184-a3eca62d01a2"},"vehicle_type_id":"4","last_reported":1767716140,"current_range_meters":3600,"station_id":"ce4bgi92rcd13ifvqb90","pricing_plan_id":"cebpf4jnsgd1na2vs0mg"},{"bike_id":"4475b542-ba01-401d-a805-cfef4e4f235c","system_id":"levelo_inurba_marseille","lat":43.2962,"lon":5.37728,"is_reserved":false,"is_disabled":false,"rental_uris":{"android":"levelo://app?vid=4475b542-ba01-401d-a805-cfef4e4f235c","ios":"levelo://app?vid=4475b542-ba01-401d-a805-cfef4e4f235c"},"vehicle_type_id":"4","last_reported":1767716140,"current_range_meters":3600,"station_id":"ce4bgi92rcd13ifvqb90","pricing_plan_id":"cebpf4jnsgd1na2vs0mg"},{"bike_id":"ef9486a8-55b3-4d01-af92-b8413b69e516","system_id":"levelo_inurba_marseille","lat":43.28207,"lon":5.39039,"is_reserved":false,"is_disabled":false,"rental_uris":{"android":"levelo://app?vid=ef9486a8-55b3-4d01-af92-b8413b69e516","ios":"levelo://app?vid=ef9486a8-55b3-4d01-af92-b8413b69e516"},"vehicle_type_id":"4","last_reported":1767716140,"current_range_meters":3600,"station_id":"ce4bhn92rcd13ifvqgsg","pricing_plan_id":"cebpf4jnsgd1na2vs0mg"},{"bike_id":"14424340-01c4-4937-9140-925ad4a02458","system_id":"levelo_inurba_marseille","lat":43.26786,"lon":5.3941,"is_reserved":false,"is_disabled":false,"rental_uris":{"android":"levelo://app?vid=14424340-01c4-4937-9140-925ad4a02458","ios":"levelo://app?vid=14424340-01c4-4937-9140-925ad4a02458"},"vehicle_type_id":"4","last_reported":1767716140,"current_range_meters":3600,"station_id":"ce4bhh12rcd13ifvqfg0","pricing_plan_id":"cebpf4jnsgd1na2vs0mg"},{"bike_id":"ab47307a-57ce-410d-8cd9-abde76818236","system_id":"levelo_inurba_marseille","lat":43.30538,"lon":5.36695,"is_reserved":false,"is_disabled":false,"rental_uris":{"android":"levelo://app?vid=ab47307a-57ce-410d-8cd9-abde76818236","ios":"levelo://app?vid=ab47307a-57ce-410d-8cd9-abde76818236"},"vehicle_type_id":"4","last_reported":1767716140,"current_range_meters":3600,"station_id":"ce4bgrp2rcd13ifvqc9g","pricing_plan_id":"cebpf4jnsgd1na2vs0mg"},{"bike_id":"744d77df-00b1-4d5a-99ac-f09a8caf3533","system_id":"levelo_inurba_marseille","lat":43.2901,"lon":5.35604,"is_reserved":false,"is_disabled":false,"rental_uris":{"android":"levelo://app?vid=744d77df-00b1-4d5a-99ac-f09a8caf3533","ios":"levelo://app?vid=744d77df-00b1-4d5a-99ac-f09a8caf3533"},"vehicle_type_id":"4","last_reported":1767716140,"current_range_meters":3600,"station_id":"ce4bhb92rcd13ifvqen0","pricing_plan_id":"cebpf4jnsgd1na2vs0mg"},{"bike_id":"ebb75531-7719-4351-9c5e-1ff8c7592cb4","system_id":"levelo_inurba_marseille","lat":43.29279,"lon":5.36068,"is_reserved":false,"is_disabled":false,"rental_uris":{"android":"levelo://app?vid=ebb75531-7719-4351-9c5e-1ff8c7592cb4","ios":"levelo://app?vid=ebb75531-7719-4351-9c5e-1ff8c7592cb4"},"vehicle_type_id":"4","last_reported":1767716140,"current_range_meters":3600,"station_id":"","pricing_plan_id":"cebpf4jnsgd1na2vs0mg"},{"bike_id":"226b087d-a3a1-4f74-9364-c6527d5109f9","system_id":"levelo_inurba_marseille","lat":43.31172,"lon":5.38717,"is_reserved":false,"is_disabled":false,"rental_uris":{"android":"levelo://app?vid=226b087d-a3a1-4f74-9364-c6527d5109f9","ios":"levelo://app?vid=226b087d-a3a1-4f74-9364-c6527d5109f9"},"vehicle_type_id":"4","last_reported":1767716140,"current_range_meters":3600,"station_id":"ce4bgv12rcd13ifvqcp0","pricing_plan_id":"cebpf4jnsgd1na2vs0mg"},{"bike_id":"d6ccf16b-4ef4-4a54-926d-ad2dbfc1dc2c","system_id":"levelo_inurba_marseille","lat":43.28477,"lon":5.48394,"is_reserved":false,"is_disabled":false,"rental_uris":{"android":"levelo://app?vid=d6ccf16b-4ef4-4a54-926d-ad2dbfc1dc2c","ios":"levelo://app?vid=d6ccf16b-4ef4-4a54-926d-ad2dbfc1dc2c"},"vehicle_type_id":"4","last_reported":1767716140,"current_range_meters":3600,"station_id":"","pricing_plan_id":"cebpf4jnsgd1na2vs0mg"},{"bike_id":"55b90eef-7b8b-4b7d-b7fa-4035080698ac","system_id":"levelo_inurba_marseille","lat":43.24995,"lon":5.38931,"is_reserved":false,"is_disabled":false,"rental_uris":{"android":"levelo://app?vid=55b90eef-7b8b-4b7d-b7fa-4035080698ac","ios":"levelo://app?vid=55b90eef-7b8b-4b7d-b7fa-4035080698ac"},"vehicle_type_id":"4","last_reported":1767716140,"current_range_meters":4000,"station_id":"ce4bhgp2rcd13ifvqfd0","pricing_plan_id":"cebpf4jnsgd1na2vs0mg"},{"bike_id":"868f69bf-a7b0-45d1-8bcf-5a8d8ec63388","system_id":"levelo_inurba_marseille","lat":43.296142,"lon":5.377252,"is_reserved":false,"is_disabled":false,"rental_uris":{"android":"levelo://app?vid=868f69bf-a7b0-45d1-8bcf-5a8d8ec63388","ios":"levelo://app?vid=868f69bf-a7b0-45d1-8bcf-5a8d8ec63388"},"vehicle_type_id":"4","last_reported":1767716140,"current_range_meters":4000,"station_id":"ce4bgi92rcd13ifvqb90","pricing_plan_id":"cebpf4jnsgd1na2vs0mg"},{"bike_id":"4b4a53ce-6685-4c48-92e4-9aa87114a53f","system_id":"levelo_inurba_marseille","lat":43.278112,"lon":5.40714,"is_reserved":false,"is_disabled":false,"rental_uris":{"android":"levelo://app?vid=4b4a53ce-6685-4c48-92e4-9aa87114a53f","ios":"levelo://app?vid=4b4a53ce-6685-4c48-92e4-9aa87114a53f"},"vehicle_type_id":"4","last_reported":1767716140,"current_range_meters":4000,"station_id":"","pricing_plan_id":"cebpf4jnsgd1na2vs0mg"},{"bike_id":"238d648a-e098-4396-88de-0b43e9b9c05f","system_id":"levelo_inurba_marseille","lat":43.26704,"lon":5.40222,"is_reserved":false,"is_disabled":false,"rental_uris":{"android":"levelo://app?vid=238d648a-e098-4396-88de-0b43e9b9c05f","ios":"levelo://app?vid=238d648a-e098-4396-88de-0b43e9b9c05f"},"vehicle_type_id":"4","last_reported":1767716140,"current_range_meters":4000,"station_id":"","pricing_plan_id":"cebpf4jnsgd1na2vs0mg"},{"bike_id":"78e2864f-f734-48a5-a69c-1ba0ebe24f90","system_id":"levelo_inurba_marseille","lat":43.29761,"lon":5.37782,"is_reserved":false,"is_disabled":false,"rental_uris":{"android":"levelo://app?vid=78e2864f-f734-48a5-a69c-1ba0ebe24f90","ios":"levelo://app?vid=78e2864f-f734-48a5-a69c-1ba0ebe24f90"},"vehicle_type_id":"4","last_reported":1767716140,"current_range_meters":4000,"station_id":"","pricing_plan_id":"cebpf4jnsgd1na2vs0mg"},{"bike_id":"a8833fa1-2764-4a11-a658-a5a8e425f924","system_id":"levelo_inurba_marseille","lat":43.25513,"lon":5.37653,"is_reserved":false,"is_disabled":false,"rental_uris":{"android":"levelo://app?vid=a8833fa1-2764-4a11-a658-a5a8e425f924","ios":"levelo://app?vid=a8833fa1-2764-4a11-a658-a5a8e425f924"},"vehicle_type_id":"4","last_reported":1767716140,"current_range_meters":4000,"station_id":"ce4bhh12rcd13ifvqff0","pricing_plan_id":"cebpf4jnsgd1na2vs0mg"},{"bike_id":"91f215fe-a0b7-4449-aae0-f5ea9a48d5cc","system_id":"levelo_inurba_marseille","lat":43.25084,"lon":5.39512,"is_reserved":false,"is_disabled":false,"rental_uris":{"android":"levelo://app?vid=91f215fe-a0b7-4449-aae0-f5ea9a48d5cc","ios":"levelo://app?vid=91f215fe-a0b7-4449-aae0-f5ea9a48d5cc"},"vehicle_type_id":"4","last_reported":1767716140,"current_range_meters":4000,"station_id":"ce4bhm12rcd13ifvqgkg","pricing_plan_id":"cebpf4jnsgd1na2vs0mg"},{"bike_id":"c579c5ce-7a15-4dc8-a202-6ec7ea4354cc","system_id":"levelo_inurba_marseille","lat":43.31047,"lon":5.39377,"is_reserved":false,"is_disabled":false,"rental_uris":{"android":"levelo://app?vid=c579c5ce-7a15-4dc8-a202-6ec7ea4354cc","ios":"levelo://app?vid=c579c5ce-7a15-4dc8-a202-6ec7ea4354cc"},"vehicle_type_id":"4","last_reported":1767716140,"current_range_meters":4000,"station_id":"","pricing_plan_id":"cebpf4jnsgd1na2vs0mg"},{"bike_id":"3c8cd6af-4397-4a6a-a9f4-c097068fb96d","system_id":"levelo_inurba_marseille","lat":43.26273,"lon":5.39786,"is_reserved":false,"is_disabled":false,"rental_uris":{"android":"levelo://app?vid=3c8cd6af-4397-4a6a-a9f4-c097068fb96d","ios":"levelo://app?vid=3c8cd6af-4397-4a6a-a9f4-c097068fb96d"},"vehicle_type_id":"4","last_reported":1767716140,"current_range_meters":4000,"station_id":"","pricing_plan_id":"cebpf4jnsgd1na2vs0mg"},{"bike_id":"530904a1-f0d2-40fe-a7b3-4a04503583d2","system_id":"levelo_inurba_marseille","lat":43.29561,"lon":5.37503,"is_reserved":false,"is_disabled":false,"rental_uris":{"android":"levelo://app?vid=530904a1-f0d2-40fe-a7b3-4a04503583d2","ios":"levelo://app?vid=530904a1-f0d2-40fe-a7b3-4a04503583d2"},"vehicle_type_id":"4","last_reported":1767716140,"current_range_meters":4400,"station_id":"ce4bgh92rcd13ifvqb50","pricing_plan_id":"cebpf4jnsgd1na2vs0mg"},{"bike_id":"44e7a6b0-32f7-43dc-9ef2-3f4cc856431d","system_id":"levelo_inurba_marseille","lat":43.23964,"lon":5.36619,"is_reserved":false,"is_disabled":false,"rental_uris":{"android":"levelo://app?vid=44e7a6b0-32f7-43dc-9ef2-3f4cc856431d","ios":"levelo://app?vid=44e7a6b0-32f7-43dc-9ef2-3f4cc856431d"},"vehicle_type_id":"4","last_reported":1767716140,"current_range_meters":4400,"station_id":"ce4bhi12rcd13ifvqfp0","pricing_plan_id":"cebpf4jnsgd1na2vs0mg"},{"bike_id":"12281e02-29ad-462f-a437-a5e250db0cc8","system_id":"levelo_inurba_marseille","lat":43.25352,"lon":5.42156,"is_reserved":false,"is_disabled":false,"rental_uris":{"android":"levelo://app?vid=12281e02-29ad-462f-a437-a5e250db0cc8","ios":"levelo://app?vid=12281e02-29ad-462f-a437-a5e250db0cc8"},"vehicle_type_id":"4","last_reported":1767716140,"current_range_meters":4400,"station_id":"st_d2m65c5bi1j21697t3ng","pricing_plan_id":"cebpf4jnsgd1na2vs0mg"},{"bike_id":"9619af1c-6f66-40f6-b64b-34192230e98b","system_id":"levelo_inurba_marseille","lat":43.29819,"lon":5.3809,"is_reserved":false,"is_disabled":false,"rental_uris":{"android":"levelo://app?vid=9619af1c-6f66-40f6-b64b-34192230e98b","ios":"levelo://app?vid=9619af1c-6f66-40f6-b64b-34192230e98b"},"vehicle_type_id":"4","last_reported":1767716140,"current_range_meters":4400,"station_id":"ce4bgip2rcd13ifvqbb0","pricing_plan_id":"cebpf4jnsgd1na2vs0mg"},{"bike_id":"9cb6f7b6-d231-4e4c-b752-c02687b48f97","system_id":"levelo_inurba_marseille","lat":43.28872,"lon":5.42514,"is_reserved":false,"is_disabled":false,"rental_uris":{"android":"levelo://app?vid=9cb6f7b6-d231-4e4c-b752-c02687b48f97","ios":"levelo://app?vid=9cb6f7b6-d231-4e4c-b752-c02687b48f97"},"vehicle_type_id":"4","last_reported":1767716140,"current_range_meters":4400,"station_id":"st_d3b462108ojc7389ooeg","pricing_plan_id":"cebpf4jnsgd1na2vs0mg"},{"bike_id":"6470287d-a8df-45ef-a85f-2e447246a04d","system_id":"levelo_inurba_marseille","lat":43.31692,"lon":5.39995,"is_reserved":false,"is_disabled":false,"rental_uris":{"android":"levelo://app?vid=6470287d-a8df-45ef-a85f-2e447246a04d","ios":"levelo://app?vid=6470287d-a8df-45ef-a85f-2e447246a04d"},"vehicle_type_id":"4","last_reported":1767716140,"current_range_meters":4400,"station_id":"","pricing_plan_id":"cebpf4jnsgd1na2vs0mg"},{"bike_id":"64cf0efb-83a2-48da-adf6-516927c39a91","system_id":"levelo_inurba_marseille","lat":43.23149,"lon":5.4372,"is_reserved":false,"is_disabled":false,"rental_uris":{"android":"levelo://app?vid=64cf0efb-83a2-48da-adf6-516927c39a91","ios":"levelo://app?vid=64cf0efb-83a2-48da-adf6-516927c39a91"},"vehicle_type_id":"4","last_reported":1767716140,"current_range_meters":4400,"station_id":"ce4bhmp2rcd13ifvqgog","pricing_plan_id":"cebpf4jnsgd1na2vs0mg"},{"bike_id":"69304a06-c31d-4f90-bee5-5152895d3519","system_id":"levelo_inurba_marseille","lat":43.27222,"lon":5.40951,"is_reserved":false,"is_disabled":true,"rental_uris":{"android":"levelo://app?vid=69304a06-c31d-4f90-bee5-5152895d3519","ios":"levelo://app?vid=69304a06-c31d-4f90-bee5-5152895d3519"},"vehicle_type_id":"4","last_reported":1767716140,"current_range_meters":4400,"station_id":"","pricing_plan_id":"cebpf4jnsgd1na2vs0mg"},{"bike_id":"ab9c8640-540b-416a-a58e-06d1055a4d4b","system_id":"levelo_inurba_marseille","lat":43.30557,"lon":5.36671,"is_reserved":false,"is_disabled":false,"rental_uris":{"android":"levelo://app?vid=ab9c8640-540b-416a-a58e-06d1055a4d4b","ios":"levelo://app?vid=ab9c8640-540b-416a-a58e-06d1055a4d4b"},"vehicle_type_id":"4","last_reported":1767716140,"current_range_meters":4400,"station_id":"ce4bgrp2rcd13ifvqc9g","pricing_plan_id":"cebpf4jnsgd1na2vs0mg"},{"bike_id":"e6a49a5c-db63-4cfd-b2e9-06ff5ab0f326","system_id":"levelo_inurba_marseille","lat":43.27207,"lon":5.39195,"is_reserved":false,"is_disabled":false,"rental_uris":{"android":"levelo://app?vid=e6a49a5c-db63-4cfd-b2e9-06ff5ab0f326","ios":"levelo://app?vid=e6a49a5c-db63-4cfd-b2e9-06ff5ab0f326"},"vehicle_type_id":"4","last_reported":1767716140,"current_range_meters":4400,"station_id":"ce4bhhp2rcd13ifvqfm0","pricing_plan_id":"cebpf4jnsgd1na2vs0mg"},{"bike_id":"549fcf99-9fc4-402c-a3ba-950d6ff96ead","system_id":"levelo_inurba_marseille","lat":43.29528,"lon":5.39042,"is_reserved":false,"is_disabled":false,"rental_uris":{"android":"levelo://app?vid=549fcf99-9fc4-402c-a3ba-950d6ff96ead","ios":"levelo://app?vid=549fcf99-9fc4-402c-a3ba-950d6ff96ead"},"vehicle_type_id":"4","last_reported":1767716140,"current_range_meters":4400,"station_id":"ce4bh3p2rcd13ifvqdp0","pricing_plan_id":"cebpf4jnsgd1na2vs0mg"},{"bike_id":"da35753b-543a-44dc-8c12-dc7288bb953e","system_id":"levelo_inurba_marseille","lat":43.31299,"lon":5.3674,"is_reserved":false,"is_disabled":false,"rental_uris":{"android":"levelo://app?vid=da35753b-543a-44dc-8c12-dc7288bb953e","ios":"levelo://app?vid=da35753b-543a-44dc-8c12-dc7288bb953e"},"vehicle_type_id":"4","last_reported":1767716140,"current_range_meters":4400,"station_id":"","pricing_plan_id":"cebpf4jnsgd1na2vs0mg"},{"bike_id":"32d43fc1-b5cc-4f93-84c8-0faa1d935387","system_id":"levelo_inurba_marseille","lat":43.24628,"lon":5.43143,"is_reserved":false,"is_disabled":false,"rental_uris":{"android":"levelo://app?vid=32d43fc1-b5cc-4f93-84c8-0faa1d935387","ios":"levelo://app?vid=32d43fc1-b5cc-4f93-84c8-0faa1d935387"},"vehicle_type_id":"4","last_reported":1767716140,"current_range_meters":4400,"station_id":"st_d2m6c4gdas8pm72e190g","pricing_plan_id":"cebpf4jnsgd1na2vs0mg"},{"bike_id":"58432d52-3928-4d1c-ab95-fb6c11ada18b","system_id":"levelo_inurba_marseille","lat":43.31133,"lon":5.37751,"is_reserved":false,"is_disabled":false,"rental_uris":{"android":"levelo://app?vid=58432d52-3928-4d1c-ab95-fb6c11ada18b","ios":"levelo://app?vid=58432d52-3928-4d1c-ab95-fb6c11ada18b"},"vehicle_type_id":"4","last_reported":1767716140,"current_range_meters":4400,"station_id":"ce4bgt92rcd13ifvqcg0","pricing_plan_id":"cebpf4jnsgd1na2vs0mg"},{"bike_id":"281e3cd0-65fe-4b92-9434-d496208145b6","system_id":"levelo_inurba_marseille","lat":43.26957,"lon":5.38635,"is_reserved":false,"is_disabled":false,"rental_uris":{"android":"levelo://app?vid=281e3cd0-65fe-4b92-9434-d496208145b6","ios":"levelo://app?vid=281e3cd0-65fe-4b92-9434-d496208145b6"},"vehicle_type_id":"4","last_reported":1767716140,"current_range_meters":4800,"station_id":"ce4bhh92rcd13ifvqfh0","pricing_plan_id":"cebpf4jnsgd1na2vs0mg"},{"bike_id":"70daa543-1773-4fc8-a39b-865bf2d12adc","system_id":"levelo_inurba_marseille","lat":43.29451,"lon":5.37934,"is_reserved":false,"is_disabled":true,"rental_uris":{"android":"levelo://app?vid=70daa543-1773-4fc8-a39b-865bf2d12adc","ios":"levelo://app?vid=70daa543-1773-4fc8-a39b-865bf2d12adc"},"vehicle_type_id":"4","last_reported":1767716140,"current_range_meters":4800,"station_id":"","pricing_plan_id":"cebpf4jnsgd1na2vs0mg"},{"bike_id":"c9b87726-8bf1-4969-9d96-4aed66906683","system_id":"levelo_inurba_marseille","lat":43.25536,"lon":5.37649,"is_reserved":false,"is_disabled":false,"rental_uris":{"android":"levelo://app?vid=c9b87726-8bf1-4969-9d96-4aed66906683","ios":"levelo://app?vid=c9b87726-8bf1-4969-9d96-4aed66906683"},"vehicle_type_id":"4","last_reported":1767716140,"current_range_meters":4800,"station_id":"ce4bhh12rcd13ifvqff0","pricing_plan_id":"cebpf4jnsgd1na2vs0mg"},{"bike_id":"802fe12d-f14a-45a9-ab39-7a7c51870c15","system_id":"levelo_inurba_marseille","lat":43.31702,"lon":5.39841,"is_reserved":false,"is_disabled":false,"rental_uris":{"android":"levelo://app?vid=802fe12d-f14a-45a9-ab39-7a7c51870c15","ios":"levelo://app?vid=802fe12d-f14a-45a9-ab39-7a7c51870c15"},"vehicle_type_id":"4","last_reported":1767716140,"current_range_meters":4800,"station_id":"","pricing_plan_id":"cebpf4jnsgd1na2vs0mg"},{"bike_id":"379ab962-7cd1-4d5a-8715-f0c459d4782f","system_id":"levelo_inurba_marseille","lat":43.290974,"lon":5.381364,"is_reserved":false,"is_disabled":false,"rental_uris":{"android":"levelo://app?vid=379ab962-7cd1-4d5a-8715-f0c459d4782f","ios":"levelo://app?vid=379ab962-7cd1-4d5a-8715-f0c459d4782f"},"vehicle_type_id":"4","last_reported":1767716140,"current_range_meters":4800,"station_id":"","pricing_plan_id":"cebpf4jnsgd1na2vs0mg"},{"bike_id":"9e75e4df-3863-4065-b371-91603a64bae0","system_id":"levelo_inurba_marseille","lat":43.23144,"lon":5.43677,"is_reserved":false,"is_disabled":false,"rental_uris":{"android":"levelo://app?vid=9e75e4df-3863-4065-b371-91603a64bae0","ios":"levelo://app?vid=9e75e4df-3863-4065-b371-91603a64bae0"},"vehicle_type_id":"4","last_reported":1767716140,"current_range_meters":4800,"station_id":"ce4bhmp2rcd13ifvqgog","pricing_plan_id":"cebpf4jnsgd1na2vs0mg"},{"bike_id":"b293846c-6512-4ab5-bcc0-365d91f63879","system_id":"levelo_inurba_marseille","lat":43.23127,"lon":5.43675,"is_reserved":false,"is_disabled":false,"rental_uris":{"android":"levelo://app?vid=b293846c-6512-4ab5-bcc0-365d91f63879","ios":"levelo://app?vid=b293846c-6512-4ab5-bcc0-365d91f63879"},"vehicle_type_id":"4","last_reported":1767716140,"current_range_meters":4800,"station_id":"ce4bhmp2rcd13ifvqgog","pricing_plan_id":"cebpf4jnsgd1na2vs0mg"},{"bike_id":"1b7a2fca-319d-4e0f-a5a0-58a5c3ffcc52","system_id":"levelo_inurba_marseille","lat":43.28287,"lon":5.35083,"is_reserved":false,"is_disabled":false,"rental_uris":{"android":"levelo://app?vid=1b7a2fca-319d-4e0f-a5a0-58a5c3ffcc52","ios":"levelo://app?vid=1b7a2fca-319d-4e0f-a5a0-58a5c3ffcc52"},"vehicle_type_id":"4","last_reported":1767716140,"current_range_meters":4800,"station_id":"ce4bhbp2rcd13ifvqerg","pricing_plan_id":"cebpf4jnsgd1na2vs0mg"},{"bike_id":"1f5b7ccc-fca7-4b5d-b432-dc4f43badc03","system_id":"levelo_inurba_marseille","lat":43.29676,"lon":5.37296,"is_reserved":false,"is_disabled":false,"rental_uris":{"android":"levelo://app?vid=1f5b7ccc-fca7-4b5d-b432-dc4f43badc03","ios":"levelo://app?vid=1f5b7ccc-fca7-4b5d-b432-dc4f43badc03"},"vehicle_type_id":"4","last_reported":1767716140,"current_range_meters":4800,"station_id":"ce4bgk12rcd13ifvqbj0","pricing_plan_id":"cebpf4jnsgd1na2vs0mg"},{"bike_id":"11adeb41-b6f2-4469-9a2e-d919f37cca89","system_id":"levelo_inurba_marseille","lat":43.24473,"lon":5.42539,"is_reserved":false,"is_disabled":false,"rental_uris":{"android":"levelo://app?vid=11adeb41-b6f2-4469-9a2e-d919f37cca89","ios":"levelo://app?vid=11adeb41-b6f2-4469-9a2e-d919f37cca89"},"vehicle_type_id":"4","last_reported":1767716140,"current_range_meters":4800,"station_id":"st_d4a3vfp97mjs738cd8kg","pricing_plan_id":"cebpf4jnsgd1na2vs0mg"},{"bike_id":"6c6c2beb-34e7-41f4-806d-300db39ef2db","system_id":"levelo_inurba_marseille","lat":43.24394,"lon":5.37062,"is_reserved":false,"is_disabled":false,"rental_uris":{"android":"levelo://app?vid=6c6c2beb-34e7-41f4-806d-300db39ef2db","ios":"levelo://app?vid=6c6c2beb-34e7-41f4-806d-300db39ef2db"},"vehicle_type_id":"4","last_reported":1767716140,"current_range_meters":4800,"station_id":"ce4bhhh2rcd13ifvqfk0","pricing_plan_id":"cebpf4jnsgd1na2vs0mg"},{"bike_id":"37c3c158-3e1a-4301-a315-a91e3648d452","system_id":"levelo_inurba_marseille","lat":43.30084,"lon":5.37063,"is_reserved":false,"is_disabled":false,"rental_uris":{"android":"levelo://app?vid=37c3c158-3e1a-4301-a315-a91e3648d452","ios":"levelo://app?vid=37c3c158-3e1a-4301-a315-a91e3648d452"},"vehicle_type_id":"4","last_reported":1767716140,"current_range_meters":4800,"station_id":"","pricing_plan_id":"cebpf4jnsgd1na2vs0mg"},{"bike_id":"083b93d2-b3c9-427c-b766-b080ed5faf54","system_id":"levelo_inurba_marseille","lat":43.291914,"lon":5.357886,"is_reserved":false,"is_disabled":false,"rental_uris":{"android":"levelo://app?vid=083b93d2-b3c9-427c-b766-b080ed5faf54","ios":"levelo://app?vid=083b93d2-b3c9-427c-b766-b080ed5faf54"},"vehicle_type_id":"4","last_reported":1767716140,"current_range_meters":4800,"station_id":"ce4bhb12rcd13ifvqel0","pricing_plan_id":"cebpf4jnsgd1na2vs0mg"},{"bike_id":"13808c74-608d-4026-b875-c1a9c65a13bb","system_id":"levelo_inurba_marseille","lat":43.302615,"lon":5.400802,"is_reserved":false,"is_disabled":false,"rental_uris":{"android":"levelo://app?vid=13808c74-608d-4026-b875-c1a9c65a13bb","ios":"levelo://app?vid=13808c74-608d-4026-b875-c1a9c65a13bb"},"vehicle_type_id":"4","last_reported":1767716140,"current_range_meters":4800,"station_id":"ce4bgvh2rcd13ifvqcs0","pricing_plan_id":"cebpf4jnsgd1na2vs0mg"},{"bike_id":"b9f7b50d-4eff-4b3c-b608-f2267a320ec1","system_id":"levelo_inurba_marseille","lat":43.28848,"lon":5.42523,"is_reserved":false,"is_disabled":false,"rental_uris":{"android":"levelo://app?vid=b9f7b50d-4eff-4b3c-b608-f2267a320ec1","ios":"levelo://app?vid=b9f7b50d-4eff-4b3c-b608-f2267a320ec1"},"vehicle_type_id":"4","last_reported":1767716140,"current_range_meters":4800,"station_id":"st_d3b462108ojc7389ooeg","pricing_plan_id":"cebpf4jnsgd1na2vs0mg"},{"bike_id":"662d6bf2-cebb-4666-972d-1dec2318e01b","system_id":"levelo_inurba_marseille","lat":43.271828,"lon":5.409933,"is_reserved":false,"is_disabled":false,"rental_uris":{"android":"levelo://app?vid=662d6bf2-cebb-4666-972d-1dec2318e01b","ios":"levelo://app?vid=662d6bf2-cebb-4666-972d-1dec2318e01b"},"vehicle_type_id":"4","last_reported":1767716140,"current_range_meters":5600,"station_id":"ce4bhl12rcd13ifvqgf0","pricing_plan_id":"cebpf4jnsgd1na2vs0mg"},{"bike_id":"e10d2e97-3324-4923-8226-ed68a3a3ab41","system_id":"levelo_inurba_marseille","lat":43.298596,"lon":5.362835,"is_reserved":false,"is_disabled":false,"rental_uris":{"android":"levelo://app?vid=e10d2e97-3324-4923-8226-ed68a3a3ab41","ios":"levelo://app?vid=e10d2e97-3324-4923-8226-ed68a3a3ab41"},"vehicle_type_id":"4","last_reported":1767716140,"current_range_meters":5600,"station_id":"ce4bgpp2rcd13ifvqc3g","pricing_plan_id":"cebpf4jnsgd1na2vs0mg"},{"bike_id":"1d1aa57c-101c-4cf2-9f41-6e829b5c2500","system_id":"levelo_inurba_marseille","lat":43.30298,"lon":5.36893,"is_reserved":false,"is_disabled":false,"rental_uris":{"android":"levelo://app?vid=1d1aa57c-101c-4cf2-9f41-6e829b5c2500","ios":"levelo://app?vid=1d1aa57c-101c-4cf2-9f41-6e829b5c2500"},"vehicle_type_id":"4","last_reported":1767716140,"current_range_meters":5600,"station_id":"ce4bgqh2rcd13ifvqc5g","pricing_plan_id":"cebpf4jnsgd1na2vs0mg"},{"bike_id":"9f9b4746-71c5-448b-9590-8fd8371c1599","system_id":"levelo_inurba_marseille","lat":43.22551,"lon":5.41635,"is_reserved":false,"is_disabled":false,"rental_uris":{"android":"levelo://app?vid=9f9b4746-71c5-448b-9590-8fd8371c1599","ios":"levelo://app?vid=9f9b4746-71c5-448b-9590-8fd8371c1599"},"vehicle_type_id":"4","last_reported":1767716140,"current_range_meters":5600,"station_id":"st_d2o4gvlbi1j2169b742g","pricing_plan_id":"cebpf4jnsgd1na2vs0mg"},{"bike_id":"d25c1254-5ba5-4cef-9983-c90b3ec9b80a","system_id":"levelo_inurba_marseille","lat":43.30475,"lon":5.4106,"is_reserved":false,"is_disabled":false,"rental_uris":{"android":"levelo://app?vid=d25c1254-5ba5-4cef-9983-c90b3ec9b80a","ios":"levelo://app?vid=d25c1254-5ba5-4cef-9983-c90b3ec9b80a"},"vehicle_type_id":"4","last_reported":1767716140,"current_range_meters":5600,"station_id":"","pricing_plan_id":"cebpf4jnsgd1na2vs0mg"},{"bike_id":"0f293502-121a-4187-becd-00c74b272d97","system_id":"levelo_inurba_marseille","lat":43.21192,"lon":5.3507,"is_reserved":false,"is_disabled":false,"rental_uris":{"android":"levelo://app?vid=0f293502-121a-4187-becd-00c74b272d97","ios":"levelo://app?vid=0f293502-121a-4187-becd-00c74b272d97"},"vehicle_type_id":"4","last_reported":1767716140,"current_range_meters":5600,"station_id":"st_cvj6sg6p6f1abm77japg","pricing_plan_id":"cebpf4jnsgd1na2vs0mg"},{"bike_id":"df7337f7-a443-485f-946c-e99819254d4e","system_id":"levelo_inurba_marseille","lat":43.31055,"lon":5.4013,"is_reserved":false,"is_disabled":false,"rental_uris":{"android":"levelo://app?vid=df7337f7-a443-485f-946c-e99819254d4e","ios":"levelo://app?vid=df7337f7-a443-485f-946c-e99819254d4e"},"vehicle_type_id":"4","last_reported":1767716140,"current_range_meters":5600,"station_id":"","pricing_plan_id":"cebpf4jnsgd1na2vs0mg"},{"bike_id":"c3785a3a-b590-4bcc-aded-61974b24cb1c","system_id":"levelo_inurba_marseille","lat":43.28194,"lon":5.40418,"is_reserved":false,"is_disabled":false,"rental_uris":{"android":"levelo://app?vid=c3785a3a-b590-4bcc-aded-61974b24cb1c","ios":"levelo://app?vid=c3785a3a-b590-4bcc-aded-61974b24cb1c"},"vehicle_type_id":"4","last_reported":1767716140,"current_range_meters":5600,"station_id":"","pricing_plan_id":"cebpf4jnsgd1na2vs0mg"},{"bike_id":"1af2e362-7fe9-44e8-b51c-b385360caabf","system_id":"levelo_inurba_marseille","lat":43.29281,"lon":5.3685,"is_reserved":false,"is_disabled":false,"rental_uris":{"android":"levelo://app?vid=1af2e362-7fe9-44e8-b51c-b385360caabf","ios":"levelo://app?vid=1af2e362-7fe9-44e8-b51c-b385360caabf"},"vehicle_type_id":"4","last_reported":1767716140,"current_range_meters":5600,"station_id":"ce4bhbp2rcd13ifvqesg","pricing_plan_id":"cebpf4jnsgd1na2vs0mg"},{"bike_id":"b463a9a4-1d5b-4a5c-a9a7-d66271963065","system_id":"levelo_inurba_marseille","lat":43.25507,"lon":5.37651,"is_reserved":false,"is_disabled":false,"rental_uris":{"android":"levelo://app?vid=b463a9a4-1d5b-4a5c-a9a7-d66271963065","ios":"levelo://app?vid=b463a9a4-1d5b-4a5c-a9a7-d66271963065"},"vehicle_type_id":"4","last_reported":1767716140,"current_range_meters":5600,"station_id":"ce4bhh12rcd13ifvqff0","pricing_plan_id":"cebpf4jnsgd1na2vs0mg"},{"bike_id":"40ef5c73-5486-43cb-8929-d818e25dffa6","system_id":"levelo_inurba_marseille","lat":43.32652,"lon":5.41944,"is_reserved":false,"is_disabled":false,"rental_uris":{"android":"levelo://app?vid=40ef5c73-5486-43cb-8929-d818e25dffa6","ios":"levelo://app?vid=40ef5c73-5486-43cb-8929-d818e25dffa6"},"vehicle_type_id":"4","last_reported":1767716140,"current_range_meters":5600,"station_id":"","pricing_plan_id":"cebpf4jnsgd1na2vs0mg"},{"bike_id":"671729d8-1472-46e6-9234-dc84c6097a13","system_id":"levelo_inurba_marseille","lat":43.24006,"lon":5.40728,"is_reserved":false,"is_disabled":false,"rental_uris":{"android":"levelo://app?vid=671729d8-1472-46e6-9234-dc84c6097a13","ios":"levelo://app?vid=671729d8-1472-46e6-9234-dc84c6097a13"},"vehicle_type_id":"4","last_reported":1767716140,"current_range_meters":5600,"station_id":"","pricing_plan_id":"cebpf4jnsgd1na2vs0mg"},{"bike_id":"b11e6081-39c9-44ec-b319-9d7c010fe144","system_id":"levelo_inurba_marseille","lat":43.29726,"lon":5.37697,"is_reserved":false,"is_disabled":false,"rental_uris":{"android":"levelo://app?vid=b11e6081-39c9-44ec-b319-9d7c010fe144","ios":"levelo://app?vid=b11e6081-39c9-44ec-b319-9d7c010fe144"},"vehicle_type_id":"4","last_reported":1767716140,"current_range_meters":5600,"station_id":"ce4bgkh2rcd13ifvqbl0","pricing_plan_id":"cebpf4jnsgd1na2vs0mg"},{"bike_id":"341fa175-b404-4e99-a30d-b02f1e1adee4","system_id":"levelo_inurba_marseille","lat":43.24391,"lon":5.37077,"is_reserved":false,"is_disabled":false,"rental_uris":{"android":"levelo://app?vid=341fa175-b404-4e99-a30d-b02f1e1adee4","ios":"levelo://app?vid=341fa175-b404-4e99-a30d-b02f1e1adee4"},"vehicle_type_id":"4","last_reported":1767716140,"current_range_meters":5600,"station_id":"","pricing_plan_id":"cebpf4jnsgd1na2vs0mg"},{"bike_id":"2c2b33f7-80d5-4af6-8066-8ea96f1838f0","system_id":"levelo_inurba_marseille","lat":43.29184,"lon":5.37932,"is_reserved":false,"is_disabled":false,"rental_uris":{"android":"levelo://app?vid=2c2b33f7-80d5-4af6-8066-8ea96f1838f0","ios":"levelo://app?vid=2c2b33f7-80d5-4af6-8066-8ea96f1838f0"},"vehicle_type_id":"4","last_reported":1767716140,"current_range_meters":5600,"station_id":"","pricing_plan_id":"cebpf4jnsgd1na2vs0mg"},{"bike_id":"d0888aa8-0889-4234-a1e1-0f90c2f300e6","system_id":"levelo_inurba_marseille","lat":43.29593,"lon":5.36734,"is_reserved":false,"is_disabled":false,"rental_uris":{"android":"levelo://app?vid=d0888aa8-0889-4234-a1e1-0f90c2f300e6","ios":"levelo://app?vid=d0888aa8-0889-4234-a1e1-0f90c2f300e6"},"vehicle_type_id":"4","last_reported":1767716140,"current_range_meters":5600,"station_id":"ce4bgph2rcd13ifvqc2g","pricing_plan_id":"cebpf4jnsgd1na2vs0mg"},{"bike_id":"4dd14be5-5c9d-4595-969a-9b547186d815","system_id":"levelo_inurba_marseille","lat":43.27207,"lon":5.40967,"is_reserved":false,"is_disabled":false,"rental_uris":{"android":"levelo://app?vid=4dd14be5-5c9d-4595-969a-9b547186d815","ios":"levelo://app?vid=4dd14be5-5c9d-4595-969a-9b547186d815"},"vehicle_type_id":"4","last_reported":1767716140,"current_range_meters":5600,"station_id":"ce4bhl12rcd13ifvqgf0","pricing_plan_id":"cebpf4jnsgd1na2vs0mg"},{"bike_id":"1d5c2c8b-bd19-4377-9150-e95c1b70aa69","system_id":"levelo_inurba_marseille","lat":43.296008,"lon":5.405303,"is_reserved":false,"is_disabled":false,"rental_uris":{"android":"levelo://app?vid=1d5c2c8b-bd19-4377-9150-e95c1b70aa69","ios":"levelo://app?vid=1d5c2c8b-bd19-4377-9150-e95c1b70aa69"},"vehicle_type_id":"4","last_reported":1767716140,"current_range_meters":5600,"station_id":"ce4bh0h2rcd13ifvqd60","pricing_plan_id":"cebpf4jnsgd1na2vs0mg"},{"bike_id":"8f1dcf1e-ec47-4cfd-9ca8-b695074a8473","system_id":"levelo_inurba_marseille","lat":43.239645,"lon":5.366258,"is_reserved":false,"is_disabled":false,"rental_uris":{"android":"levelo://app?vid=8f1dcf1e-ec47-4cfd-9ca8-b695074a8473","ios":"levelo://app?vid=8f1dcf1e-ec47-4cfd-9ca8-b695074a8473"},"vehicle_type_id":"4","last_reported":1767716140,"current_range_meters":5600,"station_id":"ce4bhi12rcd13ifvqfp0","pricing_plan_id":"cebpf4jnsgd1na2vs0mg"},{"bike_id":"77c6e077-c5cf-4e32-a75b-b4333f5b5292","system_id":"levelo_inurba_marseille","lat":43.31051,"lon":5.37169,"is_reserved":false,"is_disabled":false,"rental_uris":{"android":"levelo://app?vid=77c6e077-c5cf-4e32-a75b-b4333f5b5292","ios":"levelo://app?vid=77c6e077-c5cf-4e32-a75b-b4333f5b5292"},"vehicle_type_id":"4","last_reported":1767716140,"current_range_meters":5600,"station_id":"st_d4kl2rp97mjs73e7tdfg","pricing_plan_id":"cebpf4jnsgd1na2vs0mg"},{"bike_id":"6ab5dc12-676b-4308-ad4a-bc536aac0b39","system_id":"levelo_inurba_marseille","lat":43.312807,"lon":5.373963,"is_reserved":false,"is_disabled":false,"rental_uris":{"android":"levelo://app?vid=6ab5dc12-676b-4308-ad4a-bc536aac0b39","ios":"levelo://app?vid=6ab5dc12-676b-4308-ad4a-bc536aac0b39"},"vehicle_type_id":"4","last_reported":1767716140,"current_range_meters":6000,"station_id":"","pricing_plan_id":"cebpf4jnsgd1na2vs0mg"},{"bike_id":"aeaceaee-d425-4cd1-8a1f-fe9063bf8aca","system_id":"levelo_inurba_marseille","lat":43.30426,"lon":5.3974,"is_reserved":false,"is_disabled":false,"rental_uris":{"android":"levelo://app?vid=aeaceaee-d425-4cd1-8a1f-fe9063bf8aca","ios":"levelo://app?vid=aeaceaee-d425-4cd1-8a1f-fe9063bf8aca"},"vehicle_type_id":"4","last_reported":1767716140,"current_range_meters":6000,"station_id":"ce4bh092rcd13ifvqd20","pricing_plan_id":"cebpf4jnsgd1na2vs0mg"},{"bike_id":"84b0369a-a1e6-4d66-b798-d784f515d2d0","system_id":"levelo_inurba_marseille","lat":43.29888,"lon":5.38148,"is_reserved":false,"is_disabled":false,"rental_uris":{"android":"levelo://app?vid=84b0369a-a1e6-4d66-b798-d784f515d2d0","ios":"levelo://app?vid=84b0369a-a1e6-4d66-b798-d784f515d2d0"},"vehicle_type_id":"4","last_reported":1767716140,"current_range_meters":6000,"station_id":"ce4bgj12rcd13ifvqbc0","pricing_plan_id":"cebpf4jnsgd1na2vs0mg"},{"bike_id":"12c3c7a7-f460-4f98-8ff5-5de83296a8f5","system_id":"levelo_inurba_marseille","lat":43.27843,"lon":5.39197,"is_reserved":false,"is_disabled":false,"rental_uris":{"android":"levelo://app?vid=12c3c7a7-f460-4f98-8ff5-5de83296a8f5","ios":"levelo://app?vid=12c3c7a7-f460-4f98-8ff5-5de83296a8f5"},"vehicle_type_id":"4","last_reported":1767716140,"current_range_meters":6000,"station_id":"ce4bhjp2rcd13ifvqga0","pricing_plan_id":"cebpf4jnsgd1na2vs0mg"},{"bike_id":"78399c66-07bf-4f4a-b2dc-de9b40e72c5f","system_id":"levelo_inurba_marseille","lat":43.23975,"lon":5.36624,"is_reserved":false,"is_disabled":false,"rental_uris":{"android":"levelo://app?vid=78399c66-07bf-4f4a-b2dc-de9b40e72c5f","ios":"levelo://app?vid=78399c66-07bf-4f4a-b2dc-de9b40e72c5f"},"vehicle_type_id":"4","last_reported":1767716140,"current_range_meters":6000,"station_id":"ce4bhi12rcd13ifvqfp0","pricing_plan_id":"cebpf4jnsgd1na2vs0mg"},{"bike_id":"438b5b87-2ead-4a56-9315-220edfc8d6d2","system_id":"levelo_inurba_marseille","lat":43.3117,"lon":5.3685,"is_reserved":false,"is_disabled":false,"rental_uris":{"android":"levelo://app?vid=438b5b87-2ead-4a56-9315-220edfc8d6d2","ios":"levelo://app?vid=438b5b87-2ead-4a56-9315-220edfc8d6d2"},"vehicle_type_id":"4","last_reported":1767716140,"current_range_meters":6000,"station_id":"","pricing_plan_id":"cebpf4jnsgd1na2vs0mg"},{"bike_id":"eda26c9e-1de5-46d8-8133-e4e92339d527","system_id":"levelo_inurba_marseille","lat":43.24391,"lon":5.37069,"is_reserved":false,"is_disabled":false,"rental_uris":{"android":"levelo://app?vid=eda26c9e-1de5-46d8-8133-e4e92339d527","ios":"levelo://app?vid=eda26c9e-1de5-46d8-8133-e4e92339d527"},"vehicle_type_id":"4","last_reported":1767716140,"current_range_meters":6000,"station_id":"ce4bhhh2rcd13ifvqfk0","pricing_plan_id":"cebpf4jnsgd1na2vs0mg"},{"bike_id":"d8c06048-428c-4885-a31f-55edb4b42195","system_id":"levelo_inurba_marseille","lat":43.26267,"lon":5.38811,"is_reserved":false,"is_disabled":false,"rental_uris":{"android":"levelo://app?vid=d8c06048-428c-4885-a31f-55edb4b42195","ios":"levelo://app?vid=d8c06048-428c-4885-a31f-55edb4b42195"},"vehicle_type_id":"4","last_reported":1767716140,"current_range_meters":6000,"station_id":"","pricing_plan_id":"cebpf4jnsgd1na2vs0mg"},{"bike_id":"14494bec-dc0c-470c-b701-ec21574c7266","system_id":"levelo_inurba_marseille","lat":43.2929,"lon":5.37185,"is_reserved":false,"is_disabled":false,"rental_uris":{"android":"levelo://app?vid=14494bec-dc0c-470c-b701-ec21574c7266","ios":"levelo://app?vid=14494bec-dc0c-470c-b701-ec21574c7266"},"vehicle_type_id":"4","last_reported":1767716140,"current_range_meters":6000,"station_id":"ce4bgh92rcd13ifvqb40","pricing_plan_id":"cebpf4jnsgd1na2vs0mg"},{"bike_id":"41f54ea5-6f88-45f1-a241-b51bcaf483a2","system_id":"levelo_inurba_marseille","lat":43.2292,"lon":5.35377,"is_reserved":false,"is_disabled":false,"rental_uris":{"android":"levelo://app?vid=41f54ea5-6f88-45f1-a241-b51bcaf483a2","ios":"levelo://app?vid=41f54ea5-6f88-45f1-a241-b51bcaf483a2"},"vehicle_type_id":"4","last_reported":1767716140,"current_range_meters":6000,"station_id":"cpo3532slgdg3j2ikp40","pricing_plan_id":"cebpf4jnsgd1na2vs0mg"},{"bike_id":"066ee71b-dc01-47e7-848c-078b1d9ae38a","system_id":"levelo_inurba_marseille","lat":43.257488,"lon":5.394527,"is_reserved":false,"is_disabled":false,"rental_uris":{"android":"levelo://app?vid=066ee71b-dc01-47e7-848c-078b1d9ae38a","ios":"levelo://app?vid=066ee71b-dc01-47e7-848c-078b1d9ae38a"},"vehicle_type_id":"4","last_reported":1767716140,"current_range_meters":6000,"station_id":"ce4bhip2rcd13ifvqft0","pricing_plan_id":"cebpf4jnsgd1na2vs0mg"},{"bike_id":"11a9d746-21f2-472e-a773-79943d206c1e","system_id":"levelo_inurba_marseille","lat":43.29609,"lon":5.37713,"is_reserved":false,"is_disabled":false,"rental_uris":{"android":"levelo://app?vid=11a9d746-21f2-472e-a773-79943d206c1e","ios":"levelo://app?vid=11a9d746-21f2-472e-a773-79943d206c1e"},"vehicle_type_id":"4","last_reported":1767716140,"current_range_meters":6000,"station_id":"ce4bgi92rcd13ifvqb90","pricing_plan_id":"cebpf4jnsgd1na2vs0mg"},{"bike_id":"132e2486-8631-4740-9a49-893dcb2eeedc","system_id":"levelo_inurba_marseille","lat":43.283722,"lon":5.386392,"is_reserved":false,"is_disabled":false,"rental_uris":{"android":"levelo://app?vid=132e2486-8631-4740-9a49-893dcb2eeedc","ios":"levelo://app?vid=132e2486-8631-4740-9a49-893dcb2eeedc"},"vehicle_type_id":"4","last_reported":1767716140,"current_range_meters":6000,"station_id":"ce4bh492rcd13ifvqdvg","pricing_plan_id":"cebpf4jnsgd1na2vs0mg"},{"bike_id":"bcba726c-86cc-4920-9b66-bf7117212d7c","system_id":"levelo_inurba_marseille","lat":43.29762,"lon":5.37782,"is_reserved":false,"is_disabled":false,"rental_uris":{"android":"levelo://app?vid=bcba726c-86cc-4920-9b66-bf7117212d7c","ios":"levelo://app?vid=bcba726c-86cc-4920-9b66-bf7117212d7c"},"vehicle_type_id":"4","last_reported":1767716140,"current_range_meters":6000,"station_id":"","pricing_plan_id":"cebpf4jnsgd1na2vs0mg"},{"bike_id":"e58e721b-9491-4260-87cd-1730cde78b70","system_id":"levelo_inurba_marseille","lat":43.308864,"lon":5.396615,"is_reserved":false,"is_disabled":false,"rental_uris":{"android":"levelo://app?vid=e58e721b-9491-4260-87cd-1730cde78b70","ios":"levelo://app?vid=e58e721b-9491-4260-87cd-1730cde78b70"},"vehicle_type_id":"4","last_reported":1767716140,"current_range_meters":6000,"station_id":"ce4bh0h2rcd13ifvqd50","pricing_plan_id":"cebpf4jnsgd1na2vs0mg"},{"bike_id":"2c27ec0a-e1a6-45d7-8934-b7b3f64dcd18","system_id":"levelo_inurba_marseille","lat":43.27316,"lon":5.38691,"is_reserved":false,"is_disabled":false,"rental_uris":{"android":"levelo://app?vid=2c27ec0a-e1a6-45d7-8934-b7b3f64dcd18","ios":"levelo://app?vid=2c27ec0a-e1a6-45d7-8934-b7b3f64dcd18"},"vehicle_type_id":"4","last_reported":1767716140,"current_range_meters":6000,"station_id":"ce4bgvh2rcd13ifvqcs0","pricing_plan_id":"cebpf4jnsgd1na2vs0mg"},{"bike_id":"27fd1dae-9b5f-4946-91a5-7e16675cd4af","system_id":"levelo_inurba_marseille","lat":43.25582,"lon":5.38234,"is_reserved":false,"is_disabled":false,"rental_uris":{"android":"levelo://app?vid=27fd1dae-9b5f-4946-91a5-7e16675cd4af","ios":"levelo://app?vid=27fd1dae-9b5f-4946-91a5-7e16675cd4af"},"vehicle_type_id":"4","last_reported":1767716140,"current_range_meters":6000,"station_id":"ce4bhih2rcd13ifvqfs0","pricing_plan_id":"cebpf4jnsgd1na2vs0mg"},{"bike_id":"f0271892-325a-4eb6-b77c-64b91af4df63","system_id":"levelo_inurba_marseille","lat":43.28409,"lon":5.37522,"is_reserved":false,"is_disabled":false,"rental_uris":{"android":"levelo://app?vid=f0271892-325a-4eb6-b77c-64b91af4df63","ios":"levelo://app?vid=f0271892-325a-4eb6-b77c-64b91af4df63"},"vehicle_type_id":"4","last_reported":1767716140,"current_range_meters":6000,"station_id":"ce4bh412rcd13ifvqds0","pricing_plan_id":"cebpf4jnsgd1na2vs0mg"},{"bike_id":"a56df372-151e-4fe2-8949-dd650d263775","system_id":"levelo_inurba_marseille","lat":43.28309,"lon":5.38929,"is_reserved":false,"is_disabled":false,"rental_uris":{"android":"levelo://app?vid=a56df372-151e-4fe2-8949-dd650d263775","ios":"levelo://app?vid=a56df372-151e-4fe2-8949-dd650d263775"},"vehicle_type_id":"4","last_reported":1767716140,"current_range_meters":6000,"station_id":"","pricing_plan_id":"cebpf4jnsgd1na2vs0mg"},{"bike_id":"63887c2c-a347-4d46-b6aa-efe1e1da52a1","system_id":"levelo_inurba_marseille","lat":43.28725,"lon":5.37943,"is_reserved":false,"is_disabled":false,"rental_uris":{"android":"levelo://app?vid=63887c2c-a347-4d46-b6aa-efe1e1da52a1","ios":"levelo://app?vid=63887c2c-a347-4d46-b6aa-efe1e1da52a1"},"vehicle_type_id":"4","last_reported":1767716140,"current_range_meters":6000,"station_id":"ce4bh9p2rcd13ifvqec0","pricing_plan_id":"cebpf4jnsgd1na2vs0mg"},{"bike_id":"307a64ca-f552-49b9-80b0-a69f761f5934","system_id":"levelo_inurba_marseille","lat":43.26376,"lon":5.41081,"is_reserved":false,"is_disabled":false,"rental_uris":{"android":"levelo://app?vid=307a64ca-f552-49b9-80b0-a69f761f5934","ios":"levelo://app?vid=307a64ca-f552-49b9-80b0-a69f761f5934"},"vehicle_type_id":"4","last_reported":1767716140,"current_range_meters":6000,"station_id":"st_d4e5ca6na9uc73bfl5fg","pricing_plan_id":"cebpf4jnsgd1na2vs0mg"},{"bike_id":"412a60c8-7b2b-4f99-8376-fcd1493be9b6","system_id":"levelo_inurba_marseille","lat":43.24662,"lon":5.3816,"is_reserved":false,"is_disabled":false,"rental_uris":{"android":"levelo://app?vid=412a60c8-7b2b-4f99-8376-fcd1493be9b6","ios":"levelo://app?vid=412a60c8-7b2b-4f99-8376-fcd1493be9b6"},"vehicle_type_id":"4","last_reported":1767716140,"current_range_meters":6400,"station_id":"ce4bhih2rcd13ifvqfr0","pricing_plan_id":"cebpf4jnsgd1na2vs0mg"},{"bike_id":"2b1bae36-193a-499b-bb7e-403bbcf0b6b5","system_id":"levelo_inurba_marseille","lat":43.27797,"lon":5.40752,"is_reserved":false,"is_disabled":false,"rental_uris":{"android":"levelo://app?vid=2b1bae36-193a-499b-bb7e-403bbcf0b6b5","ios":"levelo://app?vid=2b1bae36-193a-499b-bb7e-403bbcf0b6b5"},"vehicle_type_id":"4","last_reported":1767716140,"current_range_meters":6400,"station_id":"ce4bhnh2rcd13ifvqgtg","pricing_plan_id":"cebpf4jnsgd1na2vs0mg"},{"bike_id":"5c78052d-8b4f-4e51-8ddb-87be6fb225ca","system_id":"levelo_inurba_marseille","lat":43.23197,"lon":5.35553,"is_reserved":false,"is_disabled":false,"rental_uris":{"android":"levelo://app?vid=5c78052d-8b4f-4e51-8ddb-87be6fb225ca","ios":"levelo://app?vid=5c78052d-8b4f-4e51-8ddb-87be6fb225ca"},"vehicle_type_id":"4","last_reported":1767716140,"current_range_meters":6400,"station_id":"ce4bhu92rcd13ifvqi70","pricing_plan_id":"cebpf4jnsgd1na2vs0mg"},{"bike_id":"b82137ac-385c-4eba-aa21-39b76bd2ce87","system_id":"levelo_inurba_marseille","lat":43.27379,"lon":5.3625,"is_reserved":false,"is_disabled":false,"rental_uris":{"android":"levelo://app?vid=b82137ac-385c-4eba-aa21-39b76bd2ce87","ios":"levelo://app?vid=b82137ac-385c-4eba-aa21-39b76bd2ce87"},"vehicle_type_id":"4","last_reported":1767716140,"current_range_meters":6400,"station_id":"ce4bhbh2rcd13ifvqeo0","pricing_plan_id":"cebpf4jnsgd1na2vs0mg"},{"bike_id":"a189c7e9-2059-416c-bc22-9ffb3c8e4803","system_id":"levelo_inurba_marseille","lat":43.29704,"lon":5.36601,"is_reserved":false,"is_disabled":false,"rental_uris":{"android":"levelo://app?vid=a189c7e9-2059-416c-bc22-9ffb3c8e4803","ios":"levelo://app?vid=a189c7e9-2059-416c-bc22-9ffb3c8e4803"},"vehicle_type_id":"4","last_reported":1767716140,"current_range_meters":6400,"station_id":"ce4bgn12rcd13ifvqbt0","pricing_plan_id":"cebpf4jnsgd1na2vs0mg"},{"bike_id":"28710909-6836-4051-8df5-ac7ea21a74d1","system_id":"levelo_inurba_marseille","lat":43.31498,"lon":5.38633,"is_reserved":false,"is_disabled":false,"rental_uris":{"android":"levelo://app?vid=28710909-6836-4051-8df5-ac7ea21a74d1","ios":"levelo://app?vid=28710909-6836-4051-8df5-ac7ea21a74d1"},"vehicle_type_id":"4","last_reported":1767716140,"current_range_meters":6400,"station_id":"","pricing_plan_id":"cebpf4jnsgd1na2vs0mg"},{"bike_id":"1e73728e-4392-47e2-968e-c94992b57df0","system_id":"levelo_inurba_marseille","lat":43.23191,"lon":5.35568,"is_reserved":false,"is_disabled":false,"rental_uris":{"android":"levelo://app?vid=1e73728e-4392-47e2-968e-c94992b57df0","ios":"levelo://app?vid=1e73728e-4392-47e2-968e-c94992b57df0"},"vehicle_type_id":"4","last_reported":1767716140,"current_range_meters":6400,"station_id":"ce4bhu92rcd13ifvqi70","pricing_plan_id":"cebpf4jnsgd1na2vs0mg"},{"bike_id":"a184e25a-1604-4e63-9035-4f507c575ca1","system_id":"levelo_inurba_marseille","lat":43.31372,"lon":5.37168,"is_reserved":false,"is_disabled":false,"rental_uris":{"android":"levelo://app?vid=a184e25a-1604-4e63-9035-4f507c575ca1","ios":"levelo://app?vid=a184e25a-1604-4e63-9035-4f507c575ca1"},"vehicle_type_id":"4","last_reported":1767716140,"current_range_meters":6400,"station_id":"","pricing_plan_id":"cebpf4jnsgd1na2vs0mg"},{"bike_id":"f8fa6138-13d6-49d0-bc3f-4e0461ffcbc5","system_id":"levelo_inurba_marseille","lat":43.29932,"lon":5.38587,"is_reserved":false,"is_disabled":false,"rental_uris":{"android":"levelo://app?vid=f8fa6138-13d6-49d0-bc3f-4e0461ffcbc5","ios":"levelo://app?vid=f8fa6138-13d6-49d0-bc3f-4e0461ffcbc5"},"vehicle_type_id":"4","last_reported":1767716140,"current_range_meters":6400,"station_id":"","pricing_plan_id":"cebpf4jnsgd1na2vs0mg"},{"bike_id":"9265da08-af6b-41f8-a564-a7a5e4a8d66e","system_id":"levelo_inurba_marseille","lat":43.28474,"lon":5.48392,"is_reserved":false,"is_disabled":false,"rental_uris":{"android":"levelo://app?vid=9265da08-af6b-41f8-a564-a7a5e4a8d66e","ios":"levelo://app?vid=9265da08-af6b-41f8-a564-a7a5e4a8d66e"},"vehicle_type_id":"4","last_reported":1767716140,"current_range_meters":6400,"station_id":"","pricing_plan_id":"cebpf4jnsgd1na2vs0mg"},{"bike_id":"38fe8d74-8399-43ad-b9ef-2d5a01f29535","system_id":"levelo_inurba_marseille","lat":43.25082,"lon":5.3949,"is_reserved":false,"is_disabled":false,"rental_uris":{"android":"levelo://app?vid=38fe8d74-8399-43ad-b9ef-2d5a01f29535","ios":"levelo://app?vid=38fe8d74-8399-43ad-b9ef-2d5a01f29535"},"vehicle_type_id":"4","last_reported":1767716140,"current_range_meters":6400,"station_id":"ce4bhm12rcd13ifvqgkg","pricing_plan_id":"cebpf4jnsgd1na2vs0mg"},{"bike_id":"bdf31d25-8b5b-45cd-b527-c82ae88f05cc","system_id":"levelo_inurba_marseille","lat":43.258301,"lon":5.394396,"is_reserved":false,"is_disabled":false,"rental_uris":{"android":"levelo://app?vid=bdf31d25-8b5b-45cd-b527-c82ae88f05cc","ios":"levelo://app?vid=bdf31d25-8b5b-45cd-b527-c82ae88f05cc"},"vehicle_type_id":"4","last_reported":1767716140,"current_range_meters":6400,"station_id":"ce4bhip2rcd13ifvqft0","pricing_plan_id":"cebpf4jnsgd1na2vs0mg"},{"bike_id":"87e8b266-b373-4616-baea-2d580c40657d","system_id":"levelo_inurba_marseille","lat":43.31684,"lon":5.37446,"is_reserved":false,"is_disabled":false,"rental_uris":{"android":"levelo://app?vid=87e8b266-b373-4616-baea-2d580c40657d","ios":"levelo://app?vid=87e8b266-b373-4616-baea-2d580c40657d"},"vehicle_type_id":"4","last_reported":1767716140,"current_range_meters":6400,"station_id":"","pricing_plan_id":"cebpf4jnsgd1na2vs0mg"},{"bike_id":"6a1f68a8-4c0d-48e4-8253-89c4ff19b6ce","system_id":"levelo_inurba_marseille","lat":43.284762,"lon":5.484006,"is_reserved":false,"is_disabled":false,"rental_uris":{"android":"levelo://app?vid=6a1f68a8-4c0d-48e4-8253-89c4ff19b6ce","ios":"levelo://app?vid=6a1f68a8-4c0d-48e4-8253-89c4ff19b6ce"},"vehicle_type_id":"4","last_reported":1767716140,"current_range_meters":6400,"station_id":"","pricing_plan_id":"cebpf4jnsgd1na2vs0mg"},{"bike_id":"71301dea-c3a1-42a9-9f97-d2ccd23f6149","system_id":"levelo_inurba_marseille","lat":43.33732,"lon":5.39179,"is_reserved":false,"is_disabled":false,"rental_uris":{"android":"levelo://app?vid=71301dea-c3a1-42a9-9f97-d2ccd23f6149","ios":"levelo://app?vid=71301dea-c3a1-42a9-9f97-d2ccd23f6149"},"vehicle_type_id":"4","last_reported":1767716140,"current_range_meters":6400,"station_id":"ce4bhr92rcd13ifvqhsg","pricing_plan_id":"cebpf4jnsgd1na2vs0mg"},{"bike_id":"67d31863-f006-4cee-b6a6-243fc15a5583","system_id":"levelo_inurba_marseille","lat":43.28036,"lon":5.36954,"is_reserved":false,"is_disabled":false,"rental_uris":{"android":"levelo://app?vid=67d31863-f006-4cee-b6a6-243fc15a5583","ios":"levelo://app?vid=67d31863-f006-4cee-b6a6-243fc15a5583"},"vehicle_type_id":"4","last_reported":1767716140,"current_range_meters":6400,"station_id":"ce4bha12rcd13ifvqef0","pricing_plan_id":"cebpf4jnsgd1na2vs0mg"},{"bike_id":"b3d46066-d9af-4077-b1da-7d7459dbf7a5","system_id":"levelo_inurba_marseille","lat":43.29703,"lon":5.37874,"is_reserved":false,"is_disabled":false,"rental_uris":{"android":"levelo://app?vid=b3d46066-d9af-4077-b1da-7d7459dbf7a5","ios":"levelo://app?vid=b3d46066-d9af-4077-b1da-7d7459dbf7a5"},"vehicle_type_id":"4","last_reported":1767716140,"current_range_meters":6800,"station_id":"","pricing_plan_id":"cebpf4jnsgd1na2vs0mg"},{"bike_id":"f7266f96-97df-4d00-8894-b574c422868e","system_id":"levelo_inurba_marseille","lat":43.2871,"lon":5.36113,"is_reserved":false,"is_disabled":false,"rental_uris":{"android":"levelo://app?vid=f7266f96-97df-4d00-8894-b574c422868e","ios":"levelo://app?vid=f7266f96-97df-4d00-8894-b574c422868e"},"vehicle_type_id":"4","last_reported":1767716140,"current_range_meters":6800,"station_id":"cki0cbj6b192h4jlfktg","pricing_plan_id":"cebpf4jnsgd1na2vs0mg"},{"bike_id":"5708ece5-55a8-46d7-b581-87436581528b","system_id":"levelo_inurba_marseille","lat":43.27072,"lon":5.42272,"is_reserved":false,"is_disabled":false,"rental_uris":{"android":"levelo://app?vid=5708ece5-55a8-46d7-b581-87436581528b","ios":"levelo://app?vid=5708ece5-55a8-46d7-b581-87436581528b"},"vehicle_type_id":"4","last_reported":1767716140,"current_range_meters":6800,"station_id":"ce4bhk92rcd13ifvqgb0","pricing_plan_id":"cebpf4jnsgd1na2vs0mg"},{"bike_id":"9429cadb-a739-4f5f-8c2b-cc91a27439eb","system_id":"levelo_inurba_marseille","lat":43.27696,"lon":5.42069,"is_reserved":false,"is_disabled":false,"rental_uris":{"android":"levelo://app?vid=9429cadb-a739-4f5f-8c2b-cc91a27439eb","ios":"levelo://app?vid=9429cadb-a739-4f5f-8c2b-cc91a27439eb"},"vehicle_type_id":"4","last_reported":1767716140,"current_range_meters":6800,"station_id":"","pricing_plan_id":"cebpf4jnsgd1na2vs0mg"},{"bike_id":"e86c54c0-f671-46b3-9822-d8e47a8f4357","system_id":"levelo_inurba_marseille","lat":43.288639,"lon":5.425147,"is_reserved":false,"is_disabled":false,"rental_uris":{"android":"levelo://app?vid=e86c54c0-f671-46b3-9822-d8e47a8f4357","ios":"levelo://app?vid=e86c54c0-f671-46b3-9822-d8e47a8f4357"},"vehicle_type_id":"4","last_reported":1767716140,"current_range_meters":6800,"station_id":"st_d3b462108ojc7389ooeg","pricing_plan_id":"cebpf4jnsgd1na2vs0mg"},{"bike_id":"7e9901e5-0ecb-4064-a195-f0e8bbeeaa5c","system_id":"levelo_inurba_marseille","lat":43.28489,"lon":5.3858,"is_reserved":false,"is_disabled":false,"rental_uris":{"android":"levelo://app?vid=7e9901e5-0ecb-4064-a195-f0e8bbeeaa5c","ios":"levelo://app?vid=7e9901e5-0ecb-4064-a195-f0e8bbeeaa5c"},"vehicle_type_id":"4","last_reported":1767716140,"current_range_meters":6800,"station_id":"ce4bh8p2rcd13ifvqeb0","pricing_plan_id":"cebpf4jnsgd1na2vs0mg"},{"bike_id":"49e7e4bf-d14c-455f-a285-224ffc1f66f2","system_id":"levelo_inurba_marseille","lat":43.24621,"lon":5.43167,"is_reserved":false,"is_disabled":false,"rental_uris":{"android":"levelo://app?vid=49e7e4bf-d14c-455f-a285-224ffc1f66f2","ios":"levelo://app?vid=49e7e4bf-d14c-455f-a285-224ffc1f66f2"},"vehicle_type_id":"4","last_reported":1767716140,"current_range_meters":6800,"station_id":"st_d2m6c4gdas8pm72e190g","pricing_plan_id":"cebpf4jnsgd1na2vs0mg"},{"bike_id":"9543aad1-f2c5-4f3f-ab6a-e1b8918ce8ce","system_id":"levelo_inurba_marseille","lat":43.29899,"lon":5.38499,"is_reserved":false,"is_disabled":false,"rental_uris":{"android":"levelo://app?vid=9543aad1-f2c5-4f3f-ab6a-e1b8918ce8ce","ios":"levelo://app?vid=9543aad1-f2c5-4f3f-ab6a-e1b8918ce8ce"},"vehicle_type_id":"4","last_reported":1767716140,"current_range_meters":6800,"station_id":"","pricing_plan_id":"cebpf4jnsgd1na2vs0mg"},{"bike_id":"565f99b7-e9e2-4b44-8331-6450d9ae6732","system_id":"levelo_inurba_marseille","lat":43.32112,"lon":5.36776,"is_reserved":false,"is_disabled":false,"rental_uris":{"android":"levelo://app?vid=565f99b7-e9e2-4b44-8331-6450d9ae6732","ios":"levelo://app?vid=565f99b7-e9e2-4b44-8331-6450d9ae6732"},"vehicle_type_id":"4","last_reported":1767716140,"current_range_meters":6800,"station_id":"ce4bhrh2rcd13ifvqhug","pricing_plan_id":"cebpf4jnsgd1na2vs0mg"},{"bike_id":"59c30222-41ab-40da-979f-08c128e275a9","system_id":"levelo_inurba_marseille","lat":43.246261,"lon":5.431403,"is_reserved":false,"is_disabled":false,"rental_uris":{"android":"levelo://app?vid=59c30222-41ab-40da-979f-08c128e275a9","ios":"levelo://app?vid=59c30222-41ab-40da-979f-08c128e275a9"},"vehicle_type_id":"4","last_reported":1767716140,"current_range_meters":6800,"station_id":"st_d2m6c4gdas8pm72e190g","pricing_plan_id":"cebpf4jnsgd1na2vs0mg"},{"bike_id":"c773f61c-a83f-41d9-bdd4-df8791dcab70","system_id":"levelo_inurba_marseille","lat":43.29794,"lon":5.37762,"is_reserved":false,"is_disabled":false,"rental_uris":{"android":"levelo://app?vid=c773f61c-a83f-41d9-bdd4-df8791dcab70","ios":"levelo://app?vid=c773f61c-a83f-41d9-bdd4-df8791dcab70"},"vehicle_type_id":"4","last_reported":1767716140,"current_range_meters":6800,"station_id":"","pricing_plan_id":"cebpf4jnsgd1na2vs0mg"},{"bike_id":"51bab64f-1b87-4acc-8f72-1bf6c05e5090","system_id":"levelo_inurba_marseille","lat":43.23189,"lon":5.35559,"is_reserved":false,"is_disabled":false,"rental_uris":{"android":"levelo://app?vid=51bab64f-1b87-4acc-8f72-1bf6c05e5090","ios":"levelo://app?vid=51bab64f-1b87-4acc-8f72-1bf6c05e5090"},"vehicle_type_id":"4","last_reported":1767716140,"current_range_meters":6800,"station_id":"ce4bhu92rcd13ifvqi70","pricing_plan_id":"cebpf4jnsgd1na2vs0mg"},{"bike_id":"bf0a0489-ec91-406d-a7a0-4b4e36bfc3bb","system_id":"levelo_inurba_marseille","lat":43.229333,"lon":5.353798,"is_reserved":false,"is_disabled":false,"rental_uris":{"android":"levelo://app?vid=bf0a0489-ec91-406d-a7a0-4b4e36bfc3bb","ios":"levelo://app?vid=bf0a0489-ec91-406d-a7a0-4b4e36bfc3bb"},"vehicle_type_id":"4","last_reported":1767716140,"current_range_meters":6800,"station_id":"cpo3532slgdg3j2ikp40","pricing_plan_id":"cebpf4jnsgd1na2vs0mg"},{"bike_id":"fb1a0b48-368d-4184-8906-a0902490ada4","system_id":"levelo_inurba_marseille","lat":43.26996,"lon":5.38751,"is_reserved":false,"is_disabled":false,"rental_uris":{"android":"levelo://app?vid=fb1a0b48-368d-4184-8906-a0902490ada4","ios":"levelo://app?vid=fb1a0b48-368d-4184-8906-a0902490ada4"},"vehicle_type_id":"4","last_reported":1767716140,"current_range_meters":6800,"station_id":"","pricing_plan_id":"cebpf4jnsgd1na2vs0mg"},{"bike_id":"46e9ff29-49e0-4240-b2d3-9dae95342edb","system_id":"levelo_inurba_marseille","lat":43.25793,"lon":5.41037,"is_reserved":false,"is_disabled":false,"rental_uris":{"android":"levelo://app?vid=46e9ff29-49e0-4240-b2d3-9dae95342edb","ios":"levelo://app?vid=46e9ff29-49e0-4240-b2d3-9dae95342edb"},"vehicle_type_id":"4","last_reported":1767716140,"current_range_meters":6800,"station_id":"","pricing_plan_id":"cebpf4jnsgd1na2vs0mg"},{"bike_id":"8015c7a3-ca99-4bed-b795-854d89867176","system_id":"levelo_inurba_marseille","lat":43.300345,"lon":5.373509,"is_reserved":false,"is_disabled":false,"rental_uris":{"android":"levelo://app?vid=8015c7a3-ca99-4bed-b795-854d89867176","ios":"levelo://app?vid=8015c7a3-ca99-4bed-b795-854d89867176"},"vehicle_type_id":"4","last_reported":1767716140,"current_range_meters":6800,"station_id":"","pricing_plan_id":"cebpf4jnsgd1na2vs0mg"},{"bike_id":"ad9c57a4-d8a7-41c0-8bf9-21a179390ca8","system_id":"levelo_inurba_marseille","lat":43.285319,"lon":5.440937,"is_reserved":false,"is_disabled":false,"rental_uris":{"android":"levelo://app?vid=ad9c57a4-d8a7-41c0-8bf9-21a179390ca8","ios":"levelo://app?vid=ad9c57a4-d8a7-41c0-8bf9-21a179390ca8"},"vehicle_type_id":"4","last_reported":1767716140,"current_range_meters":6800,"station_id":"st_d3j3df2ikq2c7380ej80","pricing_plan_id":"cebpf4jnsgd1na2vs0mg"},{"bike_id":"48d83099-04d1-4ff2-83ff-0d415015222f","system_id":"levelo_inurba_marseille","lat":43.26776,"lon":5.39417,"is_reserved":false,"is_disabled":false,"rental_uris":{"android":"levelo://app?vid=48d83099-04d1-4ff2-83ff-0d415015222f","ios":"levelo://app?vid=48d83099-04d1-4ff2-83ff-0d415015222f"},"vehicle_type_id":"4","last_reported":1767716140,"current_range_meters":6800,"station_id":"ce4bhh12rcd13ifvqfg0","pricing_plan_id":"cebpf4jnsgd1na2vs0mg"},{"bike_id":"0597b508-1261-4db8-9e17-c13a262518a7","system_id":"levelo_inurba_marseille","lat":43.29003,"lon":5.35605,"is_reserved":false,"is_disabled":false,"rental_uris":{"android":"levelo://app?vid=0597b508-1261-4db8-9e17-c13a262518a7","ios":"levelo://app?vid=0597b508-1261-4db8-9e17-c13a262518a7"},"vehicle_type_id":"4","last_reported":1767716140,"current_range_meters":6800,"station_id":"ce4bhb92rcd13ifvqen0","pricing_plan_id":"cebpf4jnsgd1na2vs0mg"},{"bike_id":"99ed8f74-4701-459c-9402-abc8a52eb125","system_id":"levelo_inurba_marseille","lat":43.30119,"lon":5.43121,"is_reserved":false,"is_disabled":false,"rental_uris":{"android":"levelo://app?vid=99ed8f74-4701-459c-9402-abc8a52eb125","ios":"levelo://app?vid=99ed8f74-4701-459c-9402-abc8a52eb125"},"vehicle_type_id":"4","last_reported":1767716140,"current_range_meters":7200,"station_id":"st_d3js3co5814s73ftftug","pricing_plan_id":"cebpf4jnsgd1na2vs0mg"},{"bike_id":"d09b3a65-a44b-46d5-8d1c-408888c8f37d","system_id":"levelo_inurba_marseille","lat":43.25494,"lon":5.3764,"is_reserved":false,"is_disabled":false,"rental_uris":{"android":"levelo://app?vid=d09b3a65-a44b-46d5-8d1c-408888c8f37d","ios":"levelo://app?vid=d09b3a65-a44b-46d5-8d1c-408888c8f37d"},"vehicle_type_id":"4","last_reported":1767716140,"current_range_meters":7200,"station_id":"ce4bhh12rcd13ifvqff0","pricing_plan_id":"cebpf4jnsgd1na2vs0mg"},{"bike_id":"f10b558f-7242-43aa-8400-44ba55773041","system_id":"levelo_inurba_marseille","lat":43.29713,"lon":5.36589,"is_reserved":false,"is_disabled":false,"rental_uris":{"android":"levelo://app?vid=f10b558f-7242-43aa-8400-44ba55773041","ios":"levelo://app?vid=f10b558f-7242-43aa-8400-44ba55773041"},"vehicle_type_id":"4","last_reported":1767716140,"current_range_meters":7200,"station_id":"ce4bgn12rcd13ifvqbt0","pricing_plan_id":"cebpf4jnsgd1na2vs0mg"},{"bike_id":"d599e143-3cfd-4dd2-ba0d-054f2e412eda","system_id":"levelo_inurba_marseille","lat":43.28259,"lon":5.35092,"is_reserved":false,"is_disabled":false,"rental_uris":{"android":"levelo://app?vid=d599e143-3cfd-4dd2-ba0d-054f2e412eda","ios":"levelo://app?vid=d599e143-3cfd-4dd2-ba0d-054f2e412eda"},"vehicle_type_id":"4","last_reported":1767716140,"current_range_meters":7200,"station_id":"ce4bhbp2rcd13ifvqerg","pricing_plan_id":"cebpf4jnsgd1na2vs0mg"},{"bike_id":"f3cb6086-5e80-4c80-9631-a61f6105ed91","system_id":"levelo_inurba_marseille","lat":43.313258,"lon":5.367615,"is_reserved":false,"is_disabled":false,"rental_uris":{"android":"levelo://app?vid=f3cb6086-5e80-4c80-9631-a61f6105ed91","ios":"levelo://app?vid=f3cb6086-5e80-4c80-9631-a61f6105ed91"},"vehicle_type_id":"4","last_reported":1767716140,"current_range_meters":7200,"station_id":"","pricing_plan_id":"cebpf4jnsgd1na2vs0mg"},{"bike_id":"0032ba1d-9238-4223-b1a7-c312da3d013b","system_id":"levelo_inurba_marseille","lat":43.27809,"lon":5.40715,"is_reserved":false,"is_disabled":false,"rental_uris":{"android":"levelo://app?vid=0032ba1d-9238-4223-b1a7-c312da3d013b","ios":"levelo://app?vid=0032ba1d-9238-4223-b1a7-c312da3d013b"},"vehicle_type_id":"4","last_reported":1767716140,"current_range_meters":7200,"station_id":"ce4bhnh2rcd13ifvqgtg","pricing_plan_id":"cebpf4jnsgd1na2vs0mg"},{"bike_id":"e9ebb3e3-66e8-49c5-9725-2d758f1b330e","system_id":"levelo_inurba_marseille","lat":43.29545,"lon":5.37522,"is_reserved":false,"is_disabled":false,"rental_uris":{"android":"levelo://app?vid=e9ebb3e3-66e8-49c5-9725-2d758f1b330e","ios":"levelo://app?vid=e9ebb3e3-66e8-49c5-9725-2d758f1b330e"},"vehicle_type_id":"4","last_reported":1767716140,"current_range_meters":7200,"station_id":"ce4bgkp2rcd13ifvqbmg","pricing_plan_id":"cebpf4jnsgd1na2vs0mg"},{"bike_id":"15bf6c3d-bc89-4e44-bfe7-ef27538e093c","system_id":"levelo_inurba_marseille","lat":43.2463,"lon":5.43148,"is_reserved":false,"is_disabled":false,"rental_uris":{"android":"levelo://app?vid=15bf6c3d-bc89-4e44-bfe7-ef27538e093c","ios":"levelo://app?vid=15bf6c3d-bc89-4e44-bfe7-ef27538e093c"},"vehicle_type_id":"4","last_reported":1767716140,"current_range_meters":7200,"station_id":"st_d2m6c4gdas8pm72e190g","pricing_plan_id":"cebpf4jnsgd1na2vs0mg"},{"bike_id":"bbfa127a-c4cd-452d-b148-18597fd04b45","system_id":"levelo_inurba_marseille","lat":43.25577,"lon":5.38231,"is_reserved":false,"is_disabled":false,"rental_uris":{"android":"levelo://app?vid=bbfa127a-c4cd-452d-b148-18597fd04b45","ios":"levelo://app?vid=bbfa127a-c4cd-452d-b148-18597fd04b45"},"vehicle_type_id":"4","last_reported":1767716140,"current_range_meters":7200,"station_id":"ce4bhih2rcd13ifvqfs0","pricing_plan_id":"cebpf4jnsgd1na2vs0mg"},{"bike_id":"969b1719-3fa2-4d7b-b48c-3f3c994a3da7","system_id":"levelo_inurba_marseille","lat":43.29203,"lon":5.39542,"is_reserved":false,"is_disabled":false,"rental_uris":{"android":"levelo://app?vid=969b1719-3fa2-4d7b-b48c-3f3c994a3da7","ios":"levelo://app?vid=969b1719-3fa2-4d7b-b48c-3f3c994a3da7"},"vehicle_type_id":"4","last_reported":1767716140,"current_range_meters":7200,"station_id":"","pricing_plan_id":"cebpf4jnsgd1na2vs0mg"},{"bike_id":"68ecef4a-3d03-4b87-95fa-e44657e4c2a6","system_id":"levelo_inurba_marseille","lat":43.29762,"lon":5.42774,"is_reserved":false,"is_disabled":false,"rental_uris":{"android":"levelo://app?vid=68ecef4a-3d03-4b87-95fa-e44657e4c2a6","ios":"levelo://app?vid=68ecef4a-3d03-4b87-95fa-e44657e4c2a6"},"vehicle_type_id":"4","last_reported":1767716140,"current_range_meters":7200,"station_id":"st_d3md5207bmas73dh9klg","pricing_plan_id":"cebpf4jnsgd1na2vs0mg"},{"bike_id":"f236f8bf-a48c-4e01-9edf-a292131d7beb","system_id":"levelo_inurba_marseille","lat":43.25106,"lon":5.39494,"is_reserved":false,"is_disabled":false,"rental_uris":{"android":"levelo://app?vid=f236f8bf-a48c-4e01-9edf-a292131d7beb","ios":"levelo://app?vid=f236f8bf-a48c-4e01-9edf-a292131d7beb"},"vehicle_type_id":"4","last_reported":1767716140,"current_range_meters":7200,"station_id":"ce4bhm12rcd13ifvqgkg","pricing_plan_id":"cebpf4jnsgd1na2vs0mg"},{"bike_id":"fad68b58-3feb-4a99-9f33-50e6502be28a","system_id":"levelo_inurba_marseille","lat":43.337444,"lon":5.374475,"is_reserved":false,"is_disabled":false,"rental_uris":{"android":"levelo://app?vid=fad68b58-3feb-4a99-9f33-50e6502be28a","ios":"levelo://app?vid=fad68b58-3feb-4a99-9f33-50e6502be28a"},"vehicle_type_id":"4","last_reported":1767716140,"current_range_meters":7200,"station_id":"","pricing_plan_id":"cebpf4jnsgd1na2vs0mg"},{"bike_id":"79050b2d-51dd-4422-b5f7-33cfc5837f53","system_id":"levelo_inurba_marseille","lat":43.312748,"lon":5.377591,"is_reserved":false,"is_disabled":false,"rental_uris":{"android":"levelo://app?vid=79050b2d-51dd-4422-b5f7-33cfc5837f53","ios":"levelo://app?vid=79050b2d-51dd-4422-b5f7-33cfc5837f53"},"vehicle_type_id":"4","last_reported":1767716140,"current_range_meters":7200,"station_id":"","pricing_plan_id":"cebpf4jnsgd1na2vs0mg"},{"bike_id":"999e74f3-d4b2-444d-89bc-239d909db7d5","system_id":"levelo_inurba_marseille","lat":43.30082,"lon":5.36952,"is_reserved":false,"is_disabled":false,"rental_uris":{"android":"levelo://app?vid=999e74f3-d4b2-444d-89bc-239d909db7d5","ios":"levelo://app?vid=999e74f3-d4b2-444d-89bc-239d909db7d5"},"vehicle_type_id":"4","last_reported":1767716140,"current_range_meters":7200,"station_id":"","pricing_plan_id":"cebpf4jnsgd1na2vs0mg"},{"bike_id":"174e0a88-28ce-484e-8861-adcbe3a929da","system_id":"levelo_inurba_marseille","lat":43.28482,"lon":5.483879,"is_reserved":false,"is_disabled":false,"rental_uris":{"android":"levelo://app?vid=174e0a88-28ce-484e-8861-adcbe3a929da","ios":"levelo://app?vid=174e0a88-28ce-484e-8861-adcbe3a929da"},"vehicle_type_id":"4","last_reported":1767716140,"current_range_meters":7200,"station_id":"st_d3svhcjqgbts73a3dn0g","pricing_plan_id":"cebpf4jnsgd1na2vs0mg"},{"bike_id":"b8408ccb-17d0-4ba3-b31e-918a33cf6e7d","system_id":"levelo_inurba_marseille","lat":43.24667,"lon":5.381667,"is_reserved":false,"is_disabled":true,"rental_uris":{"android":"levelo://app?vid=b8408ccb-17d0-4ba3-b31e-918a33cf6e7d","ios":"levelo://app?vid=b8408ccb-17d0-4ba3-b31e-918a33cf6e7d"},"vehicle_type_id":"4","last_reported":1767716140,"current_range_meters":7200,"station_id":"ce4bhih2rcd13ifvqfr0","pricing_plan_id":"cebpf4jnsgd1na2vs0mg"},{"bike_id":"1c443ae8-c486-4898-ba52-b5c1dcdc3e04","system_id":"levelo_inurba_marseille","lat":43.27222,"lon":5.40951,"is_reserved":false,"is_disabled":false,"rental_uris":{"android":"levelo://app?vid=1c443ae8-c486-4898-ba52-b5c1dcdc3e04","ios":"levelo://app?vid=1c443ae8-c486-4898-ba52-b5c1dcdc3e04"},"vehicle_type_id":"4","last_reported":1767716140,"current_range_meters":7200,"station_id":"","pricing_plan_id":"cebpf4jnsgd1na2vs0mg"},{"bike_id":"c92f9eb1-4edf-4277-a16e-c93cc6295b90","system_id":"levelo_inurba_marseille","lat":43.31443,"lon":5.40416,"is_reserved":false,"is_disabled":false,"rental_uris":{"android":"levelo://app?vid=c92f9eb1-4edf-4277-a16e-c93cc6295b90","ios":"levelo://app?vid=c92f9eb1-4edf-4277-a16e-c93cc6295b90"},"vehicle_type_id":"4","last_reported":1767716140,"current_range_meters":7200,"station_id":"","pricing_plan_id":"cebpf4jnsgd1na2vs0mg"},{"bike_id":"49d4c477-d82c-4845-ae00-302004d2baeb","system_id":"levelo_inurba_marseille","lat":43.25337,"lon":5.42161,"is_reserved":false,"is_disabled":false,"rental_uris":{"android":"levelo://app?vid=49d4c477-d82c-4845-ae00-302004d2baeb","ios":"levelo://app?vid=49d4c477-d82c-4845-ae00-302004d2baeb"},"vehicle_type_id":"4","last_reported":1767716140,"current_range_meters":7200,"station_id":"st_d2m65c5bi1j21697t3ng","pricing_plan_id":"cebpf4jnsgd1na2vs0mg"},{"bike_id":"461707a7-604b-4e3f-93ed-f585e8ba0169","system_id":"levelo_inurba_marseille","lat":43.29716,"lon":5.37702,"is_reserved":false,"is_disabled":false,"rental_uris":{"android":"levelo://app?vid=461707a7-604b-4e3f-93ed-f585e8ba0169","ios":"levelo://app?vid=461707a7-604b-4e3f-93ed-f585e8ba0169"},"vehicle_type_id":"4","last_reported":1767716140,"current_range_meters":7200,"station_id":"ce4bgkh2rcd13ifvqbl0","pricing_plan_id":"cebpf4jnsgd1na2vs0mg"},{"bike_id":"71c53044-c0ca-48e9-968f-ab1ba6524736","system_id":"levelo_inurba_marseille","lat":43.239691,"lon":5.366071,"is_reserved":false,"is_disabled":false,"rental_uris":{"android":"levelo://app?vid=71c53044-c0ca-48e9-968f-ab1ba6524736","ios":"levelo://app?vid=71c53044-c0ca-48e9-968f-ab1ba6524736"},"vehicle_type_id":"4","last_reported":1767716140,"current_range_meters":7200,"station_id":"ce4bhi12rcd13ifvqfp0","pricing_plan_id":"cebpf4jnsgd1na2vs0mg"},{"bike_id":"cd6022a6-af9e-4255-be35-8e10812e739e","system_id":"levelo_inurba_marseille","lat":43.25338,"lon":5.4217,"is_reserved":false,"is_disabled":false,"rental_uris":{"android":"levelo://app?vid=cd6022a6-af9e-4255-be35-8e10812e739e","ios":"levelo://app?vid=cd6022a6-af9e-4255-be35-8e10812e739e"},"vehicle_type_id":"4","last_reported":1767716140,"current_range_meters":7200,"station_id":"st_d2m65c5bi1j21697t3ng","pricing_plan_id":"cebpf4jnsgd1na2vs0mg"},{"bike_id":"aa8f7297-e96d-40f9-a7e4-e80f1ab26823","system_id":"levelo_inurba_marseille","lat":43.28788,"lon":5.3829,"is_reserved":false,"is_disabled":false,"rental_uris":{"android":"levelo://app?vid=aa8f7297-e96d-40f9-a7e4-e80f1ab26823","ios":"levelo://app?vid=aa8f7297-e96d-40f9-a7e4-e80f1ab26823"},"vehicle_type_id":"4","last_reported":1767716140,"current_range_meters":7200,"station_id":"","pricing_plan_id":"cebpf4jnsgd1na2vs0mg"},{"bike_id":"8d944767-1ef6-43c3-8a98-0f3b9ef41daa","system_id":"levelo_inurba_marseille","lat":43.28401,"lon":5.34988,"is_reserved":false,"is_disabled":false,"rental_uris":{"android":"levelo://app?vid=8d944767-1ef6-43c3-8a98-0f3b9ef41daa","ios":"levelo://app?vid=8d944767-1ef6-43c3-8a98-0f3b9ef41daa"},"vehicle_type_id":"4","last_reported":1767716140,"current_range_meters":8000,"station_id":"ce4bhbh2rcd13ifvqepg","pricing_plan_id":"cebpf4jnsgd1na2vs0mg"},{"bike_id":"f2999ea4-58cf-4b6c-b971-6e69218c9786","system_id":"levelo_inurba_marseille","lat":43.29531,"lon":5.39053,"is_reserved":false,"is_disabled":false,"rental_uris":{"android":"levelo://app?vid=f2999ea4-58cf-4b6c-b971-6e69218c9786","ios":"levelo://app?vid=f2999ea4-58cf-4b6c-b971-6e69218c9786"},"vehicle_type_id":"4","last_reported":1767716140,"current_range_meters":8000,"station_id":"ce4bh3p2rcd13ifvqdp0","pricing_plan_id":"cebpf4jnsgd1na2vs0mg"},{"bike_id":"f75b0410-7374-4824-96ab-6b516b680266","system_id":"levelo_inurba_marseille","lat":43.264843,"lon":5.395505,"is_reserved":false,"is_disabled":false,"rental_uris":{"android":"levelo://app?vid=f75b0410-7374-4824-96ab-6b516b680266","ios":"levelo://app?vid=f75b0410-7374-4824-96ab-6b516b680266"},"vehicle_type_id":"4","last_reported":1767716140,"current_range_meters":8000,"station_id":"ce4bhi12rcd13ifvqfq0","pricing_plan_id":"cebpf4jnsgd1na2vs0mg"},{"bike_id":"a60e859d-20a7-4efc-ab94-0c4ccc8ad025","system_id":"levelo_inurba_marseille","lat":43.337444,"lon":5.374475,"is_reserved":false,"is_disabled":true,"rental_uris":{"android":"levelo://app?vid=a60e859d-20a7-4efc-ab94-0c4ccc8ad025","ios":"levelo://app?vid=a60e859d-20a7-4efc-ab94-0c4ccc8ad025"},"vehicle_type_id":"4","last_reported":1767716140,"current_range_meters":8000,"station_id":"","pricing_plan_id":"cebpf4jnsgd1na2vs0mg"},{"bike_id":"5b38967e-115c-462c-972e-69ef7def8f6b","system_id":"levelo_inurba_marseille","lat":43.28938,"lon":5.36372,"is_reserved":false,"is_disabled":false,"rental_uris":{"android":"levelo://app?vid=5b38967e-115c-462c-972e-69ef7def8f6b","ios":"levelo://app?vid=5b38967e-115c-462c-972e-69ef7def8f6b"},"vehicle_type_id":"4","last_reported":1767716140,"current_range_meters":8000,"station_id":"ce4bhc92rcd13ifvqetg","pricing_plan_id":"cebpf4jnsgd1na2vs0mg"},{"bike_id":"6a37a502-8a4f-4bc7-83bd-16348e8cf97e","system_id":"levelo_inurba_marseille","lat":43.32094,"lon":5.36774,"is_reserved":false,"is_disabled":false,"rental_uris":{"android":"levelo://app?vid=6a37a502-8a4f-4bc7-83bd-16348e8cf97e","ios":"levelo://app?vid=6a37a502-8a4f-4bc7-83bd-16348e8cf97e"},"vehicle_type_id":"4","last_reported":1767716140,"current_range_meters":8000,"station_id":"ce4bhrh2rcd13ifvqhug","pricing_plan_id":"cebpf4jnsgd1na2vs0mg"},{"bike_id":"c12ea4a3-bcf0-4ab0-a612-03910cec9930","system_id":"levelo_inurba_marseille","lat":43.280759,"lon":5.396538,"is_reserved":false,"is_disabled":false,"rental_uris":{"android":"levelo://app?vid=c12ea4a3-bcf0-4ab0-a612-03910cec9930","ios":"levelo://app?vid=c12ea4a3-bcf0-4ab0-a612-03910cec9930"},"vehicle_type_id":"4","last_reported":1767716140,"current_range_meters":8000,"station_id":"ce4bho12rcd13ifvqh2g","pricing_plan_id":"cebpf4jnsgd1na2vs0mg"},{"bike_id":"2af0ce7c-ca3c-4dfe-9ab3-190f23e26597","system_id":"levelo_inurba_marseille","lat":43.238731,"lon":5.365227,"is_reserved":false,"is_disabled":false,"rental_uris":{"android":"levelo://app?vid=2af0ce7c-ca3c-4dfe-9ab3-190f23e26597","ios":"levelo://app?vid=2af0ce7c-ca3c-4dfe-9ab3-190f23e26597"},"vehicle_type_id":"4","last_reported":1767716140,"current_range_meters":8000,"station_id":"","pricing_plan_id":"cebpf4jnsgd1na2vs0mg"},{"bike_id":"5bf18eef-41a3-4eeb-90d3-342b87530897","system_id":"levelo_inurba_marseille","lat":43.31075,"lon":5.37162,"is_reserved":false,"is_disabled":false,"rental_uris":{"android":"levelo://app?vid=5bf18eef-41a3-4eeb-90d3-342b87530897","ios":"levelo://app?vid=5bf18eef-41a3-4eeb-90d3-342b87530897"},"vehicle_type_id":"4","last_reported":1767716140,"current_range_meters":8000,"station_id":"st_d4kl2rp97mjs73e7tdfg","pricing_plan_id":"cebpf4jnsgd1na2vs0mg"},{"bike_id":"1cc14a4e-8f2c-4bea-9c25-f855a4eff001","system_id":"levelo_inurba_marseille","lat":43.28615,"lon":5.35104,"is_reserved":false,"is_disabled":false,"rental_uris":{"android":"levelo://app?vid=1cc14a4e-8f2c-4bea-9c25-f855a4eff001","ios":"levelo://app?vid=1cc14a4e-8f2c-4bea-9c25-f855a4eff001"},"vehicle_type_id":"4","last_reported":1767716140,"current_range_meters":8000,"station_id":"ce4bhch2rcd13ifvqeug","pricing_plan_id":"cebpf4jnsgd1na2vs0mg"},{"bike_id":"83f5c9b2-f37e-4635-817a-992d595185c8","system_id":"levelo_inurba_marseille","lat":43.30531,"lon":5.36713,"is_reserved":false,"is_disabled":false,"rental_uris":{"android":"levelo://app?vid=83f5c9b2-f37e-4635-817a-992d595185c8","ios":"levelo://app?vid=83f5c9b2-f37e-4635-817a-992d595185c8"},"vehicle_type_id":"4","last_reported":1767716140,"current_range_meters":8000,"station_id":"ce4bgrp2rcd13ifvqc9g","pricing_plan_id":"cebpf4jnsgd1na2vs0mg"},{"bike_id":"a3da1827-148b-41c2-bd04-cbeb3bb21a64","system_id":"levelo_inurba_marseille","lat":43.27917,"lon":5.3871,"is_reserved":false,"is_disabled":false,"rental_uris":{"android":"levelo://app?vid=a3da1827-148b-41c2-bd04-cbeb3bb21a64","ios":"levelo://app?vid=a3da1827-148b-41c2-bd04-cbeb3bb21a64"},"vehicle_type_id":"4","last_reported":1767716140,"current_range_meters":8000,"station_id":"","pricing_plan_id":"cebpf4jnsgd1na2vs0mg"},{"bike_id":"cccedf1f-544a-43fc-88c9-0f2af297f59c","system_id":"levelo_inurba_marseille","lat":43.31387,"lon":5.3928,"is_reserved":false,"is_disabled":false,"rental_uris":{"android":"levelo://app?vid=cccedf1f-544a-43fc-88c9-0f2af297f59c","ios":"levelo://app?vid=cccedf1f-544a-43fc-88c9-0f2af297f59c"},"vehicle_type_id":"4","last_reported":1767716140,"current_range_meters":8000,"station_id":"","pricing_plan_id":"cebpf4jnsgd1na2vs0mg"},{"bike_id":"722cbb73-0ec9-4f08-89c7-c23af9aed8be","system_id":"levelo_inurba_marseille","lat":43.30512,"lon":5.36538,"is_reserved":false,"is_disabled":false,"rental_uris":{"android":"levelo://app?vid=722cbb73-0ec9-4f08-89c7-c23af9aed8be","ios":"levelo://app?vid=722cbb73-0ec9-4f08-89c7-c23af9aed8be"},"vehicle_type_id":"4","last_reported":1767716140,"current_range_meters":8000,"station_id":"","pricing_plan_id":"cebpf4jnsgd1na2vs0mg"},{"bike_id":"59f38118-6a4d-4e62-8844-f6df1659fc07","system_id":"levelo_inurba_marseille","lat":43.29896,"lon":5.43669,"is_reserved":false,"is_disabled":false,"rental_uris":{"android":"levelo://app?vid=59f38118-6a4d-4e62-8844-f6df1659fc07","ios":"levelo://app?vid=59f38118-6a4d-4e62-8844-f6df1659fc07"},"vehicle_type_id":"4","last_reported":1767716140,"current_range_meters":8000,"station_id":"ce4bhpp2rcd13ifvqhfg","pricing_plan_id":"cebpf4jnsgd1na2vs0mg"},{"bike_id":"1de7b0ed-f5b5-4a92-a09f-0fce838a84db","system_id":"levelo_inurba_marseille","lat":43.3025,"lon":5.40056,"is_reserved":false,"is_disabled":false,"rental_uris":{"android":"levelo://app?vid=1de7b0ed-f5b5-4a92-a09f-0fce838a84db","ios":"levelo://app?vid=1de7b0ed-f5b5-4a92-a09f-0fce838a84db"},"vehicle_type_id":"4","last_reported":1767716140,"current_range_meters":8000,"station_id":"ce4bgvh2rcd13ifvqcs0","pricing_plan_id":"cebpf4jnsgd1na2vs0mg"},{"bike_id":"b873d448-1951-4df5-bd2c-5e9d96c8aae5","system_id":"levelo_inurba_marseille","lat":43.23785,"lon":5.36634,"is_reserved":false,"is_disabled":false,"rental_uris":{"android":"levelo://app?vid=b873d448-1951-4df5-bd2c-5e9d96c8aae5","ios":"levelo://app?vid=b873d448-1951-4df5-bd2c-5e9d96c8aae5"},"vehicle_type_id":"4","last_reported":1767716140,"current_range_meters":8000,"station_id":"st_d3nk18o9ro0c73en2l3g","pricing_plan_id":"cebpf4jnsgd1na2vs0mg"},{"bike_id":"f021d8dc-60df-4de1-9bcf-7e86a8ae9cea","system_id":"levelo_inurba_marseille","lat":43.29771,"lon":5.38097,"is_reserved":false,"is_disabled":false,"rental_uris":{"android":"levelo://app?vid=f021d8dc-60df-4de1-9bcf-7e86a8ae9cea","ios":"levelo://app?vid=f021d8dc-60df-4de1-9bcf-7e86a8ae9cea"},"vehicle_type_id":"4","last_reported":1767716140,"current_range_meters":8000,"station_id":"ce4bgip2rcd13ifvqbb0","pricing_plan_id":"cebpf4jnsgd1na2vs0mg"},{"bike_id":"27d9b984-914c-44c6-abe9-2fee68ccfc43","system_id":"levelo_inurba_marseille","lat":43.331576,"lon":5.376828,"is_reserved":false,"is_disabled":false,"rental_uris":{"android":"levelo://app?vid=27d9b984-914c-44c6-abe9-2fee68ccfc43","ios":"levelo://app?vid=27d9b984-914c-44c6-abe9-2fee68ccfc43"},"vehicle_type_id":"4","last_reported":1767716140,"current_range_meters":8000,"station_id":"st_d46cu089ee8s73dldbu0","pricing_plan_id":"cebpf4jnsgd1na2vs0mg"},{"bike_id":"9b21424a-1587-45e4-bf2a-4284accabf77","system_id":"levelo_inurba_marseille","lat":43.2848,"lon":5.48398,"is_reserved":false,"is_disabled":false,"rental_uris":{"android":"levelo://app?vid=9b21424a-1587-45e4-bf2a-4284accabf77","ios":"levelo://app?vid=9b21424a-1587-45e4-bf2a-4284accabf77"},"vehicle_type_id":"4","last_reported":1767716140,"current_range_meters":8000,"station_id":"","pricing_plan_id":"cebpf4jnsgd1na2vs0mg"},{"bike_id":"d261602f-15a6-43f8-a711-f87d07c7e09e","system_id":"levelo_inurba_marseille","lat":43.2872,"lon":5.361,"is_reserved":false,"is_disabled":false,"rental_uris":{"android":"levelo://app?vid=d261602f-15a6-43f8-a711-f87d07c7e09e","ios":"levelo://app?vid=d261602f-15a6-43f8-a711-f87d07c7e09e"},"vehicle_type_id":"4","last_reported":1767716140,"current_range_meters":8000,"station_id":"cki0cbj6b192h4jlfktg","pricing_plan_id":"cebpf4jnsgd1na2vs0mg"},{"bike_id":"da485c09-58f3-4aa8-b9eb-e5024b97d2e0","system_id":"levelo_inurba_marseille","lat":43.25931,"lon":5.40908,"is_reserved":false,"is_disabled":false,"rental_uris":{"android":"levelo://app?vid=da485c09-58f3-4aa8-b9eb-e5024b97d2e0","ios":"levelo://app?vid=da485c09-58f3-4aa8-b9eb-e5024b97d2e0"},"vehicle_type_id":"4","last_reported":1767716140,"current_range_meters":8000,"station_id":"ce4bhm92rcd13ifvqglg","pricing_plan_id":"cebpf4jnsgd1na2vs0mg"},{"bike_id":"65abfba9-190a-4a23-89ee-b7e60341596f","system_id":"levelo_inurba_marseille","lat":43.2871,"lon":5.37939,"is_reserved":false,"is_disabled":false,"rental_uris":{"android":"levelo://app?vid=65abfba9-190a-4a23-89ee-b7e60341596f","ios":"levelo://app?vid=65abfba9-190a-4a23-89ee-b7e60341596f"},"vehicle_type_id":"4","last_reported":1767716140,"current_range_meters":8000,"station_id":"ce4bh9p2rcd13ifvqec0","pricing_plan_id":"cebpf4jnsgd1na2vs0mg"},{"bike_id":"25dbcc45-049f-4343-9bae-ee809280083a","system_id":"levelo_inurba_marseille","lat":43.28362,"lon":5.38465,"is_reserved":false,"is_disabled":false,"rental_uris":{"android":"levelo://app?vid=25dbcc45-049f-4343-9bae-ee809280083a","ios":"levelo://app?vid=25dbcc45-049f-4343-9bae-ee809280083a"},"vehicle_type_id":"4","last_reported":1767716140,"current_range_meters":8000,"station_id":"","pricing_plan_id":"cebpf4jnsgd1na2vs0mg"},{"bike_id":"2b249141-87e2-4eaa-8d21-183c28a1a8bb","system_id":"levelo_inurba_marseille","lat":43.29755,"lon":5.42775,"is_reserved":false,"is_disabled":false,"rental_uris":{"android":"levelo://app?vid=2b249141-87e2-4eaa-8d21-183c28a1a8bb","ios":"levelo://app?vid=2b249141-87e2-4eaa-8d21-183c28a1a8bb"},"vehicle_type_id":"4","last_reported":1767716140,"current_range_meters":8000,"station_id":"st_d3md5207bmas73dh9klg","pricing_plan_id":"cebpf4jnsgd1na2vs0mg"},{"bike_id":"63c7d68a-6143-43b2-bc9e-25228fa4274e","system_id":"levelo_inurba_marseille","lat":43.265682,"lon":5.390079,"is_reserved":false,"is_disabled":false,"rental_uris":{"android":"levelo://app?vid=63c7d68a-6143-43b2-bc9e-25228fa4274e","ios":"levelo://app?vid=63c7d68a-6143-43b2-bc9e-25228fa4274e"},"vehicle_type_id":"4","last_reported":1767716140,"current_range_meters":8000,"station_id":"","pricing_plan_id":"cebpf4jnsgd1na2vs0mg"},{"bike_id":"ae764b9e-285d-4ce9-a461-15631e3cf137","system_id":"levelo_inurba_marseille","lat":43.26575,"lon":5.37292,"is_reserved":false,"is_disabled":false,"rental_uris":{"android":"levelo://app?vid=ae764b9e-285d-4ce9-a461-15631e3cf137","ios":"levelo://app?vid=ae764b9e-285d-4ce9-a461-15631e3cf137"},"vehicle_type_id":"4","last_reported":1767716140,"current_range_meters":8400,"station_id":"ce4bhg12rcd13ifvqf70","pricing_plan_id":"cebpf4jnsgd1na2vs0mg"},{"bike_id":"82244249-d3ef-406d-9f5c-ca1aae0b695b","system_id":"levelo_inurba_marseille","lat":43.276767,"lon":5.38873,"is_reserved":false,"is_disabled":false,"rental_uris":{"android":"levelo://app?vid=82244249-d3ef-406d-9f5c-ca1aae0b695b","ios":"levelo://app?vid=82244249-d3ef-406d-9f5c-ca1aae0b695b"},"vehicle_type_id":"4","last_reported":1767716140,"current_range_meters":8400,"station_id":"ce4bhi12rcd13ifvqfo0","pricing_plan_id":"cebpf4jnsgd1na2vs0mg"},{"bike_id":"1aab9789-bffd-4a51-8860-d68a520871ab","system_id":"levelo_inurba_marseille","lat":43.335363,"lon":5.374747,"is_reserved":false,"is_disabled":false,"rental_uris":{"android":"levelo://app?vid=1aab9789-bffd-4a51-8860-d68a520871ab","ios":"levelo://app?vid=1aab9789-bffd-4a51-8860-d68a520871ab"},"vehicle_type_id":"4","last_reported":1767716140,"current_range_meters":8400,"station_id":"st_d46tts09ee8s73dlu43g","pricing_plan_id":"cebpf4jnsgd1na2vs0mg"},{"bike_id":"03bb26cc-5abe-463b-b42d-df12dfc80fb1","system_id":"levelo_inurba_marseille","lat":43.28044,"lon":5.39935,"is_reserved":false,"is_disabled":false,"rental_uris":{"android":"levelo://app?vid=03bb26cc-5abe-463b-b42d-df12dfc80fb1","ios":"levelo://app?vid=03bb26cc-5abe-463b-b42d-df12dfc80fb1"},"vehicle_type_id":"4","last_reported":1767716140,"current_range_meters":8400,"station_id":"","pricing_plan_id":"cebpf4jnsgd1na2vs0mg"},{"bike_id":"3275b859-c08d-4706-afc8-86a6bdcab3a2","system_id":"levelo_inurba_marseille","lat":43.24399,"lon":5.37097,"is_reserved":false,"is_disabled":false,"rental_uris":{"android":"levelo://app?vid=3275b859-c08d-4706-afc8-86a6bdcab3a2","ios":"levelo://app?vid=3275b859-c08d-4706-afc8-86a6bdcab3a2"},"vehicle_type_id":"4","last_reported":1767716140,"current_range_meters":8400,"station_id":"ce4bhhh2rcd13ifvqfk0","pricing_plan_id":"cebpf4jnsgd1na2vs0mg"},{"bike_id":"f56193e0-b91b-480f-bdf4-1ee92d39a855","system_id":"levelo_inurba_marseille","lat":43.2926,"lon":5.37599,"is_reserved":false,"is_disabled":false,"rental_uris":{"android":"levelo://app?vid=f56193e0-b91b-480f-bdf4-1ee92d39a855","ios":"levelo://app?vid=f56193e0-b91b-480f-bdf4-1ee92d39a855"},"vehicle_type_id":"4","last_reported":1767716140,"current_range_meters":8400,"station_id":"ce4bgi12rcd13ifvqb80","pricing_plan_id":"cebpf4jnsgd1na2vs0mg"},{"bike_id":"2017767f-e2ab-42a1-bbfc-be4fce0f869a","system_id":"levelo_inurba_marseille","lat":43.29599,"lon":5.38096,"is_reserved":false,"is_disabled":false,"rental_uris":{"android":"levelo://app?vid=2017767f-e2ab-42a1-bbfc-be4fce0f869a","ios":"levelo://app?vid=2017767f-e2ab-42a1-bbfc-be4fce0f869a"},"vehicle_type_id":"4","last_reported":1767716140,"current_range_meters":8400,"station_id":"ce4bgl12rcd13ifvqbo0","pricing_plan_id":"cebpf4jnsgd1na2vs0mg"},{"bike_id":"bec6c24a-06be-45cf-9bed-193788bd3b60","system_id":"levelo_inurba_marseille","lat":43.31356,"lon":5.36734,"is_reserved":false,"is_disabled":false,"rental_uris":{"android":"levelo://app?vid=bec6c24a-06be-45cf-9bed-193788bd3b60","ios":"levelo://app?vid=bec6c24a-06be-45cf-9bed-193788bd3b60"},"vehicle_type_id":"4","last_reported":1767716140,"current_range_meters":8400,"station_id":"ce4bgr92rcd13ifvqc6g","pricing_plan_id":"cebpf4jnsgd1na2vs0mg"},{"bike_id":"e1950306-aeec-4a23-bedd-84084d90f283","system_id":"levelo_inurba_marseille","lat":43.27061,"lon":5.40262,"is_reserved":false,"is_disabled":false,"rental_uris":{"android":"levelo://app?vid=e1950306-aeec-4a23-bedd-84084d90f283","ios":"levelo://app?vid=e1950306-aeec-4a23-bedd-84084d90f283"},"vehicle_type_id":"4","last_reported":1767716140,"current_range_meters":8400,"station_id":"ce4bhk92rcd13ifvqgc0","pricing_plan_id":"cebpf4jnsgd1na2vs0mg"},{"bike_id":"c2a99736-5b8a-4a01-b28c-d47ef659a247","system_id":"levelo_inurba_marseille","lat":43.253747,"lon":5.421227,"is_reserved":false,"is_disabled":false,"rental_uris":{"android":"levelo://app?vid=c2a99736-5b8a-4a01-b28c-d47ef659a247","ios":"levelo://app?vid=c2a99736-5b8a-4a01-b28c-d47ef659a247"},"vehicle_type_id":"4","last_reported":1767716140,"current_range_meters":8400,"station_id":"","pricing_plan_id":"cebpf4jnsgd1na2vs0mg"},{"bike_id":"640fa82a-d8eb-4210-9ffd-19d6df232994","system_id":"levelo_inurba_marseille","lat":43.27493,"lon":5.42457,"is_reserved":false,"is_disabled":false,"rental_uris":{"android":"levelo://app?vid=640fa82a-d8eb-4210-9ffd-19d6df232994","ios":"levelo://app?vid=640fa82a-d8eb-4210-9ffd-19d6df232994"},"vehicle_type_id":"4","last_reported":1767716140,"current_range_meters":8400,"station_id":"ce4bhn92rcd13ifvqgrg","pricing_plan_id":"cebpf4jnsgd1na2vs0mg"},{"bike_id":"6cfe61d6-fc1a-4eb6-bdce-b76472120e6d","system_id":"levelo_inurba_marseille","lat":43.2315,"lon":5.43733,"is_reserved":false,"is_disabled":false,"rental_uris":{"android":"levelo://app?vid=6cfe61d6-fc1a-4eb6-bdce-b76472120e6d","ios":"levelo://app?vid=6cfe61d6-fc1a-4eb6-bdce-b76472120e6d"},"vehicle_type_id":"4","last_reported":1767716140,"current_range_meters":8800,"station_id":"ce4bhmp2rcd13ifvqgog","pricing_plan_id":"cebpf4jnsgd1na2vs0mg"},{"bike_id":"9919d450-8a55-46ab-9cbe-c338464cad0f","system_id":"levelo_inurba_marseille","lat":43.3019,"lon":5.36613,"is_reserved":false,"is_disabled":false,"rental_uris":{"android":"levelo://app?vid=9919d450-8a55-46ab-9cbe-c338464cad0f","ios":"levelo://app?vid=9919d450-8a55-46ab-9cbe-c338464cad0f"},"vehicle_type_id":"4","last_reported":1767716140,"current_range_meters":8800,"station_id":"ce4bgrh2rcd13ifvqc8g","pricing_plan_id":"cebpf4jnsgd1na2vs0mg"},{"bike_id":"786a01e9-7b34-463f-93e3-bede207c8bd2","system_id":"levelo_inurba_marseille","lat":43.26546,"lon":5.37293,"is_reserved":false,"is_disabled":false,"rental_uris":{"android":"levelo://app?vid=786a01e9-7b34-463f-93e3-bede207c8bd2","ios":"levelo://app?vid=786a01e9-7b34-463f-93e3-bede207c8bd2"},"vehicle_type_id":"4","last_reported":1767716140,"current_range_meters":8800,"station_id":"ce4bhg12rcd13ifvqf70","pricing_plan_id":"cebpf4jnsgd1na2vs0mg"},{"bike_id":"c50f334f-1e66-4878-a664-9e4a75db668f","system_id":"levelo_inurba_marseille","lat":43.31167,"lon":5.38706,"is_reserved":false,"is_disabled":false,"rental_uris":{"android":"levelo://app?vid=c50f334f-1e66-4878-a664-9e4a75db668f","ios":"levelo://app?vid=c50f334f-1e66-4878-a664-9e4a75db668f"},"vehicle_type_id":"4","last_reported":1767716140,"current_range_meters":8800,"station_id":"","pricing_plan_id":"cebpf4jnsgd1na2vs0mg"},{"bike_id":"d4cb7d87-6e05-4a12-a6a8-801515607d75","system_id":"levelo_inurba_marseille","lat":43.32096,"lon":5.3677,"is_reserved":false,"is_disabled":false,"rental_uris":{"android":"levelo://app?vid=d4cb7d87-6e05-4a12-a6a8-801515607d75","ios":"levelo://app?vid=d4cb7d87-6e05-4a12-a6a8-801515607d75"},"vehicle_type_id":"4","last_reported":1767716140,"current_range_meters":8800,"station_id":"ce4bhrh2rcd13ifvqhug","pricing_plan_id":"cebpf4jnsgd1na2vs0mg"},{"bike_id":"4810f933-239b-4efd-95c2-643441ded1a1","system_id":"levelo_inurba_marseille","lat":43.26216,"lon":5.37444,"is_reserved":false,"is_disabled":false,"rental_uris":{"android":"levelo://app?vid=4810f933-239b-4efd-95c2-643441ded1a1","ios":"levelo://app?vid=4810f933-239b-4efd-95c2-643441ded1a1"},"vehicle_type_id":"4","last_reported":1767716140,"current_range_meters":8800,"station_id":"ce4bhgp2rcd13ifvqfc0","pricing_plan_id":"cebpf4jnsgd1na2vs0mg"},{"bike_id":"5b5ca257-9733-4cb7-a39c-40399bbf5ca0","system_id":"levelo_inurba_marseille","lat":43.25515,"lon":5.37653,"is_reserved":false,"is_disabled":false,"rental_uris":{"android":"levelo://app?vid=5b5ca257-9733-4cb7-a39c-40399bbf5ca0","ios":"levelo://app?vid=5b5ca257-9733-4cb7-a39c-40399bbf5ca0"},"vehicle_type_id":"4","last_reported":1767716140,"current_range_meters":8800,"station_id":"ce4bhh12rcd13ifvqff0","pricing_plan_id":"cebpf4jnsgd1na2vs0mg"},{"bike_id":"e9e6f93f-566e-422e-9b71-a79556ab8c5d","system_id":"levelo_inurba_marseille","lat":43.30286,"lon":5.45653,"is_reserved":false,"is_disabled":false,"rental_uris":{"android":"levelo://app?vid=e9e6f93f-566e-422e-9b71-a79556ab8c5d","ios":"levelo://app?vid=e9e6f93f-566e-422e-9b71-a79556ab8c5d"},"vehicle_type_id":"4","last_reported":1767716140,"current_range_meters":8800,"station_id":"","pricing_plan_id":"cebpf4jnsgd1na2vs0mg"},{"bike_id":"00ea198f-1513-4ae8-9202-e0794b524e8a","system_id":"levelo_inurba_marseille","lat":43.2983,"lon":5.44062,"is_reserved":false,"is_disabled":false,"rental_uris":{"android":"levelo://app?vid=00ea198f-1513-4ae8-9202-e0794b524e8a","ios":"levelo://app?vid=00ea198f-1513-4ae8-9202-e0794b524e8a"},"vehicle_type_id":"4","last_reported":1767716140,"current_range_meters":8800,"station_id":"st_d3jp68qikq2c7381ktn0","pricing_plan_id":"cebpf4jnsgd1na2vs0mg"},{"bike_id":"63931dd9-5e9c-4cb5-b5fe-d5d26fe59f6e","system_id":"levelo_inurba_marseille","lat":43.24168,"lon":5.36397,"is_reserved":false,"is_disabled":false,"rental_uris":{"android":"levelo://app?vid=63931dd9-5e9c-4cb5-b5fe-d5d26fe59f6e","ios":"levelo://app?vid=63931dd9-5e9c-4cb5-b5fe-d5d26fe59f6e"},"vehicle_type_id":"4","last_reported":1767716140,"current_range_meters":8800,"station_id":"cpo36qri1sfpv3e86is0","pricing_plan_id":"cebpf4jnsgd1na2vs0mg"},{"bike_id":"60f1d5de-3c98-4b75-a37f-dab4df62cdac","system_id":"levelo_inurba_marseille","lat":43.29408,"lon":5.39964,"is_reserved":false,"is_disabled":false,"rental_uris":{"android":"levelo://app?vid=60f1d5de-3c98-4b75-a37f-dab4df62cdac","ios":"levelo://app?vid=60f1d5de-3c98-4b75-a37f-dab4df62cdac"},"vehicle_type_id":"4","last_reported":1767716140,"current_range_meters":8800,"station_id":"","pricing_plan_id":"cebpf4jnsgd1na2vs0mg"},{"bike_id":"3a1a012f-e2cb-489c-8aaa-49659e7dafd1","system_id":"levelo_inurba_marseille","lat":43.292254,"lon":5.36087,"is_reserved":false,"is_disabled":false,"rental_uris":{"android":"levelo://app?vid=3a1a012f-e2cb-489c-8aaa-49659e7dafd1","ios":"levelo://app?vid=3a1a012f-e2cb-489c-8aaa-49659e7dafd1"},"vehicle_type_id":"4","last_reported":1767716140,"current_range_meters":8800,"station_id":"ce4bhbh2rcd13ifvqeqg","pricing_plan_id":"cebpf4jnsgd1na2vs0mg"},{"bike_id":"62cb22d9-379f-4a14-9307-a2357290642a","system_id":"levelo_inurba_marseille","lat":43.30042,"lon":5.37821,"is_reserved":false,"is_disabled":false,"rental_uris":{"android":"levelo://app?vid=62cb22d9-379f-4a14-9307-a2357290642a","ios":"levelo://app?vid=62cb22d9-379f-4a14-9307-a2357290642a"},"vehicle_type_id":"4","last_reported":1767716140,"current_range_meters":8800,"station_id":"","pricing_plan_id":"cebpf4jnsgd1na2vs0mg"},{"bike_id":"d0f1808d-c3e0-4b96-9e84-efbe10c09f7c","system_id":"levelo_inurba_marseille","lat":43.29579,"lon":5.37523,"is_reserved":false,"is_disabled":false,"rental_uris":{"android":"levelo://app?vid=d0f1808d-c3e0-4b96-9e84-efbe10c09f7c","ios":"levelo://app?vid=d0f1808d-c3e0-4b96-9e84-efbe10c09f7c"},"vehicle_type_id":"4","last_reported":1767716140,"current_range_meters":8800,"station_id":"ce4bgh92rcd13ifvqb50","pricing_plan_id":"cebpf4jnsgd1na2vs0mg"},{"bike_id":"255f6a83-686a-42d7-b59b-0886f81cf758","system_id":"levelo_inurba_marseille","lat":43.231554,"lon":5.437023,"is_reserved":false,"is_disabled":true,"rental_uris":{"android":"levelo://app?vid=255f6a83-686a-42d7-b59b-0886f81cf758","ios":"levelo://app?vid=255f6a83-686a-42d7-b59b-0886f81cf758"},"vehicle_type_id":"4","last_reported":1767716140,"current_range_meters":9200,"station_id":"ce4bhmp2rcd13ifvqgog","pricing_plan_id":"cebpf4jnsgd1na2vs0mg"},{"bike_id":"30bdf5f3-a661-4384-ac7f-dbac1930b152","system_id":"levelo_inurba_marseille","lat":43.23158,"lon":5.43703,"is_reserved":false,"is_disabled":false,"rental_uris":{"android":"levelo://app?vid=30bdf5f3-a661-4384-ac7f-dbac1930b152","ios":"levelo://app?vid=30bdf5f3-a661-4384-ac7f-dbac1930b152"},"vehicle_type_id":"4","last_reported":1767716140,"current_range_meters":9200,"station_id":"ce4bhmp2rcd13ifvqgog","pricing_plan_id":"cebpf4jnsgd1na2vs0mg"},