{"last_updated":1777457184,"ttl":60,"version":"2.2","data":{"bikes":[{"bike_id":"18cd8e51-dd4a-4686-a624-b5605e8c1286","system_id":"levelo_inurba_marseille","lat":43.29593,"lon":5.3671,"is_reserved":false,"is_disabled":false,"rental_uris":{"android":"levelo://app?vid=18cd8e51-dd4a-4686-a624-b5605e8c1286","ios":"levelo://app?vid=18cd8e51-dd4a-4686-a624-b5605e8c1286"},"vehicle_type_id":"4","last_reported":1777457184,"current_range_meters":2800,"station_id":"ce4bgph2rcd13ifvqc2g","pricing_plan_id":"cebpf4jnsgd1na2vs0mg"},{"bike_id":"44d94ad8-0080-4a8f-a60e-bba6ebe9f6de","system_id":"levelo_inurba_marseille","lat":43.29805,"lon":5.40407,"is_reserved":false,"is_disabled":false,"rental_uris":{"android":"levelo://app?vid=44d94ad8-0080-4a8f-a60e-bba6ebe9f6de","ios":"levelo://app?vid=44d94ad8-0080-4a8f-a60e-bba6ebe9f6de"},"vehicle_type_id":"4","last_reported":1777457184,"current_range_meters":2800,"station_id":"ce4bh112rcd13ifvqd90","pricing_plan_id":"cebpf4jnsgd1na2vs0mg"},{"bike_id":"7854897f-1219-41a5-bd7c-1d830f2a7e9d","system_id":"levelo_inurba_marseille","lat":43.28718,"lon":5.46663,"is_reserved":false,"is_disabled":false,"rental_uris":{"android":"levelo://app?vid=7854897f-1219-41a5-bd7c-1d830f2a7e9d","ios":"levelo://app?vid=7854897f-1219-41a5-bd7c-1d830f2a7e9d"},"vehicle_type_id":"4","last_reported":1777457184,"current_range_meters":2800,"station_id":"st_d6tc3vkotcvc738tfjhg","pricing_plan_id":"cebpf4jnsgd1na2vs0mg"},{"bike_id":"afde96ac-1493-4085-af72-e5da568a87fd","system_id":"levelo_inurba_marseille","lat":43.2849,"lon":5.48385,"is_reserved":false,"is_disabled":false,"rental_uris":{"android":"levelo://app?vid=afde96ac-1493-4085-af72-e5da568a87fd","ios":"levelo://app?vid=afde96ac-1493-4085-af72-e5da568a87fd"},"vehicle_type_id":"4","last_reported":1777457184,"current_range_meters":2800,"station_id":"st_d3svhcjqgbts73a3dn0g","pricing_plan_id":"cebpf4jnsgd1na2vs0mg"},{"bike_id":"dc4f256b-dad1-4b0e-b0aa-70815278bacb","system_id":"levelo_inurba_marseille","lat":43.28967,"lon":5.39318,"is_reserved":false,"is_disabled":false,"rental_uris":{"android":"levelo://app?vid=dc4f256b-dad1-4b0e-b0aa-70815278bacb","ios":"levelo://app?vid=dc4f256b-dad1-4b0e-b0aa-70815278bacb"},"vehicle_type_id":"4","last_reported":1777457184,"current_range_meters":2800,"station_id":"","pricing_plan_id":"cebpf4jnsgd1na2vs0mg"},{"bike_id":"94b1d427-102e-4c64-aa76-0c93e226150f","system_id":"levelo_inurba_marseille","lat":43.28469,"lon":5.4841,"is_reserved":false,"is_disabled":false,"rental_uris":{"android":"levelo://app?vid=94b1d427-102e-4c64-aa76-0c93e226150f","ios":"levelo://app?vid=94b1d427-102e-4c64-aa76-0c93e226150f"},"vehicle_type_id":"4","last_reported":1777457184,"current_range_meters":3200,"station_id":"st_d3svhcjqgbts73a3dn0g","pricing_plan_id":"cebpf4jnsgd1na2vs0mg"},{"bike_id":"d2276d1c-4dd8-4805-b674-72347073e05f","system_id":"levelo_inurba_marseille","lat":43.28881,"lon":5.42497,"is_reserved":false,"is_disabled":false,"rental_uris":{"android":"levelo://app?vid=d2276d1c-4dd8-4805-b674-72347073e05f","ios":"levelo://app?vid=d2276d1c-4dd8-4805-b674-72347073e05f"},"vehicle_type_id":"4","last_reported":1777457184,"current_range_meters":3200,"station_id":"st_d3b462108ojc7389ooeg","pricing_plan_id":"cebpf4jnsgd1na2vs0mg"},{"bike_id":"b0fc715f-4a35-4272-9e2a-b10f7b105dc9","system_id":"levelo_inurba_marseille","lat":43.2935,"lon":5.4454,"is_reserved":false,"is_disabled":false,"rental_uris":{"android":"levelo://app?vid=b0fc715f-4a35-4272-9e2a-b10f7b105dc9","ios":"levelo://app?vid=b0fc715f-4a35-4272-9e2a-b10f7b105dc9"},"vehicle_type_id":"4","last_reported":1777457184,"current_range_meters":3200,"station_id":"","pricing_plan_id":"cebpf4jnsgd1na2vs0mg"},{"bike_id":"987eda33-b3ad-4fac-a63c-0e3ff496e921","system_id":"levelo_inurba_marseille","lat":43.32358,"lon":5.36735,"is_reserved":false,"is_disabled":false,"rental_uris":{"android":"levelo://app?vid=987eda33-b3ad-4fac-a63c-0e3ff496e921","ios":"levelo://app?vid=987eda33-b3ad-4fac-a63c-0e3ff496e921"},"vehicle_type_id":"4","last_reported":1777457184,"current_range_meters":3200,"station_id":"ce4bhsh2rcd13ifvqi2g","pricing_plan_id":"cebpf4jnsgd1na2vs0mg"},{"bike_id":"92b0e79d-5118-4cdc-a154-ad1d52d847b8","system_id":"levelo_inurba_marseille","lat":43.29608,"lon":5.36065,"is_reserved":false,"is_disabled":false,"rental_uris":{"android":"levelo://app?vid=92b0e79d-5118-4cdc-a154-ad1d52d847b8","ios":"levelo://app?vid=92b0e79d-5118-4cdc-a154-ad1d52d847b8"},"vehicle_type_id":"4","last_reported":1777457184,"current_range_meters":3200,"station_id":"","pricing_plan_id":"cebpf4jnsgd1na2vs0mg"},{"bike_id":"fa50285c-77a4-4c69-8bc2-588ff7b81320","system_id":"levelo_inurba_marseille","lat":43.2678,"lon":5.39416,"is_reserved":false,"is_disabled":false,"rental_uris":{"android":"levelo://app?vid=fa50285c-77a4-4c69-8bc2-588ff7b81320","ios":"levelo://app?vid=fa50285c-77a4-4c69-8bc2-588ff7b81320"},"vehicle_type_id":"4","last_reported":1777457184,"current_range_meters":3200,"station_id":"ce4bhh12rcd13ifvqfg0","pricing_plan_id":"cebpf4jnsgd1na2vs0mg"},{"bike_id":"9fcf29d7-a796-47bd-a10d-6392e4509f1e","system_id":"levelo_inurba_marseille","lat":43.30433,"lon":5.38892,"is_reserved":false,"is_disabled":false,"rental_uris":{"android":"levelo://app?vid=9fcf29d7-a796-47bd-a10d-6392e4509f1e","ios":"levelo://app?vid=9fcf29d7-a796-47bd-a10d-6392e4509f1e"},"vehicle_type_id":"4","last_reported":1777457184,"current_range_meters":3600,"station_id":"ce4bgk12rcd13ifvqbi0","pricing_plan_id":"cebpf4jnsgd1na2vs0mg"},{"bike_id":"f76b9266-ae3d-4537-b2d9-416d81735d8f","system_id":"levelo_inurba_marseille","lat":43.26948,"lon":5.38655,"is_reserved":false,"is_disabled":false,"rental_uris":{"android":"levelo://app?vid=f76b9266-ae3d-4537-b2d9-416d81735d8f","ios":"levelo://app?vid=f76b9266-ae3d-4537-b2d9-416d81735d8f"},"vehicle_type_id":"4","last_reported":1777457184,"current_range_meters":3600,"station_id":"ce4bhh92rcd13ifvqfh0","pricing_plan_id":"cebpf4jnsgd1na2vs0mg"},{"bike_id":"eec401be-82ad-4f63-b0db-33abd6b577d0","system_id":"levelo_inurba_marseille","lat":43.30127,"lon":5.43107,"is_reserved":false,"is_disabled":false,"rental_uris":{"android":"levelo://app?vid=eec401be-82ad-4f63-b0db-33abd6b577d0","ios":"levelo://app?vid=eec401be-82ad-4f63-b0db-33abd6b577d0"},"vehicle_type_id":"4","last_reported":1777457184,"current_range_meters":3600,"station_id":"st_d3js3co5814s73ftftug","pricing_plan_id":"cebpf4jnsgd1na2vs0mg"},{"bike_id":"8b4e6bd3-1e82-4277-a45a-3a8abaa4e3ab","system_id":"levelo_inurba_marseille","lat":43.28478,"lon":5.4839,"is_reserved":false,"is_disabled":false,"rental_uris":{"android":"levelo://app?vid=8b4e6bd3-1e82-4277-a45a-3a8abaa4e3ab","ios":"levelo://app?vid=8b4e6bd3-1e82-4277-a45a-3a8abaa4e3ab"},"vehicle_type_id":"4","last_reported":1777457184,"current_range_meters":3600,"station_id":"","pricing_plan_id":"cebpf4jnsgd1na2vs0mg"},{"bike_id":"870cf028-d317-4365-88b3-cfc8b2733cc6","system_id":"levelo_inurba_marseille","lat":43.28697,"lon":5.46684,"is_reserved":false,"is_disabled":false,"rental_uris":{"android":"levelo://app?vid=870cf028-d317-4365-88b3-cfc8b2733cc6","ios":"levelo://app?vid=870cf028-d317-4365-88b3-cfc8b2733cc6"},"vehicle_type_id":"4","last_reported":1777457184,"current_range_meters":4000,"station_id":"st_d6tc3vkotcvc738tfjhg","pricing_plan_id":"cebpf4jnsgd1na2vs0mg"},{"bike_id":"4541a58b-5803-4873-8531-8182c7674429","system_id":"levelo_inurba_marseille","lat":43.28484,"lon":5.48402,"is_reserved":false,"is_disabled":false,"rental_uris":{"android":"levelo://app?vid=4541a58b-5803-4873-8531-8182c7674429","ios":"levelo://app?vid=4541a58b-5803-4873-8531-8182c7674429"},"vehicle_type_id":"4","last_reported":1777457184,"current_range_meters":4000,"station_id":"st_d3svhcjqgbts73a3dn0g","pricing_plan_id":"cebpf4jnsgd1na2vs0mg"},{"bike_id":"c6754837-ce63-45b7-96d9-4ba6fcda7f1b","system_id":"levelo_inurba_marseille","lat":43.30467,"lon":5.37903,"is_reserved":false,"is_disabled":false,"rental_uris":{"android":"levelo://app?vid=c6754837-ce63-45b7-96d9-4ba6fcda7f1b","ios":"levelo://app?vid=c6754837-ce63-45b7-96d9-4ba6fcda7f1b"},"vehicle_type_id":"4","last_reported":1777457184,"current_range_meters":4000,"station_id":"ce4bgup2rcd13ifvqcn0","pricing_plan_id":"cebpf4jnsgd1na2vs0mg"},{"bike_id":"7de5f550-2ba7-4316-b1c0-26a64289422c","system_id":"levelo_inurba_marseille","lat":43.29729,"lon":5.37653,"is_reserved":false,"is_disabled":false,"rental_uris":{"android":"levelo://app?vid=7de5f550-2ba7-4316-b1c0-26a64289422c","ios":"levelo://app?vid=7de5f550-2ba7-4316-b1c0-26a64289422c"},"vehicle_type_id":"4","last_reported":1777457184,"current_range_meters":4000,"station_id":"ce4bgkh2rcd13ifvqbl0","pricing_plan_id":"cebpf4jnsgd1na2vs0mg"},{"bike_id":"1bf6bc57-f8be-4912-882e-8fb7d21ff70a","system_id":"levelo_inurba_marseille","lat":43.28922,"lon":5.38375,"is_reserved":false,"is_disabled":true,"rental_uris":{"android":"levelo://app?vid=1bf6bc57-f8be-4912-882e-8fb7d21ff70a","ios":"levelo://app?vid=1bf6bc57-f8be-4912-882e-8fb7d21ff70a"},"vehicle_type_id":"4","last_reported":1777457184,"current_range_meters":4000,"station_id":"ce4bh612rcd13ifvqe6g","pricing_plan_id":"cebpf4jnsgd1na2vs0mg"},{"bike_id":"76907408-a8ff-4688-9cbf-66e48bb415e8","system_id":"levelo_inurba_marseille","lat":43.28708,"lon":5.46687,"is_reserved":false,"is_disabled":false,"rental_uris":{"android":"levelo://app?vid=76907408-a8ff-4688-9cbf-66e48bb415e8","ios":"levelo://app?vid=76907408-a8ff-4688-9cbf-66e48bb415e8"},"vehicle_type_id":"4","last_reported":1777457184,"current_range_meters":4000,"station_id":"st_d6tc3vkotcvc738tfjhg","pricing_plan_id":"cebpf4jnsgd1na2vs0mg"},{"bike_id":"7b0e3804-73b9-4886-9627-ede1b8b757da","system_id":"levelo_inurba_marseille","lat":43.29279,"lon":5.368432,"is_reserved":false,"is_disabled":false,"rental_uris":{"android":"levelo://app?vid=7b0e3804-73b9-4886-9627-ede1b8b757da","ios":"levelo://app?vid=7b0e3804-73b9-4886-9627-ede1b8b757da"},"vehicle_type_id":"4","last_reported":1777457184,"current_range_meters":4000,"station_id":"ce4bhbp2rcd13ifvqesg","pricing_plan_id":"cebpf4jnsgd1na2vs0mg"},{"bike_id":"cd83d868-726a-4b78-9316-041ca1556bfe","system_id":"levelo_inurba_marseille","lat":43.30165,"lon":5.38064,"is_reserved":false,"is_disabled":false,"rental_uris":{"android":"levelo://app?vid=cd83d868-726a-4b78-9316-041ca1556bfe","ios":"levelo://app?vid=cd83d868-726a-4b78-9316-041ca1556bfe"},"vehicle_type_id":"4","last_reported":1777457184,"current_range_meters":4000,"station_id":"ce4bgjp2rcd13ifvqbh0","pricing_plan_id":"cebpf4jnsgd1na2vs0mg"},{"bike_id":"f13c1412-9987-4b53-aa5c-79a6ecb2ba2d","system_id":"levelo_inurba_marseille","lat":43.32353,"lon":5.36748,"is_reserved":false,"is_disabled":false,"rental_uris":{"android":"levelo://app?vid=f13c1412-9987-4b53-aa5c-79a6ecb2ba2d","ios":"levelo://app?vid=f13c1412-9987-4b53-aa5c-79a6ecb2ba2d"},"vehicle_type_id":"4","last_reported":1777457184,"current_range_meters":4000,"station_id":"ce4bhsh2rcd13ifvqi2g","pricing_plan_id":"cebpf4jnsgd1na2vs0mg"},{"bike_id":"ba8d81c0-c8f1-4d4e-b204-fc63397686f7","system_id":"levelo_inurba_marseille","lat":43.29269,"lon":5.3685,"is_reserved":false,"is_disabled":false,"rental_uris":{"android":"levelo://app?vid=ba8d81c0-c8f1-4d4e-b204-fc63397686f7","ios":"levelo://app?vid=ba8d81c0-c8f1-4d4e-b204-fc63397686f7"},"vehicle_type_id":"4","last_reported":1777457184,"current_range_meters":4000,"station_id":"ce4bhbp2rcd13ifvqesg","pricing_plan_id":"cebpf4jnsgd1na2vs0mg"},{"bike_id":"3fef02bc-76d9-4979-86d7-0ff9f1ceaf9a","system_id":"levelo_inurba_marseille","lat":43.30642,"lon":5.40103,"is_reserved":false,"is_disabled":false,"rental_uris":{"android":"levelo://app?vid=3fef02bc-76d9-4979-86d7-0ff9f1ceaf9a","ios":"levelo://app?vid=3fef02bc-76d9-4979-86d7-0ff9f1ceaf9a"},"vehicle_type_id":"4","last_reported":1777457184,"current_range_meters":4400,"station_id":"ce4bh112rcd13ifvqda0","pricing_plan_id":"cebpf4jnsgd1na2vs0mg"},{"bike_id":"6657d9c1-13e9-411d-a0bf-46851213dcd1","system_id":"levelo_inurba_marseille","lat":43.29257,"lon":5.36874,"is_reserved":false,"is_disabled":false,"rental_uris":{"android":"levelo://app?vid=6657d9c1-13e9-411d-a0bf-46851213dcd1","ios":"levelo://app?vid=6657d9c1-13e9-411d-a0bf-46851213dcd1"},"vehicle_type_id":"4","last_reported":1777457184,"current_range_meters":4400,"station_id":"ce4bhbp2rcd13ifvqesg","pricing_plan_id":"cebpf4jnsgd1na2vs0mg"},{"bike_id":"455c0871-6824-4fde-9b1a-2d8815c57d5a","system_id":"levelo_inurba_marseille","lat":43.246618,"lon":5.381669,"is_reserved":false,"is_disabled":false,"rental_uris":{"android":"levelo://app?vid=455c0871-6824-4fde-9b1a-2d8815c57d5a","ios":"levelo://app?vid=455c0871-6824-4fde-9b1a-2d8815c57d5a"},"vehicle_type_id":"4","last_reported":1777457184,"current_range_meters":4400,"station_id":"ce4bhih2rcd13ifvqfr0","pricing_plan_id":"cebpf4jnsgd1na2vs0mg"},{"bike_id":"27cbbdc8-76be-4943-abdc-2247bea40f15","system_id":"levelo_inurba_marseille","lat":43.28407,"lon":5.34974,"is_reserved":false,"is_disabled":false,"rental_uris":{"android":"levelo://app?vid=27cbbdc8-76be-4943-abdc-2247bea40f15","ios":"levelo://app?vid=27cbbdc8-76be-4943-abdc-2247bea40f15"},"vehicle_type_id":"4","last_reported":1777457184,"current_range_meters":4400,"station_id":"ce4bhbh2rcd13ifvqepg","pricing_plan_id":"cebpf4jnsgd1na2vs0mg"},{"bike_id":"e03a9553-f014-4591-84d1-bb481db182e5","system_id":"levelo_inurba_marseille","lat":43.28699,"lon":5.46692,"is_reserved":false,"is_disabled":false,"rental_uris":{"android":"levelo://app?vid=e03a9553-f014-4591-84d1-bb481db182e5","ios":"levelo://app?vid=e03a9553-f014-4591-84d1-bb481db182e5"},"vehicle_type_id":"4","last_reported":1777457184,"current_range_meters":4400,"station_id":"st_d6tc3vkotcvc738tfjhg","pricing_plan_id":"cebpf4jnsgd1na2vs0mg"},{"bike_id":"5367fafd-42a5-4c52-bd35-5d85953af91c","system_id":"levelo_inurba_marseille","lat":43.3145,"lon":5.37379,"is_reserved":false,"is_disabled":true,"rental_uris":{"android":"levelo://app?vid=5367fafd-42a5-4c52-bd35-5d85953af91c","ios":"levelo://app?vid=5367fafd-42a5-4c52-bd35-5d85953af91c"},"vehicle_type_id":"4","last_reported":1777457184,"current_range_meters":4800,"station_id":"","pricing_plan_id":"cebpf4jnsgd1na2vs0mg"},{"bike_id":"e116e98a-e7c1-4e2d-9ae3-1a759c33b548","system_id":"levelo_inurba_marseille","lat":43.337444,"lon":5.374475,"is_reserved":false,"is_disabled":false,"rental_uris":{"android":"levelo://app?vid=e116e98a-e7c1-4e2d-9ae3-1a759c33b548","ios":"levelo://app?vid=e116e98a-e7c1-4e2d-9ae3-1a759c33b548"},"vehicle_type_id":"4","last_reported":1777457184,"current_range_meters":4800,"station_id":"ce4bgop2rcd13ifvqc1g","pricing_plan_id":"cebpf4jnsgd1na2vs0mg"},{"bike_id":"e2605e88-9f7b-49cc-8a63-119a038d9512","system_id":"levelo_inurba_marseille","lat":43.25624,"lon":5.38558,"is_reserved":false,"is_disabled":false,"rental_uris":{"android":"levelo://app?vid=e2605e88-9f7b-49cc-8a63-119a038d9512","ios":"levelo://app?vid=e2605e88-9f7b-49cc-8a63-119a038d9512"},"vehicle_type_id":"4","last_reported":1777457184,"current_range_meters":4800,"station_id":"","pricing_plan_id":"cebpf4jnsgd1na2vs0mg"},{"bike_id":"6263c77d-2ab4-4114-b935-db0222355f2d","system_id":"levelo_inurba_marseille","lat":43.29622,"lon":5.3717,"is_reserved":false,"is_disabled":false,"rental_uris":{"android":"levelo://app?vid=6263c77d-2ab4-4114-b935-db0222355f2d","ios":"levelo://app?vid=6263c77d-2ab4-4114-b935-db0222355f2d"},"vehicle_type_id":"4","last_reported":1777457184,"current_range_meters":4800,"station_id":"ce4bgnh2rcd13ifvqc0g","pricing_plan_id":"cebpf4jnsgd1na2vs0mg"},{"bike_id":"92afb389-2f77-4a93-bd07-4c0db03b19a8","system_id":"levelo_inurba_marseille","lat":43.30953,"lon":5.39052,"is_reserved":false,"is_disabled":false,"rental_uris":{"android":"levelo://app?vid=92afb389-2f77-4a93-bd07-4c0db03b19a8","ios":"levelo://app?vid=92afb389-2f77-4a93-bd07-4c0db03b19a8"},"vehicle_type_id":"4","last_reported":1777457184,"current_range_meters":4800,"station_id":"ce4bgup2rcd13ifvqco0","pricing_plan_id":"cebpf4jnsgd1na2vs0mg"},{"bike_id":"ebfe0b3a-1f59-4844-b708-815960f4a6ef","system_id":"levelo_inurba_marseille","lat":43.29267,"lon":5.38437,"is_reserved":false,"is_disabled":false,"rental_uris":{"android":"levelo://app?vid=ebfe0b3a-1f59-4844-b708-815960f4a6ef","ios":"levelo://app?vid=ebfe0b3a-1f59-4844-b708-815960f4a6ef"},"vehicle_type_id":"4","last_reported":1777457184,"current_range_meters":4800,"station_id":"ce4bh692rcd13ifvqea0","pricing_plan_id":"cebpf4jnsgd1na2vs0mg"},{"bike_id":"77a11020-6157-4910-a7e4-b2f7cd96ce88","system_id":"levelo_inurba_marseille","lat":43.29269,"lon":5.37633,"is_reserved":false,"is_disabled":false,"rental_uris":{"android":"levelo://app?vid=77a11020-6157-4910-a7e4-b2f7cd96ce88","ios":"levelo://app?vid=77a11020-6157-4910-a7e4-b2f7cd96ce88"},"vehicle_type_id":"4","last_reported":1777457184,"current_range_meters":4800,"station_id":"ce4bgi12rcd13ifvqb80","pricing_plan_id":"cebpf4jnsgd1na2vs0mg"},{"bike_id":"f901914a-1a8c-4d8c-9941-f4014fb0d1ae","system_id":"levelo_inurba_marseille","lat":43.27375,"lon":5.36256,"is_reserved":false,"is_disabled":false,"rental_uris":{"android":"levelo://app?vid=f901914a-1a8c-4d8c-9941-f4014fb0d1ae","ios":"levelo://app?vid=f901914a-1a8c-4d8c-9941-f4014fb0d1ae"},"vehicle_type_id":"4","last_reported":1777457184,"current_range_meters":4800,"station_id":"ce4bhbh2rcd13ifvqeo0","pricing_plan_id":"cebpf4jnsgd1na2vs0mg"},{"bike_id":"b94ff63d-7543-4e33-96a4-515421c88125","system_id":"levelo_inurba_marseille","lat":43.30974,"lon":5.39053,"is_reserved":false,"is_disabled":false,"rental_uris":{"android":"levelo://app?vid=b94ff63d-7543-4e33-96a4-515421c88125","ios":"levelo://app?vid=b94ff63d-7543-4e33-96a4-515421c88125"},"vehicle_type_id":"4","last_reported":1777457184,"current_range_meters":4800,"station_id":"ce4bgup2rcd13ifvqco0","pricing_plan_id":"cebpf4jnsgd1na2vs0mg"},{"bike_id":"17559d1e-3cd1-4812-956d-2f5b5bf255de","system_id":"levelo_inurba_marseille","lat":43.24078,"lon":5.3777,"is_reserved":false,"is_disabled":true,"rental_uris":{"android":"levelo://app?vid=17559d1e-3cd1-4812-956d-2f5b5bf255de","ios":"levelo://app?vid=17559d1e-3cd1-4812-956d-2f5b5bf255de"},"vehicle_type_id":"4","last_reported":1777457184,"current_range_meters":4800,"station_id":"ce4bhnp2rcd13ifvqgvg","pricing_plan_id":"cebpf4jnsgd1na2vs0mg"},{"bike_id":"145c254e-4088-4fef-87dc-d9bee17d760f","system_id":"levelo_inurba_marseille","lat":43.32112,"lon":5.36772,"is_reserved":false,"is_disabled":false,"rental_uris":{"android":"levelo://app?vid=145c254e-4088-4fef-87dc-d9bee17d760f","ios":"levelo://app?vid=145c254e-4088-4fef-87dc-d9bee17d760f"},"vehicle_type_id":"4","last_reported":1777457184,"current_range_meters":5600,"station_id":"ce4bhrh2rcd13ifvqhug","pricing_plan_id":"cebpf4jnsgd1na2vs0mg"},{"bike_id":"8ddf78e6-7053-4f51-a052-cbf410efa6bf","system_id":"levelo_inurba_marseille","lat":43.31403,"lon":5.36967,"is_reserved":false,"is_disabled":false,"rental_uris":{"android":"levelo://app?vid=8ddf78e6-7053-4f51-a052-cbf410efa6bf","ios":"levelo://app?vid=8ddf78e6-7053-4f51-a052-cbf410efa6bf"},"vehicle_type_id":"4","last_reported":1777457184,"current_range_meters":5600,"station_id":"ce4bgl92rcd13ifvqbq0","pricing_plan_id":"cebpf4jnsgd1na2vs0mg"},{"bike_id":"9bafe38a-7cea-4b73-8ee5-5a12a7c06c65","system_id":"levelo_inurba_marseille","lat":43.30465,"lon":5.37903,"is_reserved":false,"is_disabled":false,"rental_uris":{"android":"levelo://app?vid=9bafe38a-7cea-4b73-8ee5-5a12a7c06c65","ios":"levelo://app?vid=9bafe38a-7cea-4b73-8ee5-5a12a7c06c65"},"vehicle_type_id":"4","last_reported":1777457184,"current_range_meters":5600,"station_id":"ce4bgup2rcd13ifvqcn0","pricing_plan_id":"cebpf4jnsgd1na2vs0mg"},{"bike_id":"e6a3fb66-02cc-4ce5-8d95-28def7408a91","system_id":"levelo_inurba_marseille","lat":43.27045,"lon":5.40248,"is_reserved":false,"is_disabled":false,"rental_uris":{"android":"levelo://app?vid=e6a3fb66-02cc-4ce5-8d95-28def7408a91","ios":"levelo://app?vid=e6a3fb66-02cc-4ce5-8d95-28def7408a91"},"vehicle_type_id":"4","last_reported":1777457184,"current_range_meters":5600,"station_id":"ce4bhk92rcd13ifvqgc0","pricing_plan_id":"cebpf4jnsgd1na2vs0mg"},{"bike_id":"fadbd9a5-2a49-4734-8db0-528994d97e40","system_id":"levelo_inurba_marseille","lat":43.29272,"lon":5.38362,"is_reserved":false,"is_disabled":false,"rental_uris":{"android":"levelo://app?vid=fadbd9a5-2a49-4734-8db0-528994d97e40","ios":"levelo://app?vid=fadbd9a5-2a49-4734-8db0-528994d97e40"},"vehicle_type_id":"4","last_reported":1777457184,"current_range_meters":5600,"station_id":"","pricing_plan_id":"cebpf4jnsgd1na2vs0mg"},{"bike_id":"b9c0ca4a-61af-4a0b-994f-7b554a71a91c","system_id":"levelo_inurba_marseille","lat":43.32344,"lon":5.36759,"is_reserved":false,"is_disabled":false,"rental_uris":{"android":"levelo://app?vid=b9c0ca4a-61af-4a0b-994f-7b554a71a91c","ios":"levelo://app?vid=b9c0ca4a-61af-4a0b-994f-7b554a71a91c"},"vehicle_type_id":"4","last_reported":1777457184,"current_range_meters":6000,"station_id":"ce4bhsh2rcd13ifvqi2g","pricing_plan_id":"cebpf4jnsgd1na2vs0mg"},{"bike_id":"21fa33d0-28a0-4e0a-9999-8d9d767ac49c","system_id":"levelo_inurba_marseille","lat":43.27051,"lon":5.38644,"is_reserved":false,"is_disabled":false,"rental_uris":{"android":"levelo://app?vid=21fa33d0-28a0-4e0a-9999-8d9d767ac49c","ios":"levelo://app?vid=21fa33d0-28a0-4e0a-9999-8d9d767ac49c"},"vehicle_type_id":"4","last_reported":1777457184,"current_range_meters":6000,"station_id":"","pricing_plan_id":"cebpf4jnsgd1na2vs0mg"},{"bike_id":"22f14fb4-4534-48ab-a634-5e564ce11591","system_id":"levelo_inurba_marseille","lat":43.289705,"lon":5.378328,"is_reserved":false,"is_disabled":false,"rental_uris":{"android":"levelo://app?vid=22f14fb4-4534-48ab-a634-5e564ce11591","ios":"levelo://app?vid=22f14fb4-4534-48ab-a634-5e564ce11591"},"vehicle_type_id":"4","last_reported":1777457184,"current_range_meters":6000,"station_id":"ce4bh9p2rcd13ifvqed0","pricing_plan_id":"cebpf4jnsgd1na2vs0mg"},{"bike_id":"5cf5cac4-304b-4407-a8e5-357d3ab6bc0b","system_id":"levelo_inurba_marseille","lat":43.23892,"lon":5.37469,"is_reserved":false,"is_disabled":true,"rental_uris":{"android":"levelo://app?vid=5cf5cac4-304b-4407-a8e5-357d3ab6bc0b","ios":"levelo://app?vid=5cf5cac4-304b-4407-a8e5-357d3ab6bc0b"},"vehicle_type_id":"4","last_reported":1777457184,"current_range_meters":6000,"station_id":"st_d6sm7csbq4hs73f8fpjg","pricing_plan_id":"cebpf4jnsgd1na2vs0mg"},{"bike_id":"b1306161-b9c2-43c0-b07b-b659ec468b91","system_id":"levelo_inurba_marseille","lat":43.28169,"lon":5.4262,"is_reserved":false,"is_disabled":false,"rental_uris":{"android":"levelo://app?vid=b1306161-b9c2-43c0-b07b-b659ec468b91","ios":"levelo://app?vid=b1306161-b9c2-43c0-b07b-b659ec468b91"},"vehicle_type_id":"4","last_reported":1777457184,"current_range_meters":6000,"station_id":"ce4bhnh2rcd13ifvqgug","pricing_plan_id":"cebpf4jnsgd1na2vs0mg"},{"bike_id":"ccc64b12-fba8-4953-9e4c-789c15629674","system_id":"levelo_inurba_marseille","lat":43.2321,"lon":5.35087,"is_reserved":false,"is_disabled":false,"rental_uris":{"android":"levelo://app?vid=ccc64b12-fba8-4953-9e4c-789c15629674","ios":"levelo://app?vid=ccc64b12-fba8-4953-9e4c-789c15629674"},"vehicle_type_id":"4","last_reported":1777457184,"current_range_meters":6000,"station_id":"","pricing_plan_id":"cebpf4jnsgd1na2vs0mg"},{"bike_id":"57f90bd9-fa9d-42c1-93a4-bc60e7acd42f","system_id":"levelo_inurba_marseille","lat":43.26555,"lon":5.37296,"is_reserved":false,"is_disabled":true,"rental_uris":{"android":"levelo://app?vid=57f90bd9-fa9d-42c1-93a4-bc60e7acd42f","ios":"levelo://app?vid=57f90bd9-fa9d-42c1-93a4-bc60e7acd42f"},"vehicle_type_id":"4","last_reported":1777457184,"current_range_meters":6000,"station_id":"ce4bhg12rcd13ifvqf70","pricing_plan_id":"cebpf4jnsgd1na2vs0mg"},{"bike_id":"941db36d-88eb-4288-8211-5aa86c03813b","system_id":"levelo_inurba_marseille","lat":43.282634,"lon":5.350584,"is_reserved":false,"is_disabled":false,"rental_uris":{"android":"levelo://app?vid=941db36d-88eb-4288-8211-5aa86c03813b","ios":"levelo://app?vid=941db36d-88eb-4288-8211-5aa86c03813b"},"vehicle_type_id":"4","last_reported":1777457184,"current_range_meters":6000,"station_id":"","pricing_plan_id":"cebpf4jnsgd1na2vs0mg"},{"bike_id":"6eaa35f9-0728-457f-bee2-2d9fdfa0240f","system_id":"levelo_inurba_marseille","lat":43.25134,"lon":5.4033,"is_reserved":false,"is_disabled":false,"rental_uris":{"android":"levelo://app?vid=6eaa35f9-0728-457f-bee2-2d9fdfa0240f","ios":"levelo://app?vid=6eaa35f9-0728-457f-bee2-2d9fdfa0240f"},"vehicle_type_id":"4","last_reported":1777457184,"current_range_meters":6000,"station_id":"ce4bhlh2rcd13ifvqgig","pricing_plan_id":"cebpf4jnsgd1na2vs0mg"},{"bike_id":"80806b38-3a7c-430a-9640-357ebaa67cbd","system_id":"levelo_inurba_marseille","lat":43.30162,"lon":5.38081,"is_reserved":false,"is_disabled":false,"rental_uris":{"android":"levelo://app?vid=80806b38-3a7c-430a-9640-357ebaa67cbd","ios":"levelo://app?vid=80806b38-3a7c-430a-9640-357ebaa67cbd"},"vehicle_type_id":"4","last_reported":1777457184,"current_range_meters":6400,"station_id":"ce4bgjp2rcd13ifvqbh0","pricing_plan_id":"cebpf4jnsgd1na2vs0mg"},{"bike_id":"9019aea9-9102-4ebf-994e-f65667993005","system_id":"levelo_inurba_marseille","lat":43.30943,"lon":5.39043,"is_reserved":false,"is_disabled":false,"rental_uris":{"android":"levelo://app?vid=9019aea9-9102-4ebf-994e-f65667993005","ios":"levelo://app?vid=9019aea9-9102-4ebf-994e-f65667993005"},"vehicle_type_id":"4","last_reported":1777457184,"current_range_meters":6400,"station_id":"ce4bgup2rcd13ifvqco0","pricing_plan_id":"cebpf4jnsgd1na2vs0mg"},{"bike_id":"006ac7cb-3897-4bb5-af18-37c45ecbf388","system_id":"levelo_inurba_marseille","lat":43.30169,"lon":5.38105,"is_reserved":false,"is_disabled":false,"rental_uris":{"android":"levelo://app?vid=006ac7cb-3897-4bb5-af18-37c45ecbf388","ios":"levelo://app?vid=006ac7cb-3897-4bb5-af18-37c45ecbf388"},"vehicle_type_id":"4","last_reported":1777457184,"current_range_meters":6400,"station_id":"ce4bgjp2rcd13ifvqbh0","pricing_plan_id":"cebpf4jnsgd1na2vs0mg"},{"bike_id":"b5222c8e-94d6-4641-bdf4-bd555acf969f","system_id":"levelo_inurba_marseille","lat":43.29053,"lon":5.37575,"is_reserved":false,"is_disabled":false,"rental_uris":{"android":"levelo://app?vid=b5222c8e-94d6-4641-bdf4-bd555acf969f","ios":"levelo://app?vid=b5222c8e-94d6-4641-bdf4-bd555acf969f"},"vehicle_type_id":"4","last_reported":1777457184,"current_range_meters":6400,"station_id":"ce4bh692rcd13ifvqe90","pricing_plan_id":"cebpf4jnsgd1na2vs0mg"},{"bike_id":"2e409613-e92e-4c8f-ae10-8cbf504d1eea","system_id":"levelo_inurba_marseille","lat":43.2959,"lon":5.36747,"is_reserved":false,"is_disabled":false,"rental_uris":{"android":"levelo://app?vid=2e409613-e92e-4c8f-ae10-8cbf504d1eea","ios":"levelo://app?vid=2e409613-e92e-4c8f-ae10-8cbf504d1eea"},"vehicle_type_id":"4","last_reported":1777457184,"current_range_meters":6400,"station_id":"ce4bgph2rcd13ifvqc2g","pricing_plan_id":"cebpf4jnsgd1na2vs0mg"},{"bike_id":"64caf656-9c5b-4754-be7e-5471268d2436","system_id":"levelo_inurba_marseille","lat":43.29026,"lon":5.38644,"is_reserved":false,"is_disabled":true,"rental_uris":{"android":"levelo://app?vid=64caf656-9c5b-4754-be7e-5471268d2436","ios":"levelo://app?vid=64caf656-9c5b-4754-be7e-5471268d2436"},"vehicle_type_id":"4","last_reported":1777457184,"current_range_meters":6400,"station_id":"ce4bh4p2rcd13ifvqe0g","pricing_plan_id":"cebpf4jnsgd1na2vs0mg"},{"bike_id":"89c11dc1-7ca7-49f7-891f-b638c83b6bdb","system_id":"levelo_inurba_marseille","lat":43.29843,"lon":5.36272,"is_reserved":false,"is_disabled":false,"rental_uris":{"android":"levelo://app?vid=89c11dc1-7ca7-49f7-891f-b638c83b6bdb","ios":"levelo://app?vid=89c11dc1-7ca7-49f7-891f-b638c83b6bdb"},"vehicle_type_id":"4","last_reported":1777457184,"current_range_meters":6400,"station_id":"ce4bgpp2rcd13ifvqc3g","pricing_plan_id":"cebpf4jnsgd1na2vs0mg"},{"bike_id":"ea26fbb8-1fe9-45fd-86a8-020ce9ce5f0e","system_id":"levelo_inurba_marseille","lat":43.27059,"lon":5.39021,"is_reserved":false,"is_disabled":false,"rental_uris":{"android":"levelo://app?vid=ea26fbb8-1fe9-45fd-86a8-020ce9ce5f0e","ios":"levelo://app?vid=ea26fbb8-1fe9-45fd-86a8-020ce9ce5f0e"},"vehicle_type_id":"4","last_reported":1777457184,"current_range_meters":6400,"station_id":"","pricing_plan_id":"cebpf4jnsgd1na2vs0mg"},{"bike_id":"a7558007-58da-43c4-aa6d-d02713f12a01","system_id":"levelo_inurba_marseille","lat":43.28216,"lon":5.3507,"is_reserved":false,"is_disabled":false,"rental_uris":{"android":"levelo://app?vid=a7558007-58da-43c4-aa6d-d02713f12a01","ios":"levelo://app?vid=a7558007-58da-43c4-aa6d-d02713f12a01"},"vehicle_type_id":"4","last_reported":1777457184,"current_range_meters":6400,"station_id":"","pricing_plan_id":"cebpf4jnsgd1na2vs0mg"},{"bike_id":"5a082d0b-9dcd-4b27-b749-e7a082c3a4b6","system_id":"levelo_inurba_marseille","lat":43.25147,"lon":5.40488,"is_reserved":false,"is_disabled":false,"rental_uris":{"android":"levelo://app?vid=5a082d0b-9dcd-4b27-b749-e7a082c3a4b6","ios":"levelo://app?vid=5a082d0b-9dcd-4b27-b749-e7a082c3a4b6"},"vehicle_type_id":"4","last_reported":1777457184,"current_range_meters":6400,"station_id":"","pricing_plan_id":"cebpf4jnsgd1na2vs0mg"},{"bike_id":"ef3a68ef-5b94-411a-921f-f7cda00ffdfc","system_id":"levelo_inurba_marseille","lat":43.29478,"lon":5.39018,"is_reserved":false,"is_disabled":false,"rental_uris":{"android":"levelo://app?vid=ef3a68ef-5b94-411a-921f-f7cda00ffdfc","ios":"levelo://app?vid=ef3a68ef-5b94-411a-921f-f7cda00ffdfc"},"vehicle_type_id":"4","last_reported":1777457184,"current_range_meters":6400,"station_id":"ce4bh3p2rcd13ifvqdp0","pricing_plan_id":"cebpf4jnsgd1na2vs0mg"},{"bike_id":"742b7685-3be3-4ba9-8c51-03cd9f6413cc","system_id":"levelo_inurba_marseille","lat":43.2971,"lon":5.36611,"is_reserved":false,"is_disabled":false,"rental_uris":{"android":"levelo://app?vid=742b7685-3be3-4ba9-8c51-03cd9f6413cc","ios":"levelo://app?vid=742b7685-3be3-4ba9-8c51-03cd9f6413cc"},"vehicle_type_id":"4","last_reported":1777457184,"current_range_meters":6400,"station_id":"ce4bgn12rcd13ifvqbt0","pricing_plan_id":"cebpf4jnsgd1na2vs0mg"},{"bike_id":"c51f6228-ee34-4a4d-ac82-39c6d4f7d1aa","system_id":"levelo_inurba_marseille","lat":43.25535,"lon":5.39246,"is_reserved":false,"is_disabled":false,"rental_uris":{"android":"levelo://app?vid=c51f6228-ee34-4a4d-ac82-39c6d4f7d1aa","ios":"levelo://app?vid=c51f6228-ee34-4a4d-ac82-39c6d4f7d1aa"},"vehicle_type_id":"4","last_reported":1777457184,"current_range_meters":6400,"station_id":"","pricing_plan_id":"cebpf4jnsgd1na2vs0mg"},{"bike_id":"bf4c5276-338b-416a-bbfd-a52cca8a40cc","system_id":"levelo_inurba_marseille","lat":43.29258,"lon":5.36847,"is_reserved":false,"is_disabled":false,"rental_uris":{"android":"levelo://app?vid=bf4c5276-338b-416a-bbfd-a52cca8a40cc","ios":"levelo://app?vid=bf4c5276-338b-416a-bbfd-a52cca8a40cc"},"vehicle_type_id":"4","last_reported":1777457184,"current_range_meters":6400,"station_id":"ce4bhbp2rcd13ifvqesg","pricing_plan_id":"cebpf4jnsgd1na2vs0mg"},{"bike_id":"c02cc07d-3bf1-4bf9-a943-ac0ee1aa79d7","system_id":"levelo_inurba_marseille","lat":43.267783,"lon":5.394196,"is_reserved":false,"is_disabled":false,"rental_uris":{"android":"levelo://app?vid=c02cc07d-3bf1-4bf9-a943-ac0ee1aa79d7","ios":"levelo://app?vid=c02cc07d-3bf1-4bf9-a943-ac0ee1aa79d7"},"vehicle_type_id":"4","last_reported":1777457184,"current_range_meters":6400,"station_id":"ce4bhh12rcd13ifvqfg0","pricing_plan_id":"cebpf4jnsgd1na2vs0mg"},{"bike_id":"fb43f649-6bc3-47a7-98ab-0656859ca406","system_id":"levelo_inurba_marseille","lat":43.29728,"lon":5.37673,"is_reserved":false,"is_disabled":false,"rental_uris":{"android":"levelo://app?vid=fb43f649-6bc3-47a7-98ab-0656859ca406","ios":"levelo://app?vid=fb43f649-6bc3-47a7-98ab-0656859ca406"},"vehicle_type_id":"4","last_reported":1777457184,"current_range_meters":6800,"station_id":"ce4bgkh2rcd13ifvqbl0","pricing_plan_id":"cebpf4jnsgd1na2vs0mg"},{"bike_id":"d4d191c1-1e42-44ce-acaa-f4fdd3a7ce8e","system_id":"levelo_inurba_marseille","lat":43.28566,"lon":5.3857,"is_reserved":false,"is_disabled":false,"rental_uris":{"android":"levelo://app?vid=d4d191c1-1e42-44ce-acaa-f4fdd3a7ce8e","ios":"levelo://app?vid=d4d191c1-1e42-44ce-acaa-f4fdd3a7ce8e"},"vehicle_type_id":"4","last_reported":1777457184,"current_range_meters":6800,"station_id":"","pricing_plan_id":"cebpf4jnsgd1na2vs0mg"},{"bike_id":"a08922d2-462b-4db9-a9bf-da2172fd1117","system_id":"levelo_inurba_marseille","lat":43.31153,"lon":5.36828,"is_reserved":false,"is_disabled":false,"rental_uris":{"android":"levelo://app?vid=a08922d2-462b-4db9-a9bf-da2172fd1117","ios":"levelo://app?vid=a08922d2-462b-4db9-a9bf-da2172fd1117"},"vehicle_type_id":"4","last_reported":1777457184,"current_range_meters":6800,"station_id":"","pricing_plan_id":"cebpf4jnsgd1na2vs0mg"},{"bike_id":"ee5bca21-2a39-4c24-aced-c94d2451e251","system_id":"levelo_inurba_marseille","lat":43.28,"lon":5.4166,"is_reserved":false,"is_disabled":false,"rental_uris":{"android":"levelo://app?vid=ee5bca21-2a39-4c24-aced-c94d2451e251","ios":"levelo://app?vid=ee5bca21-2a39-4c24-aced-c94d2451e251"},"vehicle_type_id":"4","last_reported":1777457184,"current_range_meters":6800,"station_id":"ce4bho12rcd13ifvqh1g","pricing_plan_id":"cebpf4jnsgd1na2vs0mg"},{"bike_id":"469bbb0a-6457-4290-a976-55742311e2fe","system_id":"levelo_inurba_marseille","lat":43.25932,"lon":5.40922,"is_reserved":false,"is_disabled":false,"rental_uris":{"android":"levelo://app?vid=469bbb0a-6457-4290-a976-55742311e2fe","ios":"levelo://app?vid=469bbb0a-6457-4290-a976-55742311e2fe"},"vehicle_type_id":"4","last_reported":1777457184,"current_range_meters":6800,"station_id":"ce4bhm92rcd13ifvqglg","pricing_plan_id":"cebpf4jnsgd1na2vs0mg"},{"bike_id":"f11e3633-986d-40f4-8b5f-6b5e41220dfc","system_id":"levelo_inurba_marseille","lat":43.31909,"lon":5.36781,"is_reserved":false,"is_disabled":false,"rental_uris":{"android":"levelo://app?vid=f11e3633-986d-40f4-8b5f-6b5e41220dfc","ios":"levelo://app?vid=f11e3633-986d-40f4-8b5f-6b5e41220dfc"},"vehicle_type_id":"4","last_reported":1777457184,"current_range_meters":6800,"station_id":"st_d6o2h0d0559c73evc1b0","pricing_plan_id":"cebpf4jnsgd1na2vs0mg"},{"bike_id":"0256971e-927a-4136-bafd-665aafac7fc7","system_id":"levelo_inurba_marseille","lat":43.21743,"lon":5.34613,"is_reserved":false,"is_disabled":false,"rental_uris":{"android":"levelo://app?vid=0256971e-927a-4136-bafd-665aafac7fc7","ios":"levelo://app?vid=0256971e-927a-4136-bafd-665aafac7fc7"},"vehicle_type_id":"4","last_reported":1777457184,"current_range_meters":6800,"station_id":"st_cvj6r9ubvosntc0bgbag","pricing_plan_id":"cebpf4jnsgd1na2vs0mg"},{"bike_id":"b29a16db-8bd0-4541-a731-051b044146be","system_id":"levelo_inurba_marseille","lat":43.24958,"lon":5.40489,"is_reserved":false,"is_disabled":false,"rental_uris":{"android":"levelo://app?vid=b29a16db-8bd0-4541-a731-051b044146be","ios":"levelo://app?vid=b29a16db-8bd0-4541-a731-051b044146be"},"vehicle_type_id":"4","last_reported":1777457184,"current_range_meters":6800,"station_id":"st_d2ngiaodas8pm72gd1h0","pricing_plan_id":"cebpf4jnsgd1na2vs0mg"},{"bike_id":"28a0582e-4511-45b4-be10-534bd5cd6f09","system_id":"levelo_inurba_marseille","lat":43.28001,"lon":5.41665,"is_reserved":false,"is_disabled":false,"rental_uris":{"android":"levelo://app?vid=28a0582e-4511-45b4-be10-534bd5cd6f09","ios":"levelo://app?vid=28a0582e-4511-45b4-be10-534bd5cd6f09"},"vehicle_type_id":"4","last_reported":1777457184,"current_range_meters":6800,"station_id":"ce4bho12rcd13ifvqh1g","pricing_plan_id":"cebpf4jnsgd1na2vs0mg"},{"bike_id":"e5dab73a-e8a7-4eb4-8034-862b4def222b","system_id":"levelo_inurba_marseille","lat":43.32556,"lon":5.35712,"is_reserved":false,"is_disabled":false,"rental_uris":{"android":"levelo://app?vid=e5dab73a-e8a7-4eb4-8034-862b4def222b","ios":"levelo://app?vid=e5dab73a-e8a7-4eb4-8034-862b4def222b"},"vehicle_type_id":"4","last_reported":1777457184,"current_range_meters":6800,"station_id":"","pricing_plan_id":"cebpf4jnsgd1na2vs0mg"},{"bike_id":"90ed0480-16d6-4798-9192-d782e6ff54c8","system_id":"levelo_inurba_marseille","lat":43.30473,"lon":5.37909,"is_reserved":false,"is_disabled":false,"rental_uris":{"android":"levelo://app?vid=90ed0480-16d6-4798-9192-d782e6ff54c8","ios":"levelo://app?vid=90ed0480-16d6-4798-9192-d782e6ff54c8"},"vehicle_type_id":"4","last_reported":1777457184,"current_range_meters":6800,"station_id":"ce4bgup2rcd13ifvqcn0","pricing_plan_id":"cebpf4jnsgd1na2vs0mg"},{"bike_id":"ea36c9e8-58b8-4f79-a3ce-b396281d3b24","system_id":"levelo_inurba_marseille","lat":43.305074,"lon":5.380769,"is_reserved":false,"is_disabled":false,"rental_uris":{"android":"levelo://app?vid=ea36c9e8-58b8-4f79-a3ce-b396281d3b24","ios":"levelo://app?vid=ea36c9e8-58b8-4f79-a3ce-b396281d3b24"},"vehicle_type_id":"4","last_reported":1777457184,"current_range_meters":6800,"station_id":"","pricing_plan_id":"cebpf4jnsgd1na2vs0mg"},{"bike_id":"a3e850cf-825f-420f-84f8-6108bc66d19d","system_id":"levelo_inurba_marseille","lat":43.30142,"lon":5.37382,"is_reserved":false,"is_disabled":true,"rental_uris":{"android":"levelo://app?vid=a3e850cf-825f-420f-84f8-6108bc66d19d","ios":"levelo://app?vid=a3e850cf-825f-420f-84f8-6108bc66d19d"},"vehicle_type_id":"4","last_reported":1777457184,"current_range_meters":7200,"station_id":"ce4bgs92rcd13ifvqcc0","pricing_plan_id":"cebpf4jnsgd1na2vs0mg"},{"bike_id":"417af28d-6b89-48f0-aca0-cec7348986d3","system_id":"levelo_inurba_marseille","lat":43.29845,"lon":5.36281,"is_reserved":false,"is_disabled":false,"rental_uris":{"android":"levelo://app?vid=417af28d-6b89-48f0-aca0-cec7348986d3","ios":"levelo://app?vid=417af28d-6b89-48f0-aca0-cec7348986d3"},"vehicle_type_id":"4","last_reported":1777457184,"current_range_meters":7200,"station_id":"ce4bgpp2rcd13ifvqc3g","pricing_plan_id":"cebpf4jnsgd1na2vs0mg"},{"bike_id":"0fcf8d90-345e-45fb-9038-6d3bfbc1ea0c","system_id":"levelo_inurba_marseille","lat":43.30312,"lon":5.36897,"is_reserved":false,"is_disabled":false,"rental_uris":{"android":"levelo://app?vid=0fcf8d90-345e-45fb-9038-6d3bfbc1ea0c","ios":"levelo://app?vid=0fcf8d90-345e-45fb-9038-6d3bfbc1ea0c"},"vehicle_type_id":"4","last_reported":1777457184,"current_range_meters":7200,"station_id":"ce4bgqh2rcd13ifvqc5g","pricing_plan_id":"cebpf4jnsgd1na2vs0mg"},{"bike_id":"c5d87c94-f8c8-47f4-ae84-ea0b6e6ae165","system_id":"levelo_inurba_marseille","lat":43.26277,"lon":5.38903,"is_reserved":false,"is_disabled":false,"rental_uris":{"android":"levelo://app?vid=c5d87c94-f8c8-47f4-ae84-ea0b6e6ae165","ios":"levelo://app?vid=c5d87c94-f8c8-47f4-ae84-ea0b6e6ae165"},"vehicle_type_id":"4","last_reported":1777457184,"current_range_meters":7200,"station_id":"","pricing_plan_id":"cebpf4jnsgd1na2vs0mg"},{"bike_id":"94de3b3e-ce80-46a6-a82f-99c2fc04a394","system_id":"levelo_inurba_marseille","lat":43.30151,"lon":5.38096,"is_reserved":false,"is_disabled":false,"rental_uris":{"android":"levelo://app?vid=94de3b3e-ce80-46a6-a82f-99c2fc04a394","ios":"levelo://app?vid=94de3b3e-ce80-46a6-a82f-99c2fc04a394"},"vehicle_type_id":"4","last_reported":1777457184,"current_range_meters":7200,"station_id":"ce4bgjp2rcd13ifvqbh0","pricing_plan_id":"cebpf4jnsgd1na2vs0mg"},{"bike_id":"d226efaa-3395-4010-b4bf-6a57fa03b22f","system_id":"levelo_inurba_marseille","lat":43.30419,"lon":5.39755,"is_reserved":false,"is_disabled":false,"rental_uris":{"android":"levelo://app?vid=d226efaa-3395-4010-b4bf-6a57fa03b22f","ios":"levelo://app?vid=d226efaa-3395-4010-b4bf-6a57fa03b22f"},"vehicle_type_id":"4","last_reported":1777457184,"current_range_meters":7200,"station_id":"ce4bh092rcd13ifvqd20","pricing_plan_id":"cebpf4jnsgd1na2vs0mg"},{"bike_id":"007bdae8-b143-425f-a1a7-c03b3544c030","system_id":"levelo_inurba_marseille","lat":43.31336,"lon":5.36708,"is_reserved":false,"is_disabled":false,"rental_uris":{"android":"levelo://app?vid=007bdae8-b143-425f-a1a7-c03b3544c030","ios":"levelo://app?vid=007bdae8-b143-425f-a1a7-c03b3544c030"},"vehicle_type_id":"4","last_reported":1777457184,"current_range_meters":7200,"station_id":"ce4bgr92rcd13ifvqc6g","pricing_plan_id":"cebpf4jnsgd1na2vs0mg"},{"bike_id":"c46d8a22-772b-40f4-a01d-512476bc1bbf","system_id":"levelo_inurba_marseille","lat":43.24944,"lon":5.40491,"is_reserved":false,"is_disabled":false,"rental_uris":{"android":"levelo://app?vid=c46d8a22-772b-40f4-a01d-512476bc1bbf","ios":"levelo://app?vid=c46d8a22-772b-40f4-a01d-512476bc1bbf"},"vehicle_type_id":"4","last_reported":1777457184,"current_range_meters":7200,"station_id":"st_d2ngiaodas8pm72gd1h0","pricing_plan_id":"cebpf4jnsgd1na2vs0mg"},{"bike_id":"2a9f517f-dc7e-442a-8a6e-b3ad6200cb4e","system_id":"levelo_inurba_marseille","lat":43.33559,"lon":5.3744,"is_reserved":false,"is_disabled":false,"rental_uris":{"android":"levelo://app?vid=2a9f517f-dc7e-442a-8a6e-b3ad6200cb4e","ios":"levelo://app?vid=2a9f517f-dc7e-442a-8a6e-b3ad6200cb4e"},"vehicle_type_id":"4","last_reported":1777457184,"current_range_meters":7200,"station_id":"st_d46tts09ee8s73dlu43g","pricing_plan_id":"cebpf4jnsgd1na2vs0mg"},{"bike_id":"eb5e53f4-a003-4387-9fb9-a6673523de67","system_id":"levelo_inurba_marseille","lat":43.25517,"lon":5.37664,"is_reserved":false,"is_disabled":true,"rental_uris":{"android":"levelo://app?vid=eb5e53f4-a003-4387-9fb9-a6673523de67","ios":"levelo://app?vid=eb5e53f4-a003-4387-9fb9-a6673523de67"},"vehicle_type_id":"4","last_reported":1777457184,"current_range_meters":7200,"station_id":"ce4bhh12rcd13ifvqff0","pricing_plan_id":"cebpf4jnsgd1na2vs0mg"},{"bike_id":"550b61bf-024e-4f9e-9492-2a8f7afeae1e","system_id":"levelo_inurba_marseille","lat":43.30846,"lon":5.40511,"is_reserved":false,"is_disabled":false,"rental_uris":{"android":"levelo://app?vid=550b61bf-024e-4f9e-9492-2a8f7afeae1e","ios":"levelo://app?vid=550b61bf-024e-4f9e-9492-2a8f7afeae1e"},"vehicle_type_id":"4","last_reported":1777457184,"current_range_meters":7200,"station_id":"","pricing_plan_id":"cebpf4jnsgd1na2vs0mg"},{"bike_id":"55bac593-352e-4642-8639-19fe2b8d6c00","system_id":"levelo_inurba_marseille","lat":43.2765,"lon":5.3584,"is_reserved":false,"is_disabled":false,"rental_uris":{"android":"levelo://app?vid=55bac593-352e-4642-8639-19fe2b8d6c00","ios":"levelo://app?vid=55bac593-352e-4642-8639-19fe2b8d6c00"},"vehicle_type_id":"4","last_reported":1777457184,"current_range_meters":7200,"station_id":"","pricing_plan_id":"cebpf4jnsgd1na2vs0mg"},{"bike_id":"07baa9f5-a623-4a2e-86f5-d0c8354720a9","system_id":"levelo_inurba_marseille","lat":43.27836,"lon":5.39213,"is_reserved":false,"is_disabled":false,"rental_uris":{"android":"levelo://app?vid=07baa9f5-a623-4a2e-86f5-d0c8354720a9","ios":"levelo://app?vid=07baa9f5-a623-4a2e-86f5-d0c8354720a9"},"vehicle_type_id":"4","last_reported":1777457184,"current_range_meters":7200,"station_id":"ce4bhjp2rcd13ifvqga0","pricing_plan_id":"cebpf4jnsgd1na2vs0mg"},{"bike_id":"4c4fd5bf-edd1-4e64-bbba-8e4e3d30b47b","system_id":"levelo_inurba_marseille","lat":43.29522,"lon":5.433,"is_reserved":false,"is_disabled":false,"rental_uris":{"android":"levelo://app?vid=4c4fd5bf-edd1-4e64-bbba-8e4e3d30b47b","ios":"levelo://app?vid=4c4fd5bf-edd1-4e64-bbba-8e4e3d30b47b"},"vehicle_type_id":"4","last_reported":1777457184,"current_range_meters":7200,"station_id":"st_d3j5ugp08ojc73fj9d10","pricing_plan_id":"cebpf4jnsgd1na2vs0mg"},{"bike_id":"2a10f686-682c-496b-901a-a32615e53a51","system_id":"levelo_inurba_marseille","lat":43.31269,"lon":5.4018,"is_reserved":false,"is_disabled":false,"rental_uris":{"android":"levelo://app?vid=2a10f686-682c-496b-901a-a32615e53a51","ios":"levelo://app?vid=2a10f686-682c-496b-901a-a32615e53a51"},"vehicle_type_id":"4","last_reported":1777457184,"current_range_meters":7200,"station_id":"ce4bh092rcd13ifvqd30","pricing_plan_id":"cebpf4jnsgd1na2vs0mg"},{"bike_id":"02ca0286-1c6c-4647-8cae-548093d099b5","system_id":"levelo_inurba_marseille","lat":43.23892,"lon":5.37459,"is_reserved":false,"is_disabled":false,"rental_uris":{"android":"levelo://app?vid=02ca0286-1c6c-4647-8cae-548093d099b5","ios":"levelo://app?vid=02ca0286-1c6c-4647-8cae-548093d099b5"},"vehicle_type_id":"4","last_reported":1777457184,"current_range_meters":8000,"station_id":"st_d6sm7csbq4hs73f8fpjg","pricing_plan_id":"cebpf4jnsgd1na2vs0mg"},{"bike_id":"2aac5e51-6561-466f-8ce3-b3b2b88fe4ad","system_id":"levelo_inurba_marseille","lat":43.3057,"lon":5.3671,"is_reserved":false,"is_disabled":false,"rental_uris":{"android":"levelo://app?vid=2aac5e51-6561-466f-8ce3-b3b2b88fe4ad","ios":"levelo://app?vid=2aac5e51-6561-466f-8ce3-b3b2b88fe4ad"},"vehicle_type_id":"4","last_reported":1777457184,"current_range_meters":8000,"station_id":"ce4bgrp2rcd13ifvqc9g","pricing_plan_id":"cebpf4jnsgd1na2vs0mg"},{"bike_id":"4dbe00ec-feb8-4193-848e-b5324775416c","system_id":"levelo_inurba_marseille","lat":43.28417,"lon":5.34989,"is_reserved":false,"is_disabled":false,"rental_uris":{"android":"levelo://app?vid=4dbe00ec-feb8-4193-848e-b5324775416c","ios":"levelo://app?vid=4dbe00ec-feb8-4193-848e-b5324775416c"},"vehicle_type_id":"4","last_reported":1777457184,"current_range_meters":8000,"station_id":"ce4bhbh2rcd13ifvqepg","pricing_plan_id":"cebpf4jnsgd1na2vs0mg"},{"bike_id":"520b0305-48d7-4734-97bb-d7eb73e5dc09","system_id":"levelo_inurba_marseille","lat":43.26549,"lon":5.37275,"is_reserved":false,"is_disabled":true,"rental_uris":{"android":"levelo://app?vid=520b0305-48d7-4734-97bb-d7eb73e5dc09","ios":"levelo://app?vid=520b0305-48d7-4734-97bb-d7eb73e5dc09"},"vehicle_type_id":"4","last_reported":1777457184,"current_range_meters":8000,"station_id":"ce4bhg12rcd13ifvqf70","pricing_plan_id":"cebpf4jnsgd1na2vs0mg"},{"bike_id":"e1d26622-7491-4fdf-a6f0-77cbc7cac2ef","system_id":"levelo_inurba_marseille","lat":43.24165,"lon":5.36403,"is_reserved":false,"is_disabled":false,"rental_uris":{"android":"levelo://app?vid=e1d26622-7491-4fdf-a6f0-77cbc7cac2ef","ios":"levelo://app?vid=e1d26622-7491-4fdf-a6f0-77cbc7cac2ef"},"vehicle_type_id":"4","last_reported":1777457184,"current_range_meters":8000,"station_id":"cpo36qri1sfpv3e86is0","pricing_plan_id":"cebpf4jnsgd1na2vs0mg"},{"bike_id":"acb63e31-28e9-458b-bd3d-23462617804d","system_id":"levelo_inurba_marseille","lat":43.30318,"lon":5.36897,"is_reserved":false,"is_disabled":false,"rental_uris":{"android":"levelo://app?vid=acb63e31-28e9-458b-bd3d-23462617804d","ios":"levelo://app?vid=acb63e31-28e9-458b-bd3d-23462617804d"},"vehicle_type_id":"4","last_reported":1777457184,"current_range_meters":8000,"station_id":"ce4bgqh2rcd13ifvqc5g","pricing_plan_id":"cebpf4jnsgd1na2vs0mg"},{"bike_id":"1bb8344f-1db0-45ef-ad3e-3af45d1f5a9f","system_id":"levelo_inurba_marseille","lat":43.2574,"lon":5.387,"is_reserved":false,"is_disabled":false,"rental_uris":{"android":"levelo://app?vid=1bb8344f-1db0-45ef-ad3e-3af45d1f5a9f","ios":"levelo://app?vid=1bb8344f-1db0-45ef-ad3e-3af45d1f5a9f"},"vehicle_type_id":"4","last_reported":1777457184,"current_range_meters":8000,"station_id":"","pricing_plan_id":"cebpf4jnsgd1na2vs0mg"},{"bike_id":"fdb0f751-e4c5-4bc0-ae71-09c5211e2383","system_id":"levelo_inurba_marseille","lat":43.29599,"lon":5.37513,"is_reserved":false,"is_disabled":false,"rental_uris":{"android":"levelo://app?vid=fdb0f751-e4c5-4bc0-ae71-09c5211e2383","ios":"levelo://app?vid=fdb0f751-e4c5-4bc0-ae71-09c5211e2383"},"vehicle_type_id":"4","last_reported":1777457184,"current_range_meters":8000,"station_id":"ce4bgh92rcd13ifvqb50","pricing_plan_id":"cebpf4jnsgd1na2vs0mg"},{"bike_id":"737d68a5-eec5-441b-8644-6998ab9b6ea1","system_id":"levelo_inurba_marseille","lat":43.2871,"lon":5.39985,"is_reserved":false,"is_disabled":true,"rental_uris":{"android":"levelo://app?vid=737d68a5-eec5-441b-8644-6998ab9b6ea1","ios":"levelo://app?vid=737d68a5-eec5-441b-8644-6998ab9b6ea1"},"vehicle_type_id":"4","last_reported":1777457184,"current_range_meters":8000,"station_id":"ce4bho92rcd13ifvqh3g","pricing_plan_id":"cebpf4jnsgd1na2vs0mg"},{"bike_id":"fb48eb95-a721-45e3-a917-4c0e5102e02d","system_id":"levelo_inurba_marseille","lat":43.23203,"lon":5.35533,"is_reserved":false,"is_disabled":false,"rental_uris":{"android":"levelo://app?vid=fb48eb95-a721-45e3-a917-4c0e5102e02d","ios":"levelo://app?vid=fb48eb95-a721-45e3-a917-4c0e5102e02d"},"vehicle_type_id":"4","last_reported":1777457184,"current_range_meters":8000,"station_id":"ce4bhu92rcd13ifvqi70","pricing_plan_id":"cebpf4jnsgd1na2vs0mg"},{"bike_id":"28119ca7-2788-44de-96bd-34d0891073e7","system_id":"levelo_inurba_marseille","lat":43.31543,"lon":5.36464,"is_reserved":false,"is_disabled":false,"rental_uris":{"android":"levelo://app?vid=28119ca7-2788-44de-96bd-34d0891073e7","ios":"levelo://app?vid=28119ca7-2788-44de-96bd-34d0891073e7"},"vehicle_type_id":"4","last_reported":1777457184,"current_range_meters":8000,"station_id":"","pricing_plan_id":"cebpf4jnsgd1na2vs0mg"},{"bike_id":"e86fde7f-f309-4c5c-9613-864f1a66fd8e","system_id":"levelo_inurba_marseille","lat":43.2888,"lon":5.42516,"is_reserved":false,"is_disabled":false,"rental_uris":{"android":"levelo://app?vid=e86fde7f-f309-4c5c-9613-864f1a66fd8e","ios":"levelo://app?vid=e86fde7f-f309-4c5c-9613-864f1a66fd8e"},"vehicle_type_id":"4","last_reported":1777457184,"current_range_meters":8000,"station_id":"st_d3b462108ojc7389ooeg","pricing_plan_id":"cebpf4jnsgd1na2vs0mg"},{"bike_id":"a6a7e439-2b8e-40ed-81ca-7f49b40dc9a0","system_id":"levelo_inurba_marseille","lat":43.26573,"lon":5.38998,"is_reserved":false,"is_disabled":false,"rental_uris":{"android":"levelo://app?vid=a6a7e439-2b8e-40ed-81ca-7f49b40dc9a0","ios":"levelo://app?vid=a6a7e439-2b8e-40ed-81ca-7f49b40dc9a0"},"vehicle_type_id":"4","last_reported":1777457184,"current_range_meters":8400,"station_id":"ce4bhe12rcd13ifvqf30","pricing_plan_id":"cebpf4jnsgd1na2vs0mg"},{"bike_id":"65ab8ba8-b923-4e2e-9c5c-d430fb37066d","system_id":"levelo_inurba_marseille","lat":43.29197,"lon":5.35809,"is_reserved":false,"is_disabled":false,"rental_uris":{"android":"levelo://app?vid=65ab8ba8-b923-4e2e-9c5c-d430fb37066d","ios":"levelo://app?vid=65ab8ba8-b923-4e2e-9c5c-d430fb37066d"},"vehicle_type_id":"4","last_reported":1777457184,"current_range_meters":8400,"station_id":"ce4bhb12rcd13ifvqel0","pricing_plan_id":"cebpf4jnsgd1na2vs0mg"},{"bike_id":"0f9fd773-714d-443b-964a-e7fb1113b017","system_id":"levelo_inurba_marseille","lat":43.28612,"lon":5.35121,"is_reserved":false,"is_disabled":false,"rental_uris":{"android":"levelo://app?vid=0f9fd773-714d-443b-964a-e7fb1113b017","ios":"levelo://app?vid=0f9fd773-714d-443b-964a-e7fb1113b017"},"vehicle_type_id":"4","last_reported":1777457184,"current_range_meters":8400,"station_id":"ce4bhch2rcd13ifvqeug","pricing_plan_id":"cebpf4jnsgd1na2vs0mg"},{"bike_id":"bbc2f778-ecf6-4419-b9a7-78a6f4492f95","system_id":"levelo_inurba_marseille","lat":43.292273,"lon":5.360653,"is_reserved":false,"is_disabled":false,"rental_uris":{"android":"levelo://app?vid=bbc2f778-ecf6-4419-b9a7-78a6f4492f95","ios":"levelo://app?vid=bbc2f778-ecf6-4419-b9a7-78a6f4492f95"},"vehicle_type_id":"4","last_reported":1777457184,"current_range_meters":8400,"station_id":"ce4bhbh2rcd13ifvqeqg","pricing_plan_id":"cebpf4jnsgd1na2vs0mg"},{"bike_id":"146883f7-ce79-4e13-8aa4-fa49231b74ec","system_id":"levelo_inurba_marseille","lat":43.28443,"lon":5.39179,"is_reserved":false,"is_disabled":false,"rental_uris":{"android":"levelo://app?vid=146883f7-ce79-4e13-8aa4-fa49231b74ec","ios":"levelo://app?vid=146883f7-ce79-4e13-8aa4-fa49231b74ec"},"vehicle_type_id":"4","last_reported":1777457184,"current_range_meters":8400,"station_id":"ce4bhoh2rcd13ifvqh5g","pricing_plan_id":"cebpf4jnsgd1na2vs0mg"},{"bike_id":"d2ff302a-3be9-42b6-9eb6-2d6a779ca762","system_id":"levelo_inurba_marseille","lat":43.31324,"lon":5.36675,"is_reserved":false,"is_disabled":false,"rental_uris":{"android":"levelo://app?vid=d2ff302a-3be9-42b6-9eb6-2d6a779ca762","ios":"levelo://app?vid=d2ff302a-3be9-42b6-9eb6-2d6a779ca762"},"vehicle_type_id":"4","last_reported":1777457184,"current_range_meters":8400,"station_id":"ce4bgr92rcd13ifvqc6g","pricing_plan_id":"cebpf4jnsgd1na2vs0mg"},{"bike_id":"8c2ebc41-7bef-4c6d-91ac-124371586248","system_id":"levelo_inurba_marseille","lat":43.25585,"lon":5.38211,"is_reserved":false,"is_disabled":false,"rental_uris":{"android":"levelo://app?vid=8c2ebc41-7bef-4c6d-91ac-124371586248","ios":"levelo://app?vid=8c2ebc41-7bef-4c6d-91ac-124371586248"},"vehicle_type_id":"4","last_reported":1777457184,"current_range_meters":8400,"station_id":"ce4bhih2rcd13ifvqfs0","pricing_plan_id":"cebpf4jnsgd1na2vs0mg"},{"bike_id":"acc57406-75de-43a2-a6ec-d941193f0be0","system_id":"levelo_inurba_marseille","lat":43.32362,"lon":5.36723,"is_reserved":false,"is_disabled":false,"rental_uris":{"android":"levelo://app?vid=acc57406-75de-43a2-a6ec-d941193f0be0","ios":"levelo://app?vid=acc57406-75de-43a2-a6ec-d941193f0be0"},"vehicle_type_id":"4","last_reported":1777457184,"current_range_meters":8400,"station_id":"ce4bhsh2rcd13ifvqi2g","pricing_plan_id":"cebpf4jnsgd1na2vs0mg"},{"bike_id":"415c3cd0-0758-4107-9b7b-81f4e056eadb","system_id":"levelo_inurba_marseille","lat":43.25115,"lon":5.40328,"is_reserved":false,"is_disabled":false,"rental_uris":{"android":"levelo://app?vid=415c3cd0-0758-4107-9b7b-81f4e056eadb","ios":"levelo://app?vid=415c3cd0-0758-4107-9b7b-81f4e056eadb"},"vehicle_type_id":"4","last_reported":1777457184,"current_range_meters":8400,"station_id":"ce4bhlh2rcd13ifvqgig","pricing_plan_id":"cebpf4jnsgd1na2vs0mg"},{"bike_id":"6eaae871-0a05-412a-9bc2-1e7ae31c884a","system_id":"levelo_inurba_marseille","lat":43.26218,"lon":5.37923,"is_reserved":false,"is_disabled":false,"rental_uris":{"android":"levelo://app?vid=6eaae871-0a05-412a-9bc2-1e7ae31c884a","ios":"levelo://app?vid=6eaae871-0a05-412a-9bc2-1e7ae31c884a"},"vehicle_type_id":"4","last_reported":1777457184,"current_range_meters":8400,"station_id":"ce4bhjp2rcd13ifvqg90","pricing_plan_id":"cebpf4jnsgd1na2vs0mg"},{"bike_id":"0249f9d2-5ae9-4c2b-b1bb-bd92f204456e","system_id":"levelo_inurba_marseille","lat":43.30479,"lon":5.37903,"is_reserved":false,"is_disabled":false,"rental_uris":{"android":"levelo://app?vid=0249f9d2-5ae9-4c2b-b1bb-bd92f204456e","ios":"levelo://app?vid=0249f9d2-5ae9-4c2b-b1bb-bd92f204456e"},"vehicle_type_id":"4","last_reported":1777457184,"current_range_meters":8400,"station_id":"ce4bgup2rcd13ifvqcn0","pricing_plan_id":"cebpf4jnsgd1na2vs0mg"},{"bike_id":"bafe7f5e-9ccc-4fc9-b495-711f5023462f","system_id":"levelo_inurba_marseille","lat":43.3367,"lon":5.40911,"is_reserved":false,"is_disabled":false,"rental_uris":{"android":"levelo://app?vid=bafe7f5e-9ccc-4fc9-b495-711f5023462f","ios":"levelo://app?vid=bafe7f5e-9ccc-4fc9-b495-711f5023462f"},"vehicle_type_id":"4","last_reported":1777457184,"current_range_meters":8400,"station_id":"ce4bhqh2rcd13ifvqhmg","pricing_plan_id":"cebpf4jnsgd1na2vs0mg"},{"bike_id":"b91f4f99-7987-40ea-afbb-1e1af65ec675","system_id":"levelo_inurba_marseille","lat":43.2943,"lon":5.40894,"is_reserved":false,"is_disabled":false,"rental_uris":{"android":"levelo://app?vid=b91f4f99-7987-40ea-afbb-1e1af65ec675","ios":"levelo://app?vid=b91f4f99-7987-40ea-afbb-1e1af65ec675"},"vehicle_type_id":"4","last_reported":1777457184,"current_range_meters":8400,"station_id":"","pricing_plan_id":"cebpf4jnsgd1na2vs0mg"},{"bike_id":"4189a4e5-e32d-4ace-ba57-e9194861ce03","system_id":"levelo_inurba_marseille","lat":43.25581,"lon":5.38228,"is_reserved":false,"is_disabled":false,"rental_uris":{"android":"levelo://app?vid=4189a4e5-e32d-4ace-ba57-e9194861ce03","ios":"levelo://app?vid=4189a4e5-e32d-4ace-ba57-e9194861ce03"},"vehicle_type_id":"4","last_reported":1777457184,"current_range_meters":8400,"station_id":"ce4bhih2rcd13ifvqfs0","pricing_plan_id":"cebpf4jnsgd1na2vs0mg"},{"bike_id":"e6355fa9-1eb3-4f3e-acd6-83718451c66f","system_id":"levelo_inurba_marseille","lat":43.25582,"lon":5.38225,"is_reserved":false,"is_disabled":false,"rental_uris":{"android":"levelo://app?vid=e6355fa9-1eb3-4f3e-acd6-83718451c66f","ios":"levelo://app?vid=e6355fa9-1eb3-4f3e-acd6-83718451c66f"},"vehicle_type_id":"4","last_reported":1777457184,"current_range_meters":8400,"station_id":"ce4bhih2rcd13ifvqfs0","pricing_plan_id":"cebpf4jnsgd1na2vs0mg"},{"bike_id":"b5592bc3-7c5d-4ba9-b1ae-b173928aef8c","system_id":"levelo_inurba_marseille","lat":43.28489,"lon":5.4838,"is_reserved":false,"is_disabled":false,"rental_uris":{"android":"levelo://app?vid=b5592bc3-7c5d-4ba9-b1ae-b173928aef8c","ios":"levelo://app?vid=b5592bc3-7c5d-4ba9-b1ae-b173928aef8c"},"vehicle_type_id":"4","last_reported":1777457184,"current_range_meters":8800,"station_id":"","pricing_plan_id":"cebpf4jnsgd1na2vs0mg"},{"bike_id":"b4a497ea-222e-419c-a826-4feb72e6ade8","system_id":"levelo_inurba_marseille","lat":43.28701,"lon":5.46682,"is_reserved":false,"is_disabled":false,"rental_uris":{"android":"levelo://app?vid=b4a497ea-222e-419c-a826-4feb72e6ade8","ios":"levelo://app?vid=b4a497ea-222e-419c-a826-4feb72e6ade8"},"vehicle_type_id":"4","last_reported":1777457184,"current_range_meters":8800,"station_id":"st_d6tc3vkotcvc738tfjhg","pricing_plan_id":"cebpf4jnsgd1na2vs0mg"},{"bike_id":"c62dd68e-1420-4f1f-9f98-ec3aebe502eb","system_id":"levelo_inurba_marseille","lat":43.31843,"lon":5.38514,"is_reserved":false,"is_disabled":false,"rental_uris":{"android":"levelo://app?vid=c62dd68e-1420-4f1f-9f98-ec3aebe502eb","ios":"levelo://app?vid=c62dd68e-1420-4f1f-9f98-ec3aebe502eb"},"vehicle_type_id":"4","last_reported":1777457184,"current_range_meters":8800,"station_id":"","pricing_plan_id":"cebpf4jnsgd1na2vs0mg"},{"bike_id":"700e9ac8-2abc-424e-9e74-e38ad1f3ac54","system_id":"levelo_inurba_marseille","lat":43.28167,"lon":5.4265,"is_reserved":false,"is_disabled":false,"rental_uris":{"android":"levelo://app?vid=700e9ac8-2abc-424e-9e74-e38ad1f3ac54","ios":"levelo://app?vid=700e9ac8-2abc-424e-9e74-e38ad1f3ac54"},"vehicle_type_id":"4","last_reported":1777457184,"current_range_meters":8800,"station_id":"ce4bhnh2rcd13ifvqgug","pricing_plan_id":"cebpf4jnsgd1na2vs0mg"},{"bike_id":"ac76ae09-5b0b-47f0-a217-e30754959f4b","system_id":"levelo_inurba_marseille","lat":43.30543,"lon":5.36509,"is_reserved":false,"is_disabled":false,"rental_uris":{"android":"levelo://app?vid=ac76ae09-5b0b-47f0-a217-e30754959f4b","ios":"levelo://app?vid=ac76ae09-5b0b-47f0-a217-e30754959f4b"},"vehicle_type_id":"4","last_reported":1777457184,"current_range_meters":8800,"station_id":"ce4bgs12rcd13ifvqcag","pricing_plan_id":"cebpf4jnsgd1na2vs0mg"},{"bike_id":"0f683579-894c-42cb-98b8-9180a95dd1f2","system_id":"levelo_inurba_marseille","lat":43.317,"lon":5.40472,"is_reserved":false,"is_disabled":false,"rental_uris":{"android":"levelo://app?vid=0f683579-894c-42cb-98b8-9180a95dd1f2","ios":"levelo://app?vid=0f683579-894c-42cb-98b8-9180a95dd1f2"},"vehicle_type_id":"4","last_reported":1777457184,"current_range_meters":8800,"station_id":"ce4bh012rcd13ifvqd00","pricing_plan_id":"cebpf4jnsgd1na2vs0mg"},{"bike_id":"20c418db-2f1d-4a9c-9013-660ef304788e","system_id":"levelo_inurba_marseille","lat":43.32344,"lon":5.36697,"is_reserved":false,"is_disabled":false,"rental_uris":{"android":"levelo://app?vid=20c418db-2f1d-4a9c-9013-660ef304788e","ios":"levelo://app?vid=20c418db-2f1d-4a9c-9013-660ef304788e"},"vehicle_type_id":"4","last_reported":1777457184,"current_range_meters":8800,"station_id":"","pricing_plan_id":"cebpf4jnsgd1na2vs0mg"},{"bike_id":"c3e1eb3b-ce0d-4c5a-882d-61b4a2662f9b","system_id":"levelo_inurba_marseille","lat":43.28681,"lon":5.38671,"is_reserved":false,"is_disabled":false,"rental_uris":{"android":"levelo://app?vid=c3e1eb3b-ce0d-4c5a-882d-61b4a2662f9b","ios":"levelo://app?vid=c3e1eb3b-ce0d-4c5a-882d-61b4a2662f9b"},"vehicle_type_id":"4","last_reported":1777457184,"current_range_meters":8800,"station_id":"ce4bh492rcd13ifvqdug","pricing_plan_id":"cebpf4jnsgd1na2vs0mg"},{"bike_id":"e872ca52-f51c-4b1a-a5fe-8d2be6b3e7e1","system_id":"levelo_inurba_marseille","lat":43.23149,"lon":5.43728,"is_reserved":false,"is_disabled":false,"rental_uris":{"android":"levelo://app?vid=e872ca52-f51c-4b1a-a5fe-8d2be6b3e7e1","ios":"levelo://app?vid=e872ca52-f51c-4b1a-a5fe-8d2be6b3e7e1"},"vehicle_type_id":"4","last_reported":1777457184,"current_range_meters":8800,"station_id":"ce4bhmp2rcd13ifvqgog","pricing_plan_id":"cebpf4jnsgd1na2vs0mg"},{"bike_id":"c91b70d8-a700-45b7-b674-7eb236c9741e","system_id":"levelo_inurba_marseille","lat":43.30312,"lon":5.3689,"is_reserved":false,"is_disabled":false,"rental_uris":{"android":"levelo://app?vid=c91b70d8-a700-45b7-b674-7eb236c9741e","ios":"levelo://app?vid=c91b70d8-a700-45b7-b674-7eb236c9741e"},"vehicle_type_id":"4","last_reported":1777457184,"current_range_meters":8800,"station_id":"ce4bgqh2rcd13ifvqc5g","pricing_plan_id":"cebpf4jnsgd1na2vs0mg"},{"bike_id":"a8725ac2-9ac9-4bb1-b76b-eda7dfc664e2","system_id":"levelo_inurba_marseille","lat":43.31214,"lon":5.36913,"is_reserved":false,"is_disabled":false,"rental_uris":{"android":"levelo://app?vid=a8725ac2-9ac9-4bb1-b76b-eda7dfc664e2","ios":"levelo://app?vid=a8725ac2-9ac9-4bb1-b76b-eda7dfc664e2"},"vehicle_type_id":"4","last_reported":1777457184,"current_range_meters":8800,"station_id":"ce4bgl92rcd13ifvqbq0","pricing_plan_id":"cebpf4jnsgd1na2vs0mg"},{"bike_id":"7585ebf4-1481-4770-a888-a211fa567653","system_id":"levelo_inurba_marseille","lat":43.29574,"lon":5.37516,"is_reserved":false,"is_disabled":false,"rental_uris":{"android":"levelo://app?vid=7585ebf4-1481-4770-a888-a211fa567653","ios":"levelo://app?vid=7585ebf4-1481-4770-a888-a211fa567653"},"vehicle_type_id":"4","last_reported":1777457184,"current_range_meters":8800,"station_id":"ce4bgh92rcd13ifvqb50","pricing_plan_id":"cebpf4jnsgd1na2vs0mg"},{"bike_id":"1d6d59ce-b99b-4c93-9eb0-a893b79f8432","system_id":"levelo_inurba_marseille","lat":43.31291,"lon":5.36899,"is_reserved":false,"is_disabled":false,"rental_uris":{"android":"levelo://app?vid=1d6d59ce-b99b-4c93-9eb0-a893b79f8432","ios":"levelo://app?vid=1d6d59ce-b99b-4c93-9eb0-a893b79f8432"},"vehicle_type_id":"4","last_reported":1777457184,"current_range_meters":8800,"station_id":"ce4bgl92rcd13ifvqbq0","pricing_plan_id":"cebpf4jnsgd1na2vs0mg"},{"bike_id":"907b975e-fb54-4198-ad71-0a6fda3075d0","system_id":"levelo_inurba_marseille","lat":43.29864,"lon":5.39743,"is_reserved":false,"is_disabled":true,"rental_uris":{"android":"levelo://app?vid=907b975e-fb54-4198-ad71-0a6fda3075d0","ios":"levelo://app?vid=907b975e-fb54-4198-ad71-0a6fda3075d0"},"vehicle_type_id":"4","last_reported":1777457184,"current_range_meters":8800,"station_id":"ce4bh0h2rcd13ifvqd50","pricing_plan_id":"cebpf4jnsgd1na2vs0mg"},{"bike_id":"d17872a0-ae79-4c20-816d-f97b619fe9be","system_id":"levelo_inurba_marseille","lat":43.29712,"lon":5.36606,"is_reserved":false,"is_disabled":false,"rental_uris":{"android":"levelo://app?vid=d17872a0-ae79-4c20-816d-f97b619fe9be","ios":"levelo://app?vid=d17872a0-ae79-4c20-816d-f97b619fe9be"},"vehicle_type_id":"4","last_reported":1777457184,"current_range_meters":8800,"station_id":"ce4bgn12rcd13ifvqbt0","pricing_plan_id":"cebpf4jnsgd1na2vs0mg"},{"bike_id":"f24fe35e-4dfd-44bd-897a-bf94f7f877b2","system_id":"levelo_inurba_marseille","lat":43.30424,"lon":5.38902,"is_reserved":false,"is_disabled":false,"rental_uris":{"android":"levelo://app?vid=f24fe35e-4dfd-44bd-897a-bf94f7f877b2","ios":"levelo://app?vid=f24fe35e-4dfd-44bd-897a-bf94f7f877b2"},"vehicle_type_id":"4","last_reported":1777457184,"current_range_meters":8800,"station_id":"ce4bgk12rcd13ifvqbi0","pricing_plan_id":"cebpf4jnsgd1na2vs0mg"},{"bike_id":"a496669f-42ea-4ec8-b909-b71bb128370f","system_id":"levelo_inurba_marseille","lat":43.33537,"lon":5.37451,"is_reserved":false,"is_disabled":false,"rental_uris":{"android":"levelo://app?vid=a496669f-42ea-4ec8-b909-b71bb128370f","ios":"levelo://app?vid=a496669f-42ea-4ec8-b909-b71bb128370f"},"vehicle_type_id":"4","last_reported":1777457184,"current_range_meters":8800,"station_id":"st_d46tts09ee8s73dlu43g","pricing_plan_id":"cebpf4jnsgd1na2vs0mg"},{"bike_id":"6f2719a6-e990-4c38-a5fb-6fe88070ce3b","system_id":"levelo_inurba_marseille","lat":43.30185,"lon":5.36603,"is_reserved":false,"is_disabled":false,"rental_uris":{"android":"levelo://app?vid=6f2719a6-e990-4c38-a5fb-6fe88070ce3b","ios":"levelo://app?vid=6f2719a6-e990-4c38-a5fb-6fe88070ce3b"},"vehicle_type_id":"4","last_reported":1777457184,"current_range_meters":8800,"station_id":"ce4bgrh2rcd13ifvqc8g","pricing_plan_id":"cebpf4jnsgd1na2vs0mg"},{"bike_id":"158a06dc-7583-41bf-887f-33551171e0c2","system_id":"levelo_inurba_marseille","lat":43.23154,"lon":5.43704,"is_reserved":false,"is_disabled":false,"rental_uris":{"android":"levelo://app?vid=158a06dc-7583-41bf-887f-33551171e0c2","ios":"levelo://app?vid=158a06dc-7583-41bf-887f-33551171e0c2"},"vehicle_type_id":"4","last_reported":1777457184,"current_range_meters":8800,"station_id":"ce4bhmp2rcd13ifvqgog","pricing_plan_id":"cebpf4jnsgd1na2vs0mg"},{"bike_id":"f2c23b13-d2a3-41a2-86d4-1dd864227967","system_id":"levelo_inurba_marseille","lat":43.24941,"lon":5.405,"is_reserved":false,"is_disabled":false,"rental_uris":{"android":"levelo://app?vid=f2c23b13-d2a3-41a2-86d4-1dd864227967","ios":"levelo://app?vid=f2c23b13-d2a3-41a2-86d4-1dd864227967"},"vehicle_type_id":"4","last_reported":1777457184,"current_range_meters":8800,"station_id":"st_d2ngiaodas8pm72gd1h0","pricing_plan_id":"cebpf4jnsgd1na2vs0mg"},{"bike_id":"14015fc9-b839-4138-b4d5-9a2f5afbe521","system_id":"levelo_inurba_marseille","lat":43.29174,"lon":5.42673,"is_reserved":false,"is_disabled":false,"rental_uris":{"android":"levelo://app?vid=14015fc9-b839-4138-b4d5-9a2f5afbe521","ios":"levelo://app?vid=14015fc9-b839-4138-b4d5-9a2f5afbe521"},"vehicle_type_id":"4","last_reported":1777457184,"current_range_meters":8800,"station_id":"","pricing_plan_id":"cebpf4jnsgd1na2vs0mg"},{"bike_id":"2ca43f54-bbdb-461d-882b-46d781b57eab","system_id":"levelo_inurba_marseille","lat":43.31344,"lon":5.36716,"is_reserved":false,"is_disabled":false,"rental_uris":{"android":"levelo://app?vid=2ca43f54-bbdb-461d-882b-46d781b57eab","ios":"levelo://app?vid=2ca43f54-bbdb-461d-882b-46d781b57eab"},"vehicle_type_id":"4","last_reported":1777457184,"current_range_meters":8800,"station_id":"ce4bgr92rcd13ifvqc6g","pricing_plan_id":"cebpf4jnsgd1na2vs0mg"},{"bike_id":"196939d7-8120-4fa4-8a8f-be34c3561853","system_id":"levelo_inurba_marseille","lat":43.31899,"lon":5.36814,"is_reserved":false,"is_disabled":false,"rental_uris":{"android":"levelo://app?vid=196939d7-8120-4fa4-8a8f-be34c3561853","ios":"levelo://app?vid=196939d7-8120-4fa4-8a8f-be34c3561853"},"vehicle_type_id":"4","last_reported":1777457184,"current_range_meters":8800,"station_id":"st_d6o2h0d0559c73evc1b0","pricing_plan_id":"cebpf4jnsgd1na2vs0mg"},{"bike_id":"3fcff056-3581-4f98-8957-d5d3407fe0b6","system_id":"levelo_inurba_marseille","lat":43.26783,"lon":5.3948,"is_reserved":false,"is_disabled":false,"rental_uris":{"android":"levelo://app?vid=3fcff056-3581-4f98-8957-d5d3407fe0b6","ios":"levelo://app?vid=3fcff056-3581-4f98-8957-d5d3407fe0b6"},"vehicle_type_id":"4","last_reported":1777457184,"current_range_meters":8800,"station_id":"","pricing_plan_id":"cebpf4jnsgd1na2vs0mg"},{"bike_id":"93b13b9e-0842-4649-88de-644dbf6c103a","system_id":"levelo_inurba_marseille","lat":43.26462,"lon":5.42052,"is_reserved":false,"is_disabled":false,"rental_uris":{"android":"levelo://app?vid=93b13b9e-0842-4649-88de-644dbf6c103a","ios":"levelo://app?vid=93b13b9e-0842-4649-88de-644dbf6c103a"},"vehicle_type_id":"4","last_reported":1777457184,"current_range_meters":9200,"station_id":"","pricing_plan_id":"cebpf4jnsgd1na2vs0mg"},{"bike_id":"0438d68d-b4c6-4b23-a7e1-82657231ebe9","system_id":"levelo_inurba_marseille","lat":43.28492,"lon":5.48362,"is_reserved":false,"is_disabled":false,"rental_uris":{"android":"levelo://app?vid=0438d68d-b4c6-4b23-a7e1-82657231ebe9","ios":"levelo://app?vid=0438d68d-b4c6-4b23-a7e1-82657231ebe9"},"vehicle_type_id":"4","last_reported":1777457184,"current_range_meters":9200,"station_id":"","pricing_plan_id":"cebpf4jnsgd1na2vs0mg"},{"bike_id":"262fc285-b6eb-4eda-9ac1-639b6caaacc5","system_id":"levelo_inurba_marseille","lat":43.32346,"lon":5.36735,"is_reserved":false,"is_disabled":false,"rental_uris":{"android":"levelo://app?vid=262fc285-b6eb-4eda-9ac1-639b6caaacc5","ios":"levelo://app?vid=262fc285-b6eb-4eda-9ac1-639b6caaacc5"},"vehicle_type_id":"4","last_reported":1777457184,"current_range_meters":9200,"station_id":"ce4bhsh2rcd13ifvqi2g","pricing_plan_id":"cebpf4jnsgd1na2vs0mg"},{"bike_id":"041f2271-4c41-4a62-a2ae-a8ed1337463e","system_id":"levelo_inurba_marseille","lat":43.27121,"lon":5.39205,"is_reserved":false,"is_disabled":false,"rental_uris":{"android":"levelo://app?vid=041f2271-4c41-4a62-a2ae-a8ed1337463e","ios":"levelo://app?vid=041f2271-4c41-4a62-a2ae-a8ed1337463e"},"vehicle_type_id":"4","last_reported":1777457184,"current_range_meters":9200,"station_id":"","pricing_plan_id":"cebpf4jnsgd1na2vs0mg"},{"bike_id":"1f8f2900-3b21-46c3-b4e6-d4e20a24d45c","system_id":"levelo_inurba_marseille","lat":43.27499,"lon":5.42446,"is_reserved":false,"is_disabled":false,"rental_uris":{"android":"levelo://app?vid=1f8f2900-3b21-46c3-b4e6-d4e20a24d45c","ios":"levelo://app?vid=1f8f2900-3b21-46c3-b4e6-d4e20a24d45c"},"vehicle_type_id":"4","last_reported":1777457184,"current_range_meters":9200,"station_id":"ce4bhn92rcd13ifvqgrg","pricing_plan_id":"cebpf4jnsgd1na2vs0mg"},{"bike_id":"67570d38-86a9-4844-b055-c858e2500379","system_id":"levelo_inurba_marseille","lat":43.26221,"lon":5.40462,"is_reserved":false,"is_disabled":false,"rental_uris":{"android":"levelo://app?vid=67570d38-86a9-4844-b055-c858e2500379","ios":"levelo://app?vid=67570d38-86a9-4844-b055-c858e2500379"},"vehicle_type_id":"4","last_reported":1777457184,"current_range_meters":9200,"station_id":"ce4bhmh2rcd13ifvqgmg","pricing_plan_id":"cebpf4jnsgd1na2vs0mg"},{"bike_id":"bebe8d54-1996-4a99-928a-eab4a3293378","system_id":"levelo_inurba_marseille","lat":43.29566,"lon":5.37509,"is_reserved":false,"is_disabled":false,"rental_uris":{"android":"levelo://app?vid=bebe8d54-1996-4a99-928a-eab4a3293378","ios":"levelo://app?vid=bebe8d54-1996-4a99-928a-eab4a3293378"},"vehicle_type_id":"4","last_reported":1777457184,"current_range_meters":9200,"station_id":"ce4bgh92rcd13ifvqb50","pricing_plan_id":"cebpf4jnsgd1na2vs0mg"},{"bike_id":"557fb6c8-fcd1-4be6-b4e8-a9d8ed965ac6","system_id":"levelo_inurba_marseille","lat":43.27059,"lon":5.383,"is_reserved":false,"is_disabled":false,"rental_uris":{"android":"levelo://app?vid=557fb6c8-fcd1-4be6-b4e8-a9d8ed965ac6","ios":"levelo://app?vid=557fb6c8-fcd1-4be6-b4e8-a9d8ed965ac6"},"vehicle_type_id":"4","last_reported":1777457184,"current_range_meters":9200,"station_id":"st_d3n2fo6cfp8s73cte1j0","pricing_plan_id":"cebpf4jnsgd1na2vs0mg"},{"bike_id":"6481dac4-5e1c-4b2f-acc7-2ee1b32657a9","system_id":"levelo_inurba_marseille","lat":43.28629,"lon":5.3508,"is_reserved":false,"is_disabled":false,"rental_uris":{"android":"levelo://app?vid=6481dac4-5e1c-4b2f-acc7-2ee1b32657a9","ios":"levelo://app?vid=6481dac4-5e1c-4b2f-acc7-2ee1b32657a9"},"vehicle_type_id":"4","last_reported":1777457184,"current_range_meters":9200,"station_id":"ce4bhch2rcd13ifvqeug","pricing_plan_id":"cebpf4jnsgd1na2vs0mg"},{"bike_id":"02c77359-e587-4b70-aefe-44cb7d7ab9b5","system_id":"levelo_inurba_marseille","lat":43.31353,"lon":5.36729,"is_reserved":false,"is_disabled":false,"rental_uris":{"android":"levelo://app?vid=02c77359-e587-4b70-aefe-44cb7d7ab9b5","ios":"levelo://app?vid=02c77359-e587-4b70-aefe-44cb7d7ab9b5"},"vehicle_type_id":"4","last_reported":1777457184,"current_range_meters":9200,"station_id":"ce4bgr92rcd13ifvqc6g","pricing_plan_id":"cebpf4jnsgd1na2vs0mg"},{"bike_id":"077fd9d6-fd31-4538-9468-c9995c699e08","system_id":"levelo_inurba_marseille","lat":43.29813,"lon":5.39173,"is_reserved":false,"is_disabled":false,"rental_uris":{"android":"levelo://app?vid=077fd9d6-fd31-4538-9468-c9995c699e08","ios":"levelo://app?vid=077fd9d6-fd31-4538-9468-c9995c699e08"},"vehicle_type_id":"4","last_reported":1777457184,"current_range_meters":9200,"station_id":"","pricing_plan_id":"cebpf4jnsgd1na2vs0mg"},{"bike_id":"a13cf09e-4dc6-4122-934a-08e5a4ad06bd","system_id":"levelo_inurba_marseille","lat":43.26544,"lon":5.37277,"is_reserved":false,"is_disabled":true,"rental_uris":{"android":"levelo://app?vid=a13cf09e-4dc6-4122-934a-08e5a4ad06bd","ios":"levelo://app?vid=a13cf09e-4dc6-4122-934a-08e5a4ad06bd"},"vehicle_type_id":"4","last_reported":1777457184,"current_range_meters":9200,"station_id":"ce4bhg12rcd13ifvqf70","pricing_plan_id":"cebpf4jnsgd1na2vs0mg"},{"bike_id":"6c12a1b9-1b12-4f78-bdfb-97f2a8fa7c51","system_id":"levelo_inurba_marseille","lat":43.28482,"lon":5.38429,"is_reserved":false,"is_disabled":false,"rental_uris":{"android":"levelo://app?vid=6c12a1b9-1b12-4f78-bdfb-97f2a8fa7c51","ios":"levelo://app?vid=6c12a1b9-1b12-4f78-bdfb-97f2a8fa7c51"},"vehicle_type_id":"4","last_reported":1777457184,"current_range_meters":9600,"station_id":"ce4bh512rcd13ifvqe3g","pricing_plan_id":"cebpf4jnsgd1na2vs0mg"},{"bike_id":"82a8043e-804e-4dc9-b426-b4d299449f67","system_id":"levelo_inurba_marseille","lat":43.31061,"lon":5.37179,"is_reserved":false,"is_disabled":false,"rental_uris":{"android":"levelo://app?vid=82a8043e-804e-4dc9-b426-b4d299449f67","ios":"levelo://app?vid=82a8043e-804e-4dc9-b426-b4d299449f67"},"vehicle_type_id":"4","last_reported":1777457184,"current_range_meters":9600,"station_id":"st_d4kl2rp97mjs73e7tdfg","pricing_plan_id":"cebpf4jnsgd1na2vs0mg"},{"bike_id":"dabb6558-388e-43f3-9124-582e742ee3c8","system_id":"levelo_inurba_marseille","lat":43.31894,"lon":5.36822,"is_reserved":false,"is_disabled":false,"rental_uris":{"android":"levelo://app?vid=dabb6558-388e-43f3-9124-582e742ee3c8","ios":"levelo://app?vid=dabb6558-388e-43f3-9124-582e742ee3c8"},"vehicle_type_id":"4","last_reported":1777457184,"current_range_meters":9600,"station_id":"st_d6o2h0d0559c73evc1b0","pricing_plan_id":"cebpf4jnsgd1na2vs0mg"},{"bike_id":"603df54c-d359-4e00-8712-7158e41daceb","system_id":"levelo_inurba_marseille","lat":43.31115,"lon":5.36944,"is_reserved":false,"is_disabled":false,"rental_uris":{"android":"levelo://app?vid=603df54c-d359-4e00-8712-7158e41daceb","ios":"levelo://app?vid=603df54c-d359-4e00-8712-7158e41daceb"},"vehicle_type_id":"4","last_reported":1777457184,"current_range_meters":9600,"station_id":"ce4bgl92rcd13ifvqbq0","pricing_plan_id":"cebpf4jnsgd1na2vs0mg"},{"bike_id":"822cee2f-8387-49f0-a607-9c589c51eadd","system_id":"levelo_inurba_marseille","lat":43.23151,"lon":5.43707,"is_reserved":false,"is_disabled":false,"rental_uris":{"android":"levelo://app?vid=822cee2f-8387-49f0-a607-9c589c51eadd","ios":"levelo://app?vid=822cee2f-8387-49f0-a607-9c589c51eadd"},"vehicle_type_id":"4","last_reported":1777457184,"current_range_meters":9600,"station_id":"ce4bhmp2rcd13ifvqgog","pricing_plan_id":"cebpf4jnsgd1na2vs0mg"},{"bike_id":"a3e842f1-0f26-49ab-8d5c-e3cbfe1aef9d","system_id":"levelo_inurba_marseille","lat":43.23887,"lon":5.37464,"is_reserved":false,"is_disabled":false,"rental_uris":{"android":"levelo://app?vid=a3e842f1-0f26-49ab-8d5c-e3cbfe1aef9d","ios":"levelo://app?vid=a3e842f1-0f26-49ab-8d5c-e3cbfe1aef9d"},"vehicle_type_id":"4","last_reported":1777457184,"current_range_meters":9600,"station_id":"st_d6sm7csbq4hs73f8fpjg","pricing_plan_id":"cebpf4jnsgd1na2vs0mg"},{"bike_id":"565a8ac0-2b20-423c-a683-e409c051d1eb","system_id":"levelo_inurba_marseille","lat":43.31223,"lon":5.36866,"is_reserved":false,"is_disabled":false,"rental_uris":{"android":"levelo://app?vid=565a8ac0-2b20-423c-a683-e409c051d1eb","ios":"levelo://app?vid=565a8ac0-2b20-423c-a683-e409c051d1eb"},"vehicle_type_id":"4","last_reported":1777457184,"current_range_meters":9600,"station_id":"ce4bgl92rcd13ifvqbq0","pricing_plan_id":"cebpf4jnsgd1na2vs0mg"},{"bike_id":"21d95eb3-e7a7-42da-89cd-8c34dd2eb598","system_id":"levelo_inurba_marseille","lat":43.26556,"lon":5.37289,"is_reserved":false,"is_disabled":false,"rental_uris":{"android":"levelo://app?vid=21d95eb3-e7a7-42da-89cd-8c34dd2eb598","ios":"levelo://app?vid=21d95eb3-e7a7-42da-89cd-8c34dd2eb598"},"vehicle_type_id":"4","last_reported":1777457184,"current_range_meters":9600,"station_id":"ce4bhg12rcd13ifvqf70","pricing_plan_id":"cebpf4jnsgd1na2vs0mg"},{"bike_id":"c393576f-dc7e-40b1-876f-3c25a664dd5f","system_id":"levelo_inurba_marseille","lat":43.32148,"lon":5.36744,"is_reserved":false,"is_disabled":false,"rental_uris":{"android":"levelo://app?vid=c393576f-dc7e-40b1-876f-3c25a664dd5f","ios":"levelo://app?vid=c393576f-dc7e-40b1-876f-3c25a664dd5f"},"vehicle_type_id":"4","last_reported":1777457184,"current_range_meters":9600,"station_id":"","pricing_plan_id":"cebpf4jnsgd1na2vs0mg"},{"bike_id":"eb8542ba-b1aa-4e62-a573-f2b50a99d2db","system_id":"levelo_inurba_marseille","lat":43.26977,"lon":5.40217,"is_reserved":false,"is_disabled":false,"rental_uris":{"android":"levelo://app?vid=eb8542ba-b1aa-4e62-a573-f2b50a99d2db","ios":"levelo://app?vid=eb8542ba-b1aa-4e62-a573-f2b50a99d2db"},"vehicle_type_id":"4","last_reported":1777457184,"current_range_meters":9600,"station_id":"cjm6bp8fraef2m0cb0m0","pricing_plan_id":"cebpf4jnsgd1na2vs0mg"},{"bike_id":"b385e7a9-7aa6-4ef4-8c76-344e13ae8a0f","system_id":"levelo_inurba_marseille","lat":43.26671,"lon":5.38278,"is_reserved":false,"is_disabled":false,"rental_uris":{"android":"levelo://app?vid=b385e7a9-7aa6-4ef4-8c76-344e13ae8a0f","ios":"levelo://app?vid=b385e7a9-7aa6-4ef4-8c76-344e13ae8a0f"},"vehicle_type_id":"4","last_reported":1777457184,"current_range_meters":9600,"station_id":"ce4bhg92rcd13ifvqf90","pricing_plan_id":"cebpf4jnsgd1na2vs0mg"},{"bike_id":"a2a694ab-bd57-45a8-a651-048e4cefae01","system_id":"levelo_inurba_marseille","lat":43.28732,"lon":5.46688,"is_reserved":false,"is_disabled":false,"rental_uris":{"android":"levelo://app?vid=a2a694ab-bd57-45a8-a651-048e4cefae01","ios":"levelo://app?vid=a2a694ab-bd57-45a8-a651-048e4cefae01"},"vehicle_type_id":"4","last_reported":1777457184,"current_range_meters":9600,"station_id":"st_d6tc3vkotcvc738tfjhg","pricing_plan_id":"cebpf4jnsgd1na2vs0mg"},{"bike_id":"d6376065-a7e2-41e8-99d5-29ecd7b8ac56","system_id":"levelo_inurba_marseille","lat":43.26685,"lon":5.38246,"is_reserved":false,"is_disabled":false,"rental_uris":{"android":"levelo://app?vid=d6376065-a7e2-41e8-99d5-29ecd7b8ac56","ios":"levelo://app?vid=d6376065-a7e2-41e8-99d5-29ecd7b8ac56"},"vehicle_type_id":"4","last_reported":1777457184,"current_range_meters":9600,"station_id":"ce4bhg92rcd13ifvqf90","pricing_plan_id":"cebpf4jnsgd1na2vs0mg"},{"bike_id":"250f049e-571a-478a-a427-79eb35e0b167","system_id":"levelo_inurba_marseille","lat":43.32488,"lon":5.36589,"is_reserved":false,"is_disabled":false,"rental_uris":{"android":"levelo://app?vid=250f049e-571a-478a-a427-79eb35e0b167","ios":"levelo://app?vid=250f049e-571a-478a-a427-79eb35e0b167"},"vehicle_type_id":"4","last_reported":1777457184,"current_range_meters":9600,"station_id":"ce4bhs12rcd13ifvqhvg","pricing_plan_id":"cebpf4jnsgd1na2vs0mg"},{"bike_id":"d6817a03-f055-4d97-937e-09eee5125a48","system_id":"levelo_inurba_marseille","lat":43.28273,"lon":5.35055,"is_reserved":false,"is_disabled":false,"rental_uris":{"android":"levelo://app?vid=d6817a03-f055-4d97-937e-09eee5125a48","ios":"levelo://app?vid=d6817a03-f055-4d97-937e-09eee5125a48"},"vehicle_type_id":"4","last_reported":1777457184,"current_range_meters":9600,"station_id":"ce4bhbp2rcd13ifvqerg","pricing_plan_id":"cebpf4jnsgd1na2vs0mg"},{"bike_id":"809dbee3-b28b-45fa-8543-de3ebcdde081","system_id":"levelo_inurba_marseille","lat":43.29765,"lon":5.38124,"is_reserved":false,"is_disabled":false,"rental_uris":{"android":"levelo://app?vid=809dbee3-b28b-45fa-8543-de3ebcdde081","ios":"levelo://app?vid=809dbee3-b28b-45fa-8543-de3ebcdde081"},"vehicle_type_id":"4","last_reported":1777457184,"current_range_meters":9600,"station_id":"ce4bgip2rcd13ifvqbb0","pricing_plan_id":"cebpf4jnsgd1na2vs0mg"},{"bike_id":"72e5bb5d-486f-4ca3-b871-8f1bc8ed5aa8","system_id":"levelo_inurba_marseille","lat":43.23159,"lon":5.43707,"is_reserved":false,"is_disabled":false,"rental_uris":{"android":"levelo://app?vid=72e5bb5d-486f-4ca3-b871-8f1bc8ed5aa8","ios":"levelo://app?vid=72e5bb5d-486f-4ca3-b871-8f1bc8ed5aa8"},"vehicle_type_id":"4","last_reported":1777457184,"current_range_meters":9600,"station_id":"ce4bhmp2rcd13ifvqgog","pricing_plan_id":"cebpf4jnsgd1na2vs0mg"},{"bike_id":"ff562712-cea5-49df-a94a-b78be0e649dd","system_id":"levelo_inurba_marseille","lat":43.302134,"lon":5.394646,"is_reserved":false,"is_disabled":false,"rental_uris":{"android":"levelo://app?vid=ff562712-cea5-49df-a94a-b78be0e649dd","ios":"levelo://app?vid=ff562712-cea5-49df-a94a-b78be0e649dd"},"vehicle_type_id":"4","last_reported":1777457184,"current_range_meters":9600,"station_id":"ce4bh0p2rcd13ifvqd70","pricing_plan_id":"cebpf4jnsgd1na2vs0mg"},{"bike_id":"62b82482-27a4-4b08-903d-1012b4fe4bfa","system_id":"levelo_inurba_marseille","lat":43.26787,"lon":5.39418,"is_reserved":false,"is_disabled":false,"rental_uris":{"android":"levelo://app?vid=62b82482-27a4-4b08-903d-1012b4fe4bfa","ios":"levelo://app?vid=62b82482-27a4-4b08-903d-1012b4fe4bfa"},"vehicle_type_id":"4","last_reported":1777457184,"current_range_meters":9600,"station_id":"ce4bhh12rcd13ifvqfg0","pricing_plan_id":"cebpf4jnsgd1na2vs0mg"},{"bike_id":"08c44253-d3a8-4fba-8216-d00b8e387af8","system_id":"levelo_inurba_marseille","lat":43.29588,"lon":5.37501,"is_reserved":false,"is_disabled":false,"rental_uris":{"android":"levelo://app?vid=08c44253-d3a8-4fba-8216-d00b8e387af8","ios":"levelo://app?vid=08c44253-d3a8-4fba-8216-d00b8e387af8"},"vehicle_type_id":"4","last_reported":1777457184,"current_range_meters":9600,"station_id":"ce4bgh92rcd13ifvqb50","pricing_plan_id":"cebpf4jnsgd1na2vs0mg"},{"bike_id":"8829f460-aa5f-4233-9846-cd6731fc4acd","system_id":"levelo_inurba_marseille","lat":43.26983,"lon":5.40434,"is_reserved":false,"is_disabled":false,"rental_uris":{"android":"levelo://app?vid=8829f460-aa5f-4233-9846-cd6731fc4acd","ios":"levelo://app?vid=8829f460-aa5f-4233-9846-cd6731fc4acd"},"vehicle_type_id":"4","last_reported":1777457184,"current_range_meters":10000,"station_id":"","pricing_plan_id":"cebpf4jnsgd1na2vs0mg"},{"bike_id":"16dc7d07-446b-4d1f-851e-af071ffdfcb2","system_id":"levelo_inurba_marseille","lat":43.30151,"lon":5.37418,"is_reserved":false,"is_disabled":false,"rental_uris":{"android":"levelo://app?vid=16dc7d07-446b-4d1f-851e-af071ffdfcb2","ios":"levelo://app?vid=16dc7d07-446b-4d1f-851e-af071ffdfcb2"},"vehicle_type_id":"4","last_reported":1777457184,"current_range_meters":10000,"station_id":"ce4bgs92rcd13ifvqcc0","pricing_plan_id":"cebpf4jnsgd1na2vs0mg"},{"bike_id":"d97ed6ed-9254-4b2c-9752-a3aaf3378900","system_id":"levelo_inurba_marseille","lat":43.33564,"lon":5.37429,"is_reserved":false,"is_disabled":false,"rental_uris":{"android":"levelo://app?vid=d97ed6ed-9254-4b2c-9752-a3aaf3378900","ios":"levelo://app?vid=d97ed6ed-9254-4b2c-9752-a3aaf3378900"},"vehicle_type_id":"4","last_reported":1777457184,"current_range_meters":10000,"station_id":"st_d46tts09ee8s73dlu43g","pricing_plan_id":"cebpf4jnsgd1na2vs0mg"},{"bike_id":"6c9d97a8-1a2f-4b66-915b-4889252241a6","system_id":"levelo_inurba_marseille","lat":43.26695,"lon":5.38286,"is_reserved":false,"is_disabled":true,"rental_uris":{"android":"levelo://app?vid=6c9d97a8-1a2f-4b66-915b-4889252241a6","ios":"levelo://app?vid=6c9d97a8-1a2f-4b66-915b-4889252241a6"},"vehicle_type_id":"4","last_reported":1777457184,"current_range_meters":10000,"station_id":"ce4bhg92rcd13ifvqf90","pricing_plan_id":"cebpf4jnsgd1na2vs0mg"},{"bike_id":"d631ea2c-61b0-4c54-8a21-844454af3791","system_id":"levelo_inurba_marseille","lat":43.28345,"lon":5.38105,"is_reserved":false,"is_disabled":false,"rental_uris":{"android":"levelo://app?vid=d631ea2c-61b0-4c54-8a21-844454af3791","ios":"levelo://app?vid=d631ea2c-61b0-4c54-8a21-844454af3791"},"vehicle_type_id":"4","last_reported":1777457184,"current_range_meters":10000,"station_id":"ce4bh412rcd13ifvqdr0","pricing_plan_id":"cebpf4jnsgd1na2vs0mg"},{"bike_id":"7be06c3a-8473-4b45-a3f6-aea060cfe576","system_id":"levelo_inurba_marseille","lat":43.25579,"lon":5.38228,"is_reserved":false,"is_disabled":false,"rental_uris":{"android":"levelo://app?vid=7be06c3a-8473-4b45-a3f6-aea060cfe576","ios":"levelo://app?vid=7be06c3a-8473-4b45-a3f6-aea060cfe576"},"vehicle_type_id":"4","last_reported":1777457184,"current_range_meters":10000,"station_id":"ce4bhih2rcd13ifvqfs0","pricing_plan_id":"cebpf4jnsgd1na2vs0mg"},{"bike_id":"0db6615c-89ec-4c94-ba86-335817fd5695","system_id":"levelo_inurba_marseille","lat":43.30537,"lon":5.36723,"is_reserved":false,"is_disabled":false,"rental_uris":{"android":"levelo://app?vid=0db6615c-89ec-4c94-ba86-335817fd5695","ios":"levelo://app?vid=0db6615c-89ec-4c94-ba86-335817fd5695"},"vehicle_type_id":"4","last_reported":1777457184,"current_range_meters":10000,"station_id":"ce4bgrp2rcd13ifvqc9g","pricing_plan_id":"cebpf4jnsgd1na2vs0mg"},{"bike_id":"f8b08a99-be2e-4ade-8fb0-3e565e1cc6af","system_id":"levelo_inurba_marseille","lat":43.30912,"lon":5.36848,"is_reserved":false,"is_disabled":false,"rental_uris":{"android":"levelo://app?vid=f8b08a99-be2e-4ade-8fb0-3e565e1cc6af","ios":"levelo://app?vid=f8b08a99-be2e-4ade-8fb0-3e565e1cc6af"},"vehicle_type_id":"4","last_reported":1777457184,"current_range_meters":10000,"station_id":"ce4bgn92rcd13ifvqbvg","pricing_plan_id":"cebpf4jnsgd1na2vs0mg"},{"bike_id":"cffcc474-2ce1-43a9-811e-30f04614f857","system_id":"levelo_inurba_marseille","lat":43.25132,"lon":5.42635,"is_reserved":false,"is_disabled":false,"rental_uris":{"android":"levelo://app?vid=cffcc474-2ce1-43a9-811e-30f04614f857","ios":"levelo://app?vid=cffcc474-2ce1-43a9-811e-30f04614f857"},"vehicle_type_id":"4","last_reported":1777457184,"current_range_meters":10000,"station_id":"","pricing_plan_id":"cebpf4jnsgd1na2vs0mg"},{"bike_id":"94e3e6f6-fe60-427b-ae52-e1ace34a0263","system_id":"levelo_inurba_marseille","lat":43.27308,"lon":5.39062,"is_reserved":false,"is_disabled":false,"rental_uris":{"android":"levelo://app?vid=94e3e6f6-fe60-427b-ae52-e1ace34a0263","ios":"levelo://app?vid=94e3e6f6-fe60-427b-ae52-e1ace34a0263"},"vehicle_type_id":"4","last_reported":1777457184,"current_range_meters":10000,"station_id":"ce4bhgp2rcd13ifvqfe0","pricing_plan_id":"cebpf4jnsgd1na2vs0mg"},{"bike_id":"1ee6d695-e62e-4715-bbca-f2a62e49fc7a","system_id":"levelo_inurba_marseille","lat":43.23183,"lon":5.40004,"is_reserved":false,"is_disabled":false,"rental_uris":{"android":"levelo://app?vid=1ee6d695-e62e-4715-bbca-f2a62e49fc7a","ios":"levelo://app?vid=1ee6d695-e62e-4715-bbca-f2a62e49fc7a"},"vehicle_type_id":"4","last_reported":1777457184,"current_range_meters":10000,"station_id":"ce4bhn12rcd13ifvqgqg","pricing_plan_id":"cebpf4jnsgd1na2vs0mg"},{"bike_id":"60d77da4-6419-429b-9e7a-b2cf161a2f69","system_id":"levelo_inurba_marseille","lat":43.32642,"lon":5.39497,"is_reserved":false,"is_disabled":false,"rental_uris":{"android":"levelo://app?vid=60d77da4-6419-429b-9e7a-b2cf161a2f69","ios":"levelo://app?vid=60d77da4-6419-429b-9e7a-b2cf161a2f69"},"vehicle_type_id":"4","last_reported":1777457184,"current_range_meters":10000,"station_id":"","pricing_plan_id":"cebpf4jnsgd1na2vs0mg"},{"bike_id":"105f32f6-c368-4de0-8ad5-1075cdf8978e","system_id":"levelo_inurba_marseille","lat":43.24147,"lon":5.36461,"is_reserved":false,"is_disabled":false,"rental_uris":{"android":"levelo://app?vid=105f32f6-c368-4de0-8ad5-1075cdf8978e","ios":"levelo://app?vid=105f32f6-c368-4de0-8ad5-1075cdf8978e"},"vehicle_type_id":"4","last_reported":1777457184,"current_range_meters":10000,"station_id":"","pricing_plan_id":"cebpf4jnsgd1na2vs0mg"},{"bike_id":"6a9b58db-a215-46ac-8c9a-f4437be444a4","system_id":"levelo_inurba_marseille","lat":43.31539,"lon":5.38019,"is_reserved":false,"is_disabled":false,"rental_uris":{"android":"levelo://app?vid=6a9b58db-a215-46ac-8c9a-f4437be444a4","ios":"levelo://app?vid=6a9b58db-a215-46ac-8c9a-f4437be444a4"},"vehicle_type_id":"4","last_reported":1777457184,"current_range_meters":10800,"station_id":"ce4bhsp2rcd13ifvqi50","pricing_plan_id":"cebpf4jnsgd1na2vs0mg"},{"bike_id":"47275c96-d41a-422e-adc3-e963b670df29","system_id":"levelo_inurba_marseille","lat":43.3013,"lon":5.43114,"is_reserved":false,"is_disabled":false,"rental_uris":{"android":"levelo://app?vid=47275c96-d41a-422e-adc3-e963b670df29","ios":"levelo://app?vid=47275c96-d41a-422e-adc3-e963b670df29"},"vehicle_type_id":"4","last_reported":1777457184,"current_range_meters":10800,"station_id":"st_d3js3co5814s73ftftug","pricing_plan_id":"cebpf4jnsgd1na2vs0mg"},{"bike_id":"987afc8d-fc4c-4f1a-acc9-30e0fa196b69","system_id":"levelo_inurba_marseille","lat":43.282007,"lon":5.34989,"is_reserved":false,"is_disabled":false,"rental_uris":{"android":"levelo://app?vid=987afc8d-fc4c-4f1a-acc9-30e0fa196b69","ios":"levelo://app?vid=987afc8d-fc4c-4f1a-acc9-30e0fa196b69"},"vehicle_type_id":"4","last_reported":1777457184,"current_range_meters":10800,"station_id":"","pricing_plan_id":"cebpf4jnsgd1na2vs0mg"},{"bike_id":"2e2e4a18-23ce-482e-b910-3f87d77a2b03","system_id":"levelo_inurba_marseille","lat":43.27051,"lon":5.40259,"is_reserved":false,"is_disabled":false,"rental_uris":{"android":"levelo://app?vid=2e2e4a18-23ce-482e-b910-3f87d77a2b03","ios":"levelo://app?vid=2e2e4a18-23ce-482e-b910-3f87d77a2b03"},"vehicle_type_id":"4","last_reported":1777457184,"current_range_meters":10800,"station_id":"ce4bhk92rcd13ifvqgc0","pricing_plan_id":"cebpf4jnsgd1na2vs0mg"},{"bike_id":"95f47514-1d7f-4013-95fe-a0916f7cc45a","system_id":"levelo_inurba_marseille","lat":43.33553,"lon":5.37477,"is_reserved":false,"is_disabled":false,"rental_uris":{"android":"levelo://app?vid=95f47514-1d7f-4013-95fe-a0916f7cc45a","ios":"levelo://app?vid=95f47514-1d7f-4013-95fe-a0916f7cc45a"},"vehicle_type_id":"4","last_reported":1777457184,"current_range_meters":10800,"station_id":"st_d46tts09ee8s73dlu43g","pricing_plan_id":"cebpf4jnsgd1na2vs0mg"},{"bike_id":"67770120-bd85-4b15-af1e-f85ca14859f3","system_id":"levelo_inurba_marseille","lat":43.28863,"lon":5.42519,"is_reserved":false,"is_disabled":false,"rental_uris":{"android":"levelo://app?vid=67770120-bd85-4b15-af1e-f85ca14859f3","ios":"levelo://app?vid=67770120-bd85-4b15-af1e-f85ca14859f3"},"vehicle_type_id":"4","last_reported":1777457184,"current_range_meters":10800,"station_id":"st_d3b462108ojc7389ooeg","pricing_plan_id":"cebpf4jnsgd1na2vs0mg"},{"bike_id":"037d64f6-928a-49e8-acc5-65482391aa38","system_id":"levelo_inurba_marseille","lat":43.26559,"lon":5.37298,"is_reserved":false,"is_disabled":false,"rental_uris":{"android":"levelo://app?vid=037d64f6-928a-49e8-acc5-65482391aa38","ios":"levelo://app?vid=037d64f6-928a-49e8-acc5-65482391aa38"},"vehicle_type_id":"4","last_reported":1777457184,"current_range_meters":10800,"station_id":"ce4bhg12rcd13ifvqf70","pricing_plan_id":"cebpf4jnsgd1na2vs0mg"},{"bike_id":"253bb22c-cc53-4d52-93d6-2a1796d0e43f","system_id":"levelo_inurba_marseille","lat":43.32008,"lon":5.36771,"is_reserved":false,"is_disabled":false,"rental_uris":{"android":"levelo://app?vid=253bb22c-cc53-4d52-93d6-2a1796d0e43f","ios":"levelo://app?vid=253bb22c-cc53-4d52-93d6-2a1796d0e43f"},"vehicle_type_id":"4","last_reported":1777457184,"current_range_meters":10800,"station_id":"ce4bhrh2rcd13ifvqhug","pricing_plan_id":"cebpf4jnsgd1na2vs0mg"},{"bike_id":"e81022dd-19c8-4204-a3cc-bd5e81a601c4","system_id":"levelo_inurba_marseille","lat":43.24948,"lon":5.40481,"is_reserved":false,"is_disabled":false,"rental_uris":{"android":"levelo://app?vid=e81022dd-19c8-4204-a3cc-bd5e81a601c4","ios":"levelo://app?vid=e81022dd-19c8-4204-a3cc-bd5e81a601c4"},"vehicle_type_id":"4","last_reported":1777457184,"current_range_meters":10800,"station_id":"st_d2ngiaodas8pm72gd1h0","pricing_plan_id":"cebpf4jnsgd1na2vs0mg"},{"bike_id":"aa9fcb5f-75e9-4ff5-945f-abd2393a243b","system_id":"levelo_inurba_marseille","lat":43.28034,"lon":5.36951,"is_reserved":false,"is_disabled":false,"rental_uris":{"android":"levelo://app?vid=aa9fcb5f-75e9-4ff5-945f-abd2393a243b","ios":"levelo://app?vid=aa9fcb5f-75e9-4ff5-945f-abd2393a243b"},"vehicle_type_id":"4","last_reported":1777457184,"current_range_meters":10800,"station_id":"ce4bha12rcd13ifvqef0","pricing_plan_id":"cebpf4jnsgd1na2vs0mg"},{"bike_id":"d3764724-4dd6-4bc7-832e-458886c7d071","system_id":"levelo_inurba_marseille","lat":43.27628,"lon":5.36111,"is_reserved":false,"is_disabled":false,"rental_uris":{"android":"levelo://app?vid=d3764724-4dd6-4bc7-832e-458886c7d071","ios":"levelo://app?vid=d3764724-4dd6-4bc7-832e-458886c7d071"},"vehicle_type_id":"4","last_reported":1777457184,"current_range_meters":10800,"station_id":"ce4bgj92rcd13ifvqbe0","pricing_plan_id":"cebpf4jnsgd1na2vs0mg"},{"bike_id":"7f2dea88-205f-4739-a3ab-525ae7670615","system_id":"levelo_inurba_marseille","lat":43.29258,"lon":5.40919,"is_reserved":false,"is_disabled":true,"rental_uris":{"android":"levelo://app?vid=7f2dea88-205f-4739-a3ab-525ae7670615","ios":"levelo://app?vid=7f2dea88-205f-4739-a3ab-525ae7670615"},"vehicle_type_id":"4","last_reported":1777457184,"current_range_meters":10800,"station_id":"ce4bh192rcd13ifvqdc0","pricing_plan_id":"cebpf4jnsgd1na2vs0mg"},{"bike_id":"7104ac89-ed08-41bc-893d-7ab33ea6e577","system_id":"levelo_inurba_marseille","lat":43.29884,"lon":5.42096,"is_reserved":false,"is_disabled":false,"rental_uris":{"android":"levelo://app?vid=7104ac89-ed08-41bc-893d-7ab33ea6e577","ios":"levelo://app?vid=7104ac89-ed08-41bc-893d-7ab33ea6e577"},"vehicle_type_id":"4","last_reported":1777457184,"current_range_meters":10800,"station_id":"st_d6tc004otcvc738tfe70","pricing_plan_id":"cebpf4jnsgd1na2vs0mg"},{"bike_id":"5487bf28-031a-4b6d-a3fe-b8ead5289d51","system_id":"levelo_inurba_marseille","lat":43.32505,"lon":5.38298,"is_reserved":false,"is_disabled":false,"rental_uris":{"android":"levelo://app?vid=5487bf28-031a-4b6d-a3fe-b8ead5289d51","ios":"levelo://app?vid=5487bf28-031a-4b6d-a3fe-b8ead5289d51"},"vehicle_type_id":"4","last_reported":1777457184,"current_range_meters":10800,"station_id":"st_d4asgbiv49dc73anf9m0","pricing_plan_id":"cebpf4jnsgd1na2vs0mg"},{"bike_id":"b99777dc-b32a-49b8-b5a2-faf83b77cce3","system_id":"levelo_inurba_marseille","lat":43.275,"lon":5.41578,"is_reserved":false,"is_disabled":false,"rental_uris":{"android":"levelo://app?vid=b99777dc-b32a-49b8-b5a2-faf83b77cce3","ios":"levelo://app?vid=b99777dc-b32a-49b8-b5a2-faf83b77cce3"},"vehicle_type_id":"4","last_reported":1777457184,"current_range_meters":10800,"station_id":"st_d6im8g6chgec73a5pndg","pricing_plan_id":"cebpf4jnsgd1na2vs0mg"},{"bike_id":"aa1066a2-52ee-4b5e-9ea8-f5bfb38bf0a4","system_id":"levelo_inurba_marseille","lat":43.32337,"lon":5.36754,"is_reserved":false,"is_disabled":false,"rental_uris":{"android":"levelo://app?vid=aa1066a2-52ee-4b5e-9ea8-f5bfb38bf0a4","ios":"levelo://app?vid=aa1066a2-52ee-4b5e-9ea8-f5bfb38bf0a4"},"vehicle_type_id":"4","last_reported":1777457184,"current_range_meters":11200,"station_id":"ce4bhsh2rcd13ifvqi2g","pricing_plan_id":"cebpf4jnsgd1na2vs0mg"},{"bike_id":"cd30ec2d-36b3-4946-9dee-6c0a0174094c","system_id":"levelo_inurba_marseille","lat":43.30936,"lon":5.39101,"is_reserved":false,"is_disabled":false,"rental_uris":{"android":"levelo://app?vid=cd30ec2d-36b3-4946-9dee-6c0a0174094c","ios":"levelo://app?vid=cd30ec2d-36b3-4946-9dee-6c0a0174094c"},"vehicle_type_id":"4","last_reported":1777457184,"current_range_meters":11200,"station_id":"ce4bgup2rcd13ifvqco0","pricing_plan_id":"cebpf4jnsgd1na2vs0mg"},{"bike_id":"d1c07ffb-0417-498e-a252-61b57307e30d","system_id":"levelo_inurba_marseille","lat":43.26546,"lon":5.37299,"is_reserved":false,"is_disabled":false,"rental_uris":{"android":"levelo://app?vid=d1c07ffb-0417-498e-a252-61b57307e30d","ios":"levelo://app?vid=d1c07ffb-0417-498e-a252-61b57307e30d"},"vehicle_type_id":"4","last_reported":1777457184,"current_range_meters":11200,"station_id":"ce4bhg12rcd13ifvqf70","pricing_plan_id":"cebpf4jnsgd1na2vs0mg"},{"bike_id":"14ffd392-a207-41da-942f-3d5d62a42696","system_id":"levelo_inurba_marseille","lat":43.31913,"lon":5.36812,"is_reserved":false,"is_disabled":false,"rental_uris":{"android":"levelo://app?vid=14ffd392-a207-41da-942f-3d5d62a42696","ios":"levelo://app?vid=14ffd392-a207-41da-942f-3d5d62a42696"},"vehicle_type_id":"4","last_reported":1777457184,"current_range_meters":11200,"station_id":"st_d6o2h0d0559c73evc1b0","pricing_plan_id":"cebpf4jnsgd1na2vs0mg"},{"bike_id":"46c593d7-b2b9-464b-93a2-968d46b726e3","system_id":"levelo_inurba_marseille","lat":43.26375,"lon":5.4107,"is_reserved":false,"is_disabled":false,"rental_uris":{"android":"levelo://app?vid=46c593d7-b2b9-464b-93a2-968d46b726e3","ios":"levelo://app?vid=46c593d7-b2b9-464b-93a2-968d46b726e3"},"vehicle_type_id":"4","last_reported":1777457184,"current_range_meters":11200,"station_id":"st_d4e5ca6na9uc73bfl5fg","pricing_plan_id":"cebpf4jnsgd1na2vs0mg"},{"bike_id":"6855584b-83ba-4067-bd06-2f1980df6462","system_id":"levelo_inurba_marseille","lat":43.24083,"lon":5.37761,"is_reserved":false,"is_disabled":false,"rental_uris":{"android":"levelo://app?vid=6855584b-83ba-4067-bd06-2f1980df6462","ios":"levelo://app?vid=6855584b-83ba-4067-bd06-2f1980df6462"},"vehicle_type_id":"4","last_reported":1777457184,"current_range_meters":11200,"station_id":"ce4bhnp2rcd13ifvqgvg","pricing_plan_id":"cebpf4jnsgd1na2vs0mg"},{"bike_id":"c8c9d1d6-1e95-41b3-a2fd-8b519a2d52a0","system_id":"levelo_inurba_marseille","lat":43.29224,"lon":5.36069,"is_reserved":false,"is_disabled":false,"rental_uris":{"android":"levelo://app?vid=c8c9d1d6-1e95-41b3-a2fd-8b519a2d52a0","ios":"levelo://app?vid=c8c9d1d6-1e95-41b3-a2fd-8b519a2d52a0"},"vehicle_type_id":"4","last_reported":1777457184,"current_range_meters":11200,"station_id":"ce4bhbh2rcd13ifvqeqg","pricing_plan_id":"cebpf4jnsgd1na2vs0mg"},{"bike_id":"f6e1af72-98cf-4abc-8a30-503018f4b1e4","system_id":"levelo_inurba_marseille","lat":43.22571,"lon":5.41635,"is_reserved":false,"is_disabled":false,"rental_uris":{"android":"levelo://app?vid=f6e1af72-98cf-4abc-8a30-503018f4b1e4","ios":"levelo://app?vid=f6e1af72-98cf-4abc-8a30-503018f4b1e4"},"vehicle_type_id":"4","last_reported":1777457184,"current_range_meters":11200,"station_id":"st_d2o4gvlbi1j2169b742g","pricing_plan_id":"cebpf4jnsgd1na2vs0mg"},{"bike_id":"ff7468dc-5469-4f4d-a350-b90c2789f0ac","system_id":"levelo_inurba_marseille","lat":43.27845,"lon":5.40732,"is_reserved":false,"is_disabled":false,"rental_uris":{"android":"levelo://app?vid=ff7468dc-5469-4f4d-a350-b90c2789f0ac","ios":"levelo://app?vid=ff7468dc-5469-4f4d-a350-b90c2789f0ac"},"vehicle_type_id":"4","last_reported":1777457184,"current_range_meters":11200,"station_id":"ce4bhnh2rcd13ifvqgtg","pricing_plan_id":"cebpf4jnsgd1na2vs0mg"},{"bike_id":"45333ee6-1aaf-451f-b4cf-7dfc23264e3a","system_id":"levelo_inurba_marseille","lat":43.2842,"lon":5.34987,"is_reserved":false,"is_disabled":false,"rental_uris":{"android":"levelo://app?vid=45333ee6-1aaf-451f-b4cf-7dfc23264e3a","ios":"levelo://app?vid=45333ee6-1aaf-451f-b4cf-7dfc23264e3a"},"vehicle_type_id":"4","last_reported":1777457184,"current_range_meters":11200,"station_id":"ce4bhbh2rcd13ifvqepg","pricing_plan_id":"cebpf4jnsgd1na2vs0mg"},{"bike_id":"65dcd980-6fe9-4c7d-822c-075ad32b715a","system_id":"levelo_inurba_marseille","lat":43.23798,"lon":5.36627,"is_reserved":false,"is_disabled":false,"rental_uris":{"android":"levelo://app?vid=65dcd980-6fe9-4c7d-822c-075ad32b715a","ios":"levelo://app?vid=65dcd980-6fe9-4c7d-822c-075ad32b715a"},"vehicle_type_id":"4","last_reported":1777457184,"current_range_meters":11200,"station_id":"st_d3nk18o9ro0c73en2l3g","pricing_plan_id":"cebpf4jnsgd1na2vs0mg"},{"bike_id":"9d1f329d-5f6a-4db8-a621-46d720fc6c5b","system_id":"levelo_inurba_marseille","lat":43.30425,"lon":5.39739,"is_reserved":false,"is_disabled":false,"rental_uris":{"android":"levelo://app?vid=9d1f329d-5f6a-4db8-a621-46d720fc6c5b","ios":"levelo://app?vid=9d1f329d-5f6a-4db8-a621-46d720fc6c5b"},"vehicle_type_id":"4","last_reported":1777457184,"current_range_meters":11200,"station_id":"ce4bh092rcd13ifvqd20","pricing_plan_id":"cebpf4jnsgd1na2vs0mg"},{"bike_id":"ba030764-1de1-4d8b-8ced-8a232ed91f10","system_id":"levelo_inurba_marseille","lat":43.23156,"lon":5.43707,"is_reserved":false,"is_disabled":false,"rental_uris":{"android":"levelo://app?vid=ba030764-1de1-4d8b-8ced-8a232ed91f10","ios":"levelo://app?vid=ba030764-1de1-4d8b-8ced-8a232ed91f10"},"vehicle_type_id":"4","last_reported":1777457184,"current_range_meters":11200,"station_id":"ce4bhmp2rcd13ifvqgog","pricing_plan_id":"cebpf4jnsgd1na2vs0mg"},