{"last_updated":1684296493,"ttl":30,"version":"2.2","data":{"bikes":[{"bike_id":"1dc5cc95-0d6a-4301-b28f-3382667f47c4","system_id":"levelo_inurba_marseille","lat":43.313391,"lon":5.36706,"is_reserved":false,"is_disabled":false,"rental_uris":{"android":"levelo://app?vid=1dc5cc95-0d6a-4301-b28f-3382667f47c4","ios":"levelo://app?vid=1dc5cc95-0d6a-4301-b28f-3382667f47c4"},"vehicle_type_id":"4","last_reported":1684296493,"current_range_meters":28000,"station_id":"ce4bgr92rcd13ifvqc6g","pricing_plan_id":"free"},{"bike_id":"52506e95-c1c5-41f1-a1fa-b06ac9e1c4d0","system_id":"levelo_inurba_marseille","lat":43.312239,"lon":5.368562,"is_reserved":false,"is_disabled":false,"rental_uris":{"android":"levelo://app?vid=52506e95-c1c5-41f1-a1fa-b06ac9e1c4d0","ios":"levelo://app?vid=52506e95-c1c5-41f1-a1fa-b06ac9e1c4d0"},"vehicle_type_id":"4","last_reported":1684296493,"current_range_meters":28400,"station_id":"ce4bgl92rcd13ifvqbq0","pricing_plan_id":"free"},{"bike_id":"727cc423-ca73-49fc-839a-41e9fc2f4bd6","system_id":"levelo_inurba_marseille","lat":43.312239,"lon":5.368562,"is_reserved":false,"is_disabled":false,"rental_uris":{"android":"levelo://app?vid=727cc423-ca73-49fc-839a-41e9fc2f4bd6","ios":"levelo://app?vid=727cc423-ca73-49fc-839a-41e9fc2f4bd6"},"vehicle_type_id":"4","last_reported":1684296493,"current_range_meters":30000,"station_id":"ce4bgl92rcd13ifvqbq0","pricing_plan_id":"free"},{"bike_id":"8ad7287c-2ff6-4db8-af12-054e16597a7a","system_id":"levelo_inurba_marseille","lat":43.312239,"lon":5.368562,"is_reserved":false,"is_disabled":false,"rental_uris":{"android":"levelo://app?vid=8ad7287c-2ff6-4db8-af12-054e16597a7a","ios":"levelo://app?vid=8ad7287c-2ff6-4db8-af12-054e16597a7a"},"vehicle_type_id":"4","last_reported":1684296493,"current_range_meters":27200,"station_id":"ce4bgl92rcd13ifvqbq0","pricing_plan_id":"free"},{"bike_id":"da2a3c8f-9768-4792-9a0e-6ef6d811da08","system_id":"levelo_inurba_marseille","lat":43.309076,"lon":5.368465,"is_reserved":false,"is_disabled":false,"rental_uris":{"android":"levelo://app?vid=da2a3c8f-9768-4792-9a0e-6ef6d811da08","ios":"levelo://app?vid=da2a3c8f-9768-4792-9a0e-6ef6d811da08"},"vehicle_type_id":"4","last_reported":1684296493,"current_range_meters":30800,"station_id":"ce4bgn92rcd13ifvqbvg","pricing_plan_id":"free"},{"bike_id":"8ca202ab-301d-40c4-847c-4394076c3f98","system_id":"levelo_inurba_marseille","lat":43.309076,"lon":5.368465,"is_reserved":false,"is_disabled":false,"rental_uris":{"android":"levelo://app?vid=8ca202ab-301d-40c4-847c-4394076c3f98","ios":"levelo://app?vid=8ca202ab-301d-40c4-847c-4394076c3f98"},"vehicle_type_id":"4","last_reported":1684296493,"current_range_meters":25600,"station_id":"ce4bgn92rcd13ifvqbvg","pricing_plan_id":"free"},{"bike_id":"e2def3ce-5c7a-4166-a298-70c8ecf165ea","system_id":"levelo_inurba_marseille","lat":43.314811,"lon":5.373104,"is_reserved":false,"is_disabled":false,"rental_uris":{"android":"levelo://app?vid=e2def3ce-5c7a-4166-a298-70c8ecf165ea","ios":"levelo://app?vid=e2def3ce-5c7a-4166-a298-70c8ecf165ea"},"vehicle_type_id":"4","last_reported":1684296493,"current_range_meters":29600,"station_id":"ce4bgt12rcd13ifvqcd0","pricing_plan_id":"free"},{"bike_id":"fdbc1b8f-cfd6-453e-b2e7-1c36a4aad28e","system_id":"levelo_inurba_marseille","lat":43.314811,"lon":5.373103,"is_reserved":false,"is_disabled":false,"rental_uris":{"android":"levelo://app?vid=fdbc1b8f-cfd6-453e-b2e7-1c36a4aad28e","ios":"levelo://app?vid=fdbc1b8f-cfd6-453e-b2e7-1c36a4aad28e"},"vehicle_type_id":"4","last_reported":1684296493,"current_range_meters":23600,"station_id":"ce4bgt12rcd13ifvqcd0","pricing_plan_id":"free"},{"bike_id":"e8a55949-c755-4e11-9e90-9bf28ee947d5","system_id":"levelo_inurba_marseille","lat":43.314811,"lon":5.373103,"is_reserved":false,"is_disabled":false,"rental_uris":{"android":"levelo://app?vid=e8a55949-c755-4e11-9e90-9bf28ee947d5","ios":"levelo://app?vid=e8a55949-c755-4e11-9e90-9bf28ee947d5"},"vehicle_type_id":"4","last_reported":1684296493,"current_range_meters":28800,"station_id":"ce4bgt12rcd13ifvqcd0","pricing_plan_id":"free"},{"bike_id":"7865a5a6-1aae-4212-b70a-0110804cf589","system_id":"levelo_inurba_marseille","lat":43.314811,"lon":5.373103,"is_reserved":false,"is_disabled":false,"rental_uris":{"android":"levelo://app?vid=7865a5a6-1aae-4212-b70a-0110804cf589","ios":"levelo://app?vid=7865a5a6-1aae-4212-b70a-0110804cf589"},"vehicle_type_id":"4","last_reported":1684296493,"current_range_meters":29600,"station_id":"ce4bgt12rcd13ifvqcd0","pricing_plan_id":"free"},{"bike_id":"f4db04bb-7900-4a6b-bde7-1e103085891f","system_id":"levelo_inurba_marseille","lat":43.314811,"lon":5.373104,"is_reserved":false,"is_disabled":false,"rental_uris":{"android":"levelo://app?vid=f4db04bb-7900-4a6b-bde7-1e103085891f","ios":"levelo://app?vid=f4db04bb-7900-4a6b-bde7-1e103085891f"},"vehicle_type_id":"4","last_reported":1684296493,"current_range_meters":25200,"station_id":"ce4bgt12rcd13ifvqcd0","pricing_plan_id":"free"},{"bike_id":"7d15ef3d-0a20-4a06-89cd-788dcf7ed27a","system_id":"levelo_inurba_marseille","lat":43.308614,"lon":5.372098,"is_reserved":false,"is_disabled":false,"rental_uris":{"android":"levelo://app?vid=7d15ef3d-0a20-4a06-89cd-788dcf7ed27a","ios":"levelo://app?vid=7d15ef3d-0a20-4a06-89cd-788dcf7ed27a"},"vehicle_type_id":"4","last_reported":1684296493,"current_range_meters":31200,"station_id":"ce4bguh2rcd13ifvqckg","pricing_plan_id":"free"},{"bike_id":"8f9de1f2-558b-4caf-905c-392efbd830b3","system_id":"levelo_inurba_marseille","lat":43.308614,"lon":5.372098,"is_reserved":false,"is_disabled":false,"rental_uris":{"android":"levelo://app?vid=8f9de1f2-558b-4caf-905c-392efbd830b3","ios":"levelo://app?vid=8f9de1f2-558b-4caf-905c-392efbd830b3"},"vehicle_type_id":"4","last_reported":1684296493,"current_range_meters":29200,"station_id":"ce4bguh2rcd13ifvqckg","pricing_plan_id":"free"},{"bike_id":"67a93710-4ae3-45c1-8f3f-4dbe2d9a3c5b","system_id":"levelo_inurba_marseille","lat":43.308614,"lon":5.372098,"is_reserved":false,"is_disabled":false,"rental_uris":{"android":"levelo://app?vid=67a93710-4ae3-45c1-8f3f-4dbe2d9a3c5b","ios":"levelo://app?vid=67a93710-4ae3-45c1-8f3f-4dbe2d9a3c5b"},"vehicle_type_id":"4","last_reported":1684296493,"current_range_meters":30800,"station_id":"ce4bguh2rcd13ifvqckg","pricing_plan_id":"free"},{"bike_id":"f3d83548-0e82-4016-8525-1bddc63c4f36","system_id":"levelo_inurba_marseille","lat":43.308614,"lon":5.372098,"is_reserved":false,"is_disabled":false,"rental_uris":{"android":"levelo://app?vid=f3d83548-0e82-4016-8525-1bddc63c4f36","ios":"levelo://app?vid=f3d83548-0e82-4016-8525-1bddc63c4f36"},"vehicle_type_id":"4","last_reported":1684296493,"current_range_meters":31200,"station_id":"ce4bguh2rcd13ifvqckg","pricing_plan_id":"free"},{"bike_id":"829e9c6d-f004-44a8-ab99-259a0bbb72be","system_id":"levelo_inurba_marseille","lat":43.308614,"lon":5.372098,"is_reserved":false,"is_disabled":false,"rental_uris":{"android":"levelo://app?vid=829e9c6d-f004-44a8-ab99-259a0bbb72be","ios":"levelo://app?vid=829e9c6d-f004-44a8-ab99-259a0bbb72be"},"vehicle_type_id":"4","last_reported":1684296493,"current_range_meters":31200,"station_id":"ce4bguh2rcd13ifvqckg","pricing_plan_id":"free"},{"bike_id":"a9313a8c-0def-4ef8-96d3-1c18bdc85563","system_id":"levelo_inurba_marseille","lat":43.30588,"lon":5.36563,"is_reserved":false,"is_disabled":false,"rental_uris":{"android":"levelo://app?vid=a9313a8c-0def-4ef8-96d3-1c18bdc85563","ios":"levelo://app?vid=a9313a8c-0def-4ef8-96d3-1c18bdc85563"},"vehicle_type_id":"4","last_reported":1684296493,"current_range_meters":0,"station_id":"","pricing_plan_id":"free"},{"bike_id":"258bec47-b2d1-4806-a97c-3ff54407931e","system_id":"levelo_inurba_marseille","lat":43.305368,"lon":5.367343,"is_reserved":false,"is_disabled":false,"rental_uris":{"android":"levelo://app?vid=258bec47-b2d1-4806-a97c-3ff54407931e","ios":"levelo://app?vid=258bec47-b2d1-4806-a97c-3ff54407931e"},"vehicle_type_id":"4","last_reported":1684296493,"current_range_meters":22800,"station_id":"ce4bgrp2rcd13ifvqc9g","pricing_plan_id":"free"},{"bike_id":"93c26c29-5f11-49b4-9111-17fabc56507c","system_id":"levelo_inurba_marseille","lat":43.305989,"lon":5.37225,"is_reserved":false,"is_disabled":false,"rental_uris":{"android":"levelo://app?vid=93c26c29-5f11-49b4-9111-17fabc56507c","ios":"levelo://app?vid=93c26c29-5f11-49b4-9111-17fabc56507c"},"vehicle_type_id":"4","last_reported":1684296493,"current_range_meters":31200,"station_id":"ce4bgqh2rcd13ifvqc4g","pricing_plan_id":"free"},{"bike_id":"5107fb73-59b6-4fc2-99ed-5f6f4bd5ca3d","system_id":"levelo_inurba_marseille","lat":43.305989,"lon":5.37225,"is_reserved":false,"is_disabled":false,"rental_uris":{"android":"levelo://app?vid=5107fb73-59b6-4fc2-99ed-5f6f4bd5ca3d","ios":"levelo://app?vid=5107fb73-59b6-4fc2-99ed-5f6f4bd5ca3d"},"vehicle_type_id":"4","last_reported":1684296493,"current_range_meters":30400,"station_id":"ce4bgqh2rcd13ifvqc4g","pricing_plan_id":"free"},{"bike_id":"8b5857f3-bbf8-4c01-9db5-bab8709a0d8e","system_id":"levelo_inurba_marseille","lat":43.305989,"lon":5.37225,"is_reserved":false,"is_disabled":false,"rental_uris":{"android":"levelo://app?vid=8b5857f3-bbf8-4c01-9db5-bab8709a0d8e","ios":"levelo://app?vid=8b5857f3-bbf8-4c01-9db5-bab8709a0d8e"},"vehicle_type_id":"4","last_reported":1684296493,"current_range_meters":12000,"station_id":"ce4bgqh2rcd13ifvqc4g","pricing_plan_id":"free"},{"bike_id":"8193d127-5a0a-4be4-b317-7fdf50603647","system_id":"levelo_inurba_marseille","lat":43.30601,"lon":5.37213,"is_reserved":false,"is_disabled":false,"rental_uris":{"android":"levelo://app?vid=8193d127-5a0a-4be4-b317-7fdf50603647","ios":"levelo://app?vid=8193d127-5a0a-4be4-b317-7fdf50603647"},"vehicle_type_id":"4","last_reported":1684296493,"current_range_meters":30800,"station_id":"ce4bgqh2rcd13ifvqc4g","pricing_plan_id":"free"},{"bike_id":"fca888a7-2db9-4949-a481-71e20a5311d0","system_id":"levelo_inurba_marseille","lat":43.305989,"lon":5.37225,"is_reserved":false,"is_disabled":false,"rental_uris":{"android":"levelo://app?vid=fca888a7-2db9-4949-a481-71e20a5311d0","ios":"levelo://app?vid=fca888a7-2db9-4949-a481-71e20a5311d0"},"vehicle_type_id":"4","last_reported":1684296493,"current_range_meters":31200,"station_id":"ce4bgqh2rcd13ifvqc4g","pricing_plan_id":"free"},{"bike_id":"175079fc-41e5-4c66-be25-2cfbd230e81e","system_id":"levelo_inurba_marseille","lat":43.30596,"lon":5.3721,"is_reserved":false,"is_disabled":false,"rental_uris":{"android":"levelo://app?vid=175079fc-41e5-4c66-be25-2cfbd230e81e","ios":"levelo://app?vid=175079fc-41e5-4c66-be25-2cfbd230e81e"},"vehicle_type_id":"4","last_reported":1684296493,"current_range_meters":31200,"station_id":"ce4bgqh2rcd13ifvqc4g","pricing_plan_id":"free"},{"bike_id":"77b4ce1c-8e92-4933-be79-d132ba2ed2dd","system_id":"levelo_inurba_marseille","lat":43.30597,"lon":5.37214,"is_reserved":false,"is_disabled":false,"rental_uris":{"android":"levelo://app?vid=77b4ce1c-8e92-4933-be79-d132ba2ed2dd","ios":"levelo://app?vid=77b4ce1c-8e92-4933-be79-d132ba2ed2dd"},"vehicle_type_id":"4","last_reported":1684296493,"current_range_meters":22800,"station_id":"ce4bgqh2rcd13ifvqc4g","pricing_plan_id":"free"},{"bike_id":"762b9b9b-6254-42ea-9e46-691a3c180bd0","system_id":"levelo_inurba_marseille","lat":43.30596,"lon":5.37219,"is_reserved":false,"is_disabled":false,"rental_uris":{"android":"levelo://app?vid=762b9b9b-6254-42ea-9e46-691a3c180bd0","ios":"levelo://app?vid=762b9b9b-6254-42ea-9e46-691a3c180bd0"},"vehicle_type_id":"4","last_reported":1684296493,"current_range_meters":12800,"station_id":"ce4bgqh2rcd13ifvqc4g","pricing_plan_id":"free"},{"bike_id":"851e98ce-30ab-42c1-a57e-03a1ba0aacdd","system_id":"levelo_inurba_marseille","lat":43.30592,"lon":5.37213,"is_reserved":false,"is_disabled":false,"rental_uris":{"android":"levelo://app?vid=851e98ce-30ab-42c1-a57e-03a1ba0aacdd","ios":"levelo://app?vid=851e98ce-30ab-42c1-a57e-03a1ba0aacdd"},"vehicle_type_id":"4","last_reported":1684296493,"current_range_meters":15200,"station_id":"ce4bgqh2rcd13ifvqc4g","pricing_plan_id":"free"},{"bike_id":"930b8f36-0738-407a-8e12-22973e90dae6","system_id":"levelo_inurba_marseille","lat":43.30598,"lon":5.37235,"is_reserved":false,"is_disabled":false,"rental_uris":{"android":"levelo://app?vid=930b8f36-0738-407a-8e12-22973e90dae6","ios":"levelo://app?vid=930b8f36-0738-407a-8e12-22973e90dae6"},"vehicle_type_id":"4","last_reported":1684296493,"current_range_meters":28400,"station_id":"ce4bgqh2rcd13ifvqc4g","pricing_plan_id":"free"},{"bike_id":"ba63afc0-535a-4a06-871a-090ba70586e8","system_id":"levelo_inurba_marseille","lat":43.311125,"lon":5.377624,"is_reserved":false,"is_disabled":false,"rental_uris":{"android":"levelo://app?vid=ba63afc0-535a-4a06-871a-090ba70586e8","ios":"levelo://app?vid=ba63afc0-535a-4a06-871a-090ba70586e8"},"vehicle_type_id":"4","last_reported":1684296493,"current_range_meters":0,"station_id":"ce4bgt92rcd13ifvqcg0","pricing_plan_id":"free"},{"bike_id":"e50451f9-1018-47e4-8998-c1834a92e137","system_id":"levelo_inurba_marseille","lat":43.317075,"lon":5.377367,"is_reserved":false,"is_disabled":false,"rental_uris":{"android":"levelo://app?vid=e50451f9-1018-47e4-8998-c1834a92e137","ios":"levelo://app?vid=e50451f9-1018-47e4-8998-c1834a92e137"},"vehicle_type_id":"4","last_reported":1684296493,"current_range_meters":32000,"station_id":"ce4bgth2rcd13ifvqch0","pricing_plan_id":"free"},{"bike_id":"638860ab-d0a8-435b-9279-db968df5f07e","system_id":"levelo_inurba_marseille","lat":43.317075,"lon":5.377367,"is_reserved":false,"is_disabled":false,"rental_uris":{"android":"levelo://app?vid=638860ab-d0a8-435b-9279-db968df5f07e","ios":"levelo://app?vid=638860ab-d0a8-435b-9279-db968df5f07e"},"vehicle_type_id":"4","last_reported":1684296493,"current_range_meters":17200,"station_id":"ce4bgth2rcd13ifvqch0","pricing_plan_id":"free"},{"bike_id":"242d290c-dd32-4d21-b6a0-cbc8c4e0f561","system_id":"levelo_inurba_marseille","lat":43.317075,"lon":5.377367,"is_reserved":false,"is_disabled":false,"rental_uris":{"android":"levelo://app?vid=242d290c-dd32-4d21-b6a0-cbc8c4e0f561","ios":"levelo://app?vid=242d290c-dd32-4d21-b6a0-cbc8c4e0f561"},"vehicle_type_id":"4","last_reported":1684296493,"current_range_meters":31600,"station_id":"ce4bgth2rcd13ifvqch0","pricing_plan_id":"free"},{"bike_id":"21fda91c-3b91-4030-9b0a-7959ce3836d6","system_id":"levelo_inurba_marseille","lat":43.303046,"lon":5.368981,"is_reserved":false,"is_disabled":false,"rental_uris":{"android":"levelo://app?vid=21fda91c-3b91-4030-9b0a-7959ce3836d6","ios":"levelo://app?vid=21fda91c-3b91-4030-9b0a-7959ce3836d6"},"vehicle_type_id":"4","last_reported":1684296493,"current_range_meters":31200,"station_id":"ce4bgqh2rcd13ifvqc5g","pricing_plan_id":"free"},{"bike_id":"78af6f2a-0d2b-48f4-9bfe-e92715a84b5e","system_id":"levelo_inurba_marseille","lat":43.303046,"lon":5.368981,"is_reserved":false,"is_disabled":false,"rental_uris":{"android":"levelo://app?vid=78af6f2a-0d2b-48f4-9bfe-e92715a84b5e","ios":"levelo://app?vid=78af6f2a-0d2b-48f4-9bfe-e92715a84b5e"},"vehicle_type_id":"4","last_reported":1684296493,"current_range_meters":28400,"station_id":"ce4bgqh2rcd13ifvqc5g","pricing_plan_id":"free"},{"bike_id":"0d10c379-234e-4e07-a11b-6f1247f8e6f7","system_id":"levelo_inurba_marseille","lat":43.303046,"lon":5.368981,"is_reserved":false,"is_disabled":false,"rental_uris":{"android":"levelo://app?vid=0d10c379-234e-4e07-a11b-6f1247f8e6f7","ios":"levelo://app?vid=0d10c379-234e-4e07-a11b-6f1247f8e6f7"},"vehicle_type_id":"4","last_reported":1684296493,"current_range_meters":31200,"station_id":"ce4bgqh2rcd13ifvqc5g","pricing_plan_id":"free"},{"bike_id":"09f5c300-587b-4b01-87fc-abc4c4105a75","system_id":"levelo_inurba_marseille","lat":43.303046,"lon":5.368981,"is_reserved":false,"is_disabled":false,"rental_uris":{"android":"levelo://app?vid=09f5c300-587b-4b01-87fc-abc4c4105a75","ios":"levelo://app?vid=09f5c300-587b-4b01-87fc-abc4c4105a75"},"vehicle_type_id":"4","last_reported":1684296493,"current_range_meters":26400,"station_id":"ce4bgqh2rcd13ifvqc5g","pricing_plan_id":"free"},{"bike_id":"88ad9a11-ecdd-4e22-88d2-33ec3cd11838","system_id":"levelo_inurba_marseille","lat":43.303046,"lon":5.368981,"is_reserved":false,"is_disabled":false,"rental_uris":{"android":"levelo://app?vid=88ad9a11-ecdd-4e22-88d2-33ec3cd11838","ios":"levelo://app?vid=88ad9a11-ecdd-4e22-88d2-33ec3cd11838"},"vehicle_type_id":"4","last_reported":1684296493,"current_range_meters":25600,"station_id":"ce4bgqh2rcd13ifvqc5g","pricing_plan_id":"free"},{"bike_id":"5813f1e8-5cd9-4a86-8c78-6540df81010d","system_id":"levelo_inurba_marseille","lat":43.303046,"lon":5.368981,"is_reserved":false,"is_disabled":false,"rental_uris":{"android":"levelo://app?vid=5813f1e8-5cd9-4a86-8c78-6540df81010d","ios":"levelo://app?vid=5813f1e8-5cd9-4a86-8c78-6540df81010d"},"vehicle_type_id":"4","last_reported":1684296493,"current_range_meters":29600,"station_id":"ce4bgqh2rcd13ifvqc5g","pricing_plan_id":"free"},{"bike_id":"3d69390e-fa88-4efa-957d-ff9f72fa7556","system_id":"levelo_inurba_marseille","lat":43.303046,"lon":5.368981,"is_reserved":false,"is_disabled":false,"rental_uris":{"android":"levelo://app?vid=3d69390e-fa88-4efa-957d-ff9f72fa7556","ios":"levelo://app?vid=3d69390e-fa88-4efa-957d-ff9f72fa7556"},"vehicle_type_id":"4","last_reported":1684296493,"current_range_meters":22000,"station_id":"ce4bgqh2rcd13ifvqc5g","pricing_plan_id":"free"},{"bike_id":"bfad8e68-bf68-4ac1-90b5-67af31950bdb","system_id":"levelo_inurba_marseille","lat":43.315289,"lon":5.380349,"is_reserved":false,"is_disabled":false,"rental_uris":{"android":"levelo://app?vid=bfad8e68-bf68-4ac1-90b5-67af31950bdb","ios":"levelo://app?vid=bfad8e68-bf68-4ac1-90b5-67af31950bdb"},"vehicle_type_id":"4","last_reported":1684296493,"current_range_meters":30800,"station_id":"ce4bhsp2rcd13ifvqi50","pricing_plan_id":"free"},{"bike_id":"506c29cb-d65f-49af-b01e-c2536ccc8070","system_id":"levelo_inurba_marseille","lat":43.315293,"lon":5.380349,"is_reserved":false,"is_disabled":false,"rental_uris":{"android":"levelo://app?vid=506c29cb-d65f-49af-b01e-c2536ccc8070","ios":"levelo://app?vid=506c29cb-d65f-49af-b01e-c2536ccc8070"},"vehicle_type_id":"4","last_reported":1684296493,"current_range_meters":20400,"station_id":"ce4bhsp2rcd13ifvqi50","pricing_plan_id":"free"},{"bike_id":"60962ffd-73dd-4171-bd4f-f3eaca039878","system_id":"levelo_inurba_marseille","lat":43.301939,"lon":5.366286,"is_reserved":false,"is_disabled":false,"rental_uris":{"android":"levelo://app?vid=60962ffd-73dd-4171-bd4f-f3eaca039878","ios":"levelo://app?vid=60962ffd-73dd-4171-bd4f-f3eaca039878"},"vehicle_type_id":"4","last_reported":1684296493,"current_range_meters":12800,"station_id":"ce4bgrh2rcd13ifvqc8g","pricing_plan_id":"free"},{"bike_id":"6183bd06-0f1a-438e-807d-5fc1b4eb6023","system_id":"levelo_inurba_marseille","lat":43.308012,"lon":5.381511,"is_reserved":false,"is_disabled":false,"rental_uris":{"android":"levelo://app?vid=6183bd06-0f1a-438e-807d-5fc1b4eb6023","ios":"levelo://app?vid=6183bd06-0f1a-438e-807d-5fc1b4eb6023"},"vehicle_type_id":"4","last_reported":1684296493,"current_range_meters":26800,"station_id":"ce4bgt12rcd13ifvqce0","pricing_plan_id":"free"},{"bike_id":"ef04dfbc-7bab-45f2-9c62-d1e01d155156","system_id":"levelo_inurba_marseille","lat":43.308012,"lon":5.381511,"is_reserved":false,"is_disabled":false,"rental_uris":{"android":"levelo://app?vid=ef04dfbc-7bab-45f2-9c62-d1e01d155156","ios":"levelo://app?vid=ef04dfbc-7bab-45f2-9c62-d1e01d155156"},"vehicle_type_id":"4","last_reported":1684296493,"current_range_meters":23600,"station_id":"ce4bgt12rcd13ifvqce0","pricing_plan_id":"free"},{"bike_id":"a66c598b-40ab-4535-90fd-b14bbe643cb4","system_id":"levelo_inurba_marseille","lat":43.308012,"lon":5.381511,"is_reserved":false,"is_disabled":false,"rental_uris":{"android":"levelo://app?vid=a66c598b-40ab-4535-90fd-b14bbe643cb4","ios":"levelo://app?vid=a66c598b-40ab-4535-90fd-b14bbe643cb4"},"vehicle_type_id":"4","last_reported":1684296493,"current_range_meters":30800,"station_id":"ce4bgt12rcd13ifvqce0","pricing_plan_id":"free"},{"bike_id":"ead5b0ac-2a04-4c1a-9b0d-47162d037ac0","system_id":"levelo_inurba_marseille","lat":43.308012,"lon":5.381511,"is_reserved":false,"is_disabled":false,"rental_uris":{"android":"levelo://app?vid=ead5b0ac-2a04-4c1a-9b0d-47162d037ac0","ios":"levelo://app?vid=ead5b0ac-2a04-4c1a-9b0d-47162d037ac0"},"vehicle_type_id":"4","last_reported":1684296493,"current_range_meters":27600,"station_id":"ce4bgt12rcd13ifvqce0","pricing_plan_id":"free"},{"bike_id":"13d0c936-8236-4dc1-a20f-91fba509097b","system_id":"levelo_inurba_marseille","lat":43.308012,"lon":5.381511,"is_reserved":false,"is_disabled":false,"rental_uris":{"android":"levelo://app?vid=13d0c936-8236-4dc1-a20f-91fba509097b","ios":"levelo://app?vid=13d0c936-8236-4dc1-a20f-91fba509097b"},"vehicle_type_id":"4","last_reported":1684296493,"current_range_meters":30800,"station_id":"ce4bgt12rcd13ifvqce0","pricing_plan_id":"free"},{"bike_id":"70b470e2-ce3d-4667-a100-d22a94bff4a5","system_id":"levelo_inurba_marseille","lat":43.308012,"lon":5.381511,"is_reserved":false,"is_disabled":false,"rental_uris":{"android":"levelo://app?vid=70b470e2-ce3d-4667-a100-d22a94bff4a5","ios":"levelo://app?vid=70b470e2-ce3d-4667-a100-d22a94bff4a5"},"vehicle_type_id":"4","last_reported":1684296493,"current_range_meters":30800,"station_id":"ce4bgt12rcd13ifvqce0","pricing_plan_id":"free"},{"bike_id":"64219459-c65d-4d96-bcb0-22f7e6ae8049","system_id":"levelo_inurba_marseille","lat":43.308012,"lon":5.381511,"is_reserved":false,"is_disabled":false,"rental_uris":{"android":"levelo://app?vid=64219459-c65d-4d96-bcb0-22f7e6ae8049","ios":"levelo://app?vid=64219459-c65d-4d96-bcb0-22f7e6ae8049"},"vehicle_type_id":"4","last_reported":1684296493,"current_range_meters":25600,"station_id":"ce4bgt12rcd13ifvqce0","pricing_plan_id":"free"},{"bike_id":"2eff1fe0-7b28-43ee-8406-64e37397d359","system_id":"levelo_inurba_marseille","lat":43.308012,"lon":5.381511,"is_reserved":false,"is_disabled":false,"rental_uris":{"android":"levelo://app?vid=2eff1fe0-7b28-43ee-8406-64e37397d359","ios":"levelo://app?vid=2eff1fe0-7b28-43ee-8406-64e37397d359"},"vehicle_type_id":"4","last_reported":1684296493,"current_range_meters":800,"station_id":"ce4bgt12rcd13ifvqce0","pricing_plan_id":"free"},{"bike_id":"a2dd2964-fc7a-4a1a-9a4f-4cd1a0c8d164","system_id":"levelo_inurba_marseille","lat":43.308012,"lon":5.381511,"is_reserved":false,"is_disabled":false,"rental_uris":{"android":"levelo://app?vid=a2dd2964-fc7a-4a1a-9a4f-4cd1a0c8d164","ios":"levelo://app?vid=a2dd2964-fc7a-4a1a-9a4f-4cd1a0c8d164"},"vehicle_type_id":"4","last_reported":1684296493,"current_range_meters":27600,"station_id":"ce4bgt12rcd13ifvqce0","pricing_plan_id":"free"},{"bike_id":"56cc3b2e-1450-4e44-ac26-44f03d4ef26e","system_id":"levelo_inurba_marseille","lat":43.308012,"lon":5.381511,"is_reserved":false,"is_disabled":false,"rental_uris":{"android":"levelo://app?vid=56cc3b2e-1450-4e44-ac26-44f03d4ef26e","ios":"levelo://app?vid=56cc3b2e-1450-4e44-ac26-44f03d4ef26e"},"vehicle_type_id":"4","last_reported":1684296493,"current_range_meters":15600,"station_id":"ce4bgt12rcd13ifvqce0","pricing_plan_id":"free"},{"bike_id":"9cead53b-4a42-4679-908e-cfaaf47a5c90","system_id":"levelo_inurba_marseille","lat":43.308012,"lon":5.381511,"is_reserved":false,"is_disabled":false,"rental_uris":{"android":"levelo://app?vid=9cead53b-4a42-4679-908e-cfaaf47a5c90","ios":"levelo://app?vid=9cead53b-4a42-4679-908e-cfaaf47a5c90"},"vehicle_type_id":"4","last_reported":1684296493,"current_range_meters":17200,"station_id":"ce4bgt12rcd13ifvqce0","pricing_plan_id":"free"},{"bike_id":"6ff62900-1a16-46e5-853a-66e9c387e66c","system_id":"levelo_inurba_marseille","lat":43.30144,"lon":5.37404,"is_reserved":false,"is_disabled":false,"rental_uris":{"android":"levelo://app?vid=6ff62900-1a16-46e5-853a-66e9c387e66c","ios":"levelo://app?vid=6ff62900-1a16-46e5-853a-66e9c387e66c"},"vehicle_type_id":"4","last_reported":1684296493,"current_range_meters":0,"station_id":"","pricing_plan_id":"free"},{"bike_id":"632f05ac-0cdb-4eea-8bc5-e63bb64415c1","system_id":"levelo_inurba_marseille","lat":43.30143,"lon":5.37411,"is_reserved":false,"is_disabled":false,"rental_uris":{"android":"levelo://app?vid=632f05ac-0cdb-4eea-8bc5-e63bb64415c1","ios":"levelo://app?vid=632f05ac-0cdb-4eea-8bc5-e63bb64415c1"},"vehicle_type_id":"4","last_reported":1684296493,"current_range_meters":23200,"station_id":"","pricing_plan_id":"free"},{"bike_id":"34161681-d118-407a-8bcf-379167cd9ffa","system_id":"levelo_inurba_marseille","lat":43.313571,"lon":5.384829,"is_reserved":false,"is_disabled":false,"rental_uris":{"android":"levelo://app?vid=34161681-d118-407a-8bcf-379167cd9ffa","ios":"levelo://app?vid=34161681-d118-407a-8bcf-379167cd9ffa"},"vehicle_type_id":"4","last_reported":1684296493,"current_range_meters":31200,"station_id":"ce4bgt92rcd13ifvqcf0","pricing_plan_id":"free"},{"bike_id":"4a00badf-9e46-439d-8479-aecff47b0a91","system_id":"levelo_inurba_marseille","lat":43.313571,"lon":5.384829,"is_reserved":false,"is_disabled":false,"rental_uris":{"android":"levelo://app?vid=4a00badf-9e46-439d-8479-aecff47b0a91","ios":"levelo://app?vid=4a00badf-9e46-439d-8479-aecff47b0a91"},"vehicle_type_id":"4","last_reported":1684296493,"current_range_meters":31200,"station_id":"ce4bgt92rcd13ifvqcf0","pricing_plan_id":"free"},{"bike_id":"3da19d9f-cf42-4905-afc2-cc9c8c9465f2","system_id":"levelo_inurba_marseille","lat":43.299222,"lon":5.365554,"is_reserved":false,"is_disabled":false,"rental_uris":{"android":"levelo://app?vid=3da19d9f-cf42-4905-afc2-cc9c8c9465f2","ios":"levelo://app?vid=3da19d9f-cf42-4905-afc2-cc9c8c9465f2"},"vehicle_type_id":"4","last_reported":1684296493,"current_range_meters":6000,"station_id":"ce4bgm92rcd13ifvqbr0","pricing_plan_id":"free"},{"bike_id":"018a001f-7ae0-4662-861c-956f0b0b63de","system_id":"levelo_inurba_marseille","lat":43.29849,"lon":5.36286,"is_reserved":false,"is_disabled":false,"rental_uris":{"android":"levelo://app?vid=018a001f-7ae0-4662-861c-956f0b0b63de","ios":"levelo://app?vid=018a001f-7ae0-4662-861c-956f0b0b63de"},"vehicle_type_id":"4","last_reported":1684296493,"current_range_meters":28000,"station_id":"ce4bgpp2rcd13ifvqc3g","pricing_plan_id":"free"},{"bike_id":"92b56205-d7e6-492e-9477-5a3a1327bd57","system_id":"levelo_inurba_marseille","lat":43.299243,"lon":5.374807,"is_reserved":false,"is_disabled":false,"rental_uris":{"android":"levelo://app?vid=92b56205-d7e6-492e-9477-5a3a1327bd57","ios":"levelo://app?vid=92b56205-d7e6-492e-9477-5a3a1327bd57"},"vehicle_type_id":"4","last_reported":1684296493,"current_range_meters":26800,"station_id":"ce4bgjh2rcd13ifvqbg0","pricing_plan_id":"free"},{"bike_id":"67c7c5e8-1090-46f9-bcf5-cf6068767acc","system_id":"levelo_inurba_marseille","lat":43.298429,"lon":5.362758,"is_reserved":false,"is_disabled":false,"rental_uris":{"android":"levelo://app?vid=67c7c5e8-1090-46f9-bcf5-cf6068767acc","ios":"levelo://app?vid=67c7c5e8-1090-46f9-bcf5-cf6068767acc"},"vehicle_type_id":"4","last_reported":1684296493,"current_range_meters":7600,"station_id":"ce4bgi12rcd13ifvqb70","pricing_plan_id":"free"},{"bike_id":"1dcf4a68-cedd-4a42-8a2a-54fc20efc9a4","system_id":"levelo_inurba_marseille","lat":43.311722,"lon":5.387247,"is_reserved":false,"is_disabled":false,"rental_uris":{"android":"levelo://app?vid=1dcf4a68-cedd-4a42-8a2a-54fc20efc9a4","ios":"levelo://app?vid=1dcf4a68-cedd-4a42-8a2a-54fc20efc9a4"},"vehicle_type_id":"4","last_reported":1684296493,"current_range_meters":27200,"station_id":"ce4bgv12rcd13ifvqcp0","pricing_plan_id":"free"},{"bike_id":"35bac4ea-59b4-40dc-872c-5e0b09ed1b91","system_id":"levelo_inurba_marseille","lat":43.305364,"lon":5.384119,"is_reserved":false,"is_disabled":false,"rental_uris":{"android":"levelo://app?vid=35bac4ea-59b4-40dc-872c-5e0b09ed1b91","ios":"levelo://app?vid=35bac4ea-59b4-40dc-872c-5e0b09ed1b91"},"vehicle_type_id":"4","last_reported":1684296493,"current_range_meters":18000,"station_id":"ce4bgg92rcd13ifvqb30","pricing_plan_id":"free"},{"bike_id":"3dc6c85c-b167-4108-b01d-2b253e89c278","system_id":"levelo_inurba_marseille","lat":43.305364,"lon":5.384119,"is_reserved":false,"is_disabled":false,"rental_uris":{"android":"levelo://app?vid=3dc6c85c-b167-4108-b01d-2b253e89c278","ios":"levelo://app?vid=3dc6c85c-b167-4108-b01d-2b253e89c278"},"vehicle_type_id":"4","last_reported":1684296493,"current_range_meters":400,"station_id":"ce4bgg92rcd13ifvqb30","pricing_plan_id":"free"},{"bike_id":"6202fbd8-fd5c-47cc-808a-e6282d09c1d0","system_id":"levelo_inurba_marseille","lat":43.311722,"lon":5.387247,"is_reserved":false,"is_disabled":false,"rental_uris":{"android":"levelo://app?vid=6202fbd8-fd5c-47cc-808a-e6282d09c1d0","ios":"levelo://app?vid=6202fbd8-fd5c-47cc-808a-e6282d09c1d0"},"vehicle_type_id":"4","last_reported":1684296493,"current_range_meters":28800,"station_id":"ce4bgv12rcd13ifvqcp0","pricing_plan_id":"free"},{"bike_id":"adabaa8a-b8e0-472f-b288-166e8f695f39","system_id":"levelo_inurba_marseille","lat":43.311722,"lon":5.387247,"is_reserved":false,"is_disabled":false,"rental_uris":{"android":"levelo://app?vid=adabaa8a-b8e0-472f-b288-166e8f695f39","ios":"levelo://app?vid=adabaa8a-b8e0-472f-b288-166e8f695f39"},"vehicle_type_id":"4","last_reported":1684296493,"current_range_meters":30000,"station_id":"ce4bgv12rcd13ifvqcp0","pricing_plan_id":"free"},{"bike_id":"9187b789-b017-4f65-a9d5-ed804e94cd42","system_id":"levelo_inurba_marseille","lat":43.311722,"lon":5.387247,"is_reserved":false,"is_disabled":false,"rental_uris":{"android":"levelo://app?vid=9187b789-b017-4f65-a9d5-ed804e94cd42","ios":"levelo://app?vid=9187b789-b017-4f65-a9d5-ed804e94cd42"},"vehicle_type_id":"4","last_reported":1684296493,"current_range_meters":30000,"station_id":"ce4bgv12rcd13ifvqcp0","pricing_plan_id":"free"},{"bike_id":"fb6735c6-efd2-45e1-82ac-9153f0a72c25","system_id":"levelo_inurba_marseille","lat":43.297794,"lon":5.370888,"is_reserved":false,"is_disabled":false,"rental_uris":{"android":"levelo://app?vid=fb6735c6-efd2-45e1-82ac-9153f0a72c25","ios":"levelo://app?vid=fb6735c6-efd2-45e1-82ac-9153f0a72c25"},"vehicle_type_id":"4","last_reported":1684296493,"current_range_meters":31200,"station_id":"ce4bgop2rcd13ifvqc1g","pricing_plan_id":"free"},{"bike_id":"56e01634-3e30-4c17-a9b9-cd520ed899f6","system_id":"levelo_inurba_marseille","lat":43.29789,"lon":5.37108,"is_reserved":false,"is_disabled":false,"rental_uris":{"android":"levelo://app?vid=56e01634-3e30-4c17-a9b9-cd520ed899f6","ios":"levelo://app?vid=56e01634-3e30-4c17-a9b9-cd520ed899f6"},"vehicle_type_id":"4","last_reported":1684296493,"current_range_meters":28400,"station_id":"ce4bgop2rcd13ifvqc1g","pricing_plan_id":"free"},{"bike_id":"1c22effb-f832-4d52-9f4a-f9f9c494821b","system_id":"levelo_inurba_marseille","lat":43.32822,"lon":5.36685,"is_reserved":false,"is_disabled":false,"rental_uris":{"android":"levelo://app?vid=1c22effb-f832-4d52-9f4a-f9f9c494821b","ios":"levelo://app?vid=1c22effb-f832-4d52-9f4a-f9f9c494821b"},"vehicle_type_id":"4","last_reported":1684296493,"current_range_meters":13600,"station_id":"ce4bhs92rcd13ifvqi0g","pricing_plan_id":"free"},{"bike_id":"a7fb6a73-9ebf-4b56-938e-67995ffda768","system_id":"levelo_inurba_marseille","lat":43.32823,"lon":5.36686,"is_reserved":false,"is_disabled":false,"rental_uris":{"android":"levelo://app?vid=a7fb6a73-9ebf-4b56-938e-67995ffda768","ios":"levelo://app?vid=a7fb6a73-9ebf-4b56-938e-67995ffda768"},"vehicle_type_id":"4","last_reported":1684296493,"current_range_meters":21600,"station_id":"ce4bhs92rcd13ifvqi0g","pricing_plan_id":"free"},{"bike_id":"50149ece-7522-43ec-97fe-a4cd6ce6dd21","system_id":"levelo_inurba_marseille","lat":43.32826,"lon":5.36691,"is_reserved":false,"is_disabled":false,"rental_uris":{"android":"levelo://app?vid=50149ece-7522-43ec-97fe-a4cd6ce6dd21","ios":"levelo://app?vid=50149ece-7522-43ec-97fe-a4cd6ce6dd21"},"vehicle_type_id":"4","last_reported":1684296493,"current_range_meters":23600,"station_id":"ce4bhs92rcd13ifvqi0g","pricing_plan_id":"free"},{"bike_id":"af236023-592e-4864-9c24-bbb73a28b972","system_id":"levelo_inurba_marseille","lat":43.32826,"lon":5.3668,"is_reserved":false,"is_disabled":false,"rental_uris":{"android":"levelo://app?vid=af236023-592e-4864-9c24-bbb73a28b972","ios":"levelo://app?vid=af236023-592e-4864-9c24-bbb73a28b972"},"vehicle_type_id":"4","last_reported":1684296493,"current_range_meters":16800,"station_id":"ce4bhs92rcd13ifvqi0g","pricing_plan_id":"free"},{"bike_id":"007905e1-2dbf-4a05-81e8-d677239bfaa7","system_id":"levelo_inurba_marseille","lat":43.32826,"lon":5.36679,"is_reserved":false,"is_disabled":false,"rental_uris":{"android":"levelo://app?vid=007905e1-2dbf-4a05-81e8-d677239bfaa7","ios":"levelo://app?vid=007905e1-2dbf-4a05-81e8-d677239bfaa7"},"vehicle_type_id":"4","last_reported":1684296493,"current_range_meters":10800,"station_id":"ce4bhs92rcd13ifvqi0g","pricing_plan_id":"free"},{"bike_id":"b05677d6-023b-4a12-a9b5-b4f94ca59a63","system_id":"levelo_inurba_marseille","lat":43.32827,"lon":5.36687,"is_reserved":false,"is_disabled":false,"rental_uris":{"android":"levelo://app?vid=b05677d6-023b-4a12-a9b5-b4f94ca59a63","ios":"levelo://app?vid=b05677d6-023b-4a12-a9b5-b4f94ca59a63"},"vehicle_type_id":"4","last_reported":1684296493,"current_range_meters":26800,"station_id":"ce4bhs92rcd13ifvqi0g","pricing_plan_id":"free"},{"bike_id":"fccfd339-db22-4277-bdd0-196f87e474ac","system_id":"levelo_inurba_marseille","lat":43.32827,"lon":5.3668,"is_reserved":false,"is_disabled":false,"rental_uris":{"android":"levelo://app?vid=fccfd339-db22-4277-bdd0-196f87e474ac","ios":"levelo://app?vid=fccfd339-db22-4277-bdd0-196f87e474ac"},"vehicle_type_id":"4","last_reported":1684296493,"current_range_meters":18400,"station_id":"ce4bhs92rcd13ifvqi0g","pricing_plan_id":"free"},{"bike_id":"71a7cd51-c98e-4b63-902f-c2f5a808a065","system_id":"levelo_inurba_marseille","lat":43.32828,"lon":5.36692,"is_reserved":false,"is_disabled":false,"rental_uris":{"android":"levelo://app?vid=71a7cd51-c98e-4b63-902f-c2f5a808a065","ios":"levelo://app?vid=71a7cd51-c98e-4b63-902f-c2f5a808a065"},"vehicle_type_id":"4","last_reported":1684296493,"current_range_meters":13600,"station_id":"ce4bhs92rcd13ifvqi0g","pricing_plan_id":"free"},{"bike_id":"b7a4e082-92e4-4de1-841b-169813c8b8b1","system_id":"levelo_inurba_marseille","lat":43.32828,"lon":5.36684,"is_reserved":false,"is_disabled":false,"rental_uris":{"android":"levelo://app?vid=b7a4e082-92e4-4de1-841b-169813c8b8b1","ios":"levelo://app?vid=b7a4e082-92e4-4de1-841b-169813c8b8b1"},"vehicle_type_id":"4","last_reported":1684296493,"current_range_meters":17600,"station_id":"ce4bhs92rcd13ifvqi0g","pricing_plan_id":"free"},{"bike_id":"8719dbbe-15a6-4ba2-b191-7abeb89dd924","system_id":"levelo_inurba_marseille","lat":43.3283,"lon":5.3669,"is_reserved":false,"is_disabled":false,"rental_uris":{"android":"levelo://app?vid=8719dbbe-15a6-4ba2-b191-7abeb89dd924","ios":"levelo://app?vid=8719dbbe-15a6-4ba2-b191-7abeb89dd924"},"vehicle_type_id":"4","last_reported":1684296493,"current_range_meters":17200,"station_id":"ce4bhs92rcd13ifvqi0g","pricing_plan_id":"free"},{"bike_id":"9bd21d6c-9aaf-4193-bb38-eb8af272920e","system_id":"levelo_inurba_marseille","lat":43.3283,"lon":5.36689,"is_reserved":false,"is_disabled":false,"rental_uris":{"android":"levelo://app?vid=9bd21d6c-9aaf-4193-bb38-eb8af272920e","ios":"levelo://app?vid=9bd21d6c-9aaf-4193-bb38-eb8af272920e"},"vehicle_type_id":"4","last_reported":1684296493,"current_range_meters":19200,"station_id":"ce4bhs92rcd13ifvqi0g","pricing_plan_id":"free"},{"bike_id":"47fe55c6-fb06-44d0-b8f0-f1689ae65490","system_id":"levelo_inurba_marseille","lat":43.3283,"lon":5.36685,"is_reserved":false,"is_disabled":false,"rental_uris":{"android":"levelo://app?vid=47fe55c6-fb06-44d0-b8f0-f1689ae65490","ios":"levelo://app?vid=47fe55c6-fb06-44d0-b8f0-f1689ae65490"},"vehicle_type_id":"4","last_reported":1684296493,"current_range_meters":0,"station_id":"ce4bhs92rcd13ifvqi0g","pricing_plan_id":"free"},{"bike_id":"63548345-b180-4d94-b6e0-92587dfa0490","system_id":"levelo_inurba_marseille","lat":43.3283,"lon":5.3668,"is_reserved":false,"is_disabled":false,"rental_uris":{"android":"levelo://app?vid=63548345-b180-4d94-b6e0-92587dfa0490","ios":"levelo://app?vid=63548345-b180-4d94-b6e0-92587dfa0490"},"vehicle_type_id":"4","last_reported":1684296493,"current_range_meters":14000,"station_id":"ce4bhs92rcd13ifvqi0g","pricing_plan_id":"free"},{"bike_id":"97c748fa-7641-4ede-bfae-5dccd778300d","system_id":"levelo_inurba_marseille","lat":43.29707,"lon":5.36672,"is_reserved":false,"is_disabled":false,"rental_uris":{"android":"levelo://app?vid=97c748fa-7641-4ede-bfae-5dccd778300d","ios":"levelo://app?vid=97c748fa-7641-4ede-bfae-5dccd778300d"},"vehicle_type_id":"4","last_reported":1684296493,"current_range_meters":0,"station_id":"","pricing_plan_id":"free"},{"bike_id":"4b2b17fa-2df8-4b46-a001-fd813fa5706e","system_id":"levelo_inurba_marseille","lat":43.29696,"lon":5.36606,"is_reserved":false,"is_disabled":false,"rental_uris":{"android":"levelo://app?vid=4b2b17fa-2df8-4b46-a001-fd813fa5706e","ios":"levelo://app?vid=4b2b17fa-2df8-4b46-a001-fd813fa5706e"},"vehicle_type_id":"4","last_reported":1684296493,"current_range_meters":4400,"station_id":"","pricing_plan_id":"free"},{"bike_id":"3a33f3d1-6f98-4564-935f-4d123df91ce3","system_id":"levelo_inurba_marseille","lat":43.30348,"lon":5.38595,"is_reserved":false,"is_disabled":false,"rental_uris":{"android":"levelo://app?vid=3a33f3d1-6f98-4564-935f-4d123df91ce3","ios":"levelo://app?vid=3a33f3d1-6f98-4564-935f-4d123df91ce3"},"vehicle_type_id":"4","last_reported":1684296493,"current_range_meters":0,"station_id":"","pricing_plan_id":"free"},{"bike_id":"930d23b9-d9c9-4e25-b207-9d10bc106721","system_id":"levelo_inurba_marseille","lat":43.296131,"lon":5.370791,"is_reserved":false,"is_disabled":false,"rental_uris":{"android":"levelo://app?vid=930d23b9-d9c9-4e25-b207-9d10bc106721","ios":"levelo://app?vid=930d23b9-d9c9-4e25-b207-9d10bc106721"},"vehicle_type_id":"4","last_reported":1684296493,"current_range_meters":29600,"station_id":"ce4bgnh2rcd13ifvqc0g","pricing_plan_id":"free"},{"bike_id":"8efb61d1-4f1e-45fb-ad85-616ae26364da","system_id":"levelo_inurba_marseille","lat":43.296921,"lon":5.376579,"is_reserved":false,"is_disabled":false,"rental_uris":{"android":"levelo://app?vid=8efb61d1-4f1e-45fb-ad85-616ae26364da","ios":"levelo://app?vid=8efb61d1-4f1e-45fb-ad85-616ae26364da"},"vehicle_type_id":"4","last_reported":1684296493,"current_range_meters":15200,"station_id":"ce4bgkh2rcd13ifvqbl0","pricing_plan_id":"free"},{"bike_id":"188d985e-17d4-4440-8d56-63fde33807b5","system_id":"levelo_inurba_marseille","lat":43.299028,"lon":5.381509,"is_reserved":false,"is_disabled":false,"rental_uris":{"android":"levelo://app?vid=188d985e-17d4-4440-8d56-63fde33807b5","ios":"levelo://app?vid=188d985e-17d4-4440-8d56-63fde33807b5"},"vehicle_type_id":"4","last_reported":1684296493,"current_range_meters":18800,"station_id":"ce4bgj12rcd13ifvqbc0","pricing_plan_id":"free"},{"bike_id":"a7d7a33c-6c3d-4676-a3eb-46e884e1b48e","system_id":"levelo_inurba_marseille","lat":43.309589,"lon":5.390258,"is_reserved":false,"is_disabled":false,"rental_uris":{"android":"levelo://app?vid=a7d7a33c-6c3d-4676-a3eb-46e884e1b48e","ios":"levelo://app?vid=a7d7a33c-6c3d-4676-a3eb-46e884e1b48e"},"vehicle_type_id":"4","last_reported":1684296493,"current_range_meters":31200,"station_id":"ce4bgup2rcd13ifvqco0","pricing_plan_id":"free"},{"bike_id":"33f89043-a631-41ed-bb1f-6290fc75fc06","system_id":"levelo_inurba_marseille","lat":43.309589,"lon":5.390258,"is_reserved":false,"is_disabled":false,"rental_uris":{"android":"levelo://app?vid=33f89043-a631-41ed-bb1f-6290fc75fc06","ios":"levelo://app?vid=33f89043-a631-41ed-bb1f-6290fc75fc06"},"vehicle_type_id":"4","last_reported":1684296493,"current_range_meters":31200,"station_id":"ce4bgup2rcd13ifvqco0","pricing_plan_id":"free"},{"bike_id":"581265db-1943-476e-8c36-12f2eddc6d8a","system_id":"levelo_inurba_marseille","lat":43.309589,"lon":5.390258,"is_reserved":false,"is_disabled":false,"rental_uris":{"android":"levelo://app?vid=581265db-1943-476e-8c36-12f2eddc6d8a","ios":"levelo://app?vid=581265db-1943-476e-8c36-12f2eddc6d8a"},"vehicle_type_id":"4","last_reported":1684296493,"current_range_meters":28800,"station_id":"ce4bgup2rcd13ifvqco0","pricing_plan_id":"free"},{"bike_id":"4d964d81-9163-484f-b324-17194ad50d14","system_id":"levelo_inurba_marseille","lat":43.317557,"lon":5.390173,"is_reserved":false,"is_disabled":false,"rental_uris":{"android":"levelo://app?vid=4d964d81-9163-484f-b324-17194ad50d14","ios":"levelo://app?vid=4d964d81-9163-484f-b324-17194ad50d14"},"vehicle_type_id":"4","last_reported":1684296493,"current_range_meters":11600,"station_id":"ce4bhqp2rcd13ifvqhng","pricing_plan_id":"free"},{"bike_id":"24494132-085d-4ba5-9b1f-e732c9cafcf8","system_id":"levelo_inurba_marseille","lat":43.317557,"lon":5.390173,"is_reserved":false,"is_disabled":false,"rental_uris":{"android":"levelo://app?vid=24494132-085d-4ba5-9b1f-e732c9cafcf8","ios":"levelo://app?vid=24494132-085d-4ba5-9b1f-e732c9cafcf8"},"vehicle_type_id":"4","last_reported":1684296493,"current_range_meters":30400,"station_id":"ce4bhqp2rcd13ifvqhng","pricing_plan_id":"free"},{"bike_id":"be1d4fb5-27a9-440a-a478-4467bb1321e9","system_id":"levelo_inurba_marseille","lat":43.317557,"lon":5.390173,"is_reserved":false,"is_disabled":false,"rental_uris":{"android":"levelo://app?vid=be1d4fb5-27a9-440a-a478-4467bb1321e9","ios":"levelo://app?vid=be1d4fb5-27a9-440a-a478-4467bb1321e9"},"vehicle_type_id":"4","last_reported":1684296493,"current_range_meters":21200,"station_id":"ce4bhqp2rcd13ifvqhng","pricing_plan_id":"free"},{"bike_id":"dab0151d-e8ea-4636-93be-6529032b6a5b","system_id":"levelo_inurba_marseille","lat":43.31755,"lon":5.39028,"is_reserved":false,"is_disabled":false,"rental_uris":{"android":"levelo://app?vid=dab0151d-e8ea-4636-93be-6529032b6a5b","ios":"levelo://app?vid=dab0151d-e8ea-4636-93be-6529032b6a5b"},"vehicle_type_id":"4","last_reported":1684296493,"current_range_meters":13600,"station_id":"ce4bhqp2rcd13ifvqhng","pricing_plan_id":"free"},{"bike_id":"4667a10f-2b36-47be-a6fe-8c6febeec11a","system_id":"levelo_inurba_marseille","lat":43.298063,"lon":5.380884,"is_reserved":false,"is_disabled":false,"rental_uris":{"android":"levelo://app?vid=4667a10f-2b36-47be-a6fe-8c6febeec11a","ios":"levelo://app?vid=4667a10f-2b36-47be-a6fe-8c6febeec11a"},"vehicle_type_id":"4","last_reported":1684296493,"current_range_meters":19600,"station_id":"","pricing_plan_id":"free"},{"bike_id":"04f3dcd0-dcfa-4315-9b12-c157d67c4b4a","system_id":"levelo_inurba_marseille","lat":43.304274,"lon":5.388873,"is_reserved":false,"is_disabled":false,"rental_uris":{"android":"levelo://app?vid=04f3dcd0-dcfa-4315-9b12-c157d67c4b4a","ios":"levelo://app?vid=04f3dcd0-dcfa-4315-9b12-c157d67c4b4a"},"vehicle_type_id":"4","last_reported":1684296493,"current_range_meters":31200,"station_id":"ce4bgk12rcd13ifvqbi0","pricing_plan_id":"free"},{"bike_id":"1524275a-2d8d-484b-8a99-308fa9cdeaf5","system_id":"levelo_inurba_marseille","lat":43.304274,"lon":5.388873,"is_reserved":false,"is_disabled":false,"rental_uris":{"android":"levelo://app?vid=1524275a-2d8d-484b-8a99-308fa9cdeaf5","ios":"levelo://app?vid=1524275a-2d8d-484b-8a99-308fa9cdeaf5"},"vehicle_type_id":"4","last_reported":1684296493,"current_range_meters":23600,"station_id":"ce4bgk12rcd13ifvqbi0","pricing_plan_id":"free"},{"bike_id":"b6b7a856-d00b-4810-a15d-3d866e39b14e","system_id":"levelo_inurba_marseille","lat":43.30434,"lon":5.38889,"is_reserved":false,"is_disabled":false,"rental_uris":{"android":"levelo://app?vid=b6b7a856-d00b-4810-a15d-3d866e39b14e","ios":"levelo://app?vid=b6b7a856-d00b-4810-a15d-3d866e39b14e"},"vehicle_type_id":"4","last_reported":1684296493,"current_range_meters":29200,"station_id":"ce4bgk12rcd13ifvqbi0","pricing_plan_id":"free"},{"bike_id":"3014c0dd-4c72-4927-99f0-70ea8f9c9c7d","system_id":"levelo_inurba_marseille","lat":43.304274,"lon":5.388873,"is_reserved":false,"is_disabled":false,"rental_uris":{"android":"levelo://app?vid=3014c0dd-4c72-4927-99f0-70ea8f9c9c7d","ios":"levelo://app?vid=3014c0dd-4c72-4927-99f0-70ea8f9c9c7d"},"vehicle_type_id":"4","last_reported":1684296493,"current_range_meters":29200,"station_id":"ce4bgk12rcd13ifvqbi0","pricing_plan_id":"free"},{"bike_id":"08a215a7-4b64-4c77-9c58-4f6c5f8e1a23","system_id":"levelo_inurba_marseille","lat":43.304274,"lon":5.388873,"is_reserved":false,"is_disabled":false,"rental_uris":{"android":"levelo://app?vid=08a215a7-4b64-4c77-9c58-4f6c5f8e1a23","ios":"levelo://app?vid=08a215a7-4b64-4c77-9c58-4f6c5f8e1a23"},"vehicle_type_id":"4","last_reported":1684296493,"current_range_meters":30000,"station_id":"ce4bgk12rcd13ifvqbi0","pricing_plan_id":"free"},{"bike_id":"e60f72ce-2c54-4118-bfe1-d3c4f2506547","system_id":"levelo_inurba_marseille","lat":43.3044,"lon":5.38901,"is_reserved":false,"is_disabled":false,"rental_uris":{"android":"levelo://app?vid=e60f72ce-2c54-4118-bfe1-d3c4f2506547","ios":"levelo://app?vid=e60f72ce-2c54-4118-bfe1-d3c4f2506547"},"vehicle_type_id":"4","last_reported":1684296493,"current_range_meters":0,"station_id":"ce4bgk12rcd13ifvqbi0","pricing_plan_id":"free"},{"bike_id":"f61f3dc2-7c2d-472b-aabd-5e2caf08ffa6","system_id":"levelo_inurba_marseille","lat":43.32358,"lon":5.38876,"is_reserved":false,"is_disabled":false,"rental_uris":{"android":"levelo://app?vid=f61f3dc2-7c2d-472b-aabd-5e2caf08ffa6","ios":"levelo://app?vid=f61f3dc2-7c2d-472b-aabd-5e2caf08ffa6"},"vehicle_type_id":"4","last_reported":1684296493,"current_range_meters":27600,"station_id":"","pricing_plan_id":"free"},{"bike_id":"1e6932a1-e66d-487b-9cd7-03bebc555f1a","system_id":"levelo_inurba_marseille","lat":43.32359,"lon":5.3888,"is_reserved":false,"is_disabled":false,"rental_uris":{"android":"levelo://app?vid=1e6932a1-e66d-487b-9cd7-03bebc555f1a","ios":"levelo://app?vid=1e6932a1-e66d-487b-9cd7-03bebc555f1a"},"vehicle_type_id":"4","last_reported":1684296493,"current_range_meters":25200,"station_id":"","pricing_plan_id":"free"},{"bike_id":"b216b1cb-9e0f-4962-9ab4-392a32ee28b7","system_id":"levelo_inurba_marseille","lat":43.32361,"lon":5.38881,"is_reserved":false,"is_disabled":false,"rental_uris":{"android":"levelo://app?vid=b216b1cb-9e0f-4962-9ab4-392a32ee28b7","ios":"levelo://app?vid=b216b1cb-9e0f-4962-9ab4-392a32ee28b7"},"vehicle_type_id":"4","last_reported":1684296493,"current_range_meters":12400,"station_id":"","pricing_plan_id":"free"},{"bike_id":"92247963-69d3-47d4-a7ed-1573307992da","system_id":"levelo_inurba_marseille","lat":43.32362,"lon":5.38883,"is_reserved":false,"is_disabled":false,"rental_uris":{"android":"levelo://app?vid=92247963-69d3-47d4-a7ed-1573307992da","ios":"levelo://app?vid=92247963-69d3-47d4-a7ed-1573307992da"},"vehicle_type_id":"4","last_reported":1684296493,"current_range_meters":26400,"station_id":"","pricing_plan_id":"free"},{"bike_id":"72bc1f58-74ea-4c5a-9e9b-71dca2c4e33d","system_id":"levelo_inurba_marseille","lat":43.32364,"lon":5.38884,"is_reserved":false,"is_disabled":false,"rental_uris":{"android":"levelo://app?vid=72bc1f58-74ea-4c5a-9e9b-71dca2c4e33d","ios":"levelo://app?vid=72bc1f58-74ea-4c5a-9e9b-71dca2c4e33d"},"vehicle_type_id":"4","last_reported":1684296493,"current_range_meters":9600,"station_id":"","pricing_plan_id":"free"},{"bike_id":"9f93f2ed-0a03-4299-8e4a-af4fb439f8e3","system_id":"levelo_inurba_marseille","lat":43.32364,"lon":5.38884,"is_reserved":false,"is_disabled":false,"rental_uris":{"android":"levelo://app?vid=9f93f2ed-0a03-4299-8e4a-af4fb439f8e3","ios":"levelo://app?vid=9f93f2ed-0a03-4299-8e4a-af4fb439f8e3"},"vehicle_type_id":"4","last_reported":1684296493,"current_range_meters":11600,"station_id":"","pricing_plan_id":"free"},{"bike_id":"428fa209-34f8-4e13-b52b-581371ee1ce2","system_id":"levelo_inurba_marseille","lat":43.32365,"lon":5.38885,"is_reserved":false,"is_disabled":false,"rental_uris":{"android":"levelo://app?vid=428fa209-34f8-4e13-b52b-581371ee1ce2","ios":"levelo://app?vid=428fa209-34f8-4e13-b52b-581371ee1ce2"},"vehicle_type_id":"4","last_reported":1684296493,"current_range_meters":30000,"station_id":"","pricing_plan_id":"free"},{"bike_id":"a8ffe53b-e215-41d0-bc77-cb85f09f6350","system_id":"levelo_inurba_marseille","lat":43.32362,"lon":5.38888,"is_reserved":false,"is_disabled":false,"rental_uris":{"android":"levelo://app?vid=a8ffe53b-e215-41d0-bc77-cb85f09f6350","ios":"levelo://app?vid=a8ffe53b-e215-41d0-bc77-cb85f09f6350"},"vehicle_type_id":"4","last_reported":1684296493,"current_range_meters":800,"station_id":"","pricing_plan_id":"free"},{"bike_id":"89ac19bd-324e-4fec-aaec-38f56a92ebd4","system_id":"levelo_inurba_marseille","lat":43.32364,"lon":5.38887,"is_reserved":false,"is_disabled":false,"rental_uris":{"android":"levelo://app?vid=89ac19bd-324e-4fec-aaec-38f56a92ebd4","ios":"levelo://app?vid=89ac19bd-324e-4fec-aaec-38f56a92ebd4"},"vehicle_type_id":"4","last_reported":1684296493,"current_range_meters":17200,"station_id":"","pricing_plan_id":"free"},{"bike_id":"e028e3e0-97f1-42df-b9b7-9d103a2b183d","system_id":"levelo_inurba_marseille","lat":43.32365,"lon":5.38887,"is_reserved":false,"is_disabled":false,"rental_uris":{"android":"levelo://app?vid=e028e3e0-97f1-42df-b9b7-9d103a2b183d","ios":"levelo://app?vid=e028e3e0-97f1-42df-b9b7-9d103a2b183d"},"vehicle_type_id":"4","last_reported":1684296493,"current_range_meters":21600,"station_id":"","pricing_plan_id":"free"},{"bike_id":"301f4413-1a24-4e50-95a6-88a319f371c2","system_id":"levelo_inurba_marseille","lat":43.29312,"lon":5.3719,"is_reserved":false,"is_disabled":false,"rental_uris":{"android":"levelo://app?vid=301f4413-1a24-4e50-95a6-88a319f371c2","ios":"levelo://app?vid=301f4413-1a24-4e50-95a6-88a319f371c2"},"vehicle_type_id":"4","last_reported":1684296493,"current_range_meters":12000,"station_id":"ce4bgh92rcd13ifvqb40","pricing_plan_id":"free"},{"bike_id":"24f2436a-82c8-43f6-b45d-af7fdda7a79e","system_id":"levelo_inurba_marseille","lat":43.305994,"lon":5.393687,"is_reserved":false,"is_disabled":false,"rental_uris":{"android":"levelo://app?vid=24f2436a-82c8-43f6-b45d-af7fdda7a79e","ios":"levelo://app?vid=24f2436a-82c8-43f6-b45d-af7fdda7a79e"},"vehicle_type_id":"4","last_reported":1684296493,"current_range_meters":28000,"station_id":"ce4bh0p2rcd13ifvqd80","pricing_plan_id":"free"},{"bike_id":"f792a7a1-0712-47ac-b391-cf6cfcd9d5ed","system_id":"levelo_inurba_marseille","lat":43.305994,"lon":5.393687,"is_reserved":false,"is_disabled":false,"rental_uris":{"android":"levelo://app?vid=f792a7a1-0712-47ac-b391-cf6cfcd9d5ed","ios":"levelo://app?vid=f792a7a1-0712-47ac-b391-cf6cfcd9d5ed"},"vehicle_type_id":"4","last_reported":1684296493,"current_range_meters":28800,"station_id":"ce4bh0p2rcd13ifvqd80","pricing_plan_id":"free"},{"bike_id":"165c784b-c4e5-42f2-8be8-2b9ccb1bfc33","system_id":"levelo_inurba_marseille","lat":43.305994,"lon":5.393687,"is_reserved":false,"is_disabled":false,"rental_uris":{"android":"levelo://app?vid=165c784b-c4e5-42f2-8be8-2b9ccb1bfc33","ios":"levelo://app?vid=165c784b-c4e5-42f2-8be8-2b9ccb1bfc33"},"vehicle_type_id":"4","last_reported":1684296493,"current_range_meters":0,"station_id":"ce4bh0p2rcd13ifvqd80","pricing_plan_id":"free"},{"bike_id":"c167c45c-b2bf-49ae-9617-e2918fba1ee4","system_id":"levelo_inurba_marseille","lat":43.305994,"lon":5.393687,"is_reserved":false,"is_disabled":false,"rental_uris":{"android":"levelo://app?vid=c167c45c-b2bf-49ae-9617-e2918fba1ee4","ios":"levelo://app?vid=c167c45c-b2bf-49ae-9617-e2918fba1ee4"},"vehicle_type_id":"4","last_reported":1684296493,"current_range_meters":31200,"station_id":"ce4bh0p2rcd13ifvqd80","pricing_plan_id":"free"},{"bike_id":"ce77ce32-786d-437a-ad4b-5fe6bd77a810","system_id":"levelo_inurba_marseille","lat":43.29297,"lon":5.37454,"is_reserved":false,"is_disabled":false,"rental_uris":{"android":"levelo://app?vid=ce77ce32-786d-437a-ad4b-5fe6bd77a810","ios":"levelo://app?vid=ce77ce32-786d-437a-ad4b-5fe6bd77a810"},"vehicle_type_id":"4","last_reported":1684296493,"current_range_meters":25200,"station_id":"ce4bgi12rcd13ifvqb70","pricing_plan_id":"free"},{"bike_id":"3f94be6d-692c-4f8f-9866-ee5b06bcdd1b","system_id":"levelo_inurba_marseille","lat":43.305994,"lon":5.393687,"is_reserved":false,"is_disabled":false,"rental_uris":{"android":"levelo://app?vid=3f94be6d-692c-4f8f-9866-ee5b06bcdd1b","ios":"levelo://app?vid=3f94be6d-692c-4f8f-9866-ee5b06bcdd1b"},"vehicle_type_id":"4","last_reported":1684296493,"current_range_meters":28400,"station_id":"ce4bh0p2rcd13ifvqd80","pricing_plan_id":"free"},{"bike_id":"79a3914a-cac7-49c0-a872-73ec9ab052a4","system_id":"levelo_inurba_marseille","lat":43.305994,"lon":5.393687,"is_reserved":false,"is_disabled":false,"rental_uris":{"android":"levelo://app?vid=79a3914a-cac7-49c0-a872-73ec9ab052a4","ios":"levelo://app?vid=79a3914a-cac7-49c0-a872-73ec9ab052a4"},"vehicle_type_id":"4","last_reported":1684296493,"current_range_meters":28000,"station_id":"ce4bh0p2rcd13ifvqd80","pricing_plan_id":"free"},{"bike_id":"ed60340b-1ac0-40a5-b243-a8a71628891d","system_id":"levelo_inurba_marseille","lat":43.293009,"lon":5.374584,"is_reserved":false,"is_disabled":false,"rental_uris":{"android":"levelo://app?vid=ed60340b-1ac0-40a5-b243-a8a71628891d","ios":"levelo://app?vid=ed60340b-1ac0-40a5-b243-a8a71628891d"},"vehicle_type_id":"4","last_reported":1684296493,"current_range_meters":24400,"station_id":"ce4bgi12rcd13ifvqb70","pricing_plan_id":"free"},{"bike_id":"dfea117e-3df6-4d43-9866-5c1a3d5fd090","system_id":"levelo_inurba_marseille","lat":43.302992,"lon":5.392136,"is_reserved":false,"is_disabled":false,"rental_uris":{"android":"levelo://app?vid=dfea117e-3df6-4d43-9866-5c1a3d5fd090","ios":"levelo://app?vid=dfea117e-3df6-4d43-9866-5c1a3d5fd090"},"vehicle_type_id":"4","last_reported":1684296493,"current_range_meters":31200,"station_id":"ce4bgkh2rcd13ifvqbk0","pricing_plan_id":"free"},{"bike_id":"4ef945b6-b0a8-4ade-89ac-0226f9d960ae","system_id":"levelo_inurba_marseille","lat":43.30306,"lon":5.39218,"is_reserved":false,"is_disabled":false,"rental_uris":{"android":"levelo://app?vid=4ef945b6-b0a8-4ade-89ac-0226f9d960ae","ios":"levelo://app?vid=4ef945b6-b0a8-4ade-89ac-0226f9d960ae"},"vehicle_type_id":"4","last_reported":1684296493,"current_range_meters":28400,"station_id":"ce4bgkh2rcd13ifvqbk0","pricing_plan_id":"free"},{"bike_id":"9c83d480-b8e1-4430-bd3a-4bd8b477444e","system_id":"levelo_inurba_marseille","lat":43.30298,"lon":5.39242,"is_reserved":false,"is_disabled":false,"rental_uris":{"android":"levelo://app?vid=9c83d480-b8e1-4430-bd3a-4bd8b477444e","ios":"levelo://app?vid=9c83d480-b8e1-4430-bd3a-4bd8b477444e"},"vehicle_type_id":"4","last_reported":1684296493,"current_range_meters":24400,"station_id":"","pricing_plan_id":"free"},{"bike_id":"bc43f24d-e2cf-425e-985a-c794f2e4f358","system_id":"levelo_inurba_marseille","lat":43.29224,"lon":5.36051,"is_reserved":false,"is_disabled":false,"rental_uris":{"android":"levelo://app?vid=bc43f24d-e2cf-425e-985a-c794f2e4f358","ios":"levelo://app?vid=bc43f24d-e2cf-425e-985a-c794f2e4f358"},"vehicle_type_id":"4","last_reported":1684296493,"current_range_meters":16400,"station_id":"","pricing_plan_id":"free"},{"bike_id":"db0f052d-dd78-416e-9b06-f10694da118a","system_id":"levelo_inurba_marseille","lat":43.29223,"lon":5.36053,"is_reserved":false,"is_disabled":false,"rental_uris":{"android":"levelo://app?vid=db0f052d-dd78-416e-9b06-f10694da118a","ios":"levelo://app?vid=db0f052d-dd78-416e-9b06-f10694da118a"},"vehicle_type_id":"4","last_reported":1684296493,"current_range_meters":5600,"station_id":"","pricing_plan_id":"free"},{"bike_id":"c2cd3509-cbe2-48b4-8a26-6354c7957e0c","system_id":"levelo_inurba_marseille","lat":43.30085,"lon":5.390856,"is_reserved":false,"is_disabled":false,"rental_uris":{"android":"levelo://app?vid=c2cd3509-cbe2-48b4-8a26-6354c7957e0c","ios":"levelo://app?vid=c2cd3509-cbe2-48b4-8a26-6354c7957e0c"},"vehicle_type_id":"4","last_reported":1684296493,"current_range_meters":28800,"station_id":"ce4bh192rcd13ifvqdb0","pricing_plan_id":"free"},{"bike_id":"652953a3-1cac-4eda-890f-5f02983db241","system_id":"levelo_inurba_marseille","lat":43.29261,"lon":5.37629,"is_reserved":false,"is_disabled":false,"rental_uris":{"android":"levelo://app?vid=652953a3-1cac-4eda-890f-5f02983db241","ios":"levelo://app?vid=652953a3-1cac-4eda-890f-5f02983db241"},"vehicle_type_id":"4","last_reported":1684296493,"current_range_meters":0,"station_id":"ce4bgi12rcd13ifvqb80","pricing_plan_id":"free"},{"bike_id":"007e2fb4-59d7-4fc2-8a68-8d3fe84402d8","system_id":"levelo_inurba_marseille","lat":43.298764,"lon":5.388973,"is_reserved":false,"is_disabled":false,"rental_uris":{"android":"levelo://app?vid=007e2fb4-59d7-4fc2-8a68-8d3fe84402d8","ios":"levelo://app?vid=007e2fb4-59d7-4fc2-8a68-8d3fe84402d8"},"vehicle_type_id":"4","last_reported":1684296493,"current_range_meters":2800,"station_id":"ce4bh392rcd13ifvqdl0","pricing_plan_id":"free"},{"bike_id":"3b875dd4-7620-4f21-8b6f-9b715dd714e6","system_id":"levelo_inurba_marseille","lat":43.29869,"lon":5.38897,"is_reserved":false,"is_disabled":false,"rental_uris":{"android":"levelo://app?vid=3b875dd4-7620-4f21-8b6f-9b715dd714e6","ios":"levelo://app?vid=3b875dd4-7620-4f21-8b6f-9b715dd714e6"},"vehicle_type_id":"4","last_reported":1684296493,"current_range_meters":0,"station_id":"ce4bh392rcd13ifvqdl0","pricing_plan_id":"free"},{"bike_id":"36334ac3-b08a-480a-b856-f30a168122a9","system_id":"levelo_inurba_marseille","lat":43.298764,"lon":5.388973,"is_reserved":false,"is_disabled":false,"rental_uris":{"android":"levelo://app?vid=36334ac3-b08a-480a-b856-f30a168122a9","ios":"levelo://app?vid=36334ac3-b08a-480a-b856-f30a168122a9"},"vehicle_type_id":"4","last_reported":1684296493,"current_range_meters":4400,"station_id":"ce4bh392rcd13ifvqdl0","pricing_plan_id":"free"},{"bike_id":"46830308-eb37-4fd2-9f64-78865e8238c9","system_id":"levelo_inurba_marseille","lat":43.298764,"lon":5.388973,"is_reserved":false,"is_disabled":false,"rental_uris":{"android":"levelo://app?vid=46830308-eb37-4fd2-9f64-78865e8238c9","ios":"levelo://app?vid=46830308-eb37-4fd2-9f64-78865e8238c9"},"vehicle_type_id":"4","last_reported":1684296493,"current_range_meters":0,"station_id":"ce4bh392rcd13ifvqdl0","pricing_plan_id":"free"},{"bike_id":"9f6a4f06-3487-49cb-92ed-c683feef2edc","system_id":"levelo_inurba_marseille","lat":43.30875,"lon":5.39636,"is_reserved":false,"is_disabled":false,"rental_uris":{"android":"levelo://app?vid=9f6a4f06-3487-49cb-92ed-c683feef2edc","ios":"levelo://app?vid=9f6a4f06-3487-49cb-92ed-c683feef2edc"},"vehicle_type_id":"4","last_reported":1684296493,"current_range_meters":27600,"station_id":"","pricing_plan_id":"free"},{"bike_id":"44108575-fe42-44dd-98dc-409a63cd5eb8","system_id":"levelo_inurba_marseille","lat":43.31331,"lon":5.39689,"is_reserved":false,"is_disabled":false,"rental_uris":{"android":"levelo://app?vid=44108575-fe42-44dd-98dc-409a63cd5eb8","ios":"levelo://app?vid=44108575-fe42-44dd-98dc-409a63cd5eb8"},"vehicle_type_id":"4","last_reported":1684296493,"current_range_meters":21200,"station_id":"ce4bgvp2rcd13ifvqcu0","pricing_plan_id":"free"},{"bike_id":"e4482402-3d5d-4f0e-9933-3152c441d553","system_id":"levelo_inurba_marseille","lat":43.309038,"lon":5.396546,"is_reserved":false,"is_disabled":false,"rental_uris":{"android":"levelo://app?vid=e4482402-3d5d-4f0e-9933-3152c441d553","ios":"levelo://app?vid=e4482402-3d5d-4f0e-9933-3152c441d553"},"vehicle_type_id":"4","last_reported":1684296493,"current_range_meters":25600,"station_id":"ce4bh012rcd13ifvqcv0","pricing_plan_id":"free"},{"bike_id":"da41eb90-3202-4e6b-8744-1e805cb29626","system_id":"levelo_inurba_marseille","lat":43.30881,"lon":5.39643,"is_reserved":false,"is_disabled":false,"rental_uris":{"android":"levelo://app?vid=da41eb90-3202-4e6b-8744-1e805cb29626","ios":"levelo://app?vid=da41eb90-3202-4e6b-8744-1e805cb29626"},"vehicle_type_id":"4","last_reported":1684296493,"current_range_meters":14000,"station_id":"","pricing_plan_id":"free"},{"bike_id":"8b39f7e5-d315-4ce7-94fb-8f2cc4385ffa","system_id":"levelo_inurba_marseille","lat":43.309038,"lon":5.396546,"is_reserved":false,"is_disabled":false,"rental_uris":{"android":"levelo://app?vid=8b39f7e5-d315-4ce7-94fb-8f2cc4385ffa","ios":"levelo://app?vid=8b39f7e5-d315-4ce7-94fb-8f2cc4385ffa"},"vehicle_type_id":"4","last_reported":1684296493,"current_range_meters":17200,"station_id":"ce4bh012rcd13ifvqcv0","pricing_plan_id":"free"},{"bike_id":"d6059853-a340-4d1a-b9ca-f09c71d716c9","system_id":"levelo_inurba_marseille","lat":43.31322,"lon":5.39693,"is_reserved":false,"is_disabled":false,"rental_uris":{"android":"levelo://app?vid=d6059853-a340-4d1a-b9ca-f09c71d716c9","ios":"levelo://app?vid=d6059853-a340-4d1a-b9ca-f09c71d716c9"},"vehicle_type_id":"4","last_reported":1684296493,"current_range_meters":24000,"station_id":"ce4bgvp2rcd13ifvqcu0","pricing_plan_id":"free"},{"bike_id":"e21a4a79-98e4-4d66-9372-9997aac86cc6","system_id":"levelo_inurba_marseille","lat":43.309038,"lon":5.396546,"is_reserved":false,"is_disabled":false,"rental_uris":{"android":"levelo://app?vid=e21a4a79-98e4-4d66-9372-9997aac86cc6","ios":"levelo://app?vid=e21a4a79-98e4-4d66-9372-9997aac86cc6"},"vehicle_type_id":"4","last_reported":1684296493,"current_range_meters":26800,"station_id":"ce4bh012rcd13ifvqcv0","pricing_plan_id":"free"},{"bike_id":"99c1093e-6531-4e77-8c8b-8587eff45c91","system_id":"levelo_inurba_marseille","lat":43.291994,"lon":5.357886,"is_reserved":false,"is_disabled":false,"rental_uris":{"android":"levelo://app?vid=99c1093e-6531-4e77-8c8b-8587eff45c91","ios":"levelo://app?vid=99c1093e-6531-4e77-8c8b-8587eff45c91"},"vehicle_type_id":"4","last_reported":1684296493,"current_range_meters":4000,"station_id":"ce4bhb12rcd13ifvqel0","pricing_plan_id":"free"},{"bike_id":"c626ad5f-1dae-4cc4-89cd-6045de38dbb0","system_id":"levelo_inurba_marseille","lat":43.313291,"lon":5.396838,"is_reserved":false,"is_disabled":false,"rental_uris":{"android":"levelo://app?vid=c626ad5f-1dae-4cc4-89cd-6045de38dbb0","ios":"levelo://app?vid=c626ad5f-1dae-4cc4-89cd-6045de38dbb0"},"vehicle_type_id":"4","last_reported":1684296493,"current_range_meters":29600,"station_id":"ce4bgvp2rcd13ifvqcu0","pricing_plan_id":"free"},{"bike_id":"19726583-8fa5-453a-b1dc-aead3cf5088c","system_id":"levelo_inurba_marseille","lat":43.31325,"lon":5.39695,"is_reserved":false,"is_disabled":false,"rental_uris":{"android":"levelo://app?vid=19726583-8fa5-453a-b1dc-aead3cf5088c","ios":"levelo://app?vid=19726583-8fa5-453a-b1dc-aead3cf5088c"},"vehicle_type_id":"4","last_reported":1684296493,"current_range_meters":12800,"station_id":"ce4bgvp2rcd13ifvqcu0","pricing_plan_id":"free"},{"bike_id":"6f5eb661-f4ba-42bb-9998-6d2d9b3ec0bf","system_id":"levelo_inurba_marseille","lat":43.31326,"lon":5.39695,"is_reserved":false,"is_disabled":false,"rental_uris":{"android":"levelo://app?vid=6f5eb661-f4ba-42bb-9998-6d2d9b3ec0bf","ios":"levelo://app?vid=6f5eb661-f4ba-42bb-9998-6d2d9b3ec0bf"},"vehicle_type_id":"4","last_reported":1684296493,"current_range_meters":27200,"station_id":"ce4bgvp2rcd13ifvqcu0","pricing_plan_id":"free"},{"bike_id":"72ef4750-5105-4fdf-b44d-4500ed12ed7c","system_id":"levelo_inurba_marseille","lat":43.31327,"lon":5.39695,"is_reserved":false,"is_disabled":false,"rental_uris":{"android":"levelo://app?vid=72ef4750-5105-4fdf-b44d-4500ed12ed7c","ios":"levelo://app?vid=72ef4750-5105-4fdf-b44d-4500ed12ed7c"},"vehicle_type_id":"4","last_reported":1684296493,"current_range_meters":30800,"station_id":"ce4bgvp2rcd13ifvqcu0","pricing_plan_id":"free"},{"bike_id":"567fda29-5830-4692-96e3-3620ec22c6cb","system_id":"levelo_inurba_marseille","lat":43.30894,"lon":5.39651,"is_reserved":false,"is_disabled":false,"rental_uris":{"android":"levelo://app?vid=567fda29-5830-4692-96e3-3620ec22c6cb","ios":"levelo://app?vid=567fda29-5830-4692-96e3-3620ec22c6cb"},"vehicle_type_id":"4","last_reported":1684296493,"current_range_meters":31200,"station_id":"ce4bh012rcd13ifvqcv0","pricing_plan_id":"free"},{"bike_id":"10e1707a-40f5-43bf-b004-80894108fdf1","system_id":"levelo_inurba_marseille","lat":43.309038,"lon":5.396546,"is_reserved":false,"is_disabled":false,"rental_uris":{"android":"levelo://app?vid=10e1707a-40f5-43bf-b004-80894108fdf1","ios":"levelo://app?vid=10e1707a-40f5-43bf-b004-80894108fdf1"},"vehicle_type_id":"4","last_reported":1684296493,"current_range_meters":15200,"station_id":"ce4bh012rcd13ifvqcv0","pricing_plan_id":"free"},{"bike_id":"54c8719c-dd77-4629-9b29-68e376debb84","system_id":"levelo_inurba_marseille","lat":43.309038,"lon":5.396546,"is_reserved":false,"is_disabled":false,"rental_uris":{"android":"levelo://app?vid=54c8719c-dd77-4629-9b29-68e376debb84","ios":"levelo://app?vid=54c8719c-dd77-4629-9b29-68e376debb84"},"vehicle_type_id":"4","last_reported":1684296493,"current_range_meters":28400,"station_id":"ce4bh012rcd13ifvqcv0","pricing_plan_id":"free"},{"bike_id":"4baa5d37-4b70-4215-8216-446c01957746","system_id":"levelo_inurba_marseille","lat":43.309038,"lon":5.396546,"is_reserved":false,"is_disabled":false,"rental_uris":{"android":"levelo://app?vid=4baa5d37-4b70-4215-8216-446c01957746","ios":"levelo://app?vid=4baa5d37-4b70-4215-8216-446c01957746"},"vehicle_type_id":"4","last_reported":1684296493,"current_range_meters":22400,"station_id":"ce4bh012rcd13ifvqcv0","pricing_plan_id":"free"},{"bike_id":"e4d39a56-9242-4ff4-b0b4-dfa213879ed6","system_id":"levelo_inurba_marseille","lat":43.30874,"lon":5.3965,"is_reserved":false,"is_disabled":false,"rental_uris":{"android":"levelo://app?vid=e4d39a56-9242-4ff4-b0b4-dfa213879ed6","ios":"levelo://app?vid=e4d39a56-9242-4ff4-b0b4-dfa213879ed6"},"vehicle_type_id":"4","last_reported":1684296493,"current_range_meters":23200,"station_id":"","pricing_plan_id":"free"},{"bike_id":"9c5b1c6f-9863-4829-acef-bf3d92c478a5","system_id":"levelo_inurba_marseille","lat":43.31325,"lon":5.39701,"is_reserved":false,"is_disabled":false,"rental_uris":{"android":"levelo://app?vid=9c5b1c6f-9863-4829-acef-bf3d92c478a5","ios":"levelo://app?vid=9c5b1c6f-9863-4829-acef-bf3d92c478a5"},"vehicle_type_id":"4","last_reported":1684296493,"current_range_meters":31200,"station_id":"ce4bgvp2rcd13ifvqcu0","pricing_plan_id":"free"},{"bike_id":"be548e39-4b91-412b-b675-849bf6394ee8","system_id":"levelo_inurba_marseille","lat":43.30878,"lon":5.39653,"is_reserved":false,"is_disabled":false,"rental_uris":{"android":"levelo://app?vid=be548e39-4b91-412b-b675-849bf6394ee8","ios":"levelo://app?vid=be548e39-4b91-412b-b675-849bf6394ee8"},"vehicle_type_id":"4","last_reported":1684296493,"current_range_meters":29200,"station_id":"","pricing_plan_id":"free"},{"bike_id":"70b1057e-6d35-4728-9226-5fe6a2d0e25a","system_id":"levelo_inurba_marseille","lat":43.30878,"lon":5.39653,"is_reserved":false,"is_disabled":false,"rental_uris":{"android":"levelo://app?vid=70b1057e-6d35-4728-9226-5fe6a2d0e25a","ios":"levelo://app?vid=70b1057e-6d35-4728-9226-5fe6a2d0e25a"},"vehicle_type_id":"4","last_reported":1684296493,"current_range_meters":28000,"station_id":"","pricing_plan_id":"free"},{"bike_id":"9d416044-a686-4cb9-a8d0-2829e8272d8f","system_id":"levelo_inurba_marseille","lat":43.30877,"lon":5.39656,"is_reserved":false,"is_disabled":false,"rental_uris":{"android":"levelo://app?vid=9d416044-a686-4cb9-a8d0-2829e8272d8f","ios":"levelo://app?vid=9d416044-a686-4cb9-a8d0-2829e8272d8f"},"vehicle_type_id":"4","last_reported":1684296493,"current_range_meters":30000,"station_id":"","pricing_plan_id":"free"},{"bike_id":"2bbe2190-aac4-47d6-89eb-40f28da061ea","system_id":"levelo_inurba_marseille","lat":43.30879,"lon":5.39657,"is_reserved":false,"is_disabled":false,"rental_uris":{"android":"levelo://app?vid=2bbe2190-aac4-47d6-89eb-40f28da061ea","ios":"levelo://app?vid=2bbe2190-aac4-47d6-89eb-40f28da061ea"},"vehicle_type_id":"4","last_reported":1684296493,"current_range_meters":28800,"station_id":"","pricing_plan_id":"free"},{"bike_id":"776c1f2d-b89e-4286-9be3-1bbf785a967b","system_id":"levelo_inurba_marseille","lat":43.30877,"lon":5.39658,"is_reserved":false,"is_disabled":false,"rental_uris":{"android":"levelo://app?vid=776c1f2d-b89e-4286-9be3-1bbf785a967b","ios":"levelo://app?vid=776c1f2d-b89e-4286-9be3-1bbf785a967b"},"vehicle_type_id":"4","last_reported":1684296493,"current_range_meters":17200,"station_id":"","pricing_plan_id":"free"},{"bike_id":"2a5337b6-4ddb-4147-8445-db4f1a34f5ff","system_id":"levelo_inurba_marseille","lat":43.302008,"lon":5.394694,"is_reserved":false,"is_disabled":false,"rental_uris":{"android":"levelo://app?vid=2a5337b6-4ddb-4147-8445-db4f1a34f5ff","ios":"levelo://app?vid=2a5337b6-4ddb-4147-8445-db4f1a34f5ff"},"vehicle_type_id":"4","last_reported":1684296493,"current_range_meters":23200,"station_id":"ce4bh0p2rcd13ifvqd70","pricing_plan_id":"free"},{"bike_id":"3682953e-ebe2-4625-887b-57f217c7ab96","system_id":"levelo_inurba_marseille","lat":43.302008,"lon":5.394694,"is_reserved":false,"is_disabled":false,"rental_uris":{"android":"levelo://app?vid=3682953e-ebe2-4625-887b-57f217c7ab96","ios":"levelo://app?vid=3682953e-ebe2-4625-887b-57f217c7ab96"},"vehicle_type_id":"4","last_reported":1684296493,"current_range_meters":8000,"station_id":"ce4bh0p2rcd13ifvqd70","pricing_plan_id":"free"},{"bike_id":"365e40c2-201a-4468-8fc3-788302cb3cd9","system_id":"levelo_inurba_marseille","lat":43.302008,"lon":5.394694,"is_reserved":false,"is_disabled":false,"rental_uris":{"android":"levelo://app?vid=365e40c2-201a-4468-8fc3-788302cb3cd9","ios":"levelo://app?vid=365e40c2-201a-4468-8fc3-788302cb3cd9"},"vehicle_type_id":"4","last_reported":1684296493,"current_range_meters":14400,"station_id":"ce4bh0p2rcd13ifvqd70","pricing_plan_id":"free"},{"bike_id":"1eb8114b-e14f-4510-8186-45d534d8c1c3","system_id":"levelo_inurba_marseille","lat":43.290631,"lon":5.359244,"is_reserved":false,"is_disabled":false,"rental_uris":{"android":"levelo://app?vid=1eb8114b-e14f-4510-8186-45d534d8c1c3","ios":"levelo://app?vid=1eb8114b-e14f-4510-8186-45d534d8c1c3"},"vehicle_type_id":"4","last_reported":1684296493,"current_range_meters":31200,"station_id":"ce4bha92rcd13ifvqeg0","pricing_plan_id":"free"},{"bike_id":"f304b638-1ba9-4492-b990-8c90d61fd16d","system_id":"levelo_inurba_marseille","lat":43.302008,"lon":5.394694,"is_reserved":false,"is_disabled":false,"rental_uris":{"android":"levelo://app?vid=f304b638-1ba9-4492-b990-8c90d61fd16d","ios":"levelo://app?vid=f304b638-1ba9-4492-b990-8c90d61fd16d"},"vehicle_type_id":"4","last_reported":1684296493,"current_range_meters":31600,"station_id":"ce4bh0p2rcd13ifvqd70","pricing_plan_id":"free"},{"bike_id":"aac83103-7f72-47c3-99f2-69747783beaf","system_id":"levelo_inurba_marseille","lat":43.2905,"lon":5.35918,"is_reserved":false,"is_disabled":false,"rental_uris":{"android":"levelo://app?vid=aac83103-7f72-47c3-99f2-69747783beaf","ios":"levelo://app?vid=aac83103-7f72-47c3-99f2-69747783beaf"},"vehicle_type_id":"4","last_reported":1684296493,"current_range_meters":30800,"station_id":"ce4bha92rcd13ifvqeg0","pricing_plan_id":"free"},{"bike_id":"17b209e0-52cb-4e73-9491-967679d3dfcc","system_id":"levelo_inurba_marseille","lat":43.29049,"lon":5.35909,"is_reserved":false,"is_disabled":false,"rental_uris":{"android":"levelo://app?vid=17b209e0-52cb-4e73-9491-967679d3dfcc","ios":"levelo://app?vid=17b209e0-52cb-4e73-9491-967679d3dfcc"},"vehicle_type_id":"4","last_reported":1684296493,"current_range_meters":26400,"station_id":"ce4bha92rcd13ifvqeg0","pricing_plan_id":"free"},{"bike_id":"d45fa62b-391e-4bcb-ba0a-6b669188f15b","system_id":"levelo_inurba_marseille","lat":43.290631,"lon":5.359244,"is_reserved":false,"is_disabled":false,"rental_uris":{"android":"levelo://app?vid=d45fa62b-391e-4bcb-ba0a-6b669188f15b","ios":"levelo://app?vid=d45fa62b-391e-4bcb-ba0a-6b669188f15b"},"vehicle_type_id":"4","last_reported":1684296493,"current_range_meters":30800,"station_id":"ce4bha92rcd13ifvqeg0","pricing_plan_id":"free"},{"bike_id":"134c34f3-3bc6-41fb-8f35-756186736b76","system_id":"levelo_inurba_marseille","lat":43.29048,"lon":5.35911,"is_reserved":false,"is_disabled":false,"rental_uris":{"android":"levelo://app?vid=134c34f3-3bc6-41fb-8f35-756186736b76","ios":"levelo://app?vid=134c34f3-3bc6-41fb-8f35-756186736b76"},"vehicle_type_id":"4","last_reported":1684296493,"current_range_meters":31200,"station_id":"ce4bha92rcd13ifvqeg0","pricing_plan_id":"free"},{"bike_id":"41c2e612-ff44-433a-964f-7ee1f3de2920","system_id":"levelo_inurba_marseille","lat":43.29044,"lon":5.35917,"is_reserved":false,"is_disabled":false,"rental_uris":{"android":"levelo://app?vid=41c2e612-ff44-433a-964f-7ee1f3de2920","ios":"levelo://app?vid=41c2e612-ff44-433a-964f-7ee1f3de2920"},"vehicle_type_id":"4","last_reported":1684296493,"current_range_meters":28000,"station_id":"ce4bha92rcd13ifvqeg0","pricing_plan_id":"free"},{"bike_id":"b8e2de4f-68a7-4651-99a8-46318678fd79","system_id":"levelo_inurba_marseille","lat":43.290631,"lon":5.359244,"is_reserved":false,"is_disabled":false,"rental_uris":{"android":"levelo://app?vid=b8e2de4f-68a7-4651-99a8-46318678fd79","ios":"levelo://app?vid=b8e2de4f-68a7-4651-99a8-46318678fd79"},"vehicle_type_id":"4","last_reported":1684296493,"current_range_meters":28400,"station_id":"ce4bha92rcd13ifvqeg0","pricing_plan_id":"free"},{"bike_id":"e53845ff-c383-4b22-aedf-1a3e3f9e2d34","system_id":"levelo_inurba_marseille","lat":43.290631,"lon":5.359244,"is_reserved":false,"is_disabled":false,"rental_uris":{"android":"levelo://app?vid=e53845ff-c383-4b22-aedf-1a3e3f9e2d34","ios":"levelo://app?vid=e53845ff-c383-4b22-aedf-1a3e3f9e2d34"},"vehicle_type_id":"4","last_reported":1684296493,"current_range_meters":27600,"station_id":"ce4bha92rcd13ifvqeg0","pricing_plan_id":"free"},{"bike_id":"63b25feb-93dc-4e4e-95c8-14cb67de49d9","system_id":"levelo_inurba_marseille","lat":43.290631,"lon":5.359244,"is_reserved":false,"is_disabled":false,"rental_uris":{"android":"levelo://app?vid=63b25feb-93dc-4e4e-95c8-14cb67de49d9","ios":"levelo://app?vid=63b25feb-93dc-4e4e-95c8-14cb67de49d9"},"vehicle_type_id":"4","last_reported":1684296493,"current_range_meters":31200,"station_id":"ce4bha92rcd13ifvqeg0","pricing_plan_id":"free"},{"bike_id":"01c32ff4-3970-48f0-9be5-320e6e10b351","system_id":"levelo_inurba_marseille","lat":43.290631,"lon":5.359244,"is_reserved":false,"is_disabled":false,"rental_uris":{"android":"levelo://app?vid=01c32ff4-3970-48f0-9be5-320e6e10b351","ios":"levelo://app?vid=01c32ff4-3970-48f0-9be5-320e6e10b351"},"vehicle_type_id":"4","last_reported":1684296493,"current_range_meters":31200,"station_id":"ce4bha92rcd13ifvqeg0","pricing_plan_id":"free"},{"bike_id":"e8864284-e269-40b3-9547-2d5ada3b1ab1","system_id":"levelo_inurba_marseille","lat":43.294162,"lon":5.386292,"is_reserved":false,"is_disabled":false,"rental_uris":{"android":"levelo://app?vid=e8864284-e269-40b3-9547-2d5ada3b1ab1","ios":"levelo://app?vid=e8864284-e269-40b3-9547-2d5ada3b1ab1"},"vehicle_type_id":"4","last_reported":1684296493,"current_range_meters":26800,"station_id":"ce4bh2h2rcd13ifvqdh0","pricing_plan_id":"free"},{"bike_id":"8b675efb-8110-4722-9474-693b84806bf4","system_id":"levelo_inurba_marseille","lat":43.290327,"lon":5.375711,"is_reserved":false,"is_disabled":false,"rental_uris":{"android":"levelo://app?vid=8b675efb-8110-4722-9474-693b84806bf4","ios":"levelo://app?vid=8b675efb-8110-4722-9474-693b84806bf4"},"vehicle_type_id":"4","last_reported":1684296493,"current_range_meters":30000,"station_id":"ce4bh692rcd13ifvqe90","pricing_plan_id":"free"},{"bike_id":"1a7fbf06-a61a-44a6-8015-fc67b4f0f6e0","system_id":"levelo_inurba_marseille","lat":43.289184,"lon":5.366408,"is_reserved":false,"is_disabled":false,"rental_uris":{"android":"levelo://app?vid=1a7fbf06-a61a-44a6-8015-fc67b4f0f6e0","ios":"levelo://app?vid=1a7fbf06-a61a-44a6-8015-fc67b4f0f6e0"},"vehicle_type_id":"4","last_reported":1684296493,"current_range_meters":29200,"station_id":"ce4bhap2rcd13ifvqek0","pricing_plan_id":"free"},{"bike_id":"939d500a-3972-47c7-a6ba-6bdfab7fdec0","system_id":"levelo_inurba_marseille","lat":43.289184,"lon":5.366408,"is_reserved":false,"is_disabled":false,"rental_uris":{"android":"levelo://app?vid=939d500a-3972-47c7-a6ba-6bdfab7fdec0","ios":"levelo://app?vid=939d500a-3972-47c7-a6ba-6bdfab7fdec0"},"vehicle_type_id":"4","last_reported":1684296493,"current_range_meters":11200,"station_id":"ce4bhap2rcd13ifvqek0","pricing_plan_id":"free"},{"bike_id":"ead5c6e2-9df3-4bf0-91da-dd6c372ed863","system_id":"levelo_inurba_marseille","lat":43.289184,"lon":5.366408,"is_reserved":false,"is_disabled":false,"rental_uris":{"android":"levelo://app?vid=ead5c6e2-9df3-4bf0-91da-dd6c372ed863","ios":"levelo://app?vid=ead5c6e2-9df3-4bf0-91da-dd6c372ed863"},"vehicle_type_id":"4","last_reported":1684296493,"current_range_meters":29200,"station_id":"ce4bhap2rcd13ifvqek0","pricing_plan_id":"free"},{"bike_id":"6936b459-fbc8-48aa-82c3-62193dfc3416","system_id":"levelo_inurba_marseille","lat":43.28941,"lon":5.36394,"is_reserved":false,"is_disabled":false,"rental_uris":{"android":"levelo://app?vid=6936b459-fbc8-48aa-82c3-62193dfc3416","ios":"levelo://app?vid=6936b459-fbc8-48aa-82c3-62193dfc3416"},"vehicle_type_id":"4","last_reported":1684296493,"current_range_meters":26800,"station_id":"ce4bhc92rcd13ifvqetg","pricing_plan_id":"free"},{"bike_id":"cc017c3c-0a03-4047-bf46-4a1d2e6ee207","system_id":"levelo_inurba_marseille","lat":43.28942,"lon":5.36372,"is_reserved":false,"is_disabled":false,"rental_uris":{"android":"levelo://app?vid=cc017c3c-0a03-4047-bf46-4a1d2e6ee207","ios":"levelo://app?vid=cc017c3c-0a03-4047-bf46-4a1d2e6ee207"},"vehicle_type_id":"4","last_reported":1684296493,"current_range_meters":28800,"station_id":"ce4bhc92rcd13ifvqetg","pricing_plan_id":"free"},{"bike_id":"db0c5c40-c4b7-4238-9bbc-aad1de67a362","system_id":"levelo_inurba_marseille","lat":43.2894,"lon":5.36379,"is_reserved":false,"is_disabled":false,"rental_uris":{"android":"levelo://app?vid=db0c5c40-c4b7-4238-9bbc-aad1de67a362","ios":"levelo://app?vid=db0c5c40-c4b7-4238-9bbc-aad1de67a362"},"vehicle_type_id":"4","last_reported":1684296493,"current_range_meters":20000,"station_id":"ce4bhc92rcd13ifvqetg","pricing_plan_id":"free"},{"bike_id":"5f184575-15af-446f-9a4e-ba7dd17706b4","system_id":"levelo_inurba_marseille","lat":43.28938,"lon":5.36389,"is_reserved":false,"is_disabled":false,"rental_uris":{"android":"levelo://app?vid=5f184575-15af-446f-9a4e-ba7dd17706b4","ios":"levelo://app?vid=5f184575-15af-446f-9a4e-ba7dd17706b4"},"vehicle_type_id":"4","last_reported":1684296493,"current_range_meters":24800,"station_id":"ce4bhc92rcd13ifvqetg","pricing_plan_id":"free"},{"bike_id":"48bf5941-e28c-4e38-ac1b-b83c0b3166e1","system_id":"levelo_inurba_marseille","lat":43.28933,"lon":5.364,"is_reserved":false,"is_disabled":false,"rental_uris":{"android":"levelo://app?vid=48bf5941-e28c-4e38-ac1b-b83c0b3166e1","ios":"levelo://app?vid=48bf5941-e28c-4e38-ac1b-b83c0b3166e1"},"vehicle_type_id":"4","last_reported":1684296493,"current_range_meters":19600,"station_id":"ce4bhc92rcd13ifvqetg","pricing_plan_id":"free"},{"bike_id":"35a83053-8d06-4274-96a2-ba86a66451d7","system_id":"levelo_inurba_marseille","lat":43.28932,"lon":5.36393,"is_reserved":false,"is_disabled":false,"rental_uris":{"android":"levelo://app?vid=35a83053-8d06-4274-96a2-ba86a66451d7","ios":"levelo://app?vid=35a83053-8d06-4274-96a2-ba86a66451d7"},"vehicle_type_id":"4","last_reported":1684296493,"current_range_meters":30000,"station_id":"ce4bhc92rcd13ifvqetg","pricing_plan_id":"free"},{"bike_id":"d01bf714-ddfa-4f0b-99a5-dee273f3de74","system_id":"levelo_inurba_marseille","lat":43.28932,"lon":5.36392,"is_reserved":false,"is_disabled":false,"rental_uris":{"android":"levelo://app?vid=d01bf714-ddfa-4f0b-99a5-dee273f3de74","ios":"levelo://app?vid=d01bf714-ddfa-4f0b-99a5-dee273f3de74"},"vehicle_type_id":"4","last_reported":1684296493,"current_range_meters":28400,"station_id":"ce4bhc92rcd13ifvqetg","pricing_plan_id":"free"},{"bike_id":"daa60bd0-ba83-4647-884d-1b743c13e167","system_id":"levelo_inurba_marseille","lat":43.289468,"lon":5.363719,"is_reserved":false,"is_disabled":false,"rental_uris":{"android":"levelo://app?vid=daa60bd0-ba83-4647-884d-1b743c13e167","ios":"levelo://app?vid=daa60bd0-ba83-4647-884d-1b743c13e167"},"vehicle_type_id":"4","last_reported":1684296493,"current_range_meters":29200,"station_id":"ce4bhc92rcd13ifvqetg","pricing_plan_id":"free"},{"bike_id":"2fc97058-cabf-4842-aad7-9fa3fe09c942","system_id":"levelo_inurba_marseille","lat":43.28931,"lon":5.36388,"is_reserved":false,"is_disabled":false,"rental_uris":{"android":"levelo://app?vid=2fc97058-cabf-4842-aad7-9fa3fe09c942","ios":"levelo://app?vid=2fc97058-cabf-4842-aad7-9fa3fe09c942"},"vehicle_type_id":"4","last_reported":1684296493,"current_range_meters":31200,"station_id":"ce4bhc92rcd13ifvqetg","pricing_plan_id":"free"},{"bike_id":"5e7261ad-b331-4b6e-8e1e-2af51e689b86","system_id":"levelo_inurba_marseille","lat":43.2893,"lon":5.36401,"is_reserved":false,"is_disabled":false,"rental_uris":{"android":"levelo://app?vid=5e7261ad-b331-4b6e-8e1e-2af51e689b86","ios":"levelo://app?vid=5e7261ad-b331-4b6e-8e1e-2af51e689b86"},"vehicle_type_id":"4","last_reported":1684296493,"current_range_meters":18000,"station_id":"","pricing_plan_id":"free"},{"bike_id":"dfef0444-d0d5-4722-aee5-f2d2edaa631d","system_id":"levelo_inurba_marseille","lat":43.292642,"lon":5.384254,"is_reserved":false,"is_disabled":false,"rental_uris":{"android":"levelo://app?vid=dfef0444-d0d5-4722-aee5-f2d2edaa631d","ios":"levelo://app?vid=dfef0444-d0d5-4722-aee5-f2d2edaa631d"},"vehicle_type_id":"4","last_reported":1684296493,"current_range_meters":28400,"station_id":"ce4bh692rcd13ifvqea0","pricing_plan_id":"free"},{"bike_id":"896c7ceb-3b02-41fa-904c-11274196dcb6","system_id":"levelo_inurba_marseille","lat":43.304274,"lon":5.397513,"is_reserved":false,"is_disabled":false,"rental_uris":{"android":"levelo://app?vid=896c7ceb-3b02-41fa-904c-11274196dcb6","ios":"levelo://app?vid=896c7ceb-3b02-41fa-904c-11274196dcb6"},"vehicle_type_id":"4","last_reported":1684296493,"current_range_meters":30000,"station_id":"ce4bh092rcd13ifvqd20","pricing_plan_id":"free"},{"bike_id":"308e147f-9df8-4b7b-a43b-a4c3322c2705","system_id":"levelo_inurba_marseille","lat":43.304296,"lon":5.397513,"is_reserved":false,"is_disabled":false,"rental_uris":{"android":"levelo://app?vid=308e147f-9df8-4b7b-a43b-a4c3322c2705","ios":"levelo://app?vid=308e147f-9df8-4b7b-a43b-a4c3322c2705"},"vehicle_type_id":"4","last_reported":1684296493,"current_range_meters":30400,"station_id":"ce4bh092rcd13ifvqd20","pricing_plan_id":"free"},{"bike_id":"5ee77a0d-57db-4050-bce1-323f88747e72","system_id":"levelo_inurba_marseille","lat":43.330442,"lon":5.389148,"is_reserved":false,"is_disabled":false,"rental_uris":{"android":"levelo://app?vid=5ee77a0d-57db-4050-bce1-323f88747e72","ios":"levelo://app?vid=5ee77a0d-57db-4050-bce1-323f88747e72"},"vehicle_type_id":"4","last_reported":1684296493,"current_range_meters":24400,"station_id":"ce4bhr92rcd13ifvqhrg","pricing_plan_id":"free"},{"bike_id":"9b16adb2-25cc-4e9c-a001-c6742c74e140","system_id":"levelo_inurba_marseille","lat":43.290104,"lon":5.356111,"is_reserved":false,"is_disabled":false,"rental_uris":{"android":"levelo://app?vid=9b16adb2-25cc-4e9c-a001-c6742c74e140","ios":"levelo://app?vid=9b16adb2-25cc-4e9c-a001-c6742c74e140"},"vehicle_type_id":"4","last_reported":1684296493,"current_range_meters":31200,"station_id":"ce4bhb92rcd13ifvqen0","pricing_plan_id":"free"},{"bike_id":"1378a34d-50b8-4602-893e-e8e08c131e22","system_id":"levelo_inurba_marseille","lat":43.290104,"lon":5.356111,"is_reserved":false,"is_disabled":false,"rental_uris":{"android":"levelo://app?vid=1378a34d-50b8-4602-893e-e8e08c131e22","ios":"levelo://app?vid=1378a34d-50b8-4602-893e-e8e08c131e22"},"vehicle_type_id":"4","last_reported":1684296493,"current_range_meters":30800,"station_id":"ce4bhb92rcd13ifvqen0","pricing_plan_id":"free"},{"bike_id":"ee04b75a-6096-4f84-9dec-1ddf02c4a48f","system_id":"levelo_inurba_marseille","lat":43.330442,"lon":5.389148,"is_reserved":false,"is_disabled":false,"rental_uris":{"android":"levelo://app?vid=ee04b75a-6096-4f84-9dec-1ddf02c4a48f","ios":"levelo://app?vid=ee04b75a-6096-4f84-9dec-1ddf02c4a48f"},"vehicle_type_id":"4","last_reported":1684296493,"current_range_meters":5600,"station_id":"ce4bhr92rcd13ifvqhrg","pricing_plan_id":"free"},{"bike_id":"4ed5aec3-5da1-445c-83aa-53e94711f0b8","system_id":"levelo_inurba_marseille","lat":43.33043,"lon":5.38919,"is_reserved":false,"is_disabled":false,"rental_uris":{"android":"levelo://app?vid=4ed5aec3-5da1-445c-83aa-53e94711f0b8","ios":"levelo://app?vid=4ed5aec3-5da1-445c-83aa-53e94711f0b8"},"vehicle_type_id":"4","last_reported":1684296493,"current_range_meters":19200,"station_id":"ce4bhr92rcd13ifvqhrg","pricing_plan_id":"free"},{"bike_id":"6e57a66d-92b5-4aa7-9a75-d08d47093e56","system_id":"levelo_inurba_marseille","lat":43.290104,"lon":5.356111,"is_reserved":false,"is_disabled":false,"rental_uris":{"android":"levelo://app?vid=6e57a66d-92b5-4aa7-9a75-d08d47093e56","ios":"levelo://app?vid=6e57a66d-92b5-4aa7-9a75-d08d47093e56"},"vehicle_type_id":"4","last_reported":1684296493,"current_range_meters":29200,"station_id":"ce4bhb92rcd13ifvqen0","pricing_plan_id":"free"},{"bike_id":"2aaa3830-c933-42d6-8111-151d3070710a","system_id":"levelo_inurba_marseille","lat":43.290104,"lon":5.356111,"is_reserved":false,"is_disabled":false,"rental_uris":{"android":"levelo://app?vid=2aaa3830-c933-42d6-8111-151d3070710a","ios":"levelo://app?vid=2aaa3830-c933-42d6-8111-151d3070710a"},"vehicle_type_id":"4","last_reported":1684296493,"current_range_meters":30000,"station_id":"ce4bhb92rcd13ifvqen0","pricing_plan_id":"free"},{"bike_id":"158688a5-84ef-425e-8b3a-949dc5deaa75","system_id":"levelo_inurba_marseille","lat":43.290104,"lon":5.356111,"is_reserved":false,"is_disabled":false,"rental_uris":{"android":"levelo://app?vid=158688a5-84ef-425e-8b3a-949dc5deaa75","ios":"levelo://app?vid=158688a5-84ef-425e-8b3a-949dc5deaa75"},"vehicle_type_id":"4","last_reported":1684296493,"current_range_meters":31200,"station_id":"ce4bhb92rcd13ifvqen0","pricing_plan_id":"free"},{"bike_id":"c639d966-b8b1-4137-bbaf-ddd024cc064b","system_id":"levelo_inurba_marseille","lat":43.29,"lon":5.35609,"is_reserved":false,"is_disabled":false,"rental_uris":{"android":"levelo://app?vid=c639d966-b8b1-4137-bbaf-ddd024cc064b","ios":"levelo://app?vid=c639d966-b8b1-4137-bbaf-ddd024cc064b"},"vehicle_type_id":"4","last_reported":1684296493,"current_range_meters":29600,"station_id":"ce4bhb92rcd13ifvqen0","pricing_plan_id":"free"},{"bike_id":"33494e8d-b609-4008-a4e3-474d9cd232a7","system_id":"levelo_inurba_marseille","lat":43.295169,"lon":5.390426,"is_reserved":false,"is_disabled":false,"rental_uris":{"android":"levelo://app?vid=33494e8d-b609-4008-a4e3-474d9cd232a7","ios":"levelo://app?vid=33494e8d-b609-4008-a4e3-474d9cd232a7"},"vehicle_type_id":"4","last_reported":1684296493,"current_range_meters":29200,"station_id":"ce4bh3p2rcd13ifvqdp0","pricing_plan_id":"free"},{"bike_id":"aab0315f-ceb7-46a3-8088-bffe3bb34c5e","system_id":"levelo_inurba_marseille","lat":43.289741,"lon":5.378306,"is_reserved":false,"is_disabled":false,"rental_uris":{"android":"levelo://app?vid=aab0315f-ceb7-46a3-8088-bffe3bb34c5e","ios":"levelo://app?vid=aab0315f-ceb7-46a3-8088-bffe3bb34c5e"},"vehicle_type_id":"4","last_reported":1684296493,"current_range_meters":23200,"station_id":"ce4bh9p2rcd13ifvqed0","pricing_plan_id":"free"},{"bike_id":"bd659da3-565e-4dba-8ca8-1d48c4f12ab6","system_id":"levelo_inurba_marseille","lat":43.29519,"lon":5.39056,"is_reserved":false,"is_disabled":false,"rental_uris":{"android":"levelo://app?vid=bd659da3-565e-4dba-8ca8-1d48c4f12ab6","ios":"levelo://app?vid=bd659da3-565e-4dba-8ca8-1d48c4f12ab6"},"vehicle_type_id":"4","last_reported":1684296493,"current_range_meters":28800,"station_id":"ce4bh3p2rcd13ifvqdp0","pricing_plan_id":"free"},{"bike_id":"59fd90d1-2c31-46db-8fbd-ba7ba1dd03aa","system_id":"levelo_inurba_marseille","lat":43.295169,"lon":5.390426,"is_reserved":false,"is_disabled":false,"rental_uris":{"android":"levelo://app?vid=59fd90d1-2c31-46db-8fbd-ba7ba1dd03aa","ios":"levelo://app?vid=59fd90d1-2c31-46db-8fbd-ba7ba1dd03aa"},"vehicle_type_id":"4","last_reported":1684296493,"current_range_meters":30000,"station_id":"ce4bh3p2rcd13ifvqdp0","pricing_plan_id":"free"},{"bike_id":"9c26325e-8293-441c-a059-5b92096347c4","system_id":"levelo_inurba_marseille","lat":43.28868,"lon":5.35974,"is_reserved":false,"is_disabled":false,"rental_uris":{"android":"levelo://app?vid=9c26325e-8293-441c-a059-5b92096347c4","ios":"levelo://app?vid=9c26325e-8293-441c-a059-5b92096347c4"},"vehicle_type_id":"4","last_reported":1684296493,"current_range_meters":7200,"station_id":"","pricing_plan_id":"free"},{"bike_id":"86d529d1-b9bd-4692-acce-6d49edf18a59","system_id":"levelo_inurba_marseille","lat":43.28856,"lon":5.358371,"is_reserved":false,"is_disabled":false,"rental_uris":{"android":"levelo://app?vid=86d529d1-b9bd-4692-acce-6d49edf18a59","ios":"levelo://app?vid=86d529d1-b9bd-4692-acce-6d49edf18a59"},"vehicle_type_id":"4","last_reported":1684296493,"current_range_meters":31200,"station_id":"ce4bhb12rcd13ifvqem0","pricing_plan_id":"free"},{"bike_id":"b134fc8b-47bf-4cbd-83ca-2f8e3a1dd862","system_id":"levelo_inurba_marseille","lat":43.28856,"lon":5.358371,"is_reserved":false,"is_disabled":false,"rental_uris":{"android":"levelo://app?vid=b134fc8b-47bf-4cbd-83ca-2f8e3a1dd862","ios":"levelo://app?vid=b134fc8b-47bf-4cbd-83ca-2f8e3a1dd862"},"vehicle_type_id":"4","last_reported":1684296493,"current_range_meters":20800,"station_id":"ce4bhb12rcd13ifvqem0","pricing_plan_id":"free"},{"bike_id":"7fa2f224-e389-4a95-b96b-4e37606aa071","system_id":"levelo_inurba_marseille","lat":43.28856,"lon":5.358371,"is_reserved":false,"is_disabled":false,"rental_uris":{"android":"levelo://app?vid=7fa2f224-e389-4a95-b96b-4e37606aa071","ios":"levelo://app?vid=7fa2f224-e389-4a95-b96b-4e37606aa071"},"vehicle_type_id":"4","last_reported":1684296493,"current_range_meters":29600,"station_id":"ce4bhb12rcd13ifvqem0","pricing_plan_id":"free"},{"bike_id":"f6529b46-d325-4908-8f4e-5dcfa9b4a7e9","system_id":"levelo_inurba_marseille","lat":43.28856,"lon":5.358371,"is_reserved":false,"is_disabled":false,"rental_uris":{"android":"levelo://app?vid=f6529b46-d325-4908-8f4e-5dcfa9b4a7e9","ios":"levelo://app?vid=f6529b46-d325-4908-8f4e-5dcfa9b4a7e9"},"vehicle_type_id":"4","last_reported":1684296493,"current_range_meters":31200,"station_id":"ce4bhb12rcd13ifvqem0","pricing_plan_id":"free"},{"bike_id":"74cfff1f-841a-4b85-8e7b-bde78f34efb5","system_id":"levelo_inurba_marseille","lat":43.28856,"lon":5.358371,"is_reserved":false,"is_disabled":false,"rental_uris":{"android":"levelo://app?vid=74cfff1f-841a-4b85-8e7b-bde78f34efb5","ios":"levelo://app?vid=74cfff1f-841a-4b85-8e7b-bde78f34efb5"},"vehicle_type_id":"4","last_reported":1684296493,"current_range_meters":27600,"station_id":"ce4bhb12rcd13ifvqem0","pricing_plan_id":"free"},{"bike_id":"f2e77f4f-07e2-4866-aa79-c2b957d4b17a","system_id":"levelo_inurba_marseille","lat":43.28856,"lon":5.358371,"is_reserved":false,"is_disabled":false,"rental_uris":{"android":"levelo://app?vid=f2e77f4f-07e2-4866-aa79-c2b957d4b17a","ios":"levelo://app?vid=f2e77f4f-07e2-4866-aa79-c2b957d4b17a"},"vehicle_type_id":"4","last_reported":1684296493,"current_range_meters":21200,"station_id":"ce4bhb12rcd13ifvqem0","pricing_plan_id":"free"},{"bike_id":"06918acf-39ff-46a8-8e4a-3e29166672e1","system_id":"levelo_inurba_marseille","lat":43.28856,"lon":5.358371,"is_reserved":false,"is_disabled":false,"rental_uris":{"android":"levelo://app?vid=06918acf-39ff-46a8-8e4a-3e29166672e1","ios":"levelo://app?vid=06918acf-39ff-46a8-8e4a-3e29166672e1"},"vehicle_type_id":"4","last_reported":1684296493,"current_range_meters":28400,"station_id":"ce4bhb12rcd13ifvqem0","pricing_plan_id":"free"},{"bike_id":"134fbf9a-2f99-47c1-9875-45b185a0a3ce","system_id":"levelo_inurba_marseille","lat":43.337436,"lon":5.374627,"is_reserved":false,"is_disabled":false,"rental_uris":{"android":"levelo://app?vid=134fbf9a-2f99-47c1-9875-45b185a0a3ce","ios":"levelo://app?vid=134fbf9a-2f99-47c1-9875-45b185a0a3ce"},"vehicle_type_id":"4","last_reported":1684296493,"current_range_meters":18000,"station_id":"ce4bhnp2rcd13ifvqgvg","pricing_plan_id":"free"},{"bike_id":"1279a495-c1e6-4cfd-9feb-ae2c256b368f","system_id":"levelo_inurba_marseille","lat":43.33746,"lon":5.37452,"is_reserved":false,"is_disabled":false,"rental_uris":{"android":"levelo://app?vid=1279a495-c1e6-4cfd-9feb-ae2c256b368f","ios":"levelo://app?vid=1279a495-c1e6-4cfd-9feb-ae2c256b368f"},"vehicle_type_id":"4","last_reported":1684296493,"current_range_meters":31600,"station_id":"","pricing_plan_id":"free"},{"bike_id":"5e1cf41d-c8a7-4c1d-b235-13ea01033b35","system_id":"levelo_inurba_marseille","lat":43.33747,"lon":5.3746,"is_reserved":false,"is_disabled":false,"rental_uris":{"android":"levelo://app?vid=5e1cf41d-c8a7-4c1d-b235-13ea01033b35","ios":"levelo://app?vid=5e1cf41d-c8a7-4c1d-b235-13ea01033b35"},"vehicle_type_id":"4","last_reported":1684296493,"current_range_meters":31200,"station_id":"","pricing_plan_id":"free"},{"bike_id":"58a4d525-e140-4be5-a1a5-8a06bce8f822","system_id":"levelo_inurba_marseille","lat":43.33758,"lon":5.37432,"is_reserved":false,"is_disabled":false,"rental_uris":{"android":"levelo://app?vid=58a4d525-e140-4be5-a1a5-8a06bce8f822","ios":"levelo://app?vid=58a4d525-e140-4be5-a1a5-8a06bce8f822"},"vehicle_type_id":"4","last_reported":1684296493,"current_range_meters":31200,"station_id":"","pricing_plan_id":"free"},{"bike_id":"de22916d-a5b7-43ef-a249-c81871f8a5af","system_id":"levelo_inurba_marseille","lat":43.30642,"lon":5.401031,"is_reserved":false,"is_disabled":false,"rental_uris":{"android":"levelo://app?vid=de22916d-a5b7-43ef-a249-c81871f8a5af","ios":"levelo://app?vid=de22916d-a5b7-43ef-a249-c81871f8a5af"},"vehicle_type_id":"4","last_reported":1684296493,"current_range_meters":31200,"station_id":"ce4bh112rcd13ifvqda0","pricing_plan_id":"free"},{"bike_id":"ac637588-5861-48bb-abc4-426b0109b0ce","system_id":"levelo_inurba_marseille","lat":43.30642,"lon":5.401031,"is_reserved":false,"is_disabled":false,"rental_uris":{"android":"levelo://app?vid=ac637588-5861-48bb-abc4-426b0109b0ce","ios":"levelo://app?vid=ac637588-5861-48bb-abc4-426b0109b0ce"},"vehicle_type_id":"4","last_reported":1684296493,"current_range_meters":21200,"station_id":"ce4bh112rcd13ifvqda0","pricing_plan_id":"free"},{"bike_id":"503e199e-88c2-41a4-a0ba-3b267cb079b1","system_id":"levelo_inurba_marseille","lat":43.30642,"lon":5.401031,"is_reserved":false,"is_disabled":false,"rental_uris":{"android":"levelo://app?vid=503e199e-88c2-41a4-a0ba-3b267cb079b1","ios":"levelo://app?vid=503e199e-88c2-41a4-a0ba-3b267cb079b1"},"vehicle_type_id":"4","last_reported":1684296493,"current_range_meters":23600,"station_id":"ce4bh112rcd13ifvqda0","pricing_plan_id":"free"},{"bike_id":"3fca1509-1903-4b64-835c-7d75cb644e42","system_id":"levelo_inurba_marseille","lat":43.30642,"lon":5.401031,"is_reserved":false,"is_disabled":false,"rental_uris":{"android":"levelo://app?vid=3fca1509-1903-4b64-835c-7d75cb644e42","ios":"levelo://app?vid=3fca1509-1903-4b64-835c-7d75cb644e42"},"vehicle_type_id":"4","last_reported":1684296493,"current_range_meters":0,"station_id":"ce4bh112rcd13ifvqda0","pricing_plan_id":"free"},{"bike_id":"cb45acb1-4b90-4d95-a6c8-033ff364929c","system_id":"levelo_inurba_marseille","lat":43.301117,"lon":5.398795,"is_reserved":false,"is_disabled":false,"rental_uris":{"android":"levelo://app?vid=cb45acb1-4b90-4d95-a6c8-033ff364929c","ios":"levelo://app?vid=cb45acb1-4b90-4d95-a6c8-033ff364929c"},"vehicle_type_id":"4","last_reported":1684296493,"current_range_meters":27200,"station_id":"ce4bh0h2rcd13ifvqd40","pricing_plan_id":"free"},{"bike_id":"ce48d1ee-e39a-44d2-9f05-3a401c727c46","system_id":"levelo_inurba_marseille","lat":43.301117,"lon":5.398795,"is_reserved":false,"is_disabled":false,"rental_uris":{"android":"levelo://app?vid=ce48d1ee-e39a-44d2-9f05-3a401c727c46","ios":"levelo://app?vid=ce48d1ee-e39a-44d2-9f05-3a401c727c46"},"vehicle_type_id":"4","last_reported":1684296493,"current_range_meters":31200,"station_id":"ce4bh0h2rcd13ifvqd40","pricing_plan_id":"free"},{"bike_id":"426b2e9b-42cc-4316-97ad-94e21c6ebfc5","system_id":"levelo_inurba_marseille","lat":43.30134,"lon":5.39867,"is_reserved":false,"is_disabled":false,"rental_uris":{"android":"levelo://app?vid=426b2e9b-42cc-4316-97ad-94e21c6ebfc5","ios":"levelo://app?vid=426b2e9b-42cc-4316-97ad-94e21c6ebfc5"},"vehicle_type_id":"4","last_reported":1684296493,"current_range_meters":25600,"station_id":"","pricing_plan_id":"free"},{"bike_id":"ee024ca2-846c-45ac-b432-06a93b6c75b9","system_id":"levelo_inurba_marseille","lat":43.301117,"lon":5.398795,"is_reserved":false,"is_disabled":false,"rental_uris":{"android":"levelo://app?vid=ee024ca2-846c-45ac-b432-06a93b6c75b9","ios":"levelo://app?vid=ee024ca2-846c-45ac-b432-06a93b6c75b9"},"vehicle_type_id":"4","last_reported":1684296493,"current_range_meters":26000,"station_id":"ce4bh0h2rcd13ifvqd40","pricing_plan_id":"free"},{"bike_id":"ba3c102e-1acc-4476-b5b0-78bd0c52576d","system_id":"levelo_inurba_marseille","lat":43.301117,"lon":5.398795,"is_reserved":false,"is_disabled":false,"rental_uris":{"android":"levelo://app?vid=ba3c102e-1acc-4476-b5b0-78bd0c52576d","ios":"levelo://app?vid=ba3c102e-1acc-4476-b5b0-78bd0c52576d"},"vehicle_type_id":"4","last_reported":1684296493,"current_range_meters":28800,"station_id":"ce4bh0h2rcd13ifvqd40","pricing_plan_id":"free"},{"bike_id":"4f82b2f8-7550-4f44-9dd5-990790ad7d30","system_id":"levelo_inurba_marseille","lat":43.301117,"lon":5.398795,"is_reserved":false,"is_disabled":false,"rental_uris":{"android":"levelo://app?vid=4f82b2f8-7550-4f44-9dd5-990790ad7d30","ios":"levelo://app?vid=4f82b2f8-7550-4f44-9dd5-990790ad7d30"},"vehicle_type_id":"4","last_reported":1684296493,"current_range_meters":30400,"station_id":"ce4bh0h2rcd13ifvqd40","pricing_plan_id":"free"},{"bike_id":"de31c07b-e2c2-461e-9728-05e1a46c0fa1","system_id":"levelo_inurba_marseille","lat":43.301117,"lon":5.398795,"is_reserved":false,"is_disabled":false,"rental_uris":{"android":"levelo://app?vid=de31c07b-e2c2-461e-9728-05e1a46c0fa1","ios":"levelo://app?vid=de31c07b-e2c2-461e-9728-05e1a46c0fa1"},"vehicle_type_id":"4","last_reported":1684296493,"current_range_meters":29200,"station_id":"ce4bh0h2rcd13ifvqd40","pricing_plan_id":"free"},{"bike_id":"482b569d-bcea-4a51-a828-40f7a165e45c","system_id":"levelo_inurba_marseille","lat":43.301117,"lon":5.398795,"is_reserved":false,"is_disabled":false,"rental_uris":{"android":"levelo://app?vid=482b569d-bcea-4a51-a828-40f7a165e45c","ios":"levelo://app?vid=482b569d-bcea-4a51-a828-40f7a165e45c"},"vehicle_type_id":"4","last_reported":1684296493,"current_range_meters":28400,"station_id":"ce4bh0h2rcd13ifvqd40","pricing_plan_id":"free"},{"bike_id":"1fd1ec6d-da46-47fb-97c3-6b56876a6d5f","system_id":"levelo_inurba_marseille","lat":43.301117,"lon":5.398795,"is_reserved":false,"is_disabled":false,"rental_uris":{"android":"levelo://app?vid=1fd1ec6d-da46-47fb-97c3-6b56876a6d5f","ios":"levelo://app?vid=1fd1ec6d-da46-47fb-97c3-6b56876a6d5f"},"vehicle_type_id":"4","last_reported":1684296493,"current_range_meters":26800,"station_id":"ce4bh0h2rcd13ifvqd40","pricing_plan_id":"free"},{"bike_id":"298ea436-f48e-48c3-b877-ca7acc4e71d5","system_id":"levelo_inurba_marseille","lat":43.286591,"lon":5.363346,"is_reserved":false,"is_disabled":false,"rental_uris":{"android":"levelo://app?vid=298ea436-f48e-48c3-b877-ca7acc4e71d5","ios":"levelo://app?vid=298ea436-f48e-48c3-b877-ca7acc4e71d5"},"vehicle_type_id":"4","last_reported":1684296493,"current_range_meters":31200,"station_id":"ce4bhah2rcd13ifvqej0","pricing_plan_id":"free"},{"bike_id":"490de95c-c869-4ed2-8ace-120de950abed","system_id":"levelo_inurba_marseille","lat":43.286591,"lon":5.363346,"is_reserved":false,"is_disabled":false,"rental_uris":{"android":"levelo://app?vid=490de95c-c869-4ed2-8ace-120de950abed","ios":"levelo://app?vid=490de95c-c869-4ed2-8ace-120de950abed"},"vehicle_type_id":"4","last_reported":1684296493,"current_range_meters":26800,"station_id":"ce4bhah2rcd13ifvqej0","pricing_plan_id":"free"},{"bike_id":"31a7c452-6532-4d44-8c29-1493bcd8737e","system_id":"levelo_inurba_marseille","lat":43.298681,"lon":5.397225,"is_reserved":false,"is_disabled":false,"rental_uris":{"android":"levelo://app?vid=31a7c452-6532-4d44-8c29-1493bcd8737e","ios":"levelo://app?vid=31a7c452-6532-4d44-8c29-1493bcd8737e"},