{"last_updated":1684094768,"ttl":30,"version":"2.2","data":{"bikes":[{"bike_id":"78639281-da9b-4878-980b-0e688644d586","system_id":"levelo_inurba_marseille","lat":43.31192,"lon":5.36759,"is_reserved":false,"is_disabled":false,"rental_uris":{"android":"levelo://app?vid=78639281-da9b-4878-980b-0e688644d586","ios":"levelo://app?vid=78639281-da9b-4878-980b-0e688644d586"},"vehicle_type_id":"4","last_reported":1684094768,"current_range_meters":30800,"station_id":"","pricing_plan_id":"free"},{"bike_id":"efe02665-fba1-4dde-aa97-84ae36a005a3","system_id":"levelo_inurba_marseille","lat":43.312239,"lon":5.368562,"is_reserved":false,"is_disabled":false,"rental_uris":{"android":"levelo://app?vid=efe02665-fba1-4dde-aa97-84ae36a005a3","ios":"levelo://app?vid=efe02665-fba1-4dde-aa97-84ae36a005a3"},"vehicle_type_id":"4","last_reported":1684094768,"current_range_meters":2400,"station_id":"ce4bgl92rcd13ifvqbq0","pricing_plan_id":"free"},{"bike_id":"0758ada2-fc5b-478b-ba47-90030b3eb6d8","system_id":"levelo_inurba_marseille","lat":43.312239,"lon":5.368562,"is_reserved":false,"is_disabled":false,"rental_uris":{"android":"levelo://app?vid=0758ada2-fc5b-478b-ba47-90030b3eb6d8","ios":"levelo://app?vid=0758ada2-fc5b-478b-ba47-90030b3eb6d8"},"vehicle_type_id":"4","last_reported":1684094768,"current_range_meters":9200,"station_id":"ce4bgl92rcd13ifvqbq0","pricing_plan_id":"free"},{"bike_id":"b2105320-9a74-4498-903a-fc4e6c0e6b33","system_id":"levelo_inurba_marseille","lat":43.309076,"lon":5.368465,"is_reserved":false,"is_disabled":false,"rental_uris":{"android":"levelo://app?vid=b2105320-9a74-4498-903a-fc4e6c0e6b33","ios":"levelo://app?vid=b2105320-9a74-4498-903a-fc4e6c0e6b33"},"vehicle_type_id":"4","last_reported":1684094768,"current_range_meters":11600,"station_id":"ce4bgn92rcd13ifvqbvg","pricing_plan_id":"free"},{"bike_id":"96408b06-b793-4f80-b20d-27f5722de464","system_id":"levelo_inurba_marseille","lat":43.314811,"lon":5.373103,"is_reserved":false,"is_disabled":false,"rental_uris":{"android":"levelo://app?vid=96408b06-b793-4f80-b20d-27f5722de464","ios":"levelo://app?vid=96408b06-b793-4f80-b20d-27f5722de464"},"vehicle_type_id":"4","last_reported":1684094768,"current_range_meters":28800,"station_id":"ce4bgt12rcd13ifvqcd0","pricing_plan_id":"free"},{"bike_id":"67679834-e513-4284-a05f-f346e2b7b0d2","system_id":"levelo_inurba_marseille","lat":43.31487,"lon":5.37306,"is_reserved":false,"is_disabled":false,"rental_uris":{"android":"levelo://app?vid=67679834-e513-4284-a05f-f346e2b7b0d2","ios":"levelo://app?vid=67679834-e513-4284-a05f-f346e2b7b0d2"},"vehicle_type_id":"4","last_reported":1684094768,"current_range_meters":6800,"station_id":"ce4bgt12rcd13ifvqcd0","pricing_plan_id":"free"},{"bike_id":"5555bbcb-ea51-44e5-a416-0b09ffe5f092","system_id":"levelo_inurba_marseille","lat":43.308614,"lon":5.372098,"is_reserved":false,"is_disabled":false,"rental_uris":{"android":"levelo://app?vid=5555bbcb-ea51-44e5-a416-0b09ffe5f092","ios":"levelo://app?vid=5555bbcb-ea51-44e5-a416-0b09ffe5f092"},"vehicle_type_id":"4","last_reported":1684094768,"current_range_meters":16800,"station_id":"ce4bguh2rcd13ifvqckg","pricing_plan_id":"free"},{"bike_id":"ef42665b-7a58-430a-a09b-24ad7325a98d","system_id":"levelo_inurba_marseille","lat":43.30588,"lon":5.36563,"is_reserved":false,"is_disabled":false,"rental_uris":{"android":"levelo://app?vid=ef42665b-7a58-430a-a09b-24ad7325a98d","ios":"levelo://app?vid=ef42665b-7a58-430a-a09b-24ad7325a98d"},"vehicle_type_id":"4","last_reported":1684094768,"current_range_meters":10800,"station_id":"","pricing_plan_id":"free"},{"bike_id":"dff8f60e-2589-4771-b1f4-fa1893563f27","system_id":"levelo_inurba_marseille","lat":43.31975,"lon":5.36744,"is_reserved":false,"is_disabled":false,"rental_uris":{"android":"levelo://app?vid=dff8f60e-2589-4771-b1f4-fa1893563f27","ios":"levelo://app?vid=dff8f60e-2589-4771-b1f4-fa1893563f27"},"vehicle_type_id":"4","last_reported":1684094768,"current_range_meters":3600,"station_id":"ce4bhs92rcd13ifvqi0g","pricing_plan_id":"free"},{"bike_id":"0c12658a-0ae7-4628-af16-d7d3776e4359","system_id":"levelo_inurba_marseille","lat":43.305989,"lon":5.37225,"is_reserved":false,"is_disabled":false,"rental_uris":{"android":"levelo://app?vid=0c12658a-0ae7-4628-af16-d7d3776e4359","ios":"levelo://app?vid=0c12658a-0ae7-4628-af16-d7d3776e4359"},"vehicle_type_id":"4","last_reported":1684094768,"current_range_meters":0,"station_id":"ce4bgqh2rcd13ifvqc4g","pricing_plan_id":"free"},{"bike_id":"ee582dda-baa8-4ffd-a7f6-ac204b33ab42","system_id":"levelo_inurba_marseille","lat":43.305989,"lon":5.37225,"is_reserved":false,"is_disabled":false,"rental_uris":{"android":"levelo://app?vid=ee582dda-baa8-4ffd-a7f6-ac204b33ab42","ios":"levelo://app?vid=ee582dda-baa8-4ffd-a7f6-ac204b33ab42"},"vehicle_type_id":"4","last_reported":1684094768,"current_range_meters":20400,"station_id":"ce4bgqh2rcd13ifvqc4g","pricing_plan_id":"free"},{"bike_id":"984270c4-aff3-4084-b2dc-8eb84eaa0b81","system_id":"levelo_inurba_marseille","lat":43.305989,"lon":5.37225,"is_reserved":false,"is_disabled":false,"rental_uris":{"android":"levelo://app?vid=984270c4-aff3-4084-b2dc-8eb84eaa0b81","ios":"levelo://app?vid=984270c4-aff3-4084-b2dc-8eb84eaa0b81"},"vehicle_type_id":"4","last_reported":1684094768,"current_range_meters":12400,"station_id":"ce4bgqh2rcd13ifvqc4g","pricing_plan_id":"free"},{"bike_id":"151d50bc-3aee-48d5-9527-783274464e00","system_id":"levelo_inurba_marseille","lat":43.31196,"lon":5.37761,"is_reserved":false,"is_disabled":false,"rental_uris":{"android":"levelo://app?vid=151d50bc-3aee-48d5-9527-783274464e00","ios":"levelo://app?vid=151d50bc-3aee-48d5-9527-783274464e00"},"vehicle_type_id":"4","last_reported":1684094768,"current_range_meters":7200,"station_id":"","pricing_plan_id":"free"},{"bike_id":"628ea6fb-588e-4501-b338-e2802c1ee860","system_id":"levelo_inurba_marseille","lat":43.31117,"lon":5.37767,"is_reserved":false,"is_disabled":false,"rental_uris":{"android":"levelo://app?vid=628ea6fb-588e-4501-b338-e2802c1ee860","ios":"levelo://app?vid=628ea6fb-588e-4501-b338-e2802c1ee860"},"vehicle_type_id":"4","last_reported":1684094768,"current_range_meters":8800,"station_id":"ce4bgt92rcd13ifvqcg0","pricing_plan_id":"free"},{"bike_id":"2ae06262-ad14-4da5-8809-607d7014f379","system_id":"levelo_inurba_marseille","lat":43.31117,"lon":5.37769,"is_reserved":false,"is_disabled":false,"rental_uris":{"android":"levelo://app?vid=2ae06262-ad14-4da5-8809-607d7014f379","ios":"levelo://app?vid=2ae06262-ad14-4da5-8809-607d7014f379"},"vehicle_type_id":"4","last_reported":1684094768,"current_range_meters":16400,"station_id":"ce4bgt92rcd13ifvqcg0","pricing_plan_id":"free"},{"bike_id":"51758217-d600-4fa2-9ead-10850a2d2408","system_id":"levelo_inurba_marseille","lat":43.317075,"lon":5.377367,"is_reserved":false,"is_disabled":false,"rental_uris":{"android":"levelo://app?vid=51758217-d600-4fa2-9ead-10850a2d2408","ios":"levelo://app?vid=51758217-d600-4fa2-9ead-10850a2d2408"},"vehicle_type_id":"4","last_reported":1684094768,"current_range_meters":22400,"station_id":"ce4bgth2rcd13ifvqch0","pricing_plan_id":"free"},{"bike_id":"450796fd-9352-4e9f-a3c8-cad81f08556b","system_id":"levelo_inurba_marseille","lat":43.30316,"lon":5.369,"is_reserved":false,"is_disabled":false,"rental_uris":{"android":"levelo://app?vid=450796fd-9352-4e9f-a3c8-cad81f08556b","ios":"levelo://app?vid=450796fd-9352-4e9f-a3c8-cad81f08556b"},"vehicle_type_id":"4","last_reported":1684094768,"current_range_meters":0,"station_id":"ce4bgqh2rcd13ifvqc5g","pricing_plan_id":"free"},{"bike_id":"5d6b2b53-1d62-49c2-92de-53776623e5f3","system_id":"levelo_inurba_marseille","lat":43.30315,"lon":5.36894,"is_reserved":false,"is_disabled":false,"rental_uris":{"android":"levelo://app?vid=5d6b2b53-1d62-49c2-92de-53776623e5f3","ios":"levelo://app?vid=5d6b2b53-1d62-49c2-92de-53776623e5f3"},"vehicle_type_id":"4","last_reported":1684094768,"current_range_meters":5200,"station_id":"ce4bgqh2rcd13ifvqc5g","pricing_plan_id":"free"},{"bike_id":"8c16f57b-aee8-4f39-91bf-5fd68fe7c822","system_id":"levelo_inurba_marseille","lat":43.30309,"lon":5.36891,"is_reserved":false,"is_disabled":false,"rental_uris":{"android":"levelo://app?vid=8c16f57b-aee8-4f39-91bf-5fd68fe7c822","ios":"levelo://app?vid=8c16f57b-aee8-4f39-91bf-5fd68fe7c822"},"vehicle_type_id":"4","last_reported":1684094768,"current_range_meters":2000,"station_id":"ce4bgqh2rcd13ifvqc5g","pricing_plan_id":"free"},{"bike_id":"39be8e9f-84ac-4091-a4a7-c2e8eec8cb33","system_id":"levelo_inurba_marseille","lat":43.31549,"lon":5.38053,"is_reserved":false,"is_disabled":false,"rental_uris":{"android":"levelo://app?vid=39be8e9f-84ac-4091-a4a7-c2e8eec8cb33","ios":"levelo://app?vid=39be8e9f-84ac-4091-a4a7-c2e8eec8cb33"},"vehicle_type_id":"4","last_reported":1684094768,"current_range_meters":6800,"station_id":"ce4bhsp2rcd13ifvqi50","pricing_plan_id":"free"},{"bike_id":"7bf5d0ab-558a-4953-a5db-3944858e1f6a","system_id":"levelo_inurba_marseille","lat":43.308012,"lon":5.381511,"is_reserved":false,"is_disabled":false,"rental_uris":{"android":"levelo://app?vid=7bf5d0ab-558a-4953-a5db-3944858e1f6a","ios":"levelo://app?vid=7bf5d0ab-558a-4953-a5db-3944858e1f6a"},"vehicle_type_id":"4","last_reported":1684094768,"current_range_meters":4000,"station_id":"ce4bgt12rcd13ifvqce0","pricing_plan_id":"free"},{"bike_id":"fcb0061f-b0fe-4d18-bd53-eb32fe875889","system_id":"levelo_inurba_marseille","lat":43.308012,"lon":5.381511,"is_reserved":false,"is_disabled":false,"rental_uris":{"android":"levelo://app?vid=fcb0061f-b0fe-4d18-bd53-eb32fe875889","ios":"levelo://app?vid=fcb0061f-b0fe-4d18-bd53-eb32fe875889"},"vehicle_type_id":"4","last_reported":1684094768,"current_range_meters":24000,"station_id":"ce4bgt12rcd13ifvqce0","pricing_plan_id":"free"},{"bike_id":"94826f39-4939-4420-aff0-5b46052a61d0","system_id":"levelo_inurba_marseille","lat":43.308012,"lon":5.381511,"is_reserved":false,"is_disabled":false,"rental_uris":{"android":"levelo://app?vid=94826f39-4939-4420-aff0-5b46052a61d0","ios":"levelo://app?vid=94826f39-4939-4420-aff0-5b46052a61d0"},"vehicle_type_id":"4","last_reported":1684094768,"current_range_meters":1600,"station_id":"ce4bgt12rcd13ifvqce0","pricing_plan_id":"free"},{"bike_id":"d57739a1-5d3b-4703-9811-da02a525b050","system_id":"levelo_inurba_marseille","lat":43.308012,"lon":5.381511,"is_reserved":false,"is_disabled":false,"rental_uris":{"android":"levelo://app?vid=d57739a1-5d3b-4703-9811-da02a525b050","ios":"levelo://app?vid=d57739a1-5d3b-4703-9811-da02a525b050"},"vehicle_type_id":"4","last_reported":1684094768,"current_range_meters":16000,"station_id":"ce4bgt12rcd13ifvqce0","pricing_plan_id":"free"},{"bike_id":"70b30f3c-6401-447d-ab0d-82139f6cf9b8","system_id":"levelo_inurba_marseille","lat":43.31998,"lon":5.38156,"is_reserved":false,"is_disabled":false,"rental_uris":{"android":"levelo://app?vid=70b30f3c-6401-447d-ab0d-82139f6cf9b8","ios":"levelo://app?vid=70b30f3c-6401-447d-ab0d-82139f6cf9b8"},"vehicle_type_id":"4","last_reported":1684094768,"current_range_meters":800,"station_id":"","pricing_plan_id":"free"},{"bike_id":"0d113670-4e9a-43ab-8e9f-26ac379e330d","system_id":"levelo_inurba_marseille","lat":43.305364,"lon":5.384119,"is_reserved":false,"is_disabled":false,"rental_uris":{"android":"levelo://app?vid=0d113670-4e9a-43ab-8e9f-26ac379e330d","ios":"levelo://app?vid=0d113670-4e9a-43ab-8e9f-26ac379e330d"},"vehicle_type_id":"4","last_reported":1684094768,"current_range_meters":0,"station_id":"ce4bgg92rcd13ifvqb30","pricing_plan_id":"free"},{"bike_id":"8a66d4f1-29a4-43ea-b828-7d63afc081a6","system_id":"levelo_inurba_marseille","lat":43.299243,"lon":5.374807,"is_reserved":false,"is_disabled":false,"rental_uris":{"android":"levelo://app?vid=8a66d4f1-29a4-43ea-b828-7d63afc081a6","ios":"levelo://app?vid=8a66d4f1-29a4-43ea-b828-7d63afc081a6"},"vehicle_type_id":"4","last_reported":1684094768,"current_range_meters":12400,"station_id":"ce4bgjh2rcd13ifvqbg0","pricing_plan_id":"free"},{"bike_id":"7ca7f460-dddb-4dd4-907d-a989e3449691","system_id":"levelo_inurba_marseille","lat":43.311722,"lon":5.387247,"is_reserved":false,"is_disabled":false,"rental_uris":{"android":"levelo://app?vid=7ca7f460-dddb-4dd4-907d-a989e3449691","ios":"levelo://app?vid=7ca7f460-dddb-4dd4-907d-a989e3449691"},"vehicle_type_id":"4","last_reported":1684094768,"current_range_meters":15200,"station_id":"ce4bgv12rcd13ifvqcp0","pricing_plan_id":"free"},{"bike_id":"3771387b-b51a-4cb8-852e-9a988cd9226f","system_id":"levelo_inurba_marseille","lat":43.299243,"lon":5.37481,"is_reserved":false,"is_disabled":false,"rental_uris":{"android":"levelo://app?vid=3771387b-b51a-4cb8-852e-9a988cd9226f","ios":"levelo://app?vid=3771387b-b51a-4cb8-852e-9a988cd9226f"},"vehicle_type_id":"4","last_reported":1684094768,"current_range_meters":17600,"station_id":"ce4bgjh2rcd13ifvqbg0","pricing_plan_id":"free"},{"bike_id":"e5e1a180-d2dd-4afd-a6cd-d8a6a00e1e68","system_id":"levelo_inurba_marseille","lat":43.299243,"lon":5.374807,"is_reserved":false,"is_disabled":false,"rental_uris":{"android":"levelo://app?vid=e5e1a180-d2dd-4afd-a6cd-d8a6a00e1e68","ios":"levelo://app?vid=e5e1a180-d2dd-4afd-a6cd-d8a6a00e1e68"},"vehicle_type_id":"4","last_reported":1684094768,"current_range_meters":13600,"station_id":"ce4bgjh2rcd13ifvqbg0","pricing_plan_id":"free"},{"bike_id":"c65d82fe-b128-4b70-aa99-36caea025208","system_id":"levelo_inurba_marseille","lat":43.311722,"lon":5.387247,"is_reserved":false,"is_disabled":false,"rental_uris":{"android":"levelo://app?vid=c65d82fe-b128-4b70-aa99-36caea025208","ios":"levelo://app?vid=c65d82fe-b128-4b70-aa99-36caea025208"},"vehicle_type_id":"4","last_reported":1684094768,"current_range_meters":8000,"station_id":"ce4bgv12rcd13ifvqcp0","pricing_plan_id":"free"},{"bike_id":"2f96f4b7-d3f1-4b87-b98f-caf50ba6d13d","system_id":"levelo_inurba_marseille","lat":43.32773,"lon":5.36683,"is_reserved":false,"is_disabled":false,"rental_uris":{"android":"levelo://app?vid=2f96f4b7-d3f1-4b87-b98f-caf50ba6d13d","ios":"levelo://app?vid=2f96f4b7-d3f1-4b87-b98f-caf50ba6d13d"},"vehicle_type_id":"4","last_reported":1684094768,"current_range_meters":6400,"station_id":"","pricing_plan_id":"free"},{"bike_id":"15a754de-61a2-4f8c-9a0b-bdf815ca8113","system_id":"levelo_inurba_marseille","lat":43.297774,"lon":5.370875,"is_reserved":false,"is_disabled":false,"rental_uris":{"android":"levelo://app?vid=15a754de-61a2-4f8c-9a0b-bdf815ca8113","ios":"levelo://app?vid=15a754de-61a2-4f8c-9a0b-bdf815ca8113"},"vehicle_type_id":"4","last_reported":1684094768,"current_range_meters":17200,"station_id":"ce4bgop2rcd13ifvqc1g","pricing_plan_id":"free"},{"bike_id":"2d97070e-6b6f-4c65-87cf-2dbf8130057e","system_id":"levelo_inurba_marseille","lat":43.297794,"lon":5.370888,"is_reserved":false,"is_disabled":false,"rental_uris":{"android":"levelo://app?vid=2d97070e-6b6f-4c65-87cf-2dbf8130057e","ios":"levelo://app?vid=2d97070e-6b6f-4c65-87cf-2dbf8130057e"},"vehicle_type_id":"4","last_reported":1684094768,"current_range_meters":1600,"station_id":"ce4bgop2rcd13ifvqc1g","pricing_plan_id":"free"},{"bike_id":"6bfeee7a-ef89-4483-8d32-ee131040dc3c","system_id":"levelo_inurba_marseille","lat":43.297794,"lon":5.370888,"is_reserved":false,"is_disabled":false,"rental_uris":{"android":"levelo://app?vid=6bfeee7a-ef89-4483-8d32-ee131040dc3c","ios":"levelo://app?vid=6bfeee7a-ef89-4483-8d32-ee131040dc3c"},"vehicle_type_id":"4","last_reported":1684094768,"current_range_meters":2000,"station_id":"ce4bgop2rcd13ifvqc1g","pricing_plan_id":"free"},{"bike_id":"b449a4e4-2b40-420f-9a30-3bbbb718557f","system_id":"levelo_inurba_marseille","lat":43.32824,"lon":5.36673,"is_reserved":false,"is_disabled":false,"rental_uris":{"android":"levelo://app?vid=b449a4e4-2b40-420f-9a30-3bbbb718557f","ios":"levelo://app?vid=b449a4e4-2b40-420f-9a30-3bbbb718557f"},"vehicle_type_id":"4","last_reported":1684094768,"current_range_meters":15200,"station_id":"ce4bhs92rcd13ifvqi0g","pricing_plan_id":"free"},{"bike_id":"3f1ee445-79dc-4a77-99ec-f861244bce43","system_id":"levelo_inurba_marseille","lat":43.32826,"lon":5.36669,"is_reserved":false,"is_disabled":false,"rental_uris":{"android":"levelo://app?vid=3f1ee445-79dc-4a77-99ec-f861244bce43","ios":"levelo://app?vid=3f1ee445-79dc-4a77-99ec-f861244bce43"},"vehicle_type_id":"4","last_reported":1684094768,"current_range_meters":19600,"station_id":"ce4bhs92rcd13ifvqi0g","pricing_plan_id":"free"},{"bike_id":"acb3285f-1a59-4939-bacf-1321efdfa740","system_id":"levelo_inurba_marseille","lat":43.32827,"lon":5.36682,"is_reserved":false,"is_disabled":false,"rental_uris":{"android":"levelo://app?vid=acb3285f-1a59-4939-bacf-1321efdfa740","ios":"levelo://app?vid=acb3285f-1a59-4939-bacf-1321efdfa740"},"vehicle_type_id":"4","last_reported":1684094768,"current_range_meters":22800,"station_id":"ce4bhs92rcd13ifvqi0g","pricing_plan_id":"free"},{"bike_id":"5bc79a87-8c51-4256-972d-10ecdbdb6305","system_id":"levelo_inurba_marseille","lat":43.328371,"lon":5.366912,"is_reserved":false,"is_disabled":false,"rental_uris":{"android":"levelo://app?vid=5bc79a87-8c51-4256-972d-10ecdbdb6305","ios":"levelo://app?vid=5bc79a87-8c51-4256-972d-10ecdbdb6305"},"vehicle_type_id":"4","last_reported":1684094768,"current_range_meters":14000,"station_id":"ce4bhs92rcd13ifvqi0g","pricing_plan_id":"free"},{"bike_id":"34c470f1-ed41-47d6-8d65-5c286939ee04","system_id":"levelo_inurba_marseille","lat":43.328371,"lon":5.366912,"is_reserved":false,"is_disabled":false,"rental_uris":{"android":"levelo://app?vid=34c470f1-ed41-47d6-8d65-5c286939ee04","ios":"levelo://app?vid=34c470f1-ed41-47d6-8d65-5c286939ee04"},"vehicle_type_id":"4","last_reported":1684094768,"current_range_meters":16000,"station_id":"ce4bhs92rcd13ifvqi0g","pricing_plan_id":"free"},{"bike_id":"ef619222-d86f-4984-a46f-cda033f9cc5b","system_id":"levelo_inurba_marseille","lat":43.328371,"lon":5.366912,"is_reserved":false,"is_disabled":false,"rental_uris":{"android":"levelo://app?vid=ef619222-d86f-4984-a46f-cda033f9cc5b","ios":"levelo://app?vid=ef619222-d86f-4984-a46f-cda033f9cc5b"},"vehicle_type_id":"4","last_reported":1684094768,"current_range_meters":28800,"station_id":"ce4bhs92rcd13ifvqi0g","pricing_plan_id":"free"},{"bike_id":"439e171b-885c-4b84-971d-3c43043903d7","system_id":"levelo_inurba_marseille","lat":43.328371,"lon":5.366912,"is_reserved":false,"is_disabled":false,"rental_uris":{"android":"levelo://app?vid=439e171b-885c-4b84-971d-3c43043903d7","ios":"levelo://app?vid=439e171b-885c-4b84-971d-3c43043903d7"},"vehicle_type_id":"4","last_reported":1684094768,"current_range_meters":22400,"station_id":"ce4bhs92rcd13ifvqi0g","pricing_plan_id":"free"},{"bike_id":"aaca5fdf-1dee-4b81-aa4f-2d7102ec2d0c","system_id":"levelo_inurba_marseille","lat":43.32835,"lon":5.36679,"is_reserved":false,"is_disabled":false,"rental_uris":{"android":"levelo://app?vid=aaca5fdf-1dee-4b81-aa4f-2d7102ec2d0c","ios":"levelo://app?vid=aaca5fdf-1dee-4b81-aa4f-2d7102ec2d0c"},"vehicle_type_id":"4","last_reported":1684094768,"current_range_meters":18000,"station_id":"ce4bhs92rcd13ifvqi0g","pricing_plan_id":"free"},{"bike_id":"f7e16b9b-dda5-4bba-9d80-00bc064f0f46","system_id":"levelo_inurba_marseille","lat":43.32838,"lon":5.3668,"is_reserved":false,"is_disabled":false,"rental_uris":{"android":"levelo://app?vid=f7e16b9b-dda5-4bba-9d80-00bc064f0f46","ios":"levelo://app?vid=f7e16b9b-dda5-4bba-9d80-00bc064f0f46"},"vehicle_type_id":"4","last_reported":1684094768,"current_range_meters":12800,"station_id":"ce4bhs92rcd13ifvqi0g","pricing_plan_id":"free"},{"bike_id":"216acc05-cd3c-4a35-b67b-82ab6e8e46bc","system_id":"levelo_inurba_marseille","lat":43.3284,"lon":5.36678,"is_reserved":false,"is_disabled":false,"rental_uris":{"android":"levelo://app?vid=216acc05-cd3c-4a35-b67b-82ab6e8e46bc","ios":"levelo://app?vid=216acc05-cd3c-4a35-b67b-82ab6e8e46bc"},"vehicle_type_id":"4","last_reported":1684094768,"current_range_meters":14400,"station_id":"ce4bhs92rcd13ifvqi0g","pricing_plan_id":"free"},{"bike_id":"0db5b408-f6c0-4f80-bc8d-7ca600617751","system_id":"levelo_inurba_marseille","lat":43.29573,"lon":5.367355,"is_reserved":false,"is_disabled":false,"rental_uris":{"android":"levelo://app?vid=0db5b408-f6c0-4f80-bc8d-7ca600617751","ios":"levelo://app?vid=0db5b408-f6c0-4f80-bc8d-7ca600617751"},"vehicle_type_id":"4","last_reported":1684094768,"current_range_meters":2800,"station_id":"ce4bgph2rcd13ifvqc2g","pricing_plan_id":"free"},{"bike_id":"99e8c74e-6f68-4f5f-85e6-17a603d8bad9","system_id":"levelo_inurba_marseille","lat":43.296921,"lon":5.376579,"is_reserved":false,"is_disabled":false,"rental_uris":{"android":"levelo://app?vid=99e8c74e-6f68-4f5f-85e6-17a603d8bad9","ios":"levelo://app?vid=99e8c74e-6f68-4f5f-85e6-17a603d8bad9"},"vehicle_type_id":"4","last_reported":1684094768,"current_range_meters":0,"station_id":"ce4bgkh2rcd13ifvqbl0","pricing_plan_id":"free"},{"bike_id":"c891ef99-96f5-4d69-87b7-5f8504d8cb6c","system_id":"levelo_inurba_marseille","lat":43.296935,"lon":5.376544,"is_reserved":false,"is_disabled":false,"rental_uris":{"android":"levelo://app?vid=c891ef99-96f5-4d69-87b7-5f8504d8cb6c","ios":"levelo://app?vid=c891ef99-96f5-4d69-87b7-5f8504d8cb6c"},"vehicle_type_id":"4","last_reported":1684094768,"current_range_meters":28000,"station_id":"ce4bgkh2rcd13ifvqbl0","pricing_plan_id":"free"},{"bike_id":"3087760c-66e4-441b-8838-66abe3cf77e4","system_id":"levelo_inurba_marseille","lat":43.296921,"lon":5.376579,"is_reserved":false,"is_disabled":false,"rental_uris":{"android":"levelo://app?vid=3087760c-66e4-441b-8838-66abe3cf77e4","ios":"levelo://app?vid=3087760c-66e4-441b-8838-66abe3cf77e4"},"vehicle_type_id":"4","last_reported":1684094768,"current_range_meters":0,"station_id":"ce4bgkh2rcd13ifvqbl0","pricing_plan_id":"free"},{"bike_id":"5b9d47ea-71ad-47fa-8162-bb01f1f35d5d","system_id":"levelo_inurba_marseille","lat":43.309589,"lon":5.390258,"is_reserved":false,"is_disabled":false,"rental_uris":{"android":"levelo://app?vid=5b9d47ea-71ad-47fa-8162-bb01f1f35d5d","ios":"levelo://app?vid=5b9d47ea-71ad-47fa-8162-bb01f1f35d5d"},"vehicle_type_id":"4","last_reported":1684094768,"current_range_meters":14800,"station_id":"ce4bgup2rcd13ifvqco0","pricing_plan_id":"free"},{"bike_id":"eb2d1ae8-e092-48ba-a899-14b9d8f46333","system_id":"levelo_inurba_marseille","lat":43.309589,"lon":5.390258,"is_reserved":false,"is_disabled":false,"rental_uris":{"android":"levelo://app?vid=eb2d1ae8-e092-48ba-a899-14b9d8f46333","ios":"levelo://app?vid=eb2d1ae8-e092-48ba-a899-14b9d8f46333"},"vehicle_type_id":"4","last_reported":1684094768,"current_range_meters":11600,"station_id":"ce4bgup2rcd13ifvqco0","pricing_plan_id":"free"},{"bike_id":"7e101d88-7926-4513-a08a-b2a6fdb92c65","system_id":"levelo_inurba_marseille","lat":43.31756,"lon":5.39017,"is_reserved":false,"is_disabled":false,"rental_uris":{"android":"levelo://app?vid=7e101d88-7926-4513-a08a-b2a6fdb92c65","ios":"levelo://app?vid=7e101d88-7926-4513-a08a-b2a6fdb92c65"},"vehicle_type_id":"4","last_reported":1684094768,"current_range_meters":24000,"station_id":"ce4bhqp2rcd13ifvqhng","pricing_plan_id":"free"},{"bike_id":"b8ad13cd-ab77-46fc-a0c2-ec705761e986","system_id":"levelo_inurba_marseille","lat":43.317557,"lon":5.390173,"is_reserved":false,"is_disabled":false,"rental_uris":{"android":"levelo://app?vid=b8ad13cd-ab77-46fc-a0c2-ec705761e986","ios":"levelo://app?vid=b8ad13cd-ab77-46fc-a0c2-ec705761e986"},"vehicle_type_id":"4","last_reported":1684094768,"current_range_meters":0,"station_id":"ce4bhqp2rcd13ifvqhng","pricing_plan_id":"free"},{"bike_id":"03c36d3a-18af-4cba-84a1-d877aed872d3","system_id":"levelo_inurba_marseille","lat":43.298037,"lon":5.381066,"is_reserved":false,"is_disabled":false,"rental_uris":{"android":"levelo://app?vid=03c36d3a-18af-4cba-84a1-d877aed872d3","ios":"levelo://app?vid=03c36d3a-18af-4cba-84a1-d877aed872d3"},"vehicle_type_id":"4","last_reported":1684094768,"current_range_meters":4800,"station_id":"ce4bgip2rcd13ifvqbb0","pricing_plan_id":"free"},{"bike_id":"46624d73-a018-452f-b719-0a8d41705590","system_id":"levelo_inurba_marseille","lat":43.304278,"lon":5.388868,"is_reserved":false,"is_disabled":false,"rental_uris":{"android":"levelo://app?vid=46624d73-a018-452f-b719-0a8d41705590","ios":"levelo://app?vid=46624d73-a018-452f-b719-0a8d41705590"},"vehicle_type_id":"4","last_reported":1684094768,"current_range_meters":10800,"station_id":"ce4bgk12rcd13ifvqbi0","pricing_plan_id":"free"},{"bike_id":"724e4e80-30b4-455e-92e9-cd9bd07e3ec3","system_id":"levelo_inurba_marseille","lat":43.30444,"lon":5.38898,"is_reserved":false,"is_disabled":false,"rental_uris":{"android":"levelo://app?vid=724e4e80-30b4-455e-92e9-cd9bd07e3ec3","ios":"levelo://app?vid=724e4e80-30b4-455e-92e9-cd9bd07e3ec3"},"vehicle_type_id":"4","last_reported":1684094768,"current_range_meters":0,"station_id":"ce4bgk12rcd13ifvqbi0","pricing_plan_id":"free"},{"bike_id":"ccf2e6c6-a35d-4036-b426-2a2c2189e7e6","system_id":"levelo_inurba_marseille","lat":43.299724,"lon":5.384848,"is_reserved":false,"is_disabled":false,"rental_uris":{"android":"levelo://app?vid=ccf2e6c6-a35d-4036-b426-2a2c2189e7e6","ios":"levelo://app?vid=ccf2e6c6-a35d-4036-b426-2a2c2189e7e6"},"vehicle_type_id":"4","last_reported":1684094768,"current_range_meters":0,"station_id":"ce4bgj92rcd13ifvqbd0","pricing_plan_id":"free"},{"bike_id":"98d43089-ff1e-40ee-a123-f18e174ce1c4","system_id":"levelo_inurba_marseille","lat":43.3147,"lon":5.39234,"is_reserved":false,"is_disabled":false,"rental_uris":{"android":"levelo://app?vid=98d43089-ff1e-40ee-a123-f18e174ce1c4","ios":"levelo://app?vid=98d43089-ff1e-40ee-a123-f18e174ce1c4"},"vehicle_type_id":"4","last_reported":1684094768,"current_range_meters":0,"station_id":"","pricing_plan_id":"free"},{"bike_id":"5f1cf5e1-6dc1-4097-a258-1f1df55f9884","system_id":"levelo_inurba_marseille","lat":43.295279,"lon":5.375048,"is_reserved":false,"is_disabled":false,"rental_uris":{"android":"levelo://app?vid=5f1cf5e1-6dc1-4097-a258-1f1df55f9884","ios":"levelo://app?vid=5f1cf5e1-6dc1-4097-a258-1f1df55f9884"},"vehicle_type_id":"4","last_reported":1684094768,"current_range_meters":5600,"station_id":"ce4bgkp2rcd13ifvqbmg","pricing_plan_id":"free"},{"bike_id":"6f6b02ce-a50b-443a-a31d-aed834771e7b","system_id":"levelo_inurba_marseille","lat":43.31442,"lon":5.39272,"is_reserved":false,"is_disabled":false,"rental_uris":{"android":"levelo://app?vid=6f6b02ce-a50b-443a-a31d-aed834771e7b","ios":"levelo://app?vid=6f6b02ce-a50b-443a-a31d-aed834771e7b"},"vehicle_type_id":"4","last_reported":1684094768,"current_range_meters":800,"station_id":"","pricing_plan_id":"free"},{"bike_id":"eaca556d-0028-4862-ae11-c27d98ada565","system_id":"levelo_inurba_marseille","lat":43.305994,"lon":5.393687,"is_reserved":false,"is_disabled":false,"rental_uris":{"android":"levelo://app?vid=eaca556d-0028-4862-ae11-c27d98ada565","ios":"levelo://app?vid=eaca556d-0028-4862-ae11-c27d98ada565"},"vehicle_type_id":"4","last_reported":1684094768,"current_range_meters":22800,"station_id":"ce4bh0p2rcd13ifvqd80","pricing_plan_id":"free"},{"bike_id":"ae7243d5-0a91-43ff-8b65-982b5b42d498","system_id":"levelo_inurba_marseille","lat":43.303002,"lon":5.392142,"is_reserved":false,"is_disabled":false,"rental_uris":{"android":"levelo://app?vid=ae7243d5-0a91-43ff-8b65-982b5b42d498","ios":"levelo://app?vid=ae7243d5-0a91-43ff-8b65-982b5b42d498"},"vehicle_type_id":"4","last_reported":1684094768,"current_range_meters":0,"station_id":"ce4bgkh2rcd13ifvqbk0","pricing_plan_id":"free"},{"bike_id":"451571b5-6b08-4b38-bbf5-0cf549a7e88f","system_id":"levelo_inurba_marseille","lat":43.2937,"lon":5.37839,"is_reserved":false,"is_disabled":false,"rental_uris":{"android":"levelo://app?vid=451571b5-6b08-4b38-bbf5-0cf549a7e88f","ios":"levelo://app?vid=451571b5-6b08-4b38-bbf5-0cf549a7e88f"},"vehicle_type_id":"4","last_reported":1684094768,"current_range_meters":8400,"station_id":"ce4bgjh2rcd13ifvqbf0","pricing_plan_id":"free"},{"bike_id":"3a675c19-f17e-4067-ae47-1e6b50c9e7c2","system_id":"levelo_inurba_marseille","lat":43.29367,"lon":5.37855,"is_reserved":false,"is_disabled":false,"rental_uris":{"android":"levelo://app?vid=3a675c19-f17e-4067-ae47-1e6b50c9e7c2","ios":"levelo://app?vid=3a675c19-f17e-4067-ae47-1e6b50c9e7c2"},"vehicle_type_id":"4","last_reported":1684094768,"current_range_meters":10000,"station_id":"ce4bgjh2rcd13ifvqbf0","pricing_plan_id":"free"},{"bike_id":"6a1d9f7c-90c3-428e-810c-6d2390af5513","system_id":"levelo_inurba_marseille","lat":43.300852,"lon":5.390859,"is_reserved":false,"is_disabled":false,"rental_uris":{"android":"levelo://app?vid=6a1d9f7c-90c3-428e-810c-6d2390af5513","ios":"levelo://app?vid=6a1d9f7c-90c3-428e-810c-6d2390af5513"},"vehicle_type_id":"4","last_reported":1684094768,"current_range_meters":28400,"station_id":"ce4bh192rcd13ifvqdb0","pricing_plan_id":"free"},{"bike_id":"24fbf985-2009-418f-80a8-e71cf0354c0f","system_id":"levelo_inurba_marseille","lat":43.300852,"lon":5.390859,"is_reserved":false,"is_disabled":false,"rental_uris":{"android":"levelo://app?vid=24fbf985-2009-418f-80a8-e71cf0354c0f","ios":"levelo://app?vid=24fbf985-2009-418f-80a8-e71cf0354c0f"},"vehicle_type_id":"4","last_reported":1684094768,"current_range_meters":6800,"station_id":"ce4bh192rcd13ifvqdb0","pricing_plan_id":"free"},{"bike_id":"b6a0de82-b830-4f06-a71f-d5898af91708","system_id":"levelo_inurba_marseille","lat":43.292663,"lon":5.376394,"is_reserved":false,"is_disabled":false,"rental_uris":{"android":"levelo://app?vid=b6a0de82-b830-4f06-a71f-d5898af91708","ios":"levelo://app?vid=b6a0de82-b830-4f06-a71f-d5898af91708"},"vehicle_type_id":"4","last_reported":1684094768,"current_range_meters":6800,"station_id":"ce4bgi12rcd13ifvqb80","pricing_plan_id":"free"},{"bike_id":"86af1cc4-3328-42de-b27c-97cc2f8164ee","system_id":"levelo_inurba_marseille","lat":43.292663,"lon":5.376389,"is_reserved":false,"is_disabled":false,"rental_uris":{"android":"levelo://app?vid=86af1cc4-3328-42de-b27c-97cc2f8164ee","ios":"levelo://app?vid=86af1cc4-3328-42de-b27c-97cc2f8164ee"},"vehicle_type_id":"4","last_reported":1684094768,"current_range_meters":16000,"station_id":"ce4bgi12rcd13ifvqb80","pricing_plan_id":"free"},{"bike_id":"821bfecc-e197-4ace-8757-b7ddb097289a","system_id":"levelo_inurba_marseille","lat":43.298764,"lon":5.388973,"is_reserved":false,"is_disabled":false,"rental_uris":{"android":"levelo://app?vid=821bfecc-e197-4ace-8757-b7ddb097289a","ios":"levelo://app?vid=821bfecc-e197-4ace-8757-b7ddb097289a"},"vehicle_type_id":"4","last_reported":1684094768,"current_range_meters":4800,"station_id":"ce4bh392rcd13ifvqdl0","pricing_plan_id":"free"},{"bike_id":"08d6040b-b3bc-4cca-92b2-f3666388434d","system_id":"levelo_inurba_marseille","lat":43.291675,"lon":5.371583,"is_reserved":false,"is_disabled":false,"rental_uris":{"android":"levelo://app?vid=08d6040b-b3bc-4cca-92b2-f3666388434d","ios":"levelo://app?vid=08d6040b-b3bc-4cca-92b2-f3666388434d"},"vehicle_type_id":"4","last_reported":1684094768,"current_range_meters":15200,"station_id":"ce4bha92rcd13ifvqeh0","pricing_plan_id":"free"},{"bike_id":"07017e22-ad98-4acc-bcd9-097570a38a42","system_id":"levelo_inurba_marseille","lat":43.29529,"lon":5.385581,"is_reserved":false,"is_disabled":false,"rental_uris":{"android":"levelo://app?vid=07017e22-ad98-4acc-bcd9-097570a38a42","ios":"levelo://app?vid=07017e22-ad98-4acc-bcd9-097570a38a42"},"vehicle_type_id":"4","last_reported":1684094768,"current_range_meters":2800,"station_id":"ce4bgih2rcd13ifvqba0","pricing_plan_id":"free"},{"bike_id":"103c50b0-0297-4a8e-8124-979c6e32ccfd","system_id":"levelo_inurba_marseille","lat":43.29529,"lon":5.385581,"is_reserved":false,"is_disabled":false,"rental_uris":{"android":"levelo://app?vid=103c50b0-0297-4a8e-8124-979c6e32ccfd","ios":"levelo://app?vid=103c50b0-0297-4a8e-8124-979c6e32ccfd"},"vehicle_type_id":"4","last_reported":1684094768,"current_range_meters":2800,"station_id":"ce4bgih2rcd13ifvqba0","pricing_plan_id":"free"},{"bike_id":"e6b0585a-485d-4ccb-8752-0ab6643a0282","system_id":"levelo_inurba_marseille","lat":43.29529,"lon":5.385581,"is_reserved":false,"is_disabled":false,"rental_uris":{"android":"levelo://app?vid=e6b0585a-485d-4ccb-8752-0ab6643a0282","ios":"levelo://app?vid=e6b0585a-485d-4ccb-8752-0ab6643a0282"},"vehicle_type_id":"4","last_reported":1684094768,"current_range_meters":9200,"station_id":"ce4bgih2rcd13ifvqba0","pricing_plan_id":"free"},{"bike_id":"784c7bfb-ce8a-437f-9881-c38b50bd10c9","system_id":"levelo_inurba_marseille","lat":43.29529,"lon":5.385581,"is_reserved":false,"is_disabled":false,"rental_uris":{"android":"levelo://app?vid=784c7bfb-ce8a-437f-9881-c38b50bd10c9","ios":"levelo://app?vid=784c7bfb-ce8a-437f-9881-c38b50bd10c9"},"vehicle_type_id":"4","last_reported":1684094768,"current_range_meters":0,"station_id":"ce4bgih2rcd13ifvqba0","pricing_plan_id":"free"},{"bike_id":"4dd9e0df-c6ad-4fa4-b56d-e63f95cd8c68","system_id":"levelo_inurba_marseille","lat":43.29529,"lon":5.385581,"is_reserved":false,"is_disabled":false,"rental_uris":{"android":"levelo://app?vid=4dd9e0df-c6ad-4fa4-b56d-e63f95cd8c68","ios":"levelo://app?vid=4dd9e0df-c6ad-4fa4-b56d-e63f95cd8c68"},"vehicle_type_id":"4","last_reported":1684094768,"current_range_meters":4800,"station_id":"ce4bgih2rcd13ifvqba0","pricing_plan_id":"free"},{"bike_id":"99e167a2-357f-4165-973c-c17581bc985a","system_id":"levelo_inurba_marseille","lat":43.29529,"lon":5.385581,"is_reserved":false,"is_disabled":false,"rental_uris":{"android":"levelo://app?vid=99e167a2-357f-4165-973c-c17581bc985a","ios":"levelo://app?vid=99e167a2-357f-4165-973c-c17581bc985a"},"vehicle_type_id":"4","last_reported":1684094768,"current_range_meters":3200,"station_id":"ce4bgih2rcd13ifvqba0","pricing_plan_id":"free"},{"bike_id":"54dba9bd-bdb1-44c2-91cd-681a682aabd5","system_id":"levelo_inurba_marseille","lat":43.29529,"lon":5.385581,"is_reserved":false,"is_disabled":false,"rental_uris":{"android":"levelo://app?vid=54dba9bd-bdb1-44c2-91cd-681a682aabd5","ios":"levelo://app?vid=54dba9bd-bdb1-44c2-91cd-681a682aabd5"},"vehicle_type_id":"4","last_reported":1684094768,"current_range_meters":9600,"station_id":"ce4bgih2rcd13ifvqba0","pricing_plan_id":"free"},{"bike_id":"b892f746-8295-4b5c-b5cc-e090b616bc18","system_id":"levelo_inurba_marseille","lat":43.302008,"lon":5.394694,"is_reserved":false,"is_disabled":false,"rental_uris":{"android":"levelo://app?vid=b892f746-8295-4b5c-b5cc-e090b616bc18","ios":"levelo://app?vid=b892f746-8295-4b5c-b5cc-e090b616bc18"},"vehicle_type_id":"4","last_reported":1684094768,"current_range_meters":12000,"station_id":"ce4bh0p2rcd13ifvqd70","pricing_plan_id":"free"},{"bike_id":"31cbdae2-b838-4317-8168-4567fdc81bd5","system_id":"levelo_inurba_marseille","lat":43.302008,"lon":5.394694,"is_reserved":false,"is_disabled":false,"rental_uris":{"android":"levelo://app?vid=31cbdae2-b838-4317-8168-4567fdc81bd5","ios":"levelo://app?vid=31cbdae2-b838-4317-8168-4567fdc81bd5"},"vehicle_type_id":"4","last_reported":1684094768,"current_range_meters":28000,"station_id":"ce4bh0p2rcd13ifvqd70","pricing_plan_id":"free"},{"bike_id":"318b8596-df67-43e5-b362-228befaa1c07","system_id":"levelo_inurba_marseille","lat":43.302008,"lon":5.394694,"is_reserved":false,"is_disabled":false,"rental_uris":{"android":"levelo://app?vid=318b8596-df67-43e5-b362-228befaa1c07","ios":"levelo://app?vid=318b8596-df67-43e5-b362-228befaa1c07"},"vehicle_type_id":"4","last_reported":1684094768,"current_range_meters":12400,"station_id":"ce4bh0p2rcd13ifvqd70","pricing_plan_id":"free"},{"bike_id":"9f129774-36e1-42f1-8229-a7c2be11d89e","system_id":"levelo_inurba_marseille","lat":43.30492,"lon":5.39709,"is_reserved":false,"is_disabled":false,"rental_uris":{"android":"levelo://app?vid=9f129774-36e1-42f1-8229-a7c2be11d89e","ios":"levelo://app?vid=9f129774-36e1-42f1-8229-a7c2be11d89e"},"vehicle_type_id":"4","last_reported":1684094768,"current_range_meters":14000,"station_id":"","pricing_plan_id":"free"},{"bike_id":"799524db-01b2-4b85-9d99-e12802ad293c","system_id":"levelo_inurba_marseille","lat":43.289468,"lon":5.363719,"is_reserved":false,"is_disabled":false,"rental_uris":{"android":"levelo://app?vid=799524db-01b2-4b85-9d99-e12802ad293c","ios":"levelo://app?vid=799524db-01b2-4b85-9d99-e12802ad293c"},"vehicle_type_id":"4","last_reported":1684094768,"current_range_meters":1200,"station_id":"ce4bhc92rcd13ifvqetg","pricing_plan_id":"free"},{"bike_id":"1bc49d7d-a587-4f24-be02-134fa3bd70c5","system_id":"levelo_inurba_marseille","lat":43.304296,"lon":5.397513,"is_reserved":false,"is_disabled":false,"rental_uris":{"android":"levelo://app?vid=1bc49d7d-a587-4f24-be02-134fa3bd70c5","ios":"levelo://app?vid=1bc49d7d-a587-4f24-be02-134fa3bd70c5"},"vehicle_type_id":"4","last_reported":1684094768,"current_range_meters":6800,"station_id":"ce4bh092rcd13ifvqd20","pricing_plan_id":"free"},{"bike_id":"5424ca03-e845-4e2b-8cd9-d64f6476c0e6","system_id":"levelo_inurba_marseille","lat":43.292644,"lon":5.384257,"is_reserved":false,"is_disabled":false,"rental_uris":{"android":"levelo://app?vid=5424ca03-e845-4e2b-8cd9-d64f6476c0e6","ios":"levelo://app?vid=5424ca03-e845-4e2b-8cd9-d64f6476c0e6"},"vehicle_type_id":"4","last_reported":1684094768,"current_range_meters":5200,"station_id":"ce4bh692rcd13ifvqea0","pricing_plan_id":"free"},{"bike_id":"d9577c73-a1da-4d3f-bc61-61b781f19a6a","system_id":"levelo_inurba_marseille","lat":43.292642,"lon":5.384254,"is_reserved":false,"is_disabled":false,"rental_uris":{"android":"levelo://app?vid=d9577c73-a1da-4d3f-bc61-61b781f19a6a","ios":"levelo://app?vid=d9577c73-a1da-4d3f-bc61-61b781f19a6a"},"vehicle_type_id":"4","last_reported":1684094768,"current_range_meters":4000,"station_id":"ce4bh692rcd13ifvqea0","pricing_plan_id":"free"},{"bike_id":"41286882-37f5-4201-a858-3f303ca51468","system_id":"levelo_inurba_marseille","lat":43.292642,"lon":5.384254,"is_reserved":false,"is_disabled":false,"rental_uris":{"android":"levelo://app?vid=41286882-37f5-4201-a858-3f303ca51468","ios":"levelo://app?vid=41286882-37f5-4201-a858-3f303ca51468"},"vehicle_type_id":"4","last_reported":1684094768,"current_range_meters":8400,"station_id":"ce4bh692rcd13ifvqea0","pricing_plan_id":"free"},{"bike_id":"df55481d-a7f1-48aa-aa61-a029a41e28f3","system_id":"levelo_inurba_marseille","lat":43.292642,"lon":5.384254,"is_reserved":false,"is_disabled":false,"rental_uris":{"android":"levelo://app?vid=df55481d-a7f1-48aa-aa61-a029a41e28f3","ios":"levelo://app?vid=df55481d-a7f1-48aa-aa61-a029a41e28f3"},"vehicle_type_id":"4","last_reported":1684094768,"current_range_meters":2400,"station_id":"ce4bh692rcd13ifvqea0","pricing_plan_id":"free"},{"bike_id":"f2f1b1e0-2d3f-4df1-9dcb-970efad8dd1b","system_id":"levelo_inurba_marseille","lat":43.292642,"lon":5.384254,"is_reserved":false,"is_disabled":false,"rental_uris":{"android":"levelo://app?vid=f2f1b1e0-2d3f-4df1-9dcb-970efad8dd1b","ios":"levelo://app?vid=f2f1b1e0-2d3f-4df1-9dcb-970efad8dd1b"},"vehicle_type_id":"4","last_reported":1684094768,"current_range_meters":4000,"station_id":"ce4bh692rcd13ifvqea0","pricing_plan_id":"free"},{"bike_id":"32fd3b69-dcee-4362-99c8-b57c596025df","system_id":"levelo_inurba_marseille","lat":43.292642,"lon":5.384254,"is_reserved":false,"is_disabled":false,"rental_uris":{"android":"levelo://app?vid=32fd3b69-dcee-4362-99c8-b57c596025df","ios":"levelo://app?vid=32fd3b69-dcee-4362-99c8-b57c596025df"},"vehicle_type_id":"4","last_reported":1684094768,"current_range_meters":17600,"station_id":"ce4bh692rcd13ifvqea0","pricing_plan_id":"free"},{"bike_id":"ec8c6bb0-c149-4619-8f22-453d280c6d0b","system_id":"levelo_inurba_marseille","lat":43.29256,"lon":5.38442,"is_reserved":false,"is_disabled":false,"rental_uris":{"android":"levelo://app?vid=ec8c6bb0-c149-4619-8f22-453d280c6d0b","ios":"levelo://app?vid=ec8c6bb0-c149-4619-8f22-453d280c6d0b"},"vehicle_type_id":"4","last_reported":1684094768,"current_range_meters":1200,"station_id":"ce4bh692rcd13ifvqea0","pricing_plan_id":"free"},{"bike_id":"74aa5935-6941-42ae-82f1-56aea3621cc4","system_id":"levelo_inurba_marseille","lat":43.292644,"lon":5.384257,"is_reserved":false,"is_disabled":false,"rental_uris":{"android":"levelo://app?vid=74aa5935-6941-42ae-82f1-56aea3621cc4","ios":"levelo://app?vid=74aa5935-6941-42ae-82f1-56aea3621cc4"},"vehicle_type_id":"4","last_reported":1684094768,"current_range_meters":7600,"station_id":"ce4bh692rcd13ifvqea0","pricing_plan_id":"free"},{"bike_id":"f0dab880-4336-4167-8dc6-6ed41f821cb6","system_id":"levelo_inurba_marseille","lat":43.33044,"lon":5.38916,"is_reserved":false,"is_disabled":false,"rental_uris":{"android":"levelo://app?vid=f0dab880-4336-4167-8dc6-6ed41f821cb6","ios":"levelo://app?vid=f0dab880-4336-4167-8dc6-6ed41f821cb6"},"vehicle_type_id":"4","last_reported":1684094768,"current_range_meters":0,"station_id":"ce4bhr92rcd13ifvqhrg","pricing_plan_id":"free"},{"bike_id":"8c51270e-1f83-4ecf-a1d7-3341ddf6b0a9","system_id":"levelo_inurba_marseille","lat":43.33077,"lon":5.38866,"is_reserved":false,"is_disabled":false,"rental_uris":{"android":"levelo://app?vid=8c51270e-1f83-4ecf-a1d7-3341ddf6b0a9","ios":"levelo://app?vid=8c51270e-1f83-4ecf-a1d7-3341ddf6b0a9"},"vehicle_type_id":"4","last_reported":1684094768,"current_range_meters":4000,"station_id":"","pricing_plan_id":"free"},{"bike_id":"d9c65fb5-b538-43a6-8b06-cce8ee9f5b2a","system_id":"levelo_inurba_marseille","lat":43.33042,"lon":5.38921,"is_reserved":false,"is_disabled":false,"rental_uris":{"android":"levelo://app?vid=d9c65fb5-b538-43a6-8b06-cce8ee9f5b2a","ios":"levelo://app?vid=d9c65fb5-b538-43a6-8b06-cce8ee9f5b2a"},"vehicle_type_id":"4","last_reported":1684094768,"current_range_meters":24400,"station_id":"ce4bhr92rcd13ifvqhrg","pricing_plan_id":"free"},{"bike_id":"2092c238-b3be-4081-b938-90369fa895c9","system_id":"levelo_inurba_marseille","lat":43.33044,"lon":5.38919,"is_reserved":false,"is_disabled":false,"rental_uris":{"android":"levelo://app?vid=2092c238-b3be-4081-b938-90369fa895c9","ios":"levelo://app?vid=2092c238-b3be-4081-b938-90369fa895c9"},"vehicle_type_id":"4","last_reported":1684094768,"current_range_meters":4400,"station_id":"ce4bhr92rcd13ifvqhrg","pricing_plan_id":"free"},{"bike_id":"513b4caf-4a04-45df-a7b1-cf82896c148b","system_id":"levelo_inurba_marseille","lat":43.33044,"lon":5.3892,"is_reserved":false,"is_disabled":false,"rental_uris":{"android":"levelo://app?vid=513b4caf-4a04-45df-a7b1-cf82896c148b","ios":"levelo://app?vid=513b4caf-4a04-45df-a7b1-cf82896c148b"},"vehicle_type_id":"4","last_reported":1684094768,"current_range_meters":20000,"station_id":"ce4bhr92rcd13ifvqhrg","pricing_plan_id":"free"},{"bike_id":"b8d0a2d7-4443-405c-9e1e-71d351b2ac12","system_id":"levelo_inurba_marseille","lat":43.33042,"lon":5.38923,"is_reserved":false,"is_disabled":false,"rental_uris":{"android":"levelo://app?vid=b8d0a2d7-4443-405c-9e1e-71d351b2ac12","ios":"levelo://app?vid=b8d0a2d7-4443-405c-9e1e-71d351b2ac12"},"vehicle_type_id":"4","last_reported":1684094768,"current_range_meters":16800,"station_id":"ce4bhr92rcd13ifvqhrg","pricing_plan_id":"free"},{"bike_id":"754ef565-0150-4f0d-8c0d-a8a5d6927613","system_id":"levelo_inurba_marseille","lat":43.33044,"lon":5.38922,"is_reserved":false,"is_disabled":false,"rental_uris":{"android":"levelo://app?vid=754ef565-0150-4f0d-8c0d-a8a5d6927613","ios":"levelo://app?vid=754ef565-0150-4f0d-8c0d-a8a5d6927613"},"vehicle_type_id":"4","last_reported":1684094768,"current_range_meters":13600,"station_id":"ce4bhr92rcd13ifvqhrg","pricing_plan_id":"free"},{"bike_id":"a98ff5bd-e355-4be9-973d-4bb68d559ab4","system_id":"levelo_inurba_marseille","lat":43.33047,"lon":5.38918,"is_reserved":false,"is_disabled":false,"rental_uris":{"android":"levelo://app?vid=a98ff5bd-e355-4be9-973d-4bb68d559ab4","ios":"levelo://app?vid=a98ff5bd-e355-4be9-973d-4bb68d559ab4"},"vehicle_type_id":"4","last_reported":1684094768,"current_range_meters":8000,"station_id":"ce4bhr92rcd13ifvqhrg","pricing_plan_id":"free"},{"bike_id":"9b34a26f-1256-4b06-a2cd-2e6177e89d22","system_id":"levelo_inurba_marseille","lat":43.33045,"lon":5.38922,"is_reserved":false,"is_disabled":false,"rental_uris":{"android":"levelo://app?vid=9b34a26f-1256-4b06-a2cd-2e6177e89d22","ios":"levelo://app?vid=9b34a26f-1256-4b06-a2cd-2e6177e89d22"},"vehicle_type_id":"4","last_reported":1684094768,"current_range_meters":22400,"station_id":"ce4bhr92rcd13ifvqhrg","pricing_plan_id":"free"},{"bike_id":"f06c3db4-7889-4c18-99f8-d1db674ac9f6","system_id":"levelo_inurba_marseille","lat":43.33053,"lon":5.38911,"is_reserved":false,"is_disabled":false,"rental_uris":{"android":"levelo://app?vid=f06c3db4-7889-4c18-99f8-d1db674ac9f6","ios":"levelo://app?vid=f06c3db4-7889-4c18-99f8-d1db674ac9f6"},"vehicle_type_id":"4","last_reported":1684094768,"current_range_meters":4000,"station_id":"ce4bhr92rcd13ifvqhrg","pricing_plan_id":"free"},{"bike_id":"ab768784-9d01-4f88-a9d5-c9daa557ead1","system_id":"levelo_inurba_marseille","lat":43.33047,"lon":5.38921,"is_reserved":false,"is_disabled":false,"rental_uris":{"android":"levelo://app?vid=ab768784-9d01-4f88-a9d5-c9daa557ead1","ios":"levelo://app?vid=ab768784-9d01-4f88-a9d5-c9daa557ead1"},"vehicle_type_id":"4","last_reported":1684094768,"current_range_meters":30800,"station_id":"ce4bhr92rcd13ifvqhrg","pricing_plan_id":"free"},{"bike_id":"6df2628c-f421-41e9-b437-ffbd6d888135","system_id":"levelo_inurba_marseille","lat":43.33044,"lon":5.38928,"is_reserved":false,"is_disabled":false,"rental_uris":{"android":"levelo://app?vid=6df2628c-f421-41e9-b437-ffbd6d888135","ios":"levelo://app?vid=6df2628c-f421-41e9-b437-ffbd6d888135"},"vehicle_type_id":"4","last_reported":1684094768,"current_range_meters":800,"station_id":"ce4bhr92rcd13ifvqhrg","pricing_plan_id":"free"},{"bike_id":"a35ff1b6-81bf-4305-a4f6-e6290a9402fb","system_id":"levelo_inurba_marseille","lat":43.290995,"lon":5.381361,"is_reserved":false,"is_disabled":false,"rental_uris":{"android":"levelo://app?vid=a35ff1b6-81bf-4305-a4f6-e6290a9402fb","ios":"levelo://app?vid=a35ff1b6-81bf-4305-a4f6-e6290a9402fb"},"vehicle_type_id":"4","last_reported":1684094768,"current_range_meters":1200,"station_id":"ce4bh512rcd13ifvqe2g","pricing_plan_id":"free"},{"bike_id":"3336b7f3-2150-415c-a326-4572f4b80a9b","system_id":"levelo_inurba_marseille","lat":43.29029,"lon":5.3813,"is_reserved":false,"is_disabled":false,"rental_uris":{"android":"levelo://app?vid=3336b7f3-2150-415c-a326-4572f4b80a9b","ios":"levelo://app?vid=3336b7f3-2150-415c-a326-4572f4b80a9b"},"vehicle_type_id":"4","last_reported":1684094768,"current_range_meters":10800,"station_id":"ce4bh4p2rcd13ifvqe1g","pricing_plan_id":"free"},{"bike_id":"49dc64e4-ea87-4e9f-ba93-84c9b36d76b9","system_id":"levelo_inurba_marseille","lat":43.290094,"lon":5.381264,"is_reserved":false,"is_disabled":false,"rental_uris":{"android":"levelo://app?vid=49dc64e4-ea87-4e9f-ba93-84c9b36d76b9","ios":"levelo://app?vid=49dc64e4-ea87-4e9f-ba93-84c9b36d76b9"},"vehicle_type_id":"4","last_reported":1684094768,"current_range_meters":7600,"station_id":"ce4bh4p2rcd13ifvqe1g","pricing_plan_id":"free"},{"bike_id":"8b754780-d282-4c7b-a268-a16545498bf3","system_id":"levelo_inurba_marseille","lat":43.29021,"lon":5.38138,"is_reserved":false,"is_disabled":false,"rental_uris":{"android":"levelo://app?vid=8b754780-d282-4c7b-a268-a16545498bf3","ios":"levelo://app?vid=8b754780-d282-4c7b-a268-a16545498bf3"},"vehicle_type_id":"4","last_reported":1684094768,"current_range_meters":6000,"station_id":"ce4bh4p2rcd13ifvqe1g","pricing_plan_id":"free"},{"bike_id":"1ec8d187-09cd-4787-a6d4-93984f2b14c9","system_id":"levelo_inurba_marseille","lat":43.29019,"lon":5.38135,"is_reserved":false,"is_disabled":false,"rental_uris":{"android":"levelo://app?vid=1ec8d187-09cd-4787-a6d4-93984f2b14c9","ios":"levelo://app?vid=1ec8d187-09cd-4787-a6d4-93984f2b14c9"},"vehicle_type_id":"4","last_reported":1684094768,"current_range_meters":6800,"station_id":"ce4bh4p2rcd13ifvqe1g","pricing_plan_id":"free"},{"bike_id":"235bfca5-3523-4573-9b75-a1fadb68ed6a","system_id":"levelo_inurba_marseille","lat":43.337328,"lon":5.374538,"is_reserved":false,"is_disabled":false,"rental_uris":{"android":"levelo://app?vid=235bfca5-3523-4573-9b75-a1fadb68ed6a","ios":"levelo://app?vid=235bfca5-3523-4573-9b75-a1fadb68ed6a"},"vehicle_type_id":"4","last_reported":1684094768,"current_range_meters":26400,"station_id":"ce4bhah2rcd13ifvqei0","pricing_plan_id":"free"},{"bike_id":"5b3ce0e7-ddde-4f08-9689-05c27b8dd4cc","system_id":"levelo_inurba_marseille","lat":43.337436,"lon":5.374627,"is_reserved":false,"is_disabled":false,"rental_uris":{"android":"levelo://app?vid=5b3ce0e7-ddde-4f08-9689-05c27b8dd4cc","ios":"levelo://app?vid=5b3ce0e7-ddde-4f08-9689-05c27b8dd4cc"},"vehicle_type_id":"4","last_reported":1684094768,"current_range_meters":26800,"station_id":"ce4bhnp2rcd13ifvqgvg","pricing_plan_id":"free"},{"bike_id":"add5f874-e8d3-42d2-8dd5-3374246db2cf","system_id":"levelo_inurba_marseille","lat":43.33748,"lon":5.37438,"is_reserved":false,"is_disabled":false,"rental_uris":{"android":"levelo://app?vid=add5f874-e8d3-42d2-8dd5-3374246db2cf","ios":"levelo://app?vid=add5f874-e8d3-42d2-8dd5-3374246db2cf"},"vehicle_type_id":"4","last_reported":1684094768,"current_range_meters":28400,"station_id":"","pricing_plan_id":"free"},{"bike_id":"a038c2a6-2410-493f-b767-4dbf5cdd848e","system_id":"levelo_inurba_marseille","lat":43.30642,"lon":5.401031,"is_reserved":false,"is_disabled":false,"rental_uris":{"android":"levelo://app?vid=a038c2a6-2410-493f-b767-4dbf5cdd848e","ios":"levelo://app?vid=a038c2a6-2410-493f-b767-4dbf5cdd848e"},"vehicle_type_id":"4","last_reported":1684094768,"current_range_meters":2800,"station_id":"ce4bh112rcd13ifvqda0","pricing_plan_id":"free"},{"bike_id":"25215fd4-da8d-41e3-98f4-8189a36a39f6","system_id":"levelo_inurba_marseille","lat":43.30642,"lon":5.401031,"is_reserved":false,"is_disabled":false,"rental_uris":{"android":"levelo://app?vid=25215fd4-da8d-41e3-98f4-8189a36a39f6","ios":"levelo://app?vid=25215fd4-da8d-41e3-98f4-8189a36a39f6"},"vehicle_type_id":"4","last_reported":1684094768,"current_range_meters":8800,"station_id":"ce4bh112rcd13ifvqda0","pricing_plan_id":"free"},{"bike_id":"9de80500-ce42-40f6-98a2-6473f088e057","system_id":"levelo_inurba_marseille","lat":43.30642,"lon":5.401031,"is_reserved":false,"is_disabled":false,"rental_uris":{"android":"levelo://app?vid=9de80500-ce42-40f6-98a2-6473f088e057","ios":"levelo://app?vid=9de80500-ce42-40f6-98a2-6473f088e057"},"vehicle_type_id":"4","last_reported":1684094768,"current_range_meters":29200,"station_id":"ce4bh112rcd13ifvqda0","pricing_plan_id":"free"},{"bike_id":"337badf7-6981-4dbd-b6e2-333861b1e5ec","system_id":"levelo_inurba_marseille","lat":43.30642,"lon":5.401031,"is_reserved":false,"is_disabled":false,"rental_uris":{"android":"levelo://app?vid=337badf7-6981-4dbd-b6e2-333861b1e5ec","ios":"levelo://app?vid=337badf7-6981-4dbd-b6e2-333861b1e5ec"},"vehicle_type_id":"4","last_reported":1684094768,"current_range_meters":9600,"station_id":"ce4bh112rcd13ifvqda0","pricing_plan_id":"free"},{"bike_id":"a5f58f97-069f-481c-9ada-d38e16ff6b5a","system_id":"levelo_inurba_marseille","lat":43.30642,"lon":5.401031,"is_reserved":false,"is_disabled":false,"rental_uris":{"android":"levelo://app?vid=a5f58f97-069f-481c-9ada-d38e16ff6b5a","ios":"levelo://app?vid=a5f58f97-069f-481c-9ada-d38e16ff6b5a"},"vehicle_type_id":"4","last_reported":1684094768,"current_range_meters":19600,"station_id":"ce4bh112rcd13ifvqda0","pricing_plan_id":"free"},{"bike_id":"6a189226-a063-4950-b3ee-0c40718a3f3b","system_id":"levelo_inurba_marseille","lat":43.33788,"lon":5.37426,"is_reserved":false,"is_disabled":false,"rental_uris":{"android":"levelo://app?vid=6a189226-a063-4950-b3ee-0c40718a3f3b","ios":"levelo://app?vid=6a189226-a063-4950-b3ee-0c40718a3f3b"},"vehicle_type_id":"4","last_reported":1684094768,"current_range_meters":30400,"station_id":"","pricing_plan_id":"free"},{"bike_id":"b08c18e9-ab20-448d-90f7-7f4c30745f5e","system_id":"levelo_inurba_marseille","lat":43.301117,"lon":5.398795,"is_reserved":false,"is_disabled":false,"rental_uris":{"android":"levelo://app?vid=b08c18e9-ab20-448d-90f7-7f4c30745f5e","ios":"levelo://app?vid=b08c18e9-ab20-448d-90f7-7f4c30745f5e"},"vehicle_type_id":"4","last_reported":1684094768,"current_range_meters":11200,"station_id":"ce4bh0h2rcd13ifvqd40","pricing_plan_id":"free"},{"bike_id":"48ae77d4-d857-4452-b8ec-c579378ee73c","system_id":"levelo_inurba_marseille","lat":43.286591,"lon":5.363346,"is_reserved":false,"is_disabled":false,"rental_uris":{"android":"levelo://app?vid=48ae77d4-d857-4452-b8ec-c579378ee73c","ios":"levelo://app?vid=48ae77d4-d857-4452-b8ec-c579378ee73c"},"vehicle_type_id":"4","last_reported":1684094768,"current_range_meters":16800,"station_id":"ce4bhah2rcd13ifvqej0","pricing_plan_id":"free"},{"bike_id":"1920af31-a32a-4705-adbe-13f71599754d","system_id":"levelo_inurba_marseille","lat":43.286591,"lon":5.363346,"is_reserved":false,"is_disabled":false,"rental_uris":{"android":"levelo://app?vid=1920af31-a32a-4705-adbe-13f71599754d","ios":"levelo://app?vid=1920af31-a32a-4705-adbe-13f71599754d"},"vehicle_type_id":"4","last_reported":1684094768,"current_range_meters":4800,"station_id":"ce4bhah2rcd13ifvqej0","pricing_plan_id":"free"},{"bike_id":"50e32447-5941-49a9-9352-a385522eb6fa","system_id":"levelo_inurba_marseille","lat":43.298681,"lon":5.397225,"is_reserved":false,"is_disabled":false,"rental_uris":{"android":"levelo://app?vid=50e32447-5941-49a9-9352-a385522eb6fa","ios":"levelo://app?vid=50e32447-5941-49a9-9352-a385522eb6fa"},"vehicle_type_id":"4","last_reported":1684094768,"current_range_meters":0,"station_id":"ce4bh0h2rcd13ifvqd50","pricing_plan_id":"free"},{"bike_id":"501caebc-4519-4623-b2d8-da3c2d072a00","system_id":"levelo_inurba_marseille","lat":43.286593,"lon":5.363346,"is_reserved":false,"is_disabled":false,"rental_uris":{"android":"levelo://app?vid=501caebc-4519-4623-b2d8-da3c2d072a00","ios":"levelo://app?vid=501caebc-4519-4623-b2d8-da3c2d072a00"},"vehicle_type_id":"4","last_reported":1684094768,"current_range_meters":18000,"station_id":"ce4bhah2rcd13ifvqej0","pricing_plan_id":"free"},{"bike_id":"d6416c31-6d29-4676-b051-b9e7c39d379c","system_id":"levelo_inurba_marseille","lat":43.290345,"lon":5.38646,"is_reserved":false,"is_disabled":false,"rental_uris":{"android":"levelo://app?vid=d6416c31-6d29-4676-b051-b9e7c39d379c","ios":"levelo://app?vid=d6416c31-6d29-4676-b051-b9e7c39d379c"},"vehicle_type_id":"4","last_reported":1684094768,"current_range_meters":22800,"station_id":"ce4bh4p2rcd13ifvqe0g","pricing_plan_id":"free"},{"bike_id":"3f9c829c-5bfb-498e-a768-b70ddcbbe8db","system_id":"levelo_inurba_marseille","lat":43.302759,"lon":5.400793,"is_reserved":false,"is_disabled":false,"rental_uris":{"android":"levelo://app?vid=3f9c829c-5bfb-498e-a768-b70ddcbbe8db","ios":"levelo://app?vid=3f9c829c-5bfb-498e-a768-b70ddcbbe8db"},"vehicle_type_id":"4","last_reported":1684094768,"current_range_meters":5600,"station_id":"ce4bgvh2rcd13ifvqcs0","pricing_plan_id":"free"},{"bike_id":"010057ea-48bd-4426-a0ec-b59079b99a2d","system_id":"levelo_inurba_marseille","lat":43.290336,"lon":5.386425,"is_reserved":false,"is_disabled":false,"rental_uris":{"android":"levelo://app?vid=010057ea-48bd-4426-a0ec-b59079b99a2d","ios":"levelo://app?vid=010057ea-48bd-4426-a0ec-b59079b99a2d"},"vehicle_type_id":"4","last_reported":1684094768,"current_range_meters":3200,"station_id":"ce4bh4p2rcd13ifvqe0g","pricing_plan_id":"free"},{"bike_id":"934f99ec-2705-4b40-be24-6278c62123b9","system_id":"levelo_inurba_marseille","lat":43.302759,"lon":5.400793,"is_reserved":false,"is_disabled":false,"rental_uris":{"android":"levelo://app?vid=934f99ec-2705-4b40-be24-6278c62123b9","ios":"levelo://app?vid=934f99ec-2705-4b40-be24-6278c62123b9"},"vehicle_type_id":"4","last_reported":1684094768,"current_range_meters":0,"station_id":"ce4bgvh2rcd13ifvqcs0","pricing_plan_id":"free"},{"bike_id":"36955f6f-583b-4374-9b74-545820abab46","system_id":"levelo_inurba_marseille","lat":43.290336,"lon":5.386425,"is_reserved":false,"is_disabled":false,"rental_uris":{"android":"levelo://app?vid=36955f6f-583b-4374-9b74-545820abab46","ios":"levelo://app?vid=36955f6f-583b-4374-9b74-545820abab46"},"vehicle_type_id":"4","last_reported":1684094768,"current_range_meters":9600,"station_id":"ce4bh4p2rcd13ifvqe0g","pricing_plan_id":"free"},{"bike_id":"beae4540-92cc-4fdb-9578-84c5cb374497","system_id":"levelo_inurba_marseille","lat":43.302759,"lon":5.400793,"is_reserved":false,"is_disabled":false,"rental_uris":{"android":"levelo://app?vid=beae4540-92cc-4fdb-9578-84c5cb374497","ios":"levelo://app?vid=beae4540-92cc-4fdb-9578-84c5cb374497"},"vehicle_type_id":"4","last_reported":1684094768,"current_range_meters":14400,"station_id":"ce4bgvh2rcd13ifvqcs0","pricing_plan_id":"free"},{"bike_id":"4a0ad54b-b51d-4f88-b365-e3c8a99f0236","system_id":"levelo_inurba_marseille","lat":43.28726,"lon":5.37939,"is_reserved":false,"is_disabled":false,"rental_uris":{"android":"levelo://app?vid=4a0ad54b-b51d-4f88-b365-e3c8a99f0236","ios":"levelo://app?vid=4a0ad54b-b51d-4f88-b365-e3c8a99f0236"},"vehicle_type_id":"4","last_reported":1684094768,"current_range_meters":400,"station_id":"ce4bh9p2rcd13ifvqec0","pricing_plan_id":"free"},{"bike_id":"b66d453f-c724-451f-9d64-f0b978772c3b","system_id":"levelo_inurba_marseille","lat":43.28724,"lon":5.37949,"is_reserved":false,"is_disabled":false,"rental_uris":{"android":"levelo://app?vid=b66d453f-c724-451f-9d64-f0b978772c3b","ios":"levelo://app?vid=b66d453f-c724-451f-9d64-f0b978772c3b"},"vehicle_type_id":"4","last_reported":1684094768,"current_range_meters":1600,"station_id":"ce4bh9p2rcd13ifvqec0","pricing_plan_id":"free"},{"bike_id":"e0f97ddc-716d-4d22-8303-aa3c21f8511a","system_id":"levelo_inurba_marseille","lat":43.287185,"lon":5.379373,"is_reserved":false,"is_disabled":false,"rental_uris":{"android":"levelo://app?vid=e0f97ddc-716d-4d22-8303-aa3c21f8511a","ios":"levelo://app?vid=e0f97ddc-716d-4d22-8303-aa3c21f8511a"},"vehicle_type_id":"4","last_reported":1684094768,"current_range_meters":4800,"station_id":"ce4bh9p2rcd13ifvqec0","pricing_plan_id":"free"},{"bike_id":"edd8c1bc-8062-4478-bff8-ed283a3a12c2","system_id":"levelo_inurba_marseille","lat":43.287185,"lon":5.379373,"is_reserved":false,"is_disabled":false,"rental_uris":{"android":"levelo://app?vid=edd8c1bc-8062-4478-bff8-ed283a3a12c2","ios":"levelo://app?vid=edd8c1bc-8062-4478-bff8-ed283a3a12c2"},"vehicle_type_id":"4","last_reported":1684094768,"current_range_meters":21600,"station_id":"ce4bh9p2rcd13ifvqec0","pricing_plan_id":"free"},{"bike_id":"9985835e-1c47-4313-821d-59fdc53670ca","system_id":"levelo_inurba_marseille","lat":43.316517,"lon":5.404375,"is_reserved":false,"is_disabled":false,"rental_uris":{"android":"levelo://app?vid=9985835e-1c47-4313-821d-59fdc53670ca","ios":"levelo://app?vid=9985835e-1c47-4313-821d-59fdc53670ca"},"vehicle_type_id":"4","last_reported":1684094768,"current_range_meters":0,"station_id":"ce4bh012rcd13ifvqd00","pricing_plan_id":"free"},{"bike_id":"16b7d747-e636-47c0-b511-812daf1fd622","system_id":"levelo_inurba_marseille","lat":43.316517,"lon":5.404375,"is_reserved":false,"is_disabled":false,"rental_uris":{"android":"levelo://app?vid=16b7d747-e636-47c0-b511-812daf1fd622","ios":"levelo://app?vid=16b7d747-e636-47c0-b511-812daf1fd622"},"vehicle_type_id":"4","last_reported":1684094768,"current_range_meters":1200,"station_id":"ce4bh012rcd13ifvqd00","pricing_plan_id":"free"},{"bike_id":"254dd089-3b67-408c-8539-2ff23822d635","system_id":"levelo_inurba_marseille","lat":43.291994,"lon":5.392907,"is_reserved":false,"is_disabled":false,"rental_uris":{"android":"levelo://app?vid=254dd089-3b67-408c-8539-2ff23822d635","ios":"levelo://app?vid=254dd089-3b67-408c-8539-2ff23822d635"},"vehicle_type_id":"4","last_reported":1684094768,"current_range_meters":3200,"station_id":"ce4bh192rcd13ifvqdd0","pricing_plan_id":"free"},{"bike_id":"097da6a7-c197-4c04-8887-728010933302","system_id":"levelo_inurba_marseille","lat":43.291994,"lon":5.392907,"is_reserved":false,"is_disabled":false,"rental_uris":{"android":"levelo://app?vid=097da6a7-c197-4c04-8887-728010933302","ios":"levelo://app?vid=097da6a7-c197-4c04-8887-728010933302"},"vehicle_type_id":"4","last_reported":1684094768,"current_range_meters":14400,"station_id":"ce4bh192rcd13ifvqdd0","pricing_plan_id":"free"},{"bike_id":"9952c99c-3b9e-4d31-beb7-b0d9069a9e61","system_id":"levelo_inurba_marseille","lat":43.291994,"lon":5.392907,"is_reserved":false,"is_disabled":false,"rental_uris":{"android":"levelo://app?vid=9952c99c-3b9e-4d31-beb7-b0d9069a9e61","ios":"levelo://app?vid=9952c99c-3b9e-4d31-beb7-b0d9069a9e61"},"vehicle_type_id":"4","last_reported":1684094768,"current_range_meters":25200,"station_id":"ce4bh192rcd13ifvqdd0","pricing_plan_id":"free"},{"bike_id":"25c58db1-ac4b-4be3-9f33-38e26d0e1000","system_id":"levelo_inurba_marseille","lat":43.284534,"lon":5.358662,"is_reserved":false,"is_disabled":false,"rental_uris":{"android":"levelo://app?vid=25c58db1-ac4b-4be3-9f33-38e26d0e1000","ios":"levelo://app?vid=25c58db1-ac4b-4be3-9f33-38e26d0e1000"},"vehicle_type_id":"4","last_reported":1684094768,"current_range_meters":0,"station_id":"ce4bhah2rcd13ifvqei0","pricing_plan_id":"free"},{"bike_id":"3640e335-9072-4f1d-904d-d16643e470e6","system_id":"levelo_inurba_marseille","lat":43.286138,"lon":5.351017,"is_reserved":false,"is_disabled":false,"rental_uris":{"android":"levelo://app?vid=3640e335-9072-4f1d-904d-d16643e470e6","ios":"levelo://app?vid=3640e335-9072-4f1d-904d-d16643e470e6"},"vehicle_type_id":"4","last_reported":1684094768,"current_range_meters":13600,"station_id":"ce4bhbp2rcd13ifvqerg","pricing_plan_id":"free"},{"bike_id":"ceee61a6-6bc0-4550-a475-12321db04e3f","system_id":"levelo_inurba_marseille","lat":43.295713,"lon":5.399639,"is_reserved":false,"is_disabled":false,"rental_uris":{"android":"levelo://app?vid=ceee61a6-6bc0-4550-a475-12321db04e3f","ios":"levelo://app?vid=ceee61a6-6bc0-4550-a475-12321db04e3f"},"vehicle_type_id":"4","last_reported":1684094768,"current_range_meters":2000,"station_id":"ce4bh312rcd13ifvqdj0","pricing_plan_id":"free"},{"bike_id":"9bd97dee-28f5-442d-b20c-12382e5ae619","system_id":"levelo_inurba_marseille","lat":43.295713,"lon":5.399639,"is_reserved":false,"is_disabled":false,"rental_uris":{"android":"levelo://app?vid=9bd97dee-28f5-442d-b20c-12382e5ae619","ios":"levelo://app?vid=9bd97dee-28f5-442d-b20c-12382e5ae619"},"vehicle_type_id":"4","last_reported":1684094768,"current_range_meters":28800,"station_id":"ce4bh312rcd13ifvqdj0","pricing_plan_id":"free"},{"bike_id":"fe9034b7-013b-4414-a42f-bf59d81686c0","system_id":"levelo_inurba_marseille","lat":43.28662,"lon":5.38673,"is_reserved":false,"is_disabled":false,"rental_uris":{"android":"levelo://app?vid=fe9034b7-013b-4414-a42f-bf59d81686c0","ios":"levelo://app?vid=fe9034b7-013b-4414-a42f-bf59d81686c0"},"vehicle_type_id":"4","last_reported":1684094768,"current_range_meters":29200,"station_id":"ce4bh492rcd13ifvqdug","pricing_plan_id":"free"},{"bike_id":"2ebd99da-19e8-4ae8-ba4b-84ae21652570","system_id":"levelo_inurba_marseille","lat":43.284793,"lon":5.384119,"is_reserved":false,"is_disabled":false,"rental_uris":{"android":"levelo://app?vid=2ebd99da-19e8-4ae8-ba4b-84ae21652570","ios":"levelo://app?vid=2ebd99da-19e8-4ae8-ba4b-84ae21652570"},"vehicle_type_id":"4","last_reported":1684094768,"current_range_meters":26800,"station_id":"ce4bh512rcd13ifvqe3g","pricing_plan_id":"free"},{"bike_id":"6622b8d5-6829-415e-b07f-e8b8f5d76153","system_id":"levelo_inurba_marseille","lat":43.285416,"lon":5.385285,"is_reserved":false,"is_disabled":false,"rental_uris":{"android":"levelo://app?vid=6622b8d5-6829-415e-b07f-e8b8f5d76153","ios":"levelo://app?vid=6622b8d5-6829-415e-b07f-e8b8f5d76153"},"vehicle_type_id":"4","last_reported":1684094768,"current_range_meters":14800,"station_id":"ce4bh412rcd13ifvqdr0","pricing_plan_id":"free"},{"bike_id":"b02f8271-e0de-4f4e-971c-20d4c01525b3","system_id":"levelo_inurba_marseille","lat":43.284793,"lon":5.384113,"is_reserved":false,"is_disabled":false,"rental_uris":{"android":"levelo://app?vid=b02f8271-e0de-4f4e-971c-20d4c01525b3","ios":"levelo://app?vid=b02f8271-e0de-4f4e-971c-20d4c01525b3"},"vehicle_type_id":"4","last_reported":1684094768,"current_range_meters":16000,"station_id":"ce4bh512rcd13ifvqe3g","pricing_plan_id":"free"},{"bike_id":"85773f2d-a1f1-4be0-8439-ca93556bbee7","system_id":"levelo_inurba_marseille","lat":43.288501,"lon":5.393087,"is_reserved":false,"is_disabled":false,"rental_uris":{"android":"levelo://app?vid=85773f2d-a1f1-4be0-8439-ca93556bbee7","ios":"levelo://app?vid=85773f2d-a1f1-4be0-8439-ca93556bbee7"},"vehicle_type_id":"4","last_reported":1684094768,"current_range_meters":7200,"station_id":"ce4bh2p2rcd13ifvqdi0","pricing_plan_id":"free"},{"bike_id":"b08ba6cf-1d69-4814-ba61-ff2923891350","system_id":"levelo_inurba_marseille","lat":43.288501,"lon":5.393087,"is_reserved":false,"is_disabled":false,"rental_uris":{"android":"levelo://app?vid=b08ba6cf-1d69-4814-ba61-ff2923891350","ios":"levelo://app?vid=b08ba6cf-1d69-4814-ba61-ff2923891350"},"vehicle_type_id":"4","last_reported":1684094768,"current_range_meters":8400,"station_id":"ce4bh2p2rcd13ifvqdi0","pricing_plan_id":"free"},{"bike_id":"7912eb32-5c7d-4710-81d4-5540e3996c9e","system_id":"levelo_inurba_marseille","lat":43.288497,"lon":5.393089,"is_reserved":false,"is_disabled":false,"rental_uris":{"android":"levelo://app?vid=7912eb32-5c7d-4710-81d4-5540e3996c9e","ios":"levelo://app?vid=7912eb32-5c7d-4710-81d4-5540e3996c9e"},"vehicle_type_id":"4","last_reported":1684094768,"current_range_meters":16400,"station_id":"ce4bh2p2rcd13ifvqdi0","pricing_plan_id":"free"},{"bike_id":"f95dada0-9520-4add-9e90-e995e1edf032","system_id":"levelo_inurba_marseille","lat":43.288497,"lon":5.393089,"is_reserved":false,"is_disabled":false,"rental_uris":{"android":"levelo://app?vid=f95dada0-9520-4add-9e90-e995e1edf032","ios":"levelo://app?vid=f95dada0-9520-4add-9e90-e995e1edf032"},"vehicle_type_id":"4","last_reported":1684094768,"current_range_meters":2400,"station_id":"ce4bh2p2rcd13ifvqdi0","pricing_plan_id":"free"},{"bike_id":"dd098509-1f59-46c3-8a76-5a4982168411","system_id":"levelo_inurba_marseille","lat":43.288497,"lon":5.393089,"is_reserved":false,"is_disabled":false,"rental_uris":{"android":"levelo://app?vid=dd098509-1f59-46c3-8a76-5a4982168411","ios":"levelo://app?vid=dd098509-1f59-46c3-8a76-5a4982168411"},"vehicle_type_id":"4","last_reported":1684094768,"current_range_meters":6400,"station_id":"ce4bh2p2rcd13ifvqdi0","pricing_plan_id":"free"},{"bike_id":"7ce9df34-5155-433b-b5ca-995983ee2408","system_id":"levelo_inurba_marseille","lat":43.288497,"lon":5.393089,"is_reserved":false,"is_disabled":false,"rental_uris":{"android":"levelo://app?vid=7ce9df34-5155-433b-b5ca-995983ee2408","ios":"levelo://app?vid=7ce9df34-5155-433b-b5ca-995983ee2408"},"vehicle_type_id":"4","last_reported":1684094768,"current_range_meters":13600,"station_id":"ce4bh2p2rcd13ifvqdi0","pricing_plan_id":"free"},{"bike_id":"e8514fea-e785-4103-b4f5-241c0be32bf7","system_id":"levelo_inurba_marseille","lat":43.283494,"lon":5.380945,"is_reserved":false,"is_disabled":false,"rental_uris":{"android":"levelo://app?vid=e8514fea-e785-4103-b4f5-241c0be32bf7","ios":"levelo://app?vid=e8514fea-e785-4103-b4f5-241c0be32bf7"},"vehicle_type_id":"4","last_reported":1684094768,"current_range_meters":4400,"station_id":"ce4bh412rcd13ifvqdr0","pricing_plan_id":"free"},{"bike_id":"342ed277-f348-4058-a3d8-6dccd8da6e7b","system_id":"levelo_inurba_marseille","lat":43.283494,"lon":5.380945,"is_reserved":false,"is_disabled":false,"rental_uris":{"android":"levelo://app?vid=342ed277-f348-4058-a3d8-6dccd8da6e7b","ios":"levelo://app?vid=342ed277-f348-4058-a3d8-6dccd8da6e7b"},"vehicle_type_id":"4","last_reported":1684094768,"current_range_meters":10000,"station_id":"ce4bh412rcd13ifvqdr0","pricing_plan_id":"free"},{"bike_id":"daed78a0-4208-4bfd-8796-1727aaf247cc","system_id":"levelo_inurba_marseille","lat":43.283494,"lon":5.380945,"is_reserved":false,"is_disabled":false,"rental_uris":{"android":"levelo://app?vid=daed78a0-4208-4bfd-8796-1727aaf247cc","ios":"levelo://app?vid=daed78a0-4208-4bfd-8796-1727aaf247cc"},"vehicle_type_id":"4","last_reported":1684094768,"current_range_meters":0,"station_id":"ce4bh412rcd13ifvqdr0","pricing_plan_id":"free"},{"bike_id":"83cea447-8d9a-4628-9f3b-6dc566c4e49e","system_id":"levelo_inurba_marseille","lat":43.289363,"lon":5.396322,"is_reserved":false,"is_disabled":false,"rental_uris":{"android":"levelo://app?vid=83cea447-8d9a-4628-9f3b-6dc566c4e49e","ios":"levelo://app?vid=83cea447-8d9a-4628-9f3b-6dc566c4e49e"},"vehicle_type_id":"4","last_reported":1684094768,"current_range_meters":3200,"station_id":"ce4bh3h2rcd13ifvqdn0","pricing_plan_id":"free"},{"bike_id":"dc464362-cb21-419d-8e7e-20275b1aab9a","system_id":"levelo_inurba_marseille","lat":43.289363,"lon":5.396322,"is_reserved":false,"is_disabled":false,"rental_uris":{"android":"levelo://app?vid=dc464362-cb21-419d-8e7e-20275b1aab9a","ios":"levelo://app?vid=dc464362-cb21-419d-8e7e-20275b1aab9a"},"vehicle_type_id":"4","last_reported":1684094768,"current_range_meters":11600,"station_id":"ce4bh3h2rcd13ifvqdn0","pricing_plan_id":"free"},{"bike_id":"8f6622c3-03ef-4e1d-8495-e6fe891a0ce8","system_id":"levelo_inurba_marseille","lat":43.289363,"lon":5.396322,"is_reserved":false,"is_disabled":false,"rental_uris":{"android":"levelo://app?vid=8f6622c3-03ef-4e1d-8495-e6fe891a0ce8","ios":"levelo://app?vid=8f6622c3-03ef-4e1d-8495-e6fe891a0ce8"},"vehicle_type_id":"4","last_reported":1684094768,"current_range_meters":10800,"station_id":"ce4bh3h2rcd13ifvqdn0","pricing_plan_id":"free"},{"bike_id":"89b049c6-a5c2-49f4-9e13-3f2497a8e834","system_id":"levelo_inurba_marseille","lat":43.28939,"lon":5.39644,"is_reserved":false,"is_disabled":false,"rental_uris":{"android":"levelo://app?vid=89b049c6-a5c2-49f4-9e13-3f2497a8e834","ios":"levelo://app?vid=89b049c6-a5c2-49f4-9e13-3f2497a8e834"},"vehicle_type_id":"4","last_reported":1684094768,"current_range_meters":5600,"station_id":"ce4bh3h2rcd13ifvqdn0","pricing_plan_id":"free"},{"bike_id":"5661954d-ef88-4abf-ae21-95a2a35d1c5c","system_id":"levelo_inurba_marseille","lat":43.292724,"lon":5.401131,"is_reserved":false,"is_disabled":false,"rental_uris":{"android":"levelo://app?vid=5661954d-ef88-4abf-ae21-95a2a35d1c5c","ios":"levelo://app?vid=5661954d-ef88-4abf-ae21-95a2a35d1c5c"},"vehicle_type_id":"4","last_reported":1684094768,"current_range_meters":15600,"station_id":"ce4bh312rcd13ifvqdk0","pricing_plan_id":"free"},{"bike_id":"4c00f10f-6bb1-46ab-bac8-007e35e5b2ba","system_id":"levelo_inurba_marseille","lat":43.292724,"lon":5.401131,"is_reserved":false,"is_disabled":false,"rental_uris":{"android":"levelo://app?vid=4c00f10f-6bb1-46ab-bac8-007e35e5b2ba","ios":"levelo://app?vid=4c00f10f-6bb1-46ab-bac8-007e35e5b2ba"},"vehicle_type_id":"4","last_reported":1684094768,"current_range_meters":9600,"station_id":"ce4bh312rcd13ifvqdk0","pricing_plan_id":"free"},{"bike_id":"cb0c9234-84db-424c-837b-4b098eaa8005","system_id":"levelo_inurba_marseille","lat":43.28039,"lon":5.369297,"is_reserved":false,"is_disabled":false,"rental_uris":{"android":"levelo://app?vid=cb0c9234-84db-424c-837b-4b098eaa8005","ios":"levelo://app?vid=cb0c9234-84db-424c-837b-4b098eaa8005"},"vehicle_type_id":"4","last_reported":1684094768,"current_range_meters":0,"station_id":"ce4bha12rcd13ifvqef0","pricing_plan_id":"free"},{"bike_id":"9798129e-29e9-4490-9c66-3da43ee44a5c","system_id":"levelo_inurba_marseille","lat":43.28039,"lon":5.369297,"is_reserved":false,"is_disabled":false,"rental_uris":{"android":"levelo://app?vid=9798129e-29e9-4490-9c66-3da43ee44a5c","ios":"levelo://app?vid=9798129e-29e9-4490-9c66-3da43ee44a5c"},"vehicle_type_id":"4","last_reported":1684094768,"current_range_meters":20400,"station_id":"ce4bha12rcd13ifvqef0","pricing_plan_id":"free"},{"bike_id":"5cef0bea-432b-41da-a1ab-badc4a20c5ad","system_id":"levelo_inurba_marseille","lat":43.290412,"lon":5.399633,"is_reserved":false,"is_disabled":false,"rental_uris":{"android":"levelo://app?vid=5cef0bea-432b-41da-a1ab-badc4a20c5ad","ios":"levelo://app?vid=5cef0bea-432b-41da-a1ab-badc4a20c5ad"},"vehicle_type_id":"4","last_reported":1684094768,"current_range_meters":5200,"station_id":"ce4bh392rcd13ifvqdm0","pricing_plan_id":"free"},{"bike_id":"6c7a8a0c-a8bd-480f-814c-9526e4c22431","system_id":"levelo_inurba_marseille","lat":43.281044,"lon":5.378308,"is_reserved":false,"is_disabled":false,"rental_uris":{"android":"levelo://app?vid=6c7a8a0c-a8bd-480f-814c-9526e4c22431","ios":"levelo://app?vid=6c7a8a0c-a8bd-480f-814c-9526e4c22431"},"vehicle_type_id":"4","last_reported":1684094768,"current_range_meters":6400,"station_id":"ce4bha12rcd13ifvqee0","pricing_plan_id":"free"},{"bike_id":"425f6687-eba4-4ebd-aa3f-4b0afd9b3c74","system_id":"levelo_inurba_marseille","lat":43.281044,"lon":5.378308,"is_reserved":false,"is_disabled":false,"rental_uris":{"android":"levelo://app?vid=425f6687-eba4-4ebd-aa3f-4b0afd9b3c74","ios":"levelo://app?vid=425f6687-eba4-4ebd-aa3f-4b0afd9b3c74"},"vehicle_type_id":"4","last_reported":1684094768,"current_range_meters":8800,"station_id":"ce4bha12rcd13ifvqee0","pricing_plan_id":"free"},{"bike_id":"1425acf8-321b-47ed-9217-718fcbb1caaf","system_id":"levelo_inurba_marseille","lat":43.284462,"lon":5.392121,"is_reserved":false,"is_disabled":false,"rental_uris":{"android":"levelo://app?vid=1425acf8-321b-47ed-9217-718fcbb1caaf","ios":"levelo://app?vid=1425acf8-321b-47ed-9217-718fcbb1caaf"},"vehicle_type_id":"4","last_reported":1684094768,"current_range_meters":12800,"station_id":"ce4bhoh2rcd13ifvqh5g","pricing_plan_id":"free"},{"bike_id":"5db5c0e6-52e6-4591-8879-d2464af0777f","system_id":"levelo_inurba_marseille","lat":43.284462,"lon":5.392121,"is_reserved":false,"is_disabled":false,"rental_uris":{"android":"levelo://app?vid=5db5c0e6-52e6-4591-8879-d2464af0777f","ios":"levelo://app?vid=5db5c0e6-52e6-4591-8879-d2464af0777f"},"vehicle_type_id":"4","last_reported":1684094768,"current_range_meters":22000,"station_id":"ce4bhoh2rcd13ifvqh5g","pricing_plan_id":"free"},{"bike_id":"d3579404-6916-4baf-9518-1db8a97da281","system_id":"levelo_inurba_marseille","lat":43.284462,"lon":5.392121,"is_reserved":false,"is_disabled":false,"rental_uris":{"android":"levelo://app?vid=d3579404-6916-4baf-9518-1db8a97da281","ios":"levelo://app?vid=d3579404-6916-4baf-9518-1db8a97da281"},"vehicle_type_id":"4","last_reported":1684094768,"current_range_meters":20800,"station_id":"ce4bhoh2rcd13ifvqh5g","pricing_plan_id":"free"},{"bike_id":"d4bea282-0a46-44d4-8de6-16908b9afa13","system_id":"levelo_inurba_marseille","lat":43.284462,"lon":5.392121,"is_reserved":false,"is_disabled":false,"rental_uris":{"android":"levelo://app?vid=d4bea282-0a46-44d4-8de6-16908b9afa13","ios":"levelo://app?vid=d4bea282-0a46-44d4-8de6-16908b9afa13"},"vehicle_type_id":"4","last_reported":1684094768,"current_range_meters":10000,"station_id":"ce4bhoh2rcd13ifvqh5g","pricing_plan_id":"free"},{"bike_id":"7073f418-4646-4c0d-8ae0-57bcbd84d5f1","system_id":"levelo_inurba_marseille","lat":43.284462,"lon":5.392121,"is_reserved":false,"is_disabled":false,"rental_uris":{"android":"levelo://app?vid=7073f418-4646-4c0d-8ae0-57bcbd84d5f1","ios":"levelo://app?vid=7073f418-4646-4c0d-8ae0-57bcbd84d5f1"},"vehicle_type_id":"4","last_reported":1684094768,"current_range_meters":31600,"station_id":"ce4bhoh2rcd13ifvqh5g","pricing_plan_id":"free"},{"bike_id":"ee030bc4-6c07-41c2-a986-02e5a768cb0b","system_id":"levelo_inurba_marseille","lat":43.28573,"lon":5.394992,"is_reserved":false,"is_disabled":false,"rental_uris":{"android":"levelo://app?vid=ee030bc4-6c07-41c2-a986-02e5a768cb0b","ios":"levelo://app?vid=ee030bc4-6c07-41c2-a986-02e5a768cb0b"},"vehicle_type_id":"4","last_reported":1684094768,"current_range_meters":8800,"station_id":"ce4bh292rcd13ifvqdg0","pricing_plan_id":"free"},{"bike_id":"0aa5dad6-5290-4f30-a13d-50d2da5cd428","system_id":"levelo_inurba_marseille","lat":43.28573,"lon":5.394992,"is_reserved":false,"is_disabled":false,"rental_uris":{"android":"levelo://app?vid=0aa5dad6-5290-4f30-a13d-50d2da5cd428","ios":"levelo://app?vid=0aa5dad6-5290-4f30-a13d-50d2da5cd428"},"vehicle_type_id":"4","last_reported":1684094768,"current_range_meters":800,"station_id":"ce4bh292rcd13ifvqdg0","pricing_plan_id":"free"},{"bike_id":"0c6747b2-5eb5-49f6-bee0-d5b76adf27f0","system_id":"levelo_inurba_marseille","lat":43.304188,"lon":5.412904,"is_reserved":false,"is_disabled":false,"rental_uris":{"android":"levelo://app?vid=0c6747b2-5eb5-49f6-bee0-d5b76adf27f0","ios":"levelo://app?vid=0c6747b2-5eb5-49f6-bee0-d5b76adf27f0"},"vehicle_type_id":"4","last_reported":1684094768,"current_range_meters":8400,"station_id":"ce4bhop2rcd13ifvqh8g","pricing_plan_id":"free"},{"bike_id":"d4626723-0b53-464c-9d2e-cca76a7b6e73","system_id":"levelo_inurba_marseille","lat":43.30423,"lon":5.41291,"is_reserved":false,"is_disabled":false,"rental_uris":{"android":"levelo://app?vid=d4626723-0b53-464c-9d2e-cca76a7b6e73","ios":"levelo://app?vid=d4626723-0b53-464c-9d2e-cca76a7b6e73"},"vehicle_type_id":"4","last_reported":1684094768,"current_range_meters":30400,"station_id":"ce4bhop2rcd13ifvqh8g","pricing_plan_id":"free"},{"bike_id":"05a10781-4635-407b-bc00-9edae5bb5ff2","system_id":"levelo_inurba_marseille","lat":43.287154,"lon":5.399979,"is_reserved":false,"is_disabled":false,"rental_uris":{"android":"levelo://app?vid=05a10781-4635-407b-bc00-9edae5bb5ff2","ios":"levelo://app?vid=05a10781-4635-407b-bc00-9edae5bb5ff2"},"vehicle_type_id":"4","last_reported":1684094768,"current_range_meters":20400,"station_id":"ce4bho92rcd13ifvqh3g","pricing_plan_id":"free"},{"bike_id":"2a62be94-0edd-46d4-81b5-3a8bb13bc7f1","system_id":"levelo_inurba_marseille","lat":43.287154,"lon":5.399979,"is_reserved":false,"is_disabled":false,"rental_uris":{"android":"levelo://app?vid=2a62be94-0edd-46d4-81b5-3a8bb13bc7f1","ios":"levelo://app?vid=2a62be94-0edd-46d4-81b5-3a8bb13bc7f1"},"vehicle_type_id":"4","last_reported":1684094768,"current_range_meters":20000,"station_id":"ce4bho92rcd13ifvqh3g","pricing_plan_id":"free"},{"bike_id":"fc4141ce-1f76-4a60-99ca-f7a394db26f6","system_id":"levelo_inurba_marseille","lat":43.27903,"lon":5.35346,"is_reserved":false,"is_disabled":false,"rental_uris":{"android":"levelo://app?vid=fc4141ce-1f76-4a60-99ca-f7a394db26f6","ios":"levelo://app?vid=fc4141ce-1f76-4a60-99ca-f7a394db26f6"},"vehicle_type_id":"4","last_reported":1684094768,"current_range_meters":0,"station_id":"","pricing_plan_id":"free"},{"bike_id":"9409327f-a229-48be-8c39-00df96e053d5","system_id":"levelo_inurba_marseille","lat":43.287154,"lon":5.399979,"is_reserved":false,"is_disabled":false,"rental_uris":{"android":"levelo://app?vid=9409327f-a229-48be-8c39-00df96e053d5","ios":"levelo://app?vid=9409327f-a229-48be-8c39-00df96e053d5"},"vehicle_type_id":"4","last_reported":1684094768,"current_range_meters":14800,"station_id":"ce4bho92rcd13ifvqh3g","pricing_plan_id":"free"},{"bike_id":"86b6453b-a26b-4b72-bcb9-b8653bb5333d","system_id":"levelo_inurba_marseille","lat":43.287154,"lon":5.399979,"is_reserved":false,"is_disabled":false,"rental_uris":{"android":"levelo://app?vid=86b6453b-a26b-4b72-bcb9-b8653bb5333d","ios":"levelo://app?vid=86b6453b-a26b-4b72-bcb9-b8653bb5333d"},"vehicle_type_id":"4","last_reported":1684094768,"current_range_meters":13200,"station_id":"ce4bho92rcd13ifvqh3g","pricing_plan_id":"free"},{"bike_id":"b8b7c034-5aec-443f-8075-a622bcd63df2","system_id":"levelo_inurba_marseille","lat":43.299579,"lon":5.413255,"is_reserved":false,"is_disabled":false,"rental_uris":{"android":"levelo://app?vid=b8b7c034-5aec-443f-8075-a622bcd63df2","ios":"levelo://app?vid=b8b7c034-5aec-443f-8075-a622bcd63df2"},"vehicle_type_id":"4","last_reported":1684094768,"current_range_meters":26800,"station_id":"ce4bhp12rcd13ifvqh9g","pricing_plan_id":"free"},{"bike_id":"a72cff25-43db-4dfb-9bc6-401fbf97ad05","system_id":"levelo_inurba_marseille","lat":43.299579,"lon":5.413255,"is_reserved":false,"is_disabled":false,"rental_uris":{"android":"levelo://app?vid=a72cff25-43db-4dfb-9bc6-401fbf97ad05","ios":"levelo://app?vid=a72cff25-43db-4dfb-9bc6-401fbf97ad05"},"vehicle_type_id":"4","last_reported":1684094768,"current_range_meters":14800,"station_id":"ce4bhp12rcd13ifvqh9g","pricing_plan_id":"free"},{"bike_id":"a40ed4f7-0610-4629-97fd-b243a41523e4","system_id":"levelo_inurba_marseille","lat":43.299577,"lon":5.413277,"is_reserved":false,"is_disabled":false,"rental_uris":{"android":"levelo://app?vid=a40ed4f7-0610-4629-97fd-b243a41523e4","ios":"levelo://app?vid=a40ed4f7-0610-4629-97fd-b243a41523e4"},"vehicle_type_id":"4","last_reported":1684094768,"current_range_meters":20800,"station_id":"ce4bhp12rcd13ifvqh9g","pricing_plan_id":"free"},{"bike_id":"5b2c74bb-95bc-4046-8770-0eca3ae748a0","system_id":"levelo_inurba_marseille","lat":43.279742,"lon":5.38744,"is_reserved":false,"is_disabled":false,"rental_uris":{"android":"levelo://app?vid=5b2c74bb-95bc-4046-8770-0eca3ae748a0","ios":"levelo://app?vid=5b2c74bb-95bc-4046-8770-0eca3ae748a0"},"vehicle_type_id":"4","last_reported":1684094768,"current_range_meters":13600,"station_id":"ce4bhg12rcd13ifvqf80","pricing_plan_id":"free"},{"bike_id":"df332c70-fd55-4588-ae75-38e73cb7f39b","system_id":"levelo_inurba_marseille","lat":43.279742,"lon":5.38744,"is_reserved":false,"is_disabled":false,"rental_uris":{"android":"levelo://app?vid=df332c70-fd55-4588-ae75-38e73cb7f39b","ios":"levelo://app?vid=df332c70-fd55-4588-ae75-38e73cb7f39b"},"vehicle_type_id":"4","last_reported":1684094768,"current_range_meters":8400,"station_id":"ce4bhg12rcd13ifvqf80","pricing_plan_id":"free"},{"bike_id":"cad4a7f7-ac15-4132-a111-aa624192d347","system_id":"levelo_inurba_marseille","lat":43.279742,"lon":5.38744,"is_reserved":false,"is_disabled":false,"rental_uris":{"android":"levelo://app?vid=cad4a7f7-ac15-4132-a111-aa624192d347","ios":"levelo://app?vid=cad4a7f7-ac15-4132-a111-aa624192d347"},"vehicle_type_id":"4","last_reported":1684094768,"current_range_meters":3600,"station_id":"ce4bhg12rcd13ifvqf80","pricing_plan_id":"free"},{"bike_id":"26097369-2d86-4544-8c78-2611ca0fe88e","system_id":"levelo_inurba_marseille","lat":43.29259,"lon":5.40909,"is_reserved":false,"is_disabled":false,"rental_uris":{"android":"levelo://app?vid=26097369-2d86-4544-8c78-2611ca0fe88e","ios":"levelo://app?vid=26097369-2d86-4544-8c78-2611ca0fe88e"},"vehicle_type_id":"4","last_reported":1684094768,"current_range_meters":14000,"station_id":"ce4bh192rcd13ifvqdc0","pricing_plan_id":"free"},{"bike_id":"e5cd5b50-6472-41e7-8d76-cc0a8e994db7","system_id":"levelo_inurba_marseille","lat":43.29256,"lon":5.4091,"is_reserved":false,"is_disabled":false,"rental_uris":{"android":"levelo://app?vid=e5cd5b50-6472-41e7-8d76-cc0a8e994db7","ios":"levelo://app?vid=e5cd5b50-6472-41e7-8d76-cc0a8e994db7"},"vehicle_type_id":"4","last_reported":1684094768,"current_range_meters":11200,"station_id":"ce4bh192rcd13ifvqdc0","pricing_plan_id":"free"},{"bike_id":"15255a03-1452-420d-aeb1-3f8c1ba8bf41","system_id":"levelo_inurba_marseille","lat":43.29255,"lon":5.40913,"is_reserved":false,"is_disabled":false,"rental_uris":{"android":"levelo://app?vid=15255a03-1452-420d-aeb1-3f8c1ba8bf41","ios":"levelo://app?vid=15255a03-1452-420d-aeb1-3f8c1ba8bf41"},"vehicle_type_id":"4","last_reported":1684094768,"current_range_meters":3600,"station_id":"ce4bh192rcd13ifvqdc0","pricing_plan_id":"free"},{"bike_id":"10995590-0527-4248-a46b-522030684dd6","system_id":"levelo_inurba_marseille","lat":43.27621,"lon":5.36125,"is_reserved":false,"is_disabled":false,"rental_uris":{"android":"levelo://app?vid=10995590-0527-4248-a46b-522030684dd6","ios":"levelo://app?vid=10995590-0527-4248-a46b-522030684dd6"},"vehicle_type_id":"4","last_reported":1684094768,"current_range_meters":0,"station_id":"","pricing_plan_id":"free"},{"bike_id":"366a3b66-e6e6-4aa7-b5fe-e1fc400901fa","system_id":"levelo_inurba_marseille","lat":43.325233,"lon":5.414318,"is_reserved":false,"is_disabled":false,"rental_uris":{"android":"levelo://app?vid=366a3b66-e6e6-4aa7-b5fe-e1fc400901fa","ios":"levelo://app?vid=366a3b66-e6e6-4aa7-b5fe-e1fc400901fa"},"vehicle_type_id":"4","last_reported":1684094768,"current_range_meters":31200,"station_id":"ce4bhq12rcd13ifvqhhg","pricing_plan_id":"free"},{"bike_id":"72d1c47b-25f0-4500-a29b-04b3650a151e","system_id":"levelo_inurba_marseille","lat":43.3254,"lon":5.41446,"is_reserved":false,"is_disabled":false,"rental_uris":{"android":"levelo://app?vid=72d1c47b-25f0-4500-a29b-04b3650a151e","ios":"levelo://app?vid=72d1c47b-25f0-4500-a29b-04b3650a151e"},"vehicle_type_id":"4","last_reported":1684094768,"current_range_meters":29600,"station_id":"ce4bhq12rcd13ifvqhhg","pricing_plan_id":"free"},{"bike_id":"fe339c17-ba4f-4a4f-b350-940fbd81c43b","system_id":"levelo_inurba_marseille","lat":43.33336,"lon":5.40906,"is_reserved":false,"is_disabled":false,"rental_uris":{"android":"levelo://app?vid=fe339c17-ba4f-4a4f-b350-940fbd81c43b","ios":"levelo://app?vid=fe339c17-ba4f-4a4f-b350-940fbd81c43b"},"vehicle_type_id":"4","last_reported":1684094768,"current_range_meters":16000,"station_id":"","pricing_plan_id":"free"},{"bike_id":"4135537d-9d01-4ff3-9e1d-58ff6c81b7c2","system_id":"levelo_inurba_marseille","lat":43.28078,"lon":5.39656,"is_reserved":false,"is_disabled":false,"rental_uris":{"android":"levelo://app?vid=4135537d-9d01-4ff3-9e1d-58ff6c81b7c2","ios":"levelo://app?vid=4135537d-9d01-4ff3-9e1d-58ff6c81b7c2"},"vehicle_type_id":"4","last_reported":1684094768,"current_range_meters":15600,"station_id":"ce4bho12rcd13ifvqh2g","pricing_plan_id":"free"},{"bike_id":"2843add0-87ef-4fe2-a45d-cab01a047ebf","system_id":"levelo_inurba_marseille","lat":43.28075,"lon":5.39659,"is_reserved":false,"is_disabled":false,"rental_uris":{"android":"levelo://app?vid=2843add0-87ef-4fe2-a45d-cab01a047ebf","ios":"levelo://app?vid=2843add0-87ef-4fe2-a45d-cab01a047ebf"},"vehicle_type_id":"4","last_reported":1684094768,"current_range_meters":12400,"station_id":"ce4bho12rcd13ifvqh2g","pricing_plan_id":"free"},{"bike_id":"8c46edcd-4ee9-4c7d-9a3f-10c2bd93a71f","system_id":"levelo_inurba_marseille","lat":43.278399,"lon":5.392139,"is_reserved":false,"is_disabled":false,"rental_uris":{"android":"levelo://app?vid=8c46edcd-4ee9-4c7d-9a3f-10c2bd93a71f","ios":"levelo://app?vid=8c46edcd-4ee9-4c7d-9a3f-10c2bd93a71f"},"vehicle_type_id":"4","last_reported":1684094768,"current_range_meters":31600,"station_id":"ce4bhjp2rcd13ifvqga0","pricing_plan_id":"free"},{"bike_id":"e0024be8-9727-4f6c-98fa-1a00fcb3b511","system_id":"levelo_inurba_marseille","lat":43.27383,"lon":5.36247,"is_reserved":false,"is_disabled":false,"rental_uris":{"android":"levelo://app?vid=e0024be8-9727-4f6c-98fa-1a00fcb3b511","ios":"levelo://app?vid=e0024be8-9727-4f6c-98fa-1a00fcb3b511"},"vehicle_type_id":"4","last_reported":1684094768,"current_range_meters":5200,"station_id":"ce4bhbh2rcd13ifvqeo0","pricing_plan_id":"free"},{"bike_id":"d80cd225-746d-4b07-9371-cc450e1f75f7","system_id":"levelo_inurba_marseille","lat":43.278399,"lon":5.392139,"is_reserved":false,"is_disabled":false,"rental_uris":{"android":"levelo://app?vid=d80cd225-746d-4b07-9371-cc450e1f75f7","ios":"levelo://app?vid=d80cd225-746d-4b07-9371-cc450e1f75f7"},"vehicle_type_id":"4","last_reported":1684094768,"current_range_meters":21600,"station_id":"ce4bhjp2rcd13ifvqga0","pricing_plan_id":"free"},{"bike_id":"1c583c3c-c8be-47aa-a62d-6dd44567cf71","system_id":"levelo_inurba_marseille","lat":43.273613,"lon":5.362705,"is_reserved":false,"is_disabled":false,"rental_uris":{"android":"levelo://app?vid=1c583c3c-c8be-47aa-a62d-6dd44567cf71","ios":"levelo://app?vid=1c583c3c-c8be-47aa-a62d-6dd44567cf71"},"vehicle_type_id":"4","last_reported":1684094768,"current_range_meters":2000,"station_id":"ce4bhbh2rcd13ifvqeo0","pricing_plan_id":"free"},{"bike_id":"6259dd87-7790-486e-913c-d89e77c90285","system_id":"levelo_inurba_marseille","lat":43.33605,"lon":5.41033,"is_reserved":false,"is_disabled":false,"rental_uris":{"android":"levelo://app?vid=6259dd87-7790-486e-913c-d89e77c90285","ios":"levelo://app?vid=6259dd87-7790-486e-913c-d89e77c90285"},"vehicle_type_id":"4","last_reported":1684094768,"current_range_meters":0,"station_id":"ce4bhqh2rcd13ifvqhmg","pricing_plan_id":"free"},{"bike_id":"376f2c58-bc1d-46e6-82c5-a921c342204c","system_id":"levelo_inurba_marseille","lat":43.336134,"lon":5.410341,"is_reserved":false,"is_disabled":false,"rental_uris":{"android":"levelo://app?vid=376f2c58-bc1d-46e6-82c5-a921c342204c","ios":"levelo://app?vid=376f2c58-bc1d-46e6-82c5-a921c342204c"},"vehicle_type_id":"4","last_reported":1684094768,"current_range_meters":22000,"station_id":"ce4bhqh2rcd13ifvqhmg","pricing_plan_id":"free"},{"bike_id":"4f013788-347f-434a-bc27-2ab833aee83d","system_id":"levelo_inurba_marseille","lat":43.336134,"lon":5.410341,"is_reserved":false,"is_disabled":false,"rental_uris":{"android":"levelo://app?vid=4f013788-347f-434a-bc27-2ab833aee83d","ios":"levelo://app?vid=4f013788-347f-434a-bc27-2ab833aee83d"},"vehicle_type_id":"4","last_reported":1684094768,"current_range_meters":2000,"station_id":"ce4bhqh2rcd13ifvqhmg","pricing_plan_id":"free"},{"bike_id":"cc8e1e2a-965d-4b03-8b7b-d7ce6fb29cb9","system_id":"levelo_inurba_marseille","lat":43.33612,"lon":5.410321,"is_reserved":false,"is_disabled":false,"rental_uris":{"android":"levelo://app?vid=cc8e1e2a-965d-4b03-8b7b-d7ce6fb29cb9","ios":"levelo://app?vid=cc8e1e2a-965d-4b03-8b7b-d7ce6fb29cb9"},"vehicle_type_id":"4","last_reported":1684094768,"current_range_meters":9600,"station_id":"ce4bhqh2rcd13ifvqhmg","pricing_plan_id":"free"},{"bike_id":"ad8bb477-a239-4693-8be3-e14cf6eaafad","system_id":"levelo_inurba_marseille","lat":43.273613,"lon":5.362705,"is_reserved":false,"is_disabled":false,"rental_uris":{"android":"levelo://app?vid=ad8bb477-a239-4693-8be3-e14cf6eaafad","ios":"levelo://app?vid=ad8bb477-a239-4693-8be3-e14cf6eaafad"},"vehicle_type_id":"4","last_reported":1684094768,"current_range_meters":400,"station_id":"ce4bhbh2rcd13ifvqeo0","pricing_plan_id":"free"},{"bike_id":"2bc28273-afcb-409a-8370-8dbc541b2cdc","system_id":"levelo_inurba_marseille","lat":43.276771,"lon":5.388799,"is_reserved":false,"is_disabled":false,"rental_uris":{"android":"levelo://app?vid=2bc28273-afcb-409a-8370-8dbc541b2cdc","ios":"levelo://app?vid=2bc28273-afcb-409a-8370-8dbc541b2cdc"},"vehicle_type_id":"4","last_reported":1684094768,"current_range_meters":2000,"station_id":"ce4bhi12rcd13ifvqfo0","pricing_plan_id":"free"},{"bike_id":"6db752a3-83cc-4bbc-bed0-309a3f1d542f","system_id":"levelo_inurba_marseille","lat":43.276771,"lon":5.388799,"is_reserved":false,"is_disabled":false,"rental_uris":{"android":"levelo://app?vid=6db752a3-83cc-4bbc-bed0-309a3f1d542f","ios":"levelo://app?vid=6db752a3-83cc-4bbc-bed0-309a3f1d542f"},"vehicle_type_id":"4","last_reported":1684094768,"current_range_meters":11200,"station_id":"ce4bhi12rcd13ifvqfo0","pricing_plan_id":"free"},{"bike_id":"15cc8a37-99b3-4707-8590-3d9c5ac6fca0","system_id":"levelo_inurba_marseille","lat":43.31095,"lon":5.42419,"is_reserved":false,"is_disabled":false,"rental_uris":{"android":"levelo://app?vid=15cc8a37-99b3-4707-8590-3d9c5ac6fca0","ios":"levelo://app?vid=15cc8a37-99b3-4707-8590-3d9c5ac6fca0"},"vehicle_type_id":"4","last_reported":1684094768,"current_range_meters":16400,"station_id":"ce4bhp92rcd13ifvqhag","pricing_plan_id":"free"},{"bike_id":"5fb5dfad-0f6f-40db-8736-bb71a8d228a8","system_id":"levelo_inurba_marseille","lat":43.274103,"lon":5.394016,"is_reserved":false,"is_disabled":false,"rental_uris":{"android":"levelo://app?vid=5fb5dfad-0f6f-40db-8736-bb71a8d228a8","ios":"levelo://app?vid=5fb5dfad-0f6f-40db-8736-bb71a8d228a8"},"vehicle_type_id":"4","last_reported":1684094768,"current_range_meters":8000,"station_id":"ce4bhdp2rcd13ifvqf20","pricing_plan_id":"free"},{"bike_id":"1be88be1-3252-42b1-bb33-b698ccd72cf7","system_id":"levelo_inurba_marseille","lat":43.274103,"lon":5.394016,"is_reserved":false,"is_disabled":false,"rental_uris":{"android":"levelo://app?vid=1be88be1-3252-42b1-bb33-b698ccd72cf7","ios":"levelo://app?vid=1be88be1-3252-42b1-bb33-b698ccd72cf7"},"vehicle_type_id":"4","last_reported":1684094768,"current_range_meters":800,"station_id":"ce4bhdp2rcd13ifvqf20","pricing_plan_id":"free"},{"bike_id":"6eaf62ef-17d6-4363-8296-0107ffb7022e","system_id":"levelo_inurba_marseille","lat":43.27317,"lon":5.39077,"is_reserved":false,"is_disabled":false,"rental_uris":{"android":"levelo://app?vid=6eaf62ef-17d6-4363-8296-0107ffb7022e","ios":"levelo://app?vid=6eaf62ef-17d6-4363-8296-0107ffb7022e"},"vehicle_type_id":"4","last_reported":1684094768,"current_range_meters":6000,"station_id":"ce4bhgp2rcd13ifvqfe0","pricing_plan_id":"free"},{"bike_id":"43e268be-df86-44c4-9765-de93f03e0c0c","system_id":"levelo_inurba_marseille","lat":43.274103,"lon":5.394016,"is_reserved":false,"is_disabled":false,"rental_uris":{"android":"levelo://app?vid=43e268be-df86-44c4-9765-de93f03e0c0c","ios":"levelo://app?vid=43e268be-df86-44c4-9765-de93f03e0c0c"},"vehicle_type_id":"4","last_reported":1684094768,"current_range_meters":6000,"station_id":"ce4bhdp2rcd13ifvqf20","pricing_plan_id":"free"},{"bike_id":"f4c1a557-3055-42de-bb48-531c2eb9113e","system_id":"levelo_inurba_marseille","lat":43.274103,"lon":5.394016,"is_reserved":false,"is_disabled":false,"rental_uris":{"android":"levelo://app?vid=f4c1a557-3055-42de-bb48-531c2eb9113e","ios":"levelo://app?vid=f4c1a557-3055-42de-bb48-531c2eb9113e"},"vehicle_type_id":"4","last_reported":1684094768,"current_range_meters":16800,"station_id":"ce4bhdp2rcd13ifvqf20","pricing_plan_id":"free"},{"bike_id":"e55542a3-e81b-43e1-b644-da8b40d96e2a","system_id":"levelo_inurba_marseille","lat":43.273125,"lon":5.390731,"is_reserved":false,"is_disabled":false,"rental_uris":{"android":"levelo://app?vid=e55542a3-e81b-43e1-b644-da8b40d96e2a","ios":"levelo://app?vid=e55542a3-e81b-43e1-b644-da8b40d96e2a"},"vehicle_type_id":"4","last_reported":1684094768,"current_range_meters":3600,"station_id":"ce4bhgp2rcd13ifvqfe0","pricing_plan_id":"free"},{"bike_id":"dd425f03-9cc1-495a-ad67-c5feffa8aa05","system_id":"levelo_inurba_marseille","lat":43.27315,"lon":5.39081,"is_reserved":false,"is_disabled":false,"rental_uris":{"android":"levelo://app?vid=dd425f03-9cc1-495a-ad67-c5feffa8aa05","ios":"levelo://app?vid=dd425f03-9cc1-495a-ad67-c5feffa8aa05"},"vehicle_type_id":"4","last_reported":1684094768,"current_range_meters":13200,"station_id":"ce4bhgp2rcd13ifvqfe0","pricing_plan_id":"free"},{"bike_id":"e86afe0d-f164-4a8b-a221-9980fcdf493b","system_id":"levelo_inurba_marseille","lat":43.27324,"lon":5.39114,"is_reserved":false,"is_disabled":false,"rental_uris":{"android":"levelo://app?vid=e86afe0d-f164-4a8b-a221-9980fcdf493b","ios":"levelo://app?vid=e86afe0d-f164-4a8b-a221-9980fcdf493b"},"vehicle_type_id":"4","last_reported":1684094768,"current_range_meters":0,"station_id":"","pricing_plan_id":"free"},{"bike_id":"fd5f633d-dfa8-409e-9a1c-ad23ddb47b36","system_id":"levelo_inurba_marseille","lat":43.274103,"lon":5.394016,"is_reserved":false,"is_disabled":false,"rental_uris":{"android":"levelo://app?vid=fd5f633d-dfa8-409e-9a1c-ad23ddb47b36","ios":"levelo://app?vid=fd5f633d-dfa8-409e-9a1c-ad23ddb47b36"},"vehicle_type_id":"4","last_reported":1684094768,"current_range_meters":16000,"station_id":"ce4bhdp2rcd13ifvqf20","pricing_plan_id":"free"},{"bike_id":"e1b2c6d9-5a13-4c8b-8fbc-3beebda85a42","system_id":"levelo_inurba_marseille","lat":43.27317,"lon":5.39098,"is_reserved":false,"is_disabled":false,"rental_uris":{"android":"levelo://app?vid=e1b2c6d9-5a13-4c8b-8fbc-3beebda85a42","ios":"levelo://app?vid=e1b2c6d9-5a13-4c8b-8fbc-3beebda85a42"},"vehicle_type_id":"4","last_reported":1684094768,"current_range_meters":28800,"station_id":"ce4bhgp2rcd13ifvqfe0","pricing_plan_id":"free"},{"bike_id":"b493fe21-abf4-4688-a9a2-530c5dc33366","system_id":"levelo_inurba_marseille","lat":43.27427,"lon":5.39419,"is_reserved":false,"is_disabled":false,"rental_uris":{"android":"levelo://app?vid=b493fe21-abf4-4688-a9a2-530c5dc33366","ios":"levelo://app?vid=b493fe21-abf4-4688-a9a2-530c5dc33366"},"vehicle_type_id":"4","last_reported":1684094768,"current_range_meters":23200,"station_id":"ce4bhdp2rcd13ifvqf20","pricing_plan_id":"free"},{"bike_id":"99b7c761-5193-4627-94d9-6d51f6c7278a","system_id":"levelo_inurba_marseille","lat":43.27422,"lon":5.39406,"is_reserved":false,"is_disabled":false,"rental_uris":{"android":"levelo://app?vid=99b7c761-5193-4627-94d9-6d51f6c7278a","ios":"levelo://app?vid=99b7c761-5193-4627-94d9-6d51f6c7278a"},"vehicle_type_id":"4","last_reported":1684094768,"current_range_meters":8400,"station_id":"ce4bhdp2rcd13ifvqf20","pricing_plan_id":"free"},{"bike_id":"93ff7f8f-db49-4bf3-8ba4-abdf56b4cdb4","system_id":"levelo_inurba_marseille","lat":43.273125,"lon":5.390731,"is_reserved":false,"is_disabled":false,"rental_uris":{"android":"levelo://app?vid=93ff7f8f-db49-4bf3-8ba4-abdf56b4cdb4","ios":"levelo://app?vid=93ff7f8f-db49-4bf3-8ba4-abdf56b4cdb4"},"vehicle_type_id":"4","last_reported":1684094768,"current_range_meters":400,"station_id":"ce4bhgp2rcd13ifvqfe0","pricing_plan_id":"free"},{"bike_id":"77bf6657-a7a2-4fb6-8772-ca6786269e98","system_id":"levelo_inurba_marseille","lat":43.27307,"lon":5.39076,"is_reserved":false,"is_disabled":false,"rental_uris":{"android":"levelo://app?vid=77bf6657-a7a2-4fb6-8772-ca6786269e98","ios":"levelo://app?vid=77bf6657-a7a2-4fb6-8772-ca6786269e98"},"vehicle_type_id":"4","last_reported":1684094768,"current_range_meters":8400,"station_id":"ce4bhgp2rcd13ifvqfe0","pricing_plan_id":"free"},{"bike_id":"3c4c977b-6bea-4010-b545-fd85ae8f2359","system_id":"levelo_inurba_marseille","lat":43.2731,"lon":5.39086,"is_reserved":false,"is_disabled":false,"rental_uris":{"android":"levelo://app?vid=3c4c977b-6bea-4010-b545-fd85ae8f2359","ios":"levelo://app?vid=3c4c977b-6bea-4010-b545-fd85ae8f2359"},"vehicle_type_id":"4","last_reported":1684094768,"current_range_meters":12800,"station_id":"ce4bhgp2rcd13ifvqfe0","pricing_plan_id":"free"},{"bike_id":"3de7750a-5021-4c80-a4d9-f61cd2cdbe7b","system_id":"levelo_inurba_marseille","lat":43.27318,"lon":5.39111,"is_reserved":false,"is_disabled":false,"rental_uris":{"android":"levelo://app?vid=3de7750a-5021-4c80-a4d9-f61cd2cdbe7b","ios":"levelo://app?vid=3de7750a-5021-4c80-a4d9-f61cd2cdbe7b"},"vehicle_type_id":"4","last_reported":1684094768,"current_range_meters":13600,"station_id":"","pricing_plan_id":"free"},{"bike_id":"d453c587-b05a-416e-8f4b-8a1788fc2fb3","system_id":"levelo_inurba_marseille","lat":43.274103,"lon":5.394016,"is_reserved":false,"is_disabled":false,"rental_uris":{"android":"levelo://app?vid=d453c587-b05a-416e-8f4b-8a1788fc2fb3","ios":"levelo://app?vid=d453c587-b05a-416e-8f4b-8a1788fc2fb3"},"vehicle_type_id":"4","last_reported":1684094768,"current_range_meters":16000,"station_id":"ce4bhdp2rcd13ifvqf20","pricing_plan_id":"free"},{"bike_id":"b0983eb8-89d3-41e1-95b4-588f5e20a429","system_id":"levelo_inurba_marseille","lat":43.273125,"lon":5.390731,"is_reserved":false,"is_disabled":false,"rental_uris":{"android":"levelo://app?vid=b0983eb8-89d3-41e1-95b4-588f5e20a429","ios":"levelo://app?vid=b0983eb8-89d3-41e1-95b4-588f5e20a429"},"vehicle_type_id":"4","last_reported":1684094768,"current_range_meters":14400,"station_id":"ce4bhgp2rcd13ifvqfe0","pricing_plan_id":"free"},{"bike_id":"ca8878f4-cd4d-49c7-a2a1-4356bf3b83cb","system_id":"levelo_inurba_marseille","lat":43.273125,"lon":5.390731,"is_reserved":false,"is_disabled":false,"rental_uris":{"android":"levelo://app?vid=ca8878f4-cd4d-49c7-a2a1-4356bf3b83cb","ios":"levelo://app?vid=ca8878f4-cd4d-49c7-a2a1-4356bf3b83cb"},"vehicle_type_id":"4","last_reported":1684094768,"current_range_meters":24000,"station_id":"ce4bhgp2rcd13ifvqfe0","pricing_plan_id":"free"},{"bike_id":"470b3710-e97f-4bb0-815f-0397112bc818","system_id":"levelo_inurba_marseille","lat":43.27302,"lon":5.39073,"is_reserved":false,"is_disabled":false,"rental_uris":{"android":"levelo://app?vid=470b3710-e97f-4bb0-815f-0397112bc818","ios":"levelo://app?vid=470b3710-e97f-4bb0-815f-0397112bc818"},"vehicle_type_id":"4","last_reported":1684094768,"current_range_meters":800,"station_id":"ce4bhgp2rcd13ifvqfe0","pricing_plan_id":"free"},{"bike_id":"074f4584-8cc3-4b31-8ed3-27c59b3c5ec7","system_id":"levelo_inurba_marseille","lat":43.273125,"lon":5.390731,"is_reserved":false,"is_disabled":false,"rental_uris":{"android":"levelo://app?vid=074f4584-8cc3-4b31-8ed3-27c59b3c5ec7","ios":"levelo://app?vid=074f4584-8cc3-4b31-8ed3-27c59b3c5ec7"},"vehicle_type_id":"4","last_reported":1684094768,"current_range_meters":0,"station_id":"ce4bhgp2rcd13ifvqfe0","pricing_plan_id":"free"},