{"last_updated":1717258095,"ttl":30,"version":"2.2","data":{"bikes":[{"bike_id":"9a28e142-1384-4f7b-9ea8-2ea3baa848df","system_id":"levelo_inurba_marseille","lat":43.312239,"lon":5.368562,"is_reserved":false,"is_disabled":false,"rental_uris":{"android":"levelo://app?vid=9a28e142-1384-4f7b-9ea8-2ea3baa848df","ios":"levelo://app?vid=9a28e142-1384-4f7b-9ea8-2ea3baa848df"},"vehicle_type_id":"4","last_reported":1717258095,"current_range_meters":21200,"station_id":"ce4bgl92rcd13ifvqbq0","pricing_plan_id":"cebpf4jnsgd1na2vs0mg"},{"bike_id":"86c93e24-f032-4717-83a6-0063e3f06ab7","system_id":"levelo_inurba_marseille","lat":43.312239,"lon":5.368562,"is_reserved":false,"is_disabled":false,"rental_uris":{"android":"levelo://app?vid=86c93e24-f032-4717-83a6-0063e3f06ab7","ios":"levelo://app?vid=86c93e24-f032-4717-83a6-0063e3f06ab7"},"vehicle_type_id":"4","last_reported":1717258095,"current_range_meters":11200,"station_id":"ce4bgl92rcd13ifvqbq0","pricing_plan_id":"cebpf4jnsgd1na2vs0mg"},{"bike_id":"1b27a0f9-fef3-46e5-8e50-e11cfce20339","system_id":"levelo_inurba_marseille","lat":43.314811,"lon":5.373103,"is_reserved":false,"is_disabled":false,"rental_uris":{"android":"levelo://app?vid=1b27a0f9-fef3-46e5-8e50-e11cfce20339","ios":"levelo://app?vid=1b27a0f9-fef3-46e5-8e50-e11cfce20339"},"vehicle_type_id":"4","last_reported":1717258095,"current_range_meters":5200,"station_id":"ce4bgt12rcd13ifvqcd0","pricing_plan_id":"cebpf4jnsgd1na2vs0mg"},{"bike_id":"b2397af0-1c35-4d30-9214-60591d4f32fa","system_id":"levelo_inurba_marseille","lat":43.31501,"lon":5.37308,"is_reserved":false,"is_disabled":false,"rental_uris":{"android":"levelo://app?vid=b2397af0-1c35-4d30-9214-60591d4f32fa","ios":"levelo://app?vid=b2397af0-1c35-4d30-9214-60591d4f32fa"},"vehicle_type_id":"4","last_reported":1717258095,"current_range_meters":0,"station_id":"ce4bgt12rcd13ifvqcd0","pricing_plan_id":"cebpf4jnsgd1na2vs0mg"},{"bike_id":"c466f6a5-41fd-4e94-9a02-9c4132132c9c","system_id":"levelo_inurba_marseille","lat":43.308884,"lon":5.371962,"is_reserved":false,"is_disabled":false,"rental_uris":{"android":"levelo://app?vid=c466f6a5-41fd-4e94-9a02-9c4132132c9c","ios":"levelo://app?vid=c466f6a5-41fd-4e94-9a02-9c4132132c9c"},"vehicle_type_id":"4","last_reported":1717258095,"current_range_meters":0,"station_id":"ce4bguh2rcd13ifvqckg","pricing_plan_id":"cebpf4jnsgd1na2vs0mg"},{"bike_id":"8bd2a745-5b5e-4d83-a42c-da43d86e8e36","system_id":"levelo_inurba_marseille","lat":43.305714,"lon":5.365633,"is_reserved":false,"is_disabled":false,"rental_uris":{"android":"levelo://app?vid=8bd2a745-5b5e-4d83-a42c-da43d86e8e36","ios":"levelo://app?vid=8bd2a745-5b5e-4d83-a42c-da43d86e8e36"},"vehicle_type_id":"4","last_reported":1717258095,"current_range_meters":12800,"station_id":"ce4bgs12rcd13ifvqcag","pricing_plan_id":"cebpf4jnsgd1na2vs0mg"},{"bike_id":"59532b86-2796-48ea-b842-3446ea66e0f8","system_id":"levelo_inurba_marseille","lat":43.305712,"lon":5.365641,"is_reserved":false,"is_disabled":false,"rental_uris":{"android":"levelo://app?vid=59532b86-2796-48ea-b842-3446ea66e0f8","ios":"levelo://app?vid=59532b86-2796-48ea-b842-3446ea66e0f8"},"vehicle_type_id":"4","last_reported":1717258095,"current_range_meters":16800,"station_id":"ce4bgs12rcd13ifvqcag","pricing_plan_id":"cebpf4jnsgd1na2vs0mg"},{"bike_id":"39f9c7d3-032a-44ef-b612-6317e1d9d0d5","system_id":"levelo_inurba_marseille","lat":43.305706,"lon":5.365654,"is_reserved":false,"is_disabled":false,"rental_uris":{"android":"levelo://app?vid=39f9c7d3-032a-44ef-b612-6317e1d9d0d5","ios":"levelo://app?vid=39f9c7d3-032a-44ef-b612-6317e1d9d0d5"},"vehicle_type_id":"4","last_reported":1717258095,"current_range_meters":31200,"station_id":"ce4bgs12rcd13ifvqcag","pricing_plan_id":"cebpf4jnsgd1na2vs0mg"},{"bike_id":"d0297ffe-7654-4baf-8ca7-e5db0ead3bc3","system_id":"levelo_inurba_marseille","lat":43.305714,"lon":5.365633,"is_reserved":false,"is_disabled":false,"rental_uris":{"android":"levelo://app?vid=d0297ffe-7654-4baf-8ca7-e5db0ead3bc3","ios":"levelo://app?vid=d0297ffe-7654-4baf-8ca7-e5db0ead3bc3"},"vehicle_type_id":"4","last_reported":1717258095,"current_range_meters":14400,"station_id":"ce4bgs12rcd13ifvqcag","pricing_plan_id":"cebpf4jnsgd1na2vs0mg"},{"bike_id":"3b3f79c6-6efa-4899-a314-e4902c6a1892","system_id":"levelo_inurba_marseille","lat":43.311131,"lon":5.377651,"is_reserved":false,"is_disabled":false,"rental_uris":{"android":"levelo://app?vid=3b3f79c6-6efa-4899-a314-e4902c6a1892","ios":"levelo://app?vid=3b3f79c6-6efa-4899-a314-e4902c6a1892"},"vehicle_type_id":"4","last_reported":1717258095,"current_range_meters":24000,"station_id":"ce4bgt92rcd13ifvqcg0","pricing_plan_id":"cebpf4jnsgd1na2vs0mg"},{"bike_id":"c92324ad-992d-4e32-84a7-7c8fd465c7e6","system_id":"levelo_inurba_marseille","lat":43.307945,"lon":5.376487,"is_reserved":false,"is_disabled":false,"rental_uris":{"android":"levelo://app?vid=c92324ad-992d-4e32-84a7-7c8fd465c7e6","ios":"levelo://app?vid=c92324ad-992d-4e32-84a7-7c8fd465c7e6"},"vehicle_type_id":"4","last_reported":1717258095,"current_range_meters":4000,"station_id":"ce4bgv92rcd13ifvqcq0","pricing_plan_id":"cebpf4jnsgd1na2vs0mg"},{"bike_id":"d8e21b44-4ac1-4e67-9e55-f59176c1b92c","system_id":"levelo_inurba_marseille","lat":43.317323,"lon":5.376934,"is_reserved":false,"is_disabled":false,"rental_uris":{"android":"levelo://app?vid=d8e21b44-4ac1-4e67-9e55-f59176c1b92c","ios":"levelo://app?vid=d8e21b44-4ac1-4e67-9e55-f59176c1b92c"},"vehicle_type_id":"4","last_reported":1717258095,"current_range_meters":11200,"station_id":"ce4bgth2rcd13ifvqch0","pricing_plan_id":"cebpf4jnsgd1na2vs0mg"},{"bike_id":"4d90ca69-32bb-4d6c-a3e6-52b17cf745d7","system_id":"levelo_inurba_marseille","lat":43.317075,"lon":5.377367,"is_reserved":false,"is_disabled":false,"rental_uris":{"android":"levelo://app?vid=4d90ca69-32bb-4d6c-a3e6-52b17cf745d7","ios":"levelo://app?vid=4d90ca69-32bb-4d6c-a3e6-52b17cf745d7"},"vehicle_type_id":"4","last_reported":1717258095,"current_range_meters":16400,"station_id":"ce4bgth2rcd13ifvqch0","pricing_plan_id":"cebpf4jnsgd1na2vs0mg"},{"bike_id":"3fc3a7c1-b7f2-4e91-b375-64ea0830977b","system_id":"levelo_inurba_marseille","lat":43.303046,"lon":5.368981,"is_reserved":false,"is_disabled":false,"rental_uris":{"android":"levelo://app?vid=3fc3a7c1-b7f2-4e91-b375-64ea0830977b","ios":"levelo://app?vid=3fc3a7c1-b7f2-4e91-b375-64ea0830977b"},"vehicle_type_id":"4","last_reported":1717258095,"current_range_meters":4000,"station_id":"ce4bgqh2rcd13ifvqc5g","pricing_plan_id":"cebpf4jnsgd1na2vs0mg"},{"bike_id":"1c3a50d8-d9bf-41c4-b49f-a57645c5be45","system_id":"levelo_inurba_marseille","lat":43.303079,"lon":5.368932,"is_reserved":false,"is_disabled":false,"rental_uris":{"android":"levelo://app?vid=1c3a50d8-d9bf-41c4-b49f-a57645c5be45","ios":"levelo://app?vid=1c3a50d8-d9bf-41c4-b49f-a57645c5be45"},"vehicle_type_id":"4","last_reported":1717258095,"current_range_meters":14400,"station_id":"","pricing_plan_id":"cebpf4jnsgd1na2vs0mg"},{"bike_id":"697deea6-7ddb-47dd-ae34-ed53b67b7383","system_id":"levelo_inurba_marseille","lat":43.308012,"lon":5.381511,"is_reserved":false,"is_disabled":false,"rental_uris":{"android":"levelo://app?vid=697deea6-7ddb-47dd-ae34-ed53b67b7383","ios":"levelo://app?vid=697deea6-7ddb-47dd-ae34-ed53b67b7383"},"vehicle_type_id":"4","last_reported":1717258095,"current_range_meters":10400,"station_id":"ce4bgt12rcd13ifvqce0","pricing_plan_id":"cebpf4jnsgd1na2vs0mg"},{"bike_id":"73c892ac-8c63-4023-bc6f-7d8af1c3ee2b","system_id":"levelo_inurba_marseille","lat":43.304606,"lon":5.379026,"is_reserved":false,"is_disabled":false,"rental_uris":{"android":"levelo://app?vid=73c892ac-8c63-4023-bc6f-7d8af1c3ee2b","ios":"levelo://app?vid=73c892ac-8c63-4023-bc6f-7d8af1c3ee2b"},"vehicle_type_id":"4","last_reported":1717258095,"current_range_meters":8000,"station_id":"ce4bgup2rcd13ifvqcn0","pricing_plan_id":"cebpf4jnsgd1na2vs0mg"},{"bike_id":"0c2060d1-1ffb-4274-858f-ced2109fbc72","system_id":"levelo_inurba_marseille","lat":43.324771,"lon":5.36557,"is_reserved":false,"is_disabled":false,"rental_uris":{"android":"levelo://app?vid=0c2060d1-1ffb-4274-858f-ced2109fbc72","ios":"levelo://app?vid=0c2060d1-1ffb-4274-858f-ced2109fbc72"},"vehicle_type_id":"4","last_reported":1717258095,"current_range_meters":16000,"station_id":"ce4bhs12rcd13ifvqhvg","pricing_plan_id":"cebpf4jnsgd1na2vs0mg"},{"bike_id":"d454f7ba-9dbc-4bb9-a0ed-5439b79fa984","system_id":"levelo_inurba_marseille","lat":43.32486,"lon":5.36569,"is_reserved":false,"is_disabled":false,"rental_uris":{"android":"levelo://app?vid=d454f7ba-9dbc-4bb9-a0ed-5439b79fa984","ios":"levelo://app?vid=d454f7ba-9dbc-4bb9-a0ed-5439b79fa984"},"vehicle_type_id":"4","last_reported":1717258095,"current_range_meters":800,"station_id":"ce4bhs12rcd13ifvqhvg","pricing_plan_id":"cebpf4jnsgd1na2vs0mg"},{"bike_id":"0f424c36-2abc-4a43-bed2-69a8b26575a2","system_id":"levelo_inurba_marseille","lat":43.324771,"lon":5.36557,"is_reserved":false,"is_disabled":false,"rental_uris":{"android":"levelo://app?vid=0f424c36-2abc-4a43-bed2-69a8b26575a2","ios":"levelo://app?vid=0f424c36-2abc-4a43-bed2-69a8b26575a2"},"vehicle_type_id":"4","last_reported":1717258095,"current_range_meters":18000,"station_id":"ce4bhs12rcd13ifvqhvg","pricing_plan_id":"cebpf4jnsgd1na2vs0mg"},{"bike_id":"21463775-02f7-4afe-a479-b066c6e6aede","system_id":"levelo_inurba_marseille","lat":43.310804,"lon":5.38359,"is_reserved":false,"is_disabled":false,"rental_uris":{"android":"levelo://app?vid=21463775-02f7-4afe-a479-b066c6e6aede","ios":"levelo://app?vid=21463775-02f7-4afe-a479-b066c6e6aede"},"vehicle_type_id":"4","last_reported":1717258095,"current_range_meters":0,"station_id":"ce4bgv92rcd13ifvqcr0","pricing_plan_id":"cebpf4jnsgd1na2vs0mg"},{"bike_id":"e7b5d43e-79e3-471c-8dbb-1d88bd546cd5","system_id":"levelo_inurba_marseille","lat":43.3249,"lon":5.36561,"is_reserved":false,"is_disabled":false,"rental_uris":{"android":"levelo://app?vid=e7b5d43e-79e3-471c-8dbb-1d88bd546cd5","ios":"levelo://app?vid=e7b5d43e-79e3-471c-8dbb-1d88bd546cd5"},"vehicle_type_id":"4","last_reported":1717258095,"current_range_meters":15600,"station_id":"ce4bhs12rcd13ifvqhvg","pricing_plan_id":"cebpf4jnsgd1na2vs0mg"},{"bike_id":"e7c56465-d80e-4e03-86ed-715ef189ad8d","system_id":"levelo_inurba_marseille","lat":43.310804,"lon":5.38359,"is_reserved":false,"is_disabled":false,"rental_uris":{"android":"levelo://app?vid=e7c56465-d80e-4e03-86ed-715ef189ad8d","ios":"levelo://app?vid=e7c56465-d80e-4e03-86ed-715ef189ad8d"},"vehicle_type_id":"4","last_reported":1717258095,"current_range_meters":1200,"station_id":"ce4bgv92rcd13ifvqcr0","pricing_plan_id":"cebpf4jnsgd1na2vs0mg"},{"bike_id":"d88faca8-16f6-4296-9f35-2bfa51362680","system_id":"levelo_inurba_marseille","lat":43.302644,"lon":5.377114,"is_reserved":false,"is_disabled":false,"rental_uris":{"android":"levelo://app?vid=d88faca8-16f6-4296-9f35-2bfa51362680","ios":"levelo://app?vid=d88faca8-16f6-4296-9f35-2bfa51362680"},"vehicle_type_id":"4","last_reported":1717258095,"current_range_meters":0,"station_id":"ce4bguh2rcd13ifvqcj0","pricing_plan_id":"cebpf4jnsgd1na2vs0mg"},{"bike_id":"fba36964-7b11-4e6a-8721-ae3a9e7bed5f","system_id":"levelo_inurba_marseille","lat":43.319935,"lon":5.381699,"is_reserved":false,"is_disabled":false,"rental_uris":{"android":"levelo://app?vid=fba36964-7b11-4e6a-8721-ae3a9e7bed5f","ios":"levelo://app?vid=fba36964-7b11-4e6a-8721-ae3a9e7bed5f"},"vehicle_type_id":"4","last_reported":1717258095,"current_range_meters":18000,"station_id":"ce4bhr12rcd13ifvqhpg","pricing_plan_id":"cebpf4jnsgd1na2vs0mg"},{"bike_id":"d04fd5fb-b406-4e2e-8104-985e27b5e327","system_id":"levelo_inurba_marseille","lat":43.30046,"lon":5.37227,"is_reserved":false,"is_disabled":false,"rental_uris":{"android":"levelo://app?vid=d04fd5fb-b406-4e2e-8104-985e27b5e327","ios":"levelo://app?vid=d04fd5fb-b406-4e2e-8104-985e27b5e327"},"vehicle_type_id":"4","last_reported":1717258095,"current_range_meters":5200,"station_id":"","pricing_plan_id":"cebpf4jnsgd1na2vs0mg"},{"bike_id":"ab3e33df-9ca2-48e8-b2c4-602bc6c13f38","system_id":"levelo_inurba_marseille","lat":43.313571,"lon":5.384829,"is_reserved":false,"is_disabled":false,"rental_uris":{"android":"levelo://app?vid=ab3e33df-9ca2-48e8-b2c4-602bc6c13f38","ios":"levelo://app?vid=ab3e33df-9ca2-48e8-b2c4-602bc6c13f38"},"vehicle_type_id":"4","last_reported":1717258095,"current_range_meters":3600,"station_id":"ce4bgt92rcd13ifvqcf0","pricing_plan_id":"cebpf4jnsgd1na2vs0mg"},{"bike_id":"a1b324c3-4672-4178-8f46-8f15d360dea8","system_id":"levelo_inurba_marseille","lat":43.303277,"lon":5.379257,"is_reserved":false,"is_disabled":false,"rental_uris":{"android":"levelo://app?vid=a1b324c3-4672-4178-8f46-8f15d360dea8","ios":"levelo://app?vid=a1b324c3-4672-4178-8f46-8f15d360dea8"},"vehicle_type_id":"4","last_reported":1717258095,"current_range_meters":21600,"station_id":"","pricing_plan_id":"cebpf4jnsgd1na2vs0mg"},{"bike_id":"29f0931c-66f2-4fdc-ba60-433b9f7f253e","system_id":"levelo_inurba_marseille","lat":43.313571,"lon":5.384829,"is_reserved":false,"is_disabled":false,"rental_uris":{"android":"levelo://app?vid=29f0931c-66f2-4fdc-ba60-433b9f7f253e","ios":"levelo://app?vid=29f0931c-66f2-4fdc-ba60-433b9f7f253e"},"vehicle_type_id":"4","last_reported":1717258095,"current_range_meters":5200,"station_id":"ce4bgt92rcd13ifvqcf0","pricing_plan_id":"cebpf4jnsgd1na2vs0mg"},{"bike_id":"8bf73f2f-46ec-47c2-b878-2ab8d60f8e5f","system_id":"levelo_inurba_marseille","lat":43.313571,"lon":5.384829,"is_reserved":false,"is_disabled":false,"rental_uris":{"android":"levelo://app?vid=8bf73f2f-46ec-47c2-b878-2ab8d60f8e5f","ios":"levelo://app?vid=8bf73f2f-46ec-47c2-b878-2ab8d60f8e5f"},"vehicle_type_id":"4","last_reported":1717258095,"current_range_meters":1200,"station_id":"ce4bgt92rcd13ifvqcf0","pricing_plan_id":"cebpf4jnsgd1na2vs0mg"},{"bike_id":"f08005f9-d15e-41a6-b26a-094b8681fc1d","system_id":"levelo_inurba_marseille","lat":43.313571,"lon":5.384829,"is_reserved":false,"is_disabled":false,"rental_uris":{"android":"levelo://app?vid=f08005f9-d15e-41a6-b26a-094b8681fc1d","ios":"levelo://app?vid=f08005f9-d15e-41a6-b26a-094b8681fc1d"},"vehicle_type_id":"4","last_reported":1717258095,"current_range_meters":4000,"station_id":"ce4bgt92rcd13ifvqcf0","pricing_plan_id":"cebpf4jnsgd1na2vs0mg"},{"bike_id":"71db23b2-6aba-436f-97b8-4b8300e42654","system_id":"levelo_inurba_marseille","lat":43.313571,"lon":5.384829,"is_reserved":false,"is_disabled":false,"rental_uris":{"android":"levelo://app?vid=71db23b2-6aba-436f-97b8-4b8300e42654","ios":"levelo://app?vid=71db23b2-6aba-436f-97b8-4b8300e42654"},"vehicle_type_id":"4","last_reported":1717258095,"current_range_meters":10400,"station_id":"ce4bgt92rcd13ifvqcf0","pricing_plan_id":"cebpf4jnsgd1na2vs0mg"},{"bike_id":"1d06c284-9612-47db-ad4a-108a95ed0aae","system_id":"levelo_inurba_marseille","lat":43.313571,"lon":5.384829,"is_reserved":false,"is_disabled":false,"rental_uris":{"android":"levelo://app?vid=1d06c284-9612-47db-ad4a-108a95ed0aae","ios":"levelo://app?vid=1d06c284-9612-47db-ad4a-108a95ed0aae"},"vehicle_type_id":"4","last_reported":1717258095,"current_range_meters":30400,"station_id":"ce4bgt92rcd13ifvqcf0","pricing_plan_id":"cebpf4jnsgd1na2vs0mg"},{"bike_id":"ed7e85d1-cb73-4624-87e2-a6a9f757ed6c","system_id":"levelo_inurba_marseille","lat":43.313571,"lon":5.384829,"is_reserved":false,"is_disabled":false,"rental_uris":{"android":"levelo://app?vid=ed7e85d1-cb73-4624-87e2-a6a9f757ed6c","ios":"levelo://app?vid=ed7e85d1-cb73-4624-87e2-a6a9f757ed6c"},"vehicle_type_id":"4","last_reported":1717258095,"current_range_meters":8800,"station_id":"ce4bgt92rcd13ifvqcf0","pricing_plan_id":"cebpf4jnsgd1na2vs0mg"},{"bike_id":"d004ba36-6302-4e2f-9590-a92ff533fa07","system_id":"levelo_inurba_marseille","lat":43.299222,"lon":5.365554,"is_reserved":false,"is_disabled":false,"rental_uris":{"android":"levelo://app?vid=d004ba36-6302-4e2f-9590-a92ff533fa07","ios":"levelo://app?vid=d004ba36-6302-4e2f-9590-a92ff533fa07"},"vehicle_type_id":"4","last_reported":1717258095,"current_range_meters":16400,"station_id":"ce4bgm92rcd13ifvqbr0","pricing_plan_id":"cebpf4jnsgd1na2vs0mg"},{"bike_id":"7c0279c4-785e-41cc-9875-11b1aa5697b0","system_id":"levelo_inurba_marseille","lat":43.298433,"lon":5.362774,"is_reserved":false,"is_disabled":false,"rental_uris":{"android":"levelo://app?vid=7c0279c4-785e-41cc-9875-11b1aa5697b0","ios":"levelo://app?vid=7c0279c4-785e-41cc-9875-11b1aa5697b0"},"vehicle_type_id":"4","last_reported":1717258095,"current_range_meters":30000,"station_id":"ce4bgpp2rcd13ifvqc3g","pricing_plan_id":"cebpf4jnsgd1na2vs0mg"},{"bike_id":"7df24c99-db40-4693-85a9-42735514bf17","system_id":"levelo_inurba_marseille","lat":43.305364,"lon":5.384119,"is_reserved":false,"is_disabled":false,"rental_uris":{"android":"levelo://app?vid=7df24c99-db40-4693-85a9-42735514bf17","ios":"levelo://app?vid=7df24c99-db40-4693-85a9-42735514bf17"},"vehicle_type_id":"4","last_reported":1717258095,"current_range_meters":28000,"station_id":"ce4bgg92rcd13ifvqb30","pricing_plan_id":"cebpf4jnsgd1na2vs0mg"},{"bike_id":"8116e3c6-33d8-443a-a9b6-7c0b376536a1","system_id":"levelo_inurba_marseille","lat":43.298431,"lon":5.362951,"is_reserved":false,"is_disabled":false,"rental_uris":{"android":"levelo://app?vid=8116e3c6-33d8-443a-a9b6-7c0b376536a1","ios":"levelo://app?vid=8116e3c6-33d8-443a-a9b6-7c0b376536a1"},"vehicle_type_id":"4","last_reported":1717258095,"current_range_meters":0,"station_id":"ce4bgpp2rcd13ifvqc3g","pricing_plan_id":"cebpf4jnsgd1na2vs0mg"},{"bike_id":"8d04d9e1-3ecc-49dc-9ed8-badc5228bede","system_id":"levelo_inurba_marseille","lat":43.298433,"lon":5.362774,"is_reserved":false,"is_disabled":false,"rental_uris":{"android":"levelo://app?vid=8d04d9e1-3ecc-49dc-9ed8-badc5228bede","ios":"levelo://app?vid=8d04d9e1-3ecc-49dc-9ed8-badc5228bede"},"vehicle_type_id":"4","last_reported":1717258095,"current_range_meters":8800,"station_id":"ce4bgpp2rcd13ifvqc3g","pricing_plan_id":"cebpf4jnsgd1na2vs0mg"},{"bike_id":"cc3f9fa9-d1e4-4c35-91b0-75a727caab39","system_id":"levelo_inurba_marseille","lat":43.311722,"lon":5.387247,"is_reserved":false,"is_disabled":false,"rental_uris":{"android":"levelo://app?vid=cc3f9fa9-d1e4-4c35-91b0-75a727caab39","ios":"levelo://app?vid=cc3f9fa9-d1e4-4c35-91b0-75a727caab39"},"vehicle_type_id":"4","last_reported":1717258095,"current_range_meters":4800,"station_id":"ce4bgv12rcd13ifvqcp0","pricing_plan_id":"cebpf4jnsgd1na2vs0mg"},{"bike_id":"18705b48-0cda-4331-91c6-42e1628ad9a0","system_id":"levelo_inurba_marseille","lat":43.299243,"lon":5.37481,"is_reserved":false,"is_disabled":false,"rental_uris":{"android":"levelo://app?vid=18705b48-0cda-4331-91c6-42e1628ad9a0","ios":"levelo://app?vid=18705b48-0cda-4331-91c6-42e1628ad9a0"},"vehicle_type_id":"4","last_reported":1717258095,"current_range_meters":13200,"station_id":"ce4bgjh2rcd13ifvqbg0","pricing_plan_id":"cebpf4jnsgd1na2vs0mg"},{"bike_id":"47a44d85-94da-4cba-b158-ffd005ea6252","system_id":"levelo_inurba_marseille","lat":43.322872,"lon":5.382756,"is_reserved":false,"is_disabled":false,"rental_uris":{"android":"levelo://app?vid=47a44d85-94da-4cba-b158-ffd005ea6252","ios":"levelo://app?vid=47a44d85-94da-4cba-b158-ffd005ea6252"},"vehicle_type_id":"4","last_reported":1717258095,"current_range_meters":5200,"station_id":"ce4bhr12rcd13ifvqhqg","pricing_plan_id":"cebpf4jnsgd1na2vs0mg"},{"bike_id":"b3142d17-5205-41f1-b97a-ece0a01d821f","system_id":"levelo_inurba_marseille","lat":43.322872,"lon":5.382756,"is_reserved":false,"is_disabled":false,"rental_uris":{"android":"levelo://app?vid=b3142d17-5205-41f1-b97a-ece0a01d821f","ios":"levelo://app?vid=b3142d17-5205-41f1-b97a-ece0a01d821f"},"vehicle_type_id":"4","last_reported":1717258095,"current_range_meters":21200,"station_id":"ce4bhr12rcd13ifvqhqg","pricing_plan_id":"cebpf4jnsgd1na2vs0mg"},{"bike_id":"10fb4334-c940-4455-979b-d3f1ca32e262","system_id":"levelo_inurba_marseille","lat":43.297774,"lon":5.370875,"is_reserved":false,"is_disabled":false,"rental_uris":{"android":"levelo://app?vid=10fb4334-c940-4455-979b-d3f1ca32e262","ios":"levelo://app?vid=10fb4334-c940-4455-979b-d3f1ca32e262"},"vehicle_type_id":"4","last_reported":1717258095,"current_range_meters":29200,"station_id":"ce4bgop2rcd13ifvqc1g","pricing_plan_id":"cebpf4jnsgd1na2vs0mg"},{"bike_id":"6253c103-b357-4fd3-8253-5b66ead0207a","system_id":"levelo_inurba_marseille","lat":43.297889,"lon":5.371029,"is_reserved":false,"is_disabled":false,"rental_uris":{"android":"levelo://app?vid=6253c103-b357-4fd3-8253-5b66ead0207a","ios":"levelo://app?vid=6253c103-b357-4fd3-8253-5b66ead0207a"},"vehicle_type_id":"4","last_reported":1717258095,"current_range_meters":12000,"station_id":"","pricing_plan_id":"cebpf4jnsgd1na2vs0mg"},{"bike_id":"ad040ac0-c3ba-43b3-b70f-57e1b958b729","system_id":"levelo_inurba_marseille","lat":43.322872,"lon":5.382756,"is_reserved":false,"is_disabled":false,"rental_uris":{"android":"levelo://app?vid=ad040ac0-c3ba-43b3-b70f-57e1b958b729","ios":"levelo://app?vid=ad040ac0-c3ba-43b3-b70f-57e1b958b729"},"vehicle_type_id":"4","last_reported":1717258095,"current_range_meters":22400,"station_id":"ce4bhr12rcd13ifvqhqg","pricing_plan_id":"cebpf4jnsgd1na2vs0mg"},{"bike_id":"c8674664-0329-42f4-a28d-5fe68827d1fa","system_id":"levelo_inurba_marseille","lat":43.322872,"lon":5.382756,"is_reserved":false,"is_disabled":false,"rental_uris":{"android":"levelo://app?vid=c8674664-0329-42f4-a28d-5fe68827d1fa","ios":"levelo://app?vid=c8674664-0329-42f4-a28d-5fe68827d1fa"},"vehicle_type_id":"4","last_reported":1717258095,"current_range_meters":29200,"station_id":"ce4bhr12rcd13ifvqhqg","pricing_plan_id":"cebpf4jnsgd1na2vs0mg"},{"bike_id":"f27e3382-c395-4c0a-a760-e9e307454899","system_id":"levelo_inurba_marseille","lat":43.322872,"lon":5.382756,"is_reserved":false,"is_disabled":false,"rental_uris":{"android":"levelo://app?vid=f27e3382-c395-4c0a-a760-e9e307454899","ios":"levelo://app?vid=f27e3382-c395-4c0a-a760-e9e307454899"},"vehicle_type_id":"4","last_reported":1717258095,"current_range_meters":19200,"station_id":"ce4bhr12rcd13ifvqhqg","pricing_plan_id":"cebpf4jnsgd1na2vs0mg"},{"bike_id":"a6850727-00b1-4dd8-bb80-3e158c4e1090","system_id":"levelo_inurba_marseille","lat":43.322872,"lon":5.382756,"is_reserved":false,"is_disabled":false,"rental_uris":{"android":"levelo://app?vid=a6850727-00b1-4dd8-bb80-3e158c4e1090","ios":"levelo://app?vid=a6850727-00b1-4dd8-bb80-3e158c4e1090"},"vehicle_type_id":"4","last_reported":1717258095,"current_range_meters":31600,"station_id":"ce4bhr12rcd13ifvqhqg","pricing_plan_id":"cebpf4jnsgd1na2vs0mg"},{"bike_id":"a48a59ee-ee08-4a99-88c6-abd67d81a5ea","system_id":"levelo_inurba_marseille","lat":43.297229,"lon":5.359986,"is_reserved":false,"is_disabled":false,"rental_uris":{"android":"levelo://app?vid=a48a59ee-ee08-4a99-88c6-abd67d81a5ea","ios":"levelo://app?vid=a48a59ee-ee08-4a99-88c6-abd67d81a5ea"},"vehicle_type_id":"4","last_reported":1717258095,"current_range_meters":24400,"station_id":"","pricing_plan_id":"cebpf4jnsgd1na2vs0mg"},{"bike_id":"c0f89639-888c-4357-b7d7-88a2f8601708","system_id":"levelo_inurba_marseille","lat":43.296328,"lon":5.371801,"is_reserved":false,"is_disabled":false,"rental_uris":{"android":"levelo://app?vid=c0f89639-888c-4357-b7d7-88a2f8601708","ios":"levelo://app?vid=c0f89639-888c-4357-b7d7-88a2f8601708"},"vehicle_type_id":"4","last_reported":1717258095,"current_range_meters":0,"station_id":"ce4bgnh2rcd13ifvqc0g","pricing_plan_id":"cebpf4jnsgd1na2vs0mg"},{"bike_id":"781b5ec4-c46b-4fb7-be11-012bff764ffd","system_id":"levelo_inurba_marseille","lat":43.296129,"lon":5.370777,"is_reserved":false,"is_disabled":false,"rental_uris":{"android":"levelo://app?vid=781b5ec4-c46b-4fb7-be11-012bff764ffd","ios":"levelo://app?vid=781b5ec4-c46b-4fb7-be11-012bff764ffd"},"vehicle_type_id":"4","last_reported":1717258095,"current_range_meters":6000,"station_id":"ce4bgnh2rcd13ifvqc0g","pricing_plan_id":"cebpf4jnsgd1na2vs0mg"},{"bike_id":"e51108eb-275f-4ff3-8e0f-48daa1b089fb","system_id":"levelo_inurba_marseille","lat":43.29573,"lon":5.367355,"is_reserved":false,"is_disabled":false,"rental_uris":{"android":"levelo://app?vid=e51108eb-275f-4ff3-8e0f-48daa1b089fb","ios":"levelo://app?vid=e51108eb-275f-4ff3-8e0f-48daa1b089fb"},"vehicle_type_id":"4","last_reported":1717258095,"current_range_meters":0,"station_id":"ce4bgph2rcd13ifvqc2g","pricing_plan_id":"cebpf4jnsgd1na2vs0mg"},{"bike_id":"524b87a5-33aa-401a-bfd4-75fdc589c192","system_id":"levelo_inurba_marseille","lat":43.296129,"lon":5.370777,"is_reserved":false,"is_disabled":false,"rental_uris":{"android":"levelo://app?vid=524b87a5-33aa-401a-bfd4-75fdc589c192","ios":"levelo://app?vid=524b87a5-33aa-401a-bfd4-75fdc589c192"},"vehicle_type_id":"4","last_reported":1717258095,"current_range_meters":6000,"station_id":"ce4bgnh2rcd13ifvqc0g","pricing_plan_id":"cebpf4jnsgd1na2vs0mg"},{"bike_id":"a1a8ac39-c98a-4fb6-8335-82fa57f84434","system_id":"levelo_inurba_marseille","lat":43.29619,"lon":5.37165,"is_reserved":false,"is_disabled":false,"rental_uris":{"android":"levelo://app?vid=a1a8ac39-c98a-4fb6-8335-82fa57f84434","ios":"levelo://app?vid=a1a8ac39-c98a-4fb6-8335-82fa57f84434"},"vehicle_type_id":"4","last_reported":1717258095,"current_range_meters":16000,"station_id":"","pricing_plan_id":"cebpf4jnsgd1na2vs0mg"},{"bike_id":"a1ab6599-e200-4f77-a4d1-dabe689f7019","system_id":"levelo_inurba_marseille","lat":43.29581,"lon":5.3674,"is_reserved":false,"is_disabled":false,"rental_uris":{"android":"levelo://app?vid=a1ab6599-e200-4f77-a4d1-dabe689f7019","ios":"levelo://app?vid=a1ab6599-e200-4f77-a4d1-dabe689f7019"},"vehicle_type_id":"4","last_reported":1717258095,"current_range_meters":2800,"station_id":"","pricing_plan_id":"cebpf4jnsgd1na2vs0mg"},{"bike_id":"30b62ddb-cf51-46bf-a399-11b1feb60afd","system_id":"levelo_inurba_marseille","lat":43.299083,"lon":5.381355,"is_reserved":false,"is_disabled":false,"rental_uris":{"android":"levelo://app?vid=30b62ddb-cf51-46bf-a399-11b1feb60afd","ios":"levelo://app?vid=30b62ddb-cf51-46bf-a399-11b1feb60afd"},"vehicle_type_id":"4","last_reported":1717258095,"current_range_meters":0,"station_id":"ce4bgj12rcd13ifvqbc0","pricing_plan_id":"cebpf4jnsgd1na2vs0mg"},{"bike_id":"405516a7-5e7d-48af-b502-569991d6fc9b","system_id":"levelo_inurba_marseille","lat":43.309589,"lon":5.390258,"is_reserved":false,"is_disabled":false,"rental_uris":{"android":"levelo://app?vid=405516a7-5e7d-48af-b502-569991d6fc9b","ios":"levelo://app?vid=405516a7-5e7d-48af-b502-569991d6fc9b"},"vehicle_type_id":"4","last_reported":1717258095,"current_range_meters":0,"station_id":"ce4bgup2rcd13ifvqco0","pricing_plan_id":"cebpf4jnsgd1na2vs0mg"},{"bike_id":"cf398335-98db-4940-9184-fd281101984e","system_id":"levelo_inurba_marseille","lat":43.309603,"lon":5.390325,"is_reserved":false,"is_disabled":false,"rental_uris":{"android":"levelo://app?vid=cf398335-98db-4940-9184-fd281101984e","ios":"levelo://app?vid=cf398335-98db-4940-9184-fd281101984e"},"vehicle_type_id":"4","last_reported":1717258095,"current_range_meters":0,"station_id":"ce4bgup2rcd13ifvqco0","pricing_plan_id":"cebpf4jnsgd1na2vs0mg"},{"bike_id":"b3bb331d-ecc1-4cf6-a7e8-81159e6197fc","system_id":"levelo_inurba_marseille","lat":43.29541,"lon":5.36483,"is_reserved":false,"is_disabled":false,"rental_uris":{"android":"levelo://app?vid=b3bb331d-ecc1-4cf6-a7e8-81159e6197fc","ios":"levelo://app?vid=b3bb331d-ecc1-4cf6-a7e8-81159e6197fc"},"vehicle_type_id":"4","last_reported":1717258095,"current_range_meters":5600,"station_id":"","pricing_plan_id":"cebpf4jnsgd1na2vs0mg"},{"bike_id":"0abbd24e-5f1d-4496-a331-08c9dab518ba","system_id":"levelo_inurba_marseille","lat":43.317557,"lon":5.390173,"is_reserved":false,"is_disabled":false,"rental_uris":{"android":"levelo://app?vid=0abbd24e-5f1d-4496-a331-08c9dab518ba","ios":"levelo://app?vid=0abbd24e-5f1d-4496-a331-08c9dab518ba"},"vehicle_type_id":"4","last_reported":1717258095,"current_range_meters":0,"station_id":"ce4bhqp2rcd13ifvqhng","pricing_plan_id":"cebpf4jnsgd1na2vs0mg"},{"bike_id":"2e4235f4-beda-46e1-9d77-501f31fb0316","system_id":"levelo_inurba_marseille","lat":43.31759,"lon":5.39011,"is_reserved":false,"is_disabled":false,"rental_uris":{"android":"levelo://app?vid=2e4235f4-beda-46e1-9d77-501f31fb0316","ios":"levelo://app?vid=2e4235f4-beda-46e1-9d77-501f31fb0316"},"vehicle_type_id":"4","last_reported":1717258095,"current_range_meters":3600,"station_id":"ce4bhqp2rcd13ifvqhng","pricing_plan_id":"cebpf4jnsgd1na2vs0mg"},{"bike_id":"34865627-2c11-4e25-86ce-04d97e52c432","system_id":"levelo_inurba_marseille","lat":43.317557,"lon":5.390173,"is_reserved":false,"is_disabled":false,"rental_uris":{"android":"levelo://app?vid=34865627-2c11-4e25-86ce-04d97e52c432","ios":"levelo://app?vid=34865627-2c11-4e25-86ce-04d97e52c432"},"vehicle_type_id":"4","last_reported":1717258095,"current_range_meters":6400,"station_id":"ce4bhqp2rcd13ifvqhng","pricing_plan_id":"cebpf4jnsgd1na2vs0mg"},{"bike_id":"b89a8b39-ad72-4851-ad20-d85cad02d54b","system_id":"levelo_inurba_marseille","lat":43.304364,"lon":5.38867,"is_reserved":false,"is_disabled":false,"rental_uris":{"android":"levelo://app?vid=b89a8b39-ad72-4851-ad20-d85cad02d54b","ios":"levelo://app?vid=b89a8b39-ad72-4851-ad20-d85cad02d54b"},"vehicle_type_id":"4","last_reported":1717258095,"current_range_meters":0,"station_id":"","pricing_plan_id":"cebpf4jnsgd1na2vs0mg"},{"bike_id":"ed42c302-209b-4e6c-ae83-e7b7bf21e27e","system_id":"levelo_inurba_marseille","lat":43.304278,"lon":5.388868,"is_reserved":false,"is_disabled":false,"rental_uris":{"android":"levelo://app?vid=ed42c302-209b-4e6c-ae83-e7b7bf21e27e","ios":"levelo://app?vid=ed42c302-209b-4e6c-ae83-e7b7bf21e27e"},"vehicle_type_id":"4","last_reported":1717258095,"current_range_meters":2400,"station_id":"ce4bgk12rcd13ifvqbi0","pricing_plan_id":"cebpf4jnsgd1na2vs0mg"},{"bike_id":"e76c9efd-a6a6-4e61-8742-4d06f41eb264","system_id":"levelo_inurba_marseille","lat":43.304278,"lon":5.388868,"is_reserved":false,"is_disabled":false,"rental_uris":{"android":"levelo://app?vid=e76c9efd-a6a6-4e61-8742-4d06f41eb264","ios":"levelo://app?vid=e76c9efd-a6a6-4e61-8742-4d06f41eb264"},"vehicle_type_id":"4","last_reported":1717258095,"current_range_meters":1600,"station_id":"ce4bgk12rcd13ifvqbi0","pricing_plan_id":"cebpf4jnsgd1na2vs0mg"},{"bike_id":"aeb36cd4-055c-4443-be47-e4f90173b8af","system_id":"levelo_inurba_marseille","lat":43.298037,"lon":5.381066,"is_reserved":false,"is_disabled":false,"rental_uris":{"android":"levelo://app?vid=aeb36cd4-055c-4443-be47-e4f90173b8af","ios":"levelo://app?vid=aeb36cd4-055c-4443-be47-e4f90173b8af"},"vehicle_type_id":"4","last_reported":1717258095,"current_range_meters":23200,"station_id":"ce4bgip2rcd13ifvqbb0","pricing_plan_id":"cebpf4jnsgd1na2vs0mg"},{"bike_id":"5b89ffe5-25be-4a9a-a07e-a24e506fd9b7","system_id":"levelo_inurba_marseille","lat":43.304278,"lon":5.388868,"is_reserved":false,"is_disabled":false,"rental_uris":{"android":"levelo://app?vid=5b89ffe5-25be-4a9a-a07e-a24e506fd9b7","ios":"levelo://app?vid=5b89ffe5-25be-4a9a-a07e-a24e506fd9b7"},"vehicle_type_id":"4","last_reported":1717258095,"current_range_meters":21600,"station_id":"ce4bgk12rcd13ifvqbi0","pricing_plan_id":"cebpf4jnsgd1na2vs0mg"},{"bike_id":"a09986c0-21e9-421f-a2c1-709c9fd012ab","system_id":"levelo_inurba_marseille","lat":43.296223,"lon":5.377256,"is_reserved":false,"is_disabled":false,"rental_uris":{"android":"levelo://app?vid=a09986c0-21e9-421f-a2c1-709c9fd012ab","ios":"levelo://app?vid=a09986c0-21e9-421f-a2c1-709c9fd012ab"},"vehicle_type_id":"4","last_reported":1717258095,"current_range_meters":0,"station_id":"ce4bgi92rcd13ifvqb90","pricing_plan_id":"cebpf4jnsgd1na2vs0mg"},{"bike_id":"e6cfce3b-0d4b-40b1-98ba-94658602f03f","system_id":"levelo_inurba_marseille","lat":43.296561,"lon":5.378363,"is_reserved":false,"is_disabled":false,"rental_uris":{"android":"levelo://app?vid=e6cfce3b-0d4b-40b1-98ba-94658602f03f","ios":"levelo://app?vid=e6cfce3b-0d4b-40b1-98ba-94658602f03f"},"vehicle_type_id":"4","last_reported":1717258095,"current_range_meters":0,"station_id":"ce4bgi92rcd13ifvqb90","pricing_plan_id":"cebpf4jnsgd1na2vs0mg"},{"bike_id":"4efe2b7c-099e-4323-bfd1-826862270677","system_id":"levelo_inurba_marseille","lat":43.299707,"lon":5.384859,"is_reserved":false,"is_disabled":false,"rental_uris":{"android":"levelo://app?vid=4efe2b7c-099e-4323-bfd1-826862270677","ios":"levelo://app?vid=4efe2b7c-099e-4323-bfd1-826862270677"},"vehicle_type_id":"4","last_reported":1717258095,"current_range_meters":23600,"station_id":"ce4bgj92rcd13ifvqbd0","pricing_plan_id":"cebpf4jnsgd1na2vs0mg"},{"bike_id":"e6c754ad-b2f0-44cc-92ae-fe09cfe633ca","system_id":"levelo_inurba_marseille","lat":43.299707,"lon":5.384859,"is_reserved":false,"is_disabled":false,"rental_uris":{"android":"levelo://app?vid=e6c754ad-b2f0-44cc-92ae-fe09cfe633ca","ios":"levelo://app?vid=e6c754ad-b2f0-44cc-92ae-fe09cfe633ca"},"vehicle_type_id":"4","last_reported":1717258095,"current_range_meters":5200,"station_id":"ce4bgj92rcd13ifvqbd0","pricing_plan_id":"cebpf4jnsgd1na2vs0mg"},{"bike_id":"b3eb8486-ea41-4a12-b842-f7dbf437c612","system_id":"levelo_inurba_marseille","lat":43.299693,"lon":5.384856,"is_reserved":false,"is_disabled":false,"rental_uris":{"android":"levelo://app?vid=b3eb8486-ea41-4a12-b842-f7dbf437c612","ios":"levelo://app?vid=b3eb8486-ea41-4a12-b842-f7dbf437c612"},"vehicle_type_id":"4","last_reported":1717258095,"current_range_meters":0,"station_id":"ce4bgj92rcd13ifvqbd0","pricing_plan_id":"cebpf4jnsgd1na2vs0mg"},{"bike_id":"fa7babbe-9a7e-4000-a473-d20e64d6026a","system_id":"levelo_inurba_marseille","lat":43.299411,"lon":5.384878,"is_reserved":false,"is_disabled":false,"rental_uris":{"android":"levelo://app?vid=fa7babbe-9a7e-4000-a473-d20e64d6026a","ios":"levelo://app?vid=fa7babbe-9a7e-4000-a473-d20e64d6026a"},"vehicle_type_id":"4","last_reported":1717258095,"current_range_meters":6000,"station_id":"ce4bgj92rcd13ifvqbd0","pricing_plan_id":"cebpf4jnsgd1na2vs0mg"},{"bike_id":"d948cf71-dc70-47fc-ab32-d94b5343ea84","system_id":"levelo_inurba_marseille","lat":43.293009,"lon":5.374584,"is_reserved":false,"is_disabled":false,"rental_uris":{"android":"levelo://app?vid=d948cf71-dc70-47fc-ab32-d94b5343ea84","ios":"levelo://app?vid=d948cf71-dc70-47fc-ab32-d94b5343ea84"},"vehicle_type_id":"4","last_reported":1717258095,"current_range_meters":14800,"station_id":"ce4bgi12rcd13ifvqb70","pricing_plan_id":"cebpf4jnsgd1na2vs0mg"},{"bike_id":"d7a26e0e-eebc-4d6f-aff4-048c71965845","system_id":"levelo_inurba_marseille","lat":43.32363,"lon":5.38885,"is_reserved":false,"is_disabled":false,"rental_uris":{"android":"levelo://app?vid=d7a26e0e-eebc-4d6f-aff4-048c71965845","ios":"levelo://app?vid=d7a26e0e-eebc-4d6f-aff4-048c71965845"},"vehicle_type_id":"4","last_reported":1717258095,"current_range_meters":6800,"station_id":"ce4bhqp2rcd13ifvqhog","pricing_plan_id":"cebpf4jnsgd1na2vs0mg"},{"bike_id":"7b54e974-479c-4320-befe-669d18ca164c","system_id":"levelo_inurba_marseille","lat":43.32369,"lon":5.38888,"is_reserved":false,"is_disabled":false,"rental_uris":{"android":"levelo://app?vid=7b54e974-479c-4320-befe-669d18ca164c","ios":"levelo://app?vid=7b54e974-479c-4320-befe-669d18ca164c"},"vehicle_type_id":"4","last_reported":1717258095,"current_range_meters":14400,"station_id":"ce4bhqp2rcd13ifvqhog","pricing_plan_id":"cebpf4jnsgd1na2vs0mg"},{"bike_id":"de7a4eb3-a6d3-4dc8-846b-437480f27ce3","system_id":"levelo_inurba_marseille","lat":43.32367,"lon":5.388836,"is_reserved":false,"is_disabled":false,"rental_uris":{"android":"levelo://app?vid=de7a4eb3-a6d3-4dc8-846b-437480f27ce3","ios":"levelo://app?vid=de7a4eb3-a6d3-4dc8-846b-437480f27ce3"},"vehicle_type_id":"4","last_reported":1717258095,"current_range_meters":12400,"station_id":"ce4bhqp2rcd13ifvqhog","pricing_plan_id":"cebpf4jnsgd1na2vs0mg"},{"bike_id":"28f7a10c-5143-43ab-96e9-b89788cd169b","system_id":"levelo_inurba_marseille","lat":43.29367,"lon":5.37229,"is_reserved":false,"is_disabled":false,"rental_uris":{"android":"levelo://app?vid=28f7a10c-5143-43ab-96e9-b89788cd169b","ios":"levelo://app?vid=28f7a10c-5143-43ab-96e9-b89788cd169b"},"vehicle_type_id":"4","last_reported":1717258095,"current_range_meters":25200,"station_id":"","pricing_plan_id":"cebpf4jnsgd1na2vs0mg"},{"bike_id":"c8ce3d19-9b8c-4a24-9b62-8ec5c2825220","system_id":"levelo_inurba_marseille","lat":43.296028,"lon":5.380895,"is_reserved":false,"is_disabled":false,"rental_uris":{"android":"levelo://app?vid=c8ce3d19-9b8c-4a24-9b62-8ec5c2825220","ios":"levelo://app?vid=c8ce3d19-9b8c-4a24-9b62-8ec5c2825220"},"vehicle_type_id":"4","last_reported":1717258095,"current_range_meters":14800,"station_id":"ce4bgl12rcd13ifvqbo0","pricing_plan_id":"cebpf4jnsgd1na2vs0mg"},{"bike_id":"2aab4700-0838-4c01-b449-30cf2b565704","system_id":"levelo_inurba_marseille","lat":43.29606,"lon":5.38105,"is_reserved":false,"is_disabled":false,"rental_uris":{"android":"levelo://app?vid=2aab4700-0838-4c01-b449-30cf2b565704","ios":"levelo://app?vid=2aab4700-0838-4c01-b449-30cf2b565704"},"vehicle_type_id":"4","last_reported":1717258095,"current_range_meters":23600,"station_id":"ce4bgl12rcd13ifvqbo0","pricing_plan_id":"cebpf4jnsgd1na2vs0mg"},{"bike_id":"447f7332-0c59-4301-acc1-7e997748d1bd","system_id":"levelo_inurba_marseille","lat":43.29601,"lon":5.38112,"is_reserved":false,"is_disabled":false,"rental_uris":{"android":"levelo://app?vid=447f7332-0c59-4301-acc1-7e997748d1bd","ios":"levelo://app?vid=447f7332-0c59-4301-acc1-7e997748d1bd"},"vehicle_type_id":"4","last_reported":1717258095,"current_range_meters":4000,"station_id":"ce4bgl12rcd13ifvqbo0","pricing_plan_id":"cebpf4jnsgd1na2vs0mg"},{"bike_id":"9bd7a645-b32c-4a46-9dd2-73907d198b5c","system_id":"levelo_inurba_marseille","lat":43.29602,"lon":5.381084,"is_reserved":false,"is_disabled":false,"rental_uris":{"android":"levelo://app?vid=9bd7a645-b32c-4a46-9dd2-73907d198b5c","ios":"levelo://app?vid=9bd7a645-b32c-4a46-9dd2-73907d198b5c"},"vehicle_type_id":"4","last_reported":1717258095,"current_range_meters":1600,"station_id":"ce4bgl12rcd13ifvqbo0","pricing_plan_id":"cebpf4jnsgd1na2vs0mg"},{"bike_id":"0a909d7b-bbd5-4cad-9c87-47bda0b48ac2","system_id":"levelo_inurba_marseille","lat":43.293259,"lon":5.371586,"is_reserved":false,"is_disabled":false,"rental_uris":{"android":"levelo://app?vid=0a909d7b-bbd5-4cad-9c87-47bda0b48ac2","ios":"levelo://app?vid=0a909d7b-bbd5-4cad-9c87-47bda0b48ac2"},"vehicle_type_id":"4","last_reported":1717258095,"current_range_meters":20800,"station_id":"ce4bgh92rcd13ifvqb40","pricing_plan_id":"cebpf4jnsgd1na2vs0mg"},{"bike_id":"3a6cd945-df94-41d4-a8ac-9f3eeada2381","system_id":"levelo_inurba_marseille","lat":43.292899,"lon":5.368983,"is_reserved":false,"is_disabled":false,"rental_uris":{"android":"levelo://app?vid=3a6cd945-df94-41d4-a8ac-9f3eeada2381","ios":"levelo://app?vid=3a6cd945-df94-41d4-a8ac-9f3eeada2381"},"vehicle_type_id":"4","last_reported":1717258095,"current_range_meters":11200,"station_id":"ce4bhbp2rcd13ifvqesg","pricing_plan_id":"cebpf4jnsgd1na2vs0mg"},{"bike_id":"505b63b8-80ae-455d-a79c-cee9db4802e5","system_id":"levelo_inurba_marseille","lat":43.293249,"lon":5.371578,"is_reserved":false,"is_disabled":false,"rental_uris":{"android":"levelo://app?vid=505b63b8-80ae-455d-a79c-cee9db4802e5","ios":"levelo://app?vid=505b63b8-80ae-455d-a79c-cee9db4802e5"},"vehicle_type_id":"4","last_reported":1717258095,"current_range_meters":11600,"station_id":"ce4bgh92rcd13ifvqb40","pricing_plan_id":"cebpf4jnsgd1na2vs0mg"},{"bike_id":"e19c053c-9415-4cfb-af52-f63b11ec4c76","system_id":"levelo_inurba_marseille","lat":43.32367,"lon":5.388836,"is_reserved":false,"is_disabled":false,"rental_uris":{"android":"levelo://app?vid=e19c053c-9415-4cfb-af52-f63b11ec4c76","ios":"levelo://app?vid=e19c053c-9415-4cfb-af52-f63b11ec4c76"},"vehicle_type_id":"4","last_reported":1717258095,"current_range_meters":14400,"station_id":"ce4bhqp2rcd13ifvqhog","pricing_plan_id":"cebpf4jnsgd1na2vs0mg"},{"bike_id":"f759b4bf-173b-41ca-b4a2-5b11a3af3936","system_id":"levelo_inurba_marseille","lat":43.293249,"lon":5.371578,"is_reserved":false,"is_disabled":false,"rental_uris":{"android":"levelo://app?vid=f759b4bf-173b-41ca-b4a2-5b11a3af3936","ios":"levelo://app?vid=f759b4bf-173b-41ca-b4a2-5b11a3af3936"},"vehicle_type_id":"4","last_reported":1717258095,"current_range_meters":15600,"station_id":"ce4bgh92rcd13ifvqb40","pricing_plan_id":"cebpf4jnsgd1na2vs0mg"},{"bike_id":"3feb544c-a846-43b0-be96-b310ba6791c5","system_id":"levelo_inurba_marseille","lat":43.293249,"lon":5.371578,"is_reserved":false,"is_disabled":false,"rental_uris":{"android":"levelo://app?vid=3feb544c-a846-43b0-be96-b310ba6791c5","ios":"levelo://app?vid=3feb544c-a846-43b0-be96-b310ba6791c5"},"vehicle_type_id":"4","last_reported":1717258095,"current_range_meters":5600,"station_id":"ce4bgh92rcd13ifvqb40","pricing_plan_id":"cebpf4jnsgd1na2vs0mg"},{"bike_id":"75a8a73f-e850-475d-bbbe-70437d58dd1d","system_id":"levelo_inurba_marseille","lat":43.292821,"lon":5.368419,"is_reserved":false,"is_disabled":false,"rental_uris":{"android":"levelo://app?vid=75a8a73f-e850-475d-bbbe-70437d58dd1d","ios":"levelo://app?vid=75a8a73f-e850-475d-bbbe-70437d58dd1d"},"vehicle_type_id":"4","last_reported":1717258095,"current_range_meters":14800,"station_id":"ce4bhbp2rcd13ifvqesg","pricing_plan_id":"cebpf4jnsgd1na2vs0mg"},{"bike_id":"ab0e41f2-ea4a-4134-973c-2375135628c4","system_id":"levelo_inurba_marseille","lat":43.2928,"lon":5.36844,"is_reserved":false,"is_disabled":false,"rental_uris":{"android":"levelo://app?vid=ab0e41f2-ea4a-4134-973c-2375135628c4","ios":"levelo://app?vid=ab0e41f2-ea4a-4134-973c-2375135628c4"},"vehicle_type_id":"4","last_reported":1717258095,"current_range_meters":14000,"station_id":"ce4bhbp2rcd13ifvqesg","pricing_plan_id":"cebpf4jnsgd1na2vs0mg"},{"bike_id":"4097522d-f61b-4dda-823b-b1f566ab32c5","system_id":"levelo_inurba_marseille","lat":43.292796,"lon":5.368383,"is_reserved":false,"is_disabled":false,"rental_uris":{"android":"levelo://app?vid=4097522d-f61b-4dda-823b-b1f566ab32c5","ios":"levelo://app?vid=4097522d-f61b-4dda-823b-b1f566ab32c5"},"vehicle_type_id":"4","last_reported":1717258095,"current_range_meters":0,"station_id":"ce4bhbp2rcd13ifvqesg","pricing_plan_id":"cebpf4jnsgd1na2vs0mg"},{"bike_id":"4fe24a4a-e308-484b-8998-f6576084e079","system_id":"levelo_inurba_marseille","lat":43.292749,"lon":5.368402,"is_reserved":false,"is_disabled":false,"rental_uris":{"android":"levelo://app?vid=4fe24a4a-e308-484b-8998-f6576084e079","ios":"levelo://app?vid=4fe24a4a-e308-484b-8998-f6576084e079"},"vehicle_type_id":"4","last_reported":1717258095,"current_range_meters":13200,"station_id":"ce4bhbp2rcd13ifvqesg","pricing_plan_id":"cebpf4jnsgd1na2vs0mg"},{"bike_id":"5d9b3725-7407-4266-ae72-f50d6e33aa97","system_id":"levelo_inurba_marseille","lat":43.29305,"lon":5.37165,"is_reserved":false,"is_disabled":false,"rental_uris":{"android":"levelo://app?vid=5d9b3725-7407-4266-ae72-f50d6e33aa97","ios":"levelo://app?vid=5d9b3725-7407-4266-ae72-f50d6e33aa97"},"vehicle_type_id":"4","last_reported":1717258095,"current_range_meters":400,"station_id":"ce4bgh92rcd13ifvqb40","pricing_plan_id":"cebpf4jnsgd1na2vs0mg"},{"bike_id":"00533700-d095-4da4-b3ba-da77518feb5c","system_id":"levelo_inurba_marseille","lat":43.293249,"lon":5.371578,"is_reserved":false,"is_disabled":false,"rental_uris":{"android":"levelo://app?vid=00533700-d095-4da4-b3ba-da77518feb5c","ios":"levelo://app?vid=00533700-d095-4da4-b3ba-da77518feb5c"},"vehicle_type_id":"4","last_reported":1717258095,"current_range_meters":3600,"station_id":"ce4bgh92rcd13ifvqb40","pricing_plan_id":"cebpf4jnsgd1na2vs0mg"},{"bike_id":"6acac8a9-8fc8-488f-b0b9-e2c0fb18575c","system_id":"levelo_inurba_marseille","lat":43.29303,"lon":5.371584,"is_reserved":false,"is_disabled":false,"rental_uris":{"android":"levelo://app?vid=6acac8a9-8fc8-488f-b0b9-e2c0fb18575c","ios":"levelo://app?vid=6acac8a9-8fc8-488f-b0b9-e2c0fb18575c"},"vehicle_type_id":"4","last_reported":1717258095,"current_range_meters":5200,"station_id":"ce4bgh92rcd13ifvqb40","pricing_plan_id":"cebpf4jnsgd1na2vs0mg"},{"bike_id":"aadb6c7b-f174-4d27-aaed-4d7ce7b7f443","system_id":"levelo_inurba_marseille","lat":43.292769,"lon":5.368384,"is_reserved":false,"is_disabled":false,"rental_uris":{"android":"levelo://app?vid=aadb6c7b-f174-4d27-aaed-4d7ce7b7f443","ios":"levelo://app?vid=aadb6c7b-f174-4d27-aaed-4d7ce7b7f443"},"vehicle_type_id":"4","last_reported":1717258095,"current_range_meters":5600,"station_id":"ce4bhbp2rcd13ifvqesg","pricing_plan_id":"cebpf4jnsgd1na2vs0mg"},{"bike_id":"e1bdd281-40db-45a5-b135-466c7bdfd9be","system_id":"levelo_inurba_marseille","lat":43.292751,"lon":5.368474,"is_reserved":false,"is_disabled":false,"rental_uris":{"android":"levelo://app?vid=e1bdd281-40db-45a5-b135-466c7bdfd9be","ios":"levelo://app?vid=e1bdd281-40db-45a5-b135-466c7bdfd9be"},"vehicle_type_id":"4","last_reported":1717258095,"current_range_meters":0,"station_id":"ce4bhbp2rcd13ifvqesg","pricing_plan_id":"cebpf4jnsgd1na2vs0mg"},{"bike_id":"ea0981be-9a1f-4b83-845a-a8ec4f02bfaa","system_id":"levelo_inurba_marseille","lat":43.293259,"lon":5.371586,"is_reserved":false,"is_disabled":false,"rental_uris":{"android":"levelo://app?vid=ea0981be-9a1f-4b83-845a-a8ec4f02bfaa","ios":"levelo://app?vid=ea0981be-9a1f-4b83-845a-a8ec4f02bfaa"},"vehicle_type_id":"4","last_reported":1717258095,"current_range_meters":14400,"station_id":"ce4bgh92rcd13ifvqb40","pricing_plan_id":"cebpf4jnsgd1na2vs0mg"},{"bike_id":"abe598b7-5f17-4bcb-8637-a1c7294fda90","system_id":"levelo_inurba_marseille","lat":43.29302,"lon":5.3717,"is_reserved":false,"is_disabled":false,"rental_uris":{"android":"levelo://app?vid=abe598b7-5f17-4bcb-8637-a1c7294fda90","ios":"levelo://app?vid=abe598b7-5f17-4bcb-8637-a1c7294fda90"},"vehicle_type_id":"4","last_reported":1717258095,"current_range_meters":20000,"station_id":"ce4bgh92rcd13ifvqb40","pricing_plan_id":"cebpf4jnsgd1na2vs0mg"},{"bike_id":"7f4f768c-b986-483d-a31d-2e966a098105","system_id":"levelo_inurba_marseille","lat":43.29274,"lon":5.3684,"is_reserved":false,"is_disabled":false,"rental_uris":{"android":"levelo://app?vid=7f4f768c-b986-483d-a31d-2e966a098105","ios":"levelo://app?vid=7f4f768c-b986-483d-a31d-2e966a098105"},"vehicle_type_id":"4","last_reported":1717258095,"current_range_meters":14000,"station_id":"ce4bhbp2rcd13ifvqesg","pricing_plan_id":"cebpf4jnsgd1na2vs0mg"},{"bike_id":"35024a38-a447-4c3b-907a-e4b87139f4a2","system_id":"levelo_inurba_marseille","lat":43.292749,"lon":5.368402,"is_reserved":false,"is_disabled":false,"rental_uris":{"android":"levelo://app?vid=35024a38-a447-4c3b-907a-e4b87139f4a2","ios":"levelo://app?vid=35024a38-a447-4c3b-907a-e4b87139f4a2"},"vehicle_type_id":"4","last_reported":1717258095,"current_range_meters":19600,"station_id":"ce4bhbp2rcd13ifvqesg","pricing_plan_id":"cebpf4jnsgd1na2vs0mg"},{"bike_id":"85c6f4cb-c9f3-4add-a037-fe5b3df0f759","system_id":"levelo_inurba_marseille","lat":43.292749,"lon":5.368402,"is_reserved":false,"is_disabled":false,"rental_uris":{"android":"levelo://app?vid=85c6f4cb-c9f3-4add-a037-fe5b3df0f759","ios":"levelo://app?vid=85c6f4cb-c9f3-4add-a037-fe5b3df0f759"},"vehicle_type_id":"4","last_reported":1717258095,"current_range_meters":400,"station_id":"ce4bhbp2rcd13ifvqesg","pricing_plan_id":"cebpf4jnsgd1na2vs0mg"},{"bike_id":"1217666b-67fa-41dc-8163-695a87aed72d","system_id":"levelo_inurba_marseille","lat":43.292994,"lon":5.371726,"is_reserved":false,"is_disabled":false,"rental_uris":{"android":"levelo://app?vid=1217666b-67fa-41dc-8163-695a87aed72d","ios":"levelo://app?vid=1217666b-67fa-41dc-8163-695a87aed72d"},"vehicle_type_id":"4","last_reported":1717258095,"current_range_meters":17200,"station_id":"ce4bgh92rcd13ifvqb40","pricing_plan_id":"cebpf4jnsgd1na2vs0mg"},{"bike_id":"7a68598f-4504-46af-a168-02a509d355b5","system_id":"levelo_inurba_marseille","lat":43.293009,"lon":5.374584,"is_reserved":false,"is_disabled":false,"rental_uris":{"android":"levelo://app?vid=7a68598f-4504-46af-a168-02a509d355b5","ios":"levelo://app?vid=7a68598f-4504-46af-a168-02a509d355b5"},"vehicle_type_id":"4","last_reported":1717258095,"current_range_meters":0,"station_id":"ce4bgi12rcd13ifvqb70","pricing_plan_id":"cebpf4jnsgd1na2vs0mg"},{"bike_id":"98f9cddc-4793-4152-bafe-3f9ecc4aea18","system_id":"levelo_inurba_marseille","lat":43.305994,"lon":5.393687,"is_reserved":false,"is_disabled":false,"rental_uris":{"android":"levelo://app?vid=98f9cddc-4793-4152-bafe-3f9ecc4aea18","ios":"levelo://app?vid=98f9cddc-4793-4152-bafe-3f9ecc4aea18"},"vehicle_type_id":"4","last_reported":1717258095,"current_range_meters":18000,"station_id":"ce4bh0p2rcd13ifvqd80","pricing_plan_id":"cebpf4jnsgd1na2vs0mg"},{"bike_id":"37d5337a-fbbc-47a3-9ae7-7ce608864ec4","system_id":"levelo_inurba_marseille","lat":43.293009,"lon":5.374584,"is_reserved":false,"is_disabled":false,"rental_uris":{"android":"levelo://app?vid=37d5337a-fbbc-47a3-9ae7-7ce608864ec4","ios":"levelo://app?vid=37d5337a-fbbc-47a3-9ae7-7ce608864ec4"},"vehicle_type_id":"4","last_reported":1717258095,"current_range_meters":14000,"station_id":"ce4bgi12rcd13ifvqb70","pricing_plan_id":"cebpf4jnsgd1na2vs0mg"},{"bike_id":"a739377c-6218-48f4-a609-ceccfcdcf82e","system_id":"levelo_inurba_marseille","lat":43.305994,"lon":5.393687,"is_reserved":false,"is_disabled":false,"rental_uris":{"android":"levelo://app?vid=a739377c-6218-48f4-a609-ceccfcdcf82e","ios":"levelo://app?vid=a739377c-6218-48f4-a609-ceccfcdcf82e"},"vehicle_type_id":"4","last_reported":1717258095,"current_range_meters":13200,"station_id":"ce4bh0p2rcd13ifvqd80","pricing_plan_id":"cebpf4jnsgd1na2vs0mg"},{"bike_id":"1dd58914-fb1a-47a8-ac75-611ce17550ce","system_id":"levelo_inurba_marseille","lat":43.305994,"lon":5.393687,"is_reserved":false,"is_disabled":false,"rental_uris":{"android":"levelo://app?vid=1dd58914-fb1a-47a8-ac75-611ce17550ce","ios":"levelo://app?vid=1dd58914-fb1a-47a8-ac75-611ce17550ce"},"vehicle_type_id":"4","last_reported":1717258095,"current_range_meters":2400,"station_id":"ce4bh0p2rcd13ifvqd80","pricing_plan_id":"cebpf4jnsgd1na2vs0mg"},{"bike_id":"744d1902-fc31-4cce-835c-4c9e6f896bf7","system_id":"levelo_inurba_marseille","lat":43.303002,"lon":5.392142,"is_reserved":false,"is_disabled":false,"rental_uris":{"android":"levelo://app?vid=744d1902-fc31-4cce-835c-4c9e6f896bf7","ios":"levelo://app?vid=744d1902-fc31-4cce-835c-4c9e6f896bf7"},"vehicle_type_id":"4","last_reported":1717258095,"current_range_meters":1200,"station_id":"ce4bgkh2rcd13ifvqbk0","pricing_plan_id":"cebpf4jnsgd1na2vs0mg"},{"bike_id":"8e02a39e-e45b-4dc7-9550-9c7564456e79","system_id":"levelo_inurba_marseille","lat":43.2936,"lon":5.37835,"is_reserved":false,"is_disabled":false,"rental_uris":{"android":"levelo://app?vid=8e02a39e-e45b-4dc7-9550-9c7564456e79","ios":"levelo://app?vid=8e02a39e-e45b-4dc7-9550-9c7564456e79"},"vehicle_type_id":"4","last_reported":1717258095,"current_range_meters":6400,"station_id":"ce4bgjh2rcd13ifvqbf0","pricing_plan_id":"cebpf4jnsgd1na2vs0mg"},{"bike_id":"6319d498-394a-4ff4-8951-6e4ff4eb1a06","system_id":"levelo_inurba_marseille","lat":43.302992,"lon":5.392136,"is_reserved":false,"is_disabled":false,"rental_uris":{"android":"levelo://app?vid=6319d498-394a-4ff4-8951-6e4ff4eb1a06","ios":"levelo://app?vid=6319d498-394a-4ff4-8951-6e4ff4eb1a06"},"vehicle_type_id":"4","last_reported":1717258095,"current_range_meters":0,"station_id":"ce4bgkh2rcd13ifvqbk0","pricing_plan_id":"cebpf4jnsgd1na2vs0mg"},{"bike_id":"6ef7231e-a48a-4ace-bc5f-a61898a408c0","system_id":"levelo_inurba_marseille","lat":43.30085,"lon":5.390856,"is_reserved":false,"is_disabled":false,"rental_uris":{"android":"levelo://app?vid=6ef7231e-a48a-4ace-bc5f-a61898a408c0","ios":"levelo://app?vid=6ef7231e-a48a-4ace-bc5f-a61898a408c0"},"vehicle_type_id":"4","last_reported":1717258095,"current_range_meters":31200,"station_id":"ce4bh192rcd13ifvqdb0","pricing_plan_id":"cebpf4jnsgd1na2vs0mg"},{"bike_id":"a2ef642b-88e7-4c2e-b915-08bbfe018204","system_id":"levelo_inurba_marseille","lat":43.30085,"lon":5.390856,"is_reserved":false,"is_disabled":false,"rental_uris":{"android":"levelo://app?vid=a2ef642b-88e7-4c2e-b915-08bbfe018204","ios":"levelo://app?vid=a2ef642b-88e7-4c2e-b915-08bbfe018204"},"vehicle_type_id":"4","last_reported":1717258095,"current_range_meters":28400,"station_id":"ce4bh192rcd13ifvqdb0","pricing_plan_id":"cebpf4jnsgd1na2vs0mg"},{"bike_id":"a958aa63-6ab1-46c3-80c0-8e80ae792929","system_id":"levelo_inurba_marseille","lat":43.300988,"lon":5.390819,"is_reserved":false,"is_disabled":false,"rental_uris":{"android":"levelo://app?vid=a958aa63-6ab1-46c3-80c0-8e80ae792929","ios":"levelo://app?vid=a958aa63-6ab1-46c3-80c0-8e80ae792929"},"vehicle_type_id":"4","last_reported":1717258095,"current_range_meters":10400,"station_id":"ce4bh192rcd13ifvqdb0","pricing_plan_id":"cebpf4jnsgd1na2vs0mg"},{"bike_id":"65e1ab25-0a57-4e7d-b3a7-910b1d6fc639","system_id":"levelo_inurba_marseille","lat":43.30085,"lon":5.390856,"is_reserved":false,"is_disabled":false,"rental_uris":{"android":"levelo://app?vid=65e1ab25-0a57-4e7d-b3a7-910b1d6fc639","ios":"levelo://app?vid=65e1ab25-0a57-4e7d-b3a7-910b1d6fc639"},"vehicle_type_id":"4","last_reported":1717258095,"current_range_meters":31200,"station_id":"ce4bh192rcd13ifvqdb0","pricing_plan_id":"cebpf4jnsgd1na2vs0mg"},{"bike_id":"8b7f264f-29de-40cd-b820-9adf7334573b","system_id":"levelo_inurba_marseille","lat":43.295083,"lon":5.382679,"is_reserved":false,"is_disabled":false,"rental_uris":{"android":"levelo://app?vid=8b7f264f-29de-40cd-b820-9adf7334573b","ios":"levelo://app?vid=8b7f264f-29de-40cd-b820-9adf7334573b"},"vehicle_type_id":"4","last_reported":1717258095,"current_range_meters":10000,"station_id":"ce4bhhh2rcd13ifvqfk0","pricing_plan_id":"cebpf4jnsgd1na2vs0mg"},{"bike_id":"25721841-8e84-4cc6-894a-cdcb18ee1f11","system_id":"levelo_inurba_marseille","lat":43.298764,"lon":5.388973,"is_reserved":false,"is_disabled":false,"rental_uris":{"android":"levelo://app?vid=25721841-8e84-4cc6-894a-cdcb18ee1f11","ios":"levelo://app?vid=25721841-8e84-4cc6-894a-cdcb18ee1f11"},"vehicle_type_id":"4","last_reported":1717258095,"current_range_meters":4000,"station_id":"ce4bh392rcd13ifvqdl0","pricing_plan_id":"cebpf4jnsgd1na2vs0mg"},{"bike_id":"c608d20e-76bd-468e-8a1f-64c03a774ecc","system_id":"levelo_inurba_marseille","lat":43.2936,"lon":5.37835,"is_reserved":false,"is_disabled":false,"rental_uris":{"android":"levelo://app?vid=c608d20e-76bd-468e-8a1f-64c03a774ecc","ios":"levelo://app?vid=c608d20e-76bd-468e-8a1f-64c03a774ecc"},"vehicle_type_id":"4","last_reported":1717258095,"current_range_meters":30800,"station_id":"ce4bgjh2rcd13ifvqbf0","pricing_plan_id":"cebpf4jnsgd1na2vs0mg"},{"bike_id":"9e4fbc66-9951-4a2f-a5ed-49cb38c5a181","system_id":"levelo_inurba_marseille","lat":43.291675,"lon":5.371583,"is_reserved":false,"is_disabled":false,"rental_uris":{"android":"levelo://app?vid=9e4fbc66-9951-4a2f-a5ed-49cb38c5a181","ios":"levelo://app?vid=9e4fbc66-9951-4a2f-a5ed-49cb38c5a181"},"vehicle_type_id":"4","last_reported":1717258095,"current_range_meters":5600,"station_id":"ce4bha92rcd13ifvqeh0","pricing_plan_id":"cebpf4jnsgd1na2vs0mg"},{"bike_id":"4f6454a0-6b81-468b-9616-95293b68ad73","system_id":"levelo_inurba_marseille","lat":43.291986,"lon":5.358019,"is_reserved":false,"is_disabled":false,"rental_uris":{"android":"levelo://app?vid=4f6454a0-6b81-468b-9616-95293b68ad73","ios":"levelo://app?vid=4f6454a0-6b81-468b-9616-95293b68ad73"},"vehicle_type_id":"4","last_reported":1717258095,"current_range_meters":4400,"station_id":"ce4bhb12rcd13ifvqel0","pricing_plan_id":"cebpf4jnsgd1na2vs0mg"},{"bike_id":"abf5d807-ae76-4142-b08e-83cb2f817fb1","system_id":"levelo_inurba_marseille","lat":43.29191,"lon":5.35806,"is_reserved":false,"is_disabled":false,"rental_uris":{"android":"levelo://app?vid=abf5d807-ae76-4142-b08e-83cb2f817fb1","ios":"levelo://app?vid=abf5d807-ae76-4142-b08e-83cb2f817fb1"},"vehicle_type_id":"4","last_reported":1717258095,"current_range_meters":1200,"station_id":"ce4bhb12rcd13ifvqel0","pricing_plan_id":"cebpf4jnsgd1na2vs0mg"},{"bike_id":"4d3c82a3-c6c6-4d5c-a61a-301f82f9bcdc","system_id":"levelo_inurba_marseille","lat":43.313291,"lon":5.396838,"is_reserved":false,"is_disabled":false,"rental_uris":{"android":"levelo://app?vid=4d3c82a3-c6c6-4d5c-a61a-301f82f9bcdc","ios":"levelo://app?vid=4d3c82a3-c6c6-4d5c-a61a-301f82f9bcdc"},"vehicle_type_id":"4","last_reported":1717258095,"current_range_meters":28000,"station_id":"ce4bgvp2rcd13ifvqcu0","pricing_plan_id":"cebpf4jnsgd1na2vs0mg"},{"bike_id":"d0df0324-55f2-4eb4-97b2-39914b6c5164","system_id":"levelo_inurba_marseille","lat":43.313291,"lon":5.396838,"is_reserved":false,"is_disabled":false,"rental_uris":{"android":"levelo://app?vid=d0df0324-55f2-4eb4-97b2-39914b6c5164","ios":"levelo://app?vid=d0df0324-55f2-4eb4-97b2-39914b6c5164"},"vehicle_type_id":"4","last_reported":1717258095,"current_range_meters":10000,"station_id":"ce4bgvp2rcd13ifvqcu0","pricing_plan_id":"cebpf4jnsgd1na2vs0mg"},{"bike_id":"bacab90c-5630-46f3-b54c-255b66cb7188","system_id":"levelo_inurba_marseille","lat":43.309038,"lon":5.396546,"is_reserved":false,"is_disabled":false,"rental_uris":{"android":"levelo://app?vid=bacab90c-5630-46f3-b54c-255b66cb7188","ios":"levelo://app?vid=bacab90c-5630-46f3-b54c-255b66cb7188"},"vehicle_type_id":"4","last_reported":1717258095,"current_range_meters":400,"station_id":"ce4bh012rcd13ifvqcv0","pricing_plan_id":"cebpf4jnsgd1na2vs0mg"},{"bike_id":"2d05d5a0-a2ac-4205-b225-7137909a56fd","system_id":"levelo_inurba_marseille","lat":43.29529,"lon":5.385581,"is_reserved":false,"is_disabled":false,"rental_uris":{"android":"levelo://app?vid=2d05d5a0-a2ac-4205-b225-7137909a56fd","ios":"levelo://app?vid=2d05d5a0-a2ac-4205-b225-7137909a56fd"},"vehicle_type_id":"4","last_reported":1717258095,"current_range_meters":20000,"station_id":"ce4bgih2rcd13ifvqba0","pricing_plan_id":"cebpf4jnsgd1na2vs0mg"},{"bike_id":"7a763da2-afff-46ca-a5a4-722adee4e6dd","system_id":"levelo_inurba_marseille","lat":43.29529,"lon":5.385581,"is_reserved":false,"is_disabled":false,"rental_uris":{"android":"levelo://app?vid=7a763da2-afff-46ca-a5a4-722adee4e6dd","ios":"levelo://app?vid=7a763da2-afff-46ca-a5a4-722adee4e6dd"},"vehicle_type_id":"4","last_reported":1717258095,"current_range_meters":20800,"station_id":"ce4bgih2rcd13ifvqba0","pricing_plan_id":"cebpf4jnsgd1na2vs0mg"},{"bike_id":"ae7629a5-bf32-4ed7-8bc7-f971bdf490a5","system_id":"levelo_inurba_marseille","lat":43.290684,"lon":5.371606,"is_reserved":false,"is_disabled":false,"rental_uris":{"android":"levelo://app?vid=ae7629a5-bf32-4ed7-8bc7-f971bdf490a5","ios":"levelo://app?vid=ae7629a5-bf32-4ed7-8bc7-f971bdf490a5"},"vehicle_type_id":"4","last_reported":1717258095,"current_range_meters":0,"station_id":"ce4bh5p2rcd13ifvqe4g","pricing_plan_id":"cebpf4jnsgd1na2vs0mg"},{"bike_id":"988e9d3d-47ab-4c54-90b5-21f07d7dfdf9","system_id":"levelo_inurba_marseille","lat":43.29152,"lon":5.356815,"is_reserved":false,"is_disabled":false,"rental_uris":{"android":"levelo://app?vid=988e9d3d-47ab-4c54-90b5-21f07d7dfdf9","ios":"levelo://app?vid=988e9d3d-47ab-4c54-90b5-21f07d7dfdf9"},"vehicle_type_id":"4","last_reported":1717258095,"current_range_meters":19200,"station_id":"ce4bhbp2rcd13ifvqesg","pricing_plan_id":"cebpf4jnsgd1na2vs0mg"},{"bike_id":"243ca141-98da-4c36-b7c2-1b22135ad01e","system_id":"levelo_inurba_marseille","lat":43.290624,"lon":5.359245,"is_reserved":false,"is_disabled":false,"rental_uris":{"android":"levelo://app?vid=243ca141-98da-4c36-b7c2-1b22135ad01e","ios":"levelo://app?vid=243ca141-98da-4c36-b7c2-1b22135ad01e"},"vehicle_type_id":"4","last_reported":1717258095,"current_range_meters":18400,"station_id":"ce4bha92rcd13ifvqeg0","pricing_plan_id":"cebpf4jnsgd1na2vs0mg"},{"bike_id":"5dba5a0e-3c1b-405c-8f13-a40d63bb7dfa","system_id":"levelo_inurba_marseille","lat":43.294162,"lon":5.386292,"is_reserved":false,"is_disabled":false,"rental_uris":{"android":"levelo://app?vid=5dba5a0e-3c1b-405c-8f13-a40d63bb7dfa","ios":"levelo://app?vid=5dba5a0e-3c1b-405c-8f13-a40d63bb7dfa"},"vehicle_type_id":"4","last_reported":1717258095,"current_range_meters":6800,"station_id":"ce4bh2h2rcd13ifvqdh0","pricing_plan_id":"cebpf4jnsgd1na2vs0mg"},{"bike_id":"9eb4396b-2c54-4614-ba88-78717bd93cf2","system_id":"levelo_inurba_marseille","lat":43.289184,"lon":5.366408,"is_reserved":false,"is_disabled":false,"rental_uris":{"android":"levelo://app?vid=9eb4396b-2c54-4614-ba88-78717bd93cf2","ios":"levelo://app?vid=9eb4396b-2c54-4614-ba88-78717bd93cf2"},"vehicle_type_id":"4","last_reported":1717258095,"current_range_meters":30400,"station_id":"ce4bhap2rcd13ifvqek0","pricing_plan_id":"cebpf4jnsgd1na2vs0mg"},{"bike_id":"178f805d-30bf-49b0-84d7-5949c9db644f","system_id":"levelo_inurba_marseille","lat":43.294162,"lon":5.386292,"is_reserved":false,"is_disabled":false,"rental_uris":{"android":"levelo://app?vid=178f805d-30bf-49b0-84d7-5949c9db644f","ios":"levelo://app?vid=178f805d-30bf-49b0-84d7-5949c9db644f"},"vehicle_type_id":"4","last_reported":1717258095,"current_range_meters":18800,"station_id":"ce4bh2h2rcd13ifvqdh0","pricing_plan_id":"cebpf4jnsgd1na2vs0mg"},{"bike_id":"7cb629b7-b0de-483e-9a29-f0f2c6e9e4c6","system_id":"levelo_inurba_marseille","lat":43.294162,"lon":5.386292,"is_reserved":false,"is_disabled":false,"rental_uris":{"android":"levelo://app?vid=7cb629b7-b0de-483e-9a29-f0f2c6e9e4c6","ios":"levelo://app?vid=7cb629b7-b0de-483e-9a29-f0f2c6e9e4c6"},"vehicle_type_id":"4","last_reported":1717258095,"current_range_meters":0,"station_id":"ce4bh2h2rcd13ifvqdh0","pricing_plan_id":"cebpf4jnsgd1na2vs0mg"},{"bike_id":"c795383c-6b25-4cf1-bb67-9192cd94f56b","system_id":"levelo_inurba_marseille","lat":43.290319,"lon":5.375732,"is_reserved":false,"is_disabled":false,"rental_uris":{"android":"levelo://app?vid=c795383c-6b25-4cf1-bb67-9192cd94f56b","ios":"levelo://app?vid=c795383c-6b25-4cf1-bb67-9192cd94f56b"},"vehicle_type_id":"4","last_reported":1717258095,"current_range_meters":800,"station_id":"ce4bh692rcd13ifvqe90","pricing_plan_id":"cebpf4jnsgd1na2vs0mg"},{"bike_id":"08b8c484-13f4-434d-b55c-3a5c428a28fe","system_id":"levelo_inurba_marseille","lat":43.29416,"lon":5.38622,"is_reserved":false,"is_disabled":false,"rental_uris":{"android":"levelo://app?vid=08b8c484-13f4-434d-b55c-3a5c428a28fe","ios":"levelo://app?vid=08b8c484-13f4-434d-b55c-3a5c428a28fe"},"vehicle_type_id":"4","last_reported":1717258095,"current_range_meters":14000,"station_id":"ce4bh2h2rcd13ifvqdh0","pricing_plan_id":"cebpf4jnsgd1na2vs0mg"},{"bike_id":"24bd7b27-337f-419f-841f-63e282ce0c3c","system_id":"levelo_inurba_marseille","lat":43.290319,"lon":5.375732,"is_reserved":false,"is_disabled":false,"rental_uris":{"android":"levelo://app?vid=24bd7b27-337f-419f-841f-63e282ce0c3c","ios":"levelo://app?vid=24bd7b27-337f-419f-841f-63e282ce0c3c"},"vehicle_type_id":"4","last_reported":1717258095,"current_range_meters":2800,"station_id":"ce4bh692rcd13ifvqe90","pricing_plan_id":"cebpf4jnsgd1na2vs0mg"},{"bike_id":"b34a3146-8805-47ca-a92d-31d023c52ccd","system_id":"levelo_inurba_marseille","lat":43.290319,"lon":5.375732,"is_reserved":false,"is_disabled":false,"rental_uris":{"android":"levelo://app?vid=b34a3146-8805-47ca-a92d-31d023c52ccd","ios":"levelo://app?vid=b34a3146-8805-47ca-a92d-31d023c52ccd"},"vehicle_type_id":"4","last_reported":1717258095,"current_range_meters":26800,"station_id":"ce4bh692rcd13ifvqe90","pricing_plan_id":"cebpf4jnsgd1na2vs0mg"},{"bike_id":"2a874bac-98dc-4447-9858-edf534f33d63","system_id":"levelo_inurba_marseille","lat":43.294168,"lon":5.386278,"is_reserved":false,"is_disabled":false,"rental_uris":{"android":"levelo://app?vid=2a874bac-98dc-4447-9858-edf534f33d63","ios":"levelo://app?vid=2a874bac-98dc-4447-9858-edf534f33d63"},"vehicle_type_id":"4","last_reported":1717258095,"current_range_meters":0,"station_id":"ce4bh2h2rcd13ifvqdh0","pricing_plan_id":"cebpf4jnsgd1na2vs0mg"},{"bike_id":"28767b27-2587-49e9-82ad-905ce6249d94","system_id":"levelo_inurba_marseille","lat":43.294162,"lon":5.386292,"is_reserved":false,"is_disabled":false,"rental_uris":{"android":"levelo://app?vid=28767b27-2587-49e9-82ad-905ce6249d94","ios":"levelo://app?vid=28767b27-2587-49e9-82ad-905ce6249d94"},"vehicle_type_id":"4","last_reported":1717258095,"current_range_meters":3200,"station_id":"ce4bh2h2rcd13ifvqdh0","pricing_plan_id":"cebpf4jnsgd1na2vs0mg"},{"bike_id":"909faa2f-97ad-46be-b7f6-24d5649cc8c4","system_id":"levelo_inurba_marseille","lat":43.294162,"lon":5.386292,"is_reserved":false,"is_disabled":false,"rental_uris":{"android":"levelo://app?vid=909faa2f-97ad-46be-b7f6-24d5649cc8c4","ios":"levelo://app?vid=909faa2f-97ad-46be-b7f6-24d5649cc8c4"},"vehicle_type_id":"4","last_reported":1717258095,"current_range_meters":6400,"station_id":"ce4bh2h2rcd13ifvqdh0","pricing_plan_id":"cebpf4jnsgd1na2vs0mg"},{"bike_id":"946babd1-077b-489e-9a9e-24208b073bf3","system_id":"levelo_inurba_marseille","lat":43.294162,"lon":5.386292,"is_reserved":false,"is_disabled":false,"rental_uris":{"android":"levelo://app?vid=946babd1-077b-489e-9a9e-24208b073bf3","ios":"levelo://app?vid=946babd1-077b-489e-9a9e-24208b073bf3"},"vehicle_type_id":"4","last_reported":1717258095,"current_range_meters":10000,"station_id":"ce4bh2h2rcd13ifvqdh0","pricing_plan_id":"cebpf4jnsgd1na2vs0mg"},{"bike_id":"2184af04-9779-49cc-917c-4e1210f850fb","system_id":"levelo_inurba_marseille","lat":43.294119,"lon":5.386272,"is_reserved":false,"is_disabled":false,"rental_uris":{"android":"levelo://app?vid=2184af04-9779-49cc-917c-4e1210f850fb","ios":"levelo://app?vid=2184af04-9779-49cc-917c-4e1210f850fb"},"vehicle_type_id":"4","last_reported":1717258095,"current_range_meters":1200,"station_id":"ce4bh2h2rcd13ifvqdh0","pricing_plan_id":"cebpf4jnsgd1na2vs0mg"},{"bike_id":"f06d2fe8-9790-45bd-b82f-582e60d3fca8","system_id":"levelo_inurba_marseille","lat":43.28937,"lon":5.36634,"is_reserved":false,"is_disabled":false,"rental_uris":{"android":"levelo://app?vid=f06d2fe8-9790-45bd-b82f-582e60d3fca8","ios":"levelo://app?vid=f06d2fe8-9790-45bd-b82f-582e60d3fca8"},"vehicle_type_id":"4","last_reported":1717258095,"current_range_meters":22400,"station_id":"ce4bhap2rcd13ifvqek0","pricing_plan_id":"cebpf4jnsgd1na2vs0mg"},{"bike_id":"cd8fe720-2e4e-453d-95e5-a330c111eb21","system_id":"levelo_inurba_marseille","lat":43.289184,"lon":5.366408,"is_reserved":false,"is_disabled":false,"rental_uris":{"android":"levelo://app?vid=cd8fe720-2e4e-453d-95e5-a330c111eb21","ios":"levelo://app?vid=cd8fe720-2e4e-453d-95e5-a330c111eb21"},"vehicle_type_id":"4","last_reported":1717258095,"current_range_meters":0,"station_id":"ce4bhap2rcd13ifvqek0","pricing_plan_id":"cebpf4jnsgd1na2vs0mg"},{"bike_id":"7d9a067b-5707-49ce-868a-14cdd4232dfb","system_id":"levelo_inurba_marseille","lat":43.289184,"lon":5.366408,"is_reserved":false,"is_disabled":false,"rental_uris":{"android":"levelo://app?vid=7d9a067b-5707-49ce-868a-14cdd4232dfb","ios":"levelo://app?vid=7d9a067b-5707-49ce-868a-14cdd4232dfb"},"vehicle_type_id":"4","last_reported":1717258095,"current_range_meters":3200,"station_id":"ce4bhap2rcd13ifvqek0","pricing_plan_id":"cebpf4jnsgd1na2vs0mg"},{"bike_id":"a64ad403-adad-4ff9-b064-0df479875029","system_id":"levelo_inurba_marseille","lat":43.289184,"lon":5.366408,"is_reserved":false,"is_disabled":false,"rental_uris":{"android":"levelo://app?vid=a64ad403-adad-4ff9-b064-0df479875029","ios":"levelo://app?vid=a64ad403-adad-4ff9-b064-0df479875029"},"vehicle_type_id":"4","last_reported":1717258095,"current_range_meters":9200,"station_id":"ce4bhap2rcd13ifvqek0","pricing_plan_id":"cebpf4jnsgd1na2vs0mg"},{"bike_id":"9e66cae7-f622-416f-b2d6-dd8d4d83a52a","system_id":"levelo_inurba_marseille","lat":43.293858,"lon":5.386171,"is_reserved":false,"is_disabled":false,"rental_uris":{"android":"levelo://app?vid=9e66cae7-f622-416f-b2d6-dd8d4d83a52a","ios":"levelo://app?vid=9e66cae7-f622-416f-b2d6-dd8d4d83a52a"},"vehicle_type_id":"4","last_reported":1717258095,"current_range_meters":400,"station_id":"ce4bh2h2rcd13ifvqdh0","pricing_plan_id":"cebpf4jnsgd1na2vs0mg"},{"bike_id":"13053c5c-fd1b-45f0-a08d-2d155f8ffeb4","system_id":"levelo_inurba_marseille","lat":43.292715,"lon":5.384415,"is_reserved":false,"is_disabled":false,"rental_uris":{"android":"levelo://app?vid=13053c5c-fd1b-45f0-a08d-2d155f8ffeb4","ios":"levelo://app?vid=13053c5c-fd1b-45f0-a08d-2d155f8ffeb4"},"vehicle_type_id":"4","last_reported":1717258095,"current_range_meters":0,"station_id":"ce4bh692rcd13ifvqea0","pricing_plan_id":"cebpf4jnsgd1na2vs0mg"},{"bike_id":"5a09b5cc-f6b7-4377-a728-d7d43da9d69d","system_id":"levelo_inurba_marseille","lat":43.292642,"lon":5.384254,"is_reserved":false,"is_disabled":false,"rental_uris":{"android":"levelo://app?vid=5a09b5cc-f6b7-4377-a728-d7d43da9d69d","ios":"levelo://app?vid=5a09b5cc-f6b7-4377-a728-d7d43da9d69d"},"vehicle_type_id":"4","last_reported":1717258095,"current_range_meters":7200,"station_id":"ce4bh692rcd13ifvqea0","pricing_plan_id":"cebpf4jnsgd1na2vs0mg"},{"bike_id":"06cffa30-ac37-4748-ba6d-a27f0b2ee3ce","system_id":"levelo_inurba_marseille","lat":43.292644,"lon":5.384257,"is_reserved":false,"is_disabled":false,"rental_uris":{"android":"levelo://app?vid=06cffa30-ac37-4748-ba6d-a27f0b2ee3ce","ios":"levelo://app?vid=06cffa30-ac37-4748-ba6d-a27f0b2ee3ce"},"vehicle_type_id":"4","last_reported":1717258095,"current_range_meters":25200,"station_id":"ce4bh692rcd13ifvqea0","pricing_plan_id":"cebpf4jnsgd1na2vs0mg"},{"bike_id":"4abdcf48-3a59-47f3-b9a2-6d88b853eb6d","system_id":"levelo_inurba_marseille","lat":43.292642,"lon":5.384254,"is_reserved":false,"is_disabled":false,"rental_uris":{"android":"levelo://app?vid=4abdcf48-3a59-47f3-b9a2-6d88b853eb6d","ios":"levelo://app?vid=4abdcf48-3a59-47f3-b9a2-6d88b853eb6d"},"vehicle_type_id":"4","last_reported":1717258095,"current_range_meters":18000,"station_id":"ce4bh692rcd13ifvqea0","pricing_plan_id":"cebpf4jnsgd1na2vs0mg"},{"bike_id":"f4cc21e5-71f2-43b0-9ef4-40e904e0169b","system_id":"levelo_inurba_marseille","lat":43.292642,"lon":5.384254,"is_reserved":false,"is_disabled":false,"rental_uris":{"android":"levelo://app?vid=f4cc21e5-71f2-43b0-9ef4-40e904e0169b","ios":"levelo://app?vid=f4cc21e5-71f2-43b0-9ef4-40e904e0169b"},"vehicle_type_id":"4","last_reported":1717258095,"current_range_meters":22800,"station_id":"ce4bh692rcd13ifvqea0","pricing_plan_id":"cebpf4jnsgd1na2vs0mg"},{"bike_id":"9e0907cb-ca43-488b-acd4-3e2b8b1a7ba4","system_id":"levelo_inurba_marseille","lat":43.292644,"lon":5.384257,"is_reserved":false,"is_disabled":false,"rental_uris":{"android":"levelo://app?vid=9e0907cb-ca43-488b-acd4-3e2b8b1a7ba4","ios":"levelo://app?vid=9e0907cb-ca43-488b-acd4-3e2b8b1a7ba4"},"vehicle_type_id":"4","last_reported":1717258095,"current_range_meters":12400,"station_id":"ce4bh692rcd13ifvqea0","pricing_plan_id":"cebpf4jnsgd1na2vs0mg"},{"bike_id":"f007bdb7-d5fb-4927-a1ad-dbbc2d00d692","system_id":"levelo_inurba_marseille","lat":43.290103,"lon":5.356161,"is_reserved":false,"is_disabled":false,"rental_uris":{"android":"levelo://app?vid=f007bdb7-d5fb-4927-a1ad-dbbc2d00d692","ios":"levelo://app?vid=f007bdb7-d5fb-4927-a1ad-dbbc2d00d692"},"vehicle_type_id":"4","last_reported":1717258095,"current_range_meters":20800,"station_id":"ce4bhb92rcd13ifvqen0","pricing_plan_id":"cebpf4jnsgd1na2vs0mg"},{"bike_id":"29702f4d-600b-4732-805f-9f9b605d7d2d","system_id":"levelo_inurba_marseille","lat":43.290995,"lon":5.381361,"is_reserved":false,"is_disabled":false,"rental_uris":{"android":"levelo://app?vid=29702f4d-600b-4732-805f-9f9b605d7d2d","ios":"levelo://app?vid=29702f4d-600b-4732-805f-9f9b605d7d2d"},"vehicle_type_id":"4","last_reported":1717258095,"current_range_meters":17600,"station_id":"ce4bh512rcd13ifvqe2g","pricing_plan_id":"cebpf4jnsgd1na2vs0mg"},{"bike_id":"c191dad3-3321-4c1d-94fd-e4a05e17b4c8","system_id":"levelo_inurba_marseille","lat":43.290995,"lon":5.381361,"is_reserved":false,"is_disabled":false,"rental_uris":{"android":"levelo://app?vid=c191dad3-3321-4c1d-94fd-e4a05e17b4c8","ios":"levelo://app?vid=c191dad3-3321-4c1d-94fd-e4a05e17b4c8"},"vehicle_type_id":"4","last_reported":1717258095,"current_range_meters":13200,"station_id":"ce4bh512rcd13ifvqe2g","pricing_plan_id":"cebpf4jnsgd1na2vs0mg"},{"bike_id":"6d13fbbc-db7c-475a-ae65-b56bfe29f4b6","system_id":"levelo_inurba_marseille","lat":43.297815,"lon":5.393548,"is_reserved":false,"is_disabled":false,"rental_uris":{"android":"levelo://app?vid=6d13fbbc-db7c-475a-ae65-b56bfe29f4b6","ios":"levelo://app?vid=6d13fbbc-db7c-475a-ae65-b56bfe29f4b6"},"vehicle_type_id":"4","last_reported":1717258095,"current_range_meters":19200,"station_id":"chh1huq6cuj3fo74tm60","pricing_plan_id":"cebpf4jnsgd1na2vs0mg"},{"bike_id":"b3028871-c850-407d-a2c8-e4e0a2673ca2","system_id":"levelo_inurba_marseille","lat":43.289743,"lon":5.378304,"is_reserved":false,"is_disabled":false,"rental_uris":{"android":"levelo://app?vid=b3028871-c850-407d-a2c8-e4e0a2673ca2","ios":"levelo://app?vid=b3028871-c850-407d-a2c8-e4e0a2673ca2"},"vehicle_type_id":"4","last_reported":1717258095,"current_range_meters":0,"station_id":"ce4bh9p2rcd13ifvqed0","pricing_plan_id":"cebpf4jnsgd1na2vs0mg"},{"bike_id":"bcbc3d88-4368-4873-830d-82af75094385","system_id":"levelo_inurba_marseille","lat":43.330442,"lon":5.389148,"is_reserved":false,"is_disabled":false,"rental_uris":{"android":"levelo://app?vid=bcbc3d88-4368-4873-830d-82af75094385","ios":"levelo://app?vid=bcbc3d88-4368-4873-830d-82af75094385"},"vehicle_type_id":"4","last_reported":1717258095,"current_range_meters":0,"station_id":"ce4bhr92rcd13ifvqhrg","pricing_plan_id":"cebpf4jnsgd1na2vs0mg"},{"bike_id":"48a0461d-7b7c-4a83-80d4-7d73b702a511","system_id":"levelo_inurba_marseille","lat":43.289743,"lon":5.378304,"is_reserved":false,"is_disabled":false,"rental_uris":{"android":"levelo://app?vid=48a0461d-7b7c-4a83-80d4-7d73b702a511","ios":"levelo://app?vid=48a0461d-7b7c-4a83-80d4-7d73b702a511"},"vehicle_type_id":"4","last_reported":1717258095,"current_range_meters":800,"station_id":"ce4bh9p2rcd13ifvqed0","pricing_plan_id":"cebpf4jnsgd1na2vs0mg"},{"bike_id":"4048eaec-2ef4-4889-b67a-4f6ec852ebb2","system_id":"levelo_inurba_marseille","lat":43.330442,"lon":5.389148,"is_reserved":false,"is_disabled":false,"rental_uris":{"android":"levelo://app?vid=4048eaec-2ef4-4889-b67a-4f6ec852ebb2","ios":"levelo://app?vid=4048eaec-2ef4-4889-b67a-4f6ec852ebb2"},"vehicle_type_id":"4","last_reported":1717258095,"current_range_meters":18400,"station_id":"ce4bhr92rcd13ifvqhrg","pricing_plan_id":"cebpf4jnsgd1na2vs0mg"},{"bike_id":"4136dd21-5666-4862-8e46-fbff077af135","system_id":"levelo_inurba_marseille","lat":43.295169,"lon":5.390426,"is_reserved":false,"is_disabled":false,"rental_uris":{"android":"levelo://app?vid=4136dd21-5666-4862-8e46-fbff077af135","ios":"levelo://app?vid=4136dd21-5666-4862-8e46-fbff077af135"},"vehicle_type_id":"4","last_reported":1717258095,"current_range_meters":8000,"station_id":"ce4bh3p2rcd13ifvqdp0","pricing_plan_id":"cebpf4jnsgd1na2vs0mg"},{"bike_id":"7f4a3956-c2e8-41af-bf95-2c54e6b43090","system_id":"levelo_inurba_marseille","lat":43.330442,"lon":5.389148,"is_reserved":false,"is_disabled":false,"rental_uris":{"android":"levelo://app?vid=7f4a3956-c2e8-41af-bf95-2c54e6b43090","ios":"levelo://app?vid=7f4a3956-c2e8-41af-bf95-2c54e6b43090"},"vehicle_type_id":"4","last_reported":1717258095,"current_range_meters":18400,"station_id":"ce4bhr92rcd13ifvqhrg","pricing_plan_id":"cebpf4jnsgd1na2vs0mg"},{"bike_id":"8e100da6-5d07-48f7-8f54-85a6e2cede55","system_id":"levelo_inurba_marseille","lat":43.295169,"lon":5.390426,"is_reserved":false,"is_disabled":false,"rental_uris":{"android":"levelo://app?vid=8e100da6-5d07-48f7-8f54-85a6e2cede55","ios":"levelo://app?vid=8e100da6-5d07-48f7-8f54-85a6e2cede55"},"vehicle_type_id":"4","last_reported":1717258095,"current_range_meters":12800,"station_id":"ce4bh3p2rcd13ifvqdp0","pricing_plan_id":"cebpf4jnsgd1na2vs0mg"},{"bike_id":"dca14a06-9fb6-43bf-b1fc-a3f29aab2511","system_id":"levelo_inurba_marseille","lat":43.295169,"lon":5.390426,"is_reserved":false,"is_disabled":false,"rental_uris":{"android":"levelo://app?vid=dca14a06-9fb6-43bf-b1fc-a3f29aab2511","ios":"levelo://app?vid=dca14a06-9fb6-43bf-b1fc-a3f29aab2511"},"vehicle_type_id":"4","last_reported":1717258095,"current_range_meters":16000,"station_id":"ce4bh3p2rcd13ifvqdp0","pricing_plan_id":"cebpf4jnsgd1na2vs0mg"},{"bike_id":"3059bc13-2128-4e9d-b810-71bcda04bdfd","system_id":"levelo_inurba_marseille","lat":43.290368,"lon":5.381298,"is_reserved":false,"is_disabled":false,"rental_uris":{"android":"levelo://app?vid=3059bc13-2128-4e9d-b810-71bcda04bdfd","ios":"levelo://app?vid=3059bc13-2128-4e9d-b810-71bcda04bdfd"},"vehicle_type_id":"4","last_reported":1717258095,"current_range_meters":0,"station_id":"ce4bh4p2rcd13ifvqe1g","pricing_plan_id":"cebpf4jnsgd1na2vs0mg"},{"bike_id":"709bc9a2-d021-497f-8919-266aa2502d69","system_id":"levelo_inurba_marseille","lat":43.28856,"lon":5.358371,"is_reserved":false,"is_disabled":false,"rental_uris":{"android":"levelo://app?vid=709bc9a2-d021-497f-8919-266aa2502d69","ios":"levelo://app?vid=709bc9a2-d021-497f-8919-266aa2502d69"},"vehicle_type_id":"4","last_reported":1717258095,"current_range_meters":6400,"station_id":"ce4bhb12rcd13ifvqem0","pricing_plan_id":"cebpf4jnsgd1na2vs0mg"},{"bike_id":"63b8c9fb-9c8a-4e47-ac46-ec3c55d84fff","system_id":"levelo_inurba_marseille","lat":43.312609,"lon":5.401662,"is_reserved":false,"is_disabled":false,"rental_uris":{"android":"levelo://app?vid=63b8c9fb-9c8a-4e47-ac46-ec3c55d84fff","ios":"levelo://app?vid=63b8c9fb-9c8a-4e47-ac46-ec3c55d84fff"},"vehicle_type_id":"4","last_reported":1717258095,"current_range_meters":21200,"station_id":"ce4bh092rcd13ifvqd30","pricing_plan_id":"cebpf4jnsgd1na2vs0mg"},{"bike_id":"00a868c4-73de-47fb-82bd-51c7b3441a0c","system_id":"levelo_inurba_marseille","lat":43.28856,"lon":5.358371,"is_reserved":false,"is_disabled":false,"rental_uris":{"android":"levelo://app?vid=00a868c4-73de-47fb-82bd-51c7b3441a0c","ios":"levelo://app?vid=00a868c4-73de-47fb-82bd-51c7b3441a0c"},"vehicle_type_id":"4","last_reported":1717258095,"current_range_meters":23200,"station_id":"ce4bhb12rcd13ifvqem0","pricing_plan_id":"cebpf4jnsgd1na2vs0mg"},{"bike_id":"ba2203f2-a8dc-4e5f-b2c1-23918f6c8205","system_id":"levelo_inurba_marseille","lat":43.28856,"lon":5.358371,"is_reserved":false,"is_disabled":false,"rental_uris":{"android":"levelo://app?vid=ba2203f2-a8dc-4e5f-b2c1-23918f6c8205","ios":"levelo://app?vid=ba2203f2-a8dc-4e5f-b2c1-23918f6c8205"},"vehicle_type_id":"4","last_reported":1717258095,"current_range_meters":20800,"station_id":"ce4bhb12rcd13ifvqem0","pricing_plan_id":"cebpf4jnsgd1na2vs0mg"},{"bike_id":"68cd7e6e-1b3a-4ebe-a99c-66cad38404bb","system_id":"levelo_inurba_marseille","lat":43.28856,"lon":5.358371,"is_reserved":false,"is_disabled":false,"rental_uris":{"android":"levelo://app?vid=68cd7e6e-1b3a-4ebe-a99c-66cad38404bb","ios":"levelo://app?vid=68cd7e6e-1b3a-4ebe-a99c-66cad38404bb"},"vehicle_type_id":"4","last_reported":1717258095,"current_range_meters":17600,"station_id":"ce4bhb12rcd13ifvqem0","pricing_plan_id":"cebpf4jnsgd1na2vs0mg"},{"bike_id":"ba8ca689-f02e-4225-b7b7-7f5139f43944","system_id":"levelo_inurba_marseille","lat":43.28856,"lon":5.358371,"is_reserved":false,"is_disabled":false,"rental_uris":{"android":"levelo://app?vid=ba8ca689-f02e-4225-b7b7-7f5139f43944","ios":"levelo://app?vid=ba8ca689-f02e-4225-b7b7-7f5139f43944"},"vehicle_type_id":"4","last_reported":1717258095,"current_range_meters":31200,"station_id":"ce4bhb12rcd13ifvqem0","pricing_plan_id":"cebpf4jnsgd1na2vs0mg"},{"bike_id":"4329f2f1-529b-45ca-86b5-147c47110f65","system_id":"levelo_inurba_marseille","lat":43.28856,"lon":5.358371,"is_reserved":false,"is_disabled":false,"rental_uris":{"android":"levelo://app?vid=4329f2f1-529b-45ca-86b5-147c47110f65","ios":"levelo://app?vid=4329f2f1-529b-45ca-86b5-147c47110f65"},"vehicle_type_id":"4","last_reported":1717258095,"current_range_meters":29200,"station_id":"ce4bhb12rcd13ifvqem0","pricing_plan_id":"cebpf4jnsgd1na2vs0mg"},{"bike_id":"3d7998b8-84f4-4eb7-ae88-d3a6f97831a0","system_id":"levelo_inurba_marseille","lat":43.290094,"lon":5.381264,"is_reserved":false,"is_disabled":false,"rental_uris":{"android":"levelo://app?vid=3d7998b8-84f4-4eb7-ae88-d3a6f97831a0","ios":"levelo://app?vid=3d7998b8-84f4-4eb7-ae88-d3a6f97831a0"},"vehicle_type_id":"4","last_reported":1717258095,"current_range_meters":800,"station_id":"ce4bh4p2rcd13ifvqe1g","pricing_plan_id":"cebpf4jnsgd1na2vs0mg"},{"bike_id":"95e29b98-47c8-43e2-a0bd-e5d17c35cd30","system_id":"levelo_inurba_marseille","lat":43.28856,"lon":5.358371,"is_reserved":false,"is_disabled":false,"rental_uris":{"android":"levelo://app?vid=95e29b98-47c8-43e2-a0bd-e5d17c35cd30","ios":"levelo://app?vid=95e29b98-47c8-43e2-a0bd-e5d17c35cd30"},"vehicle_type_id":"4","last_reported":1717258095,"current_range_meters":4400,"station_id":"ce4bhb12rcd13ifvqem0","pricing_plan_id":"cebpf4jnsgd1na2vs0mg"},{"bike_id":"e66beb12-bae8-4088-8ef2-73bc3461cfcf","system_id":"levelo_inurba_marseille","lat":43.28856,"lon":5.358371,"is_reserved":false,"is_disabled":false,"rental_uris":{"android":"levelo://app?vid=e66beb12-bae8-4088-8ef2-73bc3461cfcf","ios":"levelo://app?vid=e66beb12-bae8-4088-8ef2-73bc3461cfcf"},"vehicle_type_id":"4","last_reported":1717258095,"current_range_meters":23600,"station_id":"ce4bhb12rcd13ifvqem0","pricing_plan_id":"cebpf4jnsgd1na2vs0mg"},{"bike_id":"e8f30565-862c-4050-84e2-c51d4346114c","system_id":"levelo_inurba_marseille","lat":43.28856,"lon":5.358371,"is_reserved":false,"is_disabled":false,"rental_uris":{"android":"levelo://app?vid=e8f30565-862c-4050-84e2-c51d4346114c","ios":"levelo://app?vid=e8f30565-862c-4050-84e2-c51d4346114c"},"vehicle_type_id":"4","last_reported":1717258095,"current_range_meters":16400,"station_id":"ce4bhb12rcd13ifvqem0","pricing_plan_id":"cebpf4jnsgd1na2vs0mg"},{"bike_id":"441ec800-6d98-48aa-967c-e3c76a63a7cd","system_id":"levelo_inurba_marseille","lat":43.28856,"lon":5.358371,"is_reserved":false,"is_disabled":false,"rental_uris":{"android":"levelo://app?vid=441ec800-6d98-48aa-967c-e3c76a63a7cd","ios":"levelo://app?vid=441ec800-6d98-48aa-967c-e3c76a63a7cd"},"vehicle_type_id":"4","last_reported":1717258095,"current_range_meters":24400,"station_id":"ce4bhb12rcd13ifvqem0","pricing_plan_id":"cebpf4jnsgd1na2vs0mg"},{"bike_id":"94241b89-be14-4ed4-9e17-e498b3a99b2f","system_id":"levelo_inurba_marseille","lat":43.331505,"lon":5.389951,"is_reserved":false,"is_disabled":false,"rental_uris":{"android":"levelo://app?vid=94241b89-be14-4ed4-9e17-e498b3a99b2f","ios":"levelo://app?vid=94241b89-be14-4ed4-9e17-e498b3a99b2f"},"vehicle_type_id":"4","last_reported":1717258095,"current_range_meters":10400,"station_id":"","pricing_plan_id":"cebpf4jnsgd1na2vs0mg"},{"bike_id":"dee219ab-103a-4b0c-961e-59f6741de664","system_id":"levelo_inurba_marseille","lat":43.312609,"lon":5.401662,"is_reserved":false,"is_disabled":false,"rental_uris":{"android":"levelo://app?vid=dee219ab-103a-4b0c-961e-59f6741de664","ios":"levelo://app?vid=dee219ab-103a-4b0c-961e-59f6741de664"},"vehicle_type_id":"4","last_reported":1717258095,"current_range_meters":15600,"station_id":"ce4bh092rcd13ifvqd30","pricing_plan_id":"cebpf4jnsgd1na2vs0mg"},{"bike_id":"6516e2bd-5abb-4ee9-8910-0531da2e79d5","system_id":"levelo_inurba_marseille","lat":43.31275,"lon":5.401652,"is_reserved":false,"is_disabled":false,"rental_uris":{"android":"levelo://app?vid=6516e2bd-5abb-4ee9-8910-0531da2e79d5","ios":"levelo://app?vid=6516e2bd-5abb-4ee9-8910-0531da2e79d5"},"vehicle_type_id":"4","last_reported":1717258095,"current_range_meters":5600,"station_id":"ce4bh092rcd13ifvqd30","pricing_plan_id":"cebpf4jnsgd1na2vs0mg"},{"bike_id":"128674d2-be43-4777-ac10-db2621faf36d","system_id":"levelo_inurba_marseille","lat":43.309371,"lon":5.401449,"is_reserved":false,"is_disabled":false,"rental_uris":{"android":"levelo://app?vid=128674d2-be43-4777-ac10-db2621faf36d","ios":"levelo://app?vid=128674d2-be43-4777-ac10-db2621faf36d"},"vehicle_type_id":"4","last_reported":1717258095,"current_range_meters":0,"station_id":"ce4bgvp2rcd13ifvqct0","pricing_plan_id":"cebpf4jnsgd1na2vs0mg"},{"bike_id":"5b98655a-9b31-45fe-864b-e7742592f9d7","system_id":"levelo_inurba_marseille","lat":43.309371,"lon":5.401449,"is_reserved":false,"is_disabled":false,"rental_uris":{"android":"levelo://app?vid=5b98655a-9b31-45fe-864b-e7742592f9d7","ios":"levelo://app?vid=5b98655a-9b31-45fe-864b-e7742592f9d7"},"vehicle_type_id":"4","last_reported":1717258095,"current_range_meters":24000,"station_id":"ce4bgvp2rcd13ifvqct0","pricing_plan_id":"cebpf4jnsgd1na2vs0mg"},{"bike_id":"26e88c15-1ebf-4978-814d-f8bc280f73dc","system_id":"levelo_inurba_marseille","lat":43.33746,"lon":5.37484,"is_reserved":false,"is_disabled":false,"rental_uris":{"android":"levelo://app?vid=26e88c15-1ebf-4978-814d-f8bc280f73dc","ios":"levelo://app?vid=26e88c15-1ebf-4978-814d-f8bc280f73dc"},"vehicle_type_id":"4","last_reported":1717258095,"current_range_meters":29200,"station_id":"","pricing_plan_id":"cebpf4jnsgd1na2vs0mg"},{"bike_id":"b08e9d97-af40-44cb-9924-c59f46d9da79","system_id":"levelo_inurba_marseille","lat":43.28727,"lon":5.36078,"is_reserved":false,"is_disabled":false,"rental_uris":{"android":"levelo://app?vid=b08e9d97-af40-44cb-9924-c59f46d9da79","ios":"levelo://app?vid=b08e9d97-af40-44cb-9924-c59f46d9da79"},"vehicle_type_id":"4","last_reported":1717258095,"current_range_meters":800,"station_id":"cki0cbj6b192h4jlfktg","pricing_plan_id":"cebpf4jnsgd1na2vs0mg"},{"bike_id":"eb8d3076-96ce-447a-9549-3a54d1d6c690","system_id":"levelo_inurba_marseille","lat":43.30642,"lon":5.401031,"is_reserved":false,"is_disabled":false,"rental_uris":{"android":"levelo://app?vid=eb8d3076-96ce-447a-9549-3a54d1d6c690","ios":"levelo://app?vid=eb8d3076-96ce-447a-9549-3a54d1d6c690"},"vehicle_type_id":"4","last_reported":1717258095,"current_range_meters":0,"station_id":"ce4bh112rcd13ifvqda0","pricing_plan_id":"cebpf4jnsgd1na2vs0mg"},{"bike_id":"43eb068c-95e6-412d-810f-16b20c431f60","system_id":"levelo_inurba_marseille","lat":43.306412,"lon":5.401035,"is_reserved":false,"is_disabled":false,"rental_uris":{"android":"levelo://app?vid=43eb068c-95e6-412d-810f-16b20c431f60","ios":"levelo://app?vid=43eb068c-95e6-412d-810f-16b20c431f60"},"vehicle_type_id":"4","last_reported":1717258095,"current_range_meters":21600,"station_id":"ce4bh112rcd13ifvqda0","pricing_plan_id":"cebpf4jnsgd1na2vs0mg"},{"bike_id":"4c9d29d4-2e16-4b62-8770-e2b48d0e1ba7","system_id":"levelo_inurba_marseille","lat":43.301117,"lon":5.398795,"is_reserved":false,"is_disabled":false,"rental_uris":{"android":"levelo://app?vid=4c9d29d4-2e16-4b62-8770-e2b48d0e1ba7","ios":"levelo://app?vid=4c9d29d4-2e16-4b62-8770-e2b48d0e1ba7"},"vehicle_type_id":"4","last_reported":1717258095,"current_range_meters":4800,"station_id":"ce4bh0h2rcd13ifvqd40","pricing_plan_id":"cebpf4jnsgd1na2vs0mg"},{"bike_id":"6daf6b06-a163-4755-a098-2c62fc662e59","system_id":"levelo_inurba_marseille","lat":43.28727,"lon":5.36078,"is_reserved":false,"is_disabled":false,"rental_uris":{"android":"levelo://app?vid=6daf6b06-a163-4755-a098-2c62fc662e59","ios":"levelo://app?vid=6daf6b06-a163-4755-a098-2c62fc662e59"},"vehicle_type_id":"4","last_reported":1717258095,"current_range_meters":12800,"station_id":"cki0cbj6b192h4jlfktg","pricing_plan_id":"cebpf4jnsgd1na2vs0mg"},{"bike_id":"c092e3a5-33c9-4aa2-90ac-aac2b73dd4ea","system_id":"levelo_inurba_marseille","lat":43.28727,"lon":5.36078,"is_reserved":false,"is_disabled":false,"rental_uris":{"android":"levelo://app?vid=c092e3a5-33c9-4aa2-90ac-aac2b73dd4ea","ios":"levelo://app?vid=c092e3a5-33c9-4aa2-90ac-aac2b73dd4ea"},"vehicle_type_id":"4","last_reported":1717258095,"current_range_meters":15200,"station_id":"cki0cbj6b192h4jlfktg","pricing_plan_id":"cebpf4jnsgd1na2vs0mg"},{"bike_id":"8020d846-1b3a-4d2e-99fa-49dcc30ddd24","system_id":"levelo_inurba_marseille","lat":43.306412,"lon":5.401035,"is_reserved":false,"is_disabled":false,"rental_uris":{"android":"levelo://app?vid=8020d846-1b3a-4d2e-99fa-49dcc30ddd24","ios":"levelo://app?vid=8020d846-1b3a-4d2e-99fa-49dcc30ddd24"},"vehicle_type_id":"4","last_reported":1717258095,"current_range_meters":12000,"station_id":"ce4bh112rcd13ifvqda0","pricing_plan_id":"cebpf4jnsgd1na2vs0mg"},{"bike_id":"f8aab520-4313-49a7-82d4-985a07a696de","system_id":"levelo_inurba_marseille","lat":43.286593,"lon":5.363346,"is_reserved":false,"is_disabled":false,"rental_uris":{"android":"levelo://app?vid=f8aab520-4313-49a7-82d4-985a07a696de","ios":"levelo://app?vid=f8aab520-4313-49a7-82d4-985a07a696de"},"vehicle_type_id":"4","last_reported":1717258095,"current_range_meters":0,"station_id":"ce4bhah2rcd13ifvqej0","pricing_plan_id":"cebpf4jnsgd1na2vs0mg"},{"bike_id":"e81312c2-b296-4c9f-96d6-56faf637f298","system_id":"levelo_inurba_marseille","lat":43.28666,"lon":5.36351,"is_reserved":false,"is_disabled":false,"rental_uris":{"android":"levelo://app?vid=e81312c2-b296-4c9f-96d6-56faf637f298","ios":"levelo://app?vid=e81312c2-b296-4c9f-96d6-56faf637f298"},"vehicle_type_id":"4","last_reported":1717258095,"current_range_meters":30000,"station_id":"ce4bhah2rcd13ifvqej0","pricing_plan_id":"cebpf4jnsgd1na2vs0mg"},{"bike_id":"325da4e6-5fc1-495a-b507-3749eb9f1d4e","system_id":"levelo_inurba_marseille","lat":43.286961,"lon":5.373785,"is_reserved":false,"is_disabled":false,"rental_uris":{"android":"levelo://app?vid=325da4e6-5fc1-495a-b507-3749eb9f1d4e","ios":"levelo://app?vid=325da4e6-5fc1-495a-b507-3749eb9f1d4e"},"vehicle_type_id":"4","last_reported":1717258095,"current_range_meters":4800,"station_id":"ce4bh3p2rcd13ifvqdq0","pricing_plan_id":"cebpf4jnsgd1na2vs0mg"},{"bike_id":"45982d95-26c2-441c-951e-1360bea191bc","system_id":"levelo_inurba_marseille","lat":43.28664,"lon":5.363486,"is_reserved":false,"is_disabled":false,"rental_uris":{"android":"levelo://app?vid=45982d95-26c2-441c-951e-1360bea191bc","ios":"levelo://app?vid=45982d95-26c2-441c-951e-1360bea191bc"},"vehicle_type_id":"4","last_reported":1717258095,"current_range_meters":0,"station_id":"ce4bhah2rcd13ifvqej0","pricing_plan_id":"cebpf4jnsgd1na2vs0mg"},{"bike_id":"6b528cf4-53e9-4015-81c7-bba0e788a361","system_id":"levelo_inurba_marseille","lat":43.287005,"lon":5.373938,"is_reserved":false,"is_disabled":false,"rental_uris":{"android":"levelo://app?vid=6b528cf4-53e9-4015-81c7-bba0e788a361","ios":"levelo://app?vid=6b528cf4-53e9-4015-81c7-bba0e788a361"},"vehicle_type_id":"4","last_reported":1717258095,"current_range_meters":0,"station_id":"ce4bh3p2rcd13ifvqdq0","pricing_plan_id":"cebpf4jnsgd1na2vs0mg"},{"bike_id":"7fba725c-9dfd-4c40-af98-3ad10df0c960","system_id":"levelo_inurba_marseille","lat":43.287,"lon":5.37403,"is_reserved":false,"is_disabled":false,"rental_uris":{"android":"levelo://app?vid=7fba725c-9dfd-4c40-af98-3ad10df0c960","ios":"levelo://app?vid=7fba725c-9dfd-4c40-af98-3ad10df0c960"},"vehicle_type_id":"4","last_reported":1717258095,"current_range_meters":0,"station_id":"ce4bh3p2rcd13ifvqdq0","pricing_plan_id":"cebpf4jnsgd1na2vs0mg"},{"bike_id":"86abde97-33cc-4d0e-af84-b0a4313e34ff","system_id":"levelo_inurba_marseille","lat":43.295194,"lon":5.39397,"is_reserved":false,"is_disabled":false,"rental_uris":{"android":"levelo://app?vid=86abde97-33cc-4d0e-af84-b0a4313e34ff","ios":"levelo://app?vid=86abde97-33cc-4d0e-af84-b0a4313e34ff"},"vehicle_type_id":"4","last_reported":1717258095,"current_range_meters":1600,"station_id":"ce4bh292rcd13ifvqdf0","pricing_plan_id":"cebpf4jnsgd1na2vs0mg"},{"bike_id":"aecdebc4-0182-47b0-8e54-195a2c320673","system_id":"levelo_inurba_marseille","lat":43.302759,"lon":5.400793,"is_reserved":false,"is_disabled":false,"rental_uris":{"android":"levelo://app?vid=aecdebc4-0182-47b0-8e54-195a2c320673","ios":"levelo://app?vid=aecdebc4-0182-47b0-8e54-195a2c320673"},"vehicle_type_id":"4","last_reported":1717258095,"current_range_meters":400,"station_id":"ce4bgvh2rcd13ifvqcs0","pricing_plan_id":"cebpf4jnsgd1na2vs0mg"},{"bike_id":"1d1c592c-0b5f-41a1-9529-d39c96a82ea2","system_id":"levelo_inurba_marseille","lat":43.289307,"lon":5.38406,"is_reserved":false,"is_disabled":false,"rental_uris":{"android":"levelo://app?vid=1d1c592c-0b5f-41a1-9529-d39c96a82ea2","ios":"levelo://app?vid=1d1c592c-0b5f-41a1-9529-d39c96a82ea2"},"vehicle_type_id":"4","last_reported":1717258095,"current_range_meters":8800,"station_id":"ce4bh612rcd13ifvqe6g","pricing_plan_id":"cebpf4jnsgd1na2vs0mg"},{"bike_id":"27cc1350-0d81-4d69-9bb7-12d227328603","system_id":"levelo_inurba_marseille","lat":43.290345,"lon":5.38646,"is_reserved":false,"is_disabled":false,"rental_uris":{"android":"levelo://app?vid=27cc1350-0d81-4d69-9bb7-12d227328603","ios":"levelo://app?vid=27cc1350-0d81-4d69-9bb7-12d227328603"},"vehicle_type_id":"4","last_reported":1717258095,"current_range_meters":18800,"station_id":"ce4bh4p2rcd13ifvqe0g","pricing_plan_id":"cebpf4jnsgd1na2vs0mg"},{"bike_id":"7d894783-1d21-486a-bc44-5f129a3d9f6c","system_id":"levelo_inurba_marseille","lat":43.290345,"lon":5.38646,"is_reserved":false,"is_disabled":false,"rental_uris":{"android":"levelo://app?vid=7d894783-1d21-486a-bc44-5f129a3d9f6c","ios":"levelo://app?vid=7d894783-1d21-486a-bc44-5f129a3d9f6c"},"vehicle_type_id":"4","last_reported":1717258095,"current_range_meters":800,"station_id":"ce4bh4p2rcd13ifvqe0g","pricing_plan_id":"cebpf4jnsgd1na2vs0mg"},{"bike_id":"b5fa4207-2c16-4d39-8680-605b1551162e","system_id":"levelo_inurba_marseille","lat":43.302759,"lon":5.400793,"is_reserved":false,"is_disabled":false,"rental_uris":{"android":"levelo://app?vid=b5fa4207-2c16-4d39-8680-605b1551162e","ios":"levelo://app?vid=b5fa4207-2c16-4d39-8680-605b1551162e"},"vehicle_type_id":"4","last_reported":1717258095,"current_range_meters":15200,"station_id":"ce4bgvh2rcd13ifvqcs0","pricing_plan_id":"cebpf4jnsgd1na2vs0mg"},{"bike_id":"e8fc2440-bc31-441a-b698-44a99ec4fbbd","system_id":"levelo_inurba_marseille","lat":43.302759,"lon":5.400793,"is_reserved":false,"is_disabled":false,"rental_uris":{"android":"levelo://app?vid=e8fc2440-bc31-441a-b698-44a99ec4fbbd","ios":"levelo://app?vid=e8fc2440-bc31-441a-b698-44a99ec4fbbd"},"vehicle_type_id":"4","last_reported":1717258095,"current_range_meters":18000,"station_id":"ce4bgvh2rcd13ifvqcs0","pricing_plan_id":"cebpf4jnsgd1na2vs0mg"},{"bike_id":"346b90c0-4714-4d5b-9048-6e9d66e05d43","system_id":"levelo_inurba_marseille","lat":43.302759,"lon":5.400793,"is_reserved":false,"is_disabled":false,"rental_uris":{"android":"levelo://app?vid=346b90c0-4714-4d5b-9048-6e9d66e05d43","ios":"levelo://app?vid=346b90c0-4714-4d5b-9048-6e9d66e05d43"},"vehicle_type_id":"4","last_reported":1717258095,"current_range_meters":24000,"station_id":"ce4bgvh2rcd13ifvqcs0","pricing_plan_id":"cebpf4jnsgd1na2vs0mg"},{"bike_id":"18e338d9-8b21-4974-8239-af2b7f50aac9","system_id":"levelo_inurba_marseille","lat":43.302759,"lon":5.400793,"is_reserved":false,"is_disabled":false,"rental_uris":{"android":"levelo://app?vid=18e338d9-8b21-4974-8239-af2b7f50aac9","ios":"levelo://app?vid=18e338d9-8b21-4974-8239-af2b7f50aac9"},"vehicle_type_id":"4","last_reported":1717258095,"current_range_meters":16000,"station_id":"ce4bgvh2rcd13ifvqcs0","pricing_plan_id":"cebpf4jnsgd1na2vs0mg"},{"bike_id":"b5ed07e1-a993-4f8f-86cf-31fdc271fb79","system_id":"levelo_inurba_marseille","lat":43.291994,"lon":5.392907,"is_reserved":false,"is_disabled":false,"rental_uris":{"android":"levelo://app?vid=b5ed07e1-a993-4f8f-86cf-31fdc271fb79","ios":"levelo://app?vid=b5ed07e1-a993-4f8f-86cf-31fdc271fb79"},"vehicle_type_id":"4","last_reported":1717258095,"current_range_meters":13600,"station_id":"ce4bh192rcd13ifvqdd0","pricing_plan_id":"cebpf4jnsgd1na2vs0mg"},{"bike_id":"48b0ea12-a1cf-472d-9c35-b3fa8a5e3e5b","system_id":"levelo_inurba_marseille","lat":43.316944,"lon":5.40473,"is_reserved":false,"is_disabled":false,"rental_uris":{"android":"levelo://app?vid=48b0ea12-a1cf-472d-9c35-b3fa8a5e3e5b","ios":"levelo://app?vid=48b0ea12-a1cf-472d-9c35-b3fa8a5e3e5b"},"vehicle_type_id":"4","last_reported":1717258095,"current_range_meters":0,"station_id":"ce4bh012rcd13ifvqd00","pricing_plan_id":"cebpf4jnsgd1na2vs0mg"},{"bike_id":"f2a02a2d-a4fd-45b0-97e6-6f4269dfec96","system_id":"levelo_inurba_marseille","lat":43.291994,"lon":5.392907,"is_reserved":false,"is_disabled":false,"rental_uris":{"android":"levelo://app?vid=f2a02a2d-a4fd-45b0-97e6-6f4269dfec96","ios":"levelo://app?vid=f2a02a2d-a4fd-45b0-97e6-6f4269dfec96"},"vehicle_type_id":"4","last_reported":1717258095,"current_range_meters":16400,"station_id":"ce4bh192rcd13ifvqdd0","pricing_plan_id":"cebpf4jnsgd1na2vs0mg"},{"bike_id":"805252ee-29c7-45a4-9ea8-8dd5459d3df5","system_id":"levelo_inurba_marseille","lat":43.291989,"lon":5.393299,"is_reserved":false,"is_disabled":false,"rental_uris":{"android":"levelo://app?vid=805252ee-29c7-45a4-9ea8-8dd5459d3df5","ios":"levelo://app?vid=805252ee-29c7-45a4-9ea8-8dd5459d3df5"},"vehicle_type_id":"4","last_reported":1717258095,"current_range_meters":19600,"station_id":"","pricing_plan_id":"cebpf4jnsgd1na2vs0mg"},{"bike_id":"368fc318-aba7-4bf6-8329-ba283fd7af33","system_id":"levelo_inurba_marseille","lat":43.291994,"lon":5.392907,"is_reserved":false,"is_disabled":false,"rental_uris":{"android":"levelo://app?vid=368fc318-aba7-4bf6-8329-ba283fd7af33","ios":"levelo://app?vid=368fc318-aba7-4bf6-8329-ba283fd7af33"},"vehicle_type_id":"4","last_reported":1717258095,"current_range_meters":1600,"station_id":"ce4bh192rcd13ifvqdd0","pricing_plan_id":"cebpf4jnsgd1na2vs0mg"},{"bike_id":"270dd0a7-491d-42d6-94cd-086999288abc","system_id":"levelo_inurba_marseille","lat":43.291994,"lon":5.392907,"is_reserved":false,"is_disabled":false,"rental_uris":{"android":"levelo://app?vid=270dd0a7-491d-42d6-94cd-086999288abc","ios":"levelo://app?vid=270dd0a7-491d-42d6-94cd-086999288abc"},"vehicle_type_id":"4","last_reported":1717258095,"current_range_meters":24000,"station_id":"ce4bh192rcd13ifvqdd0","pricing_plan_id":"cebpf4jnsgd1na2vs0mg"},{"bike_id":"68a2c3a2-5cd9-46b5-b4b8-03b608aebf4b","system_id":"levelo_inurba_marseille","lat":43.316821,"lon":5.404737,"is_reserved":false,"is_disabled":false,"rental_uris":{"android":"levelo://app?vid=68a2c3a2-5cd9-46b5-b4b8-03b608aebf4b","ios":"levelo://app?vid=68a2c3a2-5cd9-46b5-b4b8-03b608aebf4b"},"vehicle_type_id":"4","last_reported":1717258095,"current_range_meters":16000,"station_id":"ce4bh012rcd13ifvqd00","pricing_plan_id":"cebpf4jnsgd1na2vs0mg"},{"bike_id":"22a98968-4eaf-46fd-8908-aa8b404e8ee0","system_id":"levelo_inurba_marseille","lat":43.284687,"lon":5.358891,"is_reserved":false,"is_disabled":false,"rental_uris":{"android":"levelo://app?vid=22a98968-4eaf-46fd-8908-aa8b404e8ee0","ios":"levelo://app?vid=22a98968-4eaf-46fd-8908-aa8b404e8ee0"},"vehicle_type_id":"4","last_reported":1717258095,"current_range_meters":0,"station_id":"ce4bhah2rcd13ifvqei0","pricing_plan_id":"cebpf4jnsgd1na2vs0mg"},{"bike_id":"d2fd63fd-b47b-4add-8f26-1726392f27c2","system_id":"levelo_inurba_marseille","lat":43.28464,"lon":5.358914,"is_reserved":false,"is_disabled":false,"rental_uris":{"android":"levelo://app?vid=d2fd63fd-b47b-4add-8f26-1726392f27c2","ios":"levelo://app?vid=d2fd63fd-b47b-4add-8f26-1726392f27c2"},"vehicle_type_id":"4","last_reported":1717258095,"current_range_meters":0,"station_id":"ce4bhah2rcd13ifvqei0","pricing_plan_id":"cebpf4jnsgd1na2vs0mg"},{"bike_id":"511490fe-71ff-40e4-9237-87bdb253b3ad","system_id":"levelo_inurba_marseille","lat":43.284644,"lon":5.358888,"is_reserved":false,"is_disabled":false,"rental_uris":{"android":"levelo://app?vid=511490fe-71ff-40e4-9237-87bdb253b3ad","ios":"levelo://app?vid=511490fe-71ff-40e4-9237-87bdb253b3ad"},"vehicle_type_id":"4","last_reported":1717258095,"current_range_meters":0,"station_id":"ce4bhah2rcd13ifvqei0","pricing_plan_id":"cebpf4jnsgd1na2vs0mg"},{"bike_id":"e3dcc251-6ebf-4d2e-b249-f02d23c4164c","system_id":"levelo_inurba_marseille","lat":43.284568,"lon":5.358952,"is_reserved":false,"is_disabled":false,"rental_uris":{"android":"levelo://app?vid=e3dcc251-6ebf-4d2e-b249-f02d23c4164c","ios":"levelo://app?vid=e3dcc251-6ebf-4d2e-b249-f02d23c4164c"},"vehicle_type_id":"4","last_reported":1717258095,"current_range_meters":2000,"station_id":"ce4bhah2rcd13ifvqei0","pricing_plan_id":"cebpf4jnsgd1na2vs0mg"},{"bike_id":"a31536df-8dcb-4976-97e6-4b5feb501d51","system_id":"levelo_inurba_marseille","lat":43.28626,"lon":5.35107,"is_reserved":false,"is_disabled":false,"rental_uris":{"android":"levelo://app?vid=a31536df-8dcb-4976-97e6-4b5feb501d51","ios":"levelo://app?vid=a31536df-8dcb-4976-97e6-4b5feb501d51"},