{"last_updated":1718402896,"ttl":30,"version":"2.2","data":{"bikes":[{"bike_id":"0c6406a9-efd0-41e6-ad1b-ede7cc0fcaf5","system_id":"levelo_inurba_marseille","lat":43.314811,"lon":5.373103,"is_reserved":false,"is_disabled":false,"rental_uris":{"android":"levelo://app?vid=0c6406a9-efd0-41e6-ad1b-ede7cc0fcaf5","ios":"levelo://app?vid=0c6406a9-efd0-41e6-ad1b-ede7cc0fcaf5"},"vehicle_type_id":"4","last_reported":1718402896,"current_range_meters":22400,"station_id":"ce4bgt12rcd13ifvqcd0","pricing_plan_id":"cebpf4jnsgd1na2vs0mg"},{"bike_id":"40c9b33a-594b-418d-9baf-994ece64122c","system_id":"levelo_inurba_marseille","lat":43.314811,"lon":5.373103,"is_reserved":false,"is_disabled":false,"rental_uris":{"android":"levelo://app?vid=40c9b33a-594b-418d-9baf-994ece64122c","ios":"levelo://app?vid=40c9b33a-594b-418d-9baf-994ece64122c"},"vehicle_type_id":"4","last_reported":1718402896,"current_range_meters":16800,"station_id":"ce4bgt12rcd13ifvqcd0","pricing_plan_id":"cebpf4jnsgd1na2vs0mg"},{"bike_id":"2116cb9b-aaf2-4314-b038-da55a98181cb","system_id":"levelo_inurba_marseille","lat":43.314811,"lon":5.373103,"is_reserved":false,"is_disabled":false,"rental_uris":{"android":"levelo://app?vid=2116cb9b-aaf2-4314-b038-da55a98181cb","ios":"levelo://app?vid=2116cb9b-aaf2-4314-b038-da55a98181cb"},"vehicle_type_id":"4","last_reported":1718402896,"current_range_meters":25600,"station_id":"ce4bgt12rcd13ifvqcd0","pricing_plan_id":"cebpf4jnsgd1na2vs0mg"},{"bike_id":"8776129b-36da-4670-8da4-987dd4b69548","system_id":"levelo_inurba_marseille","lat":43.314811,"lon":5.373103,"is_reserved":false,"is_disabled":false,"rental_uris":{"android":"levelo://app?vid=8776129b-36da-4670-8da4-987dd4b69548","ios":"levelo://app?vid=8776129b-36da-4670-8da4-987dd4b69548"},"vehicle_type_id":"4","last_reported":1718402896,"current_range_meters":0,"station_id":"ce4bgt12rcd13ifvqcd0","pricing_plan_id":"cebpf4jnsgd1na2vs0mg"},{"bike_id":"6cd00d5a-ea41-4fe9-84a7-536616d973de","system_id":"levelo_inurba_marseille","lat":43.314811,"lon":5.373103,"is_reserved":false,"is_disabled":false,"rental_uris":{"android":"levelo://app?vid=6cd00d5a-ea41-4fe9-84a7-536616d973de","ios":"levelo://app?vid=6cd00d5a-ea41-4fe9-84a7-536616d973de"},"vehicle_type_id":"4","last_reported":1718402896,"current_range_meters":18800,"station_id":"ce4bgt12rcd13ifvqcd0","pricing_plan_id":"cebpf4jnsgd1na2vs0mg"},{"bike_id":"1af3649d-550c-453b-934a-17b08b6b3691","system_id":"levelo_inurba_marseille","lat":43.31495,"lon":5.37306,"is_reserved":false,"is_disabled":false,"rental_uris":{"android":"levelo://app?vid=1af3649d-550c-453b-934a-17b08b6b3691","ios":"levelo://app?vid=1af3649d-550c-453b-934a-17b08b6b3691"},"vehicle_type_id":"4","last_reported":1718402896,"current_range_meters":0,"station_id":"ce4bgt12rcd13ifvqcd0","pricing_plan_id":"cebpf4jnsgd1na2vs0mg"},{"bike_id":"72651c0e-ab89-4764-86da-6cd1a59658e9","system_id":"levelo_inurba_marseille","lat":43.314811,"lon":5.373104,"is_reserved":false,"is_disabled":false,"rental_uris":{"android":"levelo://app?vid=72651c0e-ab89-4764-86da-6cd1a59658e9","ios":"levelo://app?vid=72651c0e-ab89-4764-86da-6cd1a59658e9"},"vehicle_type_id":"4","last_reported":1718402896,"current_range_meters":24800,"station_id":"ce4bgt12rcd13ifvqcd0","pricing_plan_id":"cebpf4jnsgd1na2vs0mg"},{"bike_id":"f08534af-dfc3-4e1b-99b9-84c26ad72ca3","system_id":"levelo_inurba_marseille","lat":43.30895,"lon":5.37184,"is_reserved":false,"is_disabled":false,"rental_uris":{"android":"levelo://app?vid=f08534af-dfc3-4e1b-99b9-84c26ad72ca3","ios":"levelo://app?vid=f08534af-dfc3-4e1b-99b9-84c26ad72ca3"},"vehicle_type_id":"4","last_reported":1718402896,"current_range_meters":24000,"station_id":"ce4bguh2rcd13ifvqckg","pricing_plan_id":"cebpf4jnsgd1na2vs0mg"},{"bike_id":"c2d48c65-13ff-45a6-9c1b-e29d1c746ca9","system_id":"levelo_inurba_marseille","lat":43.309039,"lon":5.371797,"is_reserved":false,"is_disabled":false,"rental_uris":{"android":"levelo://app?vid=c2d48c65-13ff-45a6-9c1b-e29d1c746ca9","ios":"levelo://app?vid=c2d48c65-13ff-45a6-9c1b-e29d1c746ca9"},"vehicle_type_id":"4","last_reported":1718402896,"current_range_meters":18000,"station_id":"ce4bguh2rcd13ifvqckg","pricing_plan_id":"cebpf4jnsgd1na2vs0mg"},{"bike_id":"c48c8260-0f9d-4273-969a-6fe415883d1d","system_id":"levelo_inurba_marseille","lat":43.299243,"lon":5.374807,"is_reserved":false,"is_disabled":false,"rental_uris":{"android":"levelo://app?vid=c48c8260-0f9d-4273-969a-6fe415883d1d","ios":"levelo://app?vid=c48c8260-0f9d-4273-969a-6fe415883d1d"},"vehicle_type_id":"4","last_reported":1718402896,"current_range_meters":21200,"station_id":"ce4bgjh2rcd13ifvqbg0","pricing_plan_id":"cebpf4jnsgd1na2vs0mg"},{"bike_id":"ad6a4bc0-5ab0-4eda-83fb-2773ff4564a1","system_id":"levelo_inurba_marseille","lat":43.30545,"lon":5.36694,"is_reserved":false,"is_disabled":false,"rental_uris":{"android":"levelo://app?vid=ad6a4bc0-5ab0-4eda-83fb-2773ff4564a1","ios":"levelo://app?vid=ad6a4bc0-5ab0-4eda-83fb-2773ff4564a1"},"vehicle_type_id":"4","last_reported":1718402896,"current_range_meters":21200,"station_id":"ce4bgrp2rcd13ifvqc9g","pricing_plan_id":"cebpf4jnsgd1na2vs0mg"},{"bike_id":"66d6cf63-da7f-46f9-93b6-2965cc3981e2","system_id":"levelo_inurba_marseille","lat":43.305989,"lon":5.37225,"is_reserved":false,"is_disabled":false,"rental_uris":{"android":"levelo://app?vid=66d6cf63-da7f-46f9-93b6-2965cc3981e2","ios":"levelo://app?vid=66d6cf63-da7f-46f9-93b6-2965cc3981e2"},"vehicle_type_id":"4","last_reported":1718402896,"current_range_meters":22400,"station_id":"ce4bgqh2rcd13ifvqc4g","pricing_plan_id":"cebpf4jnsgd1na2vs0mg"},{"bike_id":"d4d1f876-0d77-4c9a-a070-61eeb0e79695","system_id":"levelo_inurba_marseille","lat":43.305989,"lon":5.37225,"is_reserved":false,"is_disabled":false,"rental_uris":{"android":"levelo://app?vid=d4d1f876-0d77-4c9a-a070-61eeb0e79695","ios":"levelo://app?vid=d4d1f876-0d77-4c9a-a070-61eeb0e79695"},"vehicle_type_id":"4","last_reported":1718402896,"current_range_meters":12800,"station_id":"ce4bgqh2rcd13ifvqc4g","pricing_plan_id":"cebpf4jnsgd1na2vs0mg"},{"bike_id":"3ea7b944-3536-4d68-9088-07b62d2d97e3","system_id":"levelo_inurba_marseille","lat":43.31114,"lon":5.37768,"is_reserved":false,"is_disabled":false,"rental_uris":{"android":"levelo://app?vid=3ea7b944-3536-4d68-9088-07b62d2d97e3","ios":"levelo://app?vid=3ea7b944-3536-4d68-9088-07b62d2d97e3"},"vehicle_type_id":"4","last_reported":1718402896,"current_range_meters":0,"station_id":"ce4bgt92rcd13ifvqcg0","pricing_plan_id":"cebpf4jnsgd1na2vs0mg"},{"bike_id":"25d68a41-a2dc-4401-b876-d0ca4b5297e3","system_id":"levelo_inurba_marseille","lat":43.311217,"lon":5.377717,"is_reserved":false,"is_disabled":false,"rental_uris":{"android":"levelo://app?vid=25d68a41-a2dc-4401-b876-d0ca4b5297e3","ios":"levelo://app?vid=25d68a41-a2dc-4401-b876-d0ca4b5297e3"},"vehicle_type_id":"4","last_reported":1718402896,"current_range_meters":13600,"station_id":"ce4bgt92rcd13ifvqcg0","pricing_plan_id":"cebpf4jnsgd1na2vs0mg"},{"bike_id":"852aab32-1489-4b04-b218-332b199c978b","system_id":"levelo_inurba_marseille","lat":43.30789,"lon":5.37633,"is_reserved":false,"is_disabled":false,"rental_uris":{"android":"levelo://app?vid=852aab32-1489-4b04-b218-332b199c978b","ios":"levelo://app?vid=852aab32-1489-4b04-b218-332b199c978b"},"vehicle_type_id":"4","last_reported":1718402896,"current_range_meters":9200,"station_id":"ce4bgv92rcd13ifvqcq0","pricing_plan_id":"cebpf4jnsgd1na2vs0mg"},{"bike_id":"b24d921d-f2cd-4215-a600-5bdf732a5fec","system_id":"levelo_inurba_marseille","lat":43.307945,"lon":5.376487,"is_reserved":false,"is_disabled":false,"rental_uris":{"android":"levelo://app?vid=b24d921d-f2cd-4215-a600-5bdf732a5fec","ios":"levelo://app?vid=b24d921d-f2cd-4215-a600-5bdf732a5fec"},"vehicle_type_id":"4","last_reported":1718402896,"current_range_meters":20400,"station_id":"ce4bgv92rcd13ifvqcq0","pricing_plan_id":"cebpf4jnsgd1na2vs0mg"},{"bike_id":"ac55d6ca-4df7-4eaf-a732-80c22f55ea96","system_id":"levelo_inurba_marseille","lat":43.307945,"lon":5.376487,"is_reserved":false,"is_disabled":false,"rental_uris":{"android":"levelo://app?vid=ac55d6ca-4df7-4eaf-a732-80c22f55ea96","ios":"levelo://app?vid=ac55d6ca-4df7-4eaf-a732-80c22f55ea96"},"vehicle_type_id":"4","last_reported":1718402896,"current_range_meters":4800,"station_id":"ce4bgv92rcd13ifvqcq0","pricing_plan_id":"cebpf4jnsgd1na2vs0mg"},{"bike_id":"0dcfd393-aec1-404d-b961-d57adf285077","system_id":"levelo_inurba_marseille","lat":43.307945,"lon":5.376487,"is_reserved":false,"is_disabled":false,"rental_uris":{"android":"levelo://app?vid=0dcfd393-aec1-404d-b961-d57adf285077","ios":"levelo://app?vid=0dcfd393-aec1-404d-b961-d57adf285077"},"vehicle_type_id":"4","last_reported":1718402896,"current_range_meters":14400,"station_id":"ce4bgv92rcd13ifvqcq0","pricing_plan_id":"cebpf4jnsgd1na2vs0mg"},{"bike_id":"3b3a1445-b0fb-4a4f-840e-a264f85c1f5d","system_id":"levelo_inurba_marseille","lat":43.31695,"lon":5.37733,"is_reserved":false,"is_disabled":false,"rental_uris":{"android":"levelo://app?vid=3b3a1445-b0fb-4a4f-840e-a264f85c1f5d","ios":"levelo://app?vid=3b3a1445-b0fb-4a4f-840e-a264f85c1f5d"},"vehicle_type_id":"4","last_reported":1718402896,"current_range_meters":13200,"station_id":"ce4bgth2rcd13ifvqch0","pricing_plan_id":"cebpf4jnsgd1na2vs0mg"},{"bike_id":"e2a0830b-3111-4be7-9ddc-491150982b3f","system_id":"levelo_inurba_marseille","lat":43.317075,"lon":5.377367,"is_reserved":false,"is_disabled":false,"rental_uris":{"android":"levelo://app?vid=e2a0830b-3111-4be7-9ddc-491150982b3f","ios":"levelo://app?vid=e2a0830b-3111-4be7-9ddc-491150982b3f"},"vehicle_type_id":"4","last_reported":1718402896,"current_range_meters":17200,"station_id":"ce4bgth2rcd13ifvqch0","pricing_plan_id":"cebpf4jnsgd1na2vs0mg"},{"bike_id":"d533ecb6-7b2f-4639-97b0-9cef4975d955","system_id":"levelo_inurba_marseille","lat":43.31711,"lon":5.37739,"is_reserved":false,"is_disabled":false,"rental_uris":{"android":"levelo://app?vid=d533ecb6-7b2f-4639-97b0-9cef4975d955","ios":"levelo://app?vid=d533ecb6-7b2f-4639-97b0-9cef4975d955"},"vehicle_type_id":"4","last_reported":1718402896,"current_range_meters":1600,"station_id":"ce4bgth2rcd13ifvqch0","pricing_plan_id":"cebpf4jnsgd1na2vs0mg"},{"bike_id":"a4fae0a5-8e70-4ffa-beaf-8f66fe87f400","system_id":"levelo_inurba_marseille","lat":43.31712,"lon":5.37745,"is_reserved":false,"is_disabled":false,"rental_uris":{"android":"levelo://app?vid=a4fae0a5-8e70-4ffa-beaf-8f66fe87f400","ios":"levelo://app?vid=a4fae0a5-8e70-4ffa-beaf-8f66fe87f400"},"vehicle_type_id":"4","last_reported":1718402896,"current_range_meters":20000,"station_id":"ce4bgth2rcd13ifvqch0","pricing_plan_id":"cebpf4jnsgd1na2vs0mg"},{"bike_id":"5a347d51-7fba-409b-89c5-b04496406be6","system_id":"levelo_inurba_marseille","lat":43.315289,"lon":5.380349,"is_reserved":false,"is_disabled":false,"rental_uris":{"android":"levelo://app?vid=5a347d51-7fba-409b-89c5-b04496406be6","ios":"levelo://app?vid=5a347d51-7fba-409b-89c5-b04496406be6"},"vehicle_type_id":"4","last_reported":1718402896,"current_range_meters":14800,"station_id":"ce4bhsp2rcd13ifvqi50","pricing_plan_id":"cebpf4jnsgd1na2vs0mg"},{"bike_id":"c96cd21a-8bff-441d-87bf-c0101f7589ca","system_id":"levelo_inurba_marseille","lat":43.31535,"lon":5.3803,"is_reserved":false,"is_disabled":false,"rental_uris":{"android":"levelo://app?vid=c96cd21a-8bff-441d-87bf-c0101f7589ca","ios":"levelo://app?vid=c96cd21a-8bff-441d-87bf-c0101f7589ca"},"vehicle_type_id":"4","last_reported":1718402896,"current_range_meters":0,"station_id":"ce4bhsp2rcd13ifvqi50","pricing_plan_id":"cebpf4jnsgd1na2vs0mg"},{"bike_id":"4c95a9c5-2ae1-4114-a943-ed99447add3d","system_id":"levelo_inurba_marseille","lat":43.315293,"lon":5.380349,"is_reserved":false,"is_disabled":false,"rental_uris":{"android":"levelo://app?vid=4c95a9c5-2ae1-4114-a943-ed99447add3d","ios":"levelo://app?vid=4c95a9c5-2ae1-4114-a943-ed99447add3d"},"vehicle_type_id":"4","last_reported":1718402896,"current_range_meters":0,"station_id":"ce4bhsp2rcd13ifvqi50","pricing_plan_id":"cebpf4jnsgd1na2vs0mg"},{"bike_id":"cea285c6-5e83-47fe-9807-32f17328b553","system_id":"levelo_inurba_marseille","lat":43.308012,"lon":5.381511,"is_reserved":false,"is_disabled":false,"rental_uris":{"android":"levelo://app?vid=cea285c6-5e83-47fe-9807-32f17328b553","ios":"levelo://app?vid=cea285c6-5e83-47fe-9807-32f17328b553"},"vehicle_type_id":"4","last_reported":1718402896,"current_range_meters":15200,"station_id":"ce4bgt12rcd13ifvqce0","pricing_plan_id":"cebpf4jnsgd1na2vs0mg"},{"bike_id":"9d69fde4-86c6-4f2b-8f2e-53a84eb5b40b","system_id":"levelo_inurba_marseille","lat":43.308012,"lon":5.381511,"is_reserved":false,"is_disabled":false,"rental_uris":{"android":"levelo://app?vid=9d69fde4-86c6-4f2b-8f2e-53a84eb5b40b","ios":"levelo://app?vid=9d69fde4-86c6-4f2b-8f2e-53a84eb5b40b"},"vehicle_type_id":"4","last_reported":1718402896,"current_range_meters":5600,"station_id":"ce4bgt12rcd13ifvqce0","pricing_plan_id":"cebpf4jnsgd1na2vs0mg"},{"bike_id":"fde7daec-0c48-4238-b644-66a87a24657f","system_id":"levelo_inurba_marseille","lat":43.304606,"lon":5.379026,"is_reserved":false,"is_disabled":false,"rental_uris":{"android":"levelo://app?vid=fde7daec-0c48-4238-b644-66a87a24657f","ios":"levelo://app?vid=fde7daec-0c48-4238-b644-66a87a24657f"},"vehicle_type_id":"4","last_reported":1718402896,"current_range_meters":30800,"station_id":"ce4bgup2rcd13ifvqcn0","pricing_plan_id":"cebpf4jnsgd1na2vs0mg"},{"bike_id":"6b360654-7c6a-4391-8838-0bf326c932e0","system_id":"levelo_inurba_marseille","lat":43.304606,"lon":5.379026,"is_reserved":false,"is_disabled":false,"rental_uris":{"android":"levelo://app?vid=6b360654-7c6a-4391-8838-0bf326c932e0","ios":"levelo://app?vid=6b360654-7c6a-4391-8838-0bf326c932e0"},"vehicle_type_id":"4","last_reported":1718402896,"current_range_meters":2000,"station_id":"ce4bgup2rcd13ifvqcn0","pricing_plan_id":"cebpf4jnsgd1na2vs0mg"},{"bike_id":"1bad2400-98b7-47ab-8eb3-7a6cedff3e37","system_id":"levelo_inurba_marseille","lat":43.3248,"lon":5.36562,"is_reserved":false,"is_disabled":false,"rental_uris":{"android":"levelo://app?vid=1bad2400-98b7-47ab-8eb3-7a6cedff3e37","ios":"levelo://app?vid=1bad2400-98b7-47ab-8eb3-7a6cedff3e37"},"vehicle_type_id":"4","last_reported":1718402896,"current_range_meters":13200,"station_id":"ce4bhs12rcd13ifvqhvg","pricing_plan_id":"cebpf4jnsgd1na2vs0mg"},{"bike_id":"f0185fca-021e-4a22-93d1-a3cc783f552c","system_id":"levelo_inurba_marseille","lat":43.324771,"lon":5.36557,"is_reserved":false,"is_disabled":false,"rental_uris":{"android":"levelo://app?vid=f0185fca-021e-4a22-93d1-a3cc783f552c","ios":"levelo://app?vid=f0185fca-021e-4a22-93d1-a3cc783f552c"},"vehicle_type_id":"4","last_reported":1718402896,"current_range_meters":8400,"station_id":"ce4bhs12rcd13ifvqhvg","pricing_plan_id":"cebpf4jnsgd1na2vs0mg"},{"bike_id":"55925778-adb5-424a-b219-fc22e40b0367","system_id":"levelo_inurba_marseille","lat":43.310804,"lon":5.38359,"is_reserved":false,"is_disabled":false,"rental_uris":{"android":"levelo://app?vid=55925778-adb5-424a-b219-fc22e40b0367","ios":"levelo://app?vid=55925778-adb5-424a-b219-fc22e40b0367"},"vehicle_type_id":"4","last_reported":1718402896,"current_range_meters":9600,"station_id":"ce4bgv92rcd13ifvqcr0","pricing_plan_id":"cebpf4jnsgd1na2vs0mg"},{"bike_id":"5b3a28c3-783d-4436-ba63-0089a8908912","system_id":"levelo_inurba_marseille","lat":43.310804,"lon":5.38359,"is_reserved":false,"is_disabled":false,"rental_uris":{"android":"levelo://app?vid=5b3a28c3-783d-4436-ba63-0089a8908912","ios":"levelo://app?vid=5b3a28c3-783d-4436-ba63-0089a8908912"},"vehicle_type_id":"4","last_reported":1718402896,"current_range_meters":8400,"station_id":"ce4bgv92rcd13ifvqcr0","pricing_plan_id":"cebpf4jnsgd1na2vs0mg"},{"bike_id":"6dec15cc-e747-4cb5-84eb-ab6384b7b1a1","system_id":"levelo_inurba_marseille","lat":43.310804,"lon":5.38359,"is_reserved":false,"is_disabled":false,"rental_uris":{"android":"levelo://app?vid=6dec15cc-e747-4cb5-84eb-ab6384b7b1a1","ios":"levelo://app?vid=6dec15cc-e747-4cb5-84eb-ab6384b7b1a1"},"vehicle_type_id":"4","last_reported":1718402896,"current_range_meters":0,"station_id":"ce4bgv92rcd13ifvqcr0","pricing_plan_id":"cebpf4jnsgd1na2vs0mg"},{"bike_id":"e716aefd-c62b-4c19-ab42-7adb803b7b11","system_id":"levelo_inurba_marseille","lat":43.319913,"lon":5.380627,"is_reserved":false,"is_disabled":false,"rental_uris":{"android":"levelo://app?vid=e716aefd-c62b-4c19-ab42-7adb803b7b11","ios":"levelo://app?vid=e716aefd-c62b-4c19-ab42-7adb803b7b11"},"vehicle_type_id":"4","last_reported":1718402896,"current_range_meters":19200,"station_id":"","pricing_plan_id":"cebpf4jnsgd1na2vs0mg"},{"bike_id":"7ff2b4ad-9ec8-45cc-a413-e0bd74a93024","system_id":"levelo_inurba_marseille","lat":43.310804,"lon":5.38359,"is_reserved":false,"is_disabled":false,"rental_uris":{"android":"levelo://app?vid=7ff2b4ad-9ec8-45cc-a413-e0bd74a93024","ios":"levelo://app?vid=7ff2b4ad-9ec8-45cc-a413-e0bd74a93024"},"vehicle_type_id":"4","last_reported":1718402896,"current_range_meters":2400,"station_id":"ce4bgv92rcd13ifvqcr0","pricing_plan_id":"cebpf4jnsgd1na2vs0mg"},{"bike_id":"7b6e0317-cd81-40a7-bccb-7f015155462b","system_id":"levelo_inurba_marseille","lat":43.302784,"lon":5.377158,"is_reserved":false,"is_disabled":false,"rental_uris":{"android":"levelo://app?vid=7b6e0317-cd81-40a7-bccb-7f015155462b","ios":"levelo://app?vid=7b6e0317-cd81-40a7-bccb-7f015155462b"},"vehicle_type_id":"4","last_reported":1718402896,"current_range_meters":21600,"station_id":"ce4bguh2rcd13ifvqcj0","pricing_plan_id":"cebpf4jnsgd1na2vs0mg"},{"bike_id":"8291b89a-4855-48c8-b76e-8707207c49ec","system_id":"levelo_inurba_marseille","lat":43.319935,"lon":5.381699,"is_reserved":false,"is_disabled":false,"rental_uris":{"android":"levelo://app?vid=8291b89a-4855-48c8-b76e-8707207c49ec","ios":"levelo://app?vid=8291b89a-4855-48c8-b76e-8707207c49ec"},"vehicle_type_id":"4","last_reported":1718402896,"current_range_meters":16000,"station_id":"ce4bhr12rcd13ifvqhpg","pricing_plan_id":"cebpf4jnsgd1na2vs0mg"},{"bike_id":"bae4a66f-a790-4ca3-8cca-8bf19a01a866","system_id":"levelo_inurba_marseille","lat":43.314811,"lon":5.373103,"is_reserved":false,"is_disabled":false,"rental_uris":{"android":"levelo://app?vid=bae4a66f-a790-4ca3-8cca-8bf19a01a866","ios":"levelo://app?vid=bae4a66f-a790-4ca3-8cca-8bf19a01a866"},"vehicle_type_id":"4","last_reported":1718402896,"current_range_meters":4000,"station_id":"ce4bgt12rcd13ifvqcd0","pricing_plan_id":"cebpf4jnsgd1na2vs0mg"},{"bike_id":"7867a7fc-f408-4d24-a99e-23e91a58f98f","system_id":"levelo_inurba_marseille","lat":43.319935,"lon":5.381699,"is_reserved":false,"is_disabled":false,"rental_uris":{"android":"levelo://app?vid=7867a7fc-f408-4d24-a99e-23e91a58f98f","ios":"levelo://app?vid=7867a7fc-f408-4d24-a99e-23e91a58f98f"},"vehicle_type_id":"4","last_reported":1718402896,"current_range_meters":0,"station_id":"ce4bhr12rcd13ifvqhpg","pricing_plan_id":"cebpf4jnsgd1na2vs0mg"},{"bike_id":"57861364-c824-4c4b-aa44-7d113ad5f29f","system_id":"levelo_inurba_marseille","lat":43.319935,"lon":5.381699,"is_reserved":false,"is_disabled":false,"rental_uris":{"android":"levelo://app?vid=57861364-c824-4c4b-aa44-7d113ad5f29f","ios":"levelo://app?vid=57861364-c824-4c4b-aa44-7d113ad5f29f"},"vehicle_type_id":"4","last_reported":1718402896,"current_range_meters":1600,"station_id":"ce4bhr12rcd13ifvqhpg","pricing_plan_id":"cebpf4jnsgd1na2vs0mg"},{"bike_id":"4f330f75-cc7d-4a94-9252-2babe61decbd","system_id":"levelo_inurba_marseille","lat":43.319935,"lon":5.381699,"is_reserved":false,"is_disabled":false,"rental_uris":{"android":"levelo://app?vid=4f330f75-cc7d-4a94-9252-2babe61decbd","ios":"levelo://app?vid=4f330f75-cc7d-4a94-9252-2babe61decbd"},"vehicle_type_id":"4","last_reported":1718402896,"current_range_meters":10000,"station_id":"ce4bhr12rcd13ifvqhpg","pricing_plan_id":"cebpf4jnsgd1na2vs0mg"},{"bike_id":"5aaae974-ba1d-4021-b53c-d92a573b567b","system_id":"levelo_inurba_marseille","lat":43.31997,"lon":5.3817,"is_reserved":false,"is_disabled":false,"rental_uris":{"android":"levelo://app?vid=5aaae974-ba1d-4021-b53c-d92a573b567b","ios":"levelo://app?vid=5aaae974-ba1d-4021-b53c-d92a573b567b"},"vehicle_type_id":"4","last_reported":1718402896,"current_range_meters":20000,"station_id":"ce4bhr12rcd13ifvqhpg","pricing_plan_id":"cebpf4jnsgd1na2vs0mg"},{"bike_id":"0f9614f7-32f3-4021-9b48-329a3b8ad4ad","system_id":"levelo_inurba_marseille","lat":43.313571,"lon":5.384829,"is_reserved":false,"is_disabled":false,"rental_uris":{"android":"levelo://app?vid=0f9614f7-32f3-4021-9b48-329a3b8ad4ad","ios":"levelo://app?vid=0f9614f7-32f3-4021-9b48-329a3b8ad4ad"},"vehicle_type_id":"4","last_reported":1718402896,"current_range_meters":25200,"station_id":"ce4bgt92rcd13ifvqcf0","pricing_plan_id":"cebpf4jnsgd1na2vs0mg"},{"bike_id":"37471f4c-741d-4423-ad28-3beb8104ff11","system_id":"levelo_inurba_marseille","lat":43.299898,"lon":5.370125,"is_reserved":false,"is_disabled":false,"rental_uris":{"android":"levelo://app?vid=37471f4c-741d-4423-ad28-3beb8104ff11","ios":"levelo://app?vid=37471f4c-741d-4423-ad28-3beb8104ff11"},"vehicle_type_id":"4","last_reported":1718402896,"current_range_meters":12000,"station_id":"","pricing_plan_id":"cebpf4jnsgd1na2vs0mg"},{"bike_id":"39a44efd-d5f1-48d9-973b-d5d5532428a1","system_id":"levelo_inurba_marseille","lat":43.313571,"lon":5.384829,"is_reserved":false,"is_disabled":false,"rental_uris":{"android":"levelo://app?vid=39a44efd-d5f1-48d9-973b-d5d5532428a1","ios":"levelo://app?vid=39a44efd-d5f1-48d9-973b-d5d5532428a1"},"vehicle_type_id":"4","last_reported":1718402896,"current_range_meters":23200,"station_id":"ce4bgt92rcd13ifvqcf0","pricing_plan_id":"cebpf4jnsgd1na2vs0mg"},{"bike_id":"1a125627-43b0-4923-abb8-1c7db17fe7cf","system_id":"levelo_inurba_marseille","lat":43.313571,"lon":5.384829,"is_reserved":false,"is_disabled":false,"rental_uris":{"android":"levelo://app?vid=1a125627-43b0-4923-abb8-1c7db17fe7cf","ios":"levelo://app?vid=1a125627-43b0-4923-abb8-1c7db17fe7cf"},"vehicle_type_id":"4","last_reported":1718402896,"current_range_meters":31200,"station_id":"ce4bgt92rcd13ifvqcf0","pricing_plan_id":"cebpf4jnsgd1na2vs0mg"},{"bike_id":"25fa0556-2b1e-43bd-bcbf-763ebddd7269","system_id":"levelo_inurba_marseille","lat":43.313571,"lon":5.384829,"is_reserved":false,"is_disabled":false,"rental_uris":{"android":"levelo://app?vid=25fa0556-2b1e-43bd-bcbf-763ebddd7269","ios":"levelo://app?vid=25fa0556-2b1e-43bd-bcbf-763ebddd7269"},"vehicle_type_id":"4","last_reported":1718402896,"current_range_meters":22400,"station_id":"ce4bgt92rcd13ifvqcf0","pricing_plan_id":"cebpf4jnsgd1na2vs0mg"},{"bike_id":"61737e6f-fe06-43e3-b704-acd1200ceba2","system_id":"levelo_inurba_marseille","lat":43.313571,"lon":5.384829,"is_reserved":false,"is_disabled":false,"rental_uris":{"android":"levelo://app?vid=61737e6f-fe06-43e3-b704-acd1200ceba2","ios":"levelo://app?vid=61737e6f-fe06-43e3-b704-acd1200ceba2"},"vehicle_type_id":"4","last_reported":1718402896,"current_range_meters":12800,"station_id":"ce4bgt92rcd13ifvqcf0","pricing_plan_id":"cebpf4jnsgd1na2vs0mg"},{"bike_id":"9cfaa374-9ca3-4482-9de9-d988b3a4921f","system_id":"levelo_inurba_marseille","lat":43.30304,"lon":5.368987,"is_reserved":false,"is_disabled":false,"rental_uris":{"android":"levelo://app?vid=9cfaa374-9ca3-4482-9de9-d988b3a4921f","ios":"levelo://app?vid=9cfaa374-9ca3-4482-9de9-d988b3a4921f"},"vehicle_type_id":"4","last_reported":1718402896,"current_range_meters":21200,"station_id":"ce4bgqh2rcd13ifvqc5g","pricing_plan_id":"cebpf4jnsgd1na2vs0mg"},{"bike_id":"2ddbd456-fe7c-4e18-aae0-6addd830c8f9","system_id":"levelo_inurba_marseille","lat":43.299769,"lon":5.371822,"is_reserved":false,"is_disabled":false,"rental_uris":{"android":"levelo://app?vid=2ddbd456-fe7c-4e18-aae0-6addd830c8f9","ios":"levelo://app?vid=2ddbd456-fe7c-4e18-aae0-6addd830c8f9"},"vehicle_type_id":"4","last_reported":1718402896,"current_range_meters":6800,"station_id":"ce4bgr92rcd13ifvqc7g","pricing_plan_id":"cebpf4jnsgd1na2vs0mg"},{"bike_id":"13168684-3595-4a7b-806f-9d8679af6dbe","system_id":"levelo_inurba_marseille","lat":43.30539,"lon":5.3842,"is_reserved":false,"is_disabled":false,"rental_uris":{"android":"levelo://app?vid=13168684-3595-4a7b-806f-9d8679af6dbe","ios":"levelo://app?vid=13168684-3595-4a7b-806f-9d8679af6dbe"},"vehicle_type_id":"4","last_reported":1718402896,"current_range_meters":2800,"station_id":"ce4bgg92rcd13ifvqb30","pricing_plan_id":"cebpf4jnsgd1na2vs0mg"},{"bike_id":"52e5d2b5-ceb6-4f95-a393-83084ee8bd93","system_id":"levelo_inurba_marseille","lat":43.305364,"lon":5.384119,"is_reserved":false,"is_disabled":false,"rental_uris":{"android":"levelo://app?vid=52e5d2b5-ceb6-4f95-a393-83084ee8bd93","ios":"levelo://app?vid=52e5d2b5-ceb6-4f95-a393-83084ee8bd93"},"vehicle_type_id":"4","last_reported":1718402896,"current_range_meters":12000,"station_id":"ce4bgg92rcd13ifvqb30","pricing_plan_id":"cebpf4jnsgd1na2vs0mg"},{"bike_id":"76e7cdfe-3b92-437c-bdb5-0fde9722f536","system_id":"levelo_inurba_marseille","lat":43.30542,"lon":5.38429,"is_reserved":false,"is_disabled":false,"rental_uris":{"android":"levelo://app?vid=76e7cdfe-3b92-437c-bdb5-0fde9722f536","ios":"levelo://app?vid=76e7cdfe-3b92-437c-bdb5-0fde9722f536"},"vehicle_type_id":"4","last_reported":1718402896,"current_range_meters":21600,"station_id":"","pricing_plan_id":"cebpf4jnsgd1na2vs0mg"},{"bike_id":"51eed92f-ff28-45ca-9c10-7b8c96191a35","system_id":"levelo_inurba_marseille","lat":43.305364,"lon":5.384119,"is_reserved":false,"is_disabled":false,"rental_uris":{"android":"levelo://app?vid=51eed92f-ff28-45ca-9c10-7b8c96191a35","ios":"levelo://app?vid=51eed92f-ff28-45ca-9c10-7b8c96191a35"},"vehicle_type_id":"4","last_reported":1718402896,"current_range_meters":18000,"station_id":"ce4bgg92rcd13ifvqb30","pricing_plan_id":"cebpf4jnsgd1na2vs0mg"},{"bike_id":"32eaedd3-5e62-45c4-a539-bd9f6347aa8a","system_id":"levelo_inurba_marseille","lat":43.311722,"lon":5.387247,"is_reserved":false,"is_disabled":false,"rental_uris":{"android":"levelo://app?vid=32eaedd3-5e62-45c4-a539-bd9f6347aa8a","ios":"levelo://app?vid=32eaedd3-5e62-45c4-a539-bd9f6347aa8a"},"vehicle_type_id":"4","last_reported":1718402896,"current_range_meters":4400,"station_id":"ce4bgv12rcd13ifvqcp0","pricing_plan_id":"cebpf4jnsgd1na2vs0mg"},{"bike_id":"09be5aed-9fc1-4c67-91c0-437c1a94337c","system_id":"levelo_inurba_marseille","lat":43.299243,"lon":5.37481,"is_reserved":false,"is_disabled":false,"rental_uris":{"android":"levelo://app?vid=09be5aed-9fc1-4c67-91c0-437c1a94337c","ios":"levelo://app?vid=09be5aed-9fc1-4c67-91c0-437c1a94337c"},"vehicle_type_id":"4","last_reported":1718402896,"current_range_meters":17600,"station_id":"ce4bgjh2rcd13ifvqbg0","pricing_plan_id":"cebpf4jnsgd1na2vs0mg"},{"bike_id":"8fc1c4d6-dda7-4b24-a3c3-f96552caae65","system_id":"levelo_inurba_marseille","lat":43.311722,"lon":5.387247,"is_reserved":false,"is_disabled":false,"rental_uris":{"android":"levelo://app?vid=8fc1c4d6-dda7-4b24-a3c3-f96552caae65","ios":"levelo://app?vid=8fc1c4d6-dda7-4b24-a3c3-f96552caae65"},"vehicle_type_id":"4","last_reported":1718402896,"current_range_meters":0,"station_id":"ce4bgv12rcd13ifvqcp0","pricing_plan_id":"cebpf4jnsgd1na2vs0mg"},{"bike_id":"f13e63b5-8abd-4f62-8c54-f554ee194fee","system_id":"levelo_inurba_marseille","lat":43.298,"lon":5.3625,"is_reserved":false,"is_disabled":false,"rental_uris":{"android":"levelo://app?vid=f13e63b5-8abd-4f62-8c54-f554ee194fee","ios":"levelo://app?vid=f13e63b5-8abd-4f62-8c54-f554ee194fee"},"vehicle_type_id":"4","last_reported":1718402896,"current_range_meters":21200,"station_id":"","pricing_plan_id":"cebpf4jnsgd1na2vs0mg"},{"bike_id":"c98e4a66-3919-417d-a388-f293689c3289","system_id":"levelo_inurba_marseille","lat":43.29796,"lon":5.371139,"is_reserved":false,"is_disabled":false,"rental_uris":{"android":"levelo://app?vid=c98e4a66-3919-417d-a388-f293689c3289","ios":"levelo://app?vid=c98e4a66-3919-417d-a388-f293689c3289"},"vehicle_type_id":"4","last_reported":1718402896,"current_range_meters":11600,"station_id":"ce4bgop2rcd13ifvqc1g","pricing_plan_id":"cebpf4jnsgd1na2vs0mg"},{"bike_id":"5d8b5af3-5aa9-4fa2-8728-c9e5bc161eb0","system_id":"levelo_inurba_marseille","lat":43.322872,"lon":5.382756,"is_reserved":false,"is_disabled":false,"rental_uris":{"android":"levelo://app?vid=5d8b5af3-5aa9-4fa2-8728-c9e5bc161eb0","ios":"levelo://app?vid=5d8b5af3-5aa9-4fa2-8728-c9e5bc161eb0"},"vehicle_type_id":"4","last_reported":1718402896,"current_range_meters":25200,"station_id":"ce4bhr12rcd13ifvqhqg","pricing_plan_id":"cebpf4jnsgd1na2vs0mg"},{"bike_id":"e025e930-8f82-4879-b09c-3202c4ca43ad","system_id":"levelo_inurba_marseille","lat":43.322872,"lon":5.382756,"is_reserved":false,"is_disabled":false,"rental_uris":{"android":"levelo://app?vid=e025e930-8f82-4879-b09c-3202c4ca43ad","ios":"levelo://app?vid=e025e930-8f82-4879-b09c-3202c4ca43ad"},"vehicle_type_id":"4","last_reported":1718402896,"current_range_meters":0,"station_id":"ce4bhr12rcd13ifvqhqg","pricing_plan_id":"cebpf4jnsgd1na2vs0mg"},{"bike_id":"73fcaec7-a775-48e8-9103-e10a847aaeee","system_id":"levelo_inurba_marseille","lat":43.29565,"lon":5.36514,"is_reserved":false,"is_disabled":false,"rental_uris":{"android":"levelo://app?vid=73fcaec7-a775-48e8-9103-e10a847aaeee","ios":"levelo://app?vid=73fcaec7-a775-48e8-9103-e10a847aaeee"},"vehicle_type_id":"4","last_reported":1718402896,"current_range_meters":19200,"station_id":"","pricing_plan_id":"cebpf4jnsgd1na2vs0mg"},{"bike_id":"4fbea831-5c8c-4144-8ddd-4a8cf89342e3","system_id":"levelo_inurba_marseille","lat":43.30953,"lon":5.390303,"is_reserved":false,"is_disabled":false,"rental_uris":{"android":"levelo://app?vid=4fbea831-5c8c-4144-8ddd-4a8cf89342e3","ios":"levelo://app?vid=4fbea831-5c8c-4144-8ddd-4a8cf89342e3"},"vehicle_type_id":"4","last_reported":1718402896,"current_range_meters":0,"station_id":"ce4bgup2rcd13ifvqco0","pricing_plan_id":"cebpf4jnsgd1na2vs0mg"},{"bike_id":"8eb44697-1c44-4c6c-9b91-28dfea929ab1","system_id":"levelo_inurba_marseille","lat":43.30964,"lon":5.3904,"is_reserved":false,"is_disabled":false,"rental_uris":{"android":"levelo://app?vid=8eb44697-1c44-4c6c-9b91-28dfea929ab1","ios":"levelo://app?vid=8eb44697-1c44-4c6c-9b91-28dfea929ab1"},"vehicle_type_id":"4","last_reported":1718402896,"current_range_meters":0,"station_id":"ce4bgup2rcd13ifvqco0","pricing_plan_id":"cebpf4jnsgd1na2vs0mg"},{"bike_id":"f9897197-1399-43e0-84af-f6998ec3818e","system_id":"levelo_inurba_marseille","lat":43.317557,"lon":5.390173,"is_reserved":false,"is_disabled":false,"rental_uris":{"android":"levelo://app?vid=f9897197-1399-43e0-84af-f6998ec3818e","ios":"levelo://app?vid=f9897197-1399-43e0-84af-f6998ec3818e"},"vehicle_type_id":"4","last_reported":1718402896,"current_range_meters":6800,"station_id":"ce4bhqp2rcd13ifvqhng","pricing_plan_id":"cebpf4jnsgd1na2vs0mg"},{"bike_id":"0bc6f987-62ff-4144-ae27-d77428a1da6b","system_id":"levelo_inurba_marseille","lat":43.317557,"lon":5.390173,"is_reserved":false,"is_disabled":false,"rental_uris":{"android":"levelo://app?vid=0bc6f987-62ff-4144-ae27-d77428a1da6b","ios":"levelo://app?vid=0bc6f987-62ff-4144-ae27-d77428a1da6b"},"vehicle_type_id":"4","last_reported":1718402896,"current_range_meters":25200,"station_id":"ce4bhqp2rcd13ifvqhng","pricing_plan_id":"cebpf4jnsgd1na2vs0mg"},{"bike_id":"79e9c433-b256-4753-9e1b-233c7fa4ffdd","system_id":"levelo_inurba_marseille","lat":43.317557,"lon":5.390173,"is_reserved":false,"is_disabled":false,"rental_uris":{"android":"levelo://app?vid=79e9c433-b256-4753-9e1b-233c7fa4ffdd","ios":"levelo://app?vid=79e9c433-b256-4753-9e1b-233c7fa4ffdd"},"vehicle_type_id":"4","last_reported":1718402896,"current_range_meters":25200,"station_id":"ce4bhqp2rcd13ifvqhng","pricing_plan_id":"cebpf4jnsgd1na2vs0mg"},{"bike_id":"688b3b30-0d19-4109-b55e-e3d8d2c0d6c9","system_id":"levelo_inurba_marseille","lat":43.317557,"lon":5.390173,"is_reserved":false,"is_disabled":false,"rental_uris":{"android":"levelo://app?vid=688b3b30-0d19-4109-b55e-e3d8d2c0d6c9","ios":"levelo://app?vid=688b3b30-0d19-4109-b55e-e3d8d2c0d6c9"},"vehicle_type_id":"4","last_reported":1718402896,"current_range_meters":21200,"station_id":"ce4bhqp2rcd13ifvqhng","pricing_plan_id":"cebpf4jnsgd1na2vs0mg"},{"bike_id":"d51789ea-eb04-4e0b-b0d1-a567aa1af80c","system_id":"levelo_inurba_marseille","lat":43.304606,"lon":5.379026,"is_reserved":false,"is_disabled":false,"rental_uris":{"android":"levelo://app?vid=d51789ea-eb04-4e0b-b0d1-a567aa1af80c","ios":"levelo://app?vid=d51789ea-eb04-4e0b-b0d1-a567aa1af80c"},"vehicle_type_id":"4","last_reported":1718402896,"current_range_meters":0,"station_id":"ce4bgup2rcd13ifvqcn0","pricing_plan_id":"cebpf4jnsgd1na2vs0mg"},{"bike_id":"f2bd9630-59f7-4f50-a629-055a0f10a3c4","system_id":"levelo_inurba_marseille","lat":43.2958,"lon":5.37515,"is_reserved":false,"is_disabled":false,"rental_uris":{"android":"levelo://app?vid=f2bd9630-59f7-4f50-a629-055a0f10a3c4","ios":"levelo://app?vid=f2bd9630-59f7-4f50-a629-055a0f10a3c4"},"vehicle_type_id":"4","last_reported":1718402896,"current_range_meters":29200,"station_id":"ce4bgh92rcd13ifvqb50","pricing_plan_id":"cebpf4jnsgd1na2vs0mg"},{"bike_id":"3228a7d1-e3fd-47cd-9b8e-91e827adb62c","system_id":"levelo_inurba_marseille","lat":43.298037,"lon":5.381066,"is_reserved":false,"is_disabled":false,"rental_uris":{"android":"levelo://app?vid=3228a7d1-e3fd-47cd-9b8e-91e827adb62c","ios":"levelo://app?vid=3228a7d1-e3fd-47cd-9b8e-91e827adb62c"},"vehicle_type_id":"4","last_reported":1718402896,"current_range_meters":29600,"station_id":"ce4bgip2rcd13ifvqbb0","pricing_plan_id":"cebpf4jnsgd1na2vs0mg"},{"bike_id":"3f8bf251-9a09-432f-a38d-436effa85bf9","system_id":"levelo_inurba_marseille","lat":43.304274,"lon":5.388873,"is_reserved":false,"is_disabled":false,"rental_uris":{"android":"levelo://app?vid=3f8bf251-9a09-432f-a38d-436effa85bf9","ios":"levelo://app?vid=3f8bf251-9a09-432f-a38d-436effa85bf9"},"vehicle_type_id":"4","last_reported":1718402896,"current_range_meters":11600,"station_id":"ce4bgk12rcd13ifvqbi0","pricing_plan_id":"cebpf4jnsgd1na2vs0mg"},{"bike_id":"117ec07c-8ead-42e4-b436-343c4163eaf5","system_id":"levelo_inurba_marseille","lat":43.304274,"lon":5.388873,"is_reserved":false,"is_disabled":false,"rental_uris":{"android":"levelo://app?vid=117ec07c-8ead-42e4-b436-343c4163eaf5","ios":"levelo://app?vid=117ec07c-8ead-42e4-b436-343c4163eaf5"},"vehicle_type_id":"4","last_reported":1718402896,"current_range_meters":25600,"station_id":"ce4bgk12rcd13ifvqbi0","pricing_plan_id":"cebpf4jnsgd1na2vs0mg"},{"bike_id":"33b04e32-fe43-4ef4-ac36-646597486463","system_id":"levelo_inurba_marseille","lat":43.296277,"lon":5.377108,"is_reserved":false,"is_disabled":false,"rental_uris":{"android":"levelo://app?vid=33b04e32-fe43-4ef4-ac36-646597486463","ios":"levelo://app?vid=33b04e32-fe43-4ef4-ac36-646597486463"},"vehicle_type_id":"4","last_reported":1718402896,"current_range_meters":9200,"station_id":"ce4bgi92rcd13ifvqb90","pricing_plan_id":"cebpf4jnsgd1na2vs0mg"},{"bike_id":"1b82ccb3-5c1b-4c8c-b65e-82f7b10b73ba","system_id":"levelo_inurba_marseille","lat":43.296263,"lon":5.377094,"is_reserved":false,"is_disabled":false,"rental_uris":{"android":"levelo://app?vid=1b82ccb3-5c1b-4c8c-b65e-82f7b10b73ba","ios":"levelo://app?vid=1b82ccb3-5c1b-4c8c-b65e-82f7b10b73ba"},"vehicle_type_id":"4","last_reported":1718402896,"current_range_meters":29200,"station_id":"ce4bgi92rcd13ifvqb90","pricing_plan_id":"cebpf4jnsgd1na2vs0mg"},{"bike_id":"58cdc768-4cad-4655-b8c2-227510cded0d","system_id":"levelo_inurba_marseille","lat":43.299717,"lon":5.384845,"is_reserved":false,"is_disabled":false,"rental_uris":{"android":"levelo://app?vid=58cdc768-4cad-4655-b8c2-227510cded0d","ios":"levelo://app?vid=58cdc768-4cad-4655-b8c2-227510cded0d"},"vehicle_type_id":"4","last_reported":1718402896,"current_range_meters":2000,"station_id":"ce4bgj92rcd13ifvqbd0","pricing_plan_id":"cebpf4jnsgd1na2vs0mg"},{"bike_id":"7ba69c11-0808-4b78-8b4f-6a87aeed4d92","system_id":"levelo_inurba_marseille","lat":43.29519,"lon":5.3758,"is_reserved":false,"is_disabled":false,"rental_uris":{"android":"levelo://app?vid=7ba69c11-0808-4b78-8b4f-6a87aeed4d92","ios":"levelo://app?vid=7ba69c11-0808-4b78-8b4f-6a87aeed4d92"},"vehicle_type_id":"4","last_reported":1718402896,"current_range_meters":16000,"station_id":"","pricing_plan_id":"cebpf4jnsgd1na2vs0mg"},{"bike_id":"8e4668e0-192f-49f6-a630-b9029e572def","system_id":"levelo_inurba_marseille","lat":43.32367,"lon":5.388836,"is_reserved":false,"is_disabled":false,"rental_uris":{"android":"levelo://app?vid=8e4668e0-192f-49f6-a630-b9029e572def","ios":"levelo://app?vid=8e4668e0-192f-49f6-a630-b9029e572def"},"vehicle_type_id":"4","last_reported":1718402896,"current_range_meters":6000,"station_id":"ce4bhqp2rcd13ifvqhog","pricing_plan_id":"cebpf4jnsgd1na2vs0mg"},{"bike_id":"a4d56e58-44f5-4f42-bd82-5d9b8dc594b4","system_id":"levelo_inurba_marseille","lat":43.293259,"lon":5.371586,"is_reserved":false,"is_disabled":false,"rental_uris":{"android":"levelo://app?vid=a4d56e58-44f5-4f42-bd82-5d9b8dc594b4","ios":"levelo://app?vid=a4d56e58-44f5-4f42-bd82-5d9b8dc594b4"},"vehicle_type_id":"4","last_reported":1718402896,"current_range_meters":0,"station_id":"ce4bgh92rcd13ifvqb40","pricing_plan_id":"cebpf4jnsgd1na2vs0mg"},{"bike_id":"774e3291-6b19-4467-9a11-37b30abf0f86","system_id":"levelo_inurba_marseille","lat":43.297142,"lon":5.384085,"is_reserved":false,"is_disabled":false,"rental_uris":{"android":"levelo://app?vid=774e3291-6b19-4467-9a11-37b30abf0f86","ios":"levelo://app?vid=774e3291-6b19-4467-9a11-37b30abf0f86"},"vehicle_type_id":"4","last_reported":1718402896,"current_range_meters":0,"station_id":"","pricing_plan_id":"cebpf4jnsgd1na2vs0mg"},{"bike_id":"a81aeadf-31e3-4789-b466-b19d11215a21","system_id":"levelo_inurba_marseille","lat":43.29276,"lon":5.36847,"is_reserved":false,"is_disabled":false,"rental_uris":{"android":"levelo://app?vid=a81aeadf-31e3-4789-b466-b19d11215a21","ios":"levelo://app?vid=a81aeadf-31e3-4789-b466-b19d11215a21"},"vehicle_type_id":"4","last_reported":1718402896,"current_range_meters":0,"station_id":"ce4bhbp2rcd13ifvqesg","pricing_plan_id":"cebpf4jnsgd1na2vs0mg"},{"bike_id":"94c0335d-8f8f-4996-ab2b-69c0c6469883","system_id":"levelo_inurba_marseille","lat":43.293249,"lon":5.371578,"is_reserved":false,"is_disabled":false,"rental_uris":{"android":"levelo://app?vid=94c0335d-8f8f-4996-ab2b-69c0c6469883","ios":"levelo://app?vid=94c0335d-8f8f-4996-ab2b-69c0c6469883"},"vehicle_type_id":"4","last_reported":1718402896,"current_range_meters":19600,"station_id":"ce4bgh92rcd13ifvqb40","pricing_plan_id":"cebpf4jnsgd1na2vs0mg"},{"bike_id":"1d569aed-89ef-4e76-8c27-66a10d312daa","system_id":"levelo_inurba_marseille","lat":43.292749,"lon":5.368402,"is_reserved":false,"is_disabled":false,"rental_uris":{"android":"levelo://app?vid=1d569aed-89ef-4e76-8c27-66a10d312daa","ios":"levelo://app?vid=1d569aed-89ef-4e76-8c27-66a10d312daa"},"vehicle_type_id":"4","last_reported":1718402896,"current_range_meters":0,"station_id":"ce4bhbp2rcd13ifvqesg","pricing_plan_id":"cebpf4jnsgd1na2vs0mg"},{"bike_id":"5d6d8f08-5aba-4962-bad9-8846a683a9f9","system_id":"levelo_inurba_marseille","lat":43.292724,"lon":5.401131,"is_reserved":false,"is_disabled":false,"rental_uris":{"android":"levelo://app?vid=5d6d8f08-5aba-4962-bad9-8846a683a9f9","ios":"levelo://app?vid=5d6d8f08-5aba-4962-bad9-8846a683a9f9"},"vehicle_type_id":"4","last_reported":1718402896,"current_range_meters":8800,"station_id":"ce4bh312rcd13ifvqdk0","pricing_plan_id":"cebpf4jnsgd1na2vs0mg"},{"bike_id":"679678ba-1c83-4744-9028-16835389def0","system_id":"levelo_inurba_marseille","lat":43.29298,"lon":5.37457,"is_reserved":false,"is_disabled":false,"rental_uris":{"android":"levelo://app?vid=679678ba-1c83-4744-9028-16835389def0","ios":"levelo://app?vid=679678ba-1c83-4744-9028-16835389def0"},"vehicle_type_id":"4","last_reported":1718402896,"current_range_meters":0,"station_id":"ce4bgi12rcd13ifvqb70","pricing_plan_id":"cebpf4jnsgd1na2vs0mg"},{"bike_id":"0a7aa1f8-1f56-4c14-bd41-05c2f9c33c58","system_id":"levelo_inurba_marseille","lat":43.292967,"lon":5.374567,"is_reserved":false,"is_disabled":false,"rental_uris":{"android":"levelo://app?vid=0a7aa1f8-1f56-4c14-bd41-05c2f9c33c58","ios":"levelo://app?vid=0a7aa1f8-1f56-4c14-bd41-05c2f9c33c58"},"vehicle_type_id":"4","last_reported":1718402896,"current_range_meters":22800,"station_id":"ce4bgi12rcd13ifvqb70","pricing_plan_id":"cebpf4jnsgd1na2vs0mg"},{"bike_id":"cdbbe46e-b90b-4b90-9d17-6bc934e90700","system_id":"levelo_inurba_marseille","lat":43.2936,"lon":5.37835,"is_reserved":false,"is_disabled":false,"rental_uris":{"android":"levelo://app?vid=cdbbe46e-b90b-4b90-9d17-6bc934e90700","ios":"levelo://app?vid=cdbbe46e-b90b-4b90-9d17-6bc934e90700"},"vehicle_type_id":"4","last_reported":1718402896,"current_range_meters":24800,"station_id":"ce4bgjh2rcd13ifvqbf0","pricing_plan_id":"cebpf4jnsgd1na2vs0mg"},{"bike_id":"f049b231-e0b9-4c94-b3e2-1656eb63a910","system_id":"levelo_inurba_marseille","lat":43.2936,"lon":5.37835,"is_reserved":false,"is_disabled":false,"rental_uris":{"android":"levelo://app?vid=f049b231-e0b9-4c94-b3e2-1656eb63a910","ios":"levelo://app?vid=f049b231-e0b9-4c94-b3e2-1656eb63a910"},"vehicle_type_id":"4","last_reported":1718402896,"current_range_meters":15600,"station_id":"ce4bgjh2rcd13ifvqbf0","pricing_plan_id":"cebpf4jnsgd1na2vs0mg"},{"bike_id":"81f569dc-f457-4c6a-890a-12d95846320f","system_id":"levelo_inurba_marseille","lat":43.2936,"lon":5.37835,"is_reserved":false,"is_disabled":false,"rental_uris":{"android":"levelo://app?vid=81f569dc-f457-4c6a-890a-12d95846320f","ios":"levelo://app?vid=81f569dc-f457-4c6a-890a-12d95846320f"},"vehicle_type_id":"4","last_reported":1718402896,"current_range_meters":20800,"station_id":"ce4bgjh2rcd13ifvqbf0","pricing_plan_id":"cebpf4jnsgd1na2vs0mg"},{"bike_id":"1e2b5bb6-6427-49b9-89ee-149218c50eb7","system_id":"levelo_inurba_marseille","lat":43.298444,"lon":5.38819,"is_reserved":false,"is_disabled":false,"rental_uris":{"android":"levelo://app?vid=1e2b5bb6-6427-49b9-89ee-149218c50eb7","ios":"levelo://app?vid=1e2b5bb6-6427-49b9-89ee-149218c50eb7"},"vehicle_type_id":"4","last_reported":1718402896,"current_range_meters":0,"station_id":"","pricing_plan_id":"cebpf4jnsgd1na2vs0mg"},{"bike_id":"9b496775-3153-4ca9-b57b-bfb9c727c8df","system_id":"levelo_inurba_marseille","lat":43.298891,"lon":5.388913,"is_reserved":false,"is_disabled":false,"rental_uris":{"android":"levelo://app?vid=9b496775-3153-4ca9-b57b-bfb9c727c8df","ios":"levelo://app?vid=9b496775-3153-4ca9-b57b-bfb9c727c8df"},"vehicle_type_id":"4","last_reported":1718402896,"current_range_meters":27200,"station_id":"ce4bh392rcd13ifvqdl0","pricing_plan_id":"cebpf4jnsgd1na2vs0mg"},{"bike_id":"6aaff580-d436-44a0-b6b8-a67ce2e703a7","system_id":"levelo_inurba_marseille","lat":43.298764,"lon":5.388973,"is_reserved":false,"is_disabled":false,"rental_uris":{"android":"levelo://app?vid=6aaff580-d436-44a0-b6b8-a67ce2e703a7","ios":"levelo://app?vid=6aaff580-d436-44a0-b6b8-a67ce2e703a7"},"vehicle_type_id":"4","last_reported":1718402896,"current_range_meters":0,"station_id":"ce4bh392rcd13ifvqdl0","pricing_plan_id":"cebpf4jnsgd1na2vs0mg"},{"bike_id":"cd882586-30bd-4d57-9d70-c0de595bdfd8","system_id":"levelo_inurba_marseille","lat":43.298764,"lon":5.388973,"is_reserved":false,"is_disabled":false,"rental_uris":{"android":"levelo://app?vid=cd882586-30bd-4d57-9d70-c0de595bdfd8","ios":"levelo://app?vid=cd882586-30bd-4d57-9d70-c0de595bdfd8"},"vehicle_type_id":"4","last_reported":1718402896,"current_range_meters":18400,"station_id":"ce4bh392rcd13ifvqdl0","pricing_plan_id":"cebpf4jnsgd1na2vs0mg"},{"bike_id":"5c4db840-9ad9-4f12-bd87-db1beb365286","system_id":"levelo_inurba_marseille","lat":43.291675,"lon":5.371583,"is_reserved":false,"is_disabled":false,"rental_uris":{"android":"levelo://app?vid=5c4db840-9ad9-4f12-bd87-db1beb365286","ios":"levelo://app?vid=5c4db840-9ad9-4f12-bd87-db1beb365286"},"vehicle_type_id":"4","last_reported":1718402896,"current_range_meters":10000,"station_id":"ce4bha92rcd13ifvqeh0","pricing_plan_id":"cebpf4jnsgd1na2vs0mg"},{"bike_id":"e1dd8fb8-4681-4905-9009-66f4d9c94170","system_id":"levelo_inurba_marseille","lat":43.291671,"lon":5.371575,"is_reserved":false,"is_disabled":false,"rental_uris":{"android":"levelo://app?vid=e1dd8fb8-4681-4905-9009-66f4d9c94170","ios":"levelo://app?vid=e1dd8fb8-4681-4905-9009-66f4d9c94170"},"vehicle_type_id":"4","last_reported":1718402896,"current_range_meters":800,"station_id":"ce4bha92rcd13ifvqeh0","pricing_plan_id":"cebpf4jnsgd1na2vs0mg"},{"bike_id":"7dbdf34b-2270-481d-8470-0360b5327cc1","system_id":"levelo_inurba_marseille","lat":43.31327,"lon":5.39687,"is_reserved":false,"is_disabled":false,"rental_uris":{"android":"levelo://app?vid=7dbdf34b-2270-481d-8470-0360b5327cc1","ios":"levelo://app?vid=7dbdf34b-2270-481d-8470-0360b5327cc1"},"vehicle_type_id":"4","last_reported":1718402896,"current_range_meters":19200,"station_id":"","pricing_plan_id":"cebpf4jnsgd1na2vs0mg"},{"bike_id":"449f6b90-8217-494a-a978-ce435814b80c","system_id":"levelo_inurba_marseille","lat":43.313291,"lon":5.396838,"is_reserved":false,"is_disabled":false,"rental_uris":{"android":"levelo://app?vid=449f6b90-8217-494a-a978-ce435814b80c","ios":"levelo://app?vid=449f6b90-8217-494a-a978-ce435814b80c"},"vehicle_type_id":"4","last_reported":1718402896,"current_range_meters":0,"station_id":"ce4bgvp2rcd13ifvqcu0","pricing_plan_id":"cebpf4jnsgd1na2vs0mg"},{"bike_id":"89abc464-9d1c-48ca-bc96-792309d78224","system_id":"levelo_inurba_marseille","lat":43.3089,"lon":5.39642,"is_reserved":false,"is_disabled":false,"rental_uris":{"android":"levelo://app?vid=89abc464-9d1c-48ca-bc96-792309d78224","ios":"levelo://app?vid=89abc464-9d1c-48ca-bc96-792309d78224"},"vehicle_type_id":"4","last_reported":1718402896,"current_range_meters":2400,"station_id":"ce4bh012rcd13ifvqcv0","pricing_plan_id":"cebpf4jnsgd1na2vs0mg"},{"bike_id":"48bf27cb-6d54-408b-9bef-a53f493645d6","system_id":"levelo_inurba_marseille","lat":43.313291,"lon":5.396838,"is_reserved":false,"is_disabled":false,"rental_uris":{"android":"levelo://app?vid=48bf27cb-6d54-408b-9bef-a53f493645d6","ios":"levelo://app?vid=48bf27cb-6d54-408b-9bef-a53f493645d6"},"vehicle_type_id":"4","last_reported":1718402896,"current_range_meters":18400,"station_id":"ce4bgvp2rcd13ifvqcu0","pricing_plan_id":"cebpf4jnsgd1na2vs0mg"},{"bike_id":"1937b53e-9805-4d2d-8647-4f3d7cc2f669","system_id":"levelo_inurba_marseille","lat":43.313291,"lon":5.396838,"is_reserved":false,"is_disabled":false,"rental_uris":{"android":"levelo://app?vid=1937b53e-9805-4d2d-8647-4f3d7cc2f669","ios":"levelo://app?vid=1937b53e-9805-4d2d-8647-4f3d7cc2f669"},"vehicle_type_id":"4","last_reported":1718402896,"current_range_meters":12000,"station_id":"ce4bgvp2rcd13ifvqcu0","pricing_plan_id":"cebpf4jnsgd1na2vs0mg"},{"bike_id":"3ffc0be7-c40c-4891-9d9e-d0da5198f521","system_id":"levelo_inurba_marseille","lat":43.313291,"lon":5.396838,"is_reserved":false,"is_disabled":false,"rental_uris":{"android":"levelo://app?vid=3ffc0be7-c40c-4891-9d9e-d0da5198f521","ios":"levelo://app?vid=3ffc0be7-c40c-4891-9d9e-d0da5198f521"},"vehicle_type_id":"4","last_reported":1718402896,"current_range_meters":28400,"station_id":"ce4bgvp2rcd13ifvqcu0","pricing_plan_id":"cebpf4jnsgd1na2vs0mg"},{"bike_id":"c28a5f72-d922-40f1-ac46-b597ad2386c5","system_id":"levelo_inurba_marseille","lat":43.31334,"lon":5.39691,"is_reserved":false,"is_disabled":false,"rental_uris":{"android":"levelo://app?vid=c28a5f72-d922-40f1-ac46-b597ad2386c5","ios":"levelo://app?vid=c28a5f72-d922-40f1-ac46-b597ad2386c5"},"vehicle_type_id":"4","last_reported":1718402896,"current_range_meters":0,"station_id":"ce4bgvp2rcd13ifvqcu0","pricing_plan_id":"cebpf4jnsgd1na2vs0mg"},{"bike_id":"72b9fbbc-a239-4854-9f80-f967625f5dee","system_id":"levelo_inurba_marseille","lat":43.313291,"lon":5.396838,"is_reserved":false,"is_disabled":false,"rental_uris":{"android":"levelo://app?vid=72b9fbbc-a239-4854-9f80-f967625f5dee","ios":"levelo://app?vid=72b9fbbc-a239-4854-9f80-f967625f5dee"},"vehicle_type_id":"4","last_reported":1718402896,"current_range_meters":5600,"station_id":"ce4bgvp2rcd13ifvqcu0","pricing_plan_id":"cebpf4jnsgd1na2vs0mg"},{"bike_id":"346f0d8b-bca2-4939-aad7-a6ff3fb1386f","system_id":"levelo_inurba_marseille","lat":43.313291,"lon":5.396838,"is_reserved":false,"is_disabled":false,"rental_uris":{"android":"levelo://app?vid=346f0d8b-bca2-4939-aad7-a6ff3fb1386f","ios":"levelo://app?vid=346f0d8b-bca2-4939-aad7-a6ff3fb1386f"},"vehicle_type_id":"4","last_reported":1718402896,"current_range_meters":32000,"station_id":"ce4bgvp2rcd13ifvqcu0","pricing_plan_id":"cebpf4jnsgd1na2vs0mg"},{"bike_id":"6ec9a84b-f53a-4b22-8455-fda323d0275a","system_id":"levelo_inurba_marseille","lat":43.302008,"lon":5.394694,"is_reserved":false,"is_disabled":false,"rental_uris":{"android":"levelo://app?vid=6ec9a84b-f53a-4b22-8455-fda323d0275a","ios":"levelo://app?vid=6ec9a84b-f53a-4b22-8455-fda323d0275a"},"vehicle_type_id":"4","last_reported":1718402896,"current_range_meters":12000,"station_id":"ce4bh0p2rcd13ifvqd70","pricing_plan_id":"cebpf4jnsgd1na2vs0mg"},{"bike_id":"788559d9-7d2c-4db9-899b-6fa488ece1cf","system_id":"levelo_inurba_marseille","lat":43.290624,"lon":5.359245,"is_reserved":false,"is_disabled":false,"rental_uris":{"android":"levelo://app?vid=788559d9-7d2c-4db9-899b-6fa488ece1cf","ios":"levelo://app?vid=788559d9-7d2c-4db9-899b-6fa488ece1cf"},"vehicle_type_id":"4","last_reported":1718402896,"current_range_meters":20000,"station_id":"ce4bha92rcd13ifvqeg0","pricing_plan_id":"cebpf4jnsgd1na2vs0mg"},{"bike_id":"a0b46a44-8ba6-4ec3-9a94-cdd0865bfc65","system_id":"levelo_inurba_marseille","lat":43.290319,"lon":5.375732,"is_reserved":false,"is_disabled":false,"rental_uris":{"android":"levelo://app?vid=a0b46a44-8ba6-4ec3-9a94-cdd0865bfc65","ios":"levelo://app?vid=a0b46a44-8ba6-4ec3-9a94-cdd0865bfc65"},"vehicle_type_id":"4","last_reported":1718402896,"current_range_meters":8800,"station_id":"ce4bh692rcd13ifvqe90","pricing_plan_id":"cebpf4jnsgd1na2vs0mg"},{"bike_id":"7d9c8016-03ab-4594-bc48-e27f6b5b33da","system_id":"levelo_inurba_marseille","lat":43.29417,"lon":5.38622,"is_reserved":false,"is_disabled":false,"rental_uris":{"android":"levelo://app?vid=7d9c8016-03ab-4594-bc48-e27f6b5b33da","ios":"levelo://app?vid=7d9c8016-03ab-4594-bc48-e27f6b5b33da"},"vehicle_type_id":"4","last_reported":1718402896,"current_range_meters":0,"station_id":"ce4bh2h2rcd13ifvqdh0","pricing_plan_id":"cebpf4jnsgd1na2vs0mg"},{"bike_id":"45681a50-30e8-4b76-9d32-1da0c3f2804b","system_id":"levelo_inurba_marseille","lat":43.304274,"lon":5.397513,"is_reserved":false,"is_disabled":false,"rental_uris":{"android":"levelo://app?vid=45681a50-30e8-4b76-9d32-1da0c3f2804b","ios":"levelo://app?vid=45681a50-30e8-4b76-9d32-1da0c3f2804b"},"vehicle_type_id":"4","last_reported":1718402896,"current_range_meters":8000,"station_id":"ce4bh092rcd13ifvqd20","pricing_plan_id":"cebpf4jnsgd1na2vs0mg"},{"bike_id":"f84b0f1a-3350-409e-8df9-4456b598cc0d","system_id":"levelo_inurba_marseille","lat":43.304296,"lon":5.397513,"is_reserved":false,"is_disabled":false,"rental_uris":{"android":"levelo://app?vid=f84b0f1a-3350-409e-8df9-4456b598cc0d","ios":"levelo://app?vid=f84b0f1a-3350-409e-8df9-4456b598cc0d"},"vehicle_type_id":"4","last_reported":1718402896,"current_range_meters":26400,"station_id":"ce4bh092rcd13ifvqd20","pricing_plan_id":"cebpf4jnsgd1na2vs0mg"},{"bike_id":"134d292f-2909-4933-a772-d5b94787aa48","system_id":"levelo_inurba_marseille","lat":43.29269,"lon":5.3844,"is_reserved":false,"is_disabled":false,"rental_uris":{"android":"levelo://app?vid=134d292f-2909-4933-a772-d5b94787aa48","ios":"levelo://app?vid=134d292f-2909-4933-a772-d5b94787aa48"},"vehicle_type_id":"4","last_reported":1718402896,"current_range_meters":28400,"station_id":"ce4bh692rcd13ifvqea0","pricing_plan_id":"cebpf4jnsgd1na2vs0mg"},{"bike_id":"4eaf905f-6145-4f27-ba46-43738122e40a","system_id":"levelo_inurba_marseille","lat":43.32947,"lon":5.39012,"is_reserved":false,"is_disabled":false,"rental_uris":{"android":"levelo://app?vid=4eaf905f-6145-4f27-ba46-43738122e40a","ios":"levelo://app?vid=4eaf905f-6145-4f27-ba46-43738122e40a"},"vehicle_type_id":"4","last_reported":1718402896,"current_range_meters":28400,"station_id":"","pricing_plan_id":"cebpf4jnsgd1na2vs0mg"},{"bike_id":"5aa758da-f0ad-42dd-b7a2-66f7ba34f1f0","system_id":"levelo_inurba_marseille","lat":43.292642,"lon":5.384254,"is_reserved":false,"is_disabled":false,"rental_uris":{"android":"levelo://app?vid=5aa758da-f0ad-42dd-b7a2-66f7ba34f1f0","ios":"levelo://app?vid=5aa758da-f0ad-42dd-b7a2-66f7ba34f1f0"},"vehicle_type_id":"4","last_reported":1718402896,"current_range_meters":400,"station_id":"ce4bh692rcd13ifvqea0","pricing_plan_id":"cebpf4jnsgd1na2vs0mg"},{"bike_id":"1dba12d8-823b-4ed2-94d8-68fa14294104","system_id":"levelo_inurba_marseille","lat":43.29265,"lon":5.38439,"is_reserved":false,"is_disabled":false,"rental_uris":{"android":"levelo://app?vid=1dba12d8-823b-4ed2-94d8-68fa14294104","ios":"levelo://app?vid=1dba12d8-823b-4ed2-94d8-68fa14294104"},"vehicle_type_id":"4","last_reported":1718402896,"current_range_meters":0,"station_id":"ce4bh692rcd13ifvqea0","pricing_plan_id":"cebpf4jnsgd1na2vs0mg"},{"bike_id":"d8995579-e80a-4467-973d-2cc332da88b9","system_id":"levelo_inurba_marseille","lat":43.29269,"lon":5.38449,"is_reserved":false,"is_disabled":false,"rental_uris":{"android":"levelo://app?vid=d8995579-e80a-4467-973d-2cc332da88b9","ios":"levelo://app?vid=d8995579-e80a-4467-973d-2cc332da88b9"},"vehicle_type_id":"4","last_reported":1718402896,"current_range_meters":0,"station_id":"ce4bh692rcd13ifvqea0","pricing_plan_id":"cebpf4jnsgd1na2vs0mg"},{"bike_id":"39a55bee-a587-4e2b-a5a9-5b3ba3fa744a","system_id":"levelo_inurba_marseille","lat":43.292651,"lon":5.38444,"is_reserved":false,"is_disabled":false,"rental_uris":{"android":"levelo://app?vid=39a55bee-a587-4e2b-a5a9-5b3ba3fa744a","ios":"levelo://app?vid=39a55bee-a587-4e2b-a5a9-5b3ba3fa744a"},"vehicle_type_id":"4","last_reported":1718402896,"current_range_meters":18000,"station_id":"ce4bh692rcd13ifvqea0","pricing_plan_id":"cebpf4jnsgd1na2vs0mg"},{"bike_id":"0efacb8c-26ad-4cee-b4ee-636e74840b99","system_id":"levelo_inurba_marseille","lat":43.292642,"lon":5.384254,"is_reserved":false,"is_disabled":false,"rental_uris":{"android":"levelo://app?vid=0efacb8c-26ad-4cee-b4ee-636e74840b99","ios":"levelo://app?vid=0efacb8c-26ad-4cee-b4ee-636e74840b99"},"vehicle_type_id":"4","last_reported":1718402896,"current_range_meters":24400,"station_id":"ce4bh692rcd13ifvqea0","pricing_plan_id":"cebpf4jnsgd1na2vs0mg"},{"bike_id":"b9ce46ea-550a-47ba-bb49-345a98fa6428","system_id":"levelo_inurba_marseille","lat":43.29262,"lon":5.38446,"is_reserved":false,"is_disabled":false,"rental_uris":{"android":"levelo://app?vid=b9ce46ea-550a-47ba-bb49-345a98fa6428","ios":"levelo://app?vid=b9ce46ea-550a-47ba-bb49-345a98fa6428"},"vehicle_type_id":"4","last_reported":1718402896,"current_range_meters":10400,"station_id":"ce4bh692rcd13ifvqea0","pricing_plan_id":"cebpf4jnsgd1na2vs0mg"},{"bike_id":"d521d3b5-bdd6-41ab-83f5-0e53ae376399","system_id":"levelo_inurba_marseille","lat":43.290995,"lon":5.381361,"is_reserved":false,"is_disabled":false,"rental_uris":{"android":"levelo://app?vid=d521d3b5-bdd6-41ab-83f5-0e53ae376399","ios":"levelo://app?vid=d521d3b5-bdd6-41ab-83f5-0e53ae376399"},"vehicle_type_id":"4","last_reported":1718402896,"current_range_meters":3200,"station_id":"ce4bh512rcd13ifvqe2g","pricing_plan_id":"cebpf4jnsgd1na2vs0mg"},{"bike_id":"bec9c7cf-c0ee-4627-acb9-a99eefa77d0f","system_id":"levelo_inurba_marseille","lat":43.290995,"lon":5.381361,"is_reserved":false,"is_disabled":false,"rental_uris":{"android":"levelo://app?vid=bec9c7cf-c0ee-4627-acb9-a99eefa77d0f","ios":"levelo://app?vid=bec9c7cf-c0ee-4627-acb9-a99eefa77d0f"},"vehicle_type_id":"4","last_reported":1718402896,"current_range_meters":6800,"station_id":"ce4bh512rcd13ifvqe2g","pricing_plan_id":"cebpf4jnsgd1na2vs0mg"},{"bike_id":"731805bf-87b8-4fe2-89b5-d72b1e3ee67a","system_id":"levelo_inurba_marseille","lat":43.290995,"lon":5.381361,"is_reserved":false,"is_disabled":false,"rental_uris":{"android":"levelo://app?vid=731805bf-87b8-4fe2-89b5-d72b1e3ee67a","ios":"levelo://app?vid=731805bf-87b8-4fe2-89b5-d72b1e3ee67a"},"vehicle_type_id":"4","last_reported":1718402896,"current_range_meters":12000,"station_id":"ce4bh512rcd13ifvqe2g","pricing_plan_id":"cebpf4jnsgd1na2vs0mg"},{"bike_id":"8ce94f48-b36d-47a8-ac44-2f395345771a","system_id":"levelo_inurba_marseille","lat":43.28986,"lon":5.35555,"is_reserved":false,"is_disabled":false,"rental_uris":{"android":"levelo://app?vid=8ce94f48-b36d-47a8-ac44-2f395345771a","ios":"levelo://app?vid=8ce94f48-b36d-47a8-ac44-2f395345771a"},"vehicle_type_id":"4","last_reported":1718402896,"current_range_meters":0,"station_id":"","pricing_plan_id":"cebpf4jnsgd1na2vs0mg"},{"bike_id":"7d2ae9dc-af13-4e04-a4e2-d0b0fb200c09","system_id":"levelo_inurba_marseille","lat":43.29792,"lon":5.39354,"is_reserved":false,"is_disabled":false,"rental_uris":{"android":"levelo://app?vid=7d2ae9dc-af13-4e04-a4e2-d0b0fb200c09","ios":"levelo://app?vid=7d2ae9dc-af13-4e04-a4e2-d0b0fb200c09"},"vehicle_type_id":"4","last_reported":1718402896,"current_range_meters":24000,"station_id":"chh1huq6cuj3fo74tm60","pricing_plan_id":"cebpf4jnsgd1na2vs0mg"},{"bike_id":"7b6b5c2c-0d04-4c69-938c-efb4789c8d09","system_id":"levelo_inurba_marseille","lat":43.297815,"lon":5.393548,"is_reserved":false,"is_disabled":false,"rental_uris":{"android":"levelo://app?vid=7b6b5c2c-0d04-4c69-938c-efb4789c8d09","ios":"levelo://app?vid=7b6b5c2c-0d04-4c69-938c-efb4789c8d09"},"vehicle_type_id":"4","last_reported":1718402896,"current_range_meters":30800,"station_id":"chh1huq6cuj3fo74tm60","pricing_plan_id":"cebpf4jnsgd1na2vs0mg"},{"bike_id":"df4b3b69-caec-4af7-8944-58bbb088c20a","system_id":"levelo_inurba_marseille","lat":43.33025,"lon":5.39041,"is_reserved":false,"is_disabled":false,"rental_uris":{"android":"levelo://app?vid=df4b3b69-caec-4af7-8944-58bbb088c20a","ios":"levelo://app?vid=df4b3b69-caec-4af7-8944-58bbb088c20a"},"vehicle_type_id":"4","last_reported":1718402896,"current_range_meters":8800,"station_id":"ce4bhr92rcd13ifvqhrg","pricing_plan_id":"cebpf4jnsgd1na2vs0mg"},{"bike_id":"46980f1c-27b1-4202-ae54-34f005cdc9e9","system_id":"levelo_inurba_marseille","lat":43.330442,"lon":5.389148,"is_reserved":false,"is_disabled":false,"rental_uris":{"android":"levelo://app?vid=46980f1c-27b1-4202-ae54-34f005cdc9e9","ios":"levelo://app?vid=46980f1c-27b1-4202-ae54-34f005cdc9e9"},"vehicle_type_id":"4","last_reported":1718402896,"current_range_meters":15600,"station_id":"ce4bhr92rcd13ifvqhrg","pricing_plan_id":"cebpf4jnsgd1na2vs0mg"},{"bike_id":"6709ac12-0296-41d9-8183-20e641bb5147","system_id":"levelo_inurba_marseille","lat":43.289743,"lon":5.378304,"is_reserved":false,"is_disabled":false,"rental_uris":{"android":"levelo://app?vid=6709ac12-0296-41d9-8183-20e641bb5147","ios":"levelo://app?vid=6709ac12-0296-41d9-8183-20e641bb5147"},"vehicle_type_id":"4","last_reported":1718402896,"current_range_meters":0,"station_id":"ce4bh9p2rcd13ifvqed0","pricing_plan_id":"cebpf4jnsgd1na2vs0mg"},{"bike_id":"d66a66b9-6b89-4ac3-a027-04ddf51ec1d1","system_id":"levelo_inurba_marseille","lat":43.330265,"lon":5.39045,"is_reserved":false,"is_disabled":false,"rental_uris":{"android":"levelo://app?vid=d66a66b9-6b89-4ac3-a027-04ddf51ec1d1","ios":"levelo://app?vid=d66a66b9-6b89-4ac3-a027-04ddf51ec1d1"},"vehicle_type_id":"4","last_reported":1718402896,"current_range_meters":17200,"station_id":"ce4bhr92rcd13ifvqhrg","pricing_plan_id":"cebpf4jnsgd1na2vs0mg"},{"bike_id":"2399219a-b073-4510-bb5d-04be74c1263d","system_id":"levelo_inurba_marseille","lat":43.2901,"lon":5.381269,"is_reserved":false,"is_disabled":false,"rental_uris":{"android":"levelo://app?vid=2399219a-b073-4510-bb5d-04be74c1263d","ios":"levelo://app?vid=2399219a-b073-4510-bb5d-04be74c1263d"},"vehicle_type_id":"4","last_reported":1718402896,"current_range_meters":7600,"station_id":"ce4bh4p2rcd13ifvqe1g","pricing_plan_id":"cebpf4jnsgd1na2vs0mg"},{"bike_id":"d83e11f6-c0e0-4462-8e38-bff02290cb53","system_id":"levelo_inurba_marseille","lat":43.28856,"lon":5.358371,"is_reserved":false,"is_disabled":false,"rental_uris":{"android":"levelo://app?vid=d83e11f6-c0e0-4462-8e38-bff02290cb53","ios":"levelo://app?vid=d83e11f6-c0e0-4462-8e38-bff02290cb53"},"vehicle_type_id":"4","last_reported":1718402896,"current_range_meters":15200,"station_id":"ce4bhb12rcd13ifvqem0","pricing_plan_id":"cebpf4jnsgd1na2vs0mg"},{"bike_id":"e9c351cb-92ff-4727-ac38-e21a86c45196","system_id":"levelo_inurba_marseille","lat":43.28856,"lon":5.358371,"is_reserved":false,"is_disabled":false,"rental_uris":{"android":"levelo://app?vid=e9c351cb-92ff-4727-ac38-e21a86c45196","ios":"levelo://app?vid=e9c351cb-92ff-4727-ac38-e21a86c45196"},"vehicle_type_id":"4","last_reported":1718402896,"current_range_meters":6800,"station_id":"ce4bhb12rcd13ifvqem0","pricing_plan_id":"cebpf4jnsgd1na2vs0mg"},{"bike_id":"d0c5a98b-5de9-474b-abde-35a123676c07","system_id":"levelo_inurba_marseille","lat":43.28856,"lon":5.358371,"is_reserved":false,"is_disabled":false,"rental_uris":{"android":"levelo://app?vid=d0c5a98b-5de9-474b-abde-35a123676c07","ios":"levelo://app?vid=d0c5a98b-5de9-474b-abde-35a123676c07"},"vehicle_type_id":"4","last_reported":1718402896,"current_range_meters":0,"station_id":"ce4bhb12rcd13ifvqem0","pricing_plan_id":"cebpf4jnsgd1na2vs0mg"},{"bike_id":"e54ca186-0c90-4c82-8af9-f588cf760283","system_id":"levelo_inurba_marseille","lat":43.28856,"lon":5.358371,"is_reserved":false,"is_disabled":false,"rental_uris":{"android":"levelo://app?vid=e54ca186-0c90-4c82-8af9-f588cf760283","ios":"levelo://app?vid=e54ca186-0c90-4c82-8af9-f588cf760283"},"vehicle_type_id":"4","last_reported":1718402896,"current_range_meters":12800,"station_id":"ce4bhb12rcd13ifvqem0","pricing_plan_id":"cebpf4jnsgd1na2vs0mg"},{"bike_id":"75821223-ecdc-445d-a7f1-7cb9915fb96d","system_id":"levelo_inurba_marseille","lat":43.30688,"lon":5.400323,"is_reserved":false,"is_disabled":false,"rental_uris":{"android":"levelo://app?vid=75821223-ecdc-445d-a7f1-7cb9915fb96d","ios":"levelo://app?vid=75821223-ecdc-445d-a7f1-7cb9915fb96d"},"vehicle_type_id":"4","last_reported":1718402896,"current_range_meters":20000,"station_id":"","pricing_plan_id":"cebpf4jnsgd1na2vs0mg"},{"bike_id":"2addb3bd-151a-48af-9634-6eaf9af7e696","system_id":"levelo_inurba_marseille","lat":43.28856,"lon":5.358371,"is_reserved":false,"is_disabled":false,"rental_uris":{"android":"levelo://app?vid=2addb3bd-151a-48af-9634-6eaf9af7e696","ios":"levelo://app?vid=2addb3bd-151a-48af-9634-6eaf9af7e696"},"vehicle_type_id":"4","last_reported":1718402896,"current_range_meters":0,"station_id":"ce4bhb12rcd13ifvqem0","pricing_plan_id":"cebpf4jnsgd1na2vs0mg"},{"bike_id":"bc52dfaf-babc-4138-b1b2-343e61745268","system_id":"levelo_inurba_marseille","lat":43.312609,"lon":5.401662,"is_reserved":false,"is_disabled":false,"rental_uris":{"android":"levelo://app?vid=bc52dfaf-babc-4138-b1b2-343e61745268","ios":"levelo://app?vid=bc52dfaf-babc-4138-b1b2-343e61745268"},"vehicle_type_id":"4","last_reported":1718402896,"current_range_meters":20000,"station_id":"ce4bh092rcd13ifvqd30","pricing_plan_id":"cebpf4jnsgd1na2vs0mg"},{"bike_id":"a8bcce14-0356-40d7-8448-1b74f5aca721","system_id":"levelo_inurba_marseille","lat":43.312609,"lon":5.401662,"is_reserved":false,"is_disabled":false,"rental_uris":{"android":"levelo://app?vid=a8bcce14-0356-40d7-8448-1b74f5aca721","ios":"levelo://app?vid=a8bcce14-0356-40d7-8448-1b74f5aca721"},"vehicle_type_id":"4","last_reported":1718402896,"current_range_meters":0,"station_id":"ce4bh092rcd13ifvqd30","pricing_plan_id":"cebpf4jnsgd1na2vs0mg"},{"bike_id":"b69260dd-cda0-49f5-81e2-ec27546f42fd","system_id":"levelo_inurba_marseille","lat":43.312609,"lon":5.401662,"is_reserved":false,"is_disabled":false,"rental_uris":{"android":"levelo://app?vid=b69260dd-cda0-49f5-81e2-ec27546f42fd","ios":"levelo://app?vid=b69260dd-cda0-49f5-81e2-ec27546f42fd"},"vehicle_type_id":"4","last_reported":1718402896,"current_range_meters":27600,"station_id":"ce4bh092rcd13ifvqd30","pricing_plan_id":"cebpf4jnsgd1na2vs0mg"},{"bike_id":"4248d5af-5832-495b-8a5c-466e2c08f20b","system_id":"levelo_inurba_marseille","lat":43.309371,"lon":5.401449,"is_reserved":false,"is_disabled":false,"rental_uris":{"android":"levelo://app?vid=4248d5af-5832-495b-8a5c-466e2c08f20b","ios":"levelo://app?vid=4248d5af-5832-495b-8a5c-466e2c08f20b"},"vehicle_type_id":"4","last_reported":1718402896,"current_range_meters":21200,"station_id":"ce4bgvp2rcd13ifvqct0","pricing_plan_id":"cebpf4jnsgd1na2vs0mg"},{"bike_id":"e4251219-f56c-4c7e-841e-b0dcbf3abcfd","system_id":"levelo_inurba_marseille","lat":43.312609,"lon":5.401662,"is_reserved":false,"is_disabled":false,"rental_uris":{"android":"levelo://app?vid=e4251219-f56c-4c7e-841e-b0dcbf3abcfd","ios":"levelo://app?vid=e4251219-f56c-4c7e-841e-b0dcbf3abcfd"},"vehicle_type_id":"4","last_reported":1718402896,"current_range_meters":4400,"station_id":"ce4bh092rcd13ifvqd30","pricing_plan_id":"cebpf4jnsgd1na2vs0mg"},{"bike_id":"055012ad-dde0-44a5-b0bb-362cc115e715","system_id":"levelo_inurba_marseille","lat":43.309371,"lon":5.401449,"is_reserved":false,"is_disabled":false,"rental_uris":{"android":"levelo://app?vid=055012ad-dde0-44a5-b0bb-362cc115e715","ios":"levelo://app?vid=055012ad-dde0-44a5-b0bb-362cc115e715"},"vehicle_type_id":"4","last_reported":1718402896,"current_range_meters":20800,"station_id":"ce4bgvp2rcd13ifvqct0","pricing_plan_id":"cebpf4jnsgd1na2vs0mg"},{"bike_id":"d8656cd5-b60d-4f95-a340-131276f655cf","system_id":"levelo_inurba_marseille","lat":43.309371,"lon":5.401449,"is_reserved":false,"is_disabled":false,"rental_uris":{"android":"levelo://app?vid=d8656cd5-b60d-4f95-a340-131276f655cf","ios":"levelo://app?vid=d8656cd5-b60d-4f95-a340-131276f655cf"},"vehicle_type_id":"4","last_reported":1718402896,"current_range_meters":17200,"station_id":"ce4bgvp2rcd13ifvqct0","pricing_plan_id":"cebpf4jnsgd1na2vs0mg"},{"bike_id":"33c2206e-a9b3-48c4-8cbe-4e1c60995a82","system_id":"levelo_inurba_marseille","lat":43.309371,"lon":5.401449,"is_reserved":false,"is_disabled":false,"rental_uris":{"android":"levelo://app?vid=33c2206e-a9b3-48c4-8cbe-4e1c60995a82","ios":"levelo://app?vid=33c2206e-a9b3-48c4-8cbe-4e1c60995a82"},"vehicle_type_id":"4","last_reported":1718402896,"current_range_meters":1200,"station_id":"ce4bgvp2rcd13ifvqct0","pricing_plan_id":"cebpf4jnsgd1na2vs0mg"},{"bike_id":"6a583d71-4af0-45cd-a34d-358bcdb42815","system_id":"levelo_inurba_marseille","lat":43.309371,"lon":5.401449,"is_reserved":false,"is_disabled":false,"rental_uris":{"android":"levelo://app?vid=6a583d71-4af0-45cd-a34d-358bcdb42815","ios":"levelo://app?vid=6a583d71-4af0-45cd-a34d-358bcdb42815"},"vehicle_type_id":"4","last_reported":1718402896,"current_range_meters":4400,"station_id":"ce4bgvp2rcd13ifvqct0","pricing_plan_id":"cebpf4jnsgd1na2vs0mg"},{"bike_id":"d0131327-8394-4cd4-8a13-e23fc75920fa","system_id":"levelo_inurba_marseille","lat":43.309371,"lon":5.401449,"is_reserved":false,"is_disabled":false,"rental_uris":{"android":"levelo://app?vid=d0131327-8394-4cd4-8a13-e23fc75920fa","ios":"levelo://app?vid=d0131327-8394-4cd4-8a13-e23fc75920fa"},"vehicle_type_id":"4","last_reported":1718402896,"current_range_meters":4000,"station_id":"ce4bgvp2rcd13ifvqct0","pricing_plan_id":"cebpf4jnsgd1na2vs0mg"},{"bike_id":"0862f1a6-4581-4c08-8b17-884954249c3b","system_id":"levelo_inurba_marseille","lat":43.309371,"lon":5.401449,"is_reserved":false,"is_disabled":false,"rental_uris":{"android":"levelo://app?vid=0862f1a6-4581-4c08-8b17-884954249c3b","ios":"levelo://app?vid=0862f1a6-4581-4c08-8b17-884954249c3b"},"vehicle_type_id":"4","last_reported":1718402896,"current_range_meters":0,"station_id":"ce4bgvp2rcd13ifvqct0","pricing_plan_id":"cebpf4jnsgd1na2vs0mg"},{"bike_id":"d3c35657-eade-4aef-a1bd-4113799a0294","system_id":"levelo_inurba_marseille","lat":43.309371,"lon":5.401449,"is_reserved":false,"is_disabled":false,"rental_uris":{"android":"levelo://app?vid=d3c35657-eade-4aef-a1bd-4113799a0294","ios":"levelo://app?vid=d3c35657-eade-4aef-a1bd-4113799a0294"},"vehicle_type_id":"4","last_reported":1718402896,"current_range_meters":20400,"station_id":"ce4bgvp2rcd13ifvqct0","pricing_plan_id":"cebpf4jnsgd1na2vs0mg"},{"bike_id":"7d8eac32-c556-44bf-ac2e-b7303d79177d","system_id":"levelo_inurba_marseille","lat":43.309371,"lon":5.401449,"is_reserved":false,"is_disabled":false,"rental_uris":{"android":"levelo://app?vid=7d8eac32-c556-44bf-ac2e-b7303d79177d","ios":"levelo://app?vid=7d8eac32-c556-44bf-ac2e-b7303d79177d"},"vehicle_type_id":"4","last_reported":1718402896,"current_range_meters":0,"station_id":"ce4bgvp2rcd13ifvqct0","pricing_plan_id":"cebpf4jnsgd1na2vs0mg"},{"bike_id":"dbdf4748-bb56-474d-b70c-54870d128ab0","system_id":"levelo_inurba_marseille","lat":43.309371,"lon":5.401449,"is_reserved":false,"is_disabled":false,"rental_uris":{"android":"levelo://app?vid=dbdf4748-bb56-474d-b70c-54870d128ab0","ios":"levelo://app?vid=dbdf4748-bb56-474d-b70c-54870d128ab0"},"vehicle_type_id":"4","last_reported":1718402896,"current_range_meters":0,"station_id":"ce4bgvp2rcd13ifvqct0","pricing_plan_id":"cebpf4jnsgd1na2vs0mg"},{"bike_id":"125c9286-5755-444b-b903-e00077231b8b","system_id":"levelo_inurba_marseille","lat":43.309371,"lon":5.401449,"is_reserved":false,"is_disabled":false,"rental_uris":{"android":"levelo://app?vid=125c9286-5755-444b-b903-e00077231b8b","ios":"levelo://app?vid=125c9286-5755-444b-b903-e00077231b8b"},"vehicle_type_id":"4","last_reported":1718402896,"current_range_meters":20400,"station_id":"ce4bgvp2rcd13ifvqct0","pricing_plan_id":"cebpf4jnsgd1na2vs0mg"},{"bike_id":"e26f94ae-4111-459e-9747-baf92248da64","system_id":"levelo_inurba_marseille","lat":43.309371,"lon":5.401449,"is_reserved":false,"is_disabled":false,"rental_uris":{"android":"levelo://app?vid=e26f94ae-4111-459e-9747-baf92248da64","ios":"levelo://app?vid=e26f94ae-4111-459e-9747-baf92248da64"},"vehicle_type_id":"4","last_reported":1718402896,"current_range_meters":0,"station_id":"ce4bgvp2rcd13ifvqct0","pricing_plan_id":"cebpf4jnsgd1na2vs0mg"},{"bike_id":"9906d0ca-cc9e-49b6-9a55-5d400ceb8948","system_id":"levelo_inurba_marseille","lat":43.309371,"lon":5.401449,"is_reserved":false,"is_disabled":false,"rental_uris":{"android":"levelo://app?vid=9906d0ca-cc9e-49b6-9a55-5d400ceb8948","ios":"levelo://app?vid=9906d0ca-cc9e-49b6-9a55-5d400ceb8948"},"vehicle_type_id":"4","last_reported":1718402896,"current_range_meters":18000,"station_id":"ce4bgvp2rcd13ifvqct0","pricing_plan_id":"cebpf4jnsgd1na2vs0mg"},{"bike_id":"f776ee09-f7d8-4670-85fa-7eea2ed7fd6d","system_id":"levelo_inurba_marseille","lat":43.320045,"lon":5.415048,"is_reserved":false,"is_disabled":false,"rental_uris":{"android":"levelo://app?vid=f776ee09-f7d8-4670-85fa-7eea2ed7fd6d","ios":"levelo://app?vid=f776ee09-f7d8-4670-85fa-7eea2ed7fd6d"},"vehicle_type_id":"4","last_reported":1718402896,"current_range_meters":9200,"station_id":"ce4bhq92rcd13ifvqhkg","pricing_plan_id":"cebpf4jnsgd1na2vs0mg"},{"bike_id":"3ab4e3ec-07f5-4c5f-8645-e3937796c552","system_id":"levelo_inurba_marseille","lat":43.337562,"lon":5.3745,"is_reserved":false,"is_disabled":false,"rental_uris":{"android":"levelo://app?vid=3ab4e3ec-07f5-4c5f-8645-e3937796c552","ios":"levelo://app?vid=3ab4e3ec-07f5-4c5f-8645-e3937796c552"},"vehicle_type_id":"4","last_reported":1718402896,"current_range_meters":12800,"station_id":"","pricing_plan_id":"cebpf4jnsgd1na2vs0mg"},{"bike_id":"3524e4ef-d297-4600-a277-f5c2e7a85327","system_id":"levelo_inurba_marseille","lat":43.337636,"lon":5.37437,"is_reserved":false,"is_disabled":false,"rental_uris":{"android":"levelo://app?vid=3524e4ef-d297-4600-a277-f5c2e7a85327","ios":"levelo://app?vid=3524e4ef-d297-4600-a277-f5c2e7a85327"},"vehicle_type_id":"4","last_reported":1718402896,"current_range_meters":30000,"station_id":"","pricing_plan_id":"cebpf4jnsgd1na2vs0mg"},{"bike_id":"4606f127-24f6-49ab-9db3-cf76bf609f2b","system_id":"levelo_inurba_marseille","lat":43.33766,"lon":5.37423,"is_reserved":false,"is_disabled":false,"rental_uris":{"android":"levelo://app?vid=4606f127-24f6-49ab-9db3-cf76bf609f2b","ios":"levelo://app?vid=4606f127-24f6-49ab-9db3-cf76bf609f2b"},"vehicle_type_id":"4","last_reported":1718402896,"current_range_meters":12400,"station_id":"","pricing_plan_id":"cebpf4jnsgd1na2vs0mg"},{"bike_id":"12565578-aac2-489a-95b2-e34d1d0b5ad1","system_id":"levelo_inurba_marseille","lat":43.30648,"lon":5.40096,"is_reserved":false,"is_disabled":false,"rental_uris":{"android":"levelo://app?vid=12565578-aac2-489a-95b2-e34d1d0b5ad1","ios":"levelo://app?vid=12565578-aac2-489a-95b2-e34d1d0b5ad1"},"vehicle_type_id":"4","last_reported":1718402896,"current_range_meters":4400,"station_id":"ce4bh112rcd13ifvqda0","pricing_plan_id":"cebpf4jnsgd1na2vs0mg"},{"bike_id":"c4d3eab3-e48a-490b-b7c2-00f86fe95975","system_id":"levelo_inurba_marseille","lat":43.30645,"lon":5.401,"is_reserved":false,"is_disabled":false,"rental_uris":{"android":"levelo://app?vid=c4d3eab3-e48a-490b-b7c2-00f86fe95975","ios":"levelo://app?vid=c4d3eab3-e48a-490b-b7c2-00f86fe95975"},"vehicle_type_id":"4","last_reported":1718402896,"current_range_meters":0,"station_id":"ce4bh112rcd13ifvqda0","pricing_plan_id":"cebpf4jnsgd1na2vs0mg"},{"bike_id":"976f5fbc-a1c5-41d0-ae26-746d3aed1f98","system_id":"levelo_inurba_marseille","lat":43.30642,"lon":5.401031,"is_reserved":false,"is_disabled":false,"rental_uris":{"android":"levelo://app?vid=976f5fbc-a1c5-41d0-ae26-746d3aed1f98","ios":"levelo://app?vid=976f5fbc-a1c5-41d0-ae26-746d3aed1f98"},"vehicle_type_id":"4","last_reported":1718402896,"current_range_meters":8800,"station_id":"ce4bh112rcd13ifvqda0","pricing_plan_id":"cebpf4jnsgd1na2vs0mg"},{"bike_id":"0706aaf1-6020-420c-b9c2-ee0fe327b536","system_id":"levelo_inurba_marseille","lat":43.29169,"lon":5.387353,"is_reserved":false,"is_disabled":false,"rental_uris":{"android":"levelo://app?vid=0706aaf1-6020-420c-b9c2-ee0fe327b536","ios":"levelo://app?vid=0706aaf1-6020-420c-b9c2-ee0fe327b536"},"vehicle_type_id":"4","last_reported":1718402896,"current_range_meters":6000,"station_id":"","pricing_plan_id":"cebpf4jnsgd1na2vs0mg"},{"bike_id":"e63352fd-c1ec-4e8a-b8ad-751917f8d1ef","system_id":"levelo_inurba_marseille","lat":43.28727,"lon":5.36078,"is_reserved":false,"is_disabled":false,"rental_uris":{"android":"levelo://app?vid=e63352fd-c1ec-4e8a-b8ad-751917f8d1ef","ios":"levelo://app?vid=e63352fd-c1ec-4e8a-b8ad-751917f8d1ef"},"vehicle_type_id":"4","last_reported":1718402896,"current_range_meters":21200,"station_id":"cki0cbj6b192h4jlfktg","pricing_plan_id":"cebpf4jnsgd1na2vs0mg"},{"bike_id":"80b67cb5-8017-428e-98bc-c332a1916d83","system_id":"levelo_inurba_marseille","lat":43.28727,"lon":5.36078,"is_reserved":false,"is_disabled":false,"rental_uris":{"android":"levelo://app?vid=80b67cb5-8017-428e-98bc-c332a1916d83","ios":"levelo://app?vid=80b67cb5-8017-428e-98bc-c332a1916d83"},"vehicle_type_id":"4","last_reported":1718402896,"current_range_meters":18400,"station_id":"cki0cbj6b192h4jlfktg","pricing_plan_id":"cebpf4jnsgd1na2vs0mg"},{"bike_id":"529965d4-eff2-40ef-b52e-7c959612c1e2","system_id":"levelo_inurba_marseille","lat":43.28727,"lon":5.36078,"is_reserved":false,"is_disabled":false,"rental_uris":{"android":"levelo://app?vid=529965d4-eff2-40ef-b52e-7c959612c1e2","ios":"levelo://app?vid=529965d4-eff2-40ef-b52e-7c959612c1e2"},"vehicle_type_id":"4","last_reported":1718402896,"current_range_meters":2000,"station_id":"cki0cbj6b192h4jlfktg","pricing_plan_id":"cebpf4jnsgd1na2vs0mg"},{"bike_id":"c4911710-9e21-4225-b977-4bd90e260991","system_id":"levelo_inurba_marseille","lat":43.28727,"lon":5.36078,"is_reserved":false,"is_disabled":false,"rental_uris":{"android":"levelo://app?vid=c4911710-9e21-4225-b977-4bd90e260991","ios":"levelo://app?vid=c4911710-9e21-4225-b977-4bd90e260991"},"vehicle_type_id":"4","last_reported":1718402896,"current_range_meters":21200,"station_id":"cki0cbj6b192h4jlfktg","pricing_plan_id":"cebpf4jnsgd1na2vs0mg"},{"bike_id":"2ae90bd9-62d5-47a0-a998-3bd06d445e18","system_id":"levelo_inurba_marseille","lat":43.28727,"lon":5.36078,"is_reserved":false,"is_disabled":false,"rental_uris":{"android":"levelo://app?vid=2ae90bd9-62d5-47a0-a998-3bd06d445e18","ios":"levelo://app?vid=2ae90bd9-62d5-47a0-a998-3bd06d445e18"},"vehicle_type_id":"4","last_reported":1718402896,"current_range_meters":7600,"station_id":"cki0cbj6b192h4jlfktg","pricing_plan_id":"cebpf4jnsgd1na2vs0mg"},{"bike_id":"e19d1e06-9998-462c-8b59-ee51b0eb1958","system_id":"levelo_inurba_marseille","lat":43.286591,"lon":5.363346,"is_reserved":false,"is_disabled":false,"rental_uris":{"android":"levelo://app?vid=e19d1e06-9998-462c-8b59-ee51b0eb1958","ios":"levelo://app?vid=e19d1e06-9998-462c-8b59-ee51b0eb1958"},"vehicle_type_id":"4","last_reported":1718402896,"current_range_meters":400,"station_id":"ce4bhah2rcd13ifvqej0","pricing_plan_id":"cebpf4jnsgd1na2vs0mg"},{"bike_id":"b19cf88b-d1e6-47b7-ab76-b3f63feacf60","system_id":"levelo_inurba_marseille","lat":43.286591,"lon":5.363346,"is_reserved":false,"is_disabled":false,"rental_uris":{"android":"levelo://app?vid=b19cf88b-d1e6-47b7-ab76-b3f63feacf60","ios":"levelo://app?vid=b19cf88b-d1e6-47b7-ab76-b3f63feacf60"},"vehicle_type_id":"4","last_reported":1718402896,"current_range_meters":7600,"station_id":"ce4bhah2rcd13ifvqej0","pricing_plan_id":"cebpf4jnsgd1na2vs0mg"},{"bike_id":"83422739-f413-4eb4-b2aa-42194efbfa5f","system_id":"levelo_inurba_marseille","lat":43.286961,"lon":5.373785,"is_reserved":false,"is_disabled":false,"rental_uris":{"android":"levelo://app?vid=83422739-f413-4eb4-b2aa-42194efbfa5f","ios":"levelo://app?vid=83422739-f413-4eb4-b2aa-42194efbfa5f"},"vehicle_type_id":"4","last_reported":1718402896,"current_range_meters":400,"station_id":"ce4bh3p2rcd13ifvqdq0","pricing_plan_id":"cebpf4jnsgd1na2vs0mg"},{"bike_id":"52cca767-23a0-4adf-85ea-22d399189035","system_id":"levelo_inurba_marseille","lat":43.286591,"lon":5.363346,"is_reserved":false,"is_disabled":false,"rental_uris":{"android":"levelo://app?vid=52cca767-23a0-4adf-85ea-22d399189035","ios":"levelo://app?vid=52cca767-23a0-4adf-85ea-22d399189035"},"vehicle_type_id":"4","last_reported":1718402896,"current_range_meters":6800,"station_id":"ce4bhah2rcd13ifvqej0","pricing_plan_id":"cebpf4jnsgd1na2vs0mg"},{"bike_id":"ce348c92-6504-416f-b496-9917bf1fc3bd","system_id":"levelo_inurba_marseille","lat":43.286591,"lon":5.363346,"is_reserved":false,"is_disabled":false,"rental_uris":{"android":"levelo://app?vid=ce348c92-6504-416f-b496-9917bf1fc3bd","ios":"levelo://app?vid=ce348c92-6504-416f-b496-9917bf1fc3bd"},"vehicle_type_id":"4","last_reported":1718402896,"current_range_meters":16400,"station_id":"ce4bhah2rcd13ifvqej0","pricing_plan_id":"cebpf4jnsgd1na2vs0mg"},{"bike_id":"78463b61-74d1-42d7-94c9-ebdc01d98c5c","system_id":"levelo_inurba_marseille","lat":43.298681,"lon":5.397225,"is_reserved":false,"is_disabled":false,"rental_uris":{"android":"levelo://app?vid=78463b61-74d1-42d7-94c9-ebdc01d98c5c","ios":"levelo://app?vid=78463b61-74d1-42d7-94c9-ebdc01d98c5c"},"vehicle_type_id":"4","last_reported":1718402896,"current_range_meters":17200,"station_id":"ce4bh0h2rcd13ifvqd50","pricing_plan_id":"cebpf4jnsgd1na2vs0mg"},{"bike_id":"101ca5d0-7104-472b-b085-ff8937900c0a","system_id":"levelo_inurba_marseille","lat":43.286593,"lon":5.363346,"is_reserved":false,"is_disabled":false,"rental_uris":{"android":"levelo://app?vid=101ca5d0-7104-472b-b085-ff8937900c0a","ios":"levelo://app?vid=101ca5d0-7104-472b-b085-ff8937900c0a"},"vehicle_type_id":"4","last_reported":1718402896,"current_range_meters":28800,"station_id":"ce4bhah2rcd13ifvqej0","pricing_plan_id":"cebpf4jnsgd1na2vs0mg"},{"bike_id":"006e0fa6-40c2-4862-a251-fd780fd7b9a7","system_id":"levelo_inurba_marseille","lat":43.286591,"lon":5.363346,"is_reserved":false,"is_disabled":false,"rental_uris":{"android":"levelo://app?vid=006e0fa6-40c2-4862-a251-fd780fd7b9a7","ios":"levelo://app?vid=006e0fa6-40c2-4862-a251-fd780fd7b9a7"},"vehicle_type_id":"4","last_reported":1718402896,"current_range_meters":1600,"station_id":"ce4bhah2rcd13ifvqej0","pricing_plan_id":"cebpf4jnsgd1na2vs0mg"},{"bike_id":"ffc03504-a9d8-4f69-876c-d94f3b054021","system_id":"levelo_inurba_marseille","lat":43.286961,"lon":5.373785,"is_reserved":false,"is_disabled":false,"rental_uris":{"android":"levelo://app?vid=ffc03504-a9d8-4f69-876c-d94f3b054021","ios":"levelo://app?vid=ffc03504-a9d8-4f69-876c-d94f3b054021"},"vehicle_type_id":"4","last_reported":1718402896,"current_range_meters":23200,"station_id":"ce4bh3p2rcd13ifvqdq0","pricing_plan_id":"cebpf4jnsgd1na2vs0mg"},{"bike_id":"70c24340-7306-44aa-91c3-222ddcaeceed","system_id":"levelo_inurba_marseille","lat":43.286591,"lon":5.363346,"is_reserved":false,"is_disabled":false,"rental_uris":{"android":"levelo://app?vid=70c24340-7306-44aa-91c3-222ddcaeceed","ios":"levelo://app?vid=70c24340-7306-44aa-91c3-222ddcaeceed"},"vehicle_type_id":"4","last_reported":1718402896,"current_range_meters":6000,"station_id":"ce4bhah2rcd13ifvqej0","pricing_plan_id":"cebpf4jnsgd1na2vs0mg"},{"bike_id":"a1b9a9c0-92da-45cc-99e4-eba895290749","system_id":"levelo_inurba_marseille","lat":43.286997,"lon":5.373837,"is_reserved":false,"is_disabled":false,"rental_uris":{"android":"levelo://app?vid=a1b9a9c0-92da-45cc-99e4-eba895290749","ios":"levelo://app?vid=a1b9a9c0-92da-45cc-99e4-eba895290749"},"vehicle_type_id":"4","last_reported":1718402896,"current_range_meters":30000,"station_id":"ce4bh3p2rcd13ifvqdq0","pricing_plan_id":"cebpf4jnsgd1na2vs0mg"},{"bike_id":"37d3714a-2529-4e7a-bd93-ad3f1cdd9489","system_id":"levelo_inurba_marseille","lat":43.286593,"lon":5.363346,"is_reserved":false,"is_disabled":false,"rental_uris":{"android":"levelo://app?vid=37d3714a-2529-4e7a-bd93-ad3f1cdd9489","ios":"levelo://app?vid=37d3714a-2529-4e7a-bd93-ad3f1cdd9489"},"vehicle_type_id":"4","last_reported":1718402896,"current_range_meters":6400,"station_id":"ce4bhah2rcd13ifvqej0","pricing_plan_id":"cebpf4jnsgd1na2vs0mg"},{"bike_id":"654575ef-08d9-496d-909c-0e67734e8b5c","system_id":"levelo_inurba_marseille","lat":43.286961,"lon":5.373785,"is_reserved":false,"is_disabled":false,"rental_uris":{"android":"levelo://app?vid=654575ef-08d9-496d-909c-0e67734e8b5c","ios":"levelo://app?vid=654575ef-08d9-496d-909c-0e67734e8b5c"},"vehicle_type_id":"4","last_reported":1718402896,"current_range_meters":18800,"station_id":"ce4bh3p2rcd13ifvqdq0","pricing_plan_id":"cebpf4jnsgd1na2vs0mg"},{"bike_id":"8a93981a-5979-4165-a7da-a0da5c345924","system_id":"levelo_inurba_marseille","lat":43.286594,"lon":5.363493,"is_reserved":false,"is_disabled":false,"rental_uris":{"android":"levelo://app?vid=8a93981a-5979-4165-a7da-a0da5c345924","ios":"levelo://app?vid=8a93981a-5979-4165-a7da-a0da5c345924"},"vehicle_type_id":"4","last_reported":1718402896,"current_range_meters":0,"station_id":"ce4bhah2rcd13ifvqej0","pricing_plan_id":"cebpf4jnsgd1na2vs0mg"},{"bike_id":"fdc6445a-2902-40f2-b59c-75f917dcbb48","system_id":"levelo_inurba_marseille","lat":43.286961,"lon":5.373785,"is_reserved":false,"is_disabled":false,"rental_uris":{"android":"levelo://app?vid=fdc6445a-2902-40f2-b59c-75f917dcbb48","ios":"levelo://app?vid=fdc6445a-2902-40f2-b59c-75f917dcbb48"},"vehicle_type_id":"4","last_reported":1718402896,"current_range_meters":23600,"station_id":"ce4bh3p2rcd13ifvqdq0","pricing_plan_id":"cebpf4jnsgd1na2vs0mg"},{"bike_id":"1c8c74c4-b521-4c90-a2c4-aee02a572403","system_id":"levelo_inurba_marseille","lat":43.286961,"lon":5.373785,"is_reserved":false,"is_disabled":false,"rental_uris":{"android":"levelo://app?vid=1c8c74c4-b521-4c90-a2c4-aee02a572403","ios":"levelo://app?vid=1c8c74c4-b521-4c90-a2c4-aee02a572403"},"vehicle_type_id":"4","last_reported":1718402896,"current_range_meters":11600,"station_id":"ce4bh3p2rcd13ifvqdq0","pricing_plan_id":"cebpf4jnsgd1na2vs0mg"},{"bike_id":"f69f1cfb-4044-457e-9701-4be804b77f1b","system_id":"levelo_inurba_marseille","lat":43.298681,"lon":5.397225,"is_reserved":false,"is_disabled":false,"rental_uris":{"android":"levelo://app?vid=f69f1cfb-4044-457e-9701-4be804b77f1b","ios":"levelo://app?vid=f69f1cfb-4044-457e-9701-4be804b77f1b"},"vehicle_type_id":"4","last_reported":1718402896,"current_range_meters":18400,"station_id":"ce4bh0h2rcd13ifvqd50","pricing_plan_id":"cebpf4jnsgd1na2vs0mg"},{"bike_id":"3405af6c-ac9a-4b74-81e3-2192e1ff488c","system_id":"levelo_inurba_marseille","lat":43.295194,"lon":5.39397,"is_reserved":false,"is_disabled":false,"rental_uris":{"android":"levelo://app?vid=3405af6c-ac9a-4b74-81e3-2192e1ff488c","ios":"levelo://app?vid=3405af6c-ac9a-4b74-81e3-2192e1ff488c"},"vehicle_type_id":"4","last_reported":1718402896,"current_range_meters":0,"station_id":"ce4bh292rcd13ifvqdf0","pricing_plan_id":"cebpf4jnsgd1na2vs0mg"},{"bike_id":"6a7c81a5-db77-4734-a748-1ced38af65b4","system_id":"levelo_inurba_marseille","lat":43.302759,"lon":5.400793,"is_reserved":false,"is_disabled":false,"rental_uris":{"android":"levelo://app?vid=6a7c81a5-db77-4734-a748-1ced38af65b4","ios":"levelo://app?vid=6a7c81a5-db77-4734-a748-1ced38af65b4"},"vehicle_type_id":"4","last_reported":1718402896,"current_range_meters":18400,"station_id":"ce4bgvh2rcd13ifvqcs0","pricing_plan_id":"cebpf4jnsgd1na2vs0mg"},{"bike_id":"7ed1361c-31bb-483e-8be9-d54498d2add6","system_id":"levelo_inurba_marseille","lat":43.302759,"lon":5.400793,"is_reserved":false,"is_disabled":false,"rental_uris":{"android":"levelo://app?vid=7ed1361c-31bb-483e-8be9-d54498d2add6","ios":"levelo://app?vid=7ed1361c-31bb-483e-8be9-d54498d2add6"},"vehicle_type_id":"4","last_reported":1718402896,"current_range_meters":20800,"station_id":"ce4bgvh2rcd13ifvqcs0","pricing_plan_id":"cebpf4jnsgd1na2vs0mg"},{"bike_id":"36228de5-ed6b-4084-aee9-6876b43597e4","system_id":"levelo_inurba_marseille","lat":43.284793,"lon":5.384119,"is_reserved":false,"is_disabled":false,"rental_uris":{"android":"levelo://app?vid=36228de5-ed6b-4084-aee9-6876b43597e4","ios":"levelo://app?vid=36228de5-ed6b-4084-aee9-6876b43597e4"},"vehicle_type_id":"4","last_reported":1718402896,"current_range_meters":5600,"station_id":"ce4bh512rcd13ifvqe3g","pricing_plan_id":"cebpf4jnsgd1na2vs0mg"},{"bike_id":"5fd73d91-914a-48b2-a9a4-6c7c5f2d8e52","system_id":"levelo_inurba_marseille","lat":43.29032,"lon":5.38639,"is_reserved":false,"is_disabled":false,"rental_uris":{"android":"levelo://app?vid=5fd73d91-914a-48b2-a9a4-6c7c5f2d8e52","ios":"levelo://app?vid=5fd73d91-914a-48b2-a9a4-6c7c5f2d8e52"},"vehicle_type_id":"4","last_reported":1718402896,"current_range_meters":0,"station_id":"ce4bh4p2rcd13ifvqe0g","pricing_plan_id":"cebpf4jnsgd1na2vs0mg"},{"bike_id":"35e3148a-56bd-4c5d-a1e3-5bc537e14ff2","system_id":"levelo_inurba_marseille","lat":43.302759,"lon":5.400793,"is_reserved":false,"is_disabled":false,"rental_uris":{"android":"levelo://app?vid=35e3148a-56bd-4c5d-a1e3-5bc537e14ff2","ios":"levelo://app?vid=35e3148a-56bd-4c5d-a1e3-5bc537e14ff2"},"vehicle_type_id":"4","last_reported":1718402896,"current_range_meters":24000,"station_id":"ce4bgvh2rcd13ifvqcs0","pricing_plan_id":"cebpf4jnsgd1na2vs0mg"},{"bike_id":"d1698275-a3d2-440e-b197-4538004a615e","system_id":"levelo_inurba_marseille","lat":43.286039,"lon":5.370679,"is_reserved":false,"is_disabled":false,"rental_uris":{"android":"levelo://app?vid=d1698275-a3d2-440e-b197-4538004a615e","ios":"levelo://app?vid=d1698275-a3d2-440e-b197-4538004a615e"},"vehicle_type_id":"4","last_reported":1718402896,"current_range_meters":20800,"station_id":"ce4bht12rcd13ifvqi60","pricing_plan_id":"cebpf4jnsgd1na2vs0mg"},{"bike_id":"b50a7d0f-6944-4d28-b52f-080501166e67","system_id":"levelo_inurba_marseille","lat":43.28612,"lon":5.37055,"is_reserved":false,"is_disabled":false,"rental_uris":{"android":"levelo://app?vid=b50a7d0f-6944-4d28-b52f-080501166e67","ios":"levelo://app?vid=b50a7d0f-6944-4d28-b52f-080501166e67"},"vehicle_type_id":"4","last_reported":1718402896,"current_range_meters":800,"station_id":"","pricing_plan_id":"cebpf4jnsgd1na2vs0mg"},{"bike_id":"cd262f0b-8b2a-4a2e-ad8e-51586e52e5da","system_id":"levelo_inurba_marseille","lat":43.287185,"lon":5.379373,"is_reserved":false,"is_disabled":false,"rental_uris":{"android":"levelo://app?vid=cd262f0b-8b2a-4a2e-ad8e-51586e52e5da","ios":"levelo://app?vid=cd262f0b-8b2a-4a2e-ad8e-51586e52e5da"},"vehicle_type_id":"4","last_reported":1718402896,"current_range_meters":22800,"station_id":"ce4bh9p2rcd13ifvqec0","pricing_plan_id":"cebpf4jnsgd1na2vs0mg"},{"bike_id":"f513d68a-e186-4530-9834-1469a68a801a","system_id":"levelo_inurba_marseille","lat":43.287184,"lon":5.37937,"is_reserved":false,"is_disabled":false,"rental_uris":{"android":"levelo://app?vid=f513d68a-e186-4530-9834-1469a68a801a","ios":"levelo://app?vid=f513d68a-e186-4530-9834-1469a68a801a"},"vehicle_type_id":"4","last_reported":1718402896,"current_range_meters":14400,"station_id":"ce4bh9p2rcd13ifvqec0","pricing_plan_id":"cebpf4jnsgd1na2vs0mg"},{"bike_id":"21e1e54a-92dc-4cd4-b701-8f2158335521","system_id":"levelo_inurba_marseille","lat":43.316828,"lon":5.404723,"is_reserved":false,"is_disabled":false,"rental_uris":{"android":"levelo://app?vid=21e1e54a-92dc-4cd4-b701-8f2158335521","ios":"levelo://app?vid=21e1e54a-92dc-4cd4-b701-8f2158335521"},"vehicle_type_id":"4","last_reported":1718402896,"current_range_meters":0,"station_id":"ce4bh012rcd13ifvqd00","pricing_plan_id":"cebpf4jnsgd1na2vs0mg"},{"bike_id":"b38a74f5-9eae-4374-a833-d68fd16c32e5","system_id":"levelo_inurba_marseille","lat":43.31686,"lon":5.40472,"is_reserved":false,"is_disabled":false,"rental_uris":{"android":"levelo://app?vid=b38a74f5-9eae-4374-a833-d68fd16c32e5","ios":"levelo://app?vid=b38a74f5-9eae-4374-a833-d68fd16c32e5"},"vehicle_type_id":"4","last_reported":1718402896,"current_range_meters":0,"station_id":"ce4bh012rcd13ifvqd00","pricing_plan_id":"cebpf4jnsgd1na2vs0mg"},{"bike_id":"41b757ec-eca4-42e0-a023-80d6dd9129fe","system_id":"levelo_inurba_marseille","lat":43.316821,"lon":5.404737,"is_reserved":false,"is_disabled":false,"rental_uris":{"android":"levelo://app?vid=41b757ec-eca4-42e0-a023-80d6dd9129fe","ios":"levelo://app?vid=41b757ec-eca4-42e0-a023-80d6dd9129fe"},"vehicle_type_id":"4","last_reported":1718402896,"current_range_meters":5200,"station_id":"ce4bh012rcd13ifvqd00","pricing_plan_id":"cebpf4jnsgd1na2vs0mg"},{"bike_id":"f858f9fc-3965-49e6-a6bb-ed386a319872","system_id":"levelo_inurba_marseille","lat":43.316821,"lon":5.404737,"is_reserved":false,"is_disabled":false,"rental_uris":{"android":"levelo://app?vid=f858f9fc-3965-49e6-a6bb-ed386a319872","ios":"levelo://app?vid=f858f9fc-3965-49e6-a6bb-ed386a319872"},"vehicle_type_id":"4","last_reported":1718402896,"current_range_meters":15200,"station_id":"ce4bh012rcd13ifvqd00","pricing_plan_id":"cebpf4jnsgd1na2vs0mg"},{"bike_id":"92c4cfb7-d9a2-4941-824d-3e19963531a8","system_id":"levelo_inurba_marseille","lat":43.291994,"lon":5.392907,"is_reserved":false,"is_disabled":false,"rental_uris":{"android":"levelo://app?vid=92c4cfb7-d9a2-4941-824d-3e19963531a8","ios":"levelo://app?vid=92c4cfb7-d9a2-4941-824d-3e19963531a8"},"vehicle_type_id":"4","last_reported":1718402896,"current_range_meters":6800,"station_id":"ce4bh192rcd13ifvqdd0","pricing_plan_id":"cebpf4jnsgd1na2vs0mg"},{"bike_id":"82354f9f-9a44-4d15-a337-a1e79d42859d","system_id":"levelo_inurba_marseille","lat":43.284534,"lon":5.358662,"is_reserved":false,"is_disabled":false,"rental_uris":{"android":"levelo://app?vid=82354f9f-9a44-4d15-a337-a1e79d42859d","ios":"levelo://app?vid=82354f9f-9a44-4d15-a337-a1e79d42859d"},"vehicle_type_id":"4","last_reported":1718402896,"current_range_meters":0,"station_id":"ce4bhah2rcd13ifvqei0","pricing_plan_id":"cebpf4jnsgd1na2vs0mg"},{"bike_id":"f1dbb8db-a2e9-41e0-abc5-5baa31294548","system_id":"levelo_inurba_marseille","lat":43.284534,"lon":5.358662,"is_reserved":false,"is_disabled":false,"rental_uris":{"android":"levelo://app?vid=f1dbb8db-a2e9-41e0-abc5-5baa31294548","ios":"levelo://app?vid=f1dbb8db-a2e9-41e0-abc5-5baa31294548"},"vehicle_type_id":"4","last_reported":1718402896,"current_range_meters":26800,"station_id":"ce4bhah2rcd13ifvqei0","pricing_plan_id":"cebpf4jnsgd1na2vs0mg"},{"bike_id":"9b44000f-f646-4d81-b8ad-7dbf7662f6ad","system_id":"levelo_inurba_marseille","lat":43.284538,"lon":5.358657,"is_reserved":false,"is_disabled":false,"rental_uris":{"android":"levelo://app?vid=9b44000f-f646-4d81-b8ad-7dbf7662f6ad","ios":"levelo://app?vid=9b44000f-f646-4d81-b8ad-7dbf7662f6ad"},"vehicle_type_id":"4","last_reported":1718402896,"current_range_meters":29600,"station_id":"ce4bhah2rcd13ifvqei0","pricing_plan_id":"cebpf4jnsgd1na2vs0mg"},{"bike_id":"dbe29c89-2dfd-4a44-95e0-d6b8fcc7d23a","system_id":"levelo_inurba_marseille","lat":43.28462,"lon":5.35875,"is_reserved":false,"is_disabled":false,"rental_uris":{"android":"levelo://app?vid=dbe29c89-2dfd-4a44-95e0-d6b8fcc7d23a","ios":"levelo://app?vid=dbe29c89-2dfd-4a44-95e0-d6b8fcc7d23a"},"vehicle_type_id":"4","last_reported":1718402896,"current_range_meters":7600,"station_id":"ce4bhah2rcd13ifvqei0","pricing_plan_id":"cebpf4jnsgd1na2vs0mg"},{"bike_id":"99460295-ff9e-45f3-9055-5e9f189cab4b","system_id":"levelo_inurba_marseille","lat":43.28456,"lon":5.358801,"is_reserved":false,"is_disabled":false,"rental_uris":{"android":"levelo://app?vid=99460295-ff9e-45f3-9055-5e9f189cab4b","ios":"levelo://app?vid=99460295-ff9e-45f3-9055-5e9f189cab4b"},"vehicle_type_id":"4","last_reported":1718402896,"current_range_meters":0,"station_id":"ce4bhah2rcd13ifvqei0","pricing_plan_id":"cebpf4jnsgd1na2vs0mg"},{"bike_id":"9876ba59-2fbe-44e7-9860-5ff17f8c15a8","system_id":"levelo_inurba_marseille","lat":43.294314,"lon":5.397498,"is_reserved":false,"is_disabled":false,"rental_uris":{"android":"levelo://app?vid=9876ba59-2fbe-44e7-9860-5ff17f8c15a8","ios":"levelo://app?vid=9876ba59-2fbe-44e7-9860-5ff17f8c15a8"},"vehicle_type_id":"4","last_reported":1718402896,"current_range_meters":26000,"station_id":"ce4bh3h2rcd13ifvqdo0","pricing_plan_id":"cebpf4jnsgd1na2vs0mg"},{"bike_id":"cb8282b4-24ed-457e-af85-422ac667b55e","system_id":"levelo_inurba_marseille","lat":43.294314,"lon":5.397498,"is_reserved":false,"is_disabled":false,"rental_uris":{"android":"levelo://app?vid=cb8282b4-24ed-457e-af85-422ac667b55e","ios":"levelo://app?vid=cb8282b4-24ed-457e-af85-422ac667b55e"},"vehicle_type_id":"4","last_reported":1718402896,"current_range_meters":15200,"station_id":"ce4bh3h2rcd13ifvqdo0","pricing_plan_id":"cebpf4jnsgd1na2vs0mg"},{"bike_id":"7aab6099-758a-4df9-af95-6ea82282ba26","system_id":"levelo_inurba_marseille","lat":43.28617,"lon":5.35108,"is_reserved":false,"is_disabled":false,"rental_uris":{"android":"levelo://app?vid=7aab6099-758a-4df9-af95-6ea82282ba26","ios":"levelo://app?vid=7aab6099-758a-4df9-af95-6ea82282ba26"},"vehicle_type_id":"4","last_reported":1718402896,"current_range_meters":0,"station_id":"ce4bhch2rcd13ifvqeug","pricing_plan_id":"cebpf4jnsgd1na2vs0mg"},{"bike_id":"6e5ac248-8b95-4d9c-924d-c93c13840781","system_id":"levelo_inurba_marseille","lat":43.286139,"lon":5.351031,"is_reserved":false,"is_disabled":false,"rental_uris":{"android":"levelo://app?vid=6e5ac248-8b95-4d9c-924d-c93c13840781","ios":"levelo://app?vid=6e5ac248-8b95-4d9c-924d-c93c13840781"},"vehicle_type_id":"4","last_reported":1718402896,"current_range_meters":29200,"station_id":"","pricing_plan_id":"cebpf4jnsgd1na2vs0mg"},{"bike_id":"4bb16d1c-61cc-4bf2-80d2-9c811f9c6eaa","system_id":"levelo_inurba_marseille","lat":43.283998,"lon":5.375062,"is_reserved":false,"is_disabled":false,"rental_uris":{"android":"levelo://app?vid=4bb16d1c-61cc-4bf2-80d2-9c811f9c6eaa","ios":"levelo://app?vid=4bb16d1c-61cc-4bf2-80d2-9c811f9c6eaa"},"vehicle_type_id":"4","last_reported":1718402896,"current_range_meters":1600,"station_id":"ce4bh412rcd13ifvqds0","pricing_plan_id":"cebpf4jnsgd1na2vs0mg"},{"bike_id":"3eca11d3-3bb8-4c28-b71f-19f7e2a5619a","system_id":"levelo_inurba_marseille","lat":43.283998,"lon":5.375062,"is_reserved":false,"is_disabled":false,"rental_uris":{"android":"levelo://app?vid=3eca11d3-3bb8-4c28-b71f-19f7e2a5619a","ios":"levelo://app?vid=3eca11d3-3bb8-4c28-b71f-19f7e2a5619a"},"vehicle_type_id":"4","last_reported":1718402896,"current_range_meters":12000,"station_id":"ce4bh412rcd13ifvqds0","pricing_plan_id":"cebpf4jnsgd1na2vs0mg"},{"bike_id":"7c098611-d141-4558-be75-3f4db465ee95","system_id":"levelo_inurba_marseille","lat":43.283998,"lon":5.375062,"is_reserved":false,"is_disabled":false,"rental_uris":{"android":"levelo://app?vid=7c098611-d141-4558-be75-3f4db465ee95","ios":"levelo://app?vid=7c098611-d141-4558-be75-3f4db465ee95"},"vehicle_type_id":"4","last_reported":1718402896,"current_range_meters":9200,"station_id":"ce4bh412rcd13ifvqds0","pricing_plan_id":"cebpf4jnsgd1na2vs0mg"},{"bike_id":"910722e7-5386-43d1-b221-750651c640e1","system_id":"levelo_inurba_marseille","lat":43.283998,"lon":5.375062,"is_reserved":false,"is_disabled":false,"rental_uris":{"android":"levelo://app?vid=910722e7-5386-43d1-b221-750651c640e1","ios":"levelo://app?vid=910722e7-5386-43d1-b221-750651c640e1"},"vehicle_type_id":"4","last_reported":1718402896,"current_range_meters":9200,"station_id":"ce4bh412rcd13ifvqds0","pricing_plan_id":"cebpf4jnsgd1na2vs0mg"},{"bike_id":"23a1fb10-2a3a-42a7-b811-ba6128036c9d","system_id":"levelo_inurba_marseille","lat":43.295713,"lon":5.399639,"is_reserved":false,"is_disabled":false,"rental_uris":{"android":"levelo://app?vid=23a1fb10-2a3a-42a7-b811-ba6128036c9d","ios":"levelo://app?vid=23a1fb10-2a3a-42a7-b811-ba6128036c9d"},"vehicle_type_id":"4","last_reported":1718402896,"current_range_meters":13200,"station_id":"ce4bh312rcd13ifvqdj0","pricing_plan_id":"cebpf4jnsgd1na2vs0mg"},{"bike_id":"f9ee0a58-431d-49bd-94d7-dcac5cde4005","system_id":"levelo_inurba_marseille","lat":43.283998,"lon":5.375062,"is_reserved":false,"is_disabled":false,"rental_uris":{"android":"levelo://app?vid=f9ee0a58-431d-49bd-94d7-dcac5cde4005","ios":"levelo://app?vid=f9ee0a58-431d-49bd-94d7-dcac5cde4005"},"vehicle_type_id":"4","last_reported":1718402896,"current_range_meters":2400,"station_id":"ce4bh412rcd13ifvqds0","pricing_plan_id":"cebpf4jnsgd1na2vs0mg"},{"bike_id":"8a70baf9-ae2e-42ce-a989-d21ef2a8d020","system_id":"levelo_inurba_marseille","lat":43.28403,"lon":5.37512,"is_reserved":false,"is_disabled":false,"rental_uris":{"android":"levelo://app?vid=8a70baf9-ae2e-42ce-a989-d21ef2a8d020","ios":"levelo://app?vid=8a70baf9-ae2e-42ce-a989-d21ef2a8d020"},"vehicle_type_id":"4","last_reported":1718402896,"current_range_meters":4800,"station_id":"ce4bh412rcd13ifvqds0","pricing_plan_id":"cebpf4jnsgd1na2vs0mg"},{"bike_id":"7df51640-b38e-4fd7-9d28-7d149d08667b","system_id":"levelo_inurba_marseille","lat":43.286595,"lon":5.386795,"is_reserved":false,"is_disabled":false,"rental_uris":{"android":"levelo://app?vid=7df51640-b38e-4fd7-9d28-7d149d08667b","ios":"levelo://app?vid=7df51640-b38e-4fd7-9d28-7d149d08667b"},"vehicle_type_id":"4","last_reported":1718402896,"current_range_meters":0,"station_id":"ce4bh492rcd13ifvqdug","pricing_plan_id":"cebpf4jnsgd1na2vs0mg"},{"bike_id":"e229690f-a312-45ef-b429-442417c9cbc8","system_id":"levelo_inurba_marseille","lat":43.319179,"lon":5.407725,"is_reserved":false,"is_disabled":false,"rental_uris":{"android":"levelo://app?vid=e229690f-a312-45ef-b429-442417c9cbc8","ios":"levelo://app?vid=e229690f-a312-45ef-b429-442417c9cbc8"},"vehicle_type_id":"4","last_reported":1718402896,"current_range_meters":12400,"station_id":"ce4bhq12rcd13ifvqhig","pricing_plan_id":"cebpf4jnsgd1na2vs0mg"},{"bike_id":"9de4bb4b-fb5a-474a-bb82-2b35c2b2df4e","system_id":"levelo_inurba_marseille","lat":43.286595,"lon":5.386795,"is_reserved":false,"is_disabled":false,"rental_uris":{"android":"levelo://app?vid=9de4bb4b-fb5a-474a-bb82-2b35c2b2df4e","ios":"levelo://app?vid=9de4bb4b-fb5a-474a-bb82-2b35c2b2df4e"},"vehicle_type_id":"4","last_reported":1718402896,"current_range_meters":24800,"station_id":"ce4bh492rcd13ifvqdug","pricing_plan_id":"cebpf4jnsgd1na2vs0mg"},{"bike_id":"482fb190-a0e4-4137-bcfc-cfc1a49c624d","system_id":"levelo_inurba_marseille","lat":43.286595,"lon":5.386795,"is_reserved":false,"is_disabled":false,"rental_uris":{"android":"levelo://app?vid=482fb190-a0e4-4137-bcfc-cfc1a49c624d","ios":"levelo://app?vid=482fb190-a0e4-4137-bcfc-cfc1a49c624d"},"vehicle_type_id":"4","last_reported":1718402896,"current_range_meters":2400,"station_id":"ce4bh492rcd13ifvqdug","pricing_plan_id":"cebpf4jnsgd1na2vs0mg"},